{"last_updated":1737097683,"ttl":60,"version":"2.2","data":{"bikes":[{"bike_id":"9a3f5120-ef01-4c2d-9d7b-9c0df91f7c26","system_id":"levelo_inurba_marseille","lat":43.28716,"lon":5.37931,"is_reserved":false,"is_disabled":false,"rental_uris":{"android":"levelo://app?vid=9a3f5120-ef01-4c2d-9d7b-9c0df91f7c26","ios":"levelo://app?vid=9a3f5120-ef01-4c2d-9d7b-9c0df91f7c26"},"vehicle_type_id":"4","last_reported":1737097683,"current_range_meters":36000,"station_id":"ce4bh9p2rcd13ifvqec0","pricing_plan_id":"cebpf4jnsgd1na2vs0mg"},{"bike_id":"fbba789f-860c-4d62-8452-c64ff2ef0dd3","system_id":"levelo_inurba_marseille","lat":43.25131,"lon":5.40308,"is_reserved":false,"is_disabled":false,"rental_uris":{"android":"levelo://app?vid=fbba789f-860c-4d62-8452-c64ff2ef0dd3","ios":"levelo://app?vid=fbba789f-860c-4d62-8452-c64ff2ef0dd3"},"vehicle_type_id":"4","last_reported":1737097683,"current_range_meters":38800,"station_id":"ce4bhlh2rcd13ifvqgig","pricing_plan_id":"cebpf4jnsgd1na2vs0mg"},{"bike_id":"eadd668d-6b3e-4e5c-a588-a2610c11c537","system_id":"levelo_inurba_marseille","lat":43.2816,"lon":5.42636,"is_reserved":false,"is_disabled":false,"rental_uris":{"android":"levelo://app?vid=eadd668d-6b3e-4e5c-a588-a2610c11c537","ios":"levelo://app?vid=eadd668d-6b3e-4e5c-a588-a2610c11c537"},"vehicle_type_id":"4","last_reported":1737097683,"current_range_meters":14400,"station_id":"ce4bhnh2rcd13ifvqgug","pricing_plan_id":"cebpf4jnsgd1na2vs0mg"},{"bike_id":"a39c946b-f215-435b-b58f-d6dc4c7b0aaf","system_id":"levelo_inurba_marseille","lat":43.28154,"lon":5.42644,"is_reserved":false,"is_disabled":true,"rental_uris":{"android":"levelo://app?vid=a39c946b-f215-435b-b58f-d6dc4c7b0aaf","ios":"levelo://app?vid=a39c946b-f215-435b-b58f-d6dc4c7b0aaf"},"vehicle_type_id":"4","last_reported":1737097683,"current_range_meters":35600,"station_id":"ce4bhnh2rcd13ifvqgug","pricing_plan_id":"cebpf4jnsgd1na2vs0mg"},{"bike_id":"f920b982-cf2b-4f22-a8e5-d4ce681958df","system_id":"levelo_inurba_marseille","lat":43.297996,"lon":5.404123,"is_reserved":false,"is_disabled":false,"rental_uris":{"android":"levelo://app?vid=f920b982-cf2b-4f22-a8e5-d4ce681958df","ios":"levelo://app?vid=f920b982-cf2b-4f22-a8e5-d4ce681958df"},"vehicle_type_id":"4","last_reported":1737097683,"current_range_meters":39200,"station_id":"ce4bh112rcd13ifvqd90","pricing_plan_id":"cebpf4jnsgd1na2vs0mg"},{"bike_id":"cf73431b-19ba-41e6-9179-b2b3aeb65f03","system_id":"levelo_inurba_marseille","lat":43.29607,"lon":5.38104,"is_reserved":false,"is_disabled":false,"rental_uris":{"android":"levelo://app?vid=cf73431b-19ba-41e6-9179-b2b3aeb65f03","ios":"levelo://app?vid=cf73431b-19ba-41e6-9179-b2b3aeb65f03"},"vehicle_type_id":"4","last_reported":1737097683,"current_range_meters":30400,"station_id":"ce4bgl12rcd13ifvqbo0","pricing_plan_id":"cebpf4jnsgd1na2vs0mg"},{"bike_id":"5756557f-d524-4c5a-8f29-291d01811e0e","system_id":"levelo_inurba_marseille","lat":43.28502,"lon":5.38569,"is_reserved":false,"is_disabled":false,"rental_uris":{"android":"levelo://app?vid=5756557f-d524-4c5a-8f29-291d01811e0e","ios":"levelo://app?vid=5756557f-d524-4c5a-8f29-291d01811e0e"},"vehicle_type_id":"4","last_reported":1737097683,"current_range_meters":38800,"station_id":"ce4bh8p2rcd13ifvqeb0","pricing_plan_id":"cebpf4jnsgd1na2vs0mg"},{"bike_id":"62c1f688-62b0-4eea-a27f-c16929d2816e","system_id":"levelo_inurba_marseille","lat":43.28721,"lon":5.3794,"is_reserved":false,"is_disabled":true,"rental_uris":{"android":"levelo://app?vid=62c1f688-62b0-4eea-a27f-c16929d2816e","ios":"levelo://app?vid=62c1f688-62b0-4eea-a27f-c16929d2816e"},"vehicle_type_id":"4","last_reported":1737097683,"current_range_meters":0,"station_id":"ce4bh9p2rcd13ifvqec0","pricing_plan_id":"cebpf4jnsgd1na2vs0mg"},{"bike_id":"25b01166-8b4c-49d6-8386-8f83eb8111f5","system_id":"levelo_inurba_marseille","lat":43.25826,"lon":5.39423,"is_reserved":false,"is_disabled":false,"rental_uris":{"android":"levelo://app?vid=25b01166-8b4c-49d6-8386-8f83eb8111f5","ios":"levelo://app?vid=25b01166-8b4c-49d6-8386-8f83eb8111f5"},"vehicle_type_id":"4","last_reported":1737097683,"current_range_meters":38800,"station_id":"ce4bhip2rcd13ifvqft0","pricing_plan_id":"cebpf4jnsgd1na2vs0mg"},{"bike_id":"8c5e0a5d-35be-4e1e-a55d-e41acd54cf77","system_id":"levelo_inurba_marseille","lat":43.24073,"lon":5.37757,"is_reserved":false,"is_disabled":false,"rental_uris":{"android":"levelo://app?vid=8c5e0a5d-35be-4e1e-a55d-e41acd54cf77","ios":"levelo://app?vid=8c5e0a5d-35be-4e1e-a55d-e41acd54cf77"},"vehicle_type_id":"4","last_reported":1737097683,"current_range_meters":25200,"station_id":"ce4bhnp2rcd13ifvqgvg","pricing_plan_id":"cebpf4jnsgd1na2vs0mg"},{"bike_id":"044de657-125b-44b9-a9ca-b96ab86f3594","system_id":"levelo_inurba_marseille","lat":43.27564,"lon":5.38398,"is_reserved":false,"is_disabled":false,"rental_uris":{"android":"levelo://app?vid=044de657-125b-44b9-a9ca-b96ab86f3594","ios":"levelo://app?vid=044de657-125b-44b9-a9ca-b96ab86f3594"},"vehicle_type_id":"4","last_reported":1737097683,"current_range_meters":36400,"station_id":"ce4bhh92rcd13ifvqfi0","pricing_plan_id":"cebpf4jnsgd1na2vs0mg"},{"bike_id":"ec628bb1-7486-496e-9453-1f0ffdb389fc","system_id":"levelo_inurba_marseille","lat":43.26952,"lon":5.38625,"is_reserved":false,"is_disabled":false,"rental_uris":{"android":"levelo://app?vid=ec628bb1-7486-496e-9453-1f0ffdb389fc","ios":"levelo://app?vid=ec628bb1-7486-496e-9453-1f0ffdb389fc"},"vehicle_type_id":"4","last_reported":1737097683,"current_range_meters":18000,"station_id":"ce4bhh92rcd13ifvqfh0","pricing_plan_id":"cebpf4jnsgd1na2vs0mg"},{"bike_id":"2bf65692-cbc9-4581-916b-1c0b607a4dbb","system_id":"levelo_inurba_marseille","lat":43.284308,"lon":5.392009,"is_reserved":false,"is_disabled":false,"rental_uris":{"android":"levelo://app?vid=2bf65692-cbc9-4581-916b-1c0b607a4dbb","ios":"levelo://app?vid=2bf65692-cbc9-4581-916b-1c0b607a4dbb"},"vehicle_type_id":"4","last_reported":1737097683,"current_range_meters":24800,"station_id":"ce4bhoh2rcd13ifvqh5g","pricing_plan_id":"cebpf4jnsgd1na2vs0mg"},{"bike_id":"8800286a-027a-4841-87ae-71bd90fd9e19","system_id":"levelo_inurba_marseille","lat":43.286631,"lon":5.363512,"is_reserved":false,"is_disabled":false,"rental_uris":{"android":"levelo://app?vid=8800286a-027a-4841-87ae-71bd90fd9e19","ios":"levelo://app?vid=8800286a-027a-4841-87ae-71bd90fd9e19"},"vehicle_type_id":"4","last_reported":1737097683,"current_range_meters":39200,"station_id":"ce4bhah2rcd13ifvqej0","pricing_plan_id":"cebpf4jnsgd1na2vs0mg"},{"bike_id":"7f02950a-6af8-4077-8bd4-f17cb739a40e","system_id":"levelo_inurba_marseille","lat":43.27067,"lon":5.42262,"is_reserved":false,"is_disabled":false,"rental_uris":{"android":"levelo://app?vid=7f02950a-6af8-4077-8bd4-f17cb739a40e","ios":"levelo://app?vid=7f02950a-6af8-4077-8bd4-f17cb739a40e"},"vehicle_type_id":"4","last_reported":1737097683,"current_range_meters":17200,"station_id":"ce4bhk92rcd13ifvqgb0","pricing_plan_id":"cebpf4jnsgd1na2vs0mg"},{"bike_id":"718b07eb-688a-4df3-bacc-bf20940de13c","system_id":"levelo_inurba_marseille","lat":43.31526,"lon":5.38035,"is_reserved":false,"is_disabled":false,"rental_uris":{"android":"levelo://app?vid=718b07eb-688a-4df3-bacc-bf20940de13c","ios":"levelo://app?vid=718b07eb-688a-4df3-bacc-bf20940de13c"},"vehicle_type_id":"4","last_reported":1737097683,"current_range_meters":38800,"station_id":"ce4bhsp2rcd13ifvqi50","pricing_plan_id":"cebpf4jnsgd1na2vs0mg"},{"bike_id":"a920ddac-3c1b-47f2-a8b1-da6f51ba3922","system_id":"levelo_inurba_marseille","lat":43.28617,"lon":5.35105,"is_reserved":false,"is_disabled":false,"rental_uris":{"android":"levelo://app?vid=a920ddac-3c1b-47f2-a8b1-da6f51ba3922","ios":"levelo://app?vid=a920ddac-3c1b-47f2-a8b1-da6f51ba3922"},"vehicle_type_id":"4","last_reported":1737097683,"current_range_meters":4800,"station_id":"ce4bhch2rcd13ifvqeug","pricing_plan_id":"cebpf4jnsgd1na2vs0mg"},{"bike_id":"3d185cbb-9607-49c8-8599-158a79075907","system_id":"levelo_inurba_marseille","lat":43.28356,"lon":5.38094,"is_reserved":false,"is_disabled":false,"rental_uris":{"android":"levelo://app?vid=3d185cbb-9607-49c8-8599-158a79075907","ios":"levelo://app?vid=3d185cbb-9607-49c8-8599-158a79075907"},"vehicle_type_id":"4","last_reported":1737097683,"current_range_meters":28000,"station_id":"ce4bh412rcd13ifvqdr0","pricing_plan_id":"cebpf4jnsgd1na2vs0mg"},{"bike_id":"aa1c2cd9-ddaa-4aee-8c47-810e68694606","system_id":"levelo_inurba_marseille","lat":43.317029,"lon":5.377836,"is_reserved":false,"is_disabled":false,"rental_uris":{"android":"levelo://app?vid=aa1c2cd9-ddaa-4aee-8c47-810e68694606","ios":"levelo://app?vid=aa1c2cd9-ddaa-4aee-8c47-810e68694606"},"vehicle_type_id":"4","last_reported":1737097683,"current_range_meters":20800,"station_id":"ce4bgth2rcd13ifvqch0","pricing_plan_id":"cebpf4jnsgd1na2vs0mg"},{"bike_id":"bd749ba9-2bba-4ac2-9f7e-6d69becd04ee","system_id":"levelo_inurba_marseille","lat":43.30152,"lon":5.38799,"is_reserved":false,"is_disabled":false,"rental_uris":{"android":"levelo://app?vid=bd749ba9-2bba-4ac2-9f7e-6d69becd04ee","ios":"levelo://app?vid=bd749ba9-2bba-4ac2-9f7e-6d69becd04ee"},"vehicle_type_id":"4","last_reported":1737097683,"current_range_meters":38800,"station_id":"ce4bhoh2rcd13ifvqh6g","pricing_plan_id":"cebpf4jnsgd1na2vs0mg"},{"bike_id":"94436272-347b-472b-8d27-53e5554457e3","system_id":"levelo_inurba_marseille","lat":43.27206,"lon":5.39201,"is_reserved":false,"is_disabled":false,"rental_uris":{"android":"levelo://app?vid=94436272-347b-472b-8d27-53e5554457e3","ios":"levelo://app?vid=94436272-347b-472b-8d27-53e5554457e3"},"vehicle_type_id":"4","last_reported":1737097683,"current_range_meters":38800,"station_id":"ce4bhhp2rcd13ifvqfm0","pricing_plan_id":"cebpf4jnsgd1na2vs0mg"},{"bike_id":"c4fc9679-1008-473b-9e9b-26f1ed62312e","system_id":"levelo_inurba_marseille","lat":43.2294,"lon":5.35373,"is_reserved":false,"is_disabled":false,"rental_uris":{"android":"levelo://app?vid=c4fc9679-1008-473b-9e9b-26f1ed62312e","ios":"levelo://app?vid=c4fc9679-1008-473b-9e9b-26f1ed62312e"},"vehicle_type_id":"4","last_reported":1737097683,"current_range_meters":19200,"station_id":"cpo3532slgdg3j2ikp40","pricing_plan_id":"cebpf4jnsgd1na2vs0mg"},{"bike_id":"87911755-e5ea-4b1c-85d9-7185179f27cb","system_id":"levelo_inurba_marseille","lat":43.28472,"lon":5.38382,"is_reserved":false,"is_disabled":false,"rental_uris":{"android":"levelo://app?vid=87911755-e5ea-4b1c-85d9-7185179f27cb","ios":"levelo://app?vid=87911755-e5ea-4b1c-85d9-7185179f27cb"},"vehicle_type_id":"4","last_reported":1737097683,"current_range_meters":38800,"station_id":"ce4bh512rcd13ifvqe3g","pricing_plan_id":"cebpf4jnsgd1na2vs0mg"},{"bike_id":"796e8ee2-7ead-4a40-ba65-04ad77916ddd","system_id":"levelo_inurba_marseille","lat":43.2414,"lon":5.37361,"is_reserved":false,"is_disabled":false,"rental_uris":{"android":"levelo://app?vid=796e8ee2-7ead-4a40-ba65-04ad77916ddd","ios":"levelo://app?vid=796e8ee2-7ead-4a40-ba65-04ad77916ddd"},"vehicle_type_id":"4","last_reported":1737097683,"current_range_meters":30400,"station_id":"","pricing_plan_id":"cebpf4jnsgd1na2vs0mg"},{"bike_id":"d2a859b8-3f91-4b5b-89f4-40a6a11a76b6","system_id":"levelo_inurba_marseille","lat":43.24073,"lon":5.37753,"is_reserved":false,"is_disabled":false,"rental_uris":{"android":"levelo://app?vid=d2a859b8-3f91-4b5b-89f4-40a6a11a76b6","ios":"levelo://app?vid=d2a859b8-3f91-4b5b-89f4-40a6a11a76b6"},"vehicle_type_id":"4","last_reported":1737097683,"current_range_meters":3200,"station_id":"ce4bhnp2rcd13ifvqgvg","pricing_plan_id":"cebpf4jnsgd1na2vs0mg"},{"bike_id":"02d57b27-63b4-40a8-801a-daad74368e5a","system_id":"levelo_inurba_marseille","lat":43.28711,"lon":5.37385,"is_reserved":false,"is_disabled":false,"rental_uris":{"android":"levelo://app?vid=02d57b27-63b4-40a8-801a-daad74368e5a","ios":"levelo://app?vid=02d57b27-63b4-40a8-801a-daad74368e5a"},"vehicle_type_id":"4","last_reported":1737097683,"current_range_meters":35200,"station_id":"ce4bh3p2rcd13ifvqdq0","pricing_plan_id":"cebpf4jnsgd1na2vs0mg"},{"bike_id":"8bd42679-89ae-449f-a431-540f69db347a","system_id":"levelo_inurba_marseille","lat":43.30462,"lon":5.37898,"is_reserved":false,"is_disabled":true,"rental_uris":{"android":"levelo://app?vid=8bd42679-89ae-449f-a431-540f69db347a","ios":"levelo://app?vid=8bd42679-89ae-449f-a431-540f69db347a"},"vehicle_type_id":"4","last_reported":1737097683,"current_range_meters":1600,"station_id":"ce4bgup2rcd13ifvqcn0","pricing_plan_id":"cebpf4jnsgd1na2vs0mg"},{"bike_id":"99edffd1-a5ba-4759-befa-f12a00faec89","system_id":"levelo_inurba_marseille","lat":43.285606,"lon":5.394953,"is_reserved":false,"is_disabled":true,"rental_uris":{"android":"levelo://app?vid=99edffd1-a5ba-4759-befa-f12a00faec89","ios":"levelo://app?vid=99edffd1-a5ba-4759-befa-f12a00faec89"},"vehicle_type_id":"4","last_reported":1737097683,"current_range_meters":10800,"station_id":"ce4bh292rcd13ifvqdg0","pricing_plan_id":"cebpf4jnsgd1na2vs0mg"},{"bike_id":"7bff6b70-c347-452a-86fc-ce3998f9f599","system_id":"levelo_inurba_marseille","lat":43.24083,"lon":5.37751,"is_reserved":false,"is_disabled":false,"rental_uris":{"android":"levelo://app?vid=7bff6b70-c347-452a-86fc-ce3998f9f599","ios":"levelo://app?vid=7bff6b70-c347-452a-86fc-ce3998f9f599"},"vehicle_type_id":"4","last_reported":1737097683,"current_range_meters":10800,"station_id":"ce4bhnp2rcd13ifvqgvg","pricing_plan_id":"cebpf4jnsgd1na2vs0mg"},{"bike_id":"240793b7-2334-47eb-b07b-36073cab0422","system_id":"levelo_inurba_marseille","lat":43.23189,"lon":5.39968,"is_reserved":false,"is_disabled":false,"rental_uris":{"android":"levelo://app?vid=240793b7-2334-47eb-b07b-36073cab0422","ios":"levelo://app?vid=240793b7-2334-47eb-b07b-36073cab0422"},"vehicle_type_id":"4","last_reported":1737097683,"current_range_meters":38800,"station_id":"ce4bhn12rcd13ifvqgqg","pricing_plan_id":"cebpf4jnsgd1na2vs0mg"},{"bike_id":"4c95b24d-5e81-4bcc-9c3f-8e13fb6505af","system_id":"levelo_inurba_marseille","lat":43.27307,"lon":5.3995,"is_reserved":false,"is_disabled":false,"rental_uris":{"android":"levelo://app?vid=4c95b24d-5e81-4bcc-9c3f-8e13fb6505af","ios":"levelo://app?vid=4c95b24d-5e81-4bcc-9c3f-8e13fb6505af"},"vehicle_type_id":"4","last_reported":1737097683,"current_range_meters":36800,"station_id":"","pricing_plan_id":"cebpf4jnsgd1na2vs0mg"},{"bike_id":"c4a61de4-0e4e-498a-b0d4-cfbce4fe163e","system_id":"levelo_inurba_marseille","lat":43.27689,"lon":5.38873,"is_reserved":false,"is_disabled":false,"rental_uris":{"android":"levelo://app?vid=c4a61de4-0e4e-498a-b0d4-cfbce4fe163e","ios":"levelo://app?vid=c4a61de4-0e4e-498a-b0d4-cfbce4fe163e"},"vehicle_type_id":"4","last_reported":1737097683,"current_range_meters":28000,"station_id":"ce4bhi12rcd13ifvqfo0","pricing_plan_id":"cebpf4jnsgd1na2vs0mg"},{"bike_id":"a262b8c3-1be1-4041-a54a-9049b3ba3668","system_id":"levelo_inurba_marseille","lat":43.28725,"lon":5.36083,"is_reserved":false,"is_disabled":false,"rental_uris":{"android":"levelo://app?vid=a262b8c3-1be1-4041-a54a-9049b3ba3668","ios":"levelo://app?vid=a262b8c3-1be1-4041-a54a-9049b3ba3668"},"vehicle_type_id":"4","last_reported":1737097683,"current_range_meters":38800,"station_id":"cki0cbj6b192h4jlfktg","pricing_plan_id":"cebpf4jnsgd1na2vs0mg"},{"bike_id":"8240d19d-0738-4c35-b97a-8d2f95fb533d","system_id":"levelo_inurba_marseille","lat":43.27623,"lon":5.36107,"is_reserved":false,"is_disabled":false,"rental_uris":{"android":"levelo://app?vid=8240d19d-0738-4c35-b97a-8d2f95fb533d","ios":"levelo://app?vid=8240d19d-0738-4c35-b97a-8d2f95fb533d"},"vehicle_type_id":"4","last_reported":1737097683,"current_range_meters":38800,"station_id":"ce4bgj92rcd13ifvqbe0","pricing_plan_id":"cebpf4jnsgd1na2vs0mg"},{"bike_id":"a8513bfd-4fd3-4342-a553-667ab2f2734a","system_id":"levelo_inurba_marseille","lat":43.314844,"lon":5.372975,"is_reserved":false,"is_disabled":false,"rental_uris":{"android":"levelo://app?vid=a8513bfd-4fd3-4342-a553-667ab2f2734a","ios":"levelo://app?vid=a8513bfd-4fd3-4342-a553-667ab2f2734a"},"vehicle_type_id":"4","last_reported":1737097683,"current_range_meters":30000,"station_id":"ce4bgt12rcd13ifvqcd0","pricing_plan_id":"cebpf4jnsgd1na2vs0mg"},{"bike_id":"70199fc2-df6a-4ec4-910c-a63d7bb31e5e","system_id":"levelo_inurba_marseille","lat":43.29181,"lon":5.35792,"is_reserved":false,"is_disabled":false,"rental_uris":{"android":"levelo://app?vid=70199fc2-df6a-4ec4-910c-a63d7bb31e5e","ios":"levelo://app?vid=70199fc2-df6a-4ec4-910c-a63d7bb31e5e"},"vehicle_type_id":"4","last_reported":1737097683,"current_range_meters":38800,"station_id":"ce4bhb12rcd13ifvqel0","pricing_plan_id":"cebpf4jnsgd1na2vs0mg"},{"bike_id":"7edfd060-522f-4e8d-bd3c-29a71f6f685e","system_id":"levelo_inurba_marseille","lat":43.27569,"lon":5.38403,"is_reserved":false,"is_disabled":false,"rental_uris":{"android":"levelo://app?vid=7edfd060-522f-4e8d-bd3c-29a71f6f685e","ios":"levelo://app?vid=7edfd060-522f-4e8d-bd3c-29a71f6f685e"},"vehicle_type_id":"4","last_reported":1737097683,"current_range_meters":38400,"station_id":"ce4bhh92rcd13ifvqfi0","pricing_plan_id":"cebpf4jnsgd1na2vs0mg"},{"bike_id":"66ec8711-3dbc-48f7-b091-25773ac6b77c","system_id":"levelo_inurba_marseille","lat":43.28151,"lon":5.44191,"is_reserved":false,"is_disabled":true,"rental_uris":{"android":"levelo://app?vid=66ec8711-3dbc-48f7-b091-25773ac6b77c","ios":"levelo://app?vid=66ec8711-3dbc-48f7-b091-25773ac6b77c"},"vehicle_type_id":"4","last_reported":1737097683,"current_range_meters":0,"station_id":"","pricing_plan_id":"cebpf4jnsgd1na2vs0mg"},{"bike_id":"8e6b34b1-09d8-4268-a365-e43071a71869","system_id":"levelo_inurba_marseille","lat":43.27494,"lon":5.4245,"is_reserved":false,"is_disabled":true,"rental_uris":{"android":"levelo://app?vid=8e6b34b1-09d8-4268-a365-e43071a71869","ios":"levelo://app?vid=8e6b34b1-09d8-4268-a365-e43071a71869"},"vehicle_type_id":"4","last_reported":1737097683,"current_range_meters":0,"station_id":"ce4bhn92rcd13ifvqgrg","pricing_plan_id":"cebpf4jnsgd1na2vs0mg"},{"bike_id":"85b17b88-0932-436f-a3cd-d6633f9898b6","system_id":"levelo_inurba_marseille","lat":43.23192,"lon":5.39975,"is_reserved":false,"is_disabled":false,"rental_uris":{"android":"levelo://app?vid=85b17b88-0932-436f-a3cd-d6633f9898b6","ios":"levelo://app?vid=85b17b88-0932-436f-a3cd-d6633f9898b6"},"vehicle_type_id":"4","last_reported":1737097683,"current_range_meters":38800,"station_id":"ce4bhn12rcd13ifvqgqg","pricing_plan_id":"cebpf4jnsgd1na2vs0mg"},{"bike_id":"50692c1e-5037-4ae8-9c4a-b99b4adb247b","system_id":"levelo_inurba_marseille","lat":43.30152,"lon":5.38065,"is_reserved":false,"is_disabled":false,"rental_uris":{"android":"levelo://app?vid=50692c1e-5037-4ae8-9c4a-b99b4adb247b","ios":"levelo://app?vid=50692c1e-5037-4ae8-9c4a-b99b4adb247b"},"vehicle_type_id":"4","last_reported":1737097683,"current_range_meters":33600,"station_id":"ce4bgjp2rcd13ifvqbh0","pricing_plan_id":"cebpf4jnsgd1na2vs0mg"},{"bike_id":"7ee992e0-93b5-4e29-85a4-fc8532af4206","system_id":"levelo_inurba_marseille","lat":43.26944,"lon":5.3865,"is_reserved":false,"is_disabled":false,"rental_uris":{"android":"levelo://app?vid=7ee992e0-93b5-4e29-85a4-fc8532af4206","ios":"levelo://app?vid=7ee992e0-93b5-4e29-85a4-fc8532af4206"},"vehicle_type_id":"4","last_reported":1737097683,"current_range_meters":36800,"station_id":"ce4bhh92rcd13ifvqfh0","pricing_plan_id":"cebpf4jnsgd1na2vs0mg"},{"bike_id":"09d51a14-46a9-4268-9e5f-24188260f5a5","system_id":"levelo_inurba_marseille","lat":43.31089,"lon":5.38344,"is_reserved":false,"is_disabled":false,"rental_uris":{"android":"levelo://app?vid=09d51a14-46a9-4268-9e5f-24188260f5a5","ios":"levelo://app?vid=09d51a14-46a9-4268-9e5f-24188260f5a5"},"vehicle_type_id":"4","last_reported":1737097683,"current_range_meters":32000,"station_id":"ce4bgv92rcd13ifvqcr0","pricing_plan_id":"cebpf4jnsgd1na2vs0mg"},{"bike_id":"a081f130-2639-43c2-92eb-70e044a75aa7","system_id":"levelo_inurba_marseille","lat":43.31465,"lon":5.3729,"is_reserved":false,"is_disabled":false,"rental_uris":{"android":"levelo://app?vid=a081f130-2639-43c2-92eb-70e044a75aa7","ios":"levelo://app?vid=a081f130-2639-43c2-92eb-70e044a75aa7"},"vehicle_type_id":"4","last_reported":1737097683,"current_range_meters":36800,"station_id":"ce4bgt12rcd13ifvqcd0","pricing_plan_id":"cebpf4jnsgd1na2vs0mg"},{"bike_id":"0321cd6b-aaff-46d7-aacd-a1fa403e5c50","system_id":"levelo_inurba_marseille","lat":43.33108,"lon":5.38211,"is_reserved":false,"is_disabled":false,"rental_uris":{"android":"levelo://app?vid=0321cd6b-aaff-46d7-aacd-a1fa403e5c50","ios":"levelo://app?vid=0321cd6b-aaff-46d7-aacd-a1fa403e5c50"},"vehicle_type_id":"4","last_reported":1737097683,"current_range_meters":2800,"station_id":"","pricing_plan_id":"cebpf4jnsgd1na2vs0mg"},{"bike_id":"1a6e0476-6cf1-437f-9f4f-5a9c12a27310","system_id":"levelo_inurba_marseille","lat":43.29804,"lon":5.38087,"is_reserved":false,"is_disabled":false,"rental_uris":{"android":"levelo://app?vid=1a6e0476-6cf1-437f-9f4f-5a9c12a27310","ios":"levelo://app?vid=1a6e0476-6cf1-437f-9f4f-5a9c12a27310"},"vehicle_type_id":"4","last_reported":1737097683,"current_range_meters":30400,"station_id":"ce4bgip2rcd13ifvqbb0","pricing_plan_id":"cebpf4jnsgd1na2vs0mg"},{"bike_id":"87707ecc-a555-4041-b4c9-046040370b07","system_id":"levelo_inurba_marseille","lat":43.319911,"lon":5.381481,"is_reserved":false,"is_disabled":false,"rental_uris":{"android":"levelo://app?vid=87707ecc-a555-4041-b4c9-046040370b07","ios":"levelo://app?vid=87707ecc-a555-4041-b4c9-046040370b07"},"vehicle_type_id":"4","last_reported":1737097683,"current_range_meters":38400,"station_id":"ce4bhr12rcd13ifvqhpg","pricing_plan_id":"cebpf4jnsgd1na2vs0mg"},{"bike_id":"c97137fa-b17d-4d29-bc3b-fb583ac13e6c","system_id":"levelo_inurba_marseille","lat":43.29274,"lon":5.40113,"is_reserved":false,"is_disabled":false,"rental_uris":{"android":"levelo://app?vid=c97137fa-b17d-4d29-bc3b-fb583ac13e6c","ios":"levelo://app?vid=c97137fa-b17d-4d29-bc3b-fb583ac13e6c"},"vehicle_type_id":"4","last_reported":1737097683,"current_range_meters":32400,"station_id":"ce4bh312rcd13ifvqdk0","pricing_plan_id":"cebpf4jnsgd1na2vs0mg"},{"bike_id":"f49bbacb-e58b-4943-bbd1-f99a8960938f","system_id":"levelo_inurba_marseille","lat":43.2407,"lon":5.3776,"is_reserved":false,"is_disabled":false,"rental_uris":{"android":"levelo://app?vid=f49bbacb-e58b-4943-bbd1-f99a8960938f","ios":"levelo://app?vid=f49bbacb-e58b-4943-bbd1-f99a8960938f"},"vehicle_type_id":"4","last_reported":1737097683,"current_range_meters":15200,"station_id":"ce4bhnp2rcd13ifvqgvg","pricing_plan_id":"cebpf4jnsgd1na2vs0mg"},{"bike_id":"4d21a537-3816-432c-8aec-6acfffac2e27","system_id":"levelo_inurba_marseille","lat":43.31883,"lon":5.40728,"is_reserved":false,"is_disabled":false,"rental_uris":{"android":"levelo://app?vid=4d21a537-3816-432c-8aec-6acfffac2e27","ios":"levelo://app?vid=4d21a537-3816-432c-8aec-6acfffac2e27"},"vehicle_type_id":"4","last_reported":1737097683,"current_range_meters":36800,"station_id":"ce4bhq12rcd13ifvqhig","pricing_plan_id":"cebpf4jnsgd1na2vs0mg"},{"bike_id":"e6bc1741-36d9-44de-83fb-05dadc8f1cb4","system_id":"levelo_inurba_marseille","lat":43.29805,"lon":5.38071,"is_reserved":false,"is_disabled":false,"rental_uris":{"android":"levelo://app?vid=e6bc1741-36d9-44de-83fb-05dadc8f1cb4","ios":"levelo://app?vid=e6bc1741-36d9-44de-83fb-05dadc8f1cb4"},"vehicle_type_id":"4","last_reported":1737097683,"current_range_meters":39200,"station_id":"ce4bgip2rcd13ifvqbb0","pricing_plan_id":"cebpf4jnsgd1na2vs0mg"},{"bike_id":"fa53afd0-c3c0-46c2-be7e-d056eb14f6b8","system_id":"levelo_inurba_marseille","lat":43.2605,"lon":5.39377,"is_reserved":false,"is_disabled":false,"rental_uris":{"android":"levelo://app?vid=fa53afd0-c3c0-46c2-be7e-d056eb14f6b8","ios":"levelo://app?vid=fa53afd0-c3c0-46c2-be7e-d056eb14f6b8"},"vehicle_type_id":"4","last_reported":1737097683,"current_range_meters":36800,"station_id":"ce4bhh92rcd13ifvqfj0","pricing_plan_id":"cebpf4jnsgd1na2vs0mg"},{"bike_id":"a47874b2-92b6-4162-9330-775ee9873e24","system_id":"levelo_inurba_marseille","lat":43.32348,"lon":5.40615,"is_reserved":false,"is_disabled":false,"rental_uris":{"android":"levelo://app?vid=a47874b2-92b6-4162-9330-775ee9873e24","ios":"levelo://app?vid=a47874b2-92b6-4162-9330-775ee9873e24"},"vehicle_type_id":"4","last_reported":1737097683,"current_range_meters":16400,"station_id":"ce4bhq92rcd13ifvqhjg","pricing_plan_id":"cebpf4jnsgd1na2vs0mg"},{"bike_id":"594c5043-08cb-49d2-88a0-e6318f0350a1","system_id":"levelo_inurba_marseille","lat":43.302128,"lon":5.39473,"is_reserved":false,"is_disabled":false,"rental_uris":{"android":"levelo://app?vid=594c5043-08cb-49d2-88a0-e6318f0350a1","ios":"levelo://app?vid=594c5043-08cb-49d2-88a0-e6318f0350a1"},"vehicle_type_id":"4","last_reported":1737097683,"current_range_meters":38400,"station_id":"ce4bh0p2rcd13ifvqd70","pricing_plan_id":"cebpf4jnsgd1na2vs0mg"},{"bike_id":"576080a5-de9e-423d-a0bf-5bc9f04f8524","system_id":"levelo_inurba_marseille","lat":43.30593,"lon":5.39352,"is_reserved":false,"is_disabled":false,"rental_uris":{"android":"levelo://app?vid=576080a5-de9e-423d-a0bf-5bc9f04f8524","ios":"levelo://app?vid=576080a5-de9e-423d-a0bf-5bc9f04f8524"},"vehicle_type_id":"4","last_reported":1737097683,"current_range_meters":38800,"station_id":"ce4bh0p2rcd13ifvqd80","pricing_plan_id":"cebpf4jnsgd1na2vs0mg"},{"bike_id":"46ce5eee-7728-4c53-9661-714af7e3c0a3","system_id":"levelo_inurba_marseille","lat":43.28492,"lon":5.38566,"is_reserved":false,"is_disabled":false,"rental_uris":{"android":"levelo://app?vid=46ce5eee-7728-4c53-9661-714af7e3c0a3","ios":"levelo://app?vid=46ce5eee-7728-4c53-9661-714af7e3c0a3"},"vehicle_type_id":"4","last_reported":1737097683,"current_range_meters":10000,"station_id":"ce4bh8p2rcd13ifvqeb0","pricing_plan_id":"cebpf4jnsgd1na2vs0mg"},{"bike_id":"155dbf4b-d6fe-46aa-9097-9994452a5158","system_id":"levelo_inurba_marseille","lat":43.2307,"lon":5.35491,"is_reserved":false,"is_disabled":false,"rental_uris":{"android":"levelo://app?vid=155dbf4b-d6fe-46aa-9097-9994452a5158","ios":"levelo://app?vid=155dbf4b-d6fe-46aa-9097-9994452a5158"},"vehicle_type_id":"4","last_reported":1737097683,"current_range_meters":6800,"station_id":"cpo3342slgdg3j2ifvpg","pricing_plan_id":"cebpf4jnsgd1na2vs0mg"},{"bike_id":"41123b85-678b-4918-b246-56e0f0d1560d","system_id":"levelo_inurba_marseille","lat":43.28356,"lon":5.38095,"is_reserved":false,"is_disabled":false,"rental_uris":{"android":"levelo://app?vid=41123b85-678b-4918-b246-56e0f0d1560d","ios":"levelo://app?vid=41123b85-678b-4918-b246-56e0f0d1560d"},"vehicle_type_id":"4","last_reported":1737097683,"current_range_meters":33200,"station_id":"ce4bh412rcd13ifvqdr0","pricing_plan_id":"cebpf4jnsgd1na2vs0mg"},{"bike_id":"80bc6287-ce2b-4ae4-b9d5-67d3150daa6d","system_id":"levelo_inurba_marseille","lat":43.27173,"lon":5.41,"is_reserved":false,"is_disabled":false,"rental_uris":{"android":"levelo://app?vid=80bc6287-ce2b-4ae4-b9d5-67d3150daa6d","ios":"levelo://app?vid=80bc6287-ce2b-4ae4-b9d5-67d3150daa6d"},"vehicle_type_id":"4","last_reported":1737097683,"current_range_meters":26000,"station_id":"ce4bhl12rcd13ifvqgf0","pricing_plan_id":"cebpf4jnsgd1na2vs0mg"},{"bike_id":"06a2e876-604b-4466-b27d-2e7dee553ec8","system_id":"levelo_inurba_marseille","lat":43.25093,"lon":5.39486,"is_reserved":false,"is_disabled":false,"rental_uris":{"android":"levelo://app?vid=06a2e876-604b-4466-b27d-2e7dee553ec8","ios":"levelo://app?vid=06a2e876-604b-4466-b27d-2e7dee553ec8"},"vehicle_type_id":"4","last_reported":1737097683,"current_range_meters":3600,"station_id":"ce4bhm12rcd13ifvqgkg","pricing_plan_id":"cebpf4jnsgd1na2vs0mg"},{"bike_id":"551b1167-b9ee-4893-9abb-85513e4406c3","system_id":"levelo_inurba_marseille","lat":43.31178,"lon":5.38706,"is_reserved":false,"is_disabled":false,"rental_uris":{"android":"levelo://app?vid=551b1167-b9ee-4893-9abb-85513e4406c3","ios":"levelo://app?vid=551b1167-b9ee-4893-9abb-85513e4406c3"},"vehicle_type_id":"4","last_reported":1737097683,"current_range_meters":38800,"station_id":"ce4bgv12rcd13ifvqcp0","pricing_plan_id":"cebpf4jnsgd1na2vs0mg"},{"bike_id":"2054a077-070b-48a1-99bb-22d4d63645a7","system_id":"levelo_inurba_marseille","lat":43.28854,"lon":5.35855,"is_reserved":false,"is_disabled":false,"rental_uris":{"android":"levelo://app?vid=2054a077-070b-48a1-99bb-22d4d63645a7","ios":"levelo://app?vid=2054a077-070b-48a1-99bb-22d4d63645a7"},"vehicle_type_id":"4","last_reported":1737097683,"current_range_meters":20800,"station_id":"ce4bhb12rcd13ifvqem0","pricing_plan_id":"cebpf4jnsgd1na2vs0mg"},{"bike_id":"ca0daeb3-551a-47db-9568-cfb249748609","system_id":"levelo_inurba_marseille","lat":43.299809,"lon":5.385033,"is_reserved":false,"is_disabled":true,"rental_uris":{"android":"levelo://app?vid=ca0daeb3-551a-47db-9568-cfb249748609","ios":"levelo://app?vid=ca0daeb3-551a-47db-9568-cfb249748609"},"vehicle_type_id":"4","last_reported":1737097683,"current_range_meters":26800,"station_id":"ce4bgj92rcd13ifvqbd0","pricing_plan_id":"cebpf4jnsgd1na2vs0mg"},{"bike_id":"3fe8547f-dca6-4681-8ac6-945cd2f881c5","system_id":"levelo_inurba_marseille","lat":43.29381,"lon":5.39715,"is_reserved":false,"is_disabled":false,"rental_uris":{"android":"levelo://app?vid=3fe8547f-dca6-4681-8ac6-945cd2f881c5","ios":"levelo://app?vid=3fe8547f-dca6-4681-8ac6-945cd2f881c5"},"vehicle_type_id":"4","last_reported":1737097683,"current_range_meters":6400,"station_id":"","pricing_plan_id":"cebpf4jnsgd1na2vs0mg"},{"bike_id":"160c4de7-7f2e-4ddd-89ef-4765ad4546e8","system_id":"levelo_inurba_marseille","lat":43.28999,"lon":5.35607,"is_reserved":false,"is_disabled":false,"rental_uris":{"android":"levelo://app?vid=160c4de7-7f2e-4ddd-89ef-4765ad4546e8","ios":"levelo://app?vid=160c4de7-7f2e-4ddd-89ef-4765ad4546e8"},"vehicle_type_id":"4","last_reported":1737097683,"current_range_meters":35200,"station_id":"ce4bhb92rcd13ifvqen0","pricing_plan_id":"cebpf4jnsgd1na2vs0mg"},{"bike_id":"48797849-8121-4d6d-aaf8-da32dceb5e88","system_id":"levelo_inurba_marseille","lat":43.28572,"lon":5.39489,"is_reserved":false,"is_disabled":false,"rental_uris":{"android":"levelo://app?vid=48797849-8121-4d6d-aaf8-da32dceb5e88","ios":"levelo://app?vid=48797849-8121-4d6d-aaf8-da32dceb5e88"},"vehicle_type_id":"4","last_reported":1737097683,"current_range_meters":38800,"station_id":"ce4bh292rcd13ifvqdg0","pricing_plan_id":"cebpf4jnsgd1na2vs0mg"},{"bike_id":"f835befa-e0c4-4cbe-a2f0-932b8650c0b0","system_id":"levelo_inurba_marseille","lat":43.23188,"lon":5.39979,"is_reserved":false,"is_disabled":false,"rental_uris":{"android":"levelo://app?vid=f835befa-e0c4-4cbe-a2f0-932b8650c0b0","ios":"levelo://app?vid=f835befa-e0c4-4cbe-a2f0-932b8650c0b0"},"vehicle_type_id":"4","last_reported":1737097683,"current_range_meters":12800,"station_id":"ce4bhn12rcd13ifvqgqg","pricing_plan_id":"cebpf4jnsgd1na2vs0mg"},{"bike_id":"41b0b4ec-7526-4290-96f9-44cbe4cd1ada","system_id":"levelo_inurba_marseille","lat":43.26767,"lon":5.39426,"is_reserved":false,"is_disabled":true,"rental_uris":{"android":"levelo://app?vid=41b0b4ec-7526-4290-96f9-44cbe4cd1ada","ios":"levelo://app?vid=41b0b4ec-7526-4290-96f9-44cbe4cd1ada"},"vehicle_type_id":"4","last_reported":1737097683,"current_range_meters":18000,"station_id":"ce4bhh12rcd13ifvqfg0","pricing_plan_id":"cebpf4jnsgd1na2vs0mg"},{"bike_id":"069efd7d-6762-4318-bc30-25391460f9db","system_id":"levelo_inurba_marseille","lat":43.26943,"lon":5.40247,"is_reserved":false,"is_disabled":false,"rental_uris":{"android":"levelo://app?vid=069efd7d-6762-4318-bc30-25391460f9db","ios":"levelo://app?vid=069efd7d-6762-4318-bc30-25391460f9db"},"vehicle_type_id":"4","last_reported":1737097683,"current_range_meters":34000,"station_id":"cjm6bp8fraef2m0cb0m0","pricing_plan_id":"cebpf4jnsgd1na2vs0mg"},{"bike_id":"9f3cdc74-7ee0-4f30-91b9-ddaa0560ae6c","system_id":"levelo_inurba_marseille","lat":43.29815,"lon":5.3809,"is_reserved":false,"is_disabled":false,"rental_uris":{"android":"levelo://app?vid=9f3cdc74-7ee0-4f30-91b9-ddaa0560ae6c","ios":"levelo://app?vid=9f3cdc74-7ee0-4f30-91b9-ddaa0560ae6c"},"vehicle_type_id":"4","last_reported":1737097683,"current_range_meters":37600,"station_id":"ce4bgip2rcd13ifvqbb0","pricing_plan_id":"cebpf4jnsgd1na2vs0mg"},{"bike_id":"4d67d339-e8e1-4f5a-8086-1d6e90a5223c","system_id":"levelo_inurba_marseille","lat":43.31435,"lon":5.37605,"is_reserved":false,"is_disabled":false,"rental_uris":{"android":"levelo://app?vid=4d67d339-e8e1-4f5a-8086-1d6e90a5223c","ios":"levelo://app?vid=4d67d339-e8e1-4f5a-8086-1d6e90a5223c"},"vehicle_type_id":"4","last_reported":1737097683,"current_range_meters":37600,"station_id":"","pricing_plan_id":"cebpf4jnsgd1na2vs0mg"},{"bike_id":"e0f7916e-3bd9-4ea5-88b7-d125d717e624","system_id":"levelo_inurba_marseille","lat":43.31757,"lon":5.3902,"is_reserved":false,"is_disabled":false,"rental_uris":{"android":"levelo://app?vid=e0f7916e-3bd9-4ea5-88b7-d125d717e624","ios":"levelo://app?vid=e0f7916e-3bd9-4ea5-88b7-d125d717e624"},"vehicle_type_id":"4","last_reported":1737097683,"current_range_meters":37600,"station_id":"ce4bhqp2rcd13ifvqhng","pricing_plan_id":"cebpf4jnsgd1na2vs0mg"},{"bike_id":"4a38e6a6-6b0b-4f22-98d1-0cfea24645c0","system_id":"levelo_inurba_marseille","lat":43.28156,"lon":5.42636,"is_reserved":false,"is_disabled":false,"rental_uris":{"android":"levelo://app?vid=4a38e6a6-6b0b-4f22-98d1-0cfea24645c0","ios":"levelo://app?vid=4a38e6a6-6b0b-4f22-98d1-0cfea24645c0"},"vehicle_type_id":"4","last_reported":1737097683,"current_range_meters":6800,"station_id":"ce4bhnh2rcd13ifvqgug","pricing_plan_id":"cebpf4jnsgd1na2vs0mg"},{"bike_id":"9dd5eb0e-e4b7-4224-8da7-7d77946e21bf","system_id":"levelo_inurba_marseille","lat":43.31039,"lon":5.38717,"is_reserved":false,"is_disabled":false,"rental_uris":{"android":"levelo://app?vid=9dd5eb0e-e4b7-4224-8da7-7d77946e21bf","ios":"levelo://app?vid=9dd5eb0e-e4b7-4224-8da7-7d77946e21bf"},"vehicle_type_id":"4","last_reported":1737097683,"current_range_meters":34800,"station_id":"","pricing_plan_id":"cebpf4jnsgd1na2vs0mg"},{"bike_id":"2c839bfc-228b-4afd-9c45-0e54b8f36672","system_id":"levelo_inurba_marseille","lat":43.246499,"lon":5.388943,"is_reserved":false,"is_disabled":false,"rental_uris":{"android":"levelo://app?vid=2c839bfc-228b-4afd-9c45-0e54b8f36672","ios":"levelo://app?vid=2c839bfc-228b-4afd-9c45-0e54b8f36672"},"vehicle_type_id":"4","last_reported":1737097683,"current_range_meters":38800,"station_id":"ce4bhg12rcd13ifvqf60","pricing_plan_id":"cebpf4jnsgd1na2vs0mg"},{"bike_id":"bb27da12-f54d-4118-ac54-a00b20a5a971","system_id":"levelo_inurba_marseille","lat":43.29033,"lon":5.38652,"is_reserved":false,"is_disabled":false,"rental_uris":{"android":"levelo://app?vid=bb27da12-f54d-4118-ac54-a00b20a5a971","ios":"levelo://app?vid=bb27da12-f54d-4118-ac54-a00b20a5a971"},"vehicle_type_id":"4","last_reported":1737097683,"current_range_meters":23200,"station_id":"ce4bh4p2rcd13ifvqe0g","pricing_plan_id":"cebpf4jnsgd1na2vs0mg"},{"bike_id":"c12704b6-186a-4b1d-8432-74351ad0e2fc","system_id":"levelo_inurba_marseille","lat":43.24075,"lon":5.37763,"is_reserved":false,"is_disabled":false,"rental_uris":{"android":"levelo://app?vid=c12704b6-186a-4b1d-8432-74351ad0e2fc","ios":"levelo://app?vid=c12704b6-186a-4b1d-8432-74351ad0e2fc"},"vehicle_type_id":"4","last_reported":1737097683,"current_range_meters":10800,"station_id":"ce4bhnp2rcd13ifvqgvg","pricing_plan_id":"cebpf4jnsgd1na2vs0mg"},{"bike_id":"fed11d0f-977e-443b-a693-d5ff6345bfde","system_id":"levelo_inurba_marseille","lat":43.24079,"lon":5.3776,"is_reserved":false,"is_disabled":false,"rental_uris":{"android":"levelo://app?vid=fed11d0f-977e-443b-a693-d5ff6345bfde","ios":"levelo://app?vid=fed11d0f-977e-443b-a693-d5ff6345bfde"},"vehicle_type_id":"4","last_reported":1737097683,"current_range_meters":27200,"station_id":"ce4bhnp2rcd13ifvqgvg","pricing_plan_id":"cebpf4jnsgd1na2vs0mg"},{"bike_id":"36852f13-aa6c-409c-99d3-7142866f7549","system_id":"levelo_inurba_marseille","lat":43.30477,"lon":5.37877,"is_reserved":false,"is_disabled":false,"rental_uris":{"android":"levelo://app?vid=36852f13-aa6c-409c-99d3-7142866f7549","ios":"levelo://app?vid=36852f13-aa6c-409c-99d3-7142866f7549"},"vehicle_type_id":"4","last_reported":1737097683,"current_range_meters":36400,"station_id":"ce4bgup2rcd13ifvqcn0","pricing_plan_id":"cebpf4jnsgd1na2vs0mg"},{"bike_id":"ff42de57-e02f-4b86-aa57-7fba92e54d9a","system_id":"levelo_inurba_marseille","lat":43.30592,"lon":5.39353,"is_reserved":false,"is_disabled":false,"rental_uris":{"android":"levelo://app?vid=ff42de57-e02f-4b86-aa57-7fba92e54d9a","ios":"levelo://app?vid=ff42de57-e02f-4b86-aa57-7fba92e54d9a"},"vehicle_type_id":"4","last_reported":1737097683,"current_range_meters":22800,"station_id":"ce4bh0p2rcd13ifvqd80","pricing_plan_id":"cebpf4jnsgd1na2vs0mg"},{"bike_id":"e1a3393e-ee05-4b1c-b9fb-3908e373ee14","system_id":"levelo_inurba_marseille","lat":43.26556,"lon":5.3731,"is_reserved":false,"is_disabled":true,"rental_uris":{"android":"levelo://app?vid=e1a3393e-ee05-4b1c-b9fb-3908e373ee14","ios":"levelo://app?vid=e1a3393e-ee05-4b1c-b9fb-3908e373ee14"},"vehicle_type_id":"4","last_reported":1737097683,"current_range_meters":4400,"station_id":"ce4bhg12rcd13ifvqf70","pricing_plan_id":"cebpf4jnsgd1na2vs0mg"},{"bike_id":"7c7fb340-91d3-481f-bef7-3c012bdf7da2","system_id":"levelo_inurba_marseille","lat":43.279904,"lon":5.416609,"is_reserved":false,"is_disabled":true,"rental_uris":{"android":"levelo://app?vid=7c7fb340-91d3-481f-bef7-3c012bdf7da2","ios":"levelo://app?vid=7c7fb340-91d3-481f-bef7-3c012bdf7da2"},"vehicle_type_id":"4","last_reported":1737097683,"current_range_meters":36800,"station_id":"ce4bho12rcd13ifvqh1g","pricing_plan_id":"cebpf4jnsgd1na2vs0mg"},{"bike_id":"2ea1f3dd-b0f0-4df8-a1f8-d38ef2b288bd","system_id":"levelo_inurba_marseille","lat":43.29801,"lon":5.38093,"is_reserved":false,"is_disabled":false,"rental_uris":{"android":"levelo://app?vid=2ea1f3dd-b0f0-4df8-a1f8-d38ef2b288bd","ios":"levelo://app?vid=2ea1f3dd-b0f0-4df8-a1f8-d38ef2b288bd"},"vehicle_type_id":"4","last_reported":1737097683,"current_range_meters":2000,"station_id":"ce4bgip2rcd13ifvqbb0","pricing_plan_id":"cebpf4jnsgd1na2vs0mg"},{"bike_id":"8fd6223e-2fce-4f7c-ba18-aa389e55d18f","system_id":"levelo_inurba_marseille","lat":43.30301,"lon":5.36873,"is_reserved":false,"is_disabled":false,"rental_uris":{"android":"levelo://app?vid=8fd6223e-2fce-4f7c-ba18-aa389e55d18f","ios":"levelo://app?vid=8fd6223e-2fce-4f7c-ba18-aa389e55d18f"},"vehicle_type_id":"4","last_reported":1737097683,"current_range_meters":38400,"station_id":"ce4bgqh2rcd13ifvqc5g","pricing_plan_id":"cebpf4jnsgd1na2vs0mg"},{"bike_id":"c30b8b46-be5a-4bd5-b0c2-0471d60459d3","system_id":"levelo_inurba_marseille","lat":43.30595,"lon":5.39354,"is_reserved":false,"is_disabled":false,"rental_uris":{"android":"levelo://app?vid=c30b8b46-be5a-4bd5-b0c2-0471d60459d3","ios":"levelo://app?vid=c30b8b46-be5a-4bd5-b0c2-0471d60459d3"},"vehicle_type_id":"4","last_reported":1737097683,"current_range_meters":15200,"station_id":"ce4bh0p2rcd13ifvqd80","pricing_plan_id":"cebpf4jnsgd1na2vs0mg"},{"bike_id":"96dd8352-2980-4967-b899-aaf1feca6938","system_id":"levelo_inurba_marseille","lat":43.26572,"lon":5.38991,"is_reserved":false,"is_disabled":false,"rental_uris":{"android":"levelo://app?vid=96dd8352-2980-4967-b899-aaf1feca6938","ios":"levelo://app?vid=96dd8352-2980-4967-b899-aaf1feca6938"},"vehicle_type_id":"4","last_reported":1737097683,"current_range_meters":20000,"station_id":"ce4bhe12rcd13ifvqf30","pricing_plan_id":"cebpf4jnsgd1na2vs0mg"},{"bike_id":"0f736ebc-b87e-42e4-bd96-a6e49d99dc0b","system_id":"levelo_inurba_marseille","lat":43.29277,"lon":5.36846,"is_reserved":false,"is_disabled":false,"rental_uris":{"android":"levelo://app?vid=0f736ebc-b87e-42e4-bd96-a6e49d99dc0b","ios":"levelo://app?vid=0f736ebc-b87e-42e4-bd96-a6e49d99dc0b"},"vehicle_type_id":"4","last_reported":1737097683,"current_range_meters":9200,"station_id":"ce4bhbp2rcd13ifvqesg","pricing_plan_id":"cebpf4jnsgd1na2vs0mg"},{"bike_id":"2c3fb720-29e2-4402-99a9-0d6591c7d722","system_id":"levelo_inurba_marseille","lat":43.31378,"lon":5.36662,"is_reserved":false,"is_disabled":false,"rental_uris":{"android":"levelo://app?vid=2c3fb720-29e2-4402-99a9-0d6591c7d722","ios":"levelo://app?vid=2c3fb720-29e2-4402-99a9-0d6591c7d722"},"vehicle_type_id":"4","last_reported":1737097683,"current_range_meters":36400,"station_id":"","pricing_plan_id":"cebpf4jnsgd1na2vs0mg"},{"bike_id":"3b2df4f8-614c-4fbc-a6c0-c04057981018","system_id":"levelo_inurba_marseille","lat":43.29623,"lon":5.40607,"is_reserved":false,"is_disabled":false,"rental_uris":{"android":"levelo://app?vid=3b2df4f8-614c-4fbc-a6c0-c04057981018","ios":"levelo://app?vid=3b2df4f8-614c-4fbc-a6c0-c04057981018"},"vehicle_type_id":"4","last_reported":1737097683,"current_range_meters":30400,"station_id":"ce4bh0h2rcd13ifvqd60","pricing_plan_id":"cebpf4jnsgd1na2vs0mg"},{"bike_id":"2bf14e65-d93d-45bb-bad1-71fdf26cad9f","system_id":"levelo_inurba_marseille","lat":43.25119,"lon":5.40332,"is_reserved":false,"is_disabled":false,"rental_uris":{"android":"levelo://app?vid=2bf14e65-d93d-45bb-bad1-71fdf26cad9f","ios":"levelo://app?vid=2bf14e65-d93d-45bb-bad1-71fdf26cad9f"},"vehicle_type_id":"4","last_reported":1737097683,"current_range_meters":8000,"station_id":"ce4bhlh2rcd13ifvqgig","pricing_plan_id":"cebpf4jnsgd1na2vs0mg"},{"bike_id":"116e7514-2e81-4563-a614-e60a431e2012","system_id":"levelo_inurba_marseille","lat":43.28668,"lon":5.36338,"is_reserved":false,"is_disabled":false,"rental_uris":{"android":"levelo://app?vid=116e7514-2e81-4563-a614-e60a431e2012","ios":"levelo://app?vid=116e7514-2e81-4563-a614-e60a431e2012"},"vehicle_type_id":"4","last_reported":1737097683,"current_range_meters":38800,"station_id":"ce4bhah2rcd13ifvqej0","pricing_plan_id":"cebpf4jnsgd1na2vs0mg"},{"bike_id":"e6d52744-fcef-4b04-b3e0-4aafb92377b1","system_id":"levelo_inurba_marseille","lat":43.305463,"lon":5.367036,"is_reserved":false,"is_disabled":true,"rental_uris":{"android":"levelo://app?vid=e6d52744-fcef-4b04-b3e0-4aafb92377b1","ios":"levelo://app?vid=e6d52744-fcef-4b04-b3e0-4aafb92377b1"},"vehicle_type_id":"4","last_reported":1737097683,"current_range_meters":33600,"station_id":"ce4bgrp2rcd13ifvqc9g","pricing_plan_id":"cebpf4jnsgd1na2vs0mg"},{"bike_id":"078fa2d8-b6e2-4689-814d-1564c1917c5d","system_id":"levelo_inurba_marseille","lat":43.24082,"lon":5.377374,"is_reserved":false,"is_disabled":false,"rental_uris":{"android":"levelo://app?vid=078fa2d8-b6e2-4689-814d-1564c1917c5d","ios":"levelo://app?vid=078fa2d8-b6e2-4689-814d-1564c1917c5d"},"vehicle_type_id":"4","last_reported":1737097683,"current_range_meters":38000,"station_id":"ce4bhnp2rcd13ifvqgvg","pricing_plan_id":"cebpf4jnsgd1na2vs0mg"},{"bike_id":"9be957d2-26d1-49a4-9f85-b06ee3432064","system_id":"levelo_inurba_marseille","lat":43.33729,"lon":5.39186,"is_reserved":false,"is_disabled":false,"rental_uris":{"android":"levelo://app?vid=9be957d2-26d1-49a4-9f85-b06ee3432064","ios":"levelo://app?vid=9be957d2-26d1-49a4-9f85-b06ee3432064"},"vehicle_type_id":"4","last_reported":1737097683,"current_range_meters":30800,"station_id":"ce4bhr92rcd13ifvqhsg","pricing_plan_id":"cebpf4jnsgd1na2vs0mg"},{"bike_id":"4488423e-fb64-4bbe-9192-9966dc0edac0","system_id":"levelo_inurba_marseille","lat":43.3171,"lon":5.3777,"is_reserved":false,"is_disabled":false,"rental_uris":{"android":"levelo://app?vid=4488423e-fb64-4bbe-9192-9966dc0edac0","ios":"levelo://app?vid=4488423e-fb64-4bbe-9192-9966dc0edac0"},"vehicle_type_id":"4","last_reported":1737097683,"current_range_meters":38800,"station_id":"ce4bgth2rcd13ifvqch0","pricing_plan_id":"cebpf4jnsgd1na2vs0mg"},{"bike_id":"99a31782-c2ee-4a27-b493-d0450f1fbc77","system_id":"levelo_inurba_marseille","lat":43.31491,"lon":5.37281,"is_reserved":false,"is_disabled":false,"rental_uris":{"android":"levelo://app?vid=99a31782-c2ee-4a27-b493-d0450f1fbc77","ios":"levelo://app?vid=99a31782-c2ee-4a27-b493-d0450f1fbc77"},"vehicle_type_id":"4","last_reported":1737097683,"current_range_meters":38800,"station_id":"ce4bgt12rcd13ifvqcd0","pricing_plan_id":"cebpf4jnsgd1na2vs0mg"},{"bike_id":"ece2ae38-fa22-411a-b4b6-2bec87a39b75","system_id":"levelo_inurba_marseille","lat":43.3255,"lon":5.41439,"is_reserved":false,"is_disabled":false,"rental_uris":{"android":"levelo://app?vid=ece2ae38-fa22-411a-b4b6-2bec87a39b75","ios":"levelo://app?vid=ece2ae38-fa22-411a-b4b6-2bec87a39b75"},"vehicle_type_id":"4","last_reported":1737097683,"current_range_meters":39200,"station_id":"ce4bhq12rcd13ifvqhhg","pricing_plan_id":"cebpf4jnsgd1na2vs0mg"},{"bike_id":"f4967df2-bed2-4214-8bb6-2be145bd610e","system_id":"levelo_inurba_marseille","lat":43.24068,"lon":5.37743,"is_reserved":false,"is_disabled":true,"rental_uris":{"android":"levelo://app?vid=f4967df2-bed2-4214-8bb6-2be145bd610e","ios":"levelo://app?vid=f4967df2-bed2-4214-8bb6-2be145bd610e"},"vehicle_type_id":"4","last_reported":1737097683,"current_range_meters":0,"station_id":"ce4bhnp2rcd13ifvqgvg","pricing_plan_id":"cebpf4jnsgd1na2vs0mg"},{"bike_id":"4a4bdb5d-7f2d-4b22-a0dd-b6ee22b2db6e","system_id":"levelo_inurba_marseille","lat":43.25095,"lon":5.39508,"is_reserved":false,"is_disabled":false,"rental_uris":{"android":"levelo://app?vid=4a4bdb5d-7f2d-4b22-a0dd-b6ee22b2db6e","ios":"levelo://app?vid=4a4bdb5d-7f2d-4b22-a0dd-b6ee22b2db6e"},"vehicle_type_id":"4","last_reported":1737097683,"current_range_meters":38000,"station_id":"ce4bhm12rcd13ifvqgkg","pricing_plan_id":"cebpf4jnsgd1na2vs0mg"},{"bike_id":"f63ef32e-6a6d-4df7-ae8e-b5b84dd4ea09","system_id":"levelo_inurba_marseille","lat":43.29221,"lon":5.36058,"is_reserved":false,"is_disabled":false,"rental_uris":{"android":"levelo://app?vid=f63ef32e-6a6d-4df7-ae8e-b5b84dd4ea09","ios":"levelo://app?vid=f63ef32e-6a6d-4df7-ae8e-b5b84dd4ea09"},"vehicle_type_id":"4","last_reported":1737097683,"current_range_meters":30400,"station_id":"ce4bhbh2rcd13ifvqeqg","pricing_plan_id":"cebpf4jnsgd1na2vs0mg"},{"bike_id":"6691d7b5-893f-49fd-babf-60f7317b3915","system_id":"levelo_inurba_marseille","lat":43.318991,"lon":5.407352,"is_reserved":false,"is_disabled":false,"rental_uris":{"android":"levelo://app?vid=6691d7b5-893f-49fd-babf-60f7317b3915","ios":"levelo://app?vid=6691d7b5-893f-49fd-babf-60f7317b3915"},"vehicle_type_id":"4","last_reported":1737097683,"current_range_meters":34000,"station_id":"ce4bhq12rcd13ifvqhig","pricing_plan_id":"cebpf4jnsgd1na2vs0mg"},{"bike_id":"71424b27-26da-42b8-b57d-313282ed7280","system_id":"levelo_inurba_marseille","lat":43.30584,"lon":5.39347,"is_reserved":false,"is_disabled":false,"rental_uris":{"android":"levelo://app?vid=71424b27-26da-42b8-b57d-313282ed7280","ios":"levelo://app?vid=71424b27-26da-42b8-b57d-313282ed7280"},"vehicle_type_id":"4","last_reported":1737097683,"current_range_meters":3600,"station_id":"ce4bh0p2rcd13ifvqd80","pricing_plan_id":"cebpf4jnsgd1na2vs0mg"},{"bike_id":"61d33c90-a781-4a26-bf58-4b4a4778ca8e","system_id":"levelo_inurba_marseille","lat":43.24076,"lon":5.37753,"is_reserved":false,"is_disabled":false,"rental_uris":{"android":"levelo://app?vid=61d33c90-a781-4a26-bf58-4b4a4778ca8e","ios":"levelo://app?vid=61d33c90-a781-4a26-bf58-4b4a4778ca8e"},"vehicle_type_id":"4","last_reported":1737097683,"current_range_meters":11600,"station_id":"ce4bhnp2rcd13ifvqgvg","pricing_plan_id":"cebpf4jnsgd1na2vs0mg"},{"bike_id":"242e1a46-c878-4185-b387-d1a4f0fb8589","system_id":"levelo_inurba_marseille","lat":43.27677,"lon":5.42223,"is_reserved":false,"is_disabled":false,"rental_uris":{"android":"levelo://app?vid=242e1a46-c878-4185-b387-d1a4f0fb8589","ios":"levelo://app?vid=242e1a46-c878-4185-b387-d1a4f0fb8589"},"vehicle_type_id":"4","last_reported":1737097683,"current_range_meters":7200,"station_id":"","pricing_plan_id":"cebpf4jnsgd1na2vs0mg"},{"bike_id":"71845b4e-4f9c-4bb8-9a9c-5f8ddd03e282","system_id":"levelo_inurba_marseille","lat":43.28747,"lon":5.389,"is_reserved":false,"is_disabled":false,"rental_uris":{"android":"levelo://app?vid=71845b4e-4f9c-4bb8-9a9c-5f8ddd03e282","ios":"levelo://app?vid=71845b4e-4f9c-4bb8-9a9c-5f8ddd03e282"},"vehicle_type_id":"4","last_reported":1737097683,"current_range_meters":21600,"station_id":"","pricing_plan_id":"cebpf4jnsgd1na2vs0mg"},{"bike_id":"da738d9e-7b5d-4b7d-a437-4d0a8b9a7557","system_id":"levelo_inurba_marseille","lat":43.29036,"lon":5.39967,"is_reserved":false,"is_disabled":false,"rental_uris":{"android":"levelo://app?vid=da738d9e-7b5d-4b7d-a437-4d0a8b9a7557","ios":"levelo://app?vid=da738d9e-7b5d-4b7d-a437-4d0a8b9a7557"},"vehicle_type_id":"4","last_reported":1737097683,"current_range_meters":7200,"station_id":"ce4bh392rcd13ifvqdm0","pricing_plan_id":"cebpf4jnsgd1na2vs0mg"},{"bike_id":"ceaa1458-83a9-43c8-aed6-e72ea07fb43a","system_id":"levelo_inurba_marseille","lat":43.31562,"lon":5.38919,"is_reserved":false,"is_disabled":false,"rental_uris":{"android":"levelo://app?vid=ceaa1458-83a9-43c8-aed6-e72ea07fb43a","ios":"levelo://app?vid=ceaa1458-83a9-43c8-aed6-e72ea07fb43a"},"vehicle_type_id":"4","last_reported":1737097683,"current_range_meters":10000,"station_id":"","pricing_plan_id":"cebpf4jnsgd1na2vs0mg"},{"bike_id":"c7b548c0-92b1-4b91-b606-2d963bec61ed","system_id":"levelo_inurba_marseille","lat":43.27518,"lon":5.42474,"is_reserved":false,"is_disabled":false,"rental_uris":{"android":"levelo://app?vid=c7b548c0-92b1-4b91-b606-2d963bec61ed","ios":"levelo://app?vid=c7b548c0-92b1-4b91-b606-2d963bec61ed"},"vehicle_type_id":"4","last_reported":1737097683,"current_range_meters":16400,"station_id":"ce4bhn92rcd13ifvqgrg","pricing_plan_id":"cebpf4jnsgd1na2vs0mg"},{"bike_id":"227e2104-9342-467a-bb13-dc81a29065f7","system_id":"levelo_inurba_marseille","lat":43.28479,"lon":5.38966,"is_reserved":false,"is_disabled":false,"rental_uris":{"android":"levelo://app?vid=227e2104-9342-467a-bb13-dc81a29065f7","ios":"levelo://app?vid=227e2104-9342-467a-bb13-dc81a29065f7"},"vehicle_type_id":"4","last_reported":1737097683,"current_range_meters":28000,"station_id":"","pricing_plan_id":"cebpf4jnsgd1na2vs0mg"},{"bike_id":"a7f94e09-4039-4e1b-bd28-524b9df2d041","system_id":"levelo_inurba_marseille","lat":43.26943,"lon":5.38626,"is_reserved":false,"is_disabled":false,"rental_uris":{"android":"levelo://app?vid=a7f94e09-4039-4e1b-bd28-524b9df2d041","ios":"levelo://app?vid=a7f94e09-4039-4e1b-bd28-524b9df2d041"},"vehicle_type_id":"4","last_reported":1737097683,"current_range_meters":25600,"station_id":"ce4bhh92rcd13ifvqfh0","pricing_plan_id":"cebpf4jnsgd1na2vs0mg"},{"bike_id":"00268844-800e-432e-9f56-0b567fb9e2a0","system_id":"levelo_inurba_marseille","lat":43.29774,"lon":5.38114,"is_reserved":false,"is_disabled":true,"rental_uris":{"android":"levelo://app?vid=00268844-800e-432e-9f56-0b567fb9e2a0","ios":"levelo://app?vid=00268844-800e-432e-9f56-0b567fb9e2a0"},"vehicle_type_id":"4","last_reported":1737097683,"current_range_meters":33600,"station_id":"ce4bgip2rcd13ifvqbb0","pricing_plan_id":"cebpf4jnsgd1na2vs0mg"},{"bike_id":"516e6204-9dad-4554-93fc-892569dbc06c","system_id":"levelo_inurba_marseille","lat":43.28974,"lon":5.40012,"is_reserved":false,"is_disabled":false,"rental_uris":{"android":"levelo://app?vid=516e6204-9dad-4554-93fc-892569dbc06c","ios":"levelo://app?vid=516e6204-9dad-4554-93fc-892569dbc06c"},"vehicle_type_id":"4","last_reported":1737097683,"current_range_meters":36800,"station_id":"","pricing_plan_id":"cebpf4jnsgd1na2vs0mg"},{"bike_id":"33b9daa8-650f-4e97-b8f8-0947c5972927","system_id":"levelo_inurba_marseille","lat":43.32536,"lon":5.41422,"is_reserved":false,"is_disabled":false,"rental_uris":{"android":"levelo://app?vid=33b9daa8-650f-4e97-b8f8-0947c5972927","ios":"levelo://app?vid=33b9daa8-650f-4e97-b8f8-0947c5972927"},"vehicle_type_id":"4","last_reported":1737097683,"current_range_meters":24800,"station_id":"ce4bhq12rcd13ifvqhhg","pricing_plan_id":"cebpf4jnsgd1na2vs0mg"},{"bike_id":"bd678449-03b9-4d9d-bce2-b724e432a2a1","system_id":"levelo_inurba_marseille","lat":43.28351,"lon":5.38098,"is_reserved":false,"is_disabled":false,"rental_uris":{"android":"levelo://app?vid=bd678449-03b9-4d9d-bce2-b724e432a2a1","ios":"levelo://app?vid=bd678449-03b9-4d9d-bce2-b724e432a2a1"},"vehicle_type_id":"4","last_reported":1737097683,"current_range_meters":32400,"station_id":"ce4bh412rcd13ifvqdr0","pricing_plan_id":"cebpf4jnsgd1na2vs0mg"},{"bike_id":"06847a7c-81a3-47a7-969a-ce10f7980e65","system_id":"levelo_inurba_marseille","lat":43.231497,"lon":5.436974,"is_reserved":false,"is_disabled":true,"rental_uris":{"android":"levelo://app?vid=06847a7c-81a3-47a7-969a-ce10f7980e65","ios":"levelo://app?vid=06847a7c-81a3-47a7-969a-ce10f7980e65"},"vehicle_type_id":"4","last_reported":1737097683,"current_range_meters":35200,"station_id":"ce4bhmp2rcd13ifvqgog","pricing_plan_id":"cebpf4jnsgd1na2vs0mg"},{"bike_id":"13692a24-fa14-4270-86ad-88f1c1d9b123","system_id":"levelo_inurba_marseille","lat":43.29225,"lon":5.36062,"is_reserved":false,"is_disabled":false,"rental_uris":{"android":"levelo://app?vid=13692a24-fa14-4270-86ad-88f1c1d9b123","ios":"levelo://app?vid=13692a24-fa14-4270-86ad-88f1c1d9b123"},"vehicle_type_id":"4","last_reported":1737097683,"current_range_meters":19600,"station_id":"ce4bhbh2rcd13ifvqeqg","pricing_plan_id":"cebpf4jnsgd1na2vs0mg"},{"bike_id":"569e18d5-bf18-4952-baf5-88186b16614a","system_id":"levelo_inurba_marseille","lat":43.30186,"lon":5.36612,"is_reserved":false,"is_disabled":false,"rental_uris":{"android":"levelo://app?vid=569e18d5-bf18-4952-baf5-88186b16614a","ios":"levelo://app?vid=569e18d5-bf18-4952-baf5-88186b16614a"},"vehicle_type_id":"4","last_reported":1737097683,"current_range_meters":19200,"station_id":"ce4bgrh2rcd13ifvqc8g","pricing_plan_id":"cebpf4jnsgd1na2vs0mg"},{"bike_id":"05f89a4d-9e49-4e51-8cbc-aa66933493cb","system_id":"levelo_inurba_marseille","lat":43.30419,"lon":5.38879,"is_reserved":false,"is_disabled":true,"rental_uris":{"android":"levelo://app?vid=05f89a4d-9e49-4e51-8cbc-aa66933493cb","ios":"levelo://app?vid=05f89a4d-9e49-4e51-8cbc-aa66933493cb"},"vehicle_type_id":"4","last_reported":1737097683,"current_range_meters":0,"station_id":"ce4bgk12rcd13ifvqbi0","pricing_plan_id":"cebpf4jnsgd1na2vs0mg"},{"bike_id":"450e4b2e-2717-46bb-9250-32754d000e21","system_id":"levelo_inurba_marseille","lat":43.31706,"lon":5.37781,"is_reserved":false,"is_disabled":false,"rental_uris":{"android":"levelo://app?vid=450e4b2e-2717-46bb-9250-32754d000e21","ios":"levelo://app?vid=450e4b2e-2717-46bb-9250-32754d000e21"},"vehicle_type_id":"4","last_reported":1737097683,"current_range_meters":38800,"station_id":"ce4bgth2rcd13ifvqch0","pricing_plan_id":"cebpf4jnsgd1na2vs0mg"},{"bike_id":"0d8b3f38-41dd-47ed-bfa6-3906b618d9f2","system_id":"levelo_inurba_marseille","lat":43.28274,"lon":5.35067,"is_reserved":false,"is_disabled":false,"rental_uris":{"android":"levelo://app?vid=0d8b3f38-41dd-47ed-bfa6-3906b618d9f2","ios":"levelo://app?vid=0d8b3f38-41dd-47ed-bfa6-3906b618d9f2"},"vehicle_type_id":"4","last_reported":1737097683,"current_range_meters":28400,"station_id":"ce4bhbp2rcd13ifvqerg","pricing_plan_id":"cebpf4jnsgd1na2vs0mg"},{"bike_id":"fa7ee531-3c34-4d3c-aed4-27cb70611fd1","system_id":"levelo_inurba_marseille","lat":43.29608,"lon":5.38074,"is_reserved":false,"is_disabled":false,"rental_uris":{"android":"levelo://app?vid=fa7ee531-3c34-4d3c-aed4-27cb70611fd1","ios":"levelo://app?vid=fa7ee531-3c34-4d3c-aed4-27cb70611fd1"},"vehicle_type_id":"4","last_reported":1737097683,"current_range_meters":17600,"station_id":"ce4bgl12rcd13ifvqbo0","pricing_plan_id":"cebpf4jnsgd1na2vs0mg"},{"bike_id":"efd05c32-4d50-4342-9945-bb25c7efcd6f","system_id":"levelo_inurba_marseille","lat":43.2798,"lon":5.38748,"is_reserved":false,"is_disabled":false,"rental_uris":{"android":"levelo://app?vid=efd05c32-4d50-4342-9945-bb25c7efcd6f","ios":"levelo://app?vid=efd05c32-4d50-4342-9945-bb25c7efcd6f"},"vehicle_type_id":"4","last_reported":1737097683,"current_range_meters":38800,"station_id":"ce4bhg12rcd13ifvqf80","pricing_plan_id":"cebpf4jnsgd1na2vs0mg"},{"bike_id":"aac2ecf2-9c1e-46b0-98dd-0e3058686375","system_id":"levelo_inurba_marseille","lat":43.30123,"lon":5.39876,"is_reserved":false,"is_disabled":false,"rental_uris":{"android":"levelo://app?vid=aac2ecf2-9c1e-46b0-98dd-0e3058686375","ios":"levelo://app?vid=aac2ecf2-9c1e-46b0-98dd-0e3058686375"},"vehicle_type_id":"4","last_reported":1737097683,"current_range_meters":38800,"station_id":"ce4bh0h2rcd13ifvqd40","pricing_plan_id":"cebpf4jnsgd1na2vs0mg"},{"bike_id":"394b80ed-e8e3-44cc-b116-25ea3ac6493e","system_id":"levelo_inurba_marseille","lat":43.29202,"lon":5.39355,"is_reserved":false,"is_disabled":false,"rental_uris":{"android":"levelo://app?vid=394b80ed-e8e3-44cc-b116-25ea3ac6493e","ios":"levelo://app?vid=394b80ed-e8e3-44cc-b116-25ea3ac6493e"},"vehicle_type_id":"4","last_reported":1737097683,"current_range_meters":12800,"station_id":"ce4bh192rcd13ifvqdd0","pricing_plan_id":"cebpf4jnsgd1na2vs0mg"},{"bike_id":"a4b779dc-e9f6-42d9-b786-46a4421bfccd","system_id":"levelo_inurba_marseille","lat":43.30595,"lon":5.37194,"is_reserved":false,"is_disabled":false,"rental_uris":{"android":"levelo://app?vid=a4b779dc-e9f6-42d9-b786-46a4421bfccd","ios":"levelo://app?vid=a4b779dc-e9f6-42d9-b786-46a4421bfccd"},"vehicle_type_id":"4","last_reported":1737097683,"current_range_meters":26000,"station_id":"ce4bgqh2rcd13ifvqc4g","pricing_plan_id":"cebpf4jnsgd1na2vs0mg"},{"bike_id":"7f02ee37-da3b-42b9-9dc0-3eb4937746d3","system_id":"levelo_inurba_marseille","lat":43.292526,"lon":5.384431,"is_reserved":false,"is_disabled":false,"rental_uris":{"android":"levelo://app?vid=7f02ee37-da3b-42b9-9dc0-3eb4937746d3","ios":"levelo://app?vid=7f02ee37-da3b-42b9-9dc0-3eb4937746d3"},"vehicle_type_id":"4","last_reported":1737097683,"current_range_meters":30800,"station_id":"ce4bh692rcd13ifvqea0","pricing_plan_id":"cebpf4jnsgd1na2vs0mg"},{"bike_id":"f21955f8-a46c-4890-be70-66409620de02","system_id":"levelo_inurba_marseille","lat":43.23189,"lon":5.39988,"is_reserved":false,"is_disabled":false,"rental_uris":{"android":"levelo://app?vid=f21955f8-a46c-4890-be70-66409620de02","ios":"levelo://app?vid=f21955f8-a46c-4890-be70-66409620de02"},"vehicle_type_id":"4","last_reported":1737097683,"current_range_meters":7200,"station_id":"ce4bhn12rcd13ifvqgqg","pricing_plan_id":"cebpf4jnsgd1na2vs0mg"},{"bike_id":"34709e64-d1c8-4538-88a5-33805792c0a5","system_id":"levelo_inurba_marseille","lat":43.2583,"lon":5.3942,"is_reserved":false,"is_disabled":false,"rental_uris":{"android":"levelo://app?vid=34709e64-d1c8-4538-88a5-33805792c0a5","ios":"levelo://app?vid=34709e64-d1c8-4538-88a5-33805792c0a5"},"vehicle_type_id":"4","last_reported":1737097683,"current_range_meters":38400,"station_id":"ce4bhip2rcd13ifvqft0","pricing_plan_id":"cebpf4jnsgd1na2vs0mg"},{"bike_id":"deb05b1a-b900-4e6d-ae79-4bed81d3291f","system_id":"levelo_inurba_marseille","lat":43.2707,"lon":5.42275,"is_reserved":false,"is_disabled":true,"rental_uris":{"android":"levelo://app?vid=deb05b1a-b900-4e6d-ae79-4bed81d3291f","ios":"levelo://app?vid=deb05b1a-b900-4e6d-ae79-4bed81d3291f"},"vehicle_type_id":"4","last_reported":1737097683,"current_range_meters":800,"station_id":"ce4bhk92rcd13ifvqgb0","pricing_plan_id":"cebpf4jnsgd1na2vs0mg"},{"bike_id":"95cc0159-a6d7-438c-814d-275314f14090","system_id":"levelo_inurba_marseille","lat":43.27814,"lon":5.40702,"is_reserved":false,"is_disabled":false,"rental_uris":{"android":"levelo://app?vid=95cc0159-a6d7-438c-814d-275314f14090","ios":"levelo://app?vid=95cc0159-a6d7-438c-814d-275314f14090"},"vehicle_type_id":"4","last_reported":1737097683,"current_range_meters":37600,"station_id":"ce4bhnh2rcd13ifvqgtg","pricing_plan_id":"cebpf4jnsgd1na2vs0mg"},{"bike_id":"9c204b68-235c-456d-8b85-33b5153cf099","system_id":"levelo_inurba_marseille","lat":43.2694,"lon":5.38917,"is_reserved":false,"is_disabled":false,"rental_uris":{"android":"levelo://app?vid=9c204b68-235c-456d-8b85-33b5153cf099","ios":"levelo://app?vid=9c204b68-235c-456d-8b85-33b5153cf099"},"vehicle_type_id":"4","last_reported":1737097683,"current_range_meters":32000,"station_id":"ce4bhhh2rcd13ifvqfl0","pricing_plan_id":"cebpf4jnsgd1na2vs0mg"},{"bike_id":"7c2f57ec-2096-45f2-ba04-4d021add5b3e","system_id":"levelo_inurba_marseille","lat":43.3022,"lon":5.39473,"is_reserved":false,"is_disabled":false,"rental_uris":{"android":"levelo://app?vid=7c2f57ec-2096-45f2-ba04-4d021add5b3e","ios":"levelo://app?vid=7c2f57ec-2096-45f2-ba04-4d021add5b3e"},"vehicle_type_id":"4","last_reported":1737097683,"current_range_meters":38000,"station_id":"ce4bh0p2rcd13ifvqd70","pricing_plan_id":"cebpf4jnsgd1na2vs0mg"},{"bike_id":"7a26b63c-652f-4d2d-8353-1a9dfb4e945a","system_id":"levelo_inurba_marseille","lat":43.33736,"lon":5.39187,"is_reserved":false,"is_disabled":false,"rental_uris":{"android":"levelo://app?vid=7a26b63c-652f-4d2d-8353-1a9dfb4e945a","ios":"levelo://app?vid=7a26b63c-652f-4d2d-8353-1a9dfb4e945a"},"vehicle_type_id":"4","last_reported":1737097683,"current_range_meters":39200,"station_id":"ce4bhr92rcd13ifvqhsg","pricing_plan_id":"cebpf4jnsgd1na2vs0mg"},{"bike_id":"5dc88dba-495e-484f-9b04-2299461d7f8a","system_id":"levelo_inurba_marseille","lat":43.26028,"lon":5.3939,"is_reserved":false,"is_disabled":false,"rental_uris":{"android":"levelo://app?vid=5dc88dba-495e-484f-9b04-2299461d7f8a","ios":"levelo://app?vid=5dc88dba-495e-484f-9b04-2299461d7f8a"},"vehicle_type_id":"4","last_reported":1737097683,"current_range_meters":24400,"station_id":"ce4bhh92rcd13ifvqfj0","pricing_plan_id":"cebpf4jnsgd1na2vs0mg"},{"bike_id":"2c7f6479-10c5-4cb5-b269-cf68f62e3cc6","system_id":"levelo_inurba_marseille","lat":43.33752,"lon":5.3744,"is_reserved":false,"is_disabled":false,"rental_uris":{"android":"levelo://app?vid=2c7f6479-10c5-4cb5-b269-cf68f62e3cc6","ios":"levelo://app?vid=2c7f6479-10c5-4cb5-b269-cf68f62e3cc6"},"vehicle_type_id":"4","last_reported":1737097683,"current_range_meters":38800,"station_id":"","pricing_plan_id":"cebpf4jnsgd1na2vs0mg"},{"bike_id":"56b8e9bc-f750-4815-bc98-9098414d16db","system_id":"levelo_inurba_marseille","lat":43.23194,"lon":5.35554,"is_reserved":false,"is_disabled":true,"rental_uris":{"android":"levelo://app?vid=56b8e9bc-f750-4815-bc98-9098414d16db","ios":"levelo://app?vid=56b8e9bc-f750-4815-bc98-9098414d16db"},"vehicle_type_id":"4","last_reported":1737097683,"current_range_meters":0,"station_id":"ce4bhu92rcd13ifvqi70","pricing_plan_id":"cebpf4jnsgd1na2vs0mg"},{"bike_id":"9ff6f5d6-b41c-4876-a28b-7c838bc13c8c","system_id":"levelo_inurba_marseille","lat":43.29037,"lon":5.38647,"is_reserved":false,"is_disabled":false,"rental_uris":{"android":"levelo://app?vid=9ff6f5d6-b41c-4876-a28b-7c838bc13c8c","ios":"levelo://app?vid=9ff6f5d6-b41c-4876-a28b-7c838bc13c8c"},"vehicle_type_id":"4","last_reported":1737097683,"current_range_meters":27200,"station_id":"ce4bh4p2rcd13ifvqe0g","pricing_plan_id":"cebpf4jnsgd1na2vs0mg"},{"bike_id":"23791f20-2fb6-44ab-948d-3a74c4db2519","system_id":"levelo_inurba_marseille","lat":43.29013,"lon":5.38127,"is_reserved":false,"is_disabled":false,"rental_uris":{"android":"levelo://app?vid=23791f20-2fb6-44ab-948d-3a74c4db2519","ios":"levelo://app?vid=23791f20-2fb6-44ab-948d-3a74c4db2519"},"vehicle_type_id":"4","last_reported":1737097683,"current_range_meters":19200,"station_id":"ce4bh4p2rcd13ifvqe1g","pricing_plan_id":"cebpf4jnsgd1na2vs0mg"},{"bike_id":"d7a710b0-adff-4c5c-bf44-f4013363962c","system_id":"levelo_inurba_marseille","lat":43.24693,"lon":5.39431,"is_reserved":false,"is_disabled":false,"rental_uris":{"android":"levelo://app?vid=d7a710b0-adff-4c5c-bf44-f4013363962c","ios":"levelo://app?vid=d7a710b0-adff-4c5c-bf44-f4013363962c"},"vehicle_type_id":"4","last_reported":1737097683,"current_range_meters":38400,"station_id":"","pricing_plan_id":"cebpf4jnsgd1na2vs0mg"},{"bike_id":"fe7ba5aa-2295-4219-b011-ec35d891e374","system_id":"levelo_inurba_marseille","lat":43.2979,"lon":5.39344,"is_reserved":false,"is_disabled":false,"rental_uris":{"android":"levelo://app?vid=fe7ba5aa-2295-4219-b011-ec35d891e374","ios":"levelo://app?vid=fe7ba5aa-2295-4219-b011-ec35d891e374"},"vehicle_type_id":"4","last_reported":1737097683,"current_range_meters":23200,"station_id":"chh1huq6cuj3fo74tm60","pricing_plan_id":"cebpf4jnsgd1na2vs0mg"},{"bike_id":"9a6999c8-4613-480d-b8a0-53e962ad2add","system_id":"levelo_inurba_marseille","lat":43.30608,"lon":5.39387,"is_reserved":false,"is_disabled":false,"rental_uris":{"android":"levelo://app?vid=9a6999c8-4613-480d-b8a0-53e962ad2add","ios":"levelo://app?vid=9a6999c8-4613-480d-b8a0-53e962ad2add"},"vehicle_type_id":"4","last_reported":1737097683,"current_range_meters":20000,"station_id":"ce4bh0p2rcd13ifvqd80","pricing_plan_id":"cebpf4jnsgd1na2vs0mg"},{"bike_id":"60c469fc-3d82-43ea-8ec4-fc0b26db70e6","system_id":"levelo_inurba_marseille","lat":43.24174,"lon":5.39718,"is_reserved":false,"is_disabled":false,"rental_uris":{"android":"levelo://app?vid=60c469fc-3d82-43ea-8ec4-fc0b26db70e6","ios":"levelo://app?vid=60c469fc-3d82-43ea-8ec4-fc0b26db70e6"},"vehicle_type_id":"4","last_reported":1737097683,"current_range_meters":25200,"station_id":"ce4bhn12rcd13ifvqgpg","pricing_plan_id":"cebpf4jnsgd1na2vs0mg"},{"bike_id":"a1efa4cb-90b8-4ba7-95c5-9f7094dd45e5","system_id":"levelo_inurba_marseille","lat":43.25079,"lon":5.40345,"is_reserved":false,"is_disabled":false,"rental_uris":{"android":"levelo://app?vid=a1efa4cb-90b8-4ba7-95c5-9f7094dd45e5","ios":"levelo://app?vid=a1efa4cb-90b8-4ba7-95c5-9f7094dd45e5"},"vehicle_type_id":"4","last_reported":1737097683,"current_range_meters":24400,"station_id":"ce4bhlh2rcd13ifvqgig","pricing_plan_id":"cebpf4jnsgd1na2vs0mg"},{"bike_id":"717f3591-40e9-4d1e-9cc9-45116677cd9c","system_id":"levelo_inurba_marseille","lat":43.30943,"lon":5.39028,"is_reserved":false,"is_disabled":false,"rental_uris":{"android":"levelo://app?vid=717f3591-40e9-4d1e-9cc9-45116677cd9c","ios":"levelo://app?vid=717f3591-40e9-4d1e-9cc9-45116677cd9c"},"vehicle_type_id":"4","last_reported":1737097683,"current_range_meters":8400,"station_id":"ce4bgup2rcd13ifvqco0","pricing_plan_id":"cebpf4jnsgd1na2vs0mg"},{"bike_id":"2e70836a-a10f-4618-953a-21e9a7e8b8d7","system_id":"levelo_inurba_marseille","lat":43.28421,"lon":5.3752,"is_reserved":false,"is_disabled":false,"rental_uris":{"android":"levelo://app?vid=2e70836a-a10f-4618-953a-21e9a7e8b8d7","ios":"levelo://app?vid=2e70836a-a10f-4618-953a-21e9a7e8b8d7"},"vehicle_type_id":"4","last_reported":1737097683,"current_range_meters":27600,"station_id":"ce4bh412rcd13ifvqds0","pricing_plan_id":"cebpf4jnsgd1na2vs0mg"},{"bike_id":"1aa811cc-358a-4b03-b561-da225e090eaf","system_id":"levelo_inurba_marseille","lat":43.29032,"lon":5.39953,"is_reserved":false,"is_disabled":false,"rental_uris":{"android":"levelo://app?vid=1aa811cc-358a-4b03-b561-da225e090eaf","ios":"levelo://app?vid=1aa811cc-358a-4b03-b561-da225e090eaf"},"vehicle_type_id":"4","last_reported":1737097683,"current_range_meters":7200,"station_id":"ce4bh392rcd13ifvqdm0","pricing_plan_id":"cebpf4jnsgd1na2vs0mg"},{"bike_id":"22465212-93af-4e0b-b803-6ee82bba56d5","system_id":"levelo_inurba_marseille","lat":43.33755,"lon":5.37483,"is_reserved":false,"is_disabled":false,"rental_uris":{"android":"levelo://app?vid=22465212-93af-4e0b-b803-6ee82bba56d5","ios":"levelo://app?vid=22465212-93af-4e0b-b803-6ee82bba56d5"},"vehicle_type_id":"4","last_reported":1737097683,"current_range_meters":32000,"station_id":"","pricing_plan_id":"cebpf4jnsgd1na2vs0mg"},{"bike_id":"c643ec2d-81b8-4132-ad4a-7d80e803f63b","system_id":"levelo_inurba_marseille","lat":43.33763,"lon":5.37437,"is_reserved":false,"is_disabled":false,"rental_uris":{"android":"levelo://app?vid=c643ec2d-81b8-4132-ad4a-7d80e803f63b","ios":"levelo://app?vid=c643ec2d-81b8-4132-ad4a-7d80e803f63b"},"vehicle_type_id":"4","last_reported":1737097683,"current_range_meters":38800,"station_id":"","pricing_plan_id":"cebpf4jnsgd1na2vs0mg"},{"bike_id":"c51cc554-db55-4370-8ce5-1d643e4f4fac","system_id":"levelo_inurba_marseille","lat":43.31089,"lon":5.38344,"is_reserved":false,"is_disabled":false,"rental_uris":{"android":"levelo://app?vid=c51cc554-db55-4370-8ce5-1d643e4f4fac","ios":"levelo://app?vid=c51cc554-db55-4370-8ce5-1d643e4f4fac"},"vehicle_type_id":"4","last_reported":1737097683,"current_range_meters":38400,"station_id":"ce4bgv92rcd13ifvqcr0","pricing_plan_id":"cebpf4jnsgd1na2vs0mg"},{"bike_id":"950bc21b-63fe-44c1-b3fa-5c243fc9e8a8","system_id":"levelo_inurba_marseille","lat":43.28276,"lon":5.35059,"is_reserved":false,"is_disabled":false,"rental_uris":{"android":"levelo://app?vid=950bc21b-63fe-44c1-b3fa-5c243fc9e8a8","ios":"levelo://app?vid=950bc21b-63fe-44c1-b3fa-5c243fc9e8a8"},"vehicle_type_id":"4","last_reported":1737097683,"current_range_meters":24800,"station_id":"ce4bhbp2rcd13ifvqerg","pricing_plan_id":"cebpf4jnsgd1na2vs0mg"},{"bike_id":"1a3629e9-87eb-4800-96b6-a01919630a77","system_id":"levelo_inurba_marseille","lat":43.32371,"lon":5.38876,"is_reserved":false,"is_disabled":false,"rental_uris":{"android":"levelo://app?vid=1a3629e9-87eb-4800-96b6-a01919630a77","ios":"levelo://app?vid=1a3629e9-87eb-4800-96b6-a01919630a77"},"vehicle_type_id":"4","last_reported":1737097683,"current_range_meters":29600,"station_id":"ce4bhqp2rcd13ifvqhog","pricing_plan_id":"cebpf4jnsgd1na2vs0mg"},{"bike_id":"373fde6c-25c9-4cec-8101-badd358e7fd8","system_id":"levelo_inurba_marseille","lat":43.26557,"lon":5.37281,"is_reserved":false,"is_disabled":false,"rental_uris":{"android":"levelo://app?vid=373fde6c-25c9-4cec-8101-badd358e7fd8","ios":"levelo://app?vid=373fde6c-25c9-4cec-8101-badd358e7fd8"},"vehicle_type_id":"4","last_reported":1737097683,"current_range_meters":35600,"station_id":"ce4bhg12rcd13ifvqf70","pricing_plan_id":"cebpf4jnsgd1na2vs0mg"},{"bike_id":"84708e74-0fe7-4fb2-addd-7c044bcdb32e","system_id":"levelo_inurba_marseille","lat":43.31993,"lon":5.38138,"is_reserved":false,"is_disabled":false,"rental_uris":{"android":"levelo://app?vid=84708e74-0fe7-4fb2-addd-7c044bcdb32e","ios":"levelo://app?vid=84708e74-0fe7-4fb2-addd-7c044bcdb32e"},"vehicle_type_id":"4","last_reported":1737097683,"current_range_meters":29600,"station_id":"ce4bhr12rcd13ifvqhpg","pricing_plan_id":"cebpf4jnsgd1na2vs0mg"},{"bike_id":"9b3f5263-092a-42a3-985e-303e3ee0becf","system_id":"levelo_inurba_marseille","lat":43.26498,"lon":5.39554,"is_reserved":false,"is_disabled":true,"rental_uris":{"android":"levelo://app?vid=9b3f5263-092a-42a3-985e-303e3ee0becf","ios":"levelo://app?vid=9b3f5263-092a-42a3-985e-303e3ee0becf"},"vehicle_type_id":"4","last_reported":1737097683,"current_range_meters":400,"station_id":"ce4bhi12rcd13ifvqfq0","pricing_plan_id":"cebpf4jnsgd1na2vs0mg"},{"bike_id":"ba3f556c-cf6a-4039-a072-0e6118db4c47","system_id":"levelo_inurba_marseille","lat":43.23149,"lon":5.43731,"is_reserved":false,"is_disabled":true,"rental_uris":{"android":"levelo://app?vid=ba3f556c-cf6a-4039-a072-0e6118db4c47","ios":"levelo://app?vid=ba3f556c-cf6a-4039-a072-0e6118db4c47"},"vehicle_type_id":"4","last_reported":1737097683,"current_range_meters":2000,"station_id":"ce4bhmp2rcd13ifvqgog","pricing_plan_id":"cebpf4jnsgd1na2vs0mg"},{"bike_id":"12d1acc0-d47e-4031-b610-839a5a37f231","system_id":"levelo_inurba_marseille","lat":43.30804,"lon":5.37645,"is_reserved":false,"is_disabled":false,"rental_uris":{"android":"levelo://app?vid=12d1acc0-d47e-4031-b610-839a5a37f231","ios":"levelo://app?vid=12d1acc0-d47e-4031-b610-839a5a37f231"},"vehicle_type_id":"4","last_reported":1737097683,"current_range_meters":28800,"station_id":"ce4bgv92rcd13ifvqcq0","pricing_plan_id":"cebpf4jnsgd1na2vs0mg"},{"bike_id":"7c42c1ed-e436-4a7c-954e-fc9705b4c46d","system_id":"levelo_inurba_marseille","lat":43.28364,"lon":5.38107,"is_reserved":false,"is_disabled":false,"rental_uris":{"android":"levelo://app?vid=7c42c1ed-e436-4a7c-954e-fc9705b4c46d","ios":"levelo://app?vid=7c42c1ed-e436-4a7c-954e-fc9705b4c46d"},"vehicle_type_id":"4","last_reported":1737097683,"current_range_meters":10800,"station_id":"ce4bh412rcd13ifvqdr0","pricing_plan_id":"cebpf4jnsgd1na2vs0mg"},{"bike_id":"84ea5426-3fce-4231-9bdf-a79c77ac6453","system_id":"levelo_inurba_marseille","lat":43.27896,"lon":5.39594,"is_reserved":false,"is_disabled":true,"rental_uris":{"android":"levelo://app?vid=84ea5426-3fce-4231-9bdf-a79c77ac6453","ios":"levelo://app?vid=84ea5426-3fce-4231-9bdf-a79c77ac6453"},"vehicle_type_id":"4","last_reported":1737097683,"current_range_meters":1200,"station_id":"ce4bhf92rcd13ifvqf40","pricing_plan_id":"cebpf4jnsgd1na2vs0mg"},{"bike_id":"16764f9e-b1b9-4d6f-9dca-0161489fba20","system_id":"levelo_inurba_marseille","lat":43.30155,"lon":5.38092,"is_reserved":false,"is_disabled":false,"rental_uris":{"android":"levelo://app?vid=16764f9e-b1b9-4d6f-9dca-0161489fba20","ios":"levelo://app?vid=16764f9e-b1b9-4d6f-9dca-0161489fba20"},"vehicle_type_id":"4","last_reported":1737097683,"current_range_meters":28000,"station_id":"ce4bgjp2rcd13ifvqbh0","pricing_plan_id":"cebpf4jnsgd1na2vs0mg"},{"bike_id":"24bcc0cf-8c95-40af-8068-dc3c48d5cf59","system_id":"levelo_inurba_marseille","lat":43.33617,"lon":5.4097,"is_reserved":false,"is_disabled":false,"rental_uris":{"android":"levelo://app?vid=24bcc0cf-8c95-40af-8068-dc3c48d5cf59","ios":"levelo://app?vid=24bcc0cf-8c95-40af-8068-dc3c48d5cf59"},"vehicle_type_id":"4","last_reported":1737097683,"current_range_meters":38800,"station_id":"ce4bhqh2rcd13ifvqhmg","pricing_plan_id":"cebpf4jnsgd1na2vs0mg"},{"bike_id":"88f06cab-f371-470b-85ff-7238b57cbcc5","system_id":"levelo_inurba_marseille","lat":43.25859,"lon":5.39897,"is_reserved":false,"is_disabled":false,"rental_uris":{"android":"levelo://app?vid=88f06cab-f371-470b-85ff-7238b57cbcc5","ios":"levelo://app?vid=88f06cab-f371-470b-85ff-7238b57cbcc5"},"vehicle_type_id":"4","last_reported":1737097683,"current_range_meters":26800,"station_id":"ce4bhl92rcd13ifvqghg","pricing_plan_id":"cebpf4jnsgd1na2vs0mg"},{"bike_id":"6a7366d7-ed8c-4629-bf0c-70c2abcda36d","system_id":"levelo_inurba_marseille","lat":43.23186,"lon":5.35559,"is_reserved":false,"is_disabled":false,"rental_uris":{"android":"levelo://app?vid=6a7366d7-ed8c-4629-bf0c-70c2abcda36d","ios":"levelo://app?vid=6a7366d7-ed8c-4629-bf0c-70c2abcda36d"},"vehicle_type_id":"4","last_reported":1737097683,"current_range_meters":8400,"station_id":"ce4bhu92rcd13ifvqi70","pricing_plan_id":"cebpf4jnsgd1na2vs0mg"},{"bike_id":"fb728eb9-c6dd-478e-b742-f6d266b3696e","system_id":"levelo_inurba_marseille","lat":43.24071,"lon":5.37752,"is_reserved":false,"is_disabled":false,"rental_uris":{"android":"levelo://app?vid=fb728eb9-c6dd-478e-b742-f6d266b3696e","ios":"levelo://app?vid=fb728eb9-c6dd-478e-b742-f6d266b3696e"},"vehicle_type_id":"4","last_reported":1737097683,"current_range_meters":37600,"station_id":"ce4bhnp2rcd13ifvqgvg","pricing_plan_id":"cebpf4jnsgd1na2vs0mg"},{"bike_id":"2d7f3353-743b-41e1-85f2-e32181d4ae48","system_id":"levelo_inurba_marseille","lat":43.31995,"lon":5.38103,"is_reserved":false,"is_disabled":false,"rental_uris":{"android":"levelo://app?vid=2d7f3353-743b-41e1-85f2-e32181d4ae48","ios":"levelo://app?vid=2d7f3353-743b-41e1-85f2-e32181d4ae48"},"vehicle_type_id":"4","last_reported":1737097683,"current_range_meters":29600,"station_id":"ce4bhr12rcd13ifvqhpg","pricing_plan_id":"cebpf4jnsgd1na2vs0mg"},{"bike_id":"573076c8-1172-47e5-b129-cb987286e5ee","system_id":"levelo_inurba_marseille","lat":43.27807,"lon":5.40681,"is_reserved":false,"is_disabled":false,"rental_uris":{"android":"levelo://app?vid=573076c8-1172-47e5-b129-cb987286e5ee","ios":"levelo://app?vid=573076c8-1172-47e5-b129-cb987286e5ee"},"vehicle_type_id":"4","last_reported":1737097683,"current_range_meters":38400,"station_id":"ce4bhnh2rcd13ifvqgtg","pricing_plan_id":"cebpf4jnsgd1na2vs0mg"},{"bike_id":"88fc87a1-8726-4e5b-8bd9-9f5e0af0d218","system_id":"levelo_inurba_marseille","lat":43.30582,"lon":5.39359,"is_reserved":false,"is_disabled":false,"rental_uris":{"android":"levelo://app?vid=88fc87a1-8726-4e5b-8bd9-9f5e0af0d218","ios":"levelo://app?vid=88fc87a1-8726-4e5b-8bd9-9f5e0af0d218"},"vehicle_type_id":"4","last_reported":1737097683,"current_range_meters":12400,"station_id":"ce4bh0p2rcd13ifvqd80","pricing_plan_id":"cebpf4jnsgd1na2vs0mg"},{"bike_id":"35deb437-7ef2-4ee7-9ea5-27ce0001ca7b","system_id":"levelo_inurba_marseille","lat":43.26063,"lon":5.39385,"is_reserved":false,"is_disabled":false,"rental_uris":{"android":"levelo://app?vid=35deb437-7ef2-4ee7-9ea5-27ce0001ca7b","ios":"levelo://app?vid=35deb437-7ef2-4ee7-9ea5-27ce0001ca7b"},"vehicle_type_id":"4","last_reported":1737097683,"current_range_meters":38000,"station_id":"ce4bhh92rcd13ifvqfj0","pricing_plan_id":"cebpf4jnsgd1na2vs0mg"},{"bike_id":"2072f9e5-186b-42b5-9eeb-936519a52746","system_id":"levelo_inurba_marseille","lat":43.30588,"lon":5.39362,"is_reserved":false,"is_disabled":false,"rental_uris":{"android":"levelo://app?vid=2072f9e5-186b-42b5-9eeb-936519a52746","ios":"levelo://app?vid=2072f9e5-186b-42b5-9eeb-936519a52746"},"vehicle_type_id":"4","last_reported":1737097683,"current_range_meters":20400,"station_id":"ce4bh0p2rcd13ifvqd80","pricing_plan_id":"cebpf4jnsgd1na2vs0mg"},{"bike_id":"006eddf6-3b41-4a21-a985-f7a4350b5bf4","system_id":"levelo_inurba_marseille","lat":43.26064,"lon":5.39388,"is_reserved":false,"is_disabled":false,"rental_uris":{"android":"levelo://app?vid=006eddf6-3b41-4a21-a985-f7a4350b5bf4","ios":"levelo://app?vid=006eddf6-3b41-4a21-a985-f7a4350b5bf4"},"vehicle_type_id":"4","last_reported":1737097683,"current_range_meters":30000,"station_id":"ce4bhh92rcd13ifvqfj0","pricing_plan_id":"cebpf4jnsgd1na2vs0mg"},{"bike_id":"6bdea331-32f7-46ff-a178-aa3ec9a6cbb8","system_id":"levelo_inurba_marseille","lat":43.3188,"lon":5.40735,"is_reserved":false,"is_disabled":false,"rental_uris":{"android":"levelo://app?vid=6bdea331-32f7-46ff-a178-aa3ec9a6cbb8","ios":"levelo://app?vid=6bdea331-32f7-46ff-a178-aa3ec9a6cbb8"},"vehicle_type_id":"4","last_reported":1737097683,"current_range_meters":14800,"station_id":"ce4bhq12rcd13ifvqhig","pricing_plan_id":"cebpf4jnsgd1na2vs0mg"},{"bike_id":"bf989edc-c671-4558-86c0-ca2a191ec8f3","system_id":"levelo_inurba_marseille","lat":43.3254,"lon":5.41422,"is_reserved":false,"is_disabled":false,"rental_uris":{"android":"levelo://app?vid=bf989edc-c671-4558-86c0-ca2a191ec8f3","ios":"levelo://app?vid=bf989edc-c671-4558-86c0-ca2a191ec8f3"},"vehicle_type_id":"4","last_reported":1737097683,"current_range_meters":36400,"station_id":"ce4bhq12rcd13ifvqhhg","pricing_plan_id":"cebpf4jnsgd1na2vs0mg"},{"bike_id":"3c7eae7d-5d56-4a4e-b634-6ae607c41217","system_id":"levelo_inurba_marseille","lat":43.29873,"lon":5.39728,"is_reserved":false,"is_disabled":false,"rental_uris":{"android":"levelo://app?vid=3c7eae7d-5d56-4a4e-b634-6ae607c41217","ios":"levelo://app?vid=3c7eae7d-5d56-4a4e-b634-6ae607c41217"},"vehicle_type_id":"4","last_reported":1737097683,"current_range_meters":25200,"station_id":"ce4bh0h2rcd13ifvqd50","pricing_plan_id":"cebpf4jnsgd1na2vs0mg"},{"bike_id":"5d42a98e-bef8-43af-946e-751274f82d4c","system_id":"levelo_inurba_marseille","lat":43.23662,"lon":5.4359,"is_reserved":false,"is_disabled":true,"rental_uris":{"android":"levelo://app?vid=5d42a98e-bef8-43af-946e-751274f82d4c","ios":"levelo://app?vid=5d42a98e-bef8-43af-946e-751274f82d4c"},"vehicle_type_id":"4","last_reported":1737097683,"current_range_meters":28400,"station_id":"","pricing_plan_id":"cebpf4jnsgd1na2vs0mg"},{"bike_id":"f385db6a-7dcd-4b5c-81bf-ad5301981e68","system_id":"levelo_inurba_marseille","lat":43.29277,"lon":5.40113,"is_reserved":false,"is_disabled":false,"rental_uris":{"android":"levelo://app?vid=f385db6a-7dcd-4b5c-81bf-ad5301981e68","ios":"levelo://app?vid=f385db6a-7dcd-4b5c-81bf-ad5301981e68"},"vehicle_type_id":"4","last_reported":1737097683,"current_range_meters":38800,"station_id":"ce4bh312rcd13ifvqdk0","pricing_plan_id":"cebpf4jnsgd1na2vs0mg"},{"bike_id":"9fef62c1-09f6-4d53-ab83-76888bceebbd","system_id":"levelo_inurba_marseille","lat":43.261913,"lon":5.420717,"is_reserved":false,"is_disabled":false,"rental_uris":{"android":"levelo://app?vid=9fef62c1-09f6-4d53-ab83-76888bceebbd","ios":"levelo://app?vid=9fef62c1-09f6-4d53-ab83-76888bceebbd"},"vehicle_type_id":"4","last_reported":1737097683,"current_range_meters":25600,"station_id":"","pricing_plan_id":"cebpf4jnsgd1na2vs0mg"},{"bike_id":"1bc46916-ca74-498d-8d82-1e7f9a99ebb2","system_id":"levelo_inurba_marseille","lat":43.29038,"lon":5.39959,"is_reserved":false,"is_disabled":false,"rental_uris":{"android":"levelo://app?vid=1bc46916-ca74-498d-8d82-1e7f9a99ebb2","ios":"levelo://app?vid=1bc46916-ca74-498d-8d82-1e7f9a99ebb2"},"vehicle_type_id":"4","last_reported":1737097683,"current_range_meters":38800,"station_id":"ce4bh392rcd13ifvqdm0","pricing_plan_id":"cebpf4jnsgd1na2vs0mg"},{"bike_id":"d6a218ed-6a18-493c-a7a3-76050f7dfd9f","system_id":"levelo_inurba_marseille","lat":43.29594,"lon":5.38091,"is_reserved":false,"is_disabled":false,"rental_uris":{"android":"levelo://app?vid=d6a218ed-6a18-493c-a7a3-76050f7dfd9f","ios":"levelo://app?vid=d6a218ed-6a18-493c-a7a3-76050f7dfd9f"},"vehicle_type_id":"4","last_reported":1737097683,"current_range_meters":30000,"station_id":"ce4bgl12rcd13ifvqbo0","pricing_plan_id":"cebpf4jnsgd1na2vs0mg"},{"bike_id":"f7fecae7-c011-459a-be72-814405aac612","system_id":"levelo_inurba_marseille","lat":43.30588,"lon":5.39378,"is_reserved":false,"is_disabled":false,"rental_uris":{"android":"levelo://app?vid=f7fecae7-c011-459a-be72-814405aac612","ios":"levelo://app?vid=f7fecae7-c011-459a-be72-814405aac612"},"vehicle_type_id":"4","last_reported":1737097683,"current_range_meters":32000,"station_id":"ce4bh0p2rcd13ifvqd80","pricing_plan_id":"cebpf4jnsgd1na2vs0mg"},{"bike_id":"8eca6891-282f-4f00-9432-07553d6fed7f","system_id":"levelo_inurba_marseille","lat":43.32964,"lon":5.39028,"is_reserved":false,"is_disabled":false,"rental_uris":{"android":"levelo://app?vid=8eca6891-282f-4f00-9432-07553d6fed7f","ios":"levelo://app?vid=8eca6891-282f-4f00-9432-07553d6fed7f"},"vehicle_type_id":"4","last_reported":1737097683,"current_range_meters":22000,"station_id":"","pricing_plan_id":"cebpf4jnsgd1na2vs0mg"},{"bike_id":"0fee28ad-f88a-46b7-8906-1e9dacabafcc","system_id":"levelo_inurba_marseille","lat":43.30123,"lon":5.38795,"is_reserved":false,"is_disabled":false,"rental_uris":{"android":"levelo://app?vid=0fee28ad-f88a-46b7-8906-1e9dacabafcc","ios":"levelo://app?vid=0fee28ad-f88a-46b7-8906-1e9dacabafcc"},"vehicle_type_id":"4","last_reported":1737097683,"current_range_meters":16400,"station_id":"ce4bghh2rcd13ifvqb60","pricing_plan_id":"cebpf4jnsgd1na2vs0mg"},{"bike_id":"131f6141-90b2-4192-9229-029aa4530760","system_id":"levelo_inurba_marseille","lat":43.29604,"lon":5.38101,"is_reserved":false,"is_disabled":false,"rental_uris":{"android":"levelo://app?vid=131f6141-90b2-4192-9229-029aa4530760","ios":"levelo://app?vid=131f6141-90b2-4192-9229-029aa4530760"},"vehicle_type_id":"4","last_reported":1737097683,"current_range_meters":24800,"station_id":"ce4bgl12rcd13ifvqbo0","pricing_plan_id":"cebpf4jnsgd1na2vs0mg"},{"bike_id":"2fe6efce-6b1c-4358-8ba7-da446feca92a","system_id":"levelo_inurba_marseille","lat":43.28709,"lon":5.399865,"is_reserved":false,"is_disabled":false,"rental_uris":{"android":"levelo://app?vid=2fe6efce-6b1c-4358-8ba7-da446feca92a","ios":"levelo://app?vid=2fe6efce-6b1c-4358-8ba7-da446feca92a"},"vehicle_type_id":"4","last_reported":1737097683,"current_range_meters":36800,"station_id":"ce4bho92rcd13ifvqh3g","pricing_plan_id":"cebpf4jnsgd1na2vs0mg"},{"bike_id":"5b3e2687-53f3-4872-aea9-c615e16029aa","system_id":"levelo_inurba_marseille","lat":43.30943,"lon":5.39036,"is_reserved":false,"is_disabled":false,"rental_uris":{"android":"levelo://app?vid=5b3e2687-53f3-4872-aea9-c615e16029aa","ios":"levelo://app?vid=5b3e2687-53f3-4872-aea9-c615e16029aa"},"vehicle_type_id":"4","last_reported":1737097683,"current_range_meters":35600,"station_id":"ce4bgup2rcd13ifvqco0","pricing_plan_id":"cebpf4jnsgd1na2vs0mg"},{"bike_id":"d6a42346-a590-43c2-877e-f1bf8e8be9ea","system_id":"levelo_inurba_marseille","lat":43.23974,"lon":5.36613,"is_reserved":false,"is_disabled":false,"rental_uris":{"android":"levelo://app?vid=d6a42346-a590-43c2-877e-f1bf8e8be9ea","ios":"levelo://app?vid=d6a42346-a590-43c2-877e-f1bf8e8be9ea"},"vehicle_type_id":"4","last_reported":1737097683,"current_range_meters":29600,"station_id":"ce4bhi12rcd13ifvqfp0","pricing_plan_id":"cebpf4jnsgd1na2vs0mg"},{"bike_id":"08651aa7-3b96-4acf-818e-074b84f36b09","system_id":"levelo_inurba_marseille","lat":43.34141,"lon":5.40904,"is_reserved":false,"is_disabled":false,"rental_uris":{"android":"levelo://app?vid=08651aa7-3b96-4acf-818e-074b84f36b09","ios":"levelo://app?vid=08651aa7-3b96-4acf-818e-074b84f36b09"},"vehicle_type_id":"4","last_reported":1737097683,"current_range_meters":38800,"station_id":"ce4bhqh2rcd13ifvqhlg","pricing_plan_id":"cebpf4jnsgd1na2vs0mg"},{"bike_id":"ea68a76e-b4c6-4be9-ab98-1a2f34b18dea","system_id":"levelo_inurba_marseille","lat":43.24155,"lon":5.3975,"is_reserved":false,"is_disabled":false,"rental_uris":{"android":"levelo://app?vid=ea68a76e-b4c6-4be9-ab98-1a2f34b18dea","ios":"levelo://app?vid=ea68a76e-b4c6-4be9-ab98-1a2f34b18dea"},"vehicle_type_id":"4","last_reported":1737097683,"current_range_meters":16400,"station_id":"ce4bhn12rcd13ifvqgpg","pricing_plan_id":"cebpf4jnsgd1na2vs0mg"},{"bike_id":"c7b019f7-5d57-48a0-afbe-9c39028ab5f4","system_id":"levelo_inurba_marseille","lat":43.27576,"lon":5.3839,"is_reserved":false,"is_disabled":false,"rental_uris":{"android":"levelo://app?vid=c7b019f7-5d57-48a0-afbe-9c39028ab5f4","ios":"levelo://app?vid=c7b019f7-5d57-48a0-afbe-9c39028ab5f4"},"vehicle_type_id":"4","last_reported":1737097683,"current_range_meters":25200,"station_id":"ce4bhh92rcd13ifvqfi0","pricing_plan_id":"cebpf4jnsgd1na2vs0mg"},{"bike_id":"fafda47e-f2ad-447c-b5eb-b7460634d9bc","system_id":"levelo_inurba_marseille","lat":43.27498,"lon":5.42446,"is_reserved":false,"is_disabled":false,"rental_uris":{"android":"levelo://app?vid=fafda47e-f2ad-447c-b5eb-b7460634d9bc","ios":"levelo://app?vid=fafda47e-f2ad-447c-b5eb-b7460634d9bc"},"vehicle_type_id":"4","last_reported":1737097683,"current_range_meters":6000,"station_id":"ce4bhn92rcd13ifvqgrg","pricing_plan_id":"cebpf4jnsgd1na2vs0mg"},{"bike_id":"7f626453-c9a5-4331-8a22-4e0dbc7062d1","system_id":"levelo_inurba_marseille","lat":43.2972,"lon":5.36604,"is_reserved":false,"is_disabled":false,"rental_uris":{"android":"levelo://app?vid=7f626453-c9a5-4331-8a22-4e0dbc7062d1","ios":"levelo://app?vid=7f626453-c9a5-4331-8a22-4e0dbc7062d1"},"vehicle_type_id":"4","last_reported":1737097683,"current_range_meters":24800,"station_id":"ce4bgn12rcd13ifvqbt0","pricing_plan_id":"cebpf4jnsgd1na2vs0mg"},{"bike_id":"7383474c-b45a-4438-837c-99d7ae866fe7","system_id":"levelo_inurba_marseille","lat":43.26041,"lon":5.39375,"is_reserved":false,"is_disabled":false,"rental_uris":{"android":"levelo://app?vid=7383474c-b45a-4438-837c-99d7ae866fe7","ios":"levelo://app?vid=7383474c-b45a-4438-837c-99d7ae866fe7"},"vehicle_type_id":"4","last_reported":1737097683,"current_range_meters":38800,"station_id":"ce4bhh92rcd13ifvqfj0","pricing_plan_id":"cebpf4jnsgd1na2vs0mg"},{"bike_id":"ba8d97e8-84e2-44f7-963a-982532ef1fa9","system_id":"levelo_inurba_marseille","lat":43.2768,"lon":5.38896,"is_reserved":false,"is_disabled":false,"rental_uris":{"android":"levelo://app?vid=ba8d97e8-84e2-44f7-963a-982532ef1fa9","ios":"levelo://app?vid=ba8d97e8-84e2-44f7-963a-982532ef1fa9"},"vehicle_type_id":"4","last_reported":1737097683,"current_range_meters":39200,"station_id":"ce4bhi12rcd13ifvqfo0","pricing_plan_id":"cebpf4jnsgd1na2vs0mg"},{"bike_id":"c1bdca1b-e00a-46d9-92f7-77c5d8c38ba0","system_id":"levelo_inurba_marseille","lat":43.29202,"lon":5.39316,"is_reserved":false,"is_disabled":false,"rental_uris":{"android":"levelo://app?vid=c1bdca1b-e00a-46d9-92f7-77c5d8c38ba0","ios":"levelo://app?vid=c1bdca1b-e00a-46d9-92f7-77c5d8c38ba0"},"vehicle_type_id":"4","last_reported":1737097683,"current_range_meters":32000,"station_id":"ce4bh192rcd13ifvqdd0","pricing_plan_id":"cebpf4jnsgd1na2vs0mg"},{"bike_id":"0f1639ab-90d2-4609-9441-a7cee18da212","system_id":"levelo_inurba_marseille","lat":43.27493,"lon":5.42454,"is_reserved":false,"is_disabled":false,"rental_uris":{"android":"levelo://app?vid=0f1639ab-90d2-4609-9441-a7cee18da212","ios":"levelo://app?vid=0f1639ab-90d2-4609-9441-a7cee18da212"},"vehicle_type_id":"4","last_reported":1737097683,"current_range_meters":28800,"station_id":"ce4bhn92rcd13ifvqgrg","pricing_plan_id":"cebpf4jnsgd1na2vs0mg"},{"bike_id":"dd8dca4c-a199-4405-9dd8-907e6d8df502","system_id":"levelo_inurba_marseille","lat":43.30468,"lon":5.37922,"is_reserved":false,"is_disabled":false,"rental_uris":{"android":"levelo://app?vid=dd8dca4c-a199-4405-9dd8-907e6d8df502","ios":"levelo://app?vid=dd8dca4c-a199-4405-9dd8-907e6d8df502"},"vehicle_type_id":"4","last_reported":1737097683,"current_range_meters":38400,"station_id":"ce4bgup2rcd13ifvqcn0","pricing_plan_id":"cebpf4jnsgd1na2vs0mg"},{"bike_id":"16d325dc-7c99-4415-9fea-abcbee5d2959","system_id":"levelo_inurba_marseille","lat":43.29786,"lon":5.39354,"is_reserved":false,"is_disabled":false,"rental_uris":{"android":"levelo://app?vid=16d325dc-7c99-4415-9fea-abcbee5d2959","ios":"levelo://app?vid=16d325dc-7c99-4415-9fea-abcbee5d2959"},"vehicle_type_id":"4","last_reported":1737097683,"current_range_meters":3200,"station_id":"chh1huq6cuj3fo74tm60","pricing_plan_id":"cebpf4jnsgd1na2vs0mg"},{"bike_id":"63e4a6f8-732e-4740-980d-fefaa3a000a1","system_id":"levelo_inurba_marseille","lat":43.27207,"lon":5.39175,"is_reserved":false,"is_disabled":false,"rental_uris":{"android":"levelo://app?vid=63e4a6f8-732e-4740-980d-fefaa3a000a1","ios":"levelo://app?vid=63e4a6f8-732e-4740-980d-fefaa3a000a1"},"vehicle_type_id":"4","last_reported":1737097683,"current_range_meters":24800,"station_id":"ce4bhhp2rcd13ifvqfm0","pricing_plan_id":"cebpf4jnsgd1na2vs0mg"},{"bike_id":"ddd4ef6d-fd11-4bda-af47-cb1235bf85f6","system_id":"levelo_inurba_marseille","lat":43.29621,"lon":5.38108,"is_reserved":false,"is_disabled":false,"rental_uris":{"android":"levelo://app?vid=ddd4ef6d-fd11-4bda-af47-cb1235bf85f6","ios":"levelo://app?vid=ddd4ef6d-fd11-4bda-af47-cb1235bf85f6"},"vehicle_type_id":"4","last_reported":1737097683,"current_range_meters":34800,"station_id":"ce4bgl12rcd13ifvqbo0","pricing_plan_id":"cebpf4jnsgd1na2vs0mg"},{"bike_id":"22ccf45d-452d-45b0-ab56-995b2e477ec6","system_id":"levelo_inurba_marseille","lat":43.315031,"lon":5.372922,"is_reserved":false,"is_disabled":false,"rental_uris":{"android":"levelo://app?vid=22ccf45d-452d-45b0-ab56-995b2e477ec6","ios":"levelo://app?vid=22ccf45d-452d-45b0-ab56-995b2e477ec6"},"vehicle_type_id":"4","last_reported":1737097683,"current_range_meters":8800,"station_id":"ce4bgt12rcd13ifvqcd0","pricing_plan_id":"cebpf4jnsgd1na2vs0mg"},{"bike_id":"44721705-52d0-4eba-b0b2-b41ea9586411","system_id":"levelo_inurba_marseille","lat":43.23189,"lon":5.35577,"is_reserved":false,"is_disabled":false,"rental_uris":{"android":"levelo://app?vid=44721705-52d0-4eba-b0b2-b41ea9586411","ios":"levelo://app?vid=44721705-52d0-4eba-b0b2-b41ea9586411"},"vehicle_type_id":"4","last_reported":1737097683,"current_range_meters":30800,"station_id":"ce4bhu92rcd13ifvqi70","pricing_plan_id":"cebpf4jnsgd1na2vs0mg"},{"bike_id":"bca8ca0e-e6bb-4c30-9c0f-003d202e822c","system_id":"levelo_inurba_marseille","lat":43.27326,"lon":5.39073,"is_reserved":false,"is_disabled":false,"rental_uris":{"android":"levelo://app?vid=bca8ca0e-e6bb-4c30-9c0f-003d202e822c","ios":"levelo://app?vid=bca8ca0e-e6bb-4c30-9c0f-003d202e822c"},"vehicle_type_id":"4","last_reported":1737097683,"current_range_meters":35600,"station_id":"ce4bhgp2rcd13ifvqfe0","pricing_plan_id":"cebpf4jnsgd1na2vs0mg"},{"bike_id":"fe4ca2de-39b1-4c54-a18c-5b9311dc9a5e","system_id":"levelo_inurba_marseille","lat":43.30535,"lon":5.36538,"is_reserved":false,"is_disabled":false,"rental_uris":{"android":"levelo://app?vid=fe4ca2de-39b1-4c54-a18c-5b9311dc9a5e","ios":"levelo://app?vid=fe4ca2de-39b1-4c54-a18c-5b9311dc9a5e"},"vehicle_type_id":"4","last_reported":1737097683,"current_range_meters":38400,"station_id":"ce4bgs12rcd13ifvqcag","pricing_plan_id":"cebpf4jnsgd1na2vs0mg"},{"bike_id":"7138f953-e5b4-4a72-b4e7-3913f820a576","system_id":"levelo_inurba_marseille","lat":43.27202,"lon":5.41017,"is_reserved":false,"is_disabled":false,"rental_uris":{"android":"levelo://app?vid=7138f953-e5b4-4a72-b4e7-3913f820a576","ios":"levelo://app?vid=7138f953-e5b4-4a72-b4e7-3913f820a576"},"vehicle_type_id":"4","last_reported":1737097683,"current_range_meters":38800,"station_id":"ce4bhl12rcd13ifvqgf0","pricing_plan_id":"cebpf4jnsgd1na2vs0mg"},{"bike_id":"ce3f8e80-fb51-451d-ab72-fdb95c9eab5e","system_id":"levelo_inurba_marseille","lat":43.30593,"lon":5.3936,"is_reserved":false,"is_disabled":false,"rental_uris":{"android":"levelo://app?vid=ce3f8e80-fb51-451d-ab72-fdb95c9eab5e","ios":"levelo://app?vid=ce3f8e80-fb51-451d-ab72-fdb95c9eab5e"},"vehicle_type_id":"4","last_reported":1737097683,"current_range_meters":28400,"station_id":"ce4bh0p2rcd13ifvqd80","pricing_plan_id":"cebpf4jnsgd1na2vs0mg"},{"bike_id":"65ce034a-f255-430b-b7d5-7d708fcfda04","system_id":"levelo_inurba_marseille","lat":43.28274,"lon":5.35067,"is_reserved":false,"is_disabled":false,"rental_uris":{"android":"levelo://app?vid=65ce034a-f255-430b-b7d5-7d708fcfda04","ios":"levelo://app?vid=65ce034a-f255-430b-b7d5-7d708fcfda04"},"vehicle_type_id":"4","last_reported":1737097683,"current_range_meters":38800,"station_id":"ce4bhbp2rcd13ifvqerg","pricing_plan_id":"cebpf4jnsgd1na2vs0mg"},{"bike_id":"d0b99c82-423c-44ce-98f1-87a1e3a9dd17","system_id":"levelo_inurba_marseille","lat":43.29787,"lon":5.39362,"is_reserved":false,"is_disabled":false,"rental_uris":{"android":"levelo://app?vid=d0b99c82-423c-44ce-98f1-87a1e3a9dd17","ios":"levelo://app?vid=d0b99c82-423c-44ce-98f1-87a1e3a9dd17"},"vehicle_type_id":"4","last_reported":1737097683,"current_range_meters":10800,"station_id":"chh1huq6cuj3fo74tm60","pricing_plan_id":"cebpf4jnsgd1na2vs0mg"},{"bike_id":"e1f9a0b5-1419-4e67-ab24-a72ee45dfd85","system_id":"levelo_inurba_marseille","lat":43.24166,"lon":5.36398,"is_reserved":false,"is_disabled":false,"rental_uris":{"android":"levelo://app?vid=e1f9a0b5-1419-4e67-ab24-a72ee45dfd85","ios":"levelo://app?vid=e1f9a0b5-1419-4e67-ab24-a72ee45dfd85"},"vehicle_type_id":"4","last_reported":1737097683,"current_range_meters":16800,"station_id":"cpo36qri1sfpv3e86is0","pricing_plan_id":"cebpf4jnsgd1na2vs0mg"},{"bike_id":"b1e2abdc-0a2c-484d-a8c7-5c8035ac4d78","system_id":"levelo_inurba_marseille","lat":43.24077,"lon":5.37755,"is_reserved":false,"is_disabled":false,"rental_uris":{"android":"levelo://app?vid=b1e2abdc-0a2c-484d-a8c7-5c8035ac4d78","ios":"levelo://app?vid=b1e2abdc-0a2c-484d-a8c7-5c8035ac4d78"},"vehicle_type_id":"4","last_reported":1737097683,"current_range_meters":23200,"station_id":"ce4bhnp2rcd13ifvqgvg","pricing_plan_id":"cebpf4jnsgd1na2vs0mg"},{"bike_id":"8f614e1f-84f3-4dcd-b94a-4b22991f6e04","system_id":"levelo_inurba_marseille","lat":43.29225,"lon":5.360661,"is_reserved":false,"is_disabled":false,"rental_uris":{"android":"levelo://app?vid=8f614e1f-84f3-4dcd-b94a-4b22991f6e04","ios":"levelo://app?vid=8f614e1f-84f3-4dcd-b94a-4b22991f6e04"},"vehicle_type_id":"4","last_reported":1737097683,"current_range_meters":24000,"station_id":"ce4bhbh2rcd13ifvqeqg","pricing_plan_id":"cebpf4jnsgd1na2vs0mg"},{"bike_id":"882e3c20-dd13-45c9-b2cc-b9e0e7c63a64","system_id":"levelo_inurba_marseille","lat":43.30524,"lon":5.36532,"is_reserved":false,"is_disabled":false,"rental_uris":{"android":"levelo://app?vid=882e3c20-dd13-45c9-b2cc-b9e0e7c63a64","ios":"levelo://app?vid=882e3c20-dd13-45c9-b2cc-b9e0e7c63a64"},"vehicle_type_id":"4","last_reported":1737097683,"current_range_meters":37600,"station_id":"ce4bgs12rcd13ifvqcag","pricing_plan_id":"cebpf4jnsgd1na2vs0mg"},{"bike_id":"c3de6877-1f6c-46f2-8ace-6b8834abcbb4","system_id":"levelo_inurba_marseille","lat":43.2907,"lon":5.37168,"is_reserved":false,"is_disabled":true,"rental_uris":{"android":"levelo://app?vid=c3de6877-1f6c-46f2-8ace-6b8834abcbb4","ios":"levelo://app?vid=c3de6877-1f6c-46f2-8ace-6b8834abcbb4"},"vehicle_type_id":"4","last_reported":1737097683,"current_range_meters":27600,"station_id":"ce4bh5p2rcd13ifvqe4g","pricing_plan_id":"cebpf4jnsgd1na2vs0mg"},{"bike_id":"1a9270b2-f1d1-4e72-a6ac-8b2afd80e7e0","system_id":"levelo_inurba_marseille","lat":43.23192,"lon":5.39997,"is_reserved":false,"is_disabled":false,"rental_uris":{"android":"levelo://app?vid=1a9270b2-f1d1-4e72-a6ac-8b2afd80e7e0","ios":"levelo://app?vid=1a9270b2-f1d1-4e72-a6ac-8b2afd80e7e0"},"vehicle_type_id":"4","last_reported":1737097683,"current_range_meters":10800,"station_id":"ce4bhn12rcd13ifvqgqg","pricing_plan_id":"cebpf4jnsgd1na2vs0mg"},{"bike_id":"040785f9-bc85-4d1f-b57d-614630d60385","system_id":"levelo_inurba_marseille","lat":43.27705,"lon":5.38912,"is_reserved":false,"is_disabled":true,"rental_uris":{"android":"levelo://app?vid=040785f9-bc85-4d1f-b57d-614630d60385","ios":"levelo://app?vid=040785f9-bc85-4d1f-b57d-614630d60385"},"vehicle_type_id":"4","last_reported":1737097683,"current_range_meters":20400,"station_id":"ce4bhi12rcd13ifvqfo0","pricing_plan_id":"cebpf4jnsgd1na2vs0mg"},{"bike_id":"e0b58fdf-8c8f-454b-8926-2f8df7a5baaf","system_id":"levelo_inurba_marseille","lat":43.23617,"lon":5.39187,"is_reserved":false,"is_disabled":false,"rental_uris":{"android":"levelo://app?vid=e0b58fdf-8c8f-454b-8926-2f8df7a5baaf","ios":"levelo://app?vid=e0b58fdf-8c8f-454b-8926-2f8df7a5baaf"},"vehicle_type_id":"4","last_reported":1737097683,"current_range_meters":15200,"station_id":"","pricing_plan_id":"cebpf4jnsgd1na2vs0mg"},{"bike_id":"6cbf59e6-0bb3-4821-85b9-5e1365575a2a","system_id":"levelo_inurba_marseille","lat":43.2582,"lon":5.3942,"is_reserved":false,"is_disabled":false,"rental_uris":{"android":"levelo://app?vid=6cbf59e6-0bb3-4821-85b9-5e1365575a2a","ios":"levelo://app?vid=6cbf59e6-0bb3-4821-85b9-5e1365575a2a"},"vehicle_type_id":"4","last_reported":1737097683,"current_range_meters":10000,"station_id":"ce4bhip2rcd13ifvqft0","pricing_plan_id":"cebpf4jnsgd1na2vs0mg"},{"bike_id":"02a6b7ca-ec9c-4008-8993-8035651c4eda","system_id":"levelo_inurba_marseille","lat":43.313631,"lon":5.384917,"is_reserved":false,"is_disabled":false,"rental_uris":{"android":"levelo://app?vid=02a6b7ca-ec9c-4008-8993-8035651c4eda","ios":"levelo://app?vid=02a6b7ca-ec9c-4008-8993-8035651c4eda"},"vehicle_type_id":"4","last_reported":1737097683,"current_range_meters":38800,"station_id":"ce4bgt12rcd13ifvqcd0","pricing_plan_id":"cebpf4jnsgd1na2vs0mg"},{"bike_id":"debf1d68-8b1d-4b6b-9d17-2e6033da6eb8","system_id":"levelo_inurba_marseille","lat":43.31331,"lon":5.39698,"is_reserved":false,"is_disabled":false,"rental_uris":{"android":"levelo://app?vid=debf1d68-8b1d-4b6b-9d17-2e6033da6eb8","ios":"levelo://app?vid=debf1d68-8b1d-4b6b-9d17-2e6033da6eb8"},"vehicle_type_id":"4","last_reported":1737097683,"current_range_meters":38800,"station_id":"ce4bgvp2rcd13ifvqcu0","pricing_plan_id":"cebpf4jnsgd1na2vs0mg"},{"bike_id":"58816f06-6b5d-4f25-9ea2-ac8707506d12","system_id":"levelo_inurba_marseille","lat":43.26185,"lon":5.37466,"is_reserved":false,"is_disabled":true,"rental_uris":{"android":"levelo://app?vid=58816f06-6b5d-4f25-9ea2-ac8707506d12","ios":"levelo://app?vid=58816f06-6b5d-4f25-9ea2-ac8707506d12"},"vehicle_type_id":"4","last_reported":1737097683,"current_range_meters":400,"station_id":"ce4bhgp2rcd13ifvqfc0","pricing_plan_id":"cebpf4jnsgd1na2vs0mg"},{"bike_id":"8552f64f-d2d5-4f57-8e2c-5cd7c6a4c0be","system_id":"levelo_inurba_marseille","lat":43.28654,"lon":5.36366,"is_reserved":false,"is_disabled":false,"rental_uris":{"android":"levelo://app?vid=8552f64f-d2d5-4f57-8e2c-5cd7c6a4c0be","ios":"levelo://app?vid=8552f64f-d2d5-4f57-8e2c-5cd7c6a4c0be"},"vehicle_type_id":"4","last_reported":1737097683,"current_range_meters":38800,"station_id":"ce4bhah2rcd13ifvqej0","pricing_plan_id":"cebpf4jnsgd1na2vs0mg"},{"bike_id":"f5863b18-13a1-4c6e-92de-5668ea912ad3","system_id":"levelo_inurba_marseille","lat":43.2623,"lon":5.40464,"is_reserved":false,"is_disabled":true,"rental_uris":{"android":"levelo://app?vid=f5863b18-13a1-4c6e-92de-5668ea912ad3","ios":"levelo://app?vid=f5863b18-13a1-4c6e-92de-5668ea912ad3"},"vehicle_type_id":"4","last_reported":1737097683,"current_range_meters":0,"station_id":"","pricing_plan_id":"cebpf4jnsgd1na2vs0mg"},{"bike_id":"c7f67727-0083-4012-a250-9bf02969eefd","system_id":"levelo_inurba_marseille","lat":43.28276,"lon":5.35069,"is_reserved":false,"is_disabled":false,"rental_uris":{"android":"levelo://app?vid=c7f67727-0083-4012-a250-9bf02969eefd","ios":"levelo://app?vid=c7f67727-0083-4012-a250-9bf02969eefd"},