{"last_updated":1733811295,"ttl":60,"version":"2.2","data":{"bikes":[{"bike_id":"d3a909b4-b8a0-48dc-a4de-1e83b17ccfa0","system_id":"levelo_inurba_marseille","lat":43.31119,"lon":5.37768,"is_reserved":false,"is_disabled":false,"rental_uris":{"android":"levelo://app?vid=d3a909b4-b8a0-48dc-a4de-1e83b17ccfa0","ios":"levelo://app?vid=d3a909b4-b8a0-48dc-a4de-1e83b17ccfa0"},"vehicle_type_id":"4","last_reported":1733811296,"current_range_meters":36800,"station_id":"ce4bgt92rcd13ifvqcg0","pricing_plan_id":"cebpf4jnsgd1na2vs0mg"},{"bike_id":"2c2c4cba-98a7-4fbd-80fc-640737cfc718","system_id":"levelo_inurba_marseille","lat":43.27942,"lon":5.41047,"is_reserved":false,"is_disabled":false,"rental_uris":{"android":"levelo://app?vid=2c2c4cba-98a7-4fbd-80fc-640737cfc718","ios":"levelo://app?vid=2c2c4cba-98a7-4fbd-80fc-640737cfc718"},"vehicle_type_id":"4","last_reported":1733811296,"current_range_meters":8000,"station_id":"ce4bhnp2rcd13ifvqh0g","pricing_plan_id":"cebpf4jnsgd1na2vs0mg"},{"bike_id":"f23b8abc-c3d2-4caf-ae41-09355f4b342b","system_id":"levelo_inurba_marseille","lat":43.28344,"lon":5.38109,"is_reserved":false,"is_disabled":false,"rental_uris":{"android":"levelo://app?vid=f23b8abc-c3d2-4caf-ae41-09355f4b342b","ios":"levelo://app?vid=f23b8abc-c3d2-4caf-ae41-09355f4b342b"},"vehicle_type_id":"4","last_reported":1733811296,"current_range_meters":38400,"station_id":"ce4bh412rcd13ifvqdr0","pricing_plan_id":"cebpf4jnsgd1na2vs0mg"},{"bike_id":"8e029eaf-e104-4c5d-858d-6cd39de73d09","system_id":"levelo_inurba_marseille","lat":43.24166,"lon":5.36392,"is_reserved":false,"is_disabled":false,"rental_uris":{"android":"levelo://app?vid=8e029eaf-e104-4c5d-858d-6cd39de73d09","ios":"levelo://app?vid=8e029eaf-e104-4c5d-858d-6cd39de73d09"},"vehicle_type_id":"4","last_reported":1733811296,"current_range_meters":17600,"station_id":"cpo36qri1sfpv3e86is0","pricing_plan_id":"cebpf4jnsgd1na2vs0mg"},{"bike_id":"13cae269-f4b4-441c-afaf-fe77d6d91024","system_id":"levelo_inurba_marseille","lat":43.295093,"lon":5.374922,"is_reserved":false,"is_disabled":true,"rental_uris":{"android":"levelo://app?vid=13cae269-f4b4-441c-afaf-fe77d6d91024","ios":"levelo://app?vid=13cae269-f4b4-441c-afaf-fe77d6d91024"},"vehicle_type_id":"4","last_reported":1733811296,"current_range_meters":0,"station_id":"","pricing_plan_id":"cebpf4jnsgd1na2vs0mg"},{"bike_id":"5ee88fa2-ea43-4fcc-81b6-7c648141d8f2","system_id":"levelo_inurba_marseille","lat":43.27567,"lon":5.38429,"is_reserved":false,"is_disabled":false,"rental_uris":{"android":"levelo://app?vid=5ee88fa2-ea43-4fcc-81b6-7c648141d8f2","ios":"levelo://app?vid=5ee88fa2-ea43-4fcc-81b6-7c648141d8f2"},"vehicle_type_id":"4","last_reported":1733811296,"current_range_meters":38800,"station_id":"ce4bhh92rcd13ifvqfi0","pricing_plan_id":"cebpf4jnsgd1na2vs0mg"},{"bike_id":"49890e82-aa27-4846-9659-88aa2ac9ae8b","system_id":"levelo_inurba_marseille","lat":43.24658,"lon":5.38164,"is_reserved":false,"is_disabled":false,"rental_uris":{"android":"levelo://app?vid=49890e82-aa27-4846-9659-88aa2ac9ae8b","ios":"levelo://app?vid=49890e82-aa27-4846-9659-88aa2ac9ae8b"},"vehicle_type_id":"4","last_reported":1733811296,"current_range_meters":38800,"station_id":"ce4bhih2rcd13ifvqfr0","pricing_plan_id":"cebpf4jnsgd1na2vs0mg"},{"bike_id":"046febf9-c73f-444e-b819-58a835bbd451","system_id":"levelo_inurba_marseille","lat":43.30804,"lon":5.38155,"is_reserved":false,"is_disabled":false,"rental_uris":{"android":"levelo://app?vid=046febf9-c73f-444e-b819-58a835bbd451","ios":"levelo://app?vid=046febf9-c73f-444e-b819-58a835bbd451"},"vehicle_type_id":"4","last_reported":1733811296,"current_range_meters":26800,"station_id":"ce4bgt12rcd13ifvqce0","pricing_plan_id":"cebpf4jnsgd1na2vs0mg"},{"bike_id":"76639e26-0196-4fcf-ac89-85e5961f29e7","system_id":"levelo_inurba_marseille","lat":43.28193,"lon":5.39052,"is_reserved":false,"is_disabled":false,"rental_uris":{"android":"levelo://app?vid=76639e26-0196-4fcf-ac89-85e5961f29e7","ios":"levelo://app?vid=76639e26-0196-4fcf-ac89-85e5961f29e7"},"vehicle_type_id":"4","last_reported":1733811296,"current_range_meters":30400,"station_id":"","pricing_plan_id":"cebpf4jnsgd1na2vs0mg"},{"bike_id":"ae845a79-10a5-45ed-8888-6b1b612f6056","system_id":"levelo_inurba_marseille","lat":43.29028,"lon":5.39972,"is_reserved":false,"is_disabled":false,"rental_uris":{"android":"levelo://app?vid=ae845a79-10a5-45ed-8888-6b1b612f6056","ios":"levelo://app?vid=ae845a79-10a5-45ed-8888-6b1b612f6056"},"vehicle_type_id":"4","last_reported":1733811296,"current_range_meters":25600,"station_id":"ce4bh392rcd13ifvqdm0","pricing_plan_id":"cebpf4jnsgd1na2vs0mg"},{"bike_id":"d7c8c15b-fef7-401a-88a6-d231e1fbaaef","system_id":"levelo_inurba_marseille","lat":43.3064,"lon":5.40075,"is_reserved":false,"is_disabled":false,"rental_uris":{"android":"levelo://app?vid=d7c8c15b-fef7-401a-88a6-d231e1fbaaef","ios":"levelo://app?vid=d7c8c15b-fef7-401a-88a6-d231e1fbaaef"},"vehicle_type_id":"4","last_reported":1733811296,"current_range_meters":32800,"station_id":"ce4bh112rcd13ifvqda0","pricing_plan_id":"cebpf4jnsgd1na2vs0mg"},{"bike_id":"be08ff68-7243-47da-b677-72f2f0bf0d0a","system_id":"levelo_inurba_marseille","lat":43.27906,"lon":5.38278,"is_reserved":false,"is_disabled":false,"rental_uris":{"android":"levelo://app?vid=be08ff68-7243-47da-b677-72f2f0bf0d0a","ios":"levelo://app?vid=be08ff68-7243-47da-b677-72f2f0bf0d0a"},"vehicle_type_id":"4","last_reported":1733811296,"current_range_meters":32400,"station_id":"","pricing_plan_id":"cebpf4jnsgd1na2vs0mg"},{"bike_id":"0c49aba8-b913-484c-a46c-d4b704e34faa","system_id":"levelo_inurba_marseille","lat":43.30782,"lon":5.37652,"is_reserved":false,"is_disabled":false,"rental_uris":{"android":"levelo://app?vid=0c49aba8-b913-484c-a46c-d4b704e34faa","ios":"levelo://app?vid=0c49aba8-b913-484c-a46c-d4b704e34faa"},"vehicle_type_id":"4","last_reported":1733811296,"current_range_meters":38800,"station_id":"ce4bgv92rcd13ifvqcq0","pricing_plan_id":"cebpf4jnsgd1na2vs0mg"},{"bike_id":"8bd642b2-0279-44c7-9ee2-fc3b57332c83","system_id":"levelo_inurba_marseille","lat":43.27455,"lon":5.40073,"is_reserved":false,"is_disabled":true,"rental_uris":{"android":"levelo://app?vid=8bd642b2-0279-44c7-9ee2-fc3b57332c83","ios":"levelo://app?vid=8bd642b2-0279-44c7-9ee2-fc3b57332c83"},"vehicle_type_id":"4","last_reported":1733811296,"current_range_meters":0,"station_id":"","pricing_plan_id":"cebpf4jnsgd1na2vs0mg"},{"bike_id":"8192084c-0bb8-4563-8bf2-f9ce1da11230","system_id":"levelo_inurba_marseille","lat":43.269486,"lon":5.386243,"is_reserved":false,"is_disabled":false,"rental_uris":{"android":"levelo://app?vid=8192084c-0bb8-4563-8bf2-f9ce1da11230","ios":"levelo://app?vid=8192084c-0bb8-4563-8bf2-f9ce1da11230"},"vehicle_type_id":"4","last_reported":1733811296,"current_range_meters":36800,"station_id":"ce4bhh92rcd13ifvqfh0","pricing_plan_id":"cebpf4jnsgd1na2vs0mg"},{"bike_id":"8bbcb1c3-3c13-458a-a8cd-359d4a2951b7","system_id":"levelo_inurba_marseille","lat":43.258561,"lon":5.399036,"is_reserved":false,"is_disabled":false,"rental_uris":{"android":"levelo://app?vid=8bbcb1c3-3c13-458a-a8cd-359d4a2951b7","ios":"levelo://app?vid=8bbcb1c3-3c13-458a-a8cd-359d4a2951b7"},"vehicle_type_id":"4","last_reported":1733811296,"current_range_meters":28800,"station_id":"ce4bhl92rcd13ifvqghg","pricing_plan_id":"cebpf4jnsgd1na2vs0mg"},{"bike_id":"9aa0e65e-8ee5-47ed-8f1d-1cd989481746","system_id":"levelo_inurba_marseille","lat":43.30306,"lon":5.36886,"is_reserved":false,"is_disabled":false,"rental_uris":{"android":"levelo://app?vid=9aa0e65e-8ee5-47ed-8f1d-1cd989481746","ios":"levelo://app?vid=9aa0e65e-8ee5-47ed-8f1d-1cd989481746"},"vehicle_type_id":"4","last_reported":1733811296,"current_range_meters":36000,"station_id":"ce4bgqh2rcd13ifvqc5g","pricing_plan_id":"cebpf4jnsgd1na2vs0mg"},{"bike_id":"f09914a1-032a-4233-965f-c73f49a269ba","system_id":"levelo_inurba_marseille","lat":43.337444,"lon":5.374475,"is_reserved":false,"is_disabled":true,"rental_uris":{"android":"levelo://app?vid=f09914a1-032a-4233-965f-c73f49a269ba","ios":"levelo://app?vid=f09914a1-032a-4233-965f-c73f49a269ba"},"vehicle_type_id":"4","last_reported":1733811296,"current_range_meters":0,"station_id":"","pricing_plan_id":"cebpf4jnsgd1na2vs0mg"},{"bike_id":"88a4150c-c945-4c77-b494-3806bd64d2d1","system_id":"levelo_inurba_marseille","lat":43.32279,"lon":5.38263,"is_reserved":false,"is_disabled":false,"rental_uris":{"android":"levelo://app?vid=88a4150c-c945-4c77-b494-3806bd64d2d1","ios":"levelo://app?vid=88a4150c-c945-4c77-b494-3806bd64d2d1"},"vehicle_type_id":"4","last_reported":1733811296,"current_range_meters":30000,"station_id":"ce4bhr12rcd13ifvqhqg","pricing_plan_id":"cebpf4jnsgd1na2vs0mg"},{"bike_id":"f6ceca24-19af-4ed8-b20b-dad7699688ae","system_id":"levelo_inurba_marseille","lat":43.32476,"lon":5.36584,"is_reserved":false,"is_disabled":true,"rental_uris":{"android":"levelo://app?vid=f6ceca24-19af-4ed8-b20b-dad7699688ae","ios":"levelo://app?vid=f6ceca24-19af-4ed8-b20b-dad7699688ae"},"vehicle_type_id":"4","last_reported":1733811296,"current_range_meters":24800,"station_id":"ce4bhs12rcd13ifvqhvg","pricing_plan_id":"cebpf4jnsgd1na2vs0mg"},{"bike_id":"a955f565-33db-4fdc-bdbf-249121ea420f","system_id":"levelo_inurba_marseille","lat":43.29196,"lon":5.3579,"is_reserved":false,"is_disabled":true,"rental_uris":{"android":"levelo://app?vid=a955f565-33db-4fdc-bdbf-249121ea420f","ios":"levelo://app?vid=a955f565-33db-4fdc-bdbf-249121ea420f"},"vehicle_type_id":"4","last_reported":1733811296,"current_range_meters":28400,"station_id":"ce4bhb12rcd13ifvqel0","pricing_plan_id":"cebpf4jnsgd1na2vs0mg"},{"bike_id":"20028548-694c-4cef-aeb1-a524e5fd6c29","system_id":"levelo_inurba_marseille","lat":43.24071,"lon":5.37764,"is_reserved":false,"is_disabled":false,"rental_uris":{"android":"levelo://app?vid=20028548-694c-4cef-aeb1-a524e5fd6c29","ios":"levelo://app?vid=20028548-694c-4cef-aeb1-a524e5fd6c29"},"vehicle_type_id":"4","last_reported":1733811296,"current_range_meters":26800,"station_id":"ce4bhnp2rcd13ifvqgvg","pricing_plan_id":"cebpf4jnsgd1na2vs0mg"},{"bike_id":"1aa44ed9-e118-4ef3-bc76-ec2ddb64bcd0","system_id":"levelo_inurba_marseille","lat":43.27324,"lon":5.39084,"is_reserved":false,"is_disabled":true,"rental_uris":{"android":"levelo://app?vid=1aa44ed9-e118-4ef3-bc76-ec2ddb64bcd0","ios":"levelo://app?vid=1aa44ed9-e118-4ef3-bc76-ec2ddb64bcd0"},"vehicle_type_id":"4","last_reported":1733811296,"current_range_meters":13600,"station_id":"ce4bhgp2rcd13ifvqfe0","pricing_plan_id":"cebpf4jnsgd1na2vs0mg"},{"bike_id":"14c257dc-06bf-4a29-939b-9abb4cc4885a","system_id":"levelo_inurba_marseille","lat":43.28502,"lon":5.36812,"is_reserved":false,"is_disabled":false,"rental_uris":{"android":"levelo://app?vid=14c257dc-06bf-4a29-939b-9abb4cc4885a","ios":"levelo://app?vid=14c257dc-06bf-4a29-939b-9abb4cc4885a"},"vehicle_type_id":"4","last_reported":1733811296,"current_range_meters":3600,"station_id":"","pricing_plan_id":"cebpf4jnsgd1na2vs0mg"},{"bike_id":"79533f17-2510-4978-b3f7-d9e54ffe07ac","system_id":"levelo_inurba_marseille","lat":43.29625,"lon":5.40591,"is_reserved":false,"is_disabled":false,"rental_uris":{"android":"levelo://app?vid=79533f17-2510-4978-b3f7-d9e54ffe07ac","ios":"levelo://app?vid=79533f17-2510-4978-b3f7-d9e54ffe07ac"},"vehicle_type_id":"4","last_reported":1733811296,"current_range_meters":38000,"station_id":"ce4bh0h2rcd13ifvqd60","pricing_plan_id":"cebpf4jnsgd1na2vs0mg"},{"bike_id":"1525aef8-fd97-4d54-9f89-6d927feb02c9","system_id":"levelo_inurba_marseille","lat":43.27626,"lon":5.36116,"is_reserved":false,"is_disabled":false,"rental_uris":{"android":"levelo://app?vid=1525aef8-fd97-4d54-9f89-6d927feb02c9","ios":"levelo://app?vid=1525aef8-fd97-4d54-9f89-6d927feb02c9"},"vehicle_type_id":"4","last_reported":1733811296,"current_range_meters":32800,"station_id":"ce4bgj92rcd13ifvqbe0","pricing_plan_id":"cebpf4jnsgd1na2vs0mg"},{"bike_id":"6649269c-5c88-4f82-8516-469200adfc98","system_id":"levelo_inurba_marseille","lat":43.30149,"lon":5.38095,"is_reserved":false,"is_disabled":false,"rental_uris":{"android":"levelo://app?vid=6649269c-5c88-4f82-8516-469200adfc98","ios":"levelo://app?vid=6649269c-5c88-4f82-8516-469200adfc98"},"vehicle_type_id":"4","last_reported":1733811296,"current_range_meters":36800,"station_id":"ce4bgjp2rcd13ifvqbh0","pricing_plan_id":"cebpf4jnsgd1na2vs0mg"},{"bike_id":"82bd6dd3-b2f4-47d6-ac4d-974572fd8550","system_id":"levelo_inurba_marseille","lat":43.29275,"lon":5.40123,"is_reserved":false,"is_disabled":false,"rental_uris":{"android":"levelo://app?vid=82bd6dd3-b2f4-47d6-ac4d-974572fd8550","ios":"levelo://app?vid=82bd6dd3-b2f4-47d6-ac4d-974572fd8550"},"vehicle_type_id":"4","last_reported":1733811296,"current_range_meters":19600,"station_id":"ce4bh312rcd13ifvqdk0","pricing_plan_id":"cebpf4jnsgd1na2vs0mg"},{"bike_id":"748ed380-cc04-447e-a269-40aa2d7d60b0","system_id":"levelo_inurba_marseille","lat":43.27565,"lon":5.38425,"is_reserved":false,"is_disabled":false,"rental_uris":{"android":"levelo://app?vid=748ed380-cc04-447e-a269-40aa2d7d60b0","ios":"levelo://app?vid=748ed380-cc04-447e-a269-40aa2d7d60b0"},"vehicle_type_id":"4","last_reported":1733811296,"current_range_meters":36000,"station_id":"ce4bhh92rcd13ifvqfi0","pricing_plan_id":"cebpf4jnsgd1na2vs0mg"},{"bike_id":"1bc7ee23-af86-4249-ae87-23dab9957890","system_id":"levelo_inurba_marseille","lat":43.28111,"lon":5.37848,"is_reserved":false,"is_disabled":false,"rental_uris":{"android":"levelo://app?vid=1bc7ee23-af86-4249-ae87-23dab9957890","ios":"levelo://app?vid=1bc7ee23-af86-4249-ae87-23dab9957890"},"vehicle_type_id":"4","last_reported":1733811296,"current_range_meters":15200,"station_id":"ce4bha12rcd13ifvqee0","pricing_plan_id":"cebpf4jnsgd1na2vs0mg"},{"bike_id":"162a8d9f-caa5-49b4-b205-1198a79adafa","system_id":"levelo_inurba_marseille","lat":43.30466,"lon":5.3791,"is_reserved":false,"is_disabled":false,"rental_uris":{"android":"levelo://app?vid=162a8d9f-caa5-49b4-b205-1198a79adafa","ios":"levelo://app?vid=162a8d9f-caa5-49b4-b205-1198a79adafa"},"vehicle_type_id":"4","last_reported":1733811296,"current_range_meters":30000,"station_id":"ce4bgup2rcd13ifvqcn0","pricing_plan_id":"cebpf4jnsgd1na2vs0mg"},{"bike_id":"e6550b39-6d6f-4de3-b7c0-2a7a2be3424b","system_id":"levelo_inurba_marseille","lat":43.2846,"lon":5.35903,"is_reserved":false,"is_disabled":false,"rental_uris":{"android":"levelo://app?vid=e6550b39-6d6f-4de3-b7c0-2a7a2be3424b","ios":"levelo://app?vid=e6550b39-6d6f-4de3-b7c0-2a7a2be3424b"},"vehicle_type_id":"4","last_reported":1733811296,"current_range_meters":5600,"station_id":"ce4bhah2rcd13ifvqei0","pricing_plan_id":"cebpf4jnsgd1na2vs0mg"},{"bike_id":"ab8c65b6-c08a-4b46-be03-4378127e95ea","system_id":"levelo_inurba_marseille","lat":43.3117,"lon":5.3872,"is_reserved":false,"is_disabled":false,"rental_uris":{"android":"levelo://app?vid=ab8c65b6-c08a-4b46-be03-4378127e95ea","ios":"levelo://app?vid=ab8c65b6-c08a-4b46-be03-4378127e95ea"},"vehicle_type_id":"4","last_reported":1733811296,"current_range_meters":38800,"station_id":"ce4bgv12rcd13ifvqcp0","pricing_plan_id":"cebpf4jnsgd1na2vs0mg"},{"bike_id":"480f28a2-7fc0-4293-a84e-a1f8167b279b","system_id":"levelo_inurba_marseille","lat":43.258621,"lon":5.399019,"is_reserved":false,"is_disabled":false,"rental_uris":{"android":"levelo://app?vid=480f28a2-7fc0-4293-a84e-a1f8167b279b","ios":"levelo://app?vid=480f28a2-7fc0-4293-a84e-a1f8167b279b"},"vehicle_type_id":"4","last_reported":1733811296,"current_range_meters":38000,"station_id":"ce4bhl92rcd13ifvqghg","pricing_plan_id":"cebpf4jnsgd1na2vs0mg"},{"bike_id":"c69f429e-b230-41f7-8fd5-7ba3d157dbbb","system_id":"levelo_inurba_marseille","lat":43.25002,"lon":5.38923,"is_reserved":false,"is_disabled":false,"rental_uris":{"android":"levelo://app?vid=c69f429e-b230-41f7-8fd5-7ba3d157dbbb","ios":"levelo://app?vid=c69f429e-b230-41f7-8fd5-7ba3d157dbbb"},"vehicle_type_id":"4","last_reported":1733811296,"current_range_meters":38000,"station_id":"ce4bhgp2rcd13ifvqfd0","pricing_plan_id":"cebpf4jnsgd1na2vs0mg"},{"bike_id":"938640b4-f78c-4def-9b16-e6205edb88bc","system_id":"levelo_inurba_marseille","lat":43.28154,"lon":5.42637,"is_reserved":false,"is_disabled":true,"rental_uris":{"android":"levelo://app?vid=938640b4-f78c-4def-9b16-e6205edb88bc","ios":"levelo://app?vid=938640b4-f78c-4def-9b16-e6205edb88bc"},"vehicle_type_id":"4","last_reported":1733811296,"current_range_meters":32000,"station_id":"ce4bhnh2rcd13ifvqgug","pricing_plan_id":"cebpf4jnsgd1na2vs0mg"},{"bike_id":"2aef1d2d-27cb-4f0b-8fe4-1297b5259969","system_id":"levelo_inurba_marseille","lat":43.31719,"lon":5.42406,"is_reserved":false,"is_disabled":false,"rental_uris":{"android":"levelo://app?vid=2aef1d2d-27cb-4f0b-8fe4-1297b5259969","ios":"levelo://app?vid=2aef1d2d-27cb-4f0b-8fe4-1297b5259969"},"vehicle_type_id":"4","last_reported":1733811296,"current_range_meters":38800,"station_id":"ce4bhp92rcd13ifvqhbg","pricing_plan_id":"cebpf4jnsgd1na2vs0mg"},{"bike_id":"ea9d4249-69ee-4a2d-857e-bb5f7820465f","system_id":"levelo_inurba_marseille","lat":43.29437,"lon":5.39749,"is_reserved":false,"is_disabled":false,"rental_uris":{"android":"levelo://app?vid=ea9d4249-69ee-4a2d-857e-bb5f7820465f","ios":"levelo://app?vid=ea9d4249-69ee-4a2d-857e-bb5f7820465f"},"vehicle_type_id":"4","last_reported":1733811296,"current_range_meters":38800,"station_id":"ce4bh3h2rcd13ifvqdo0","pricing_plan_id":"cebpf4jnsgd1na2vs0mg"},{"bike_id":"cf55b169-9388-4819-bfa4-c55a8fa03873","system_id":"levelo_inurba_marseille","lat":43.27611,"lon":5.36111,"is_reserved":false,"is_disabled":true,"rental_uris":{"android":"levelo://app?vid=cf55b169-9388-4819-bfa4-c55a8fa03873","ios":"levelo://app?vid=cf55b169-9388-4819-bfa4-c55a8fa03873"},"vehicle_type_id":"4","last_reported":1733811296,"current_range_meters":26800,"station_id":"ce4bgj92rcd13ifvqbe0","pricing_plan_id":"cebpf4jnsgd1na2vs0mg"},{"bike_id":"2f3968e7-9336-4ee4-ba78-8e92c0a818cc","system_id":"levelo_inurba_marseille","lat":43.31322,"lon":5.36647,"is_reserved":false,"is_disabled":true,"rental_uris":{"android":"levelo://app?vid=2f3968e7-9336-4ee4-ba78-8e92c0a818cc","ios":"levelo://app?vid=2f3968e7-9336-4ee4-ba78-8e92c0a818cc"},"vehicle_type_id":"4","last_reported":1733811296,"current_range_meters":0,"station_id":"","pricing_plan_id":"cebpf4jnsgd1na2vs0mg"},{"bike_id":"bf767f08-4941-44c5-9bc3-e816c919a474","system_id":"levelo_inurba_marseille","lat":43.27056,"lon":5.40255,"is_reserved":false,"is_disabled":false,"rental_uris":{"android":"levelo://app?vid=bf767f08-4941-44c5-9bc3-e816c919a474","ios":"levelo://app?vid=bf767f08-4941-44c5-9bc3-e816c919a474"},"vehicle_type_id":"4","last_reported":1733811296,"current_range_meters":38000,"station_id":"ce4bhk92rcd13ifvqgc0","pricing_plan_id":"cebpf4jnsgd1na2vs0mg"},{"bike_id":"e11ceba7-8db6-4ca1-8501-fec2b05fa281","system_id":"levelo_inurba_marseille","lat":43.32338,"lon":5.40616,"is_reserved":false,"is_disabled":false,"rental_uris":{"android":"levelo://app?vid=e11ceba7-8db6-4ca1-8501-fec2b05fa281","ios":"levelo://app?vid=e11ceba7-8db6-4ca1-8501-fec2b05fa281"},"vehicle_type_id":"4","last_reported":1733811296,"current_range_meters":6000,"station_id":"ce4bhq92rcd13ifvqhjg","pricing_plan_id":"cebpf4jnsgd1na2vs0mg"},{"bike_id":"a783b064-d8f3-4f51-b68c-385f00239ff9","system_id":"levelo_inurba_marseille","lat":43.30294,"lon":5.37697,"is_reserved":false,"is_disabled":false,"rental_uris":{"android":"levelo://app?vid=a783b064-d8f3-4f51-b68c-385f00239ff9","ios":"levelo://app?vid=a783b064-d8f3-4f51-b68c-385f00239ff9"},"vehicle_type_id":"4","last_reported":1733811296,"current_range_meters":23200,"station_id":"ce4bguh2rcd13ifvqcj0","pricing_plan_id":"cebpf4jnsgd1na2vs0mg"},{"bike_id":"c04fe675-d70a-4e57-bdf8-88012d5d3519","system_id":"levelo_inurba_marseille","lat":43.28187,"lon":5.42729,"is_reserved":false,"is_disabled":false,"rental_uris":{"android":"levelo://app?vid=c04fe675-d70a-4e57-bdf8-88012d5d3519","ios":"levelo://app?vid=c04fe675-d70a-4e57-bdf8-88012d5d3519"},"vehicle_type_id":"4","last_reported":1733811296,"current_range_meters":23200,"station_id":"ce4bho12rcd13ifvqh1g","pricing_plan_id":"cebpf4jnsgd1na2vs0mg"},{"bike_id":"404aead8-3959-4073-a024-8dab3e38a5ca","system_id":"levelo_inurba_marseille","lat":43.30187,"lon":5.3663,"is_reserved":false,"is_disabled":false,"rental_uris":{"android":"levelo://app?vid=404aead8-3959-4073-a024-8dab3e38a5ca","ios":"levelo://app?vid=404aead8-3959-4073-a024-8dab3e38a5ca"},"vehicle_type_id":"4","last_reported":1733811296,"current_range_meters":32000,"station_id":"ce4bgrh2rcd13ifvqc8g","pricing_plan_id":"cebpf4jnsgd1na2vs0mg"},{"bike_id":"33afcd88-0857-4b5d-8f95-a960d6eca619","system_id":"levelo_inurba_marseille","lat":43.25501,"lon":5.37652,"is_reserved":false,"is_disabled":false,"rental_uris":{"android":"levelo://app?vid=33afcd88-0857-4b5d-8f95-a960d6eca619","ios":"levelo://app?vid=33afcd88-0857-4b5d-8f95-a960d6eca619"},"vehicle_type_id":"4","last_reported":1733811296,"current_range_meters":21600,"station_id":"ce4bhh12rcd13ifvqff0","pricing_plan_id":"cebpf4jnsgd1na2vs0mg"},{"bike_id":"7f0b121b-7748-43bd-b861-318cbdf6fb69","system_id":"levelo_inurba_marseille","lat":43.284526,"lon":5.358863,"is_reserved":false,"is_disabled":true,"rental_uris":{"android":"levelo://app?vid=7f0b121b-7748-43bd-b861-318cbdf6fb69","ios":"levelo://app?vid=7f0b121b-7748-43bd-b861-318cbdf6fb69"},"vehicle_type_id":"4","last_reported":1733811296,"current_range_meters":39200,"station_id":"ce4bhah2rcd13ifvqei0","pricing_plan_id":"cebpf4jnsgd1na2vs0mg"},{"bike_id":"6583aefc-6815-4bd5-8f5c-a9c5d794f47e","system_id":"levelo_inurba_marseille","lat":43.36384,"lon":5.34182,"is_reserved":false,"is_disabled":false,"rental_uris":{"android":"levelo://app?vid=6583aefc-6815-4bd5-8f5c-a9c5d794f47e","ios":"levelo://app?vid=6583aefc-6815-4bd5-8f5c-a9c5d794f47e"},"vehicle_type_id":"4","last_reported":1733811296,"current_range_meters":9600,"station_id":"","pricing_plan_id":"cebpf4jnsgd1na2vs0mg"},{"bike_id":"300a0c65-55ac-4e00-a24d-19944889a4e4","system_id":"levelo_inurba_marseille","lat":43.27185,"lon":5.40995,"is_reserved":false,"is_disabled":false,"rental_uris":{"android":"levelo://app?vid=300a0c65-55ac-4e00-a24d-19944889a4e4","ios":"levelo://app?vid=300a0c65-55ac-4e00-a24d-19944889a4e4"},"vehicle_type_id":"4","last_reported":1733811296,"current_range_meters":27600,"station_id":"ce4bhl12rcd13ifvqgf0","pricing_plan_id":"cebpf4jnsgd1na2vs0mg"},{"bike_id":"6ab8009c-71e7-4b76-80db-c38f8eda6df9","system_id":"levelo_inurba_marseille","lat":43.32656,"lon":5.40994,"is_reserved":false,"is_disabled":false,"rental_uris":{"android":"levelo://app?vid=6ab8009c-71e7-4b76-80db-c38f8eda6df9","ios":"levelo://app?vid=6ab8009c-71e7-4b76-80db-c38f8eda6df9"},"vehicle_type_id":"4","last_reported":1733811296,"current_range_meters":35200,"station_id":"ce4bhpp2rcd13ifvqhgg","pricing_plan_id":"cebpf4jnsgd1na2vs0mg"},{"bike_id":"72a40c74-61ce-4e85-9c26-7501b1062d7a","system_id":"levelo_inurba_marseille","lat":43.3234,"lon":5.40618,"is_reserved":false,"is_disabled":false,"rental_uris":{"android":"levelo://app?vid=72a40c74-61ce-4e85-9c26-7501b1062d7a","ios":"levelo://app?vid=72a40c74-61ce-4e85-9c26-7501b1062d7a"},"vehicle_type_id":"4","last_reported":1733811296,"current_range_meters":12400,"station_id":"ce4bhq92rcd13ifvqhjg","pricing_plan_id":"cebpf4jnsgd1na2vs0mg"},{"bike_id":"b97d7574-49b3-4eea-b4a7-8d4ca9df8845","system_id":"levelo_inurba_marseille","lat":43.27177,"lon":5.4099,"is_reserved":false,"is_disabled":false,"rental_uris":{"android":"levelo://app?vid=b97d7574-49b3-4eea-b4a7-8d4ca9df8845","ios":"levelo://app?vid=b97d7574-49b3-4eea-b4a7-8d4ca9df8845"},"vehicle_type_id":"4","last_reported":1733811296,"current_range_meters":16800,"station_id":"ce4bhl12rcd13ifvqgf0","pricing_plan_id":"cebpf4jnsgd1na2vs0mg"},{"bike_id":"220bf674-5219-4134-b6e9-fb33684f460b","system_id":"levelo_inurba_marseille","lat":43.28458,"lon":5.35875,"is_reserved":false,"is_disabled":false,"rental_uris":{"android":"levelo://app?vid=220bf674-5219-4134-b6e9-fb33684f460b","ios":"levelo://app?vid=220bf674-5219-4134-b6e9-fb33684f460b"},"vehicle_type_id":"4","last_reported":1733811296,"current_range_meters":29600,"station_id":"ce4bhah2rcd13ifvqei0","pricing_plan_id":"cebpf4jnsgd1na2vs0mg"},{"bike_id":"1d88e876-5760-4f81-845c-2d3615913a48","system_id":"levelo_inurba_marseille","lat":43.29593,"lon":5.38117,"is_reserved":false,"is_disabled":false,"rental_uris":{"android":"levelo://app?vid=1d88e876-5760-4f81-845c-2d3615913a48","ios":"levelo://app?vid=1d88e876-5760-4f81-845c-2d3615913a48"},"vehicle_type_id":"4","last_reported":1733811296,"current_range_meters":6000,"station_id":"ce4bgl12rcd13ifvqbo0","pricing_plan_id":"cebpf4jnsgd1na2vs0mg"},{"bike_id":"9834911d-142d-4337-88be-175f15210504","system_id":"levelo_inurba_marseille","lat":43.29035,"lon":5.39937,"is_reserved":false,"is_disabled":false,"rental_uris":{"android":"levelo://app?vid=9834911d-142d-4337-88be-175f15210504","ios":"levelo://app?vid=9834911d-142d-4337-88be-175f15210504"},"vehicle_type_id":"4","last_reported":1733811296,"current_range_meters":39200,"station_id":"ce4bh392rcd13ifvqdm0","pricing_plan_id":"cebpf4jnsgd1na2vs0mg"},{"bike_id":"4cc00414-64f7-499d-b73d-b0680b685002","system_id":"levelo_inurba_marseille","lat":43.29799,"lon":5.39335,"is_reserved":false,"is_disabled":false,"rental_uris":{"android":"levelo://app?vid=4cc00414-64f7-499d-b73d-b0680b685002","ios":"levelo://app?vid=4cc00414-64f7-499d-b73d-b0680b685002"},"vehicle_type_id":"4","last_reported":1733811296,"current_range_meters":38800,"station_id":"chh1huq6cuj3fo74tm60","pricing_plan_id":"cebpf4jnsgd1na2vs0mg"},{"bike_id":"c89c0002-420d-4647-b09b-f4e10bf9fa64","system_id":"levelo_inurba_marseille","lat":43.29613,"lon":5.3773,"is_reserved":false,"is_disabled":false,"rental_uris":{"android":"levelo://app?vid=c89c0002-420d-4647-b09b-f4e10bf9fa64","ios":"levelo://app?vid=c89c0002-420d-4647-b09b-f4e10bf9fa64"},"vehicle_type_id":"4","last_reported":1733811296,"current_range_meters":23200,"station_id":"ce4bgi92rcd13ifvqb90","pricing_plan_id":"cebpf4jnsgd1na2vs0mg"},{"bike_id":"f92b8cac-80c8-4728-b0dd-0ee589a076cf","system_id":"levelo_inurba_marseille","lat":43.31995,"lon":5.38147,"is_reserved":false,"is_disabled":false,"rental_uris":{"android":"levelo://app?vid=f92b8cac-80c8-4728-b0dd-0ee589a076cf","ios":"levelo://app?vid=f92b8cac-80c8-4728-b0dd-0ee589a076cf"},"vehicle_type_id":"4","last_reported":1733811296,"current_range_meters":6400,"station_id":"ce4bhr12rcd13ifvqhpg","pricing_plan_id":"cebpf4jnsgd1na2vs0mg"},{"bike_id":"f10c5e90-601b-4bd4-87e7-4cbb6a13a4fb","system_id":"levelo_inurba_marseille","lat":43.26123,"lon":5.39268,"is_reserved":false,"is_disabled":true,"rental_uris":{"android":"levelo://app?vid=f10c5e90-601b-4bd4-87e7-4cbb6a13a4fb","ios":"levelo://app?vid=f10c5e90-601b-4bd4-87e7-4cbb6a13a4fb"},"vehicle_type_id":"4","last_reported":1733811296,"current_range_meters":0,"station_id":"","pricing_plan_id":"cebpf4jnsgd1na2vs0mg"},{"bike_id":"fcc6364a-c9d9-4485-818a-5d0a5c003105","system_id":"levelo_inurba_marseille","lat":43.30801,"lon":5.43529,"is_reserved":false,"is_disabled":false,"rental_uris":{"android":"levelo://app?vid=fcc6364a-c9d9-4485-818a-5d0a5c003105","ios":"levelo://app?vid=fcc6364a-c9d9-4485-818a-5d0a5c003105"},"vehicle_type_id":"4","last_reported":1733811296,"current_range_meters":30000,"station_id":"ce4bhph2rcd13ifvqheg","pricing_plan_id":"cebpf4jnsgd1na2vs0mg"},{"bike_id":"49150bc7-9efd-4a6a-85e9-967a04de33de","system_id":"levelo_inurba_marseille","lat":43.31273,"lon":5.40163,"is_reserved":false,"is_disabled":false,"rental_uris":{"android":"levelo://app?vid=49150bc7-9efd-4a6a-85e9-967a04de33de","ios":"levelo://app?vid=49150bc7-9efd-4a6a-85e9-967a04de33de"},"vehicle_type_id":"4","last_reported":1733811296,"current_range_meters":26000,"station_id":"ce4bh092rcd13ifvqd30","pricing_plan_id":"cebpf4jnsgd1na2vs0mg"},{"bike_id":"8179a502-24d2-4fc0-958c-6bce9d778e94","system_id":"levelo_inurba_marseille","lat":43.27839,"lon":5.40741,"is_reserved":false,"is_disabled":false,"rental_uris":{"android":"levelo://app?vid=8179a502-24d2-4fc0-958c-6bce9d778e94","ios":"levelo://app?vid=8179a502-24d2-4fc0-958c-6bce9d778e94"},"vehicle_type_id":"4","last_reported":1733811296,"current_range_meters":30400,"station_id":"ce4bhnh2rcd13ifvqgtg","pricing_plan_id":"cebpf4jnsgd1na2vs0mg"},{"bike_id":"210863fa-6a5a-4271-b232-c5f2043230b9","system_id":"levelo_inurba_marseille","lat":43.28075,"lon":5.39657,"is_reserved":false,"is_disabled":false,"rental_uris":{"android":"levelo://app?vid=210863fa-6a5a-4271-b232-c5f2043230b9","ios":"levelo://app?vid=210863fa-6a5a-4271-b232-c5f2043230b9"},"vehicle_type_id":"4","last_reported":1733811296,"current_range_meters":16800,"station_id":"ce4bho12rcd13ifvqh2g","pricing_plan_id":"cebpf4jnsgd1na2vs0mg"},{"bike_id":"e0542593-8c87-4823-82b6-e7063271a43e","system_id":"levelo_inurba_marseille","lat":43.29191,"lon":5.39329,"is_reserved":false,"is_disabled":false,"rental_uris":{"android":"levelo://app?vid=e0542593-8c87-4823-82b6-e7063271a43e","ios":"levelo://app?vid=e0542593-8c87-4823-82b6-e7063271a43e"},"vehicle_type_id":"4","last_reported":1733811296,"current_range_meters":38800,"station_id":"ce4bh192rcd13ifvqdd0","pricing_plan_id":"cebpf4jnsgd1na2vs0mg"},{"bike_id":"c1af07c0-ed11-49c8-aa2e-1104638a28b7","system_id":"levelo_inurba_marseille","lat":43.23067,"lon":5.3549,"is_reserved":false,"is_disabled":false,"rental_uris":{"android":"levelo://app?vid=c1af07c0-ed11-49c8-aa2e-1104638a28b7","ios":"levelo://app?vid=c1af07c0-ed11-49c8-aa2e-1104638a28b7"},"vehicle_type_id":"4","last_reported":1733811296,"current_range_meters":21600,"station_id":"cpo3342slgdg3j2ifvpg","pricing_plan_id":"cebpf4jnsgd1na2vs0mg"},{"bike_id":"a1b7d0a9-885b-4563-80bb-c16c77a2747b","system_id":"levelo_inurba_marseille","lat":43.310701,"lon":5.383498,"is_reserved":false,"is_disabled":false,"rental_uris":{"android":"levelo://app?vid=a1b7d0a9-885b-4563-80bb-c16c77a2747b","ios":"levelo://app?vid=a1b7d0a9-885b-4563-80bb-c16c77a2747b"},"vehicle_type_id":"4","last_reported":1733811296,"current_range_meters":38000,"station_id":"ce4bgv92rcd13ifvqcr0","pricing_plan_id":"cebpf4jnsgd1na2vs0mg"},{"bike_id":"ccbed640-493a-42cd-8b56-d8d96e30f780","system_id":"levelo_inurba_marseille","lat":43.28714,"lon":5.37942,"is_reserved":false,"is_disabled":false,"rental_uris":{"android":"levelo://app?vid=ccbed640-493a-42cd-8b56-d8d96e30f780","ios":"levelo://app?vid=ccbed640-493a-42cd-8b56-d8d96e30f780"},"vehicle_type_id":"4","last_reported":1733811296,"current_range_meters":22800,"station_id":"ce4bh9p2rcd13ifvqec0","pricing_plan_id":"cebpf4jnsgd1na2vs0mg"},{"bike_id":"0706adb5-0c61-4c6b-9d93-aada612b11f4","system_id":"levelo_inurba_marseille","lat":43.2963,"lon":5.40607,"is_reserved":false,"is_disabled":false,"rental_uris":{"android":"levelo://app?vid=0706adb5-0c61-4c6b-9d93-aada612b11f4","ios":"levelo://app?vid=0706adb5-0c61-4c6b-9d93-aada612b11f4"},"vehicle_type_id":"4","last_reported":1733811296,"current_range_meters":36400,"station_id":"ce4bh0h2rcd13ifvqd60","pricing_plan_id":"cebpf4jnsgd1na2vs0mg"},{"bike_id":"4ffe0496-2948-4ad5-8b06-2d40da8c3995","system_id":"levelo_inurba_marseille","lat":43.3093,"lon":5.40145,"is_reserved":false,"is_disabled":false,"rental_uris":{"android":"levelo://app?vid=4ffe0496-2948-4ad5-8b06-2d40da8c3995","ios":"levelo://app?vid=4ffe0496-2948-4ad5-8b06-2d40da8c3995"},"vehicle_type_id":"4","last_reported":1733811296,"current_range_meters":38800,"station_id":"ce4bgvp2rcd13ifvqct0","pricing_plan_id":"cebpf4jnsgd1na2vs0mg"},{"bike_id":"64860cb9-dc40-4f70-b3a9-9626d9c5e687","system_id":"levelo_inurba_marseille","lat":43.290481,"lon":5.399861,"is_reserved":false,"is_disabled":false,"rental_uris":{"android":"levelo://app?vid=64860cb9-dc40-4f70-b3a9-9626d9c5e687","ios":"levelo://app?vid=64860cb9-dc40-4f70-b3a9-9626d9c5e687"},"vehicle_type_id":"4","last_reported":1733811296,"current_range_meters":16800,"station_id":"ce4bh392rcd13ifvqdm0","pricing_plan_id":"cebpf4jnsgd1na2vs0mg"},{"bike_id":"6f5aafc4-06b9-4dba-b612-5d926167490b","system_id":"levelo_inurba_marseille","lat":43.32477,"lon":5.36582,"is_reserved":false,"is_disabled":true,"rental_uris":{"android":"levelo://app?vid=6f5aafc4-06b9-4dba-b612-5d926167490b","ios":"levelo://app?vid=6f5aafc4-06b9-4dba-b612-5d926167490b"},"vehicle_type_id":"4","last_reported":1733811296,"current_range_meters":0,"station_id":"ce4bhs12rcd13ifvqhvg","pricing_plan_id":"cebpf4jnsgd1na2vs0mg"},{"bike_id":"18b9f414-d8fd-40d1-8aec-43a58018843c","system_id":"levelo_inurba_marseille","lat":43.29567,"lon":5.39975,"is_reserved":false,"is_disabled":false,"rental_uris":{"android":"levelo://app?vid=18b9f414-d8fd-40d1-8aec-43a58018843c","ios":"levelo://app?vid=18b9f414-d8fd-40d1-8aec-43a58018843c"},"vehicle_type_id":"4","last_reported":1733811296,"current_range_meters":38800,"station_id":"ce4bh312rcd13ifvqdj0","pricing_plan_id":"cebpf4jnsgd1na2vs0mg"},{"bike_id":"5fefcf9d-7cc1-41a7-8c5a-70f7639f379f","system_id":"levelo_inurba_marseille","lat":43.30801,"lon":5.43521,"is_reserved":false,"is_disabled":false,"rental_uris":{"android":"levelo://app?vid=5fefcf9d-7cc1-41a7-8c5a-70f7639f379f","ios":"levelo://app?vid=5fefcf9d-7cc1-41a7-8c5a-70f7639f379f"},"vehicle_type_id":"4","last_reported":1733811296,"current_range_meters":14000,"station_id":"ce4bhph2rcd13ifvqheg","pricing_plan_id":"cebpf4jnsgd1na2vs0mg"},{"bike_id":"0021e2f0-593c-41bd-8542-81b1a5d32439","system_id":"levelo_inurba_marseille","lat":43.27826,"lon":5.40706,"is_reserved":false,"is_disabled":false,"rental_uris":{"android":"levelo://app?vid=0021e2f0-593c-41bd-8542-81b1a5d32439","ios":"levelo://app?vid=0021e2f0-593c-41bd-8542-81b1a5d32439"},"vehicle_type_id":"4","last_reported":1733811296,"current_range_meters":38400,"station_id":"ce4bhnh2rcd13ifvqgtg","pricing_plan_id":"cebpf4jnsgd1na2vs0mg"},{"bike_id":"b089d5a6-e8e6-4265-b578-f28e18d6c5ed","system_id":"levelo_inurba_marseille","lat":43.25501,"lon":5.376522,"is_reserved":false,"is_disabled":false,"rental_uris":{"android":"levelo://app?vid=b089d5a6-e8e6-4265-b578-f28e18d6c5ed","ios":"levelo://app?vid=b089d5a6-e8e6-4265-b578-f28e18d6c5ed"},"vehicle_type_id":"4","last_reported":1733811296,"current_range_meters":38400,"station_id":"ce4bhh12rcd13ifvqff0","pricing_plan_id":"cebpf4jnsgd1na2vs0mg"},{"bike_id":"74ddbdc3-b082-4f44-a075-38dfc2e6b2cd","system_id":"levelo_inurba_marseille","lat":43.241629,"lon":5.363948,"is_reserved":false,"is_disabled":false,"rental_uris":{"android":"levelo://app?vid=74ddbdc3-b082-4f44-a075-38dfc2e6b2cd","ios":"levelo://app?vid=74ddbdc3-b082-4f44-a075-38dfc2e6b2cd"},"vehicle_type_id":"4","last_reported":1733811296,"current_range_meters":24000,"station_id":"cpo36qri1sfpv3e86is0","pricing_plan_id":"cebpf4jnsgd1na2vs0mg"},{"bike_id":"bd5cf351-0ac5-4251-8c87-d57b89ea3995","system_id":"levelo_inurba_marseille","lat":43.2558,"lon":5.38228,"is_reserved":false,"is_disabled":false,"rental_uris":{"android":"levelo://app?vid=bd5cf351-0ac5-4251-8c87-d57b89ea3995","ios":"levelo://app?vid=bd5cf351-0ac5-4251-8c87-d57b89ea3995"},"vehicle_type_id":"4","last_reported":1733811296,"current_range_meters":17600,"station_id":"ce4bhih2rcd13ifvqfs0","pricing_plan_id":"cebpf4jnsgd1na2vs0mg"},{"bike_id":"778cfa67-5e48-43ac-bad2-c30d515ff32e","system_id":"levelo_inurba_marseille","lat":43.30795,"lon":5.43521,"is_reserved":false,"is_disabled":false,"rental_uris":{"android":"levelo://app?vid=778cfa67-5e48-43ac-bad2-c30d515ff32e","ios":"levelo://app?vid=778cfa67-5e48-43ac-bad2-c30d515ff32e"},"vehicle_type_id":"4","last_reported":1733811296,"current_range_meters":38400,"station_id":"ce4bhph2rcd13ifvqheg","pricing_plan_id":"cebpf4jnsgd1na2vs0mg"},{"bike_id":"19de0526-773c-4280-a5a2-e066f6e7fe57","system_id":"levelo_inurba_marseille","lat":43.2826,"lon":5.3507,"is_reserved":false,"is_disabled":false,"rental_uris":{"android":"levelo://app?vid=19de0526-773c-4280-a5a2-e066f6e7fe57","ios":"levelo://app?vid=19de0526-773c-4280-a5a2-e066f6e7fe57"},"vehicle_type_id":"4","last_reported":1733811296,"current_range_meters":25600,"station_id":"ce4bhbp2rcd13ifvqerg","pricing_plan_id":"cebpf4jnsgd1na2vs0mg"},{"bike_id":"f942e722-5039-4601-9971-0207b150598d","system_id":"levelo_inurba_marseille","lat":43.29849,"lon":5.36285,"is_reserved":false,"is_disabled":false,"rental_uris":{"android":"levelo://app?vid=f942e722-5039-4601-9971-0207b150598d","ios":"levelo://app?vid=f942e722-5039-4601-9971-0207b150598d"},"vehicle_type_id":"4","last_reported":1733811296,"current_range_meters":9200,"station_id":"ce4bgpp2rcd13ifvqc3g","pricing_plan_id":"cebpf4jnsgd1na2vs0mg"},{"bike_id":"9cd79aab-6f4c-4919-b570-803a9e8b35c5","system_id":"levelo_inurba_marseille","lat":43.304594,"lon":5.36722,"is_reserved":false,"is_disabled":true,"rental_uris":{"android":"levelo://app?vid=9cd79aab-6f4c-4919-b570-803a9e8b35c5","ios":"levelo://app?vid=9cd79aab-6f4c-4919-b570-803a9e8b35c5"},"vehicle_type_id":"4","last_reported":1733811296,"current_range_meters":24800,"station_id":"","pricing_plan_id":"cebpf4jnsgd1na2vs0mg"},{"bike_id":"2188871e-5cf2-45ad-8d7f-f6460777ea7c","system_id":"levelo_inurba_marseille","lat":43.25843,"lon":5.3994,"is_reserved":false,"is_disabled":false,"rental_uris":{"android":"levelo://app?vid=2188871e-5cf2-45ad-8d7f-f6460777ea7c","ios":"levelo://app?vid=2188871e-5cf2-45ad-8d7f-f6460777ea7c"},"vehicle_type_id":"4","last_reported":1733811296,"current_range_meters":35600,"station_id":"ce4bhl92rcd13ifvqghg","pricing_plan_id":"cebpf4jnsgd1na2vs0mg"},{"bike_id":"15af7b7a-6a43-4907-ab69-d83a6aa2cd93","system_id":"levelo_inurba_marseille","lat":43.29522,"lon":5.39047,"is_reserved":false,"is_disabled":false,"rental_uris":{"android":"levelo://app?vid=15af7b7a-6a43-4907-ab69-d83a6aa2cd93","ios":"levelo://app?vid=15af7b7a-6a43-4907-ab69-d83a6aa2cd93"},"vehicle_type_id":"4","last_reported":1733811296,"current_range_meters":37600,"station_id":"ce4bh3p2rcd13ifvqdp0","pricing_plan_id":"cebpf4jnsgd1na2vs0mg"},{"bike_id":"cf80ef54-0b0f-4dfe-80d1-0c382470e0e9","system_id":"levelo_inurba_marseille","lat":43.250775,"lon":5.395393,"is_reserved":false,"is_disabled":false,"rental_uris":{"android":"levelo://app?vid=cf80ef54-0b0f-4dfe-80d1-0c382470e0e9","ios":"levelo://app?vid=cf80ef54-0b0f-4dfe-80d1-0c382470e0e9"},"vehicle_type_id":"4","last_reported":1733811296,"current_range_meters":15200,"station_id":"","pricing_plan_id":"cebpf4jnsgd1na2vs0mg"},{"bike_id":"c4ed27d8-ea29-49fc-a6a8-71e1af9bdabf","system_id":"levelo_inurba_marseille","lat":43.30784,"lon":5.43529,"is_reserved":false,"is_disabled":false,"rental_uris":{"android":"levelo://app?vid=c4ed27d8-ea29-49fc-a6a8-71e1af9bdabf","ios":"levelo://app?vid=c4ed27d8-ea29-49fc-a6a8-71e1af9bdabf"},"vehicle_type_id":"4","last_reported":1733811296,"current_range_meters":38000,"station_id":"ce4bhph2rcd13ifvqheg","pricing_plan_id":"cebpf4jnsgd1na2vs0mg"},{"bike_id":"f97ddc52-5758-4192-8ca1-71254ad1a77e","system_id":"levelo_inurba_marseille","lat":43.26196,"lon":5.37452,"is_reserved":false,"is_disabled":false,"rental_uris":{"android":"levelo://app?vid=f97ddc52-5758-4192-8ca1-71254ad1a77e","ios":"levelo://app?vid=f97ddc52-5758-4192-8ca1-71254ad1a77e"},"vehicle_type_id":"4","last_reported":1733811296,"current_range_meters":37600,"station_id":"ce4bhgp2rcd13ifvqfc0","pricing_plan_id":"cebpf4jnsgd1na2vs0mg"},{"bike_id":"11e86528-eb6b-4391-86a5-9b1822d069a4","system_id":"levelo_inurba_marseille","lat":43.278805,"lon":5.388003,"is_reserved":false,"is_disabled":true,"rental_uris":{"android":"levelo://app?vid=11e86528-eb6b-4391-86a5-9b1822d069a4","ios":"levelo://app?vid=11e86528-eb6b-4391-86a5-9b1822d069a4"},"vehicle_type_id":"4","last_reported":1733811296,"current_range_meters":0,"station_id":"","pricing_plan_id":"cebpf4jnsgd1na2vs0mg"},{"bike_id":"6cc6805f-c0ca-4585-bdf1-b5a0339762b0","system_id":"levelo_inurba_marseille","lat":43.29027,"lon":5.42744,"is_reserved":false,"is_disabled":true,"rental_uris":{"android":"levelo://app?vid=6cc6805f-c0ca-4585-bdf1-b5a0339762b0","ios":"levelo://app?vid=6cc6805f-c0ca-4585-bdf1-b5a0339762b0"},"vehicle_type_id":"4","last_reported":1733811296,"current_range_meters":0,"station_id":"","pricing_plan_id":"cebpf4jnsgd1na2vs0mg"},{"bike_id":"45d0e926-ca3d-4f46-8cac-9527b775619c","system_id":"levelo_inurba_marseille","lat":43.262,"lon":5.37929,"is_reserved":false,"is_disabled":false,"rental_uris":{"android":"levelo://app?vid=45d0e926-ca3d-4f46-8cac-9527b775619c","ios":"levelo://app?vid=45d0e926-ca3d-4f46-8cac-9527b775619c"},"vehicle_type_id":"4","last_reported":1733811296,"current_range_meters":38000,"station_id":"ce4bhjp2rcd13ifvqg90","pricing_plan_id":"cebpf4jnsgd1na2vs0mg"},{"bike_id":"a478bcff-2af8-4db5-8351-cdbe6b849a6d","system_id":"levelo_inurba_marseille","lat":43.33429,"lon":5.36206,"is_reserved":false,"is_disabled":true,"rental_uris":{"android":"levelo://app?vid=a478bcff-2af8-4db5-8351-cdbe6b849a6d","ios":"levelo://app?vid=a478bcff-2af8-4db5-8351-cdbe6b849a6d"},"vehicle_type_id":"4","last_reported":1733811296,"current_range_meters":0,"station_id":"","pricing_plan_id":"cebpf4jnsgd1na2vs0mg"},{"bike_id":"3cd9042b-677f-48de-8123-1cbc34192dbd","system_id":"levelo_inurba_marseille","lat":43.2928,"lon":5.40126,"is_reserved":false,"is_disabled":false,"rental_uris":{"android":"levelo://app?vid=3cd9042b-677f-48de-8123-1cbc34192dbd","ios":"levelo://app?vid=3cd9042b-677f-48de-8123-1cbc34192dbd"},"vehicle_type_id":"4","last_reported":1733811296,"current_range_meters":38000,"station_id":"ce4bh312rcd13ifvqdk0","pricing_plan_id":"cebpf4jnsgd1na2vs0mg"},{"bike_id":"7677a60e-3941-4093-ac87-1320010f608f","system_id":"levelo_inurba_marseille","lat":43.29194,"lon":5.39321,"is_reserved":false,"is_disabled":false,"rental_uris":{"android":"levelo://app?vid=7677a60e-3941-4093-ac87-1320010f608f","ios":"levelo://app?vid=7677a60e-3941-4093-ac87-1320010f608f"},"vehicle_type_id":"4","last_reported":1733811296,"current_range_meters":37600,"station_id":"ce4bh192rcd13ifvqdd0","pricing_plan_id":"cebpf4jnsgd1na2vs0mg"},{"bike_id":"9f03dca4-237a-49dc-8f4b-3b6a07909c99","system_id":"levelo_inurba_marseille","lat":43.23193,"lon":5.35554,"is_reserved":false,"is_disabled":false,"rental_uris":{"android":"levelo://app?vid=9f03dca4-237a-49dc-8f4b-3b6a07909c99","ios":"levelo://app?vid=9f03dca4-237a-49dc-8f4b-3b6a07909c99"},"vehicle_type_id":"4","last_reported":1733811296,"current_range_meters":38400,"station_id":"ce4bhu92rcd13ifvqi70","pricing_plan_id":"cebpf4jnsgd1na2vs0mg"},{"bike_id":"b6fcd388-ab74-408f-9e17-a2445b649a56","system_id":"levelo_inurba_marseille","lat":43.28454,"lon":5.35892,"is_reserved":false,"is_disabled":false,"rental_uris":{"android":"levelo://app?vid=b6fcd388-ab74-408f-9e17-a2445b649a56","ios":"levelo://app?vid=b6fcd388-ab74-408f-9e17-a2445b649a56"},"vehicle_type_id":"4","last_reported":1733811296,"current_range_meters":17600,"station_id":"ce4bhah2rcd13ifvqei0","pricing_plan_id":"cebpf4jnsgd1na2vs0mg"},{"bike_id":"1893dd0f-e72d-42c7-9f7a-d443413ee8a1","system_id":"levelo_inurba_marseille","lat":43.27949,"lon":5.41049,"is_reserved":false,"is_disabled":false,"rental_uris":{"android":"levelo://app?vid=1893dd0f-e72d-42c7-9f7a-d443413ee8a1","ios":"levelo://app?vid=1893dd0f-e72d-42c7-9f7a-d443413ee8a1"},"vehicle_type_id":"4","last_reported":1733811296,"current_range_meters":38800,"station_id":"ce4bhnp2rcd13ifvqh0g","pricing_plan_id":"cebpf4jnsgd1na2vs0mg"},{"bike_id":"3ec0a4b7-9409-4440-8a6a-f7eb6cd737cc","system_id":"levelo_inurba_marseille","lat":43.32005,"lon":5.38154,"is_reserved":false,"is_disabled":false,"rental_uris":{"android":"levelo://app?vid=3ec0a4b7-9409-4440-8a6a-f7eb6cd737cc","ios":"levelo://app?vid=3ec0a4b7-9409-4440-8a6a-f7eb6cd737cc"},"vehicle_type_id":"4","last_reported":1733811296,"current_range_meters":22000,"station_id":"ce4bhr12rcd13ifvqhpg","pricing_plan_id":"cebpf4jnsgd1na2vs0mg"},{"bike_id":"cf995f0f-a2d6-4303-85db-6d52c33aec36","system_id":"levelo_inurba_marseille","lat":43.33016,"lon":5.39035,"is_reserved":false,"is_disabled":false,"rental_uris":{"android":"levelo://app?vid=cf995f0f-a2d6-4303-85db-6d52c33aec36","ios":"levelo://app?vid=cf995f0f-a2d6-4303-85db-6d52c33aec36"},"vehicle_type_id":"4","last_reported":1733811296,"current_range_meters":38800,"station_id":"ce4bhr92rcd13ifvqhrg","pricing_plan_id":"cebpf4jnsgd1na2vs0mg"},{"bike_id":"032b82aa-e666-4fc9-91f6-608471b8f9b3","system_id":"levelo_inurba_marseille","lat":43.33607,"lon":5.4103,"is_reserved":false,"is_disabled":false,"rental_uris":{"android":"levelo://app?vid=032b82aa-e666-4fc9-91f6-608471b8f9b3","ios":"levelo://app?vid=032b82aa-e666-4fc9-91f6-608471b8f9b3"},"vehicle_type_id":"4","last_reported":1733811296,"current_range_meters":15200,"station_id":"ce4bhqh2rcd13ifvqhmg","pricing_plan_id":"cebpf4jnsgd1na2vs0mg"},{"bike_id":"f53936b7-9e97-4133-b16e-61eb5aac8d37","system_id":"levelo_inurba_marseille","lat":43.27426,"lon":5.39414,"is_reserved":false,"is_disabled":false,"rental_uris":{"android":"levelo://app?vid=f53936b7-9e97-4133-b16e-61eb5aac8d37","ios":"levelo://app?vid=f53936b7-9e97-4133-b16e-61eb5aac8d37"},"vehicle_type_id":"4","last_reported":1733811296,"current_range_meters":38000,"station_id":"ce4bhdp2rcd13ifvqf20","pricing_plan_id":"cebpf4jnsgd1na2vs0mg"},{"bike_id":"243c0fa9-fb27-4111-81f0-175e30eaaaed","system_id":"levelo_inurba_marseille","lat":43.29039,"lon":5.35923,"is_reserved":false,"is_disabled":true,"rental_uris":{"android":"levelo://app?vid=243c0fa9-fb27-4111-81f0-175e30eaaaed","ios":"levelo://app?vid=243c0fa9-fb27-4111-81f0-175e30eaaaed"},"vehicle_type_id":"4","last_reported":1733811296,"current_range_meters":38000,"station_id":"ce4bha92rcd13ifvqeg0","pricing_plan_id":"cebpf4jnsgd1na2vs0mg"},{"bike_id":"ec50719b-4d96-4e25-bc96-5c048872ab73","system_id":"levelo_inurba_marseille","lat":43.28663,"lon":5.36358,"is_reserved":false,"is_disabled":false,"rental_uris":{"android":"levelo://app?vid=ec50719b-4d96-4e25-bc96-5c048872ab73","ios":"levelo://app?vid=ec50719b-4d96-4e25-bc96-5c048872ab73"},"vehicle_type_id":"4","last_reported":1733811296,"current_range_meters":26000,"station_id":"ce4bhah2rcd13ifvqej0","pricing_plan_id":"cebpf4jnsgd1na2vs0mg"},{"bike_id":"a873af9b-a353-4469-b239-adbb5bf5dc0d","system_id":"levelo_inurba_marseille","lat":43.25874,"lon":5.39898,"is_reserved":false,"is_disabled":false,"rental_uris":{"android":"levelo://app?vid=a873af9b-a353-4469-b239-adbb5bf5dc0d","ios":"levelo://app?vid=a873af9b-a353-4469-b239-adbb5bf5dc0d"},"vehicle_type_id":"4","last_reported":1733811296,"current_range_meters":38800,"station_id":"ce4bhl92rcd13ifvqghg","pricing_plan_id":"cebpf4jnsgd1na2vs0mg"},{"bike_id":"736f6ae6-7558-432f-bac9-25b0b9abee75","system_id":"levelo_inurba_marseille","lat":43.314828,"lon":5.373022,"is_reserved":false,"is_disabled":false,"rental_uris":{"android":"levelo://app?vid=736f6ae6-7558-432f-bac9-25b0b9abee75","ios":"levelo://app?vid=736f6ae6-7558-432f-bac9-25b0b9abee75"},"vehicle_type_id":"4","last_reported":1733811296,"current_range_meters":8000,"station_id":"ce4bgt12rcd13ifvqcd0","pricing_plan_id":"cebpf4jnsgd1na2vs0mg"},{"bike_id":"d2d1b95f-9e7f-4820-a2f2-7da027aea4a2","system_id":"levelo_inurba_marseille","lat":43.30426,"lon":5.39748,"is_reserved":false,"is_disabled":false,"rental_uris":{"android":"levelo://app?vid=d2d1b95f-9e7f-4820-a2f2-7da027aea4a2","ios":"levelo://app?vid=d2d1b95f-9e7f-4820-a2f2-7da027aea4a2"},"vehicle_type_id":"4","last_reported":1733811296,"current_range_meters":24400,"station_id":"ce4bh092rcd13ifvqd20","pricing_plan_id":"cebpf4jnsgd1na2vs0mg"},{"bike_id":"c8594cb2-be43-422e-9b17-658a17df5714","system_id":"levelo_inurba_marseille","lat":43.306565,"lon":5.400711,"is_reserved":false,"is_disabled":false,"rental_uris":{"android":"levelo://app?vid=c8594cb2-be43-422e-9b17-658a17df5714","ios":"levelo://app?vid=c8594cb2-be43-422e-9b17-658a17df5714"},"vehicle_type_id":"4","last_reported":1733811296,"current_range_meters":17200,"station_id":"ce4bh112rcd13ifvqda0","pricing_plan_id":"cebpf4jnsgd1na2vs0mg"},{"bike_id":"be5ef6a3-cb1e-417f-bbeb-5d4cbe169cd6","system_id":"levelo_inurba_marseille","lat":43.27665,"lon":5.38882,"is_reserved":false,"is_disabled":false,"rental_uris":{"android":"levelo://app?vid=be5ef6a3-cb1e-417f-bbeb-5d4cbe169cd6","ios":"levelo://app?vid=be5ef6a3-cb1e-417f-bbeb-5d4cbe169cd6"},"vehicle_type_id":"4","last_reported":1733811296,"current_range_meters":4000,"station_id":"ce4bhi12rcd13ifvqfo0","pricing_plan_id":"cebpf4jnsgd1na2vs0mg"},{"bike_id":"22a6bf1d-be6c-43cd-ac33-0ce352e1d59d","system_id":"levelo_inurba_marseille","lat":43.28699,"lon":5.39984,"is_reserved":false,"is_disabled":false,"rental_uris":{"android":"levelo://app?vid=22a6bf1d-be6c-43cd-ac33-0ce352e1d59d","ios":"levelo://app?vid=22a6bf1d-be6c-43cd-ac33-0ce352e1d59d"},"vehicle_type_id":"4","last_reported":1733811296,"current_range_meters":34000,"station_id":"ce4bho92rcd13ifvqh3g","pricing_plan_id":"cebpf4jnsgd1na2vs0mg"},{"bike_id":"1381d957-9c22-4679-9945-3cee5159e1e0","system_id":"levelo_inurba_marseille","lat":43.2513,"lon":5.40339,"is_reserved":false,"is_disabled":false,"rental_uris":{"android":"levelo://app?vid=1381d957-9c22-4679-9945-3cee5159e1e0","ios":"levelo://app?vid=1381d957-9c22-4679-9945-3cee5159e1e0"},"vehicle_type_id":"4","last_reported":1733811296,"current_range_meters":26800,"station_id":"ce4bhlh2rcd13ifvqgig","pricing_plan_id":"cebpf4jnsgd1na2vs0mg"},{"bike_id":"72369e3c-7a31-4199-a732-76fa73093ac4","system_id":"levelo_inurba_marseille","lat":43.31374,"lon":5.36746,"is_reserved":false,"is_disabled":true,"rental_uris":{"android":"levelo://app?vid=72369e3c-7a31-4199-a732-76fa73093ac4","ios":"levelo://app?vid=72369e3c-7a31-4199-a732-76fa73093ac4"},"vehicle_type_id":"4","last_reported":1733811296,"current_range_meters":25600,"station_id":"ce4bgr92rcd13ifvqc6g","pricing_plan_id":"cebpf4jnsgd1na2vs0mg"},{"bike_id":"5fa91bad-b486-4700-aee0-3d40cbe09516","system_id":"levelo_inurba_marseille","lat":43.2417,"lon":5.36402,"is_reserved":false,"is_disabled":false,"rental_uris":{"android":"levelo://app?vid=5fa91bad-b486-4700-aee0-3d40cbe09516","ios":"levelo://app?vid=5fa91bad-b486-4700-aee0-3d40cbe09516"},"vehicle_type_id":"4","last_reported":1733811296,"current_range_meters":38000,"station_id":"cpo36qri1sfpv3e86is0","pricing_plan_id":"cebpf4jnsgd1na2vs0mg"},{"bike_id":"9a2ef368-ccbc-48df-bfe5-729b4ec1a778","system_id":"levelo_inurba_marseille","lat":43.30885,"lon":5.39653,"is_reserved":false,"is_disabled":false,"rental_uris":{"android":"levelo://app?vid=9a2ef368-ccbc-48df-bfe5-729b4ec1a778","ios":"levelo://app?vid=9a2ef368-ccbc-48df-bfe5-729b4ec1a778"},"vehicle_type_id":"4","last_reported":1733811296,"current_range_meters":38400,"station_id":"ce4bh012rcd13ifvqcv0","pricing_plan_id":"cebpf4jnsgd1na2vs0mg"},{"bike_id":"604b65e4-2a6b-4142-a6b5-6826372f5ac5","system_id":"levelo_inurba_marseille","lat":43.25107,"lon":5.4033,"is_reserved":false,"is_disabled":false,"rental_uris":{"android":"levelo://app?vid=604b65e4-2a6b-4142-a6b5-6826372f5ac5","ios":"levelo://app?vid=604b65e4-2a6b-4142-a6b5-6826372f5ac5"},"vehicle_type_id":"4","last_reported":1733811296,"current_range_meters":29600,"station_id":"ce4bhlh2rcd13ifvqgig","pricing_plan_id":"cebpf4jnsgd1na2vs0mg"},{"bike_id":"067d4f8e-eded-4040-9b89-eb14aebc4852","system_id":"levelo_inurba_marseille","lat":43.299,"lon":5.43675,"is_reserved":false,"is_disabled":false,"rental_uris":{"android":"levelo://app?vid=067d4f8e-eded-4040-9b89-eb14aebc4852","ios":"levelo://app?vid=067d4f8e-eded-4040-9b89-eb14aebc4852"},"vehicle_type_id":"4","last_reported":1733811296,"current_range_meters":35200,"station_id":"ce4bhpp2rcd13ifvqhfg","pricing_plan_id":"cebpf4jnsgd1na2vs0mg"},{"bike_id":"23504e84-62de-4322-9c7d-5dbe7fb79461","system_id":"levelo_inurba_marseille","lat":43.28666,"lon":5.36355,"is_reserved":false,"is_disabled":false,"rental_uris":{"android":"levelo://app?vid=23504e84-62de-4322-9c7d-5dbe7fb79461","ios":"levelo://app?vid=23504e84-62de-4322-9c7d-5dbe7fb79461"},"vehicle_type_id":"4","last_reported":1733811296,"current_range_meters":38400,"station_id":"ce4bhah2rcd13ifvqej0","pricing_plan_id":"cebpf4jnsgd1na2vs0mg"},{"bike_id":"5296114b-8626-48f5-977d-e8d6150c1950","system_id":"levelo_inurba_marseille","lat":43.26024,"lon":5.37548,"is_reserved":false,"is_disabled":false,"rental_uris":{"android":"levelo://app?vid=5296114b-8626-48f5-977d-e8d6150c1950","ios":"levelo://app?vid=5296114b-8626-48f5-977d-e8d6150c1950"},"vehicle_type_id":"4","last_reported":1733811296,"current_range_meters":38800,"station_id":"ce4bhgh2rcd13ifvqfa0","pricing_plan_id":"cebpf4jnsgd1na2vs0mg"},{"bike_id":"9f3769a7-f392-475e-913a-8ad10d3e2daf","system_id":"levelo_inurba_marseille","lat":43.24161,"lon":5.36398,"is_reserved":false,"is_disabled":false,"rental_uris":{"android":"levelo://app?vid=9f3769a7-f392-475e-913a-8ad10d3e2daf","ios":"levelo://app?vid=9f3769a7-f392-475e-913a-8ad10d3e2daf"},"vehicle_type_id":"4","last_reported":1733811296,"current_range_meters":17600,"station_id":"cpo36qri1sfpv3e86is0","pricing_plan_id":"cebpf4jnsgd1na2vs0mg"},{"bike_id":"896d4ccf-3d83-4122-b2f2-1a77a517b0e7","system_id":"levelo_inurba_marseille","lat":43.23959,"lon":5.36635,"is_reserved":false,"is_disabled":false,"rental_uris":{"android":"levelo://app?vid=896d4ccf-3d83-4122-b2f2-1a77a517b0e7","ios":"levelo://app?vid=896d4ccf-3d83-4122-b2f2-1a77a517b0e7"},"vehicle_type_id":"4","last_reported":1733811296,"current_range_meters":37600,"station_id":"ce4bhi12rcd13ifvqfp0","pricing_plan_id":"cebpf4jnsgd1na2vs0mg"},{"bike_id":"973a4773-97d7-429d-8f91-369ad228afec","system_id":"levelo_inurba_marseille","lat":43.29567,"lon":5.40003,"is_reserved":false,"is_disabled":false,"rental_uris":{"android":"levelo://app?vid=973a4773-97d7-429d-8f91-369ad228afec","ios":"levelo://app?vid=973a4773-97d7-429d-8f91-369ad228afec"},"vehicle_type_id":"4","last_reported":1733811296,"current_range_meters":38800,"station_id":"ce4bh312rcd13ifvqdj0","pricing_plan_id":"cebpf4jnsgd1na2vs0mg"},{"bike_id":"78538ca3-c476-4016-a603-0265e1a2f841","system_id":"levelo_inurba_marseille","lat":43.32924,"lon":5.38008,"is_reserved":false,"is_disabled":false,"rental_uris":{"android":"levelo://app?vid=78538ca3-c476-4016-a603-0265e1a2f841","ios":"levelo://app?vid=78538ca3-c476-4016-a603-0265e1a2f841"},"vehicle_type_id":"4","last_reported":1733811296,"current_range_meters":37600,"station_id":"","pricing_plan_id":"cebpf4jnsgd1na2vs0mg"},{"bike_id":"213d6e1f-7eb7-496d-96cc-457f43b75917","system_id":"levelo_inurba_marseille","lat":43.30148,"lon":5.38077,"is_reserved":false,"is_disabled":false,"rental_uris":{"android":"levelo://app?vid=213d6e1f-7eb7-496d-96cc-457f43b75917","ios":"levelo://app?vid=213d6e1f-7eb7-496d-96cc-457f43b75917"},"vehicle_type_id":"4","last_reported":1733811296,"current_range_meters":38400,"station_id":"ce4bgjp2rcd13ifvqbh0","pricing_plan_id":"cebpf4jnsgd1na2vs0mg"},{"bike_id":"9a21c5e9-df67-4cc2-a38a-0f9c43fe1f89","system_id":"levelo_inurba_marseille","lat":43.31962,"lon":5.3692,"is_reserved":false,"is_disabled":false,"rental_uris":{"android":"levelo://app?vid=9a21c5e9-df67-4cc2-a38a-0f9c43fe1f89","ios":"levelo://app?vid=9a21c5e9-df67-4cc2-a38a-0f9c43fe1f89"},"vehicle_type_id":"4","last_reported":1733811296,"current_range_meters":36400,"station_id":"ce4bhs12rcd13ifvqhvg","pricing_plan_id":"cebpf4jnsgd1na2vs0mg"},{"bike_id":"6dd31b94-d18d-42c1-bca1-2a3c49f3f0a5","system_id":"levelo_inurba_marseille","lat":43.29892,"lon":5.43662,"is_reserved":false,"is_disabled":false,"rental_uris":{"android":"levelo://app?vid=6dd31b94-d18d-42c1-bca1-2a3c49f3f0a5","ios":"levelo://app?vid=6dd31b94-d18d-42c1-bca1-2a3c49f3f0a5"},"vehicle_type_id":"4","last_reported":1733811296,"current_range_meters":37600,"station_id":"ce4bhpp2rcd13ifvqhfg","pricing_plan_id":"cebpf4jnsgd1na2vs0mg"},{"bike_id":"149fde69-cbba-4a5f-8efc-d66c25bec305","system_id":"levelo_inurba_marseille","lat":43.2725,"lon":5.4086,"is_reserved":false,"is_disabled":false,"rental_uris":{"android":"levelo://app?vid=149fde69-cbba-4a5f-8efc-d66c25bec305","ios":"levelo://app?vid=149fde69-cbba-4a5f-8efc-d66c25bec305"},"vehicle_type_id":"4","last_reported":1733811296,"current_range_meters":38400,"station_id":"ce4bhl12rcd13ifvqgf0","pricing_plan_id":"cebpf4jnsgd1na2vs0mg"},{"bike_id":"456ee3e2-7425-4120-bc59-2e964fa693a8","system_id":"levelo_inurba_marseille","lat":43.243907,"lon":5.370578,"is_reserved":false,"is_disabled":false,"rental_uris":{"android":"levelo://app?vid=456ee3e2-7425-4120-bc59-2e964fa693a8","ios":"levelo://app?vid=456ee3e2-7425-4120-bc59-2e964fa693a8"},"vehicle_type_id":"4","last_reported":1733811296,"current_range_meters":38400,"station_id":"ce4bhhh2rcd13ifvqfk0","pricing_plan_id":"cebpf4jnsgd1na2vs0mg"},{"bike_id":"3c2062af-ee33-42a5-bf68-d8b0edbf6fcf","system_id":"levelo_inurba_marseille","lat":43.31995,"lon":5.38141,"is_reserved":false,"is_disabled":false,"rental_uris":{"android":"levelo://app?vid=3c2062af-ee33-42a5-bf68-d8b0edbf6fcf","ios":"levelo://app?vid=3c2062af-ee33-42a5-bf68-d8b0edbf6fcf"},"vehicle_type_id":"4","last_reported":1733811296,"current_range_meters":39200,"station_id":"ce4bhr12rcd13ifvqhpg","pricing_plan_id":"cebpf4jnsgd1na2vs0mg"},{"bike_id":"99865193-4a4c-4fd2-a45f-3c978e84a380","system_id":"levelo_inurba_marseille","lat":43.26803,"lon":5.4027,"is_reserved":false,"is_disabled":false,"rental_uris":{"android":"levelo://app?vid=99865193-4a4c-4fd2-a45f-3c978e84a380","ios":"levelo://app?vid=99865193-4a4c-4fd2-a45f-3c978e84a380"},"vehicle_type_id":"4","last_reported":1733811296,"current_range_meters":30800,"station_id":"ce501612rcd8frsf0b60","pricing_plan_id":"cebpf4jnsgd1na2vs0mg"},{"bike_id":"3b12fc64-e051-4755-b012-02acbac1eeae","system_id":"levelo_inurba_marseille","lat":43.27212,"lon":5.39181,"is_reserved":false,"is_disabled":false,"rental_uris":{"android":"levelo://app?vid=3b12fc64-e051-4755-b012-02acbac1eeae","ios":"levelo://app?vid=3b12fc64-e051-4755-b012-02acbac1eeae"},"vehicle_type_id":"4","last_reported":1733811296,"current_range_meters":38400,"station_id":"ce4bhhp2rcd13ifvqfm0","pricing_plan_id":"cebpf4jnsgd1na2vs0mg"},{"bike_id":"25a20b03-9830-4773-bc6b-d425633d2c5c","system_id":"levelo_inurba_marseille","lat":43.24766,"lon":5.40032,"is_reserved":false,"is_disabled":true,"rental_uris":{"android":"levelo://app?vid=25a20b03-9830-4773-bc6b-d425633d2c5c","ios":"levelo://app?vid=25a20b03-9830-4773-bc6b-d425633d2c5c"},"vehicle_type_id":"4","last_reported":1733811296,"current_range_meters":0,"station_id":"","pricing_plan_id":"cebpf4jnsgd1na2vs0mg"},{"bike_id":"75eb83c4-e905-4efe-8f57-088042638a09","system_id":"levelo_inurba_marseille","lat":43.24801,"lon":5.3745,"is_reserved":false,"is_disabled":false,"rental_uris":{"android":"levelo://app?vid=75eb83c4-e905-4efe-8f57-088042638a09","ios":"levelo://app?vid=75eb83c4-e905-4efe-8f57-088042638a09"},"vehicle_type_id":"4","last_reported":1733811296,"current_range_meters":39200,"station_id":"ce4bhgh2rcd13ifvqfb0","pricing_plan_id":"cebpf4jnsgd1na2vs0mg"},{"bike_id":"da1da42e-619f-478f-bfae-d2fb92b8cb3c","system_id":"levelo_inurba_marseille","lat":43.28152,"lon":5.42642,"is_reserved":false,"is_disabled":false,"rental_uris":{"android":"levelo://app?vid=da1da42e-619f-478f-bfae-d2fb92b8cb3c","ios":"levelo://app?vid=da1da42e-619f-478f-bfae-d2fb92b8cb3c"},"vehicle_type_id":"4","last_reported":1733811296,"current_range_meters":38800,"station_id":"ce4bhnh2rcd13ifvqgug","pricing_plan_id":"cebpf4jnsgd1na2vs0mg"},{"bike_id":"fa9f837d-087b-417d-855e-bb2ca30d3b94","system_id":"levelo_inurba_marseille","lat":43.30603,"lon":5.37224,"is_reserved":false,"is_disabled":false,"rental_uris":{"android":"levelo://app?vid=fa9f837d-087b-417d-855e-bb2ca30d3b94","ios":"levelo://app?vid=fa9f837d-087b-417d-855e-bb2ca30d3b94"},"vehicle_type_id":"4","last_reported":1733811296,"current_range_meters":37600,"station_id":"ce4bgqh2rcd13ifvqc4g","pricing_plan_id":"cebpf4jnsgd1na2vs0mg"},{"bike_id":"96b4e0a8-8f98-4fc6-8d19-c0dca4f16ba5","system_id":"levelo_inurba_marseille","lat":43.2846,"lon":5.35886,"is_reserved":false,"is_disabled":false,"rental_uris":{"android":"levelo://app?vid=96b4e0a8-8f98-4fc6-8d19-c0dca4f16ba5","ios":"levelo://app?vid=96b4e0a8-8f98-4fc6-8d19-c0dca4f16ba5"},"vehicle_type_id":"4","last_reported":1733811296,"current_range_meters":39200,"station_id":"ce4bhah2rcd13ifvqei0","pricing_plan_id":"cebpf4jnsgd1na2vs0mg"},{"bike_id":"7292a2ac-73a1-4c5d-a38b-1ac906ea9f7d","system_id":"levelo_inurba_marseille","lat":43.29252,"lon":5.40913,"is_reserved":false,"is_disabled":false,"rental_uris":{"android":"levelo://app?vid=7292a2ac-73a1-4c5d-a38b-1ac906ea9f7d","ios":"levelo://app?vid=7292a2ac-73a1-4c5d-a38b-1ac906ea9f7d"},"vehicle_type_id":"4","last_reported":1733811296,"current_range_meters":36000,"station_id":"ce4bh192rcd13ifvqdc0","pricing_plan_id":"cebpf4jnsgd1na2vs0mg"},{"bike_id":"2c1fc921-bacd-4e06-b1ad-b0db031246cc","system_id":"levelo_inurba_marseille","lat":43.29201,"lon":5.39322,"is_reserved":false,"is_disabled":false,"rental_uris":{"android":"levelo://app?vid=2c1fc921-bacd-4e06-b1ad-b0db031246cc","ios":"levelo://app?vid=2c1fc921-bacd-4e06-b1ad-b0db031246cc"},"vehicle_type_id":"4","last_reported":1733811296,"current_range_meters":38800,"station_id":"ce4bh192rcd13ifvqdd0","pricing_plan_id":"cebpf4jnsgd1na2vs0mg"},{"bike_id":"f28f99b4-6cf7-4153-b870-5ede39787b28","system_id":"levelo_inurba_marseille","lat":43.29197,"lon":5.39321,"is_reserved":false,"is_disabled":false,"rental_uris":{"android":"levelo://app?vid=f28f99b4-6cf7-4153-b870-5ede39787b28","ios":"levelo://app?vid=f28f99b4-6cf7-4153-b870-5ede39787b28"},"vehicle_type_id":"4","last_reported":1733811296,"current_range_meters":32400,"station_id":"ce4bh192rcd13ifvqdd0","pricing_plan_id":"cebpf4jnsgd1na2vs0mg"},{"bike_id":"55e60e63-47ce-424d-ad59-1c9ec610c8a6","system_id":"levelo_inurba_marseille","lat":43.28454,"lon":5.35883,"is_reserved":false,"is_disabled":false,"rental_uris":{"android":"levelo://app?vid=55e60e63-47ce-424d-ad59-1c9ec610c8a6","ios":"levelo://app?vid=55e60e63-47ce-424d-ad59-1c9ec610c8a6"},"vehicle_type_id":"4","last_reported":1733811296,"current_range_meters":38800,"station_id":"ce4bhah2rcd13ifvqei0","pricing_plan_id":"cebpf4jnsgd1na2vs0mg"},{"bike_id":"79eec760-3148-415c-9486-9ff642f00208","system_id":"levelo_inurba_marseille","lat":43.34667,"lon":5.34571,"is_reserved":false,"is_disabled":true,"rental_uris":{"android":"levelo://app?vid=79eec760-3148-415c-9486-9ff642f00208","ios":"levelo://app?vid=79eec760-3148-415c-9486-9ff642f00208"},"vehicle_type_id":"4","last_reported":1733811296,"current_range_meters":0,"station_id":"","pricing_plan_id":"cebpf4jnsgd1na2vs0mg"},{"bike_id":"6a365c40-d5b2-47f1-8285-9429124e6c5f","system_id":"levelo_inurba_marseille","lat":43.24807,"lon":5.37451,"is_reserved":false,"is_disabled":false,"rental_uris":{"android":"levelo://app?vid=6a365c40-d5b2-47f1-8285-9429124e6c5f","ios":"levelo://app?vid=6a365c40-d5b2-47f1-8285-9429124e6c5f"},"vehicle_type_id":"4","last_reported":1733811296,"current_range_meters":24000,"station_id":"ce4bhgh2rcd13ifvqfb0","pricing_plan_id":"cebpf4jnsgd1na2vs0mg"},{"bike_id":"9a8f466b-8790-45e8-9233-f61a1cfa1f24","system_id":"levelo_inurba_marseille","lat":43.28462,"lon":5.358956,"is_reserved":false,"is_disabled":false,"rental_uris":{"android":"levelo://app?vid=9a8f466b-8790-45e8-9233-f61a1cfa1f24","ios":"levelo://app?vid=9a8f466b-8790-45e8-9233-f61a1cfa1f24"},"vehicle_type_id":"4","last_reported":1733811296,"current_range_meters":17200,"station_id":"ce4bhah2rcd13ifvqei0","pricing_plan_id":"cebpf4jnsgd1na2vs0mg"},{"bike_id":"097d539c-2fb0-4695-9c7a-c109fd16c513","system_id":"levelo_inurba_marseille","lat":43.27067,"lon":5.42271,"is_reserved":false,"is_disabled":false,"rental_uris":{"android":"levelo://app?vid=097d539c-2fb0-4695-9c7a-c109fd16c513","ios":"levelo://app?vid=097d539c-2fb0-4695-9c7a-c109fd16c513"},"vehicle_type_id":"4","last_reported":1733811296,"current_range_meters":38800,"station_id":"ce4bhk92rcd13ifvqgb0","pricing_plan_id":"cebpf4jnsgd1na2vs0mg"},{"bike_id":"2799e42a-2574-4188-a835-36cfe365646d","system_id":"levelo_inurba_marseille","lat":43.3153,"lon":5.38031,"is_reserved":false,"is_disabled":false,"rental_uris":{"android":"levelo://app?vid=2799e42a-2574-4188-a835-36cfe365646d","ios":"levelo://app?vid=2799e42a-2574-4188-a835-36cfe365646d"},"vehicle_type_id":"4","last_reported":1733811296,"current_range_meters":39200,"station_id":"ce4bhsp2rcd13ifvqi50","pricing_plan_id":"cebpf4jnsgd1na2vs0mg"},{"bike_id":"88a7ad66-e693-4411-a768-a5a47218de5e","system_id":"levelo_inurba_marseille","lat":43.27319,"lon":5.39091,"is_reserved":false,"is_disabled":false,"rental_uris":{"android":"levelo://app?vid=88a7ad66-e693-4411-a768-a5a47218de5e","ios":"levelo://app?vid=88a7ad66-e693-4411-a768-a5a47218de5e"},"vehicle_type_id":"4","last_reported":1733811296,"current_range_meters":37600,"station_id":"ce4bhgp2rcd13ifvqfe0","pricing_plan_id":"cebpf4jnsgd1na2vs0mg"},{"bike_id":"8a1ba367-d799-4041-a1b4-79dbb77ea30e","system_id":"levelo_inurba_marseille","lat":43.24071,"lon":5.37763,"is_reserved":false,"is_disabled":false,"rental_uris":{"android":"levelo://app?vid=8a1ba367-d799-4041-a1b4-79dbb77ea30e","ios":"levelo://app?vid=8a1ba367-d799-4041-a1b4-79dbb77ea30e"},"vehicle_type_id":"4","last_reported":1733811296,"current_range_meters":38800,"station_id":"ce4bhnp2rcd13ifvqgvg","pricing_plan_id":"cebpf4jnsgd1na2vs0mg"},{"bike_id":"09e8f3a7-5e09-4c1d-acc9-e200de530ef1","system_id":"levelo_inurba_marseille","lat":43.23155,"lon":5.43701,"is_reserved":false,"is_disabled":false,"rental_uris":{"android":"levelo://app?vid=09e8f3a7-5e09-4c1d-acc9-e200de530ef1","ios":"levelo://app?vid=09e8f3a7-5e09-4c1d-acc9-e200de530ef1"},"vehicle_type_id":"4","last_reported":1733811296,"current_range_meters":37600,"station_id":"ce4bhmp2rcd13ifvqgog","pricing_plan_id":"cebpf4jnsgd1na2vs0mg"},{"bike_id":"bc96bd57-46d6-48ee-8c75-cbc1e5a961a5","system_id":"levelo_inurba_marseille","lat":43.30144,"lon":5.3742,"is_reserved":false,"is_disabled":false,"rental_uris":{"android":"levelo://app?vid=bc96bd57-46d6-48ee-8c75-cbc1e5a961a5","ios":"levelo://app?vid=bc96bd57-46d6-48ee-8c75-cbc1e5a961a5"},"vehicle_type_id":"4","last_reported":1733811296,"current_range_meters":30800,"station_id":"ce4bgs92rcd13ifvqcc0","pricing_plan_id":"cebpf4jnsgd1na2vs0mg"},{"bike_id":"84c02044-e8b7-4caf-b8d8-a75f1c60eb03","system_id":"levelo_inurba_marseille","lat":43.27567,"lon":5.38426,"is_reserved":false,"is_disabled":false,"rental_uris":{"android":"levelo://app?vid=84c02044-e8b7-4caf-b8d8-a75f1c60eb03","ios":"levelo://app?vid=84c02044-e8b7-4caf-b8d8-a75f1c60eb03"},"vehicle_type_id":"4","last_reported":1733811296,"current_range_meters":36000,"station_id":"ce4bhh92rcd13ifvqfi0","pricing_plan_id":"cebpf4jnsgd1na2vs0mg"},{"bike_id":"e3650a39-7faf-4bef-874a-053482a93766","system_id":"levelo_inurba_marseille","lat":43.29727,"lon":5.37678,"is_reserved":false,"is_disabled":true,"rental_uris":{"android":"levelo://app?vid=e3650a39-7faf-4bef-874a-053482a93766","ios":"levelo://app?vid=e3650a39-7faf-4bef-874a-053482a93766"},"vehicle_type_id":"4","last_reported":1733811296,"current_range_meters":28000,"station_id":"ce4bgkh2rcd13ifvqbl0","pricing_plan_id":"cebpf4jnsgd1na2vs0mg"},{"bike_id":"552782d8-e5d7-4772-94a4-001461c0cb80","system_id":"levelo_inurba_marseille","lat":43.2407,"lon":5.37762,"is_reserved":false,"is_disabled":false,"rental_uris":{"android":"levelo://app?vid=552782d8-e5d7-4772-94a4-001461c0cb80","ios":"levelo://app?vid=552782d8-e5d7-4772-94a4-001461c0cb80"},"vehicle_type_id":"4","last_reported":1733811296,"current_range_meters":38800,"station_id":"ce4bhnp2rcd13ifvqgvg","pricing_plan_id":"cebpf4jnsgd1na2vs0mg"},{"bike_id":"e652bd0e-f25c-4f49-88d2-3023d62cd5aa","system_id":"levelo_inurba_marseille","lat":43.295892,"lon":5.37506,"is_reserved":false,"is_disabled":true,"rental_uris":{"android":"levelo://app?vid=e652bd0e-f25c-4f49-88d2-3023d62cd5aa","ios":"levelo://app?vid=e652bd0e-f25c-4f49-88d2-3023d62cd5aa"},"vehicle_type_id":"4","last_reported":1733811296,"current_range_meters":0,"station_id":"","pricing_plan_id":"cebpf4jnsgd1na2vs0mg"},{"bike_id":"fe5707ac-071f-4824-98b8-d6b028bc38f8","system_id":"levelo_inurba_marseille","lat":43.25861,"lon":5.39903,"is_reserved":false,"is_disabled":false,"rental_uris":{"android":"levelo://app?vid=fe5707ac-071f-4824-98b8-d6b028bc38f8","ios":"levelo://app?vid=fe5707ac-071f-4824-98b8-d6b028bc38f8"},"vehicle_type_id":"4","last_reported":1733811296,"current_range_meters":28400,"station_id":"ce4bhl92rcd13ifvqghg","pricing_plan_id":"cebpf4jnsgd1na2vs0mg"},{"bike_id":"50f52497-54ca-47ea-a19e-1fc86f8c6045","system_id":"levelo_inurba_marseille","lat":43.28231,"lon":5.42407,"is_reserved":false,"is_disabled":true,"rental_uris":{"android":"levelo://app?vid=50f52497-54ca-47ea-a19e-1fc86f8c6045","ios":"levelo://app?vid=50f52497-54ca-47ea-a19e-1fc86f8c6045"},"vehicle_type_id":"4","last_reported":1733811296,"current_range_meters":6400,"station_id":"","pricing_plan_id":"cebpf4jnsgd1na2vs0mg"},{"bike_id":"1b2d4db1-cec0-4376-9abf-f3b964e5dcb7","system_id":"levelo_inurba_marseille","lat":43.232,"lon":5.35548,"is_reserved":false,"is_disabled":false,"rental_uris":{"android":"levelo://app?vid=1b2d4db1-cec0-4376-9abf-f3b964e5dcb7","ios":"levelo://app?vid=1b2d4db1-cec0-4376-9abf-f3b964e5dcb7"},"vehicle_type_id":"4","last_reported":1733811296,"current_range_meters":37600,"station_id":"ce4bhu92rcd13ifvqi70","pricing_plan_id":"cebpf4jnsgd1na2vs0mg"},{"bike_id":"96bdbbf6-4e27-431a-9de0-61580f6be174","system_id":"levelo_inurba_marseille","lat":43.23181,"lon":5.39982,"is_reserved":false,"is_disabled":false,"rental_uris":{"android":"levelo://app?vid=96bdbbf6-4e27-431a-9de0-61580f6be174","ios":"levelo://app?vid=96bdbbf6-4e27-431a-9de0-61580f6be174"},"vehicle_type_id":"4","last_reported":1733811296,"current_range_meters":7200,"station_id":"ce4bhn12rcd13ifvqgqg","pricing_plan_id":"cebpf4jnsgd1na2vs0mg"},{"bike_id":"65a5d8de-101e-4549-82cc-0aa76cd0538b","system_id":"levelo_inurba_marseille","lat":43.30309,"lon":5.36898,"is_reserved":false,"is_disabled":true,"rental_uris":{"android":"levelo://app?vid=65a5d8de-101e-4549-82cc-0aa76cd0538b","ios":"levelo://app?vid=65a5d8de-101e-4549-82cc-0aa76cd0538b"},"vehicle_type_id":"4","last_reported":1733811296,"current_range_meters":0,"station_id":"ce4bgqh2rcd13ifvqc5g","pricing_plan_id":"cebpf4jnsgd1na2vs0mg"},{"bike_id":"33f1a526-a5a3-4261-b1e0-d90c46ff918d","system_id":"levelo_inurba_marseille","lat":43.28151,"lon":5.42643,"is_reserved":false,"is_disabled":true,"rental_uris":{"android":"levelo://app?vid=33f1a526-a5a3-4261-b1e0-d90c46ff918d","ios":"levelo://app?vid=33f1a526-a5a3-4261-b1e0-d90c46ff918d"},"vehicle_type_id":"4","last_reported":1733811296,"current_range_meters":16800,"station_id":"ce4bhnh2rcd13ifvqgug","pricing_plan_id":"cebpf4jnsgd1na2vs0mg"},{"bike_id":"3e9e2561-6f54-485e-84b2-cff5e0916c34","system_id":"levelo_inurba_marseille","lat":43.32346,"lon":5.40624,"is_reserved":false,"is_disabled":false,"rental_uris":{"android":"levelo://app?vid=3e9e2561-6f54-485e-84b2-cff5e0916c34","ios":"levelo://app?vid=3e9e2561-6f54-485e-84b2-cff5e0916c34"},"vehicle_type_id":"4","last_reported":1733811296,"current_range_meters":12000,"station_id":"ce4bhq92rcd13ifvqhjg","pricing_plan_id":"cebpf4jnsgd1na2vs0mg"},{"bike_id":"6471b5c6-0904-4f8f-8900-ab02d9bb00c4","system_id":"levelo_inurba_marseille","lat":43.24808,"lon":5.37454,"is_reserved":false,"is_disabled":false,"rental_uris":{"android":"levelo://app?vid=6471b5c6-0904-4f8f-8900-ab02d9bb00c4","ios":"levelo://app?vid=6471b5c6-0904-4f8f-8900-ab02d9bb00c4"},"vehicle_type_id":"4","last_reported":1733811296,"current_range_meters":38000,"station_id":"ce4bhgh2rcd13ifvqfb0","pricing_plan_id":"cebpf4jnsgd1na2vs0mg"},{"bike_id":"76297273-a070-4aeb-9b97-514f5db3a44c","system_id":"levelo_inurba_marseille","lat":43.28268,"lon":5.35067,"is_reserved":false,"is_disabled":false,"rental_uris":{"android":"levelo://app?vid=76297273-a070-4aeb-9b97-514f5db3a44c","ios":"levelo://app?vid=76297273-a070-4aeb-9b97-514f5db3a44c"},"vehicle_type_id":"4","last_reported":1733811296,"current_range_meters":38800,"station_id":"ce4bhbp2rcd13ifvqerg","pricing_plan_id":"cebpf4jnsgd1na2vs0mg"},{"bike_id":"1c5491e3-5640-4dec-a041-cae84c60627c","system_id":"levelo_inurba_marseille","lat":43.29002,"lon":5.35613,"is_reserved":false,"is_disabled":true,"rental_uris":{"android":"levelo://app?vid=1c5491e3-5640-4dec-a041-cae84c60627c","ios":"levelo://app?vid=1c5491e3-5640-4dec-a041-cae84c60627c"},"vehicle_type_id":"4","last_reported":1733811296,"current_range_meters":23200,"station_id":"ce4bhb92rcd13ifvqen0","pricing_plan_id":"cebpf4jnsgd1na2vs0mg"},{"bike_id":"90ebbba3-1f93-4e94-b8e2-3a92e7a696f4","system_id":"levelo_inurba_marseille","lat":43.27964,"lon":5.38713,"is_reserved":false,"is_disabled":false,"rental_uris":{"android":"levelo://app?vid=90ebbba3-1f93-4e94-b8e2-3a92e7a696f4","ios":"levelo://app?vid=90ebbba3-1f93-4e94-b8e2-3a92e7a696f4"},"vehicle_type_id":"4","last_reported":1733811296,"current_range_meters":29600,"station_id":"ce4bhg12rcd13ifvqf80","pricing_plan_id":"cebpf4jnsgd1na2vs0mg"},{"bike_id":"5d9d33ed-3cf9-4f40-bcf4-4fd075009d99","system_id":"levelo_inurba_marseille","lat":43.26938,"lon":5.40252,"is_reserved":false,"is_disabled":false,"rental_uris":{"android":"levelo://app?vid=5d9d33ed-3cf9-4f40-bcf4-4fd075009d99","ios":"levelo://app?vid=5d9d33ed-3cf9-4f40-bcf4-4fd075009d99"},"vehicle_type_id":"4","last_reported":1733811296,"current_range_meters":39200,"station_id":"cjm6bp8fraef2m0cb0m0","pricing_plan_id":"cebpf4jnsgd1na2vs0mg"},{"bike_id":"e2e5fff8-dab3-4021-a87d-3c7c833d47d1","system_id":"levelo_inurba_marseille","lat":43.26219,"lon":5.37442,"is_reserved":false,"is_disabled":false,"rental_uris":{"android":"levelo://app?vid=e2e5fff8-dab3-4021-a87d-3c7c833d47d1","ios":"levelo://app?vid=e2e5fff8-dab3-4021-a87d-3c7c833d47d1"},"vehicle_type_id":"4","last_reported":1733811296,"current_range_meters":9600,"station_id":"ce4bhgp2rcd13ifvqfc0","pricing_plan_id":"cebpf4jnsgd1na2vs0mg"},{"bike_id":"b8ec9b64-e348-44c1-9548-0544741a8e35","system_id":"levelo_inurba_marseille","lat":43.317576,"lon":5.390163,"is_reserved":false,"is_disabled":false,"rental_uris":{"android":"levelo://app?vid=b8ec9b64-e348-44c1-9548-0544741a8e35","ios":"levelo://app?vid=b8ec9b64-e348-44c1-9548-0544741a8e35"},"vehicle_type_id":"4","last_reported":1733811296,"current_range_meters":38400,"station_id":"ce4bhqp2rcd13ifvqhng","pricing_plan_id":"cebpf4jnsgd1na2vs0mg"},{"bike_id":"5eea9a7b-3ff9-4927-b6f8-1a20fab034e8","system_id":"levelo_inurba_marseille","lat":43.297982,"lon":5.404141,"is_reserved":false,"is_disabled":false,"rental_uris":{"android":"levelo://app?vid=5eea9a7b-3ff9-4927-b6f8-1a20fab034e8","ios":"levelo://app?vid=5eea9a7b-3ff9-4927-b6f8-1a20fab034e8"},"vehicle_type_id":"4","last_reported":1733811296,"current_range_meters":33600,"station_id":"ce4bh112rcd13ifvqd90","pricing_plan_id":"cebpf4jnsgd1na2vs0mg"},{"bike_id":"f44c4128-7be2-4a46-a438-dfb677b443d7","system_id":"levelo_inurba_marseille","lat":43.31328,"lon":5.39679,"is_reserved":false,"is_disabled":false,"rental_uris":{"android":"levelo://app?vid=f44c4128-7be2-4a46-a438-dfb677b443d7","ios":"levelo://app?vid=f44c4128-7be2-4a46-a438-dfb677b443d7"},"vehicle_type_id":"4","last_reported":1733811296,"current_range_meters":26800,"station_id":"ce4bgvp2rcd13ifvqcu0","pricing_plan_id":"cebpf4jnsgd1na2vs0mg"},{"bike_id":"2cdc68bc-783f-42f1-8a2a-30a830fd99d3","system_id":"levelo_inurba_marseille","lat":43.3014,"lon":5.37403,"is_reserved":false,"is_disabled":true,"rental_uris":{"android":"levelo://app?vid=2cdc68bc-783f-42f1-8a2a-30a830fd99d3","ios":"levelo://app?vid=2cdc68bc-783f-42f1-8a2a-30a830fd99d3"},"vehicle_type_id":"4","last_reported":1733811296,"current_range_meters":36000,"station_id":"ce4bgs92rcd13ifvqcc0","pricing_plan_id":"cebpf4jnsgd1na2vs0mg"},{"bike_id":"4018d084-9958-4047-90d2-c124b53a7f36","system_id":"levelo_inurba_marseille","lat":43.24386,"lon":5.37049,"is_reserved":false,"is_disabled":false,"rental_uris":{"android":"levelo://app?vid=4018d084-9958-4047-90d2-c124b53a7f36","ios":"levelo://app?vid=4018d084-9958-4047-90d2-c124b53a7f36"},"vehicle_type_id":"4","last_reported":1733811296,"current_range_meters":37600,"station_id":"ce4bhhh2rcd13ifvqfk0","pricing_plan_id":"cebpf4jnsgd1na2vs0mg"},{"bike_id":"f04c662a-4856-4b9e-9ba1-300effb74f28","system_id":"levelo_inurba_marseille","lat":43.29969,"lon":5.38488,"is_reserved":false,"is_disabled":true,"rental_uris":{"android":"levelo://app?vid=f04c662a-4856-4b9e-9ba1-300effb74f28","ios":"levelo://app?vid=f04c662a-4856-4b9e-9ba1-300effb74f28"},"vehicle_type_id":"4","last_reported":1733811296,"current_range_meters":0,"station_id":"ce4bgj92rcd13ifvqbd0","pricing_plan_id":"cebpf4jnsgd1na2vs0mg"},{"bike_id":"b77f54b8-0618-490b-9929-20052e5f0ec6","system_id":"levelo_inurba_marseille","lat":43.29303,"lon":5.37458,"is_reserved":false,"is_disabled":true,"rental_uris":{"android":"levelo://app?vid=b77f54b8-0618-490b-9929-20052e5f0ec6","ios":"levelo://app?vid=b77f54b8-0618-490b-9929-20052e5f0ec6"},"vehicle_type_id":"4","last_reported":1733811296,"current_range_meters":27200,"station_id":"ce4bgi12rcd13ifvqb70","pricing_plan_id":"cebpf4jnsgd1na2vs0mg"},{"bike_id":"ac678e73-d27e-419d-895b-380a318f19a9","system_id":"levelo_inurba_marseille","lat":43.317522,"lon":5.39018,"is_reserved":false,"is_disabled":false,"rental_uris":{"android":"levelo://app?vid=ac678e73-d27e-419d-895b-380a318f19a9","ios":"levelo://app?vid=ac678e73-d27e-419d-895b-380a318f19a9"},"vehicle_type_id":"4","last_reported":1733811296,"current_range_meters":38800,"station_id":"ce4bhqp2rcd13ifvqhng","pricing_plan_id":"cebpf4jnsgd1na2vs0mg"},{"bike_id":"b7704992-265d-44ce-8e30-e3b1a140a380","system_id":"levelo_inurba_marseille","lat":43.29787,"lon":5.38123,"is_reserved":false,"is_disabled":true,"rental_uris":{"android":"levelo://app?vid=b7704992-265d-44ce-8e30-e3b1a140a380","ios":"levelo://app?vid=b7704992-265d-44ce-8e30-e3b1a140a380"},"vehicle_type_id":"4","last_reported":1733811296,"current_range_meters":36800,"station_id":"ce4bgip2rcd13ifvqbb0","pricing_plan_id":"cebpf4jnsgd1na2vs0mg"},{"bike_id":"16e1a9be-6381-4930-939d-ab22d21610d7","system_id":"levelo_inurba_marseille","lat":43.29908,"lon":5.38142,"is_reserved":false,"is_disabled":false,"rental_uris":{"android":"levelo://app?vid=16e1a9be-6381-4930-939d-ab22d21610d7","ios":"levelo://app?vid=16e1a9be-6381-4930-939d-ab22d21610d7"},"vehicle_type_id":"4","last_reported":1733811296,"current_range_meters":38800,"station_id":"ce4bgj12rcd13ifvqbc0","pricing_plan_id":"cebpf4jnsgd1na2vs0mg"},{"bike_id":"d43e5ea8-13b0-4ee3-b5ea-caee40935a00","system_id":"levelo_inurba_marseille","lat":43.27179,"lon":5.40989,"is_reserved":false,"is_disabled":false,"rental_uris":{"android":"levelo://app?vid=d43e5ea8-13b0-4ee3-b5ea-caee40935a00","ios":"levelo://app?vid=d43e5ea8-13b0-4ee3-b5ea-caee40935a00"},"vehicle_type_id":"4","last_reported":1733811296,"current_range_meters":4400,"station_id":"ce4bhl12rcd13ifvqgf0","pricing_plan_id":"cebpf4jnsgd1na2vs0mg"},{"bike_id":"8a5476f1-510e-4208-841f-dc655596a2d1","system_id":"levelo_inurba_marseille","lat":43.30477,"lon":5.37897,"is_reserved":false,"is_disabled":false,"rental_uris":{"android":"levelo://app?vid=8a5476f1-510e-4208-841f-dc655596a2d1","ios":"levelo://app?vid=8a5476f1-510e-4208-841f-dc655596a2d1"},"vehicle_type_id":"4","last_reported":1733811296,"current_range_meters":27600,"station_id":"ce4bgup2rcd13ifvqcn0","pricing_plan_id":"cebpf4jnsgd1na2vs0mg"},{"bike_id":"41a533a6-1746-4ecb-9fb6-37e0d094bf17","system_id":"levelo_inurba_marseille","lat":43.26787,"lon":5.39423,"is_reserved":false,"is_disabled":false,"rental_uris":{"android":"levelo://app?vid=41a533a6-1746-4ecb-9fb6-37e0d094bf17","ios":"levelo://app?vid=41a533a6-1746-4ecb-9fb6-37e0d094bf17"},"vehicle_type_id":"4","last_reported":1733811296,"current_range_meters":38400,"station_id":"ce4bhh12rcd13ifvqfg0","pricing_plan_id":"cebpf4jnsgd1na2vs0mg"},{"bike_id":"b2307811-efb2-46e1-ad08-df833106e26b","system_id":"levelo_inurba_marseille","lat":43.2721,"lon":5.39176,"is_reserved":false,"is_disabled":false,"rental_uris":{"android":"levelo://app?vid=b2307811-efb2-46e1-ad08-df833106e26b","ios":"levelo://app?vid=b2307811-efb2-46e1-ad08-df833106e26b"},"vehicle_type_id":"4","last_reported":1733811296,"current_range_meters":31200,"station_id":"ce4bhhp2rcd13ifvqfm0","pricing_plan_id":"cebpf4jnsgd1na2vs0mg"},{"bike_id":"85ae9581-4a72-48d0-b14a-1d5f0b790f3a","system_id":"levelo_inurba_marseille","lat":43.286598,"lon":5.363513,"is_reserved":false,"is_disabled":false,"rental_uris":{"android":"levelo://app?vid=85ae9581-4a72-48d0-b14a-1d5f0b790f3a","ios":"levelo://app?vid=85ae9581-4a72-48d0-b14a-1d5f0b790f3a"},"vehicle_type_id":"4","last_reported":1733811296,"current_range_meters":8000,"station_id":"ce4bhah2rcd13ifvqej0","pricing_plan_id":"cebpf4jnsgd1na2vs0mg"},{"bike_id":"69a2726b-4c7b-4276-bc7b-f63452d45c65","system_id":"levelo_inurba_marseille","lat":43.27172,"lon":5.4099,"is_reserved":false,"is_disabled":false,"rental_uris":{"android":"levelo://app?vid=69a2726b-4c7b-4276-bc7b-f63452d45c65","ios":"levelo://app?vid=69a2726b-4c7b-4276-bc7b-f63452d45c65"},"vehicle_type_id":"4","last_reported":1733811296,"current_range_meters":10800,"station_id":"ce4bhl12rcd13ifvqgf0","pricing_plan_id":"cebpf4jnsgd1na2vs0mg"},{"bike_id":"eb4e32cd-a02d-4e92-a013-1fdc0dd71ccb","system_id":"levelo_inurba_marseille","lat":43.324799,"lon":5.365716,"is_reserved":false,"is_disabled":true,"rental_uris":{"android":"levelo://app?vid=eb4e32cd-a02d-4e92-a013-1fdc0dd71ccb","ios":"levelo://app?vid=eb4e32cd-a02d-4e92-a013-1fdc0dd71ccb"},"vehicle_type_id":"4","last_reported":1733811296,"current_range_meters":0,"station_id":"","pricing_plan_id":"cebpf4jnsgd1na2vs0mg"},{"bike_id":"ad24f16e-2206-4a3c-9b57-73b59ffe17ba","system_id":"levelo_inurba_marseille","lat":43.24161,"lon":5.36391,"is_reserved":false,"is_disabled":false,"rental_uris":{"android":"levelo://app?vid=ad24f16e-2206-4a3c-9b57-73b59ffe17ba","ios":"levelo://app?vid=ad24f16e-2206-4a3c-9b57-73b59ffe17ba"},"vehicle_type_id":"4","last_reported":1733811296,"current_range_meters":36400,"station_id":"cpo36qri1sfpv3e86is0","pricing_plan_id":"cebpf4jnsgd1na2vs0mg"},{"bike_id":"0d85aea1-3dc9-4857-8032-fe4189ddab21","system_id":"levelo_inurba_marseille","lat":43.25111,"lon":5.40324,"is_reserved":false,"is_disabled":false,"rental_uris":{"android":"levelo://app?vid=0d85aea1-3dc9-4857-8032-fe4189ddab21","ios":"levelo://app?vid=0d85aea1-3dc9-4857-8032-fe4189ddab21"},"vehicle_type_id":"4","last_reported":1733811296,"current_range_meters":38000,"station_id":"ce4bhlh2rcd13ifvqgig","pricing_plan_id":"cebpf4jnsgd1na2vs0mg"},{"bike_id":"8365e18e-c5d7-489e-abf5-6b90825ccbc9","system_id":"levelo_inurba_marseille","lat":43.2841,"lon":5.37518,"is_reserved":false,"is_disabled":false,"rental_uris":{"android":"levelo://app?vid=8365e18e-c5d7-489e-abf5-6b90825ccbc9","ios":"levelo://app?vid=8365e18e-c5d7-489e-abf5-6b90825ccbc9"},"vehicle_type_id":"4","last_reported":1733811296,"current_range_meters":38000,"station_id":"ce4bh412rcd13ifvqds0","pricing_plan_id":"cebpf4jnsgd1na2vs0mg"},{"bike_id":"8c8d06dc-ee48-40c3-9d53-3e832f30dcbf","system_id":"levelo_inurba_marseille","lat":43.24671,"lon":5.38155,"is_reserved":false,"is_disabled":false,"rental_uris":{"android":"levelo://app?vid=8c8d06dc-ee48-40c3-9d53-3e832f30dcbf","ios":"levelo://app?vid=8c8d06dc-ee48-40c3-9d53-3e832f30dcbf"},"vehicle_type_id":"4","last_reported":1733811296,"current_range_meters":12400,"station_id":"ce4bhih2rcd13ifvqfr0","pricing_plan_id":"cebpf4jnsgd1na2vs0mg"},{"bike_id":"a7315204-04ec-4ba8-a095-857e3593e956","system_id":"levelo_inurba_marseille","lat":43.26803,"lon":5.4027,"is_reserved":false,"is_disabled":false,"rental_uris":{"android":"levelo://app?vid=a7315204-04ec-4ba8-a095-857e3593e956","ios":"levelo://app?vid=a7315204-04ec-4ba8-a095-857e3593e956"},"vehicle_type_id":"4","last_reported":1733811296,"current_range_meters":32800,"station_id":"ce501612rcd8frsf0b60","pricing_plan_id":"cebpf4jnsgd1na2vs0mg"},{"bike_id":"0fdd6727-2bc3-47df-b102-b89c7db134be","system_id":"levelo_inurba_marseille","lat":43.29704,"lon":5.36617,"is_reserved":false,"is_disabled":true,"rental_uris":{"android":"levelo://app?vid=0fdd6727-2bc3-47df-b102-b89c7db134be","ios":"levelo://app?vid=0fdd6727-2bc3-47df-b102-b89c7db134be"},"vehicle_type_id":"4","last_reported":1733811296,"current_range_meters":36000,"station_id":"ce4bgn12rcd13ifvqbt0","pricing_plan_id":"cebpf4jnsgd1na2vs0mg"},{"bike_id":"26924fb9-4179-4abe-8b03-e0d47c141d92","system_id":"levelo_inurba_marseille","lat":43.27171,"lon":5.40991,"is_reserved":false,"is_disabled":false,"rental_uris":{"android":"levelo://app?vid=26924fb9-4179-4abe-8b03-e0d47c141d92","ios":"levelo://app?vid=26924fb9-4179-4abe-8b03-e0d47c141d92"},"vehicle_type_id":"4","last_reported":1733811296,"current_range_meters":28000,"station_id":"ce4bhl12rcd13ifvqgf0","pricing_plan_id":"cebpf4jnsgd1na2vs0mg"},{"bike_id":"ca32be18-d25c-4351-ba57-a1d78797eab5","system_id":"levelo_inurba_marseille","lat":43.262,"lon":5.37926,"is_reserved":false,"is_disabled":false,"rental_uris":{"android":"levelo://app?vid=ca32be18-d25c-4351-ba57-a1d78797eab5","ios":"levelo://app?vid=ca32be18-d25c-4351-ba57-a1d78797eab5"},"vehicle_type_id":"4","last_reported":1733811296,"current_range_meters":35600,"station_id":"ce4bhjp2rcd13ifvqg90","pricing_plan_id":"cebpf4jnsgd1na2vs0mg"},{"bike_id":"db14e876-0fd6-46a7-8620-bb06967f83cc","system_id":"levelo_inurba_marseille","lat":43.3133,"lon":5.39697,"is_reserved":false,"is_disabled":true,"rental_uris":{"android":"levelo://app?vid=db14e876-0fd6-46a7-8620-bb06967f83cc","ios":"levelo://app?vid=db14e876-0fd6-46a7-8620-bb06967f83cc"},"vehicle_type_id":"4","last_reported":1733811296,"current_range_meters":29600,"station_id":"ce4bgvp2rcd13ifvqcu0","pricing_plan_id":"cebpf4jnsgd1na2vs0mg"},{"bike_id":"68999c1c-0eda-4f25-bfa9-b62eccf76ad4","system_id":"levelo_inurba_marseille","lat":43.32659,"lon":5.40996,"is_reserved":false,"is_disabled":false,"rental_uris":{"android":"levelo://app?vid=68999c1c-0eda-4f25-bfa9-b62eccf76ad4","ios":"levelo://app?vid=68999c1c-0eda-4f25-bfa9-b62eccf76ad4"},"vehicle_type_id":"4","last_reported":1733811296,"current_range_meters":38800,"station_id":"ce4bhpp2rcd13ifvqhgg","pricing_plan_id":"cebpf4jnsgd1na2vs0mg"},{"bike_id":"3c62b3c8-9c09-4406-9d79-211c0dada988","system_id":"levelo_inurba_marseille","lat":43.30252,"lon":5.40064,"is_reserved":false,"is_disabled":false,"rental_uris":{"android":"levelo://app?vid=3c62b3c8-9c09-4406-9d79-211c0dada988","ios":"levelo://app?vid=3c62b3c8-9c09-4406-9d79-211c0dada988"},"vehicle_type_id":"4","last_reported":1733811296,"current_range_meters":38800,"station_id":"ce4bgvh2rcd13ifvqcs0","pricing_plan_id":"cebpf4jnsgd1na2vs0mg"},{"bike_id":"47477b93-743f-4f58-9134-17598e24555d","system_id":"levelo_inurba_marseille","lat":43.27036,"lon":5.40297,"is_reserved":false,"is_disabled":false,"rental_uris":{"android":"levelo://app?vid=47477b93-743f-4f58-9134-17598e24555d","ios":"levelo://app?vid=47477b93-743f-4f58-9134-17598e24555d"},"vehicle_type_id":"4","last_reported":1733811296,"current_range_meters":38400,"station_id":"ce4bhk92rcd13ifvqgc0","pricing_plan_id":"cebpf4jnsgd1na2vs0mg"},{"bike_id":"41779133-479a-49fa-b9df-dc99edff42f5","system_id":"levelo_inurba_marseille","lat":43.28709,"lon":5.39964,"is_reserved":false,"is_disabled":false,"rental_uris":{"android":"levelo://app?vid=41779133-479a-49fa-b9df-dc99edff42f5","ios":"levelo://app?vid=41779133-479a-49fa-b9df-dc99edff42f5"},"vehicle_type_id":"4","last_reported":1733811296,"current_range_meters":38800,"station_id":"ce4bho92rcd13ifvqh3g","pricing_plan_id":"cebpf4jnsgd1na2vs0mg"},{"bike_id":"b79b0882-1e73-4635-be99-f79cfa94c9d7","system_id":"levelo_inurba_marseille","lat":43.29579,"lon":5.36737,"is_reserved":false,"is_disabled":false,"rental_uris":{"android":"levelo://app?vid=b79b0882-1e73-4635-be99-f79cfa94c9d7","ios":"levelo://app?vid=b79b0882-1e73-4635-be99-f79cfa94c9d7"},"vehicle_type_id":"4","last_reported":1733811296,"current_range_meters":37600,"station_id":"ce4bgph2rcd13ifvqc2g","pricing_plan_id":"cebpf4jnsgd1na2vs0mg"},{"bike_id":"5eb5b279-c09d-4a14-8e0b-cd408395b3af","system_id":"levelo_inurba_marseille","lat":43.29967,"lon":5.38505,"is_reserved":false,"is_disabled":false,"rental_uris":{"android":"levelo://app?vid=5eb5b279-c09d-4a14-8e0b-cd408395b3af","ios":"levelo://app?vid=5eb5b279-c09d-4a14-8e0b-cd408395b3af"},"vehicle_type_id":"4","last_reported":1733811296,"current_range_meters":38000,"station_id":"ce4bgj92rcd13ifvqbd0","pricing_plan_id":"cebpf4jnsgd1na2vs0mg"},{"bike_id":"80de590b-e7e2-4334-8c3f-1906440fa371","system_id":"levelo_inurba_marseille","lat":43.26812,"lon":5.40266,"is_reserved":false,"is_disabled":false,"rental_uris":{"android":"levelo://app?vid=80de590b-e7e2-4334-8c3f-1906440fa371","ios":"levelo://app?vid=80de590b-e7e2-4334-8c3f-1906440fa371"},"vehicle_type_id":"4","last_reported":1733811296,"current_range_meters":35200,"station_id":"ce501612rcd8frsf0b60","pricing_plan_id":"cebpf4jnsgd1na2vs0mg"},{"bike_id":"c901627f-e5d2-45af-ab18-d7a8310fd4f0","system_id":"levelo_inurba_marseille","lat":43.25107,"lon":5.40325,"is_reserved":false,"is_disabled":false,"rental_uris":{"android":"levelo://app?vid=c901627f-e5d2-45af-ab18-d7a8310fd4f0","ios":"levelo://app?vid=c901627f-e5d2-45af-ab18-d7a8310fd4f0"},"vehicle_type_id":"4","last_reported":1733811296,"current_range_meters":37600,"station_id":"ce4bhlh2rcd13ifvqgig","pricing_plan_id":"cebpf4jnsgd1na2vs0mg"},{"bike_id":"0ccd581d-9c76-4795-b702-2d923b116e9d","system_id":"levelo_inurba_marseille","lat":43.27176,"lon":5.40987,"is_reserved":false,"is_disabled":false,"rental_uris":{"android":"levelo://app?vid=0ccd581d-9c76-4795-b702-2d923b116e9d","ios":"levelo://app?vid=0ccd581d-9c76-4795-b702-2d923b116e9d"},"vehicle_type_id":"4","last_reported":1733811296,"current_range_meters":33200,"station_id":"ce4bhl12rcd13ifvqgf0","pricing_plan_id":"cebpf4jnsgd1na2vs0mg"},{"bike_id":"184e2bec-da5d-4fdb-b28b-a35eb226c6e2","system_id":"levelo_inurba_marseille","lat":43.26943,"lon":5.40243,"is_reserved":false,"is_disabled":false,"rental_uris":{"android":"levelo://app?vid=184e2bec-da5d-4fdb-b28b-a35eb226c6e2","ios":"levelo://app?vid=184e2bec-da5d-4fdb-b28b-a35eb226c6e2"},"vehicle_type_id":"4","last_reported":1733811296,"current_range_meters":35600,"station_id":"cjm6bp8fraef2m0cb0m0","pricing_plan_id":"cebpf4jnsgd1na2vs0mg"},{"bike_id":"77f13d71-840e-49ce-a3fa-f36a47cd0fe7","system_id":"levelo_inurba_marseille","lat":43.29028,"lon":5.39975,"is_reserved":false,"is_disabled":false,"rental_uris":{"android":"levelo://app?vid=77f13d71-840e-49ce-a3fa-f36a47cd0fe7","ios":"levelo://app?vid=77f13d71-840e-49ce-a3fa-f36a47cd0fe7"},"vehicle_type_id":"4","last_reported":1733811296,"current_range_meters":38800,"station_id":"ce4bh392rcd13ifvqdm0","pricing_plan_id":"cebpf4jnsgd1na2vs0mg"},{"bike_id":"95d8628d-10b1-47e7-9a42-9b126ec315c6","system_id":"levelo_inurba_marseille","lat":43.23208,"lon":5.35571,"is_reserved":false,"is_disabled":false,"rental_uris":{"android":"levelo://app?vid=95d8628d-10b1-47e7-9a42-9b126ec315c6","ios":"levelo://app?vid=95d8628d-10b1-47e7-9a42-9b126ec315c6"},"vehicle_type_id":"4","last_reported":1733811296,"current_range_meters":25600,"station_id":"ce4bhu92rcd13ifvqi70","pricing_plan_id":"cebpf4jnsgd1na2vs0mg"},{"bike_id":"9572a350-7aec-4471-ab74-7c61417a7cf8","system_id":"levelo_inurba_marseille","lat":43.3089,"lon":5.39657,"is_reserved":false,"is_disabled":false,"rental_uris":{"android":"levelo://app?vid=9572a350-7aec-4471-ab74-7c61417a7cf8","ios":"levelo://app?vid=9572a350-7aec-4471-ab74-7c61417a7cf8"},"vehicle_type_id":"4","last_reported":1733811296,"current_range_meters":32000,"station_id":"ce4bh012rcd13ifvqcv0","pricing_plan_id":"cebpf4jnsgd1na2vs0mg"},{"bike_id":"d6476c12-9601-48bb-81d1-c130012be534","system_id":"levelo_inurba_marseille","lat":43.246714,"lon":5.381637,"is_reserved":false,"is_disabled":false,"rental_uris":{"android":"levelo://app?vid=d6476c12-9601-48bb-81d1-c130012be534","ios":"levelo://app?vid=d6476c12-9601-48bb-81d1-c130012be534"},"vehicle_type_id":"4","last_reported":1733811296,"current_range_meters":19600,"station_id":"ce4bhih2rcd13ifvqfr0","pricing_plan_id":"cebpf4jnsgd1na2vs0mg"},{"bike_id":"cbb22546-b293-4666-8142-6ea9c108ac61","system_id":"levelo_inurba_marseille","lat":43.28271,"lon":5.35073,"is_reserved":false,"is_disabled":false,"rental_uris":{"android":"levelo://app?vid=cbb22546-b293-4666-8142-6ea9c108ac61","ios":"levelo://app?vid=cbb22546-b293-4666-8142-6ea9c108ac61"},"vehicle_type_id":"4","last_reported":1733811296,"current_range_meters":38800,"station_id":"ce4bhbp2rcd13ifvqerg","pricing_plan_id":"cebpf4jnsgd1na2vs0mg"},{"bike_id":"c88e03a1-64d1-4f76-994d-95ac44db4eaa","system_id":"levelo_inurba_marseille","lat":43.31272,"lon":5.40168,"is_reserved":false,"is_disabled":false,"rental_uris":{"android":"levelo://app?vid=c88e03a1-64d1-4f76-994d-95ac44db4eaa","ios":"levelo://app?vid=c88e03a1-64d1-4f76-994d-95ac44db4eaa"},"vehicle_type_id":"4","last_reported":1733811296,"current_range_meters":26800,"station_id":"ce4bh092rcd13ifvqd30","pricing_plan_id":"cebpf4jnsgd1na2vs0mg"},{"bike_id":"d076106f-12f0-4241-a39a-e5d9c0a7aeb6","system_id":"levelo_inurba_marseille","lat":43.29018,"lon":5.38624,"is_reserved":false,"is_disabled":false,"rental_uris":{"android":"levelo://app?vid=d076106f-12f0-4241-a39a-e5d9c0a7aeb6","ios":"levelo://app?vid=d076106f-12f0-4241-a39a-e5d9c0a7aeb6"},"vehicle_type_id":"4","last_reported":1733811296,"current_range_meters":38400,"station_id":"ce4bh4p2rcd13ifvqe0g","pricing_plan_id":"cebpf4jnsgd1na2vs0mg"},{"bike_id":"570bad79-da0a-4f0e-bd71-fcfb4fde31b3","system_id":"levelo_inurba_marseille","lat":43.239612,"lon":5.366335,"is_reserved":false,"is_disabled":false,"rental_uris":{"android":"levelo://app?vid=570bad79-da0a-4f0e-bd71-fcfb4fde31b3","ios":"levelo://app?vid=570bad79-da0a-4f0e-bd71-fcfb4fde31b3"},"vehicle_type_id":"4","last_reported":1733811296,"current_range_meters":34800,"station_id":"ce4bhi12rcd13ifvqfp0","pricing_plan_id":"cebpf4jnsgd1na2vs0mg"},{"bike_id":"0f20b602-7b45-4989-92b6-4d1c64ab5468","system_id":"levelo_inurba_marseille","lat":43.26553,"lon":5.37292,"is_reserved":false,"is_disabled":false,"rental_uris":{"android":"levelo://app?vid=0f20b602-7b45-4989-92b6-4d1c64ab5468","ios":"levelo://app?vid=0f20b602-7b45-4989-92b6-4d1c64ab5468"},"vehicle_type_id":"4","last_reported":1733811296,"current_range_meters":35200,"station_id":"ce4bhg12rcd13ifvqf70","pricing_plan_id":"cebpf4jnsgd1na2vs0mg"},{"bike_id":"a82d634a-a49c-4d39-abc7-6109fc7823f3","system_id":"levelo_inurba_marseille","lat":43.26935,"lon":5.40248,"is_reserved":false,"is_disabled":false,"rental_uris":{"android":"levelo://app?vid=a82d634a-a49c-4d39-abc7-6109fc7823f3","ios":"levelo://app?vid=a82d634a-a49c-4d39-abc7-6109fc7823f3"},"vehicle_type_id":"4","last_reported":1733811296,"current_range_meters":38800,"station_id":"cjm6bp8fraef2m0cb0m0","pricing_plan_id":"cebpf4jnsgd1na2vs0mg"},{"bike_id":"97268095-b81c-416d-83ee-09dde6b7d281","system_id":"levelo_inurba_marseille","lat":43.29022,"lon":5.39983,"is_reserved":false,"is_disabled":false,"rental_uris":{"android":"levelo://app?vid=97268095-b81c-416d-83ee-09dde6b7d281","ios":"levelo://app?vid=97268095-b81c-416d-83ee-09dde6b7d281"},"vehicle_type_id":"4","last_reported":1733811296,"current_range_meters":24800,"station_id":"ce4bh392rcd13ifvqdm0","pricing_plan_id":"cebpf4jnsgd1na2vs0mg"},{"bike_id":"cc326830-3867-4cd6-8a7d-b547a60814e2","system_id":"levelo_inurba_marseille","lat":43.30601,"lon":5.3723,"is_reserved":false,"is_disabled":false,"rental_uris":{"android":"levelo://app?vid=cc326830-3867-4cd6-8a7d-b547a60814e2","ios":"levelo://app?vid=cc326830-3867-4cd6-8a7d-b547a60814e2"},"vehicle_type_id":"4","last_reported":1733811296,"current_range_meters":38800,"station_id":"ce4bgqh2rcd13ifvqc4g","pricing_plan_id":"cebpf4jnsgd1na2vs0mg"},{"bike_id":"7bdd6ea7-bb42-4e6e-800a-52cdbbc2d2d3","system_id":"levelo_inurba_marseille","lat":43.30319,"lon":5.40444,"is_reserved":false,"is_disabled":false,"rental_uris":{"android":"levelo://app?vid=7bdd6ea7-bb42-4e6e-800a-52cdbbc2d2d3","ios":"levelo://app?vid=7bdd6ea7-bb42-4e6e-800a-52cdbbc2d2d3"},"vehicle_type_id":"4","last_reported":1733811296,"current_range_meters":38000,"station_id":"ce4bh012rcd13ifvqd10","pricing_plan_id":"cebpf4jnsgd1na2vs0mg"},{"bike_id":"b8e7f883-5b9b-422d-81e9-d00c2442da3b","system_id":"levelo_inurba_marseille","lat":43.23055,"lon":5.35491,"is_reserved":false,"is_disabled":false,"rental_uris":{"android":"levelo://app?vid=b8e7f883-5b9b-422d-81e9-d00c2442da3b","ios":"levelo://app?vid=b8e7f883-5b9b-422d-81e9-d00c2442da3b"},"vehicle_type_id":"4","last_reported":1733811296,"current_range_meters":36800,"station_id":"cpo3342slgdg3j2ifvpg","pricing_plan_id":"cebpf4jnsgd1na2vs0mg"},{"bike_id":"df530ce9-7550-4bc0-857d-aa2d9daf2958","system_id":"levelo_inurba_marseille","lat":43.33023,"lon":5.39044,"is_reserved":false,"is_disabled":false,"rental_uris":{"android":"levelo://app?vid=df530ce9-7550-4bc0-857d-aa2d9daf2958","ios":"levelo://app?vid=df530ce9-7550-4bc0-857d-aa2d9daf2958"},"vehicle_type_id":"4","last_reported":1733811296,"current_range_meters":38800,"station_id":"ce4bhr92rcd13ifvqhrg","pricing_plan_id":"cebpf4jnsgd1na2vs0mg"},{"bike_id":"c1598c12-4bef-4141-a99f-8dd71c41b81d","system_id":"levelo_inurba_marseille","lat":43.24176,"lon":5.3973,"is_reserved":false,"is_disabled":true,"rental_uris":{"android":"levelo://app?vid=c1598c12-4bef-4141-a99f-8dd71c41b81d","ios":"levelo://app?vid=c1598c12-4bef-4141-a99f-8dd71c41b81d"},"vehicle_type_id":"4","last_reported":1733811296,"current_range_meters":0,"station_id":"ce4bhn12rcd13ifvqgpg","pricing_plan_id":"cebpf4jnsgd1na2vs0mg"},{"bike_id":"906df3e2-6732-4a7d-a642-3070115e11a9","system_id":"levelo_inurba_marseille","lat":43.29897,"lon":5.43655,"is_reserved":false,"is_disabled":false,"rental_uris":{"android":"levelo://app?vid=906df3e2-6732-4a7d-a642-3070115e11a9","ios":"levelo://app?vid=906df3e2-6732-4a7d-a642-3070115e11a9"},"vehicle_type_id":"4","last_reported":1733811296,"current_range_meters":15200,"station_id":"ce4bhpp2rcd13ifvqhfg","pricing_plan_id":"cebpf4jnsgd1na2vs0mg"},{"bike_id":"8c773509-0447-476a-8a92-d1489fe1691e","system_id":"levelo_inurba_marseille","lat":43.29627,"lon":5.40591,"is_reserved":false,"is_disabled":false,"rental_uris":{"android":"levelo://app?vid=8c773509-0447-476a-8a92-d1489fe1691e","ios":"levelo://app?vid=8c773509-0447-476a-8a92-d1489fe1691e"},"vehicle_type_id":"4","last_reported":1733811296,"current_range_meters":38800,"station_id":"ce4bh0h2rcd13ifvqd60","pricing_plan_id":"cebpf4jnsgd1na2vs0mg"},{"bike_id":"0c099d8e-b2d5-4049-b4e5-e9bbb0ef2691","system_id":"levelo_inurba_marseille","lat":43.29279,"lon":5.40135,"is_reserved":false,"is_disabled":false,"rental_uris":{"android":"levelo://app?vid=0c099d8e-b2d5-4049-b4e5-e9bbb0ef2691","ios":"levelo://app?vid=0c099d8e-b2d5-4049-b4e5-e9bbb0ef2691"},"vehicle_type_id":"4","last_reported":1733811296,"current_range_meters":26800,"station_id":"ce4bh312rcd13ifvqdk0","pricing_plan_id":"cebpf4jnsgd1na2vs0mg"},{"bike_id":"91555c3b-d6e6-4afa-98f9-14d2896c62f2","system_id":"levelo_inurba_marseille","lat":43.31276,"lon":5.4018,"is_reserved":false,"is_disabled":false,"rental_uris":{"android":"levelo://app?vid=91555c3b-d6e6-4afa-98f9-14d2896c62f2","ios":"levelo://app?vid=91555c3b-d6e6-4afa-98f9-14d2896c62f2"},"vehicle_type_id":"4","last_reported":1733811296,"current_range_meters":34800,"station_id":"ce4bh092rcd13ifvqd30","pricing_plan_id":"cebpf4jnsgd1na2vs0mg"},{"bike_id":"a0b44e86-9121-4df3-b62a-0fc9a0d1110c","system_id":"levelo_inurba_marseille","lat":43.23062,"lon":5.3549,"is_reserved":false,"is_disabled":false,"rental_uris":{"android":"levelo://app?vid=a0b44e86-9121-4df3-b62a-0fc9a0d1110c","ios":"levelo://app?vid=a0b44e86-9121-4df3-b62a-0fc9a0d1110c"},"vehicle_type_id":"4","last_reported":1733811296,"current_range_meters":37600,"station_id":"cpo3342slgdg3j2ifvpg","pricing_plan_id":"cebpf4jnsgd1na2vs0mg"},{"bike_id":"a0c230af-183e-4db9-b10f-8c1a6d844ebf","system_id":"levelo_inurba_marseille","lat":43.30125,"lon":5.38789,"is_reserved":false,"is_disabled":true,"rental_uris":{"android":"levelo://app?vid=a0c230af-183e-4db9-b10f-8c1a6d844ebf","ios":"levelo://app?vid=a0c230af-183e-4db9-b10f-8c1a6d844ebf"},