{"last_updated":1743102479,"ttl":60,"version":"2.2","data":{"bikes":[{"bike_id":"3d0d5441-5716-40eb-9488-dd3c32444667","system_id":"levelo_inurba_marseille","lat":43.277593,"lon":5.406872,"is_reserved":false,"is_disabled":false,"rental_uris":{"android":"levelo://app?vid=3d0d5441-5716-40eb-9488-dd3c32444667","ios":"levelo://app?vid=3d0d5441-5716-40eb-9488-dd3c32444667"},"vehicle_type_id":"4","last_reported":1743102479,"current_range_meters":2800,"station_id":"ce4bhnh2rcd13ifvqgtg","pricing_plan_id":"cebpf4jnsgd1na2vs0mg"},{"bike_id":"39132323-c731-49ab-98e3-c68cfd77b0de","system_id":"levelo_inurba_marseille","lat":43.26399,"lon":5.40389,"is_reserved":false,"is_disabled":false,"rental_uris":{"android":"levelo://app?vid=39132323-c731-49ab-98e3-c68cfd77b0de","ios":"levelo://app?vid=39132323-c731-49ab-98e3-c68cfd77b0de"},"vehicle_type_id":"4","last_reported":1743102479,"current_range_meters":2800,"station_id":"","pricing_plan_id":"cebpf4jnsgd1na2vs0mg"},{"bike_id":"846d5318-adf1-4605-b16d-245a6a74ae14","system_id":"levelo_inurba_marseille","lat":43.29167,"lon":5.37159,"is_reserved":false,"is_disabled":false,"rental_uris":{"android":"levelo://app?vid=846d5318-adf1-4605-b16d-245a6a74ae14","ios":"levelo://app?vid=846d5318-adf1-4605-b16d-245a6a74ae14"},"vehicle_type_id":"4","last_reported":1743102479,"current_range_meters":2800,"station_id":"ce4bha92rcd13ifvqeh0","pricing_plan_id":"cebpf4jnsgd1na2vs0mg"},{"bike_id":"ed5feef2-1576-4630-8c28-ff6339a0a1c0","system_id":"levelo_inurba_marseille","lat":43.27948,"lon":5.41047,"is_reserved":false,"is_disabled":false,"rental_uris":{"android":"levelo://app?vid=ed5feef2-1576-4630-8c28-ff6339a0a1c0","ios":"levelo://app?vid=ed5feef2-1576-4630-8c28-ff6339a0a1c0"},"vehicle_type_id":"4","last_reported":1743102479,"current_range_meters":2800,"station_id":"ce4bhnp2rcd13ifvqh0g","pricing_plan_id":"cebpf4jnsgd1na2vs0mg"},{"bike_id":"957a68a2-4c49-43b3-be21-2fafe9b432d2","system_id":"levelo_inurba_marseille","lat":43.30138,"lon":5.39871,"is_reserved":false,"is_disabled":false,"rental_uris":{"android":"levelo://app?vid=957a68a2-4c49-43b3-be21-2fafe9b432d2","ios":"levelo://app?vid=957a68a2-4c49-43b3-be21-2fafe9b432d2"},"vehicle_type_id":"4","last_reported":1743102479,"current_range_meters":2800,"station_id":"ce4bh0h2rcd13ifvqd40","pricing_plan_id":"cebpf4jnsgd1na2vs0mg"},{"bike_id":"57666603-f3d8-4951-b3bc-68d78a881029","system_id":"levelo_inurba_marseille","lat":43.28396,"lon":5.37509,"is_reserved":false,"is_disabled":false,"rental_uris":{"android":"levelo://app?vid=57666603-f3d8-4951-b3bc-68d78a881029","ios":"levelo://app?vid=57666603-f3d8-4951-b3bc-68d78a881029"},"vehicle_type_id":"4","last_reported":1743102479,"current_range_meters":2800,"station_id":"ce4bh412rcd13ifvqds0","pricing_plan_id":"cebpf4jnsgd1na2vs0mg"},{"bike_id":"1e0b2636-48a1-4292-92c0-73b807651a12","system_id":"levelo_inurba_marseille","lat":43.289703,"lon":5.37838,"is_reserved":false,"is_disabled":false,"rental_uris":{"android":"levelo://app?vid=1e0b2636-48a1-4292-92c0-73b807651a12","ios":"levelo://app?vid=1e0b2636-48a1-4292-92c0-73b807651a12"},"vehicle_type_id":"4","last_reported":1743102479,"current_range_meters":3200,"station_id":"ce4bgip2rcd13ifvqbb0","pricing_plan_id":"cebpf4jnsgd1na2vs0mg"},{"bike_id":"a448a034-ca72-4668-aad2-e672284fb259","system_id":"levelo_inurba_marseille","lat":43.29037,"lon":5.372332,"is_reserved":false,"is_disabled":false,"rental_uris":{"android":"levelo://app?vid=a448a034-ca72-4668-aad2-e672284fb259","ios":"levelo://app?vid=a448a034-ca72-4668-aad2-e672284fb259"},"vehicle_type_id":"4","last_reported":1743102479,"current_range_meters":3200,"station_id":"ce4bha92rcd13ifvqeh0","pricing_plan_id":"cebpf4jnsgd1na2vs0mg"},{"bike_id":"01b7a3e9-0dab-4c73-a7c5-7e899101b89b","system_id":"levelo_inurba_marseille","lat":43.292572,"lon":5.384453,"is_reserved":false,"is_disabled":false,"rental_uris":{"android":"levelo://app?vid=01b7a3e9-0dab-4c73-a7c5-7e899101b89b","ios":"levelo://app?vid=01b7a3e9-0dab-4c73-a7c5-7e899101b89b"},"vehicle_type_id":"4","last_reported":1743102479,"current_range_meters":3200,"station_id":"ce4bh692rcd13ifvqea0","pricing_plan_id":"cebpf4jnsgd1na2vs0mg"},{"bike_id":"8d8f63b9-80e9-4429-8401-e3342f341131","system_id":"levelo_inurba_marseille","lat":43.28644,"lon":5.35125,"is_reserved":false,"is_disabled":false,"rental_uris":{"android":"levelo://app?vid=8d8f63b9-80e9-4429-8401-e3342f341131","ios":"levelo://app?vid=8d8f63b9-80e9-4429-8401-e3342f341131"},"vehicle_type_id":"4","last_reported":1743102479,"current_range_meters":3200,"station_id":"ce4bhch2rcd13ifvqeug","pricing_plan_id":"cebpf4jnsgd1na2vs0mg"},{"bike_id":"95c96f78-7a13-4877-b261-67fd6918fad7","system_id":"levelo_inurba_marseille","lat":43.31529,"lon":5.38833,"is_reserved":false,"is_disabled":true,"rental_uris":{"android":"levelo://app?vid=95c96f78-7a13-4877-b261-67fd6918fad7","ios":"levelo://app?vid=95c96f78-7a13-4877-b261-67fd6918fad7"},"vehicle_type_id":"4","last_reported":1743102479,"current_range_meters":3200,"station_id":"","pricing_plan_id":"cebpf4jnsgd1na2vs0mg"},{"bike_id":"e0dc00df-54bf-48e7-b992-a7549ea48ab6","system_id":"levelo_inurba_marseille","lat":43.296897,"lon":5.373678,"is_reserved":false,"is_disabled":false,"rental_uris":{"android":"levelo://app?vid=e0dc00df-54bf-48e7-b992-a7549ea48ab6","ios":"levelo://app?vid=e0dc00df-54bf-48e7-b992-a7549ea48ab6"},"vehicle_type_id":"4","last_reported":1743102479,"current_range_meters":5600,"station_id":"ce4bgk12rcd13ifvqbj0","pricing_plan_id":"cebpf4jnsgd1na2vs0mg"},{"bike_id":"13c10cf3-976f-4331-8f96-dc4fc147a54d","system_id":"levelo_inurba_marseille","lat":43.29038,"lon":5.37572,"is_reserved":false,"is_disabled":false,"rental_uris":{"android":"levelo://app?vid=13c10cf3-976f-4331-8f96-dc4fc147a54d","ios":"levelo://app?vid=13c10cf3-976f-4331-8f96-dc4fc147a54d"},"vehicle_type_id":"4","last_reported":1743102479,"current_range_meters":3200,"station_id":"ce4bh692rcd13ifvqe90","pricing_plan_id":"cebpf4jnsgd1na2vs0mg"},{"bike_id":"faf246f5-f054-4422-a22c-553159494777","system_id":"levelo_inurba_marseille","lat":43.29555,"lon":5.42292,"is_reserved":false,"is_disabled":false,"rental_uris":{"android":"levelo://app?vid=faf246f5-f054-4422-a22c-553159494777","ios":"levelo://app?vid=faf246f5-f054-4422-a22c-553159494777"},"vehicle_type_id":"4","last_reported":1743102479,"current_range_meters":3200,"station_id":"ce4bhph2rcd13ifvqhdg","pricing_plan_id":"cebpf4jnsgd1na2vs0mg"},{"bike_id":"c752cc87-456e-4134-9a44-62eff5dadbd0","system_id":"levelo_inurba_marseille","lat":43.27811,"lon":5.40712,"is_reserved":false,"is_disabled":false,"rental_uris":{"android":"levelo://app?vid=c752cc87-456e-4134-9a44-62eff5dadbd0","ios":"levelo://app?vid=c752cc87-456e-4134-9a44-62eff5dadbd0"},"vehicle_type_id":"4","last_reported":1743102479,"current_range_meters":3600,"station_id":"ce4bhnh2rcd13ifvqgtg","pricing_plan_id":"cebpf4jnsgd1na2vs0mg"},{"bike_id":"3d81f6da-fe9d-4934-ad4c-1141e1eecd92","system_id":"levelo_inurba_marseille","lat":43.24164,"lon":5.36396,"is_reserved":false,"is_disabled":true,"rental_uris":{"android":"levelo://app?vid=3d81f6da-fe9d-4934-ad4c-1141e1eecd92","ios":"levelo://app?vid=3d81f6da-fe9d-4934-ad4c-1141e1eecd92"},"vehicle_type_id":"4","last_reported":1743102479,"current_range_meters":3600,"station_id":"cpo36qri1sfpv3e86is0","pricing_plan_id":"cebpf4jnsgd1na2vs0mg"},{"bike_id":"059770ed-32b5-4200-8130-e7cd968295b2","system_id":"levelo_inurba_marseille","lat":43.29602,"lon":5.38078,"is_reserved":false,"is_disabled":false,"rental_uris":{"android":"levelo://app?vid=059770ed-32b5-4200-8130-e7cd968295b2","ios":"levelo://app?vid=059770ed-32b5-4200-8130-e7cd968295b2"},"vehicle_type_id":"4","last_reported":1743102479,"current_range_meters":3600,"station_id":"ce4bgl12rcd13ifvqbo0","pricing_plan_id":"cebpf4jnsgd1na2vs0mg"},{"bike_id":"3aa2d9f5-f038-410c-868f-e3bbc22500b8","system_id":"levelo_inurba_marseille","lat":43.28828,"lon":5.35864,"is_reserved":false,"is_disabled":false,"rental_uris":{"android":"levelo://app?vid=3aa2d9f5-f038-410c-868f-e3bbc22500b8","ios":"levelo://app?vid=3aa2d9f5-f038-410c-868f-e3bbc22500b8"},"vehicle_type_id":"4","last_reported":1743102479,"current_range_meters":3600,"station_id":"ce4bhb12rcd13ifvqem0","pricing_plan_id":"cebpf4jnsgd1na2vs0mg"},{"bike_id":"94cba9d1-1d72-4f39-abce-8cb9f7a9b34a","system_id":"levelo_inurba_marseille","lat":43.29013,"lon":5.38129,"is_reserved":false,"is_disabled":false,"rental_uris":{"android":"levelo://app?vid=94cba9d1-1d72-4f39-abce-8cb9f7a9b34a","ios":"levelo://app?vid=94cba9d1-1d72-4f39-abce-8cb9f7a9b34a"},"vehicle_type_id":"4","last_reported":1743102479,"current_range_meters":3600,"station_id":"ce4bh4p2rcd13ifvqe1g","pricing_plan_id":"cebpf4jnsgd1na2vs0mg"},{"bike_id":"03d3b437-3908-483b-b004-e6a66f673bda","system_id":"levelo_inurba_marseille","lat":43.29263,"lon":5.3844,"is_reserved":false,"is_disabled":false,"rental_uris":{"android":"levelo://app?vid=03d3b437-3908-483b-b004-e6a66f673bda","ios":"levelo://app?vid=03d3b437-3908-483b-b004-e6a66f673bda"},"vehicle_type_id":"4","last_reported":1743102479,"current_range_meters":4000,"station_id":"ce4bh692rcd13ifvqea0","pricing_plan_id":"cebpf4jnsgd1na2vs0mg"},{"bike_id":"1ffd4630-b511-4773-bbd8-28e68fa6452f","system_id":"levelo_inurba_marseille","lat":43.30306,"lon":5.3691,"is_reserved":false,"is_disabled":false,"rental_uris":{"android":"levelo://app?vid=1ffd4630-b511-4773-bbd8-28e68fa6452f","ios":"levelo://app?vid=1ffd4630-b511-4773-bbd8-28e68fa6452f"},"vehicle_type_id":"4","last_reported":1743102479,"current_range_meters":4000,"station_id":"ce4bgqh2rcd13ifvqc5g","pricing_plan_id":"cebpf4jnsgd1na2vs0mg"},{"bike_id":"74c33267-4b8c-48af-b812-b1334410a059","system_id":"levelo_inurba_marseille","lat":43.29513,"lon":5.37489,"is_reserved":false,"is_disabled":false,"rental_uris":{"android":"levelo://app?vid=74c33267-4b8c-48af-b812-b1334410a059","ios":"levelo://app?vid=74c33267-4b8c-48af-b812-b1334410a059"},"vehicle_type_id":"4","last_reported":1743102479,"current_range_meters":4000,"station_id":"ce4bgkp2rcd13ifvqbmg","pricing_plan_id":"cebpf4jnsgd1na2vs0mg"},{"bike_id":"b501e66c-90dc-42b8-920a-de3982ca9ad9","system_id":"levelo_inurba_marseille","lat":43.25509,"lon":5.37684,"is_reserved":false,"is_disabled":true,"rental_uris":{"android":"levelo://app?vid=b501e66c-90dc-42b8-920a-de3982ca9ad9","ios":"levelo://app?vid=b501e66c-90dc-42b8-920a-de3982ca9ad9"},"vehicle_type_id":"4","last_reported":1743102479,"current_range_meters":4000,"station_id":"ce4bhh12rcd13ifvqff0","pricing_plan_id":"cebpf4jnsgd1na2vs0mg"},{"bike_id":"e3a29d38-a611-4b12-87ef-2fb8a21c41d5","system_id":"levelo_inurba_marseille","lat":43.22938,"lon":5.35396,"is_reserved":false,"is_disabled":false,"rental_uris":{"android":"levelo://app?vid=e3a29d38-a611-4b12-87ef-2fb8a21c41d5","ios":"levelo://app?vid=e3a29d38-a611-4b12-87ef-2fb8a21c41d5"},"vehicle_type_id":"4","last_reported":1743102479,"current_range_meters":4000,"station_id":"cpo3532slgdg3j2ikp40","pricing_plan_id":"cebpf4jnsgd1na2vs0mg"},{"bike_id":"9f686b7f-1026-48b4-87f5-6432105e8660","system_id":"levelo_inurba_marseille","lat":43.3236,"lon":5.3888,"is_reserved":false,"is_disabled":false,"rental_uris":{"android":"levelo://app?vid=9f686b7f-1026-48b4-87f5-6432105e8660","ios":"levelo://app?vid=9f686b7f-1026-48b4-87f5-6432105e8660"},"vehicle_type_id":"4","last_reported":1743102479,"current_range_meters":4000,"station_id":"ce4bhqp2rcd13ifvqhog","pricing_plan_id":"cebpf4jnsgd1na2vs0mg"},{"bike_id":"0f2be980-6bd5-4182-b247-97a9d17cdcad","system_id":"levelo_inurba_marseille","lat":43.29316,"lon":5.3718,"is_reserved":false,"is_disabled":false,"rental_uris":{"android":"levelo://app?vid=0f2be980-6bd5-4182-b247-97a9d17cdcad","ios":"levelo://app?vid=0f2be980-6bd5-4182-b247-97a9d17cdcad"},"vehicle_type_id":"4","last_reported":1743102479,"current_range_meters":4000,"station_id":"ce4bgh92rcd13ifvqb40","pricing_plan_id":"cebpf4jnsgd1na2vs0mg"},{"bike_id":"c6725ddd-4176-4b66-ace1-8532580f0d23","system_id":"levelo_inurba_marseille","lat":43.29529,"lon":5.38549,"is_reserved":false,"is_disabled":false,"rental_uris":{"android":"levelo://app?vid=c6725ddd-4176-4b66-ace1-8532580f0d23","ios":"levelo://app?vid=c6725ddd-4176-4b66-ace1-8532580f0d23"},"vehicle_type_id":"4","last_reported":1743102479,"current_range_meters":3200,"station_id":"ce4bgih2rcd13ifvqba0","pricing_plan_id":"cebpf4jnsgd1na2vs0mg"},{"bike_id":"be8a41db-eea2-47cf-bebb-e73e183aeba7","system_id":"levelo_inurba_marseille","lat":43.28444,"lon":5.39188,"is_reserved":false,"is_disabled":false,"rental_uris":{"android":"levelo://app?vid=be8a41db-eea2-47cf-bebb-e73e183aeba7","ios":"levelo://app?vid=be8a41db-eea2-47cf-bebb-e73e183aeba7"},"vehicle_type_id":"4","last_reported":1743102479,"current_range_meters":4000,"station_id":"ce4bhoh2rcd13ifvqh5g","pricing_plan_id":"cebpf4jnsgd1na2vs0mg"},{"bike_id":"4daba53c-f664-4239-9484-730d87d06a85","system_id":"levelo_inurba_marseille","lat":43.28074,"lon":5.39667,"is_reserved":false,"is_disabled":false,"rental_uris":{"android":"levelo://app?vid=4daba53c-f664-4239-9484-730d87d06a85","ios":"levelo://app?vid=4daba53c-f664-4239-9484-730d87d06a85"},"vehicle_type_id":"4","last_reported":1743102479,"current_range_meters":3600,"station_id":"ce4bho12rcd13ifvqh2g","pricing_plan_id":"cebpf4jnsgd1na2vs0mg"},{"bike_id":"ee431863-758e-461d-8b5a-6fd0b6bd647f","system_id":"levelo_inurba_marseille","lat":43.27207,"lon":5.3918,"is_reserved":false,"is_disabled":false,"rental_uris":{"android":"levelo://app?vid=ee431863-758e-461d-8b5a-6fd0b6bd647f","ios":"levelo://app?vid=ee431863-758e-461d-8b5a-6fd0b6bd647f"},"vehicle_type_id":"4","last_reported":1743102479,"current_range_meters":4400,"station_id":"ce4bhhp2rcd13ifvqfm0","pricing_plan_id":"cebpf4jnsgd1na2vs0mg"},{"bike_id":"8929a286-0058-4b4e-95ea-b661e9420306","system_id":"levelo_inurba_marseille","lat":43.27072,"lon":5.42284,"is_reserved":false,"is_disabled":false,"rental_uris":{"android":"levelo://app?vid=8929a286-0058-4b4e-95ea-b661e9420306","ios":"levelo://app?vid=8929a286-0058-4b4e-95ea-b661e9420306"},"vehicle_type_id":"4","last_reported":1743102479,"current_range_meters":4400,"station_id":"ce4bhk92rcd13ifvqgb0","pricing_plan_id":"cebpf4jnsgd1na2vs0mg"},{"bike_id":"7d8f7c78-ba7e-4388-8da7-72134e2a3625","system_id":"levelo_inurba_marseille","lat":43.28339,"lon":5.38105,"is_reserved":false,"is_disabled":false,"rental_uris":{"android":"levelo://app?vid=7d8f7c78-ba7e-4388-8da7-72134e2a3625","ios":"levelo://app?vid=7d8f7c78-ba7e-4388-8da7-72134e2a3625"},"vehicle_type_id":"4","last_reported":1743102479,"current_range_meters":4400,"station_id":"ce4bh412rcd13ifvqdr0","pricing_plan_id":"cebpf4jnsgd1na2vs0mg"},{"bike_id":"a3e6f248-b75b-40dc-9ce0-a569e7377691","system_id":"levelo_inurba_marseille","lat":43.25923,"lon":5.40887,"is_reserved":false,"is_disabled":true,"rental_uris":{"android":"levelo://app?vid=a3e6f248-b75b-40dc-9ce0-a569e7377691","ios":"levelo://app?vid=a3e6f248-b75b-40dc-9ce0-a569e7377691"},"vehicle_type_id":"4","last_reported":1743102479,"current_range_meters":4400,"station_id":"ce4bhm92rcd13ifvqglg","pricing_plan_id":"cebpf4jnsgd1na2vs0mg"},{"bike_id":"c1b8a5da-cf21-4eb3-9a48-3a4692338c61","system_id":"levelo_inurba_marseille","lat":43.28694,"lon":5.40004,"is_reserved":false,"is_disabled":true,"rental_uris":{"android":"levelo://app?vid=c1b8a5da-cf21-4eb3-9a48-3a4692338c61","ios":"levelo://app?vid=c1b8a5da-cf21-4eb3-9a48-3a4692338c61"},"vehicle_type_id":"4","last_reported":1743102479,"current_range_meters":4400,"station_id":"ce4bho92rcd13ifvqh3g","pricing_plan_id":"cebpf4jnsgd1na2vs0mg"},{"bike_id":"734b3bf3-4aa4-4f66-a364-536a24b434c1","system_id":"levelo_inurba_marseille","lat":43.2994,"lon":5.36555,"is_reserved":false,"is_disabled":false,"rental_uris":{"android":"levelo://app?vid=734b3bf3-4aa4-4f66-a364-536a24b434c1","ios":"levelo://app?vid=734b3bf3-4aa4-4f66-a364-536a24b434c1"},"vehicle_type_id":"4","last_reported":1743102479,"current_range_meters":4400,"station_id":"ce4bgm92rcd13ifvqbr0","pricing_plan_id":"cebpf4jnsgd1na2vs0mg"},{"bike_id":"903bf7ba-537c-48e4-9521-6b8a3b000693","system_id":"levelo_inurba_marseille","lat":43.27914,"lon":5.38009,"is_reserved":false,"is_disabled":false,"rental_uris":{"android":"levelo://app?vid=903bf7ba-537c-48e4-9521-6b8a3b000693","ios":"levelo://app?vid=903bf7ba-537c-48e4-9521-6b8a3b000693"},"vehicle_type_id":"4","last_reported":1743102479,"current_range_meters":4400,"station_id":"ce4bhf92rcd13ifvqf50","pricing_plan_id":"cebpf4jnsgd1na2vs0mg"},{"bike_id":"bf5266ce-0232-4bc1-a203-0956ffa1d8cb","system_id":"levelo_inurba_marseille","lat":43.312669,"lon":5.401571,"is_reserved":false,"is_disabled":false,"rental_uris":{"android":"levelo://app?vid=bf5266ce-0232-4bc1-a203-0956ffa1d8cb","ios":"levelo://app?vid=bf5266ce-0232-4bc1-a203-0956ffa1d8cb"},"vehicle_type_id":"4","last_reported":1743102479,"current_range_meters":4400,"station_id":"ce4bh092rcd13ifvqd30","pricing_plan_id":"cebpf4jnsgd1na2vs0mg"},{"bike_id":"a9263403-ee6b-4873-ad94-4f6e234609f8","system_id":"levelo_inurba_marseille","lat":43.31685,"lon":5.4047,"is_reserved":false,"is_disabled":false,"rental_uris":{"android":"levelo://app?vid=a9263403-ee6b-4873-ad94-4f6e234609f8","ios":"levelo://app?vid=a9263403-ee6b-4873-ad94-4f6e234609f8"},"vehicle_type_id":"4","last_reported":1743102479,"current_range_meters":4400,"station_id":"ce4bh012rcd13ifvqd00","pricing_plan_id":"cebpf4jnsgd1na2vs0mg"},{"bike_id":"1dd765a9-64b4-439c-a196-df55419cc971","system_id":"levelo_inurba_marseille","lat":43.24181,"lon":5.36421,"is_reserved":false,"is_disabled":false,"rental_uris":{"android":"levelo://app?vid=1dd765a9-64b4-439c-a196-df55419cc971","ios":"levelo://app?vid=1dd765a9-64b4-439c-a196-df55419cc971"},"vehicle_type_id":"4","last_reported":1743102479,"current_range_meters":5600,"station_id":"cpo36qri1sfpv3e86is0","pricing_plan_id":"cebpf4jnsgd1na2vs0mg"},{"bike_id":"a3e5ae41-f255-4c98-b4c1-85ef0deded53","system_id":"levelo_inurba_marseille","lat":43.28413,"lon":5.37516,"is_reserved":false,"is_disabled":false,"rental_uris":{"android":"levelo://app?vid=a3e5ae41-f255-4c98-b4c1-85ef0deded53","ios":"levelo://app?vid=a3e5ae41-f255-4c98-b4c1-85ef0deded53"},"vehicle_type_id":"4","last_reported":1743102479,"current_range_meters":4800,"station_id":"ce4bh412rcd13ifvqds0","pricing_plan_id":"cebpf4jnsgd1na2vs0mg"},{"bike_id":"a62b364f-26fb-493d-b8e1-c6c1abdf7d76","system_id":"levelo_inurba_marseille","lat":43.29095,"lon":5.38147,"is_reserved":false,"is_disabled":false,"rental_uris":{"android":"levelo://app?vid=a62b364f-26fb-493d-b8e1-c6c1abdf7d76","ios":"levelo://app?vid=a62b364f-26fb-493d-b8e1-c6c1abdf7d76"},"vehicle_type_id":"4","last_reported":1743102479,"current_range_meters":4800,"station_id":"ce4bh512rcd13ifvqe2g","pricing_plan_id":"cebpf4jnsgd1na2vs0mg"},{"bike_id":"f8fa9bb2-2e64-4723-acae-e840971ab773","system_id":"levelo_inurba_marseille","lat":43.29265,"lon":5.38449,"is_reserved":false,"is_disabled":false,"rental_uris":{"android":"levelo://app?vid=f8fa9bb2-2e64-4723-acae-e840971ab773","ios":"levelo://app?vid=f8fa9bb2-2e64-4723-acae-e840971ab773"},"vehicle_type_id":"4","last_reported":1743102479,"current_range_meters":4800,"station_id":"ce4bh692rcd13ifvqea0","pricing_plan_id":"cebpf4jnsgd1na2vs0mg"},{"bike_id":"1dafc4e3-2434-4816-9ecd-8b0985d78b86","system_id":"levelo_inurba_marseille","lat":43.28266,"lon":5.35071,"is_reserved":false,"is_disabled":false,"rental_uris":{"android":"levelo://app?vid=1dafc4e3-2434-4816-9ecd-8b0985d78b86","ios":"levelo://app?vid=1dafc4e3-2434-4816-9ecd-8b0985d78b86"},"vehicle_type_id":"4","last_reported":1743102479,"current_range_meters":4800,"station_id":"ce4bhbp2rcd13ifvqerg","pricing_plan_id":"cebpf4jnsgd1na2vs0mg"},{"bike_id":"c43d83bf-c90f-4a2e-9202-e322ded28106","system_id":"levelo_inurba_marseille","lat":43.29419,"lon":5.38629,"is_reserved":false,"is_disabled":false,"rental_uris":{"android":"levelo://app?vid=c43d83bf-c90f-4a2e-9202-e322ded28106","ios":"levelo://app?vid=c43d83bf-c90f-4a2e-9202-e322ded28106"},"vehicle_type_id":"4","last_reported":1743102479,"current_range_meters":4800,"station_id":"ce4bh2h2rcd13ifvqdh0","pricing_plan_id":"cebpf4jnsgd1na2vs0mg"},{"bike_id":"48035257-7e16-45d4-a040-ff632f4a5077","system_id":"levelo_inurba_marseille","lat":43.29963,"lon":5.38499,"is_reserved":false,"is_disabled":false,"rental_uris":{"android":"levelo://app?vid=48035257-7e16-45d4-a040-ff632f4a5077","ios":"levelo://app?vid=48035257-7e16-45d4-a040-ff632f4a5077"},"vehicle_type_id":"4","last_reported":1743102479,"current_range_meters":2000,"station_id":"ce4bgj92rcd13ifvqbd0","pricing_plan_id":"cebpf4jnsgd1na2vs0mg"},{"bike_id":"d296e00e-7934-44a6-963c-174e7c20204d","system_id":"levelo_inurba_marseille","lat":43.30434,"lon":5.39744,"is_reserved":false,"is_disabled":false,"rental_uris":{"android":"levelo://app?vid=d296e00e-7934-44a6-963c-174e7c20204d","ios":"levelo://app?vid=d296e00e-7934-44a6-963c-174e7c20204d"},"vehicle_type_id":"4","last_reported":1743102479,"current_range_meters":4800,"station_id":"ce4bh092rcd13ifvqd20","pricing_plan_id":"cebpf4jnsgd1na2vs0mg"},{"bike_id":"9bb16505-972d-4f02-a1b0-ac00f6a0ccdc","system_id":"levelo_inurba_marseille","lat":43.28681,"lon":5.38659,"is_reserved":false,"is_disabled":false,"rental_uris":{"android":"levelo://app?vid=9bb16505-972d-4f02-a1b0-ac00f6a0ccdc","ios":"levelo://app?vid=9bb16505-972d-4f02-a1b0-ac00f6a0ccdc"},"vehicle_type_id":"4","last_reported":1743102479,"current_range_meters":4800,"station_id":"ce4bh492rcd13ifvqdug","pricing_plan_id":"cebpf4jnsgd1na2vs0mg"},{"bike_id":"f639ec0b-ed1e-41fb-8420-26b500df4945","system_id":"levelo_inurba_marseille","lat":43.29784,"lon":5.39343,"is_reserved":false,"is_disabled":false,"rental_uris":{"android":"levelo://app?vid=f639ec0b-ed1e-41fb-8420-26b500df4945","ios":"levelo://app?vid=f639ec0b-ed1e-41fb-8420-26b500df4945"},"vehicle_type_id":"4","last_reported":1743102479,"current_range_meters":4800,"station_id":"chh1huq6cuj3fo74tm60","pricing_plan_id":"cebpf4jnsgd1na2vs0mg"},{"bike_id":"4d29673d-54e7-48d2-9c9f-1d02cf66fc24","system_id":"levelo_inurba_marseille","lat":43.28622,"lon":5.38465,"is_reserved":false,"is_disabled":false,"rental_uris":{"android":"levelo://app?vid=4d29673d-54e7-48d2-9c9f-1d02cf66fc24","ios":"levelo://app?vid=4d29673d-54e7-48d2-9c9f-1d02cf66fc24"},"vehicle_type_id":"4","last_reported":1743102479,"current_range_meters":5600,"station_id":"","pricing_plan_id":"cebpf4jnsgd1na2vs0mg"},{"bike_id":"6621d4c2-d383-4652-b714-693cd16b5e33","system_id":"levelo_inurba_marseille","lat":43.29899,"lon":5.43675,"is_reserved":false,"is_disabled":false,"rental_uris":{"android":"levelo://app?vid=6621d4c2-d383-4652-b714-693cd16b5e33","ios":"levelo://app?vid=6621d4c2-d383-4652-b714-693cd16b5e33"},"vehicle_type_id":"4","last_reported":1743102479,"current_range_meters":5600,"station_id":"ce4bhpp2rcd13ifvqhfg","pricing_plan_id":"cebpf4jnsgd1na2vs0mg"},{"bike_id":"b810a9b5-835d-449d-b188-792a941b3568","system_id":"levelo_inurba_marseille","lat":43.302103,"lon":5.39458,"is_reserved":false,"is_disabled":false,"rental_uris":{"android":"levelo://app?vid=b810a9b5-835d-449d-b188-792a941b3568","ios":"levelo://app?vid=b810a9b5-835d-449d-b188-792a941b3568"},"vehicle_type_id":"4","last_reported":1743102479,"current_range_meters":5600,"station_id":"ce4bh0p2rcd13ifvqd70","pricing_plan_id":"cebpf4jnsgd1na2vs0mg"},{"bike_id":"1aeb8658-bc9e-4103-9bef-7f7d91e79095","system_id":"levelo_inurba_marseille","lat":43.29428,"lon":5.38667,"is_reserved":false,"is_disabled":false,"rental_uris":{"android":"levelo://app?vid=1aeb8658-bc9e-4103-9bef-7f7d91e79095","ios":"levelo://app?vid=1aeb8658-bc9e-4103-9bef-7f7d91e79095"},"vehicle_type_id":"4","last_reported":1743102479,"current_range_meters":5600,"station_id":"ce4bh2h2rcd13ifvqdh0","pricing_plan_id":"cebpf4jnsgd1na2vs0mg"},{"bike_id":"ecdc5b5a-0452-4ddb-b6a2-6b8257b1cd7e","system_id":"levelo_inurba_marseille","lat":43.29262,"lon":5.38449,"is_reserved":false,"is_disabled":false,"rental_uris":{"android":"levelo://app?vid=ecdc5b5a-0452-4ddb-b6a2-6b8257b1cd7e","ios":"levelo://app?vid=ecdc5b5a-0452-4ddb-b6a2-6b8257b1cd7e"},"vehicle_type_id":"4","last_reported":1743102479,"current_range_meters":5600,"station_id":"ce4bh692rcd13ifvqea0","pricing_plan_id":"cebpf4jnsgd1na2vs0mg"},{"bike_id":"f2704b9c-c316-4f5f-9155-65f7581186ce","system_id":"levelo_inurba_marseille","lat":43.28037,"lon":5.36937,"is_reserved":false,"is_disabled":false,"rental_uris":{"android":"levelo://app?vid=f2704b9c-c316-4f5f-9155-65f7581186ce","ios":"levelo://app?vid=f2704b9c-c316-4f5f-9155-65f7581186ce"},"vehicle_type_id":"4","last_reported":1743102479,"current_range_meters":5600,"station_id":"ce4bha12rcd13ifvqef0","pricing_plan_id":"cebpf4jnsgd1na2vs0mg"},{"bike_id":"06f0be0d-1f7c-4157-85fb-7fba14b80508","system_id":"levelo_inurba_marseille","lat":43.295335,"lon":5.385481,"is_reserved":false,"is_disabled":false,"rental_uris":{"android":"levelo://app?vid=06f0be0d-1f7c-4157-85fb-7fba14b80508","ios":"levelo://app?vid=06f0be0d-1f7c-4157-85fb-7fba14b80508"},"vehicle_type_id":"4","last_reported":1743102479,"current_range_meters":800,"station_id":"ce4bgih2rcd13ifvqba0","pricing_plan_id":"cebpf4jnsgd1na2vs0mg"},{"bike_id":"6165ca97-d152-4535-bb35-dd51f65c8b56","system_id":"levelo_inurba_marseille","lat":43.27816,"lon":5.40718,"is_reserved":false,"is_disabled":false,"rental_uris":{"android":"levelo://app?vid=6165ca97-d152-4535-bb35-dd51f65c8b56","ios":"levelo://app?vid=6165ca97-d152-4535-bb35-dd51f65c8b56"},"vehicle_type_id":"4","last_reported":1743102479,"current_range_meters":6000,"station_id":"ce4bhnh2rcd13ifvqgtg","pricing_plan_id":"cebpf4jnsgd1na2vs0mg"},{"bike_id":"63d2930e-e38d-4996-8bdc-7e011a3ef3f1","system_id":"levelo_inurba_marseille","lat":43.28451,"lon":5.39221,"is_reserved":false,"is_disabled":false,"rental_uris":{"android":"levelo://app?vid=63d2930e-e38d-4996-8bdc-7e011a3ef3f1","ios":"levelo://app?vid=63d2930e-e38d-4996-8bdc-7e011a3ef3f1"},"vehicle_type_id":"4","last_reported":1743102479,"current_range_meters":6000,"station_id":"ce4bhoh2rcd13ifvqh5g","pricing_plan_id":"cebpf4jnsgd1na2vs0mg"},{"bike_id":"2f00637d-c190-4c54-96fc-3ee53b1f134c","system_id":"levelo_inurba_marseille","lat":43.31494,"lon":5.37303,"is_reserved":false,"is_disabled":false,"rental_uris":{"android":"levelo://app?vid=2f00637d-c190-4c54-96fc-3ee53b1f134c","ios":"levelo://app?vid=2f00637d-c190-4c54-96fc-3ee53b1f134c"},"vehicle_type_id":"4","last_reported":1743102479,"current_range_meters":5600,"station_id":"ce4bgt12rcd13ifvqcd0","pricing_plan_id":"cebpf4jnsgd1na2vs0mg"},{"bike_id":"aa5c19ad-ee30-4d71-92e0-453cf72ca298","system_id":"levelo_inurba_marseille","lat":43.24643,"lon":5.388813,"is_reserved":false,"is_disabled":false,"rental_uris":{"android":"levelo://app?vid=aa5c19ad-ee30-4d71-92e0-453cf72ca298","ios":"levelo://app?vid=aa5c19ad-ee30-4d71-92e0-453cf72ca298"},"vehicle_type_id":"4","last_reported":1743102479,"current_range_meters":6000,"station_id":"ce4bhg12rcd13ifvqf60","pricing_plan_id":"cebpf4jnsgd1na2vs0mg"},{"bike_id":"475713a7-0351-4660-a9d2-3878557a9be6","system_id":"levelo_inurba_marseille","lat":43.2892,"lon":5.36645,"is_reserved":false,"is_disabled":false,"rental_uris":{"android":"levelo://app?vid=475713a7-0351-4660-a9d2-3878557a9be6","ios":"levelo://app?vid=475713a7-0351-4660-a9d2-3878557a9be6"},"vehicle_type_id":"4","last_reported":1743102479,"current_range_meters":6000,"station_id":"ce4bhap2rcd13ifvqek0","pricing_plan_id":"cebpf4jnsgd1na2vs0mg"},{"bike_id":"a9aaf565-9843-47f6-952c-1c0614b076e8","system_id":"levelo_inurba_marseille","lat":43.29073,"lon":5.37164,"is_reserved":false,"is_disabled":false,"rental_uris":{"android":"levelo://app?vid=a9aaf565-9843-47f6-952c-1c0614b076e8","ios":"levelo://app?vid=a9aaf565-9843-47f6-952c-1c0614b076e8"},"vehicle_type_id":"4","last_reported":1743102479,"current_range_meters":6000,"station_id":"ce4bh5p2rcd13ifvqe4g","pricing_plan_id":"cebpf4jnsgd1na2vs0mg"},{"bike_id":"1d82dbff-960b-48e5-a75f-2e69faba6d3e","system_id":"levelo_inurba_marseille","lat":43.23195,"lon":5.35556,"is_reserved":false,"is_disabled":false,"rental_uris":{"android":"levelo://app?vid=1d82dbff-960b-48e5-a75f-2e69faba6d3e","ios":"levelo://app?vid=1d82dbff-960b-48e5-a75f-2e69faba6d3e"},"vehicle_type_id":"4","last_reported":1743102479,"current_range_meters":6000,"station_id":"ce4bhu92rcd13ifvqi70","pricing_plan_id":"cebpf4jnsgd1na2vs0mg"},{"bike_id":"5ab2cefc-01cd-4e8a-a56b-91c71a521b8c","system_id":"levelo_inurba_marseille","lat":43.28556,"lon":5.39516,"is_reserved":false,"is_disabled":false,"rental_uris":{"android":"levelo://app?vid=5ab2cefc-01cd-4e8a-a56b-91c71a521b8c","ios":"levelo://app?vid=5ab2cefc-01cd-4e8a-a56b-91c71a521b8c"},"vehicle_type_id":"4","last_reported":1743102479,"current_range_meters":6000,"station_id":"ce4bh292rcd13ifvqdg0","pricing_plan_id":"cebpf4jnsgd1na2vs0mg"},{"bike_id":"c6f1f35f-a7df-44dd-9a79-9a4444ffc8e6","system_id":"levelo_inurba_marseille","lat":43.3169,"lon":5.40477,"is_reserved":false,"is_disabled":false,"rental_uris":{"android":"levelo://app?vid=c6f1f35f-a7df-44dd-9a79-9a4444ffc8e6","ios":"levelo://app?vid=c6f1f35f-a7df-44dd-9a79-9a4444ffc8e6"},"vehicle_type_id":"4","last_reported":1743102479,"current_range_meters":6400,"station_id":"ce4bh012rcd13ifvqd00","pricing_plan_id":"cebpf4jnsgd1na2vs0mg"},{"bike_id":"2a7ce13d-195e-4b24-963f-016622aba723","system_id":"levelo_inurba_marseille","lat":43.29776,"lon":5.37117,"is_reserved":false,"is_disabled":false,"rental_uris":{"android":"levelo://app?vid=2a7ce13d-195e-4b24-963f-016622aba723","ios":"levelo://app?vid=2a7ce13d-195e-4b24-963f-016622aba723"},"vehicle_type_id":"4","last_reported":1743102479,"current_range_meters":6400,"station_id":"ce4bgop2rcd13ifvqc1g","pricing_plan_id":"cebpf4jnsgd1na2vs0mg"},{"bike_id":"be4f4aa9-5e9f-40a8-9083-327bbc9faa51","system_id":"levelo_inurba_marseille","lat":43.312868,"lon":5.38279,"is_reserved":false,"is_disabled":false,"rental_uris":{"android":"levelo://app?vid=be4f4aa9-5e9f-40a8-9083-327bbc9faa51","ios":"levelo://app?vid=be4f4aa9-5e9f-40a8-9083-327bbc9faa51"},"vehicle_type_id":"4","last_reported":1743102479,"current_range_meters":6400,"station_id":"","pricing_plan_id":"cebpf4jnsgd1na2vs0mg"},{"bike_id":"f1399ad9-ec0b-4232-96e0-745490220cce","system_id":"levelo_inurba_marseille","lat":43.30323,"lon":5.40445,"is_reserved":false,"is_disabled":false,"rental_uris":{"android":"levelo://app?vid=f1399ad9-ec0b-4232-96e0-745490220cce","ios":"levelo://app?vid=f1399ad9-ec0b-4232-96e0-745490220cce"},"vehicle_type_id":"4","last_reported":1743102479,"current_range_meters":6400,"station_id":"ce4bh012rcd13ifvqd10","pricing_plan_id":"cebpf4jnsgd1na2vs0mg"},{"bike_id":"8b590c7f-f7fe-4e53-8031-10f31bee4e30","system_id":"levelo_inurba_marseille","lat":43.26776,"lon":5.39427,"is_reserved":false,"is_disabled":false,"rental_uris":{"android":"levelo://app?vid=8b590c7f-f7fe-4e53-8031-10f31bee4e30","ios":"levelo://app?vid=8b590c7f-f7fe-4e53-8031-10f31bee4e30"},"vehicle_type_id":"4","last_reported":1743102479,"current_range_meters":6400,"station_id":"ce4bhh12rcd13ifvqfg0","pricing_plan_id":"cebpf4jnsgd1na2vs0mg"},{"bike_id":"9909698b-2726-42ef-a75a-24e460d5e183","system_id":"levelo_inurba_marseille","lat":43.24567,"lon":5.39532,"is_reserved":false,"is_disabled":false,"rental_uris":{"android":"levelo://app?vid=9909698b-2726-42ef-a75a-24e460d5e183","ios":"levelo://app?vid=9909698b-2726-42ef-a75a-24e460d5e183"},"vehicle_type_id":"4","last_reported":1743102479,"current_range_meters":6400,"station_id":"ce4bhlp2rcd13ifvqgjg","pricing_plan_id":"cebpf4jnsgd1na2vs0mg"},{"bike_id":"d11d6b57-9415-48e2-a824-93f79c65ed49","system_id":"levelo_inurba_marseille","lat":43.28466,"lon":5.38423,"is_reserved":false,"is_disabled":false,"rental_uris":{"android":"levelo://app?vid=d11d6b57-9415-48e2-a824-93f79c65ed49","ios":"levelo://app?vid=d11d6b57-9415-48e2-a824-93f79c65ed49"},"vehicle_type_id":"4","last_reported":1743102479,"current_range_meters":6400,"station_id":"ce4bh512rcd13ifvqe3g","pricing_plan_id":"cebpf4jnsgd1na2vs0mg"},{"bike_id":"52951885-9398-47d5-874e-79aa111c0a53","system_id":"levelo_inurba_marseille","lat":43.26575,"lon":5.39004,"is_reserved":false,"is_disabled":false,"rental_uris":{"android":"levelo://app?vid=52951885-9398-47d5-874e-79aa111c0a53","ios":"levelo://app?vid=52951885-9398-47d5-874e-79aa111c0a53"},"vehicle_type_id":"4","last_reported":1743102479,"current_range_meters":6400,"station_id":"ce4bhe12rcd13ifvqf30","pricing_plan_id":"cebpf4jnsgd1na2vs0mg"},{"bike_id":"afaf558f-d3c1-489c-a54c-9a1321d0dcec","system_id":"levelo_inurba_marseille","lat":43.29961,"lon":5.385,"is_reserved":false,"is_disabled":false,"rental_uris":{"android":"levelo://app?vid=afaf558f-d3c1-489c-a54c-9a1321d0dcec","ios":"levelo://app?vid=afaf558f-d3c1-489c-a54c-9a1321d0dcec"},"vehicle_type_id":"4","last_reported":1743102479,"current_range_meters":6400,"station_id":"ce4bgj92rcd13ifvqbd0","pricing_plan_id":"cebpf4jnsgd1na2vs0mg"},{"bike_id":"bac9fed9-b04b-45bb-9da0-9cb8d6cee1b1","system_id":"levelo_inurba_marseille","lat":43.29529,"lon":5.37508,"is_reserved":false,"is_disabled":false,"rental_uris":{"android":"levelo://app?vid=bac9fed9-b04b-45bb-9da0-9cb8d6cee1b1","ios":"levelo://app?vid=bac9fed9-b04b-45bb-9da0-9cb8d6cee1b1"},"vehicle_type_id":"4","last_reported":1743102479,"current_range_meters":6400,"station_id":"ce4bgkp2rcd13ifvqbmg","pricing_plan_id":"cebpf4jnsgd1na2vs0mg"},{"bike_id":"89c10063-7251-43e3-8e57-eae4cb5e55c5","system_id":"levelo_inurba_marseille","lat":43.29301,"lon":5.37177,"is_reserved":false,"is_disabled":false,"rental_uris":{"android":"levelo://app?vid=89c10063-7251-43e3-8e57-eae4cb5e55c5","ios":"levelo://app?vid=89c10063-7251-43e3-8e57-eae4cb5e55c5"},"vehicle_type_id":"4","last_reported":1743102479,"current_range_meters":6800,"station_id":"ce4bgh92rcd13ifvqb40","pricing_plan_id":"cebpf4jnsgd1na2vs0mg"},{"bike_id":"70113f09-a04c-4e9e-b993-68920cbcfa80","system_id":"levelo_inurba_marseille","lat":43.30885,"lon":5.39661,"is_reserved":false,"is_disabled":false,"rental_uris":{"android":"levelo://app?vid=70113f09-a04c-4e9e-b993-68920cbcfa80","ios":"levelo://app?vid=70113f09-a04c-4e9e-b993-68920cbcfa80"},"vehicle_type_id":"4","last_reported":1743102479,"current_range_meters":11200,"station_id":"ce4bh012rcd13ifvqcv0","pricing_plan_id":"cebpf4jnsgd1na2vs0mg"},{"bike_id":"745db27b-7d09-42e9-857e-1a3c13cd5302","system_id":"levelo_inurba_marseille","lat":43.23202,"lon":5.35565,"is_reserved":false,"is_disabled":false,"rental_uris":{"android":"levelo://app?vid=745db27b-7d09-42e9-857e-1a3c13cd5302","ios":"levelo://app?vid=745db27b-7d09-42e9-857e-1a3c13cd5302"},"vehicle_type_id":"4","last_reported":1743102479,"current_range_meters":6800,"station_id":"ce4bhu92rcd13ifvqi70","pricing_plan_id":"cebpf4jnsgd1na2vs0mg"},{"bike_id":"67c014eb-868e-467b-9f26-cca343752913","system_id":"levelo_inurba_marseille","lat":43.2927,"lon":5.36851,"is_reserved":false,"is_disabled":false,"rental_uris":{"android":"levelo://app?vid=67c014eb-868e-467b-9f26-cca343752913","ios":"levelo://app?vid=67c014eb-868e-467b-9f26-cca343752913"},"vehicle_type_id":"4","last_reported":1743102479,"current_range_meters":6800,"station_id":"ce4bhbp2rcd13ifvqesg","pricing_plan_id":"cebpf4jnsgd1na2vs0mg"},{"bike_id":"bc1c85bd-6832-4fe8-a54c-8bcd28edcf3b","system_id":"levelo_inurba_marseille","lat":43.25723,"lon":5.41113,"is_reserved":false,"is_disabled":false,"rental_uris":{"android":"levelo://app?vid=bc1c85bd-6832-4fe8-a54c-8bcd28edcf3b","ios":"levelo://app?vid=bc1c85bd-6832-4fe8-a54c-8bcd28edcf3b"},"vehicle_type_id":"4","last_reported":1743102479,"current_range_meters":6800,"station_id":"ce4bhkp2rcd13ifvqgd0","pricing_plan_id":"cebpf4jnsgd1na2vs0mg"},{"bike_id":"84a7a785-5392-42bc-8088-fb903bcc7f5c","system_id":"levelo_inurba_marseille","lat":43.23064,"lon":5.35494,"is_reserved":false,"is_disabled":false,"rental_uris":{"android":"levelo://app?vid=84a7a785-5392-42bc-8088-fb903bcc7f5c","ios":"levelo://app?vid=84a7a785-5392-42bc-8088-fb903bcc7f5c"},"vehicle_type_id":"4","last_reported":1743102479,"current_range_meters":6800,"station_id":"cpo3342slgdg3j2ifvpg","pricing_plan_id":"cebpf4jnsgd1na2vs0mg"},{"bike_id":"a2cca4d0-900f-4d24-81a4-a34f6c38f996","system_id":"levelo_inurba_marseille","lat":43.26943,"lon":5.40247,"is_reserved":false,"is_disabled":false,"rental_uris":{"android":"levelo://app?vid=a2cca4d0-900f-4d24-81a4-a34f6c38f996","ios":"levelo://app?vid=a2cca4d0-900f-4d24-81a4-a34f6c38f996"},"vehicle_type_id":"4","last_reported":1743102479,"current_range_meters":6800,"station_id":"cjm6bp8fraef2m0cb0m0","pricing_plan_id":"cebpf4jnsgd1na2vs0mg"},{"bike_id":"87d90627-be88-4511-98c8-a013934dae08","system_id":"levelo_inurba_marseille","lat":43.28846,"lon":5.35777,"is_reserved":false,"is_disabled":false,"rental_uris":{"android":"levelo://app?vid=87d90627-be88-4511-98c8-a013934dae08","ios":"levelo://app?vid=87d90627-be88-4511-98c8-a013934dae08"},"vehicle_type_id":"4","last_reported":1743102479,"current_range_meters":6800,"station_id":"ce4bhb12rcd13ifvqem0","pricing_plan_id":"cebpf4jnsgd1na2vs0mg"},{"bike_id":"795063b1-bbcb-4106-a9e7-6aa8fb383fb3","system_id":"levelo_inurba_marseille","lat":43.28175,"lon":5.42676,"is_reserved":false,"is_disabled":false,"rental_uris":{"android":"levelo://app?vid=795063b1-bbcb-4106-a9e7-6aa8fb383fb3","ios":"levelo://app?vid=795063b1-bbcb-4106-a9e7-6aa8fb383fb3"},"vehicle_type_id":"4","last_reported":1743102479,"current_range_meters":6800,"station_id":"ce4bhnh2rcd13ifvqgug","pricing_plan_id":"cebpf4jnsgd1na2vs0mg"},{"bike_id":"25319f31-6ef5-46a0-9322-f807f9031800","system_id":"levelo_inurba_marseille","lat":43.2417,"lon":5.36436,"is_reserved":false,"is_disabled":false,"rental_uris":{"android":"levelo://app?vid=25319f31-6ef5-46a0-9322-f807f9031800","ios":"levelo://app?vid=25319f31-6ef5-46a0-9322-f807f9031800"},"vehicle_type_id":"4","last_reported":1743102479,"current_range_meters":6800,"station_id":"cpo36qri1sfpv3e86is0","pricing_plan_id":"cebpf4jnsgd1na2vs0mg"},{"bike_id":"f51f801c-e46f-4465-9179-e07d6a1eea17","system_id":"levelo_inurba_marseille","lat":43.28854,"lon":5.35853,"is_reserved":false,"is_disabled":false,"rental_uris":{"android":"levelo://app?vid=f51f801c-e46f-4465-9179-e07d6a1eea17","ios":"levelo://app?vid=f51f801c-e46f-4465-9179-e07d6a1eea17"},"vehicle_type_id":"4","last_reported":1743102479,"current_range_meters":6800,"station_id":"ce4bhb12rcd13ifvqem0","pricing_plan_id":"cebpf4jnsgd1na2vs0mg"},{"bike_id":"cc9e7bef-41a8-4bcb-9ba5-ca6f13310dac","system_id":"levelo_inurba_marseille","lat":43.2903,"lon":5.38592,"is_reserved":false,"is_disabled":false,"rental_uris":{"android":"levelo://app?vid=cc9e7bef-41a8-4bcb-9ba5-ca6f13310dac","ios":"levelo://app?vid=cc9e7bef-41a8-4bcb-9ba5-ca6f13310dac"},"vehicle_type_id":"4","last_reported":1743102479,"current_range_meters":6800,"station_id":"ce4bh4p2rcd13ifvqe0g","pricing_plan_id":"cebpf4jnsgd1na2vs0mg"},{"bike_id":"acc27ca4-a5fe-42bb-8a56-e7b68beeb1dc","system_id":"levelo_inurba_marseille","lat":43.29294,"lon":5.3746,"is_reserved":false,"is_disabled":false,"rental_uris":{"android":"levelo://app?vid=acc27ca4-a5fe-42bb-8a56-e7b68beeb1dc","ios":"levelo://app?vid=acc27ca4-a5fe-42bb-8a56-e7b68beeb1dc"},"vehicle_type_id":"4","last_reported":1743102479,"current_range_meters":6800,"station_id":"ce4bgi12rcd13ifvqb70","pricing_plan_id":"cebpf4jnsgd1na2vs0mg"},{"bike_id":"24587414-cbde-4e98-b525-208cb249b06c","system_id":"levelo_inurba_marseille","lat":43.28055,"lon":5.39627,"is_reserved":false,"is_disabled":false,"rental_uris":{"android":"levelo://app?vid=24587414-cbde-4e98-b525-208cb249b06c","ios":"levelo://app?vid=24587414-cbde-4e98-b525-208cb249b06c"},"vehicle_type_id":"4","last_reported":1743102479,"current_range_meters":6800,"station_id":"ce4bho12rcd13ifvqh2g","pricing_plan_id":"cebpf4jnsgd1na2vs0mg"},{"bike_id":"6623bcce-557f-4122-835c-6ecbd0c74040","system_id":"levelo_inurba_marseille","lat":43.28451,"lon":5.3589,"is_reserved":false,"is_disabled":false,"rental_uris":{"android":"levelo://app?vid=6623bcce-557f-4122-835c-6ecbd0c74040","ios":"levelo://app?vid=6623bcce-557f-4122-835c-6ecbd0c74040"},"vehicle_type_id":"4","last_reported":1743102479,"current_range_meters":6800,"station_id":"ce4bhah2rcd13ifvqei0","pricing_plan_id":"cebpf4jnsgd1na2vs0mg"},{"bike_id":"85d0fa0c-b5b9-41cd-ba43-951901672dab","system_id":"levelo_inurba_marseille","lat":43.25603,"lon":5.39004,"is_reserved":false,"is_disabled":false,"rental_uris":{"android":"levelo://app?vid=85d0fa0c-b5b9-41cd-ba43-951901672dab","ios":"levelo://app?vid=85d0fa0c-b5b9-41cd-ba43-951901672dab"},"vehicle_type_id":"4","last_reported":1743102479,"current_range_meters":6800,"station_id":"","pricing_plan_id":"cebpf4jnsgd1na2vs0mg"},{"bike_id":"dc8ccdc9-a018-4504-b0a9-676297905591","system_id":"levelo_inurba_marseille","lat":43.293,"lon":5.36972,"is_reserved":false,"is_disabled":false,"rental_uris":{"android":"levelo://app?vid=dc8ccdc9-a018-4504-b0a9-676297905591","ios":"levelo://app?vid=dc8ccdc9-a018-4504-b0a9-676297905591"},"vehicle_type_id":"4","last_reported":1743102479,"current_range_meters":6800,"station_id":"","pricing_plan_id":"cebpf4jnsgd1na2vs0mg"},{"bike_id":"efcc5a79-2e2a-4333-a341-c6754e3383ff","system_id":"levelo_inurba_marseille","lat":43.29532,"lon":5.38551,"is_reserved":false,"is_disabled":false,"rental_uris":{"android":"levelo://app?vid=efcc5a79-2e2a-4333-a341-c6754e3383ff","ios":"levelo://app?vid=efcc5a79-2e2a-4333-a341-c6754e3383ff"},"vehicle_type_id":"4","last_reported":1743102479,"current_range_meters":4400,"station_id":"ce4bgih2rcd13ifvqba0","pricing_plan_id":"cebpf4jnsgd1na2vs0mg"},{"bike_id":"13817d39-5b22-43dd-81bc-e9539d5f9fb7","system_id":"levelo_inurba_marseille","lat":43.28155,"lon":5.42642,"is_reserved":false,"is_disabled":false,"rental_uris":{"android":"levelo://app?vid=13817d39-5b22-43dd-81bc-e9539d5f9fb7","ios":"levelo://app?vid=13817d39-5b22-43dd-81bc-e9539d5f9fb7"},"vehicle_type_id":"4","last_reported":1743102479,"current_range_meters":6800,"station_id":"ce4bhnh2rcd13ifvqgug","pricing_plan_id":"cebpf4jnsgd1na2vs0mg"},{"bike_id":"425db880-df71-400f-a56b-78196db3e2b0","system_id":"levelo_inurba_marseille","lat":43.28731,"lon":5.36099,"is_reserved":false,"is_disabled":false,"rental_uris":{"android":"levelo://app?vid=425db880-df71-400f-a56b-78196db3e2b0","ios":"levelo://app?vid=425db880-df71-400f-a56b-78196db3e2b0"},"vehicle_type_id":"4","last_reported":1743102479,"current_range_meters":6800,"station_id":"cki0cbj6b192h4jlfktg","pricing_plan_id":"cebpf4jnsgd1na2vs0mg"},{"bike_id":"111df798-4e1a-4648-958f-2f5ecf088459","system_id":"levelo_inurba_marseille","lat":43.305969,"lon":5.393583,"is_reserved":false,"is_disabled":false,"rental_uris":{"android":"levelo://app?vid=111df798-4e1a-4648-958f-2f5ecf088459","ios":"levelo://app?vid=111df798-4e1a-4648-958f-2f5ecf088459"},"vehicle_type_id":"4","last_reported":1743102479,"current_range_meters":6800,"station_id":"ce4bh0p2rcd13ifvqd80","pricing_plan_id":"cebpf4jnsgd1na2vs0mg"},{"bike_id":"9b0db4f1-c6a1-4ca7-86c5-ec1daffe0ea2","system_id":"levelo_inurba_marseille","lat":43.25113,"lon":5.39513,"is_reserved":false,"is_disabled":false,"rental_uris":{"android":"levelo://app?vid=9b0db4f1-c6a1-4ca7-86c5-ec1daffe0ea2","ios":"levelo://app?vid=9b0db4f1-c6a1-4ca7-86c5-ec1daffe0ea2"},"vehicle_type_id":"4","last_reported":1743102479,"current_range_meters":6800,"station_id":"ce4bhm12rcd13ifvqgkg","pricing_plan_id":"cebpf4jnsgd1na2vs0mg"},{"bike_id":"5bf51267-584e-41b8-a922-c700dc80dcf6","system_id":"levelo_inurba_marseille","lat":43.32349,"lon":5.40624,"is_reserved":false,"is_disabled":false,"rental_uris":{"android":"levelo://app?vid=5bf51267-584e-41b8-a922-c700dc80dcf6","ios":"levelo://app?vid=5bf51267-584e-41b8-a922-c700dc80dcf6"},"vehicle_type_id":"4","last_reported":1743102479,"current_range_meters":7200,"station_id":"ce4bhq92rcd13ifvqhjg","pricing_plan_id":"cebpf4jnsgd1na2vs0mg"},{"bike_id":"14a39aa8-5384-4979-b3d0-6356904ea214","system_id":"levelo_inurba_marseille","lat":43.28555,"lon":5.39505,"is_reserved":false,"is_disabled":false,"rental_uris":{"android":"levelo://app?vid=14a39aa8-5384-4979-b3d0-6356904ea214","ios":"levelo://app?vid=14a39aa8-5384-4979-b3d0-6356904ea214"},"vehicle_type_id":"4","last_reported":1743102479,"current_range_meters":7200,"station_id":"ce4bh292rcd13ifvqdg0","pricing_plan_id":"cebpf4jnsgd1na2vs0mg"},{"bike_id":"803855f7-cdd0-4004-b6d7-bda89652ae3b","system_id":"levelo_inurba_marseille","lat":43.31685,"lon":5.40473,"is_reserved":false,"is_disabled":false,"rental_uris":{"android":"levelo://app?vid=803855f7-cdd0-4004-b6d7-bda89652ae3b","ios":"levelo://app?vid=803855f7-cdd0-4004-b6d7-bda89652ae3b"},"vehicle_type_id":"4","last_reported":1743102479,"current_range_meters":7200,"station_id":"ce4bh012rcd13ifvqd00","pricing_plan_id":"cebpf4jnsgd1na2vs0mg"},{"bike_id":"2e013db2-c4bf-4ece-9b86-255ce2c33732","system_id":"levelo_inurba_marseille","lat":43.278107,"lon":5.407253,"is_reserved":false,"is_disabled":false,"rental_uris":{"android":"levelo://app?vid=2e013db2-c4bf-4ece-9b86-255ce2c33732","ios":"levelo://app?vid=2e013db2-c4bf-4ece-9b86-255ce2c33732"},"vehicle_type_id":"4","last_reported":1743102479,"current_range_meters":8000,"station_id":"ce4bhf92rcd13ifvqf40","pricing_plan_id":"cebpf4jnsgd1na2vs0mg"},{"bike_id":"3a5e18ad-6a23-4442-9c34-19c7bd17a17e","system_id":"levelo_inurba_marseille","lat":43.22942,"lon":5.35416,"is_reserved":false,"is_disabled":false,"rental_uris":{"android":"levelo://app?vid=3a5e18ad-6a23-4442-9c34-19c7bd17a17e","ios":"levelo://app?vid=3a5e18ad-6a23-4442-9c34-19c7bd17a17e"},"vehicle_type_id":"4","last_reported":1743102479,"current_range_meters":7200,"station_id":"cpo3532slgdg3j2ikp40","pricing_plan_id":"cebpf4jnsgd1na2vs0mg"},{"bike_id":"75c3108f-01a2-40a0-a2d9-0b97b8676f9d","system_id":"levelo_inurba_marseille","lat":43.265702,"lon":5.39011,"is_reserved":false,"is_disabled":false,"rental_uris":{"android":"levelo://app?vid=75c3108f-01a2-40a0-a2d9-0b97b8676f9d","ios":"levelo://app?vid=75c3108f-01a2-40a0-a2d9-0b97b8676f9d"},"vehicle_type_id":"4","last_reported":1743102479,"current_range_meters":7200,"station_id":"ce4bhe12rcd13ifvqf30","pricing_plan_id":"cebpf4jnsgd1na2vs0mg"},{"bike_id":"3d954b51-869c-40d8-a384-e8741fd300a0","system_id":"levelo_inurba_marseille","lat":43.28389,"lon":5.37516,"is_reserved":false,"is_disabled":false,"rental_uris":{"android":"levelo://app?vid=3d954b51-869c-40d8-a384-e8741fd300a0","ios":"levelo://app?vid=3d954b51-869c-40d8-a384-e8741fd300a0"},"vehicle_type_id":"4","last_reported":1743102479,"current_range_meters":7200,"station_id":"ce4bh412rcd13ifvqds0","pricing_plan_id":"cebpf4jnsgd1na2vs0mg"},{"bike_id":"0586a29a-e70c-4fce-9479-b2eea1df506b","system_id":"levelo_inurba_marseille","lat":43.29536,"lon":5.3855,"is_reserved":false,"is_disabled":false,"rental_uris":{"android":"levelo://app?vid=0586a29a-e70c-4fce-9479-b2eea1df506b","ios":"levelo://app?vid=0586a29a-e70c-4fce-9479-b2eea1df506b"},"vehicle_type_id":"4","last_reported":1743102479,"current_range_meters":7200,"station_id":"ce4bgih2rcd13ifvqba0","pricing_plan_id":"cebpf4jnsgd1na2vs0mg"},{"bike_id":"cd6683f8-bc17-4817-8da3-5a099b5c207d","system_id":"levelo_inurba_marseille","lat":43.29538,"lon":5.38553,"is_reserved":false,"is_disabled":false,"rental_uris":{"android":"levelo://app?vid=cd6683f8-bc17-4817-8da3-5a099b5c207d","ios":"levelo://app?vid=cd6683f8-bc17-4817-8da3-5a099b5c207d"},"vehicle_type_id":"4","last_reported":1743102479,"current_range_meters":7200,"station_id":"ce4bgih2rcd13ifvqba0","pricing_plan_id":"cebpf4jnsgd1na2vs0mg"},{"bike_id":"db3b1c24-1bb7-4bf2-950f-8c34ea05127b","system_id":"levelo_inurba_marseille","lat":43.31171,"lon":5.38695,"is_reserved":false,"is_disabled":false,"rental_uris":{"android":"levelo://app?vid=db3b1c24-1bb7-4bf2-950f-8c34ea05127b","ios":"levelo://app?vid=db3b1c24-1bb7-4bf2-950f-8c34ea05127b"},"vehicle_type_id":"4","last_reported":1743102479,"current_range_meters":7200,"station_id":"ce4bgv12rcd13ifvqcp0","pricing_plan_id":"cebpf4jnsgd1na2vs0mg"},{"bike_id":"638c8e6b-6bbe-4946-a05d-753bcac50810","system_id":"levelo_inurba_marseille","lat":43.28081,"lon":5.39663,"is_reserved":false,"is_disabled":false,"rental_uris":{"android":"levelo://app?vid=638c8e6b-6bbe-4946-a05d-753bcac50810","ios":"levelo://app?vid=638c8e6b-6bbe-4946-a05d-753bcac50810"},"vehicle_type_id":"4","last_reported":1743102479,"current_range_meters":7200,"station_id":"ce4bho12rcd13ifvqh2g","pricing_plan_id":"cebpf4jnsgd1na2vs0mg"},{"bike_id":"92a62c10-bb48-4b4f-a512-26add273a8e3","system_id":"levelo_inurba_marseille","lat":43.31717,"lon":5.37775,"is_reserved":false,"is_disabled":false,"rental_uris":{"android":"levelo://app?vid=92a62c10-bb48-4b4f-a512-26add273a8e3","ios":"levelo://app?vid=92a62c10-bb48-4b4f-a512-26add273a8e3"},"vehicle_type_id":"4","last_reported":1743102479,"current_range_meters":7200,"station_id":"ce4bgth2rcd13ifvqch0","pricing_plan_id":"cebpf4jnsgd1na2vs0mg"},{"bike_id":"44eeac64-3243-4afc-b41d-39193a24683e","system_id":"levelo_inurba_marseille","lat":43.28732,"lon":5.37932,"is_reserved":false,"is_disabled":false,"rental_uris":{"android":"levelo://app?vid=44eeac64-3243-4afc-b41d-39193a24683e","ios":"levelo://app?vid=44eeac64-3243-4afc-b41d-39193a24683e"},"vehicle_type_id":"4","last_reported":1743102479,"current_range_meters":8000,"station_id":"ce4bh9p2rcd13ifvqec0","pricing_plan_id":"cebpf4jnsgd1na2vs0mg"},{"bike_id":"e53a1eb8-e926-4f74-b3ac-c2f1945803ef","system_id":"levelo_inurba_marseille","lat":43.28068,"lon":5.39636,"is_reserved":false,"is_disabled":true,"rental_uris":{"android":"levelo://app?vid=e53a1eb8-e926-4f74-b3ac-c2f1945803ef","ios":"levelo://app?vid=e53a1eb8-e926-4f74-b3ac-c2f1945803ef"},"vehicle_type_id":"4","last_reported":1743102479,"current_range_meters":8000,"station_id":"ce4bho12rcd13ifvqh2g","pricing_plan_id":"cebpf4jnsgd1na2vs0mg"},{"bike_id":"8db44b9e-9226-45cc-b70c-1ddd878f1aa3","system_id":"levelo_inurba_marseille","lat":43.29273,"lon":5.3761,"is_reserved":false,"is_disabled":false,"rental_uris":{"android":"levelo://app?vid=8db44b9e-9226-45cc-b70c-1ddd878f1aa3","ios":"levelo://app?vid=8db44b9e-9226-45cc-b70c-1ddd878f1aa3"},"vehicle_type_id":"4","last_reported":1743102479,"current_range_meters":8000,"station_id":"ce4bgi12rcd13ifvqb80","pricing_plan_id":"cebpf4jnsgd1na2vs0mg"},{"bike_id":"72407b9c-71b7-4feb-83e9-97e5f2a36163","system_id":"levelo_inurba_marseille","lat":43.24157,"lon":5.36425,"is_reserved":false,"is_disabled":false,"rental_uris":{"android":"levelo://app?vid=72407b9c-71b7-4feb-83e9-97e5f2a36163","ios":"levelo://app?vid=72407b9c-71b7-4feb-83e9-97e5f2a36163"},"vehicle_type_id":"4","last_reported":1743102479,"current_range_meters":8000,"station_id":"cpo36qri1sfpv3e86is0","pricing_plan_id":"cebpf4jnsgd1na2vs0mg"},{"bike_id":"bd0bd85a-4563-4f05-90ee-f6e2c30913d1","system_id":"levelo_inurba_marseille","lat":43.31697,"lon":5.4046,"is_reserved":false,"is_disabled":false,"rental_uris":{"android":"levelo://app?vid=bd0bd85a-4563-4f05-90ee-f6e2c30913d1","ios":"levelo://app?vid=bd0bd85a-4563-4f05-90ee-f6e2c30913d1"},"vehicle_type_id":"4","last_reported":1743102479,"current_range_meters":8000,"station_id":"ce4bh012rcd13ifvqd00","pricing_plan_id":"cebpf4jnsgd1na2vs0mg"},{"bike_id":"a90918ea-88d7-43ef-bd60-3fbb9c651399","system_id":"levelo_inurba_marseille","lat":43.28481,"lon":5.3843,"is_reserved":false,"is_disabled":false,"rental_uris":{"android":"levelo://app?vid=a90918ea-88d7-43ef-bd60-3fbb9c651399","ios":"levelo://app?vid=a90918ea-88d7-43ef-bd60-3fbb9c651399"},"vehicle_type_id":"4","last_reported":1743102479,"current_range_meters":7200,"station_id":"ce4bh512rcd13ifvqe3g","pricing_plan_id":"cebpf4jnsgd1na2vs0mg"},{"bike_id":"db7517ea-6bf9-4543-8348-e6fd273ae6ae","system_id":"levelo_inurba_marseille","lat":43.29418,"lon":5.38597,"is_reserved":false,"is_disabled":false,"rental_uris":{"android":"levelo://app?vid=db7517ea-6bf9-4543-8348-e6fd273ae6ae","ios":"levelo://app?vid=db7517ea-6bf9-4543-8348-e6fd273ae6ae"},"vehicle_type_id":"4","last_reported":1743102479,"current_range_meters":8000,"station_id":"ce4bh2h2rcd13ifvqdh0","pricing_plan_id":"cebpf4jnsgd1na2vs0mg"},{"bike_id":"6c1dd11a-4143-4757-975c-7f984c5d8917","system_id":"levelo_inurba_marseille","lat":43.27565,"lon":5.38446,"is_reserved":false,"is_disabled":false,"rental_uris":{"android":"levelo://app?vid=6c1dd11a-4143-4757-975c-7f984c5d8917","ios":"levelo://app?vid=6c1dd11a-4143-4757-975c-7f984c5d8917"},"vehicle_type_id":"4","last_reported":1743102479,"current_range_meters":8000,"station_id":"ce4bhh92rcd13ifvqfi0","pricing_plan_id":"cebpf4jnsgd1na2vs0mg"},{"bike_id":"1d206328-8d8b-4421-b718-d354e5cc70d2","system_id":"levelo_inurba_marseille","lat":43.31685,"lon":5.40472,"is_reserved":false,"is_disabled":false,"rental_uris":{"android":"levelo://app?vid=1d206328-8d8b-4421-b718-d354e5cc70d2","ios":"levelo://app?vid=1d206328-8d8b-4421-b718-d354e5cc70d2"},"vehicle_type_id":"4","last_reported":1743102479,"current_range_meters":8000,"station_id":"ce4bh012rcd13ifvqd00","pricing_plan_id":"cebpf4jnsgd1na2vs0mg"},{"bike_id":"22f106dc-ea9d-40d1-99f0-8912a11fadcb","system_id":"levelo_inurba_marseille","lat":43.28103,"lon":5.3786,"is_reserved":false,"is_disabled":false,"rental_uris":{"android":"levelo://app?vid=22f106dc-ea9d-40d1-99f0-8912a11fadcb","ios":"levelo://app?vid=22f106dc-ea9d-40d1-99f0-8912a11fadcb"},"vehicle_type_id":"4","last_reported":1743102479,"current_range_meters":8000,"station_id":"ce4bha12rcd13ifvqee0","pricing_plan_id":"cebpf4jnsgd1na2vs0mg"},{"bike_id":"e742816d-f62f-4b92-9529-612278e6e6c5","system_id":"levelo_inurba_marseille","lat":43.30668,"lon":5.40083,"is_reserved":false,"is_disabled":false,"rental_uris":{"android":"levelo://app?vid=e742816d-f62f-4b92-9529-612278e6e6c5","ios":"levelo://app?vid=e742816d-f62f-4b92-9529-612278e6e6c5"},"vehicle_type_id":"4","last_reported":1743102479,"current_range_meters":8000,"station_id":"ce4bh112rcd13ifvqda0","pricing_plan_id":"cebpf4jnsgd1na2vs0mg"},{"bike_id":"07ceab62-30fa-40a1-9abf-abdaa77844c7","system_id":"levelo_inurba_marseille","lat":43.31363,"lon":5.38492,"is_reserved":false,"is_disabled":false,"rental_uris":{"android":"levelo://app?vid=07ceab62-30fa-40a1-9abf-abdaa77844c7","ios":"levelo://app?vid=07ceab62-30fa-40a1-9abf-abdaa77844c7"},"vehicle_type_id":"4","last_reported":1743102479,"current_range_meters":8000,"station_id":"ce4bgt92rcd13ifvqcf0","pricing_plan_id":"cebpf4jnsgd1na2vs0mg"},{"bike_id":"bf2ce828-a3e1-4589-96bd-ea52661b0ce8","system_id":"levelo_inurba_marseille","lat":43.23202,"lon":5.35554,"is_reserved":false,"is_disabled":false,"rental_uris":{"android":"levelo://app?vid=bf2ce828-a3e1-4589-96bd-ea52661b0ce8","ios":"levelo://app?vid=bf2ce828-a3e1-4589-96bd-ea52661b0ce8"},"vehicle_type_id":"4","last_reported":1743102479,"current_range_meters":8000,"station_id":"ce4bhu92rcd13ifvqi70","pricing_plan_id":"cebpf4jnsgd1na2vs0mg"},{"bike_id":"0baa1a20-7af5-431c-8159-b18ef6ec7c01","system_id":"levelo_inurba_marseille","lat":43.30308,"lon":5.39204,"is_reserved":false,"is_disabled":false,"rental_uris":{"android":"levelo://app?vid=0baa1a20-7af5-431c-8159-b18ef6ec7c01","ios":"levelo://app?vid=0baa1a20-7af5-431c-8159-b18ef6ec7c01"},"vehicle_type_id":"4","last_reported":1743102479,"current_range_meters":8000,"station_id":"ce4bgkh2rcd13ifvqbk0","pricing_plan_id":"cebpf4jnsgd1na2vs0mg"},{"bike_id":"53104d84-f272-4d64-b5a3-da94aa38f8f7","system_id":"levelo_inurba_marseille","lat":43.3021,"lon":5.3948,"is_reserved":false,"is_disabled":false,"rental_uris":{"android":"levelo://app?vid=53104d84-f272-4d64-b5a3-da94aa38f8f7","ios":"levelo://app?vid=53104d84-f272-4d64-b5a3-da94aa38f8f7"},"vehicle_type_id":"4","last_reported":1743102479,"current_range_meters":8000,"station_id":"ce4bh0p2rcd13ifvqd70","pricing_plan_id":"cebpf4jnsgd1na2vs0mg"},{"bike_id":"169d7fcf-280d-4645-acdf-db059c46d533","system_id":"levelo_inurba_marseille","lat":43.23958,"lon":5.36653,"is_reserved":false,"is_disabled":false,"rental_uris":{"android":"levelo://app?vid=169d7fcf-280d-4645-acdf-db059c46d533","ios":"levelo://app?vid=169d7fcf-280d-4645-acdf-db059c46d533"},"vehicle_type_id":"4","last_reported":1743102479,"current_range_meters":8000,"station_id":"ce4bhi12rcd13ifvqfp0","pricing_plan_id":"cebpf4jnsgd1na2vs0mg"},{"bike_id":"40046afd-c6aa-43ea-88bd-183a4d2ec61c","system_id":"levelo_inurba_marseille","lat":43.31634,"lon":5.41677,"is_reserved":false,"is_disabled":false,"rental_uris":{"android":"levelo://app?vid=40046afd-c6aa-43ea-88bd-183a4d2ec61c","ios":"levelo://app?vid=40046afd-c6aa-43ea-88bd-183a4d2ec61c"},"vehicle_type_id":"4","last_reported":1743102479,"current_range_meters":8400,"station_id":"","pricing_plan_id":"cebpf4jnsgd1na2vs0mg"},{"bike_id":"4ea2dc4a-53b8-4d21-b056-faf850ab7b24","system_id":"levelo_inurba_marseille","lat":43.29543,"lon":5.42272,"is_reserved":false,"is_disabled":false,"rental_uris":{"android":"levelo://app?vid=4ea2dc4a-53b8-4d21-b056-faf850ab7b24","ios":"levelo://app?vid=4ea2dc4a-53b8-4d21-b056-faf850ab7b24"},"vehicle_type_id":"4","last_reported":1743102479,"current_range_meters":8400,"station_id":"ce4bhph2rcd13ifvqhdg","pricing_plan_id":"cebpf4jnsgd1na2vs0mg"},{"bike_id":"1d12197d-60d4-49be-8a7d-fd6595226791","system_id":"levelo_inurba_marseille","lat":43.298159,"lon":5.381074,"is_reserved":false,"is_disabled":false,"rental_uris":{"android":"levelo://app?vid=1d12197d-60d4-49be-8a7d-fd6595226791","ios":"levelo://app?vid=1d12197d-60d4-49be-8a7d-fd6595226791"},"vehicle_type_id":"4","last_reported":1743102479,"current_range_meters":7200,"station_id":"ce4bgnh2rcd13ifvqc0g","pricing_plan_id":"cebpf4jnsgd1na2vs0mg"},{"bike_id":"0ddc3ef9-c9ca-479a-8b28-e2773a58874a","system_id":"levelo_inurba_marseille","lat":43.28417,"lon":5.37514,"is_reserved":false,"is_disabled":false,"rental_uris":{"android":"levelo://app?vid=0ddc3ef9-c9ca-479a-8b28-e2773a58874a","ios":"levelo://app?vid=0ddc3ef9-c9ca-479a-8b28-e2773a58874a"},"vehicle_type_id":"4","last_reported":1743102479,"current_range_meters":8400,"station_id":"ce4bh412rcd13ifvqds0","pricing_plan_id":"cebpf4jnsgd1na2vs0mg"},{"bike_id":"d3b4ee70-7971-4aa9-9684-5c42bd40c57d","system_id":"levelo_inurba_marseille","lat":43.28424,"lon":5.37538,"is_reserved":false,"is_disabled":false,"rental_uris":{"android":"levelo://app?vid=d3b4ee70-7971-4aa9-9684-5c42bd40c57d","ios":"levelo://app?vid=d3b4ee70-7971-4aa9-9684-5c42bd40c57d"},"vehicle_type_id":"4","last_reported":1743102479,"current_range_meters":8400,"station_id":"ce4bh412rcd13ifvqds0","pricing_plan_id":"cebpf4jnsgd1na2vs0mg"},{"bike_id":"f9fdb47f-9192-4b46-8970-e8b979b0a256","system_id":"levelo_inurba_marseille","lat":43.2846,"lon":5.35896,"is_reserved":false,"is_disabled":false,"rental_uris":{"android":"levelo://app?vid=f9fdb47f-9192-4b46-8970-e8b979b0a256","ios":"levelo://app?vid=f9fdb47f-9192-4b46-8970-e8b979b0a256"},"vehicle_type_id":"4","last_reported":1743102479,"current_range_meters":8400,"station_id":"ce4bhah2rcd13ifvqei0","pricing_plan_id":"cebpf4jnsgd1na2vs0mg"},{"bike_id":"86b6bcf8-f227-4011-9218-79572cb71478","system_id":"levelo_inurba_marseille","lat":43.29265,"lon":5.3846,"is_reserved":false,"is_disabled":false,"rental_uris":{"android":"levelo://app?vid=86b6bcf8-f227-4011-9218-79572cb71478","ios":"levelo://app?vid=86b6bcf8-f227-4011-9218-79572cb71478"},"vehicle_type_id":"4","last_reported":1743102479,"current_range_meters":8400,"station_id":"ce4bh692rcd13ifvqea0","pricing_plan_id":"cebpf4jnsgd1na2vs0mg"},{"bike_id":"e14d4f57-8fc7-4487-8a99-c59b6dcf1e63","system_id":"levelo_inurba_marseille","lat":43.26492,"lon":5.39545,"is_reserved":false,"is_disabled":false,"rental_uris":{"android":"levelo://app?vid=e14d4f57-8fc7-4487-8a99-c59b6dcf1e63","ios":"levelo://app?vid=e14d4f57-8fc7-4487-8a99-c59b6dcf1e63"},"vehicle_type_id":"4","last_reported":1743102479,"current_range_meters":8400,"station_id":"ce4bhi12rcd13ifvqfq0","pricing_plan_id":"cebpf4jnsgd1na2vs0mg"},{"bike_id":"dd8c9566-f5a2-46ee-9617-9ffed7cf040d","system_id":"levelo_inurba_marseille","lat":43.24804,"lon":5.37457,"is_reserved":false,"is_disabled":false,"rental_uris":{"android":"levelo://app?vid=dd8c9566-f5a2-46ee-9617-9ffed7cf040d","ios":"levelo://app?vid=dd8c9566-f5a2-46ee-9617-9ffed7cf040d"},"vehicle_type_id":"4","last_reported":1743102479,"current_range_meters":8400,"station_id":"ce4bhgh2rcd13ifvqfb0","pricing_plan_id":"cebpf4jnsgd1na2vs0mg"},{"bike_id":"196b31af-a66d-4955-8149-926358a4024d","system_id":"levelo_inurba_marseille","lat":43.30946,"lon":5.39047,"is_reserved":false,"is_disabled":false,"rental_uris":{"android":"levelo://app?vid=196b31af-a66d-4955-8149-926358a4024d","ios":"levelo://app?vid=196b31af-a66d-4955-8149-926358a4024d"},"vehicle_type_id":"4","last_reported":1743102479,"current_range_meters":8800,"station_id":"ce4bgup2rcd13ifvqco0","pricing_plan_id":"cebpf4jnsgd1na2vs0mg"},{"bike_id":"fc202942-3496-4a98-9c02-ebc251a5fd3f","system_id":"levelo_inurba_marseille","lat":43.29268,"lon":5.40144,"is_reserved":false,"is_disabled":false,"rental_uris":{"android":"levelo://app?vid=fc202942-3496-4a98-9c02-ebc251a5fd3f","ios":"levelo://app?vid=fc202942-3496-4a98-9c02-ebc251a5fd3f"},"vehicle_type_id":"4","last_reported":1743102479,"current_range_meters":8400,"station_id":"ce4bh312rcd13ifvqdk0","pricing_plan_id":"cebpf4jnsgd1na2vs0mg"},{"bike_id":"e1defc53-a67a-4c61-bcb6-96b34a72d74f","system_id":"levelo_inurba_marseille","lat":43.29253,"lon":5.38439,"is_reserved":false,"is_disabled":false,"rental_uris":{"android":"levelo://app?vid=e1defc53-a67a-4c61-bcb6-96b34a72d74f","ios":"levelo://app?vid=e1defc53-a67a-4c61-bcb6-96b34a72d74f"},"vehicle_type_id":"4","last_reported":1743102479,"current_range_meters":8400,"station_id":"ce4bh692rcd13ifvqea0","pricing_plan_id":"cebpf4jnsgd1na2vs0mg"},{"bike_id":"ca3a4261-2339-4856-8c62-e4bf9c5ce439","system_id":"levelo_inurba_marseille","lat":43.29422,"lon":5.38626,"is_reserved":false,"is_disabled":false,"rental_uris":{"android":"levelo://app?vid=ca3a4261-2339-4856-8c62-e4bf9c5ce439","ios":"levelo://app?vid=ca3a4261-2339-4856-8c62-e4bf9c5ce439"},"vehicle_type_id":"4","last_reported":1743102479,"current_range_meters":8800,"station_id":"ce4bh2h2rcd13ifvqdh0","pricing_plan_id":"cebpf4jnsgd1na2vs0mg"},{"bike_id":"f9bc6c49-ab12-4f4a-8622-a90b173a32d2","system_id":"levelo_inurba_marseille","lat":43.29609,"lon":5.38112,"is_reserved":false,"is_disabled":false,"rental_uris":{"android":"levelo://app?vid=f9bc6c49-ab12-4f4a-8622-a90b173a32d2","ios":"levelo://app?vid=f9bc6c49-ab12-4f4a-8622-a90b173a32d2"},"vehicle_type_id":"4","last_reported":1743102479,"current_range_meters":8800,"station_id":"ce4bgl12rcd13ifvqbo0","pricing_plan_id":"cebpf4jnsgd1na2vs0mg"},{"bike_id":"857337c5-a062-478f-8c86-29301ef8fdfd","system_id":"levelo_inurba_marseille","lat":43.28726,"lon":5.37934,"is_reserved":false,"is_disabled":false,"rental_uris":{"android":"levelo://app?vid=857337c5-a062-478f-8c86-29301ef8fdfd","ios":"levelo://app?vid=857337c5-a062-478f-8c86-29301ef8fdfd"},"vehicle_type_id":"4","last_reported":1743102479,"current_range_meters":8400,"station_id":"ce4bh9p2rcd13ifvqec0","pricing_plan_id":"cebpf4jnsgd1na2vs0mg"},{"bike_id":"2d7b5bad-8649-4a8f-b296-763837417b6c","system_id":"levelo_inurba_marseille","lat":43.30436,"lon":5.41302,"is_reserved":false,"is_disabled":false,"rental_uris":{"android":"levelo://app?vid=2d7b5bad-8649-4a8f-b296-763837417b6c","ios":"levelo://app?vid=2d7b5bad-8649-4a8f-b296-763837417b6c"},"vehicle_type_id":"4","last_reported":1743102479,"current_range_meters":8800,"station_id":"ce4bhop2rcd13ifvqh8g","pricing_plan_id":"cebpf4jnsgd1na2vs0mg"},{"bike_id":"cb6a63eb-86bf-4cb6-8ed0-29d4183be782","system_id":"levelo_inurba_marseille","lat":43.26466,"lon":5.39524,"is_reserved":false,"is_disabled":false,"rental_uris":{"android":"levelo://app?vid=cb6a63eb-86bf-4cb6-8ed0-29d4183be782","ios":"levelo://app?vid=cb6a63eb-86bf-4cb6-8ed0-29d4183be782"},"vehicle_type_id":"4","last_reported":1743102479,"current_range_meters":8800,"station_id":"ce4bhi12rcd13ifvqfq0","pricing_plan_id":"cebpf4jnsgd1na2vs0mg"},{"bike_id":"21a8cdb5-2a51-40c4-b046-3db7a98571f9","system_id":"levelo_inurba_marseille","lat":43.29263,"lon":5.40903,"is_reserved":false,"is_disabled":false,"rental_uris":{"android":"levelo://app?vid=21a8cdb5-2a51-40c4-b046-3db7a98571f9","ios":"levelo://app?vid=21a8cdb5-2a51-40c4-b046-3db7a98571f9"},"vehicle_type_id":"4","last_reported":1743102479,"current_range_meters":8800,"station_id":"ce4bh192rcd13ifvqdc0","pricing_plan_id":"cebpf4jnsgd1na2vs0mg"},{"bike_id":"58e5fccc-d23b-4773-9578-c96b2012996a","system_id":"levelo_inurba_marseille","lat":43.30304,"lon":5.39213,"is_reserved":false,"is_disabled":false,"rental_uris":{"android":"levelo://app?vid=58e5fccc-d23b-4773-9578-c96b2012996a","ios":"levelo://app?vid=58e5fccc-d23b-4773-9578-c96b2012996a"},"vehicle_type_id":"4","last_reported":1743102479,"current_range_meters":8800,"station_id":"ce4bgkh2rcd13ifvqbk0","pricing_plan_id":"cebpf4jnsgd1na2vs0mg"},{"bike_id":"a0f25c0d-d223-4cec-a0b2-d7341db60a2d","system_id":"levelo_inurba_marseille","lat":43.336,"lon":5.41039,"is_reserved":false,"is_disabled":false,"rental_uris":{"android":"levelo://app?vid=a0f25c0d-d223-4cec-a0b2-d7341db60a2d","ios":"levelo://app?vid=a0f25c0d-d223-4cec-a0b2-d7341db60a2d"},"vehicle_type_id":"4","last_reported":1743102479,"current_range_meters":8800,"station_id":"ce4bhqh2rcd13ifvqhmg","pricing_plan_id":"cebpf4jnsgd1na2vs0mg"},{"bike_id":"7a93e231-d582-46a7-881a-89844d792cd2","system_id":"levelo_inurba_marseille","lat":43.23182,"lon":5.39987,"is_reserved":false,"is_disabled":false,"rental_uris":{"android":"levelo://app?vid=7a93e231-d582-46a7-881a-89844d792cd2","ios":"levelo://app?vid=7a93e231-d582-46a7-881a-89844d792cd2"},"vehicle_type_id":"4","last_reported":1743102479,"current_range_meters":8800,"station_id":"ce4bhn12rcd13ifvqgqg","pricing_plan_id":"cebpf4jnsgd1na2vs0mg"},{"bike_id":"c18155db-65c7-4d5a-8c5b-923eb75c675d","system_id":"levelo_inurba_marseille","lat":43.32096,"lon":5.36768,"is_reserved":false,"is_disabled":false,"rental_uris":{"android":"levelo://app?vid=c18155db-65c7-4d5a-8c5b-923eb75c675d","ios":"levelo://app?vid=c18155db-65c7-4d5a-8c5b-923eb75c675d"},"vehicle_type_id":"4","last_reported":1743102479,"current_range_meters":8800,"station_id":"ce4bhrh2rcd13ifvqhug","pricing_plan_id":"cebpf4jnsgd1na2vs0mg"},{"bike_id":"a34a1dc4-7884-4d6e-b413-1862328935d4","system_id":"levelo_inurba_marseille","lat":43.27208,"lon":5.39182,"is_reserved":false,"is_disabled":false,"rental_uris":{"android":"levelo://app?vid=a34a1dc4-7884-4d6e-b413-1862328935d4","ios":"levelo://app?vid=a34a1dc4-7884-4d6e-b413-1862328935d4"},"vehicle_type_id":"4","last_reported":1743102479,"current_range_meters":8800,"station_id":"ce4bhhp2rcd13ifvqfm0","pricing_plan_id":"cebpf4jnsgd1na2vs0mg"},{"bike_id":"e30d96cf-c675-4696-8abf-d5d375e479f4","system_id":"levelo_inurba_marseille","lat":43.27999,"lon":5.40028,"is_reserved":false,"is_disabled":false,"rental_uris":{"android":"levelo://app?vid=e30d96cf-c675-4696-8abf-d5d375e479f4","ios":"levelo://app?vid=e30d96cf-c675-4696-8abf-d5d375e479f4"},"vehicle_type_id":"4","last_reported":1743102479,"current_range_meters":8800,"station_id":"ce4bho92rcd13ifvqh4g","pricing_plan_id":"cebpf4jnsgd1na2vs0mg"},{"bike_id":"96504045-100a-468c-8897-360fb4c19832","system_id":"levelo_inurba_marseille","lat":43.27816,"lon":5.40746,"is_reserved":false,"is_disabled":false,"rental_uris":{"android":"levelo://app?vid=96504045-100a-468c-8897-360fb4c19832","ios":"levelo://app?vid=96504045-100a-468c-8897-360fb4c19832"},"vehicle_type_id":"4","last_reported":1743102479,"current_range_meters":9200,"station_id":"ce4bhnh2rcd13ifvqgtg","pricing_plan_id":"cebpf4jnsgd1na2vs0mg"},{"bike_id":"dd592713-6431-4020-9f9d-7058d629d09f","system_id":"levelo_inurba_marseille","lat":43.32105,"lon":5.36777,"is_reserved":false,"is_disabled":false,"rental_uris":{"android":"levelo://app?vid=dd592713-6431-4020-9f9d-7058d629d09f","ios":"levelo://app?vid=dd592713-6431-4020-9f9d-7058d629d09f"},"vehicle_type_id":"4","last_reported":1743102479,"current_range_meters":9200,"station_id":"ce4bhrh2rcd13ifvqhug","pricing_plan_id":"cebpf4jnsgd1na2vs0mg"},{"bike_id":"839cf689-4788-4253-bb29-409a7ccee12b","system_id":"levelo_inurba_marseille","lat":43.26931,"lon":5.40257,"is_reserved":false,"is_disabled":false,"rental_uris":{"android":"levelo://app?vid=839cf689-4788-4253-bb29-409a7ccee12b","ios":"levelo://app?vid=839cf689-4788-4253-bb29-409a7ccee12b"},"vehicle_type_id":"4","last_reported":1743102479,"current_range_meters":9200,"station_id":"cjm6bp8fraef2m0cb0m0","pricing_plan_id":"cebpf4jnsgd1na2vs0mg"},{"bike_id":"3a5bd134-0555-47bc-9ec4-d3da57b6b0de","system_id":"levelo_inurba_marseille","lat":43.29284,"lon":5.40118,"is_reserved":false,"is_disabled":false,"rental_uris":{"android":"levelo://app?vid=3a5bd134-0555-47bc-9ec4-d3da57b6b0de","ios":"levelo://app?vid=3a5bd134-0555-47bc-9ec4-d3da57b6b0de"},"vehicle_type_id":"4","last_reported":1743102479,"current_range_meters":9200,"station_id":"ce4bh312rcd13ifvqdk0","pricing_plan_id":"cebpf4jnsgd1na2vs0mg"},{"bike_id":"d25c416d-ab7e-4e70-9065-9b7ccb09dd09","system_id":"levelo_inurba_marseille","lat":43.31714,"lon":5.43707,"is_reserved":false,"is_disabled":false,"rental_uris":{"android":"levelo://app?vid=d25c416d-ab7e-4e70-9065-9b7ccb09dd09","ios":"levelo://app?vid=d25c416d-ab7e-4e70-9065-9b7ccb09dd09"},"vehicle_type_id":"4","last_reported":1743102479,"current_range_meters":9200,"station_id":"ce4bhp92rcd13ifvqhcg","pricing_plan_id":"cebpf4jnsgd1na2vs0mg"},{"bike_id":"51f98c16-a58f-4249-aef8-ced1c3fda908","system_id":"levelo_inurba_marseille","lat":43.257572,"lon":5.399608,"is_reserved":false,"is_disabled":false,"rental_uris":{"android":"levelo://app?vid=51f98c16-a58f-4249-aef8-ced1c3fda908","ios":"levelo://app?vid=51f98c16-a58f-4249-aef8-ced1c3fda908"},"vehicle_type_id":"4","last_reported":1743102479,"current_range_meters":8800,"station_id":"ce4bhn12rcd13ifvqgqg","pricing_plan_id":"cebpf4jnsgd1na2vs0mg"},{"bike_id":"0b99dd27-3479-438b-8de2-d5cee7a543b3","system_id":"levelo_inurba_marseille","lat":43.28452,"lon":5.3589,"is_reserved":false,"is_disabled":false,"rental_uris":{"android":"levelo://app?vid=0b99dd27-3479-438b-8de2-d5cee7a543b3","ios":"levelo://app?vid=0b99dd27-3479-438b-8de2-d5cee7a543b3"},"vehicle_type_id":"4","last_reported":1743102479,"current_range_meters":9200,"station_id":"ce4bhah2rcd13ifvqei0","pricing_plan_id":"cebpf4jnsgd1na2vs0mg"},{"bike_id":"370669e1-a28f-4d18-9e7c-43dfbbad498e","system_id":"levelo_inurba_marseille","lat":43.24173,"lon":5.39735,"is_reserved":false,"is_disabled":false,"rental_uris":{"android":"levelo://app?vid=370669e1-a28f-4d18-9e7c-43dfbbad498e","ios":"levelo://app?vid=370669e1-a28f-4d18-9e7c-43dfbbad498e"},"vehicle_type_id":"4","last_reported":1743102479,"current_range_meters":9200,"station_id":"ce4bhn12rcd13ifvqgpg","pricing_plan_id":"cebpf4jnsgd1na2vs0mg"},{"bike_id":"4e12f2e9-e3a0-4491-a332-705f71fe6e6a","system_id":"levelo_inurba_marseille","lat":43.24655,"lon":5.38903,"is_reserved":false,"is_disabled":false,"rental_uris":{"android":"levelo://app?vid=4e12f2e9-e3a0-4491-a332-705f71fe6e6a","ios":"levelo://app?vid=4e12f2e9-e3a0-4491-a332-705f71fe6e6a"},"vehicle_type_id":"4","last_reported":1743102479,"current_range_meters":9200,"station_id":"ce4bhg12rcd13ifvqf60","pricing_plan_id":"cebpf4jnsgd1na2vs0mg"},{"bike_id":"e110c135-ffaa-4ee4-bb95-b2c04dc26dca","system_id":"levelo_inurba_marseille","lat":43.30774,"lon":5.43517,"is_reserved":false,"is_disabled":false,"rental_uris":{"android":"levelo://app?vid=e110c135-ffaa-4ee4-bb95-b2c04dc26dca","ios":"levelo://app?vid=e110c135-ffaa-4ee4-bb95-b2c04dc26dca"},"vehicle_type_id":"4","last_reported":1743102479,"current_range_meters":9200,"station_id":"ce4bhph2rcd13ifvqheg","pricing_plan_id":"cebpf4jnsgd1na2vs0mg"},{"bike_id":"869061e7-3037-41e7-aef1-8bfce5d092c4","system_id":"levelo_inurba_marseille","lat":43.292664,"lon":5.38438,"is_reserved":false,"is_disabled":false,"rental_uris":{"android":"levelo://app?vid=869061e7-3037-41e7-aef1-8bfce5d092c4","ios":"levelo://app?vid=869061e7-3037-41e7-aef1-8bfce5d092c4"},"vehicle_type_id":"4","last_reported":1743102479,"current_range_meters":9200,"station_id":"","pricing_plan_id":"cebpf4jnsgd1na2vs0mg"},{"bike_id":"2fa60c5f-e479-4be1-aefd-6c42c0432963","system_id":"levelo_inurba_marseille","lat":43.29564,"lon":5.39989,"is_reserved":false,"is_disabled":false,"rental_uris":{"android":"levelo://app?vid=2fa60c5f-e479-4be1-aefd-6c42c0432963","ios":"levelo://app?vid=2fa60c5f-e479-4be1-aefd-6c42c0432963"},"vehicle_type_id":"4","last_reported":1743102479,"current_range_meters":9200,"station_id":"ce4bh312rcd13ifvqdj0","pricing_plan_id":"cebpf4jnsgd1na2vs0mg"},{"bike_id":"eac8525f-e157-4485-b4fa-7cfae4f7764b","system_id":"levelo_inurba_marseille","lat":43.29292,"lon":5.37464,"is_reserved":false,"is_disabled":false,"rental_uris":{"android":"levelo://app?vid=eac8525f-e157-4485-b4fa-7cfae4f7764b","ios":"levelo://app?vid=eac8525f-e157-4485-b4fa-7cfae4f7764b"},"vehicle_type_id":"4","last_reported":1743102479,"current_range_meters":9200,"station_id":"ce4bgi12rcd13ifvqb70","pricing_plan_id":"cebpf4jnsgd1na2vs0mg"},{"bike_id":"09a227f9-e81f-4ae4-8d74-65daf422601e","system_id":"levelo_inurba_marseille","lat":43.24801,"lon":5.37462,"is_reserved":false,"is_disabled":false,"rental_uris":{"android":"levelo://app?vid=09a227f9-e81f-4ae4-8d74-65daf422601e","ios":"levelo://app?vid=09a227f9-e81f-4ae4-8d74-65daf422601e"},"vehicle_type_id":"4","last_reported":1743102479,"current_range_meters":9600,"station_id":"ce4bhgh2rcd13ifvqfb0","pricing_plan_id":"cebpf4jnsgd1na2vs0mg"},{"bike_id":"e5047771-2082-4dba-9477-d8725027152d","system_id":"levelo_inurba_marseille","lat":43.2544,"lon":5.41897,"is_reserved":false,"is_disabled":false,"rental_uris":{"android":"levelo://app?vid=e5047771-2082-4dba-9477-d8725027152d","ios":"levelo://app?vid=e5047771-2082-4dba-9477-d8725027152d"},"vehicle_type_id":"4","last_reported":1743102479,"current_range_meters":9600,"station_id":"","pricing_plan_id":"cebpf4jnsgd1na2vs0mg"},{"bike_id":"2079e143-15fb-4fca-b428-1dcdbd2da2aa","system_id":"levelo_inurba_marseille","lat":43.27816,"lon":5.40727,"is_reserved":false,"is_disabled":false,"rental_uris":{"android":"levelo://app?vid=2079e143-15fb-4fca-b428-1dcdbd2da2aa","ios":"levelo://app?vid=2079e143-15fb-4fca-b428-1dcdbd2da2aa"},"vehicle_type_id":"4","last_reported":1743102479,"current_range_meters":9600,"station_id":"ce4bhnh2rcd13ifvqgtg","pricing_plan_id":"cebpf4jnsgd1na2vs0mg"},{"bike_id":"62a31e18-1693-40a5-b5bc-67cb9f170087","system_id":"levelo_inurba_marseille","lat":43.31694,"lon":5.37817,"is_reserved":false,"is_disabled":false,"rental_uris":{"android":"levelo://app?vid=62a31e18-1693-40a5-b5bc-67cb9f170087","ios":"levelo://app?vid=62a31e18-1693-40a5-b5bc-67cb9f170087"},"vehicle_type_id":"4","last_reported":1743102479,"current_range_meters":9600,"station_id":"","pricing_plan_id":"cebpf4jnsgd1na2vs0mg"},{"bike_id":"6c1801ad-fe28-4207-8fb0-277e5643f8f0","system_id":"levelo_inurba_marseille","lat":43.29251,"lon":5.38452,"is_reserved":false,"is_disabled":false,"rental_uris":{"android":"levelo://app?vid=6c1801ad-fe28-4207-8fb0-277e5643f8f0","ios":"levelo://app?vid=6c1801ad-fe28-4207-8fb0-277e5643f8f0"},"vehicle_type_id":"4","last_reported":1743102479,"current_range_meters":9600,"station_id":"ce4bh692rcd13ifvqea0","pricing_plan_id":"cebpf4jnsgd1na2vs0mg"},{"bike_id":"30cd612a-8cb0-4fab-9e3a-cd08e9fc22b5","system_id":"levelo_inurba_marseille","lat":43.29488,"lon":5.39416,"is_reserved":false,"is_disabled":true,"rental_uris":{"android":"levelo://app?vid=30cd612a-8cb0-4fab-9e3a-cd08e9fc22b5","ios":"levelo://app?vid=30cd612a-8cb0-4fab-9e3a-cd08e9fc22b5"},"vehicle_type_id":"4","last_reported":1743102479,"current_range_meters":9600,"station_id":"ce4bh292rcd13ifvqdf0","pricing_plan_id":"cebpf4jnsgd1na2vs0mg"},{"bike_id":"f00bf8b2-d464-414f-ac0e-9ab36f299da1","system_id":"levelo_inurba_marseille","lat":43.29102,"lon":5.38137,"is_reserved":false,"is_disabled":false,"rental_uris":{"android":"levelo://app?vid=f00bf8b2-d464-414f-ac0e-9ab36f299da1","ios":"levelo://app?vid=f00bf8b2-d464-414f-ac0e-9ab36f299da1"},"vehicle_type_id":"4","last_reported":1743102479,"current_range_meters":9200,"station_id":"ce4bh512rcd13ifvqe2g","pricing_plan_id":"cebpf4jnsgd1na2vs0mg"},{"bike_id":"90d97d7f-5afe-4601-98be-83b03668e3da","system_id":"levelo_inurba_marseille","lat":43.29294,"lon":5.37452,"is_reserved":false,"is_disabled":true,"rental_uris":{"android":"levelo://app?vid=90d97d7f-5afe-4601-98be-83b03668e3da","ios":"levelo://app?vid=90d97d7f-5afe-4601-98be-83b03668e3da"},"vehicle_type_id":"4","last_reported":1743102479,"current_range_meters":9600,"station_id":"ce4bgi12rcd13ifvqb70","pricing_plan_id":"cebpf4jnsgd1na2vs0mg"},{"bike_id":"0ac88cdf-dd3a-494f-aaa5-2b24d1ce393f","system_id":"levelo_inurba_marseille","lat":43.23192,"lon":5.35563,"is_reserved":false,"is_disabled":false,"rental_uris":{"android":"levelo://app?vid=0ac88cdf-dd3a-494f-aaa5-2b24d1ce393f","ios":"levelo://app?vid=0ac88cdf-dd3a-494f-aaa5-2b24d1ce393f"},"vehicle_type_id":"4","last_reported":1743102479,"current_range_meters":9600,"station_id":"ce4bhu92rcd13ifvqi70","pricing_plan_id":"cebpf4jnsgd1na2vs0mg"},{"bike_id":"775cff65-b5c1-4100-a6b4-04fd6e01f679","system_id":"levelo_inurba_marseille","lat":43.29801,"lon":5.38106,"is_reserved":false,"is_disabled":false,"rental_uris":{"android":"levelo://app?vid=775cff65-b5c1-4100-a6b4-04fd6e01f679","ios":"levelo://app?vid=775cff65-b5c1-4100-a6b4-04fd6e01f679"},"vehicle_type_id":"4","last_reported":1743102479,"current_range_meters":9600,"station_id":"ce4bgip2rcd13ifvqbb0","pricing_plan_id":"cebpf4jnsgd1na2vs0mg"},{"bike_id":"29df67f5-d204-4d83-9b55-30baf4950456","system_id":"levelo_inurba_marseille","lat":43.28178,"lon":5.42644,"is_reserved":false,"is_disabled":false,"rental_uris":{"android":"levelo://app?vid=29df67f5-d204-4d83-9b55-30baf4950456","ios":"levelo://app?vid=29df67f5-d204-4d83-9b55-30baf4950456"},"vehicle_type_id":"4","last_reported":1743102479,"current_range_meters":9600,"station_id":"ce4bhnh2rcd13ifvqgug","pricing_plan_id":"cebpf4jnsgd1na2vs0mg"},{"bike_id":"efccb7ee-57f9-48e7-98a8-b578ed40ea79","system_id":"levelo_inurba_marseille","lat":43.29263,"lon":5.38454,"is_reserved":false,"is_disabled":false,"rental_uris":{"android":"levelo://app?vid=efccb7ee-57f9-48e7-98a8-b578ed40ea79","ios":"levelo://app?vid=efccb7ee-57f9-48e7-98a8-b578ed40ea79"},"vehicle_type_id":"4","last_reported":1743102479,"current_range_meters":10000,"station_id":"ce4bh692rcd13ifvqea0","pricing_plan_id":"cebpf4jnsgd1na2vs0mg"},{"bike_id":"3a9bdcca-abab-46db-a40a-336182c98f57","system_id":"levelo_inurba_marseille","lat":43.27796,"lon":5.40721,"is_reserved":false,"is_disabled":false,"rental_uris":{"android":"levelo://app?vid=3a9bdcca-abab-46db-a40a-336182c98f57","ios":"levelo://app?vid=3a9bdcca-abab-46db-a40a-336182c98f57"},"vehicle_type_id":"4","last_reported":1743102479,"current_range_meters":10000,"station_id":"ce4bhnh2rcd13ifvqgtg","pricing_plan_id":"cebpf4jnsgd1na2vs0mg"},{"bike_id":"86a68b3e-24ca-4675-b503-ccdf4ae18195","system_id":"levelo_inurba_marseille","lat":43.292786,"lon":5.401163,"is_reserved":false,"is_disabled":false,"rental_uris":{"android":"levelo://app?vid=86a68b3e-24ca-4675-b503-ccdf4ae18195","ios":"levelo://app?vid=86a68b3e-24ca-4675-b503-ccdf4ae18195"},"vehicle_type_id":"4","last_reported":1743102479,"current_range_meters":10000,"station_id":"ce4bh312rcd13ifvqdk0","pricing_plan_id":"cebpf4jnsgd1na2vs0mg"},{"bike_id":"cb0aa180-a362-447a-a7b9-074e632132b6","system_id":"levelo_inurba_marseille","lat":43.29266,"lon":5.38432,"is_reserved":false,"is_disabled":false,"rental_uris":{"android":"levelo://app?vid=cb0aa180-a362-447a-a7b9-074e632132b6","ios":"levelo://app?vid=cb0aa180-a362-447a-a7b9-074e632132b6"},"vehicle_type_id":"4","last_reported":1743102479,"current_range_meters":10000,"station_id":"ce4bh692rcd13ifvqea0","pricing_plan_id":"cebpf4jnsgd1na2vs0mg"},{"bike_id":"08341f5a-3379-4d19-ac0d-e1aebffa9ec2","system_id":"levelo_inurba_marseille","lat":43.29805,"lon":5.38096,"is_reserved":false,"is_disabled":false,"rental_uris":{"android":"levelo://app?vid=08341f5a-3379-4d19-ac0d-e1aebffa9ec2","ios":"levelo://app?vid=08341f5a-3379-4d19-ac0d-e1aebffa9ec2"},"vehicle_type_id":"4","last_reported":1743102479,"current_range_meters":10000,"station_id":"ce4bgip2rcd13ifvqbb0","pricing_plan_id":"cebpf4jnsgd1na2vs0mg"},{"bike_id":"1384bdee-c8dc-42c6-90fd-ff498281f811","system_id":"levelo_inurba_marseille","lat":43.24063,"lon":5.3776,"is_reserved":false,"is_disabled":false,"rental_uris":{"android":"levelo://app?vid=1384bdee-c8dc-42c6-90fd-ff498281f811","ios":"levelo://app?vid=1384bdee-c8dc-42c6-90fd-ff498281f811"},"vehicle_type_id":"4","last_reported":1743102479,"current_range_meters":10000,"station_id":"ce4bhnp2rcd13ifvqgvg","pricing_plan_id":"cebpf4jnsgd1na2vs0mg"},{"bike_id":"77bc11b8-e20c-4c10-84a5-450671079b48","system_id":"levelo_inurba_marseille","lat":43.2871,"lon":5.37404,"is_reserved":false,"is_disabled":false,"rental_uris":{"android":"levelo://app?vid=77bc11b8-e20c-4c10-84a5-450671079b48","ios":"levelo://app?vid=77bc11b8-e20c-4c10-84a5-450671079b48"},"vehicle_type_id":"4","last_reported":1743102479,"current_range_meters":10000,"station_id":"ce4bh3p2rcd13ifvqdq0","pricing_plan_id":"cebpf4jnsgd1na2vs0mg"},{"bike_id":"b7df044c-a420-415e-b7b7-345aa8eb07fc","system_id":"levelo_inurba_marseille","lat":43.31829,"lon":5.38877,"is_reserved":false,"is_disabled":false,"rental_uris":{"android":"levelo://app?vid=b7df044c-a420-415e-b7b7-345aa8eb07fc","ios":"levelo://app?vid=b7df044c-a420-415e-b7b7-345aa8eb07fc"},"vehicle_type_id":"4","last_reported":1743102479,"current_range_meters":10000,"station_id":"","pricing_plan_id":"cebpf4jnsgd1na2vs0mg"},{"bike_id":"64f0ea86-1180-4755-95e1-3cbc9c8d4cf5","system_id":"levelo_inurba_marseille","lat":43.33012,"lon":5.43867,"is_reserved":false,"is_disabled":true,"rental_uris":{"android":"levelo://app?vid=64f0ea86-1180-4755-95e1-3cbc9c8d4cf5","ios":"levelo://app?vid=64f0ea86-1180-4755-95e1-3cbc9c8d4cf5"},"vehicle_type_id":"4","last_reported":1743102479,"current_range_meters":10000,"station_id":"","pricing_plan_id":"cebpf4jnsgd1na2vs0mg"},{"bike_id":"1ae62d9a-4f16-4807-b922-8e6390f4a79e","system_id":"levelo_inurba_marseille","lat":43.28097,"lon":5.37838,"is_reserved":false,"is_disabled":false,"rental_uris":{"android":"levelo://app?vid=1ae62d9a-4f16-4807-b922-8e6390f4a79e","ios":"levelo://app?vid=1ae62d9a-4f16-4807-b922-8e6390f4a79e"},"vehicle_type_id":"4","last_reported":1743102479,"current_range_meters":9600,"station_id":"ce4bha12rcd13ifvqee0","pricing_plan_id":"cebpf4jnsgd1na2vs0mg"},{"bike_id":"fc8e8371-f4e9-4721-bc19-563801e389dc","system_id":"levelo_inurba_marseille","lat":43.337444,"lon":5.374475,"is_reserved":false,"is_disabled":false,"rental_uris":{"android":"levelo://app?vid=fc8e8371-f4e9-4721-bc19-563801e389dc","ios":"levelo://app?vid=fc8e8371-f4e9-4721-bc19-563801e389dc"},"vehicle_type_id":"4","last_reported":1743102479,"current_range_meters":10000,"station_id":"","pricing_plan_id":"cebpf4jnsgd1na2vs0mg"},{"bike_id":"d8e5106e-0f8b-497b-8f5a-ad78d302abdd","system_id":"levelo_inurba_marseille","lat":43.28715,"lon":5.3793,"is_reserved":false,"is_disabled":false,"rental_uris":{"android":"levelo://app?vid=d8e5106e-0f8b-497b-8f5a-ad78d302abdd","ios":"levelo://app?vid=d8e5106e-0f8b-497b-8f5a-ad78d302abdd"},"vehicle_type_id":"4","last_reported":1743102479,"current_range_meters":10000,"station_id":"ce4bh9p2rcd13ifvqec0","pricing_plan_id":"cebpf4jnsgd1na2vs0mg"},{"bike_id":"30c43736-f289-495b-9928-258e85f701dc","system_id":"levelo_inurba_marseille","lat":43.29261,"lon":5.38442,"is_reserved":false,"is_disabled":false,"rental_uris":{"android":"levelo://app?vid=30c43736-f289-495b-9928-258e85f701dc","ios":"levelo://app?vid=30c43736-f289-495b-9928-258e85f701dc"},"vehicle_type_id":"4","last_reported":1743102479,"current_range_meters":10800,"station_id":"ce4bh692rcd13ifvqea0","pricing_plan_id":"cebpf4jnsgd1na2vs0mg"},{"bike_id":"40baecca-7f71-4e9a-a849-1c88ddb7a725","system_id":"levelo_inurba_marseille","lat":43.292457,"lon":5.374819,"is_reserved":false,"is_disabled":false,"rental_uris":{"android":"levelo://app?vid=40baecca-7f71-4e9a-a849-1c88ddb7a725","ios":"levelo://app?vid=40baecca-7f71-4e9a-a849-1c88ddb7a725"},"vehicle_type_id":"4","last_reported":1743102479,"current_range_meters":10000,"station_id":"ce4bha92rcd13ifvqeh0","pricing_plan_id":"cebpf4jnsgd1na2vs0mg"},{"bike_id":"ac6b01ff-d8e3-43e4-883d-09809db4d47d","system_id":"levelo_inurba_marseille","lat":43.30467,"lon":5.37901,"is_reserved":false,"is_disabled":false,"rental_uris":{"android":"levelo://app?vid=ac6b01ff-d8e3-43e4-883d-09809db4d47d","ios":"levelo://app?vid=ac6b01ff-d8e3-43e4-883d-09809db4d47d"},"vehicle_type_id":"4","last_reported":1743102479,"current_range_meters":10800,"station_id":"ce4bgup2rcd13ifvqcn0","pricing_plan_id":"cebpf4jnsgd1na2vs0mg"},{"bike_id":"25c93242-72e6-4525-aea7-7d96e2cd1825","system_id":"levelo_inurba_marseille","lat":43.33056,"lon":5.40853,"is_reserved":false,"is_disabled":false,"rental_uris":{"android":"levelo://app?vid=25c93242-72e6-4525-aea7-7d96e2cd1825","ios":"levelo://app?vid=25c93242-72e6-4525-aea7-7d96e2cd1825"},"vehicle_type_id":"4","last_reported":1743102479,"current_range_meters":10800,"station_id":"","pricing_plan_id":"cebpf4jnsgd1na2vs0mg"},{"bike_id":"ad9d84b9-0e06-41a2-95ce-5ebf7b3f52d7","system_id":"levelo_inurba_marseille","lat":43.2408,"lon":5.37756,"is_reserved":false,"is_disabled":false,"rental_uris":{"android":"levelo://app?vid=ad9d84b9-0e06-41a2-95ce-5ebf7b3f52d7","ios":"levelo://app?vid=ad9d84b9-0e06-41a2-95ce-5ebf7b3f52d7"},"vehicle_type_id":"4","last_reported":1743102479,"current_range_meters":10800,"station_id":"ce4bhnp2rcd13ifvqgvg","pricing_plan_id":"cebpf4jnsgd1na2vs0mg"},{"bike_id":"493ed960-51b6-4a4b-afdd-fb6490bf12ab","system_id":"levelo_inurba_marseille","lat":43.30136,"lon":5.38789,"is_reserved":false,"is_disabled":false,"rental_uris":{"android":"levelo://app?vid=493ed960-51b6-4a4b-afdd-fb6490bf12ab","ios":"levelo://app?vid=493ed960-51b6-4a4b-afdd-fb6490bf12ab"},"vehicle_type_id":"4","last_reported":1743102479,"current_range_meters":8800,"station_id":"ce4bghh2rcd13ifvqb60","pricing_plan_id":"cebpf4jnsgd1na2vs0mg"},{"bike_id":"2ac0ac09-74b6-4440-9483-27fa0eb262e7","system_id":"levelo_inurba_marseille","lat":43.2988,"lon":5.39753,"is_reserved":false,"is_disabled":false,"rental_uris":{"android":"levelo://app?vid=2ac0ac09-74b6-4440-9483-27fa0eb262e7","ios":"levelo://app?vid=2ac0ac09-74b6-4440-9483-27fa0eb262e7"},"vehicle_type_id":"4","last_reported":1743102479,"current_range_meters":10800,"station_id":"ce4bh0h2rcd13ifvqd50","pricing_plan_id":"cebpf4jnsgd1na2vs0mg"},{"bike_id":"2b4e7248-0a44-4a64-8c94-616a4783c994","system_id":"levelo_inurba_marseille","lat":43.25491,"lon":5.37651,"is_reserved":false,"is_disabled":false,"rental_uris":{"android":"levelo://app?vid=2b4e7248-0a44-4a64-8c94-616a4783c994","ios":"levelo://app?vid=2b4e7248-0a44-4a64-8c94-616a4783c994"},"vehicle_type_id":"4","last_reported":1743102479,"current_range_meters":10800,"station_id":"ce4bhh12rcd13ifvqff0","pricing_plan_id":"cebpf4jnsgd1na2vs0mg"},{"bike_id":"12b4f6d0-8eaf-4dbe-ad37-3af71b1a3b95","system_id":"levelo_inurba_marseille","lat":43.29429,"lon":5.39754,"is_reserved":false,"is_disabled":false,"rental_uris":{"android":"levelo://app?vid=12b4f6d0-8eaf-4dbe-ad37-3af71b1a3b95","ios":"levelo://app?vid=12b4f6d0-8eaf-4dbe-ad37-3af71b1a3b95"},"vehicle_type_id":"4","last_reported":1743102479,"current_range_meters":10000,"station_id":"ce4bh3h2rcd13ifvqdo0","pricing_plan_id":"cebpf4jnsgd1na2vs0mg"},{"bike_id":"19221227-42ec-4f4b-8f04-42a0818e22f5","system_id":"levelo_inurba_marseille","lat":43.32102,"lon":5.36781,"is_reserved":false,"is_disabled":false,"rental_uris":{"android":"levelo://app?vid=19221227-42ec-4f4b-8f04-42a0818e22f5","ios":"levelo://app?vid=19221227-42ec-4f4b-8f04-42a0818e22f5"},"vehicle_type_id":"4","last_reported":1743102479,"current_range_meters":10800,"station_id":"ce4bhrh2rcd13ifvqhug","pricing_plan_id":"cebpf4jnsgd1na2vs0mg"},{"bike_id":"c740a594-ebc8-4040-86e7-fd10ce66554c","system_id":"levelo_inurba_marseille","lat":43.260118,"lon":5.375307,"is_reserved":false,"is_disabled":false,"rental_uris":{"android":"levelo://app?vid=c740a594-ebc8-4040-86e7-fd10ce66554c","ios":"levelo://app?vid=c740a594-ebc8-4040-86e7-fd10ce66554c"},"vehicle_type_id":"4","last_reported":1743102479,"current_range_meters":10000,"station_id":"ce4bhih2rcd13ifvqfr0","pricing_plan_id":"cebpf4jnsgd1na2vs0mg"},{"bike_id":"bfa018d7-4766-430e-8a9d-9b17e9a65a71","system_id":"levelo_inurba_marseille","lat":43.25086,"lon":5.39486,"is_reserved":false,"is_disabled":false,"rental_uris":{"android":"levelo://app?vid=bfa018d7-4766-430e-8a9d-9b17e9a65a71","ios":"levelo://app?vid=bfa018d7-4766-430e-8a9d-9b17e9a65a71"},"vehicle_type_id":"4","last_reported":1743102479,"current_range_meters":10800,"station_id":"ce4bhm12rcd13ifvqgkg","pricing_plan_id":"cebpf4jnsgd1na2vs0mg"},{"bike_id":"877287c8-4444-429b-b230-b181fe1706ab","system_id":"levelo_inurba_marseille","lat":43.25582,"lon":5.38239,"is_reserved":false,"is_disabled":false,"rental_uris":{"android":"levelo://app?vid=877287c8-4444-429b-b230-b181fe1706ab","ios":"levelo://app?vid=877287c8-4444-429b-b230-b181fe1706ab"},"vehicle_type_id":"4","last_reported":1743102479,"current_range_meters":10800,"station_id":"ce4bhih2rcd13ifvqfs0","pricing_plan_id":"cebpf4jnsgd1na2vs0mg"},{"bike_id":"f00e0bf1-e77c-4752-8f1b-63a2e565cf51","system_id":"levelo_inurba_marseille","lat":43.27981,"lon":5.38698,"is_reserved":false,"is_disabled":true,"rental_uris":{"android":"levelo://app?vid=f00e0bf1-e77c-4752-8f1b-63a2e565cf51","ios":"levelo://app?vid=f00e0bf1-e77c-4752-8f1b-63a2e565cf51"},"vehicle_type_id":"4","last_reported":1743102479,"current_range_meters":11200,"station_id":"ce4bhg12rcd13ifvqf80","pricing_plan_id":"cebpf4jnsgd1na2vs0mg"},{"bike_id":"b6277294-9c97-4bd2-bb72-519bd900d431","system_id":"levelo_inurba_marseille","lat":43.29296,"lon":5.37457,"is_reserved":false,"is_disabled":true,"rental_uris":{"android":"levelo://app?vid=b6277294-9c97-4bd2-bb72-519bd900d431","ios":"levelo://app?vid=b6277294-9c97-4bd2-bb72-519bd900d431"},"vehicle_type_id":"4","last_reported":1743102479,"current_range_meters":11200,"station_id":"ce4bgi12rcd13ifvqb70","pricing_plan_id":"cebpf4jnsgd1na2vs0mg"},{"bike_id":"3d93dd2b-4ede-4a6f-8921-a62a408379a7","system_id":"levelo_inurba_marseille","lat":43.295332,"lon":5.385363,"is_reserved":false,"is_disabled":false,"rental_uris":{"android":"levelo://app?vid=3d93dd2b-4ede-4a6f-8921-a62a408379a7","ios":"levelo://app?vid=3d93dd2b-4ede-4a6f-8921-a62a408379a7"},"vehicle_type_id":"4","last_reported":1743102479,"current_range_meters":8400,"station_id":"ce4bgih2rcd13ifvqba0","pricing_plan_id":"cebpf4jnsgd1na2vs0mg"},{"bike_id":"3b8c2c21-ab14-4a13-89ac-c6a40622bc10","system_id":"levelo_inurba_marseille","lat":43.29537,"lon":5.38533,"is_reserved":false,"is_disabled":false,"rental_uris":{"android":"levelo://app?vid=3b8c2c21-ab14-4a13-89ac-c6a40622bc10","ios":"levelo://app?vid=3b8c2c21-ab14-4a13-89ac-c6a40622bc10"},"vehicle_type_id":"4","last_reported":1743102479,"current_range_meters":10800,"station_id":"ce4bgih2rcd13ifvqba0","pricing_plan_id":"cebpf4jnsgd1na2vs0mg"},{"bike_id":"801896e7-755d-43a7-83a6-45b2fcb1c518","system_id":"levelo_inurba_marseille","lat":43.30356,"lon":5.41878,"is_reserved":false,"is_disabled":false,"rental_uris":{"android":"levelo://app?vid=801896e7-755d-43a7-83a6-45b2fcb1c518","ios":"levelo://app?vid=801896e7-755d-43a7-83a6-45b2fcb1c518"},"vehicle_type_id":"4","last_reported":1743102479,"current_range_meters":11200,"station_id":"ce4bhop2rcd13ifvqh7g","pricing_plan_id":"cebpf4jnsgd1na2vs0mg"},{"bike_id":"055d2798-a951-4bc4-baa2-3703fe7efac9","system_id":"levelo_inurba_marseille","lat":43.30423,"lon":5.39748,"is_reserved":false,"is_disabled":false,"rental_uris":{"android":"levelo://app?vid=055d2798-a951-4bc4-baa2-3703fe7efac9","ios":"levelo://app?vid=055d2798-a951-4bc4-baa2-3703fe7efac9"},"vehicle_type_id":"4","last_reported":1743102479,"current_range_meters":11200,"station_id":"ce4bh092rcd13ifvqd20","pricing_plan_id":"cebpf4jnsgd1na2vs0mg"},{"bike_id":"8bd09c01-b502-40f2-b040-4542472dec65","system_id":"levelo_inurba_marseille","lat":43.33021,"lon":5.39051,"is_reserved":false,"is_disabled":false,"rental_uris":{"android":"levelo://app?vid=8bd09c01-b502-40f2-b040-4542472dec65","ios":"levelo://app?vid=8bd09c01-b502-40f2-b040-4542472dec65"},"vehicle_type_id":"4","last_reported":1743102479,"current_range_meters":11200,"station_id":"ce4bhr92rcd13ifvqhrg","pricing_plan_id":"cebpf4jnsgd1na2vs0mg"},{"bike_id":"11cb49bf-37c4-40a2-8859-7646c0dddb51","system_id":"levelo_inurba_marseille","lat":43.27797,"lon":5.40741,"is_reserved":false,"is_disabled":false,"rental_uris":{"android":"levelo://app?vid=11cb49bf-37c4-40a2-8859-7646c0dddb51","ios":"levelo://app?vid=11cb49bf-37c4-40a2-8859-7646c0dddb51"},"vehicle_type_id":"4","last_reported":1743102479,"current_range_meters":11200,"station_id":"ce4bhnh2rcd13ifvqgtg","pricing_plan_id":"cebpf4jnsgd1na2vs0mg"},{"bike_id":"ec9f3f3c-1715-4f7f-94cf-b91bb5036f2a","system_id":"levelo_inurba_marseille","lat":43.28555,"lon":5.395,"is_reserved":false,"is_disabled":false,"rental_uris":{"android":"levelo://app?vid=ec9f3f3c-1715-4f7f-94cf-b91bb5036f2a","ios":"levelo://app?vid=ec9f3f3c-1715-4f7f-94cf-b91bb5036f2a"},"vehicle_type_id":"4","last_reported":1743102479,"current_range_meters":11600,"station_id":"ce4bh292rcd13ifvqdg0","pricing_plan_id":"cebpf4jnsgd1na2vs0mg"},{"bike_id":"8b79708b-1f3f-4502-80bb-ad0514a8f370","system_id":"levelo_inurba_marseille","lat":43.29273,"lon":5.36799,"is_reserved":false,"is_disabled":false,"rental_uris":{"android":"levelo://app?vid=8b79708b-1f3f-4502-80bb-ad0514a8f370","ios":"levelo://app?vid=8b79708b-1f3f-4502-80bb-ad0514a8f370"},"vehicle_type_id":"4","last_reported":1743102479,"current_range_meters":11600,"station_id":"ce4bhbp2rcd13ifvqesg","pricing_plan_id":"cebpf4jnsgd1na2vs0mg"},{"bike_id":"5d601291-20bf-4f2d-b9a8-f968bc04b9fb","system_id":"levelo_inurba_marseille","lat":43.29261,"lon":5.38466,"is_reserved":false,"is_disabled":false,"rental_uris":{"android":"levelo://app?vid=5d601291-20bf-4f2d-b9a8-f968bc04b9fb","ios":"levelo://app?vid=5d601291-20bf-4f2d-b9a8-f968bc04b9fb"},"vehicle_type_id":"4","last_reported":1743102479,"current_range_meters":11600,"station_id":"ce4bh692rcd13ifvqea0","pricing_plan_id":"cebpf4jnsgd1na2vs0mg"},{"bike_id":"e39f0277-8842-447f-8838-fb2880aa78ea","system_id":"levelo_inurba_marseille","lat":43.28954,"lon":5.36642,"is_reserved":false,"is_disabled":false,"rental_uris":{"android":"levelo://app?vid=e39f0277-8842-447f-8838-fb2880aa78ea","ios":"levelo://app?vid=e39f0277-8842-447f-8838-fb2880aa78ea"},"vehicle_type_id":"4","last_reported":1743102479,"current_range_meters":11600,"station_id":"ce4bhap2rcd13ifvqek0","pricing_plan_id":"cebpf4jnsgd1na2vs0mg"},{"bike_id":"4605e24d-65b2-4424-9d4d-b88f889f4b8e","system_id":"levelo_inurba_marseille","lat":43.28113,"lon":5.3985,"is_reserved":false,"is_disabled":false,"rental_uris":{"android":"levelo://app?vid=4605e24d-65b2-4424-9d4d-b88f889f4b8e","ios":"levelo://app?vid=4605e24d-65b2-4424-9d4d-b88f889f4b8e"},"vehicle_type_id":"4","last_reported":1743102479,"current_range_meters":11600,"station_id":"","pricing_plan_id":"cebpf4jnsgd1na2vs0mg"},{"bike_id":"770d2bad-9fe9-46bf-971e-3505fa68cd43","system_id":"levelo_inurba_marseille","lat":43.2962,"lon":5.37719,"is_reserved":false,"is_disabled":false,"rental_uris":{"android":"levelo://app?vid=770d2bad-9fe9-46bf-971e-3505fa68cd43","ios":"levelo://app?vid=770d2bad-9fe9-46bf-971e-3505fa68cd43"},"vehicle_type_id":"4","last_reported":1743102479,"current_range_meters":12000,"station_id":"ce4bgi92rcd13ifvqb90","pricing_plan_id":"cebpf4jnsgd1na2vs0mg"},{"bike_id":"cfed900d-e17f-46a7-9847-c8d921508ac3","system_id":"levelo_inurba_marseille","lat":43.23979,"lon":5.36669,"is_reserved":false,"is_disabled":false,"rental_uris":{"android":"levelo://app?vid=cfed900d-e17f-46a7-9847-c8d921508ac3","ios":"levelo://app?vid=cfed900d-e17f-46a7-9847-c8d921508ac3"},"vehicle_type_id":"4","last_reported":1743102479,"current_range_meters":12000,"station_id":"ce4bhi12rcd13ifvqfp0","pricing_plan_id":"cebpf4jnsgd1na2vs0mg"},{"bike_id":"43755508-d749-4486-8a1e-5a5d17746472","system_id":"levelo_inurba_marseille","lat":43.29542,"lon":5.38543,"is_reserved":false,"is_disabled":false,"rental_uris":{"android":"levelo://app?vid=43755508-d749-4486-8a1e-5a5d17746472","ios":"levelo://app?vid=43755508-d749-4486-8a1e-5a5d17746472"},"vehicle_type_id":"4","last_reported":1743102479,"current_range_meters":11600,"station_id":"ce4bgih2rcd13ifvqba0","pricing_plan_id":"cebpf4jnsgd1na2vs0mg"},{"bike_id":"bace94df-f984-41cd-8a13-27dd2f78441c","system_id":"levelo_inurba_marseille","lat":43.30093,"lon":5.39102,"is_reserved":false,"is_disabled":false,"rental_uris":{"android":"levelo://app?vid=bace94df-f984-41cd-8a13-27dd2f78441c","ios":"levelo://app?vid=bace94df-f984-41cd-8a13-27dd2f78441c"},"vehicle_type_id":"4","last_reported":1743102479,"current_range_meters":12000,"station_id":"ce4bh192rcd13ifvqdb0","pricing_plan_id":"cebpf4jnsgd1na2vs0mg"},{"bike_id":"d75f9f5e-4772-4de2-8f78-058b650907ab","system_id":"levelo_inurba_marseille","lat":43.24167,"lon":5.36407,"is_reserved":false,"is_disabled":false,"rental_uris":{"android":"levelo://app?vid=d75f9f5e-4772-4de2-8f78-058b650907ab","ios":"levelo://app?vid=d75f9f5e-4772-4de2-8f78-058b650907ab"},"vehicle_type_id":"4","last_reported":1743102479,"current_range_meters":12000,"station_id":"cpo36qri1sfpv3e86is0","pricing_plan_id":"cebpf4jnsgd1na2vs0mg"},{"bike_id":"da713271-d56d-4139-9bff-e3eba7007ff1","system_id":"levelo_inurba_marseille","lat":43.294,"lon":5.37859,"is_reserved":false,"is_disabled":false,"rental_uris":{"android":"levelo://app?vid=da713271-d56d-4139-9bff-e3eba7007ff1","ios":"levelo://app?vid=da713271-d56d-4139-9bff-e3eba7007ff1"},"vehicle_type_id":"4","last_reported":1743102479,"current_range_meters":16800,"station_id":"ce4bgjh2rcd13ifvqbf0","pricing_plan_id":"cebpf4jnsgd1na2vs0mg"},{"bike_id":"5344531c-d52c-4b2a-b69c-a50e5172a9ed","system_id":"levelo_inurba_marseille","lat":43.292587,"lon":5.384403,"is_reserved":false,"is_disabled":false,"rental_uris":{"android":"levelo://app?vid=5344531c-d52c-4b2a-b69c-a50e5172a9ed","ios":"levelo://app?vid=5344531c-d52c-4b2a-b69c-a50e5172a9ed"},"vehicle_type_id":"4","last_reported":1743102479,"current_range_meters":12000,"station_id":"ce4bh5p2rcd13ifvqe4g","pricing_plan_id":"cebpf4jnsgd1na2vs0mg"},{"bike_id":"d3a49b6f-1be9-45d4-9c1a-d2101bad0879","system_id":"levelo_inurba_marseille","lat":43.302502,"lon":5.400781,"is_reserved":false,"is_disabled":false,"rental_uris":{"android":"levelo://app?vid=d3a49b6f-1be9-45d4-9c1a-d2101bad0879","ios":"levelo://app?vid=d3a49b6f-1be9-45d4-9c1a-d2101bad0879"},"vehicle_type_id":"4","last_reported":1743102479,"current_range_meters":12000,"station_id":"ce4bgvh2rcd13ifvqcs0","pricing_plan_id":"cebpf4jnsgd1na2vs0mg"},{"bike_id":"e47e54c8-6be1-432c-bd25-436758a3e361","system_id":"levelo_inurba_marseille","lat":43.28928,"lon":5.3641,"is_reserved":false,"is_disabled":false,"rental_uris":{"android":"levelo://app?vid=e47e54c8-6be1-432c-bd25-436758a3e361","ios":"levelo://app?vid=e47e54c8-6be1-432c-bd25-436758a3e361"},"vehicle_type_id":"4","last_reported":1743102479,"current_range_meters":12400,"station_id":"ce4bhc92rcd13ifvqetg","pricing_plan_id":"cebpf4jnsgd1na2vs0mg"},{"bike_id":"a40de006-f795-4ead-badf-4ce44f342814","system_id":"levelo_inurba_marseille","lat":43.266768,"lon":5.394442,"is_reserved":false,"is_disabled":false,"rental_uris":{"android":"levelo://app?vid=a40de006-f795-4ead-badf-4ce44f342814","ios":"levelo://app?vid=a40de006-f795-4ead-badf-4ce44f342814"},"vehicle_type_id":"4","last_reported":1743102479,"current_range_meters":12400,"station_id":"ce4bhi12rcd13ifvqfo0","pricing_plan_id":"cebpf4jnsgd1na2vs0mg"},{"bike_id":"4a42ca1e-41e4-4233-a4bb-a180f04564d6","system_id":"levelo_inurba_marseille","lat":43.29163,"lon":5.37161,"is_reserved":false,"is_disabled":true,"rental_uris":{"android":"levelo://app?vid=4a42ca1e-41e4-4233-a4bb-a180f04564d6","ios":"levelo://app?vid=4a42ca1e-41e4-4233-a4bb-a180f04564d6"},