{"last_updated":1739549463,"ttl":60,"version":"2.2","data":{"bikes":[{"bike_id":"42cb7cfd-ce68-4533-b3ad-5f7ba4706787","system_id":"levelo_inurba_marseille","lat":43.3033,"lon":5.40439,"is_reserved":false,"is_disabled":false,"rental_uris":{"android":"levelo://app?vid=42cb7cfd-ce68-4533-b3ad-5f7ba4706787","ios":"levelo://app?vid=42cb7cfd-ce68-4533-b3ad-5f7ba4706787"},"vehicle_type_id":"4","last_reported":1739549463,"current_range_meters":32400,"station_id":"ce4bh012rcd13ifvqd10","pricing_plan_id":"cebpf4jnsgd1na2vs0mg"},{"bike_id":"949af87f-7e3c-4d66-a1f0-5f63abc4d26d","system_id":"levelo_inurba_marseille","lat":43.27824,"lon":5.4072,"is_reserved":false,"is_disabled":false,"rental_uris":{"android":"levelo://app?vid=949af87f-7e3c-4d66-a1f0-5f63abc4d26d","ios":"levelo://app?vid=949af87f-7e3c-4d66-a1f0-5f63abc4d26d"},"vehicle_type_id":"4","last_reported":1739549463,"current_range_meters":31200,"station_id":"ce4bhnh2rcd13ifvqgtg","pricing_plan_id":"cebpf4jnsgd1na2vs0mg"},{"bike_id":"1775dc38-fd4e-488d-a7a5-ad325dc3db22","system_id":"levelo_inurba_marseille","lat":43.28448,"lon":5.39208,"is_reserved":false,"is_disabled":false,"rental_uris":{"android":"levelo://app?vid=1775dc38-fd4e-488d-a7a5-ad325dc3db22","ios":"levelo://app?vid=1775dc38-fd4e-488d-a7a5-ad325dc3db22"},"vehicle_type_id":"4","last_reported":1739549463,"current_range_meters":32000,"station_id":"ce4bhoh2rcd13ifvqh5g","pricing_plan_id":"cebpf4jnsgd1na2vs0mg"},{"bike_id":"719a875a-0651-4af4-9cdb-36248ea3b24a","system_id":"levelo_inurba_marseille","lat":43.28287,"lon":5.39062,"is_reserved":false,"is_disabled":false,"rental_uris":{"android":"levelo://app?vid=719a875a-0651-4af4-9cdb-36248ea3b24a","ios":"levelo://app?vid=719a875a-0651-4af4-9cdb-36248ea3b24a"},"vehicle_type_id":"4","last_reported":1739549463,"current_range_meters":16400,"station_id":"","pricing_plan_id":"cebpf4jnsgd1na2vs0mg"},{"bike_id":"31402c44-a856-4ec1-ba72-b301caa97538","system_id":"levelo_inurba_marseille","lat":43.30257,"lon":5.40069,"is_reserved":false,"is_disabled":false,"rental_uris":{"android":"levelo://app?vid=31402c44-a856-4ec1-ba72-b301caa97538","ios":"levelo://app?vid=31402c44-a856-4ec1-ba72-b301caa97538"},"vehicle_type_id":"4","last_reported":1739549463,"current_range_meters":38800,"station_id":"ce4bgvh2rcd13ifvqcs0","pricing_plan_id":"cebpf4jnsgd1na2vs0mg"},{"bike_id":"aeeb603c-9e21-471f-a3b4-471a46d5c228","system_id":"levelo_inurba_marseille","lat":43.24172,"lon":5.36395,"is_reserved":false,"is_disabled":false,"rental_uris":{"android":"levelo://app?vid=aeeb603c-9e21-471f-a3b4-471a46d5c228","ios":"levelo://app?vid=aeeb603c-9e21-471f-a3b4-471a46d5c228"},"vehicle_type_id":"4","last_reported":1739549463,"current_range_meters":21600,"station_id":"cpo36qri1sfpv3e86is0","pricing_plan_id":"cebpf4jnsgd1na2vs0mg"},{"bike_id":"1d4165b9-e8af-42e7-8e88-54a0f84b4f26","system_id":"levelo_inurba_marseille","lat":43.2319,"lon":5.39972,"is_reserved":false,"is_disabled":false,"rental_uris":{"android":"levelo://app?vid=1d4165b9-e8af-42e7-8e88-54a0f84b4f26","ios":"levelo://app?vid=1d4165b9-e8af-42e7-8e88-54a0f84b4f26"},"vehicle_type_id":"4","last_reported":1739549463,"current_range_meters":29600,"station_id":"ce4bhn12rcd13ifvqgqg","pricing_plan_id":"cebpf4jnsgd1na2vs0mg"},{"bike_id":"c1e76274-801b-4893-b793-e635178d8b86","system_id":"levelo_inurba_marseille","lat":43.23959,"lon":5.36638,"is_reserved":false,"is_disabled":true,"rental_uris":{"android":"levelo://app?vid=c1e76274-801b-4893-b793-e635178d8b86","ios":"levelo://app?vid=c1e76274-801b-4893-b793-e635178d8b86"},"vehicle_type_id":"4","last_reported":1739549463,"current_range_meters":400,"station_id":"ce4bhi12rcd13ifvqfp0","pricing_plan_id":"cebpf4jnsgd1na2vs0mg"},{"bike_id":"ae878cc4-84be-4f66-b7f1-72c49f520e78","system_id":"levelo_inurba_marseille","lat":43.29362,"lon":5.37835,"is_reserved":false,"is_disabled":false,"rental_uris":{"android":"levelo://app?vid=ae878cc4-84be-4f66-b7f1-72c49f520e78","ios":"levelo://app?vid=ae878cc4-84be-4f66-b7f1-72c49f520e78"},"vehicle_type_id":"4","last_reported":1739549463,"current_range_meters":32800,"station_id":"ce4bgjh2rcd13ifvqbf0","pricing_plan_id":"cebpf4jnsgd1na2vs0mg"},{"bike_id":"3d55dfbc-79dc-4a16-8c46-cf49fec8982e","system_id":"levelo_inurba_marseille","lat":43.24395,"lon":5.370604,"is_reserved":false,"is_disabled":false,"rental_uris":{"android":"levelo://app?vid=3d55dfbc-79dc-4a16-8c46-cf49fec8982e","ios":"levelo://app?vid=3d55dfbc-79dc-4a16-8c46-cf49fec8982e"},"vehicle_type_id":"4","last_reported":1739549463,"current_range_meters":38800,"station_id":"ce4bhhh2rcd13ifvqfk0","pricing_plan_id":"cebpf4jnsgd1na2vs0mg"},{"bike_id":"3014b1d8-517c-4cb4-a431-215e5921ec5f","system_id":"levelo_inurba_marseille","lat":43.31168,"lon":5.38681,"is_reserved":false,"is_disabled":false,"rental_uris":{"android":"levelo://app?vid=3014b1d8-517c-4cb4-a431-215e5921ec5f","ios":"levelo://app?vid=3014b1d8-517c-4cb4-a431-215e5921ec5f"},"vehicle_type_id":"4","last_reported":1739549463,"current_range_meters":30400,"station_id":"ce4bgv12rcd13ifvqcp0","pricing_plan_id":"cebpf4jnsgd1na2vs0mg"},{"bike_id":"349fcca2-b4b9-44d0-b771-f5d68cf28027","system_id":"levelo_inurba_marseille","lat":43.29278,"lon":5.40151,"is_reserved":false,"is_disabled":false,"rental_uris":{"android":"levelo://app?vid=349fcca2-b4b9-44d0-b771-f5d68cf28027","ios":"levelo://app?vid=349fcca2-b4b9-44d0-b771-f5d68cf28027"},"vehicle_type_id":"4","last_reported":1739549463,"current_range_meters":25600,"station_id":"ce4bh312rcd13ifvqdk0","pricing_plan_id":"cebpf4jnsgd1na2vs0mg"},{"bike_id":"c74f8124-73dc-4bd8-a98e-9fa42c510bc4","system_id":"levelo_inurba_marseille","lat":43.23182,"lon":5.39972,"is_reserved":false,"is_disabled":false,"rental_uris":{"android":"levelo://app?vid=c74f8124-73dc-4bd8-a98e-9fa42c510bc4","ios":"levelo://app?vid=c74f8124-73dc-4bd8-a98e-9fa42c510bc4"},"vehicle_type_id":"4","last_reported":1739549463,"current_range_meters":28400,"station_id":"ce4bhn12rcd13ifvqgqg","pricing_plan_id":"cebpf4jnsgd1na2vs0mg"},{"bike_id":"eace11fc-366d-49db-ab9f-2f957d528477","system_id":"levelo_inurba_marseille","lat":43.2552,"lon":5.37668,"is_reserved":false,"is_disabled":false,"rental_uris":{"android":"levelo://app?vid=eace11fc-366d-49db-ab9f-2f957d528477","ios":"levelo://app?vid=eace11fc-366d-49db-ab9f-2f957d528477"},"vehicle_type_id":"4","last_reported":1739549463,"current_range_meters":38000,"station_id":"ce4bhh12rcd13ifvqff0","pricing_plan_id":"cebpf4jnsgd1na2vs0mg"},{"bike_id":"60ef2678-6237-43ff-ad02-ce6e36bb2237","system_id":"levelo_inurba_marseille","lat":43.28701,"lon":5.39995,"is_reserved":false,"is_disabled":false,"rental_uris":{"android":"levelo://app?vid=60ef2678-6237-43ff-ad02-ce6e36bb2237","ios":"levelo://app?vid=60ef2678-6237-43ff-ad02-ce6e36bb2237"},"vehicle_type_id":"4","last_reported":1739549463,"current_range_meters":24000,"station_id":"ce4bho92rcd13ifvqh3g","pricing_plan_id":"cebpf4jnsgd1na2vs0mg"},{"bike_id":"5d2484e8-d08f-4bba-ae77-36cb31e97e9b","system_id":"levelo_inurba_marseille","lat":43.29541,"lon":5.42323,"is_reserved":false,"is_disabled":false,"rental_uris":{"android":"levelo://app?vid=5d2484e8-d08f-4bba-ae77-36cb31e97e9b","ios":"levelo://app?vid=5d2484e8-d08f-4bba-ae77-36cb31e97e9b"},"vehicle_type_id":"4","last_reported":1739549463,"current_range_meters":29600,"station_id":"ce4bhph2rcd13ifvqhdg","pricing_plan_id":"cebpf4jnsgd1na2vs0mg"},{"bike_id":"6b42f4f1-2360-420a-81a5-fa8f868ac30d","system_id":"levelo_inurba_marseille","lat":43.271775,"lon":5.390224,"is_reserved":false,"is_disabled":false,"rental_uris":{"android":"levelo://app?vid=6b42f4f1-2360-420a-81a5-fa8f868ac30d","ios":"levelo://app?vid=6b42f4f1-2360-420a-81a5-fa8f868ac30d"},"vehicle_type_id":"4","last_reported":1739549463,"current_range_meters":36800,"station_id":"","pricing_plan_id":"cebpf4jnsgd1na2vs0mg"},{"bike_id":"c3fc4d9c-9722-4fad-8d64-356a520f9340","system_id":"levelo_inurba_marseille","lat":43.30098,"lon":5.39083,"is_reserved":false,"is_disabled":false,"rental_uris":{"android":"levelo://app?vid=c3fc4d9c-9722-4fad-8d64-356a520f9340","ios":"levelo://app?vid=c3fc4d9c-9722-4fad-8d64-356a520f9340"},"vehicle_type_id":"4","last_reported":1739549463,"current_range_meters":36800,"station_id":"ce4bh192rcd13ifvqdb0","pricing_plan_id":"cebpf4jnsgd1na2vs0mg"},{"bike_id":"90eef825-4468-4024-ba81-7968196c1088","system_id":"levelo_inurba_marseille","lat":43.29611,"lon":5.38102,"is_reserved":false,"is_disabled":false,"rental_uris":{"android":"levelo://app?vid=90eef825-4468-4024-ba81-7968196c1088","ios":"levelo://app?vid=90eef825-4468-4024-ba81-7968196c1088"},"vehicle_type_id":"4","last_reported":1739549463,"current_range_meters":38000,"station_id":"ce4bgl12rcd13ifvqbo0","pricing_plan_id":"cebpf4jnsgd1na2vs0mg"},{"bike_id":"2455ebca-301f-4704-81a2-11436a5e45c7","system_id":"levelo_inurba_marseille","lat":43.30134,"lon":5.39859,"is_reserved":false,"is_disabled":false,"rental_uris":{"android":"levelo://app?vid=2455ebca-301f-4704-81a2-11436a5e45c7","ios":"levelo://app?vid=2455ebca-301f-4704-81a2-11436a5e45c7"},"vehicle_type_id":"4","last_reported":1739549463,"current_range_meters":28400,"station_id":"ce4bh0h2rcd13ifvqd40","pricing_plan_id":"cebpf4jnsgd1na2vs0mg"},{"bike_id":"b34c6303-752a-46a1-93ad-ddbc991e20b6","system_id":"levelo_inurba_marseille","lat":43.23056,"lon":5.35495,"is_reserved":false,"is_disabled":false,"rental_uris":{"android":"levelo://app?vid=b34c6303-752a-46a1-93ad-ddbc991e20b6","ios":"levelo://app?vid=b34c6303-752a-46a1-93ad-ddbc991e20b6"},"vehicle_type_id":"4","last_reported":1739549463,"current_range_meters":38800,"station_id":"cpo3342slgdg3j2ifvpg","pricing_plan_id":"cebpf4jnsgd1na2vs0mg"},{"bike_id":"a6d22002-9977-46ab-96b3-9865bfd1ef0e","system_id":"levelo_inurba_marseille","lat":43.32486,"lon":5.36548,"is_reserved":false,"is_disabled":false,"rental_uris":{"android":"levelo://app?vid=a6d22002-9977-46ab-96b3-9865bfd1ef0e","ios":"levelo://app?vid=a6d22002-9977-46ab-96b3-9865bfd1ef0e"},"vehicle_type_id":"4","last_reported":1739549463,"current_range_meters":39200,"station_id":"ce4bhs12rcd13ifvqhvg","pricing_plan_id":"cebpf4jnsgd1na2vs0mg"},{"bike_id":"1300f95a-15ad-4299-a221-177495e93e42","system_id":"levelo_inurba_marseille","lat":43.32688,"lon":5.40939,"is_reserved":false,"is_disabled":false,"rental_uris":{"android":"levelo://app?vid=1300f95a-15ad-4299-a221-177495e93e42","ios":"levelo://app?vid=1300f95a-15ad-4299-a221-177495e93e42"},"vehicle_type_id":"4","last_reported":1739549463,"current_range_meters":26000,"station_id":"","pricing_plan_id":"cebpf4jnsgd1na2vs0mg"},{"bike_id":"59234d21-556f-417c-805c-86ab04d4b499","system_id":"levelo_inurba_marseille","lat":43.29251,"lon":5.38433,"is_reserved":false,"is_disabled":false,"rental_uris":{"android":"levelo://app?vid=59234d21-556f-417c-805c-86ab04d4b499","ios":"levelo://app?vid=59234d21-556f-417c-805c-86ab04d4b499"},"vehicle_type_id":"4","last_reported":1739549463,"current_range_meters":37600,"station_id":"ce4bh692rcd13ifvqea0","pricing_plan_id":"cebpf4jnsgd1na2vs0mg"},{"bike_id":"db0c59a5-e36c-460d-a199-b553cfb8a418","system_id":"levelo_inurba_marseille","lat":43.28364,"lon":5.42965,"is_reserved":false,"is_disabled":false,"rental_uris":{"android":"levelo://app?vid=db0c59a5-e36c-460d-a199-b553cfb8a418","ios":"levelo://app?vid=db0c59a5-e36c-460d-a199-b553cfb8a418"},"vehicle_type_id":"4","last_reported":1739549463,"current_range_meters":25200,"station_id":"","pricing_plan_id":"cebpf4jnsgd1na2vs0mg"},{"bike_id":"5b94872e-e8e0-48b1-a4f8-764a45f452f2","system_id":"levelo_inurba_marseille","lat":43.3054,"lon":5.36699,"is_reserved":false,"is_disabled":false,"rental_uris":{"android":"levelo://app?vid=5b94872e-e8e0-48b1-a4f8-764a45f452f2","ios":"levelo://app?vid=5b94872e-e8e0-48b1-a4f8-764a45f452f2"},"vehicle_type_id":"4","last_reported":1739549463,"current_range_meters":39200,"station_id":"ce4bgrp2rcd13ifvqc9g","pricing_plan_id":"cebpf4jnsgd1na2vs0mg"},{"bike_id":"13d45840-bdf4-4efb-a611-c14ecf6efd0a","system_id":"levelo_inurba_marseille","lat":43.29876,"lon":5.36301,"is_reserved":false,"is_disabled":false,"rental_uris":{"android":"levelo://app?vid=13d45840-bdf4-4efb-a611-c14ecf6efd0a","ios":"levelo://app?vid=13d45840-bdf4-4efb-a611-c14ecf6efd0a"},"vehicle_type_id":"4","last_reported":1739549463,"current_range_meters":37600,"station_id":"ce4bgpp2rcd13ifvqc3g","pricing_plan_id":"cebpf4jnsgd1na2vs0mg"},{"bike_id":"f1c49cdb-c423-415c-badc-8e4cfb5c6b43","system_id":"levelo_inurba_marseille","lat":43.32646,"lon":5.41032,"is_reserved":false,"is_disabled":false,"rental_uris":{"android":"levelo://app?vid=f1c49cdb-c423-415c-badc-8e4cfb5c6b43","ios":"levelo://app?vid=f1c49cdb-c423-415c-badc-8e4cfb5c6b43"},"vehicle_type_id":"4","last_reported":1739549463,"current_range_meters":38000,"station_id":"","pricing_plan_id":"cebpf4jnsgd1na2vs0mg"},{"bike_id":"77199d23-32e6-4212-95ff-7ee9972b2938","system_id":"levelo_inurba_marseille","lat":43.26691,"lon":5.38279,"is_reserved":false,"is_disabled":false,"rental_uris":{"android":"levelo://app?vid=77199d23-32e6-4212-95ff-7ee9972b2938","ios":"levelo://app?vid=77199d23-32e6-4212-95ff-7ee9972b2938"},"vehicle_type_id":"4","last_reported":1739549463,"current_range_meters":6400,"station_id":"ce4bhg92rcd13ifvqf90","pricing_plan_id":"cebpf4jnsgd1na2vs0mg"},{"bike_id":"6c5f8bac-9064-49ce-8085-8d6dda9607b2","system_id":"levelo_inurba_marseille","lat":43.30542,"lon":5.36543,"is_reserved":false,"is_disabled":false,"rental_uris":{"android":"levelo://app?vid=6c5f8bac-9064-49ce-8085-8d6dda9607b2","ios":"levelo://app?vid=6c5f8bac-9064-49ce-8085-8d6dda9607b2"},"vehicle_type_id":"4","last_reported":1739549463,"current_range_meters":36000,"station_id":"ce4bgs12rcd13ifvqcag","pricing_plan_id":"cebpf4jnsgd1na2vs0mg"},{"bike_id":"d2909a59-c06a-44b6-9282-6325832d7f18","system_id":"levelo_inurba_marseille","lat":43.24652,"lon":5.3891,"is_reserved":false,"is_disabled":false,"rental_uris":{"android":"levelo://app?vid=d2909a59-c06a-44b6-9282-6325832d7f18","ios":"levelo://app?vid=d2909a59-c06a-44b6-9282-6325832d7f18"},"vehicle_type_id":"4","last_reported":1739549463,"current_range_meters":38800,"station_id":"ce4bhg12rcd13ifvqf60","pricing_plan_id":"cebpf4jnsgd1na2vs0mg"},{"bike_id":"bc34f0ab-aa1a-4d0c-b6d5-f17c6255055b","system_id":"levelo_inurba_marseille","lat":43.30933,"lon":5.40155,"is_reserved":false,"is_disabled":false,"rental_uris":{"android":"levelo://app?vid=bc34f0ab-aa1a-4d0c-b6d5-f17c6255055b","ios":"levelo://app?vid=bc34f0ab-aa1a-4d0c-b6d5-f17c6255055b"},"vehicle_type_id":"4","last_reported":1739549463,"current_range_meters":38800,"station_id":"ce4bgvp2rcd13ifvqct0","pricing_plan_id":"cebpf4jnsgd1na2vs0mg"},{"bike_id":"0e3979f1-113c-4095-bea8-cb1598997dcf","system_id":"levelo_inurba_marseille","lat":43.29843,"lon":5.36274,"is_reserved":false,"is_disabled":false,"rental_uris":{"android":"levelo://app?vid=0e3979f1-113c-4095-bea8-cb1598997dcf","ios":"levelo://app?vid=0e3979f1-113c-4095-bea8-cb1598997dcf"},"vehicle_type_id":"4","last_reported":1739549463,"current_range_meters":26000,"station_id":"ce4bgpp2rcd13ifvqc3g","pricing_plan_id":"cebpf4jnsgd1na2vs0mg"},{"bike_id":"bb4f5597-3059-4c0a-8aeb-b1c2d59ac7c2","system_id":"levelo_inurba_marseille","lat":43.30915,"lon":5.40171,"is_reserved":false,"is_disabled":false,"rental_uris":{"android":"levelo://app?vid=bb4f5597-3059-4c0a-8aeb-b1c2d59ac7c2","ios":"levelo://app?vid=bb4f5597-3059-4c0a-8aeb-b1c2d59ac7c2"},"vehicle_type_id":"4","last_reported":1739549463,"current_range_meters":27600,"station_id":"ce4bgvp2rcd13ifvqct0","pricing_plan_id":"cebpf4jnsgd1na2vs0mg"},{"bike_id":"99c3ac6a-a000-4a52-bf81-e6ffae508772","system_id":"levelo_inurba_marseille","lat":43.27552,"lon":5.38405,"is_reserved":false,"is_disabled":false,"rental_uris":{"android":"levelo://app?vid=99c3ac6a-a000-4a52-bf81-e6ffae508772","ios":"levelo://app?vid=99c3ac6a-a000-4a52-bf81-e6ffae508772"},"vehicle_type_id":"4","last_reported":1739549463,"current_range_meters":12800,"station_id":"ce4bhh92rcd13ifvqfi0","pricing_plan_id":"cebpf4jnsgd1na2vs0mg"},{"bike_id":"2ae2f444-53c5-40b3-93df-45ef6ffa5d62","system_id":"levelo_inurba_marseille","lat":43.29185,"lon":5.37183,"is_reserved":false,"is_disabled":false,"rental_uris":{"android":"levelo://app?vid=2ae2f444-53c5-40b3-93df-45ef6ffa5d62","ios":"levelo://app?vid=2ae2f444-53c5-40b3-93df-45ef6ffa5d62"},"vehicle_type_id":"4","last_reported":1739549463,"current_range_meters":38400,"station_id":"ce4bha92rcd13ifvqeh0","pricing_plan_id":"cebpf4jnsgd1na2vs0mg"},{"bike_id":"c0273cc7-74d9-482c-b776-112a87f9e2e2","system_id":"levelo_inurba_marseille","lat":43.26197,"lon":5.37465,"is_reserved":false,"is_disabled":false,"rental_uris":{"android":"levelo://app?vid=c0273cc7-74d9-482c-b776-112a87f9e2e2","ios":"levelo://app?vid=c0273cc7-74d9-482c-b776-112a87f9e2e2"},"vehicle_type_id":"4","last_reported":1739549463,"current_range_meters":38800,"station_id":"ce4bhgp2rcd13ifvqfc0","pricing_plan_id":"cebpf4jnsgd1na2vs0mg"},{"bike_id":"020ab362-d7a8-4fc8-b573-28bc00dc6fa6","system_id":"levelo_inurba_marseille","lat":43.25585,"lon":5.38243,"is_reserved":false,"is_disabled":false,"rental_uris":{"android":"levelo://app?vid=020ab362-d7a8-4fc8-b573-28bc00dc6fa6","ios":"levelo://app?vid=020ab362-d7a8-4fc8-b573-28bc00dc6fa6"},"vehicle_type_id":"4","last_reported":1739549463,"current_range_meters":24000,"station_id":"ce4bhih2rcd13ifvqfs0","pricing_plan_id":"cebpf4jnsgd1na2vs0mg"},{"bike_id":"13381766-a05c-46f4-a33d-551be18b8ec4","system_id":"levelo_inurba_marseille","lat":43.29608,"lon":5.38102,"is_reserved":false,"is_disabled":false,"rental_uris":{"android":"levelo://app?vid=13381766-a05c-46f4-a33d-551be18b8ec4","ios":"levelo://app?vid=13381766-a05c-46f4-a33d-551be18b8ec4"},"vehicle_type_id":"4","last_reported":1739549463,"current_range_meters":28400,"station_id":"ce4bgl12rcd13ifvqbo0","pricing_plan_id":"cebpf4jnsgd1na2vs0mg"},{"bike_id":"f92e748a-9f9b-4e54-8084-07e33515f3d5","system_id":"levelo_inurba_marseille","lat":43.27078,"lon":5.39347,"is_reserved":false,"is_disabled":true,"rental_uris":{"android":"levelo://app?vid=f92e748a-9f9b-4e54-8084-07e33515f3d5","ios":"levelo://app?vid=f92e748a-9f9b-4e54-8084-07e33515f3d5"},"vehicle_type_id":"4","last_reported":1739549463,"current_range_meters":0,"station_id":"","pricing_plan_id":"cebpf4jnsgd1na2vs0mg"},{"bike_id":"7634e086-f6e0-474c-af09-9f19e7449c6e","system_id":"levelo_inurba_marseille","lat":43.26943,"lon":5.40255,"is_reserved":false,"is_disabled":false,"rental_uris":{"android":"levelo://app?vid=7634e086-f6e0-474c-af09-9f19e7449c6e","ios":"levelo://app?vid=7634e086-f6e0-474c-af09-9f19e7449c6e"},"vehicle_type_id":"4","last_reported":1739549463,"current_range_meters":9600,"station_id":"cjm6bp8fraef2m0cb0m0","pricing_plan_id":"cebpf4jnsgd1na2vs0mg"},{"bike_id":"704ec19d-e7c0-4858-a423-dcfa560220a5","system_id":"levelo_inurba_marseille","lat":43.23187,"lon":5.3999,"is_reserved":false,"is_disabled":false,"rental_uris":{"android":"levelo://app?vid=704ec19d-e7c0-4858-a423-dcfa560220a5","ios":"levelo://app?vid=704ec19d-e7c0-4858-a423-dcfa560220a5"},"vehicle_type_id":"4","last_reported":1739549463,"current_range_meters":33200,"station_id":"ce4bhn12rcd13ifvqgqg","pricing_plan_id":"cebpf4jnsgd1na2vs0mg"},{"bike_id":"3b65282a-f1d0-4275-aeb0-d72b1002d850","system_id":"levelo_inurba_marseille","lat":43.30159,"lon":5.37399,"is_reserved":false,"is_disabled":false,"rental_uris":{"android":"levelo://app?vid=3b65282a-f1d0-4275-aeb0-d72b1002d850","ios":"levelo://app?vid=3b65282a-f1d0-4275-aeb0-d72b1002d850"},"vehicle_type_id":"4","last_reported":1739549463,"current_range_meters":38800,"station_id":"ce4bgs92rcd13ifvqcc0","pricing_plan_id":"cebpf4jnsgd1na2vs0mg"},{"bike_id":"fcbba1a4-5a4e-430c-8a0d-6dcf0f717a3a","system_id":"levelo_inurba_marseille","lat":43.27851,"lon":5.39209,"is_reserved":false,"is_disabled":false,"rental_uris":{"android":"levelo://app?vid=fcbba1a4-5a4e-430c-8a0d-6dcf0f717a3a","ios":"levelo://app?vid=fcbba1a4-5a4e-430c-8a0d-6dcf0f717a3a"},"vehicle_type_id":"4","last_reported":1739549463,"current_range_meters":38400,"station_id":"ce4bhjp2rcd13ifvqga0","pricing_plan_id":"cebpf4jnsgd1na2vs0mg"},{"bike_id":"9ebc89e3-b165-42e0-aa0f-3eb7c16565c7","system_id":"levelo_inurba_marseille","lat":43.29849,"lon":5.36285,"is_reserved":false,"is_disabled":false,"rental_uris":{"android":"levelo://app?vid=9ebc89e3-b165-42e0-aa0f-3eb7c16565c7","ios":"levelo://app?vid=9ebc89e3-b165-42e0-aa0f-3eb7c16565c7"},"vehicle_type_id":"4","last_reported":1739549463,"current_range_meters":39200,"station_id":"ce4bgpp2rcd13ifvqc3g","pricing_plan_id":"cebpf4jnsgd1na2vs0mg"},{"bike_id":"9cf8e6d9-67b8-441b-8ab4-08ef8560d2b0","system_id":"levelo_inurba_marseille","lat":43.33514,"lon":5.35585,"is_reserved":false,"is_disabled":true,"rental_uris":{"android":"levelo://app?vid=9cf8e6d9-67b8-441b-8ab4-08ef8560d2b0","ios":"levelo://app?vid=9cf8e6d9-67b8-441b-8ab4-08ef8560d2b0"},"vehicle_type_id":"4","last_reported":1739549463,"current_range_meters":0,"station_id":"","pricing_plan_id":"cebpf4jnsgd1na2vs0mg"},{"bike_id":"fcb845b6-2cc0-4e8d-96ca-90d2051f309c","system_id":"levelo_inurba_marseille","lat":43.29975,"lon":5.41327,"is_reserved":false,"is_disabled":false,"rental_uris":{"android":"levelo://app?vid=fcb845b6-2cc0-4e8d-96ca-90d2051f309c","ios":"levelo://app?vid=fcb845b6-2cc0-4e8d-96ca-90d2051f309c"},"vehicle_type_id":"4","last_reported":1739549463,"current_range_meters":38000,"station_id":"ce4bhp12rcd13ifvqh9g","pricing_plan_id":"cebpf4jnsgd1na2vs0mg"},{"bike_id":"f836e4ca-fb6a-44a6-b4e4-11503474d376","system_id":"levelo_inurba_marseille","lat":43.28501,"lon":5.38581,"is_reserved":false,"is_disabled":false,"rental_uris":{"android":"levelo://app?vid=f836e4ca-fb6a-44a6-b4e4-11503474d376","ios":"levelo://app?vid=f836e4ca-fb6a-44a6-b4e4-11503474d376"},"vehicle_type_id":"4","last_reported":1739549463,"current_range_meters":26800,"station_id":"ce4bh8p2rcd13ifvqeb0","pricing_plan_id":"cebpf4jnsgd1na2vs0mg"},{"bike_id":"6279f888-1d4b-4ebb-b3f2-c7248902b00f","system_id":"levelo_inurba_marseille","lat":43.25494,"lon":5.37659,"is_reserved":false,"is_disabled":false,"rental_uris":{"android":"levelo://app?vid=6279f888-1d4b-4ebb-b3f2-c7248902b00f","ios":"levelo://app?vid=6279f888-1d4b-4ebb-b3f2-c7248902b00f"},"vehicle_type_id":"4","last_reported":1739549463,"current_range_meters":16800,"station_id":"ce4bhh12rcd13ifvqff0","pricing_plan_id":"cebpf4jnsgd1na2vs0mg"},{"bike_id":"9b830a51-acd7-456e-8054-0034a62a06ba","system_id":"levelo_inurba_marseille","lat":43.32086,"lon":5.36802,"is_reserved":false,"is_disabled":false,"rental_uris":{"android":"levelo://app?vid=9b830a51-acd7-456e-8054-0034a62a06ba","ios":"levelo://app?vid=9b830a51-acd7-456e-8054-0034a62a06ba"},"vehicle_type_id":"4","last_reported":1739549463,"current_range_meters":29600,"station_id":"ce4bhrh2rcd13ifvqhug","pricing_plan_id":"cebpf4jnsgd1na2vs0mg"},{"bike_id":"6325645e-69a7-4669-ba80-2d681afae85c","system_id":"levelo_inurba_marseille","lat":43.26936,"lon":5.38913,"is_reserved":false,"is_disabled":false,"rental_uris":{"android":"levelo://app?vid=6325645e-69a7-4669-ba80-2d681afae85c","ios":"levelo://app?vid=6325645e-69a7-4669-ba80-2d681afae85c"},"vehicle_type_id":"4","last_reported":1739549463,"current_range_meters":38800,"station_id":"ce4bhhh2rcd13ifvqfl0","pricing_plan_id":"cebpf4jnsgd1na2vs0mg"},{"bike_id":"9b70e5b5-9efa-46c4-b1e9-7d56b6ba4d32","system_id":"levelo_inurba_marseille","lat":43.31482,"lon":5.3731,"is_reserved":false,"is_disabled":false,"rental_uris":{"android":"levelo://app?vid=9b70e5b5-9efa-46c4-b1e9-7d56b6ba4d32","ios":"levelo://app?vid=9b70e5b5-9efa-46c4-b1e9-7d56b6ba4d32"},"vehicle_type_id":"4","last_reported":1739549463,"current_range_meters":24800,"station_id":"ce4bgt12rcd13ifvqcd0","pricing_plan_id":"cebpf4jnsgd1na2vs0mg"},{"bike_id":"702279ff-6173-4c74-a6c6-d3df78622bd6","system_id":"levelo_inurba_marseille","lat":43.30959,"lon":5.39033,"is_reserved":false,"is_disabled":true,"rental_uris":{"android":"levelo://app?vid=702279ff-6173-4c74-a6c6-d3df78622bd6","ios":"levelo://app?vid=702279ff-6173-4c74-a6c6-d3df78622bd6"},"vehicle_type_id":"4","last_reported":1739549463,"current_range_meters":14000,"station_id":"ce4bgup2rcd13ifvqco0","pricing_plan_id":"cebpf4jnsgd1na2vs0mg"},{"bike_id":"51ab7186-5043-4bed-baca-73708608a302","system_id":"levelo_inurba_marseille","lat":43.29584,"lon":5.37026,"is_reserved":false,"is_disabled":true,"rental_uris":{"android":"levelo://app?vid=51ab7186-5043-4bed-baca-73708608a302","ios":"levelo://app?vid=51ab7186-5043-4bed-baca-73708608a302"},"vehicle_type_id":"4","last_reported":1739549463,"current_range_meters":0,"station_id":"","pricing_plan_id":"cebpf4jnsgd1na2vs0mg"},{"bike_id":"ec90184e-fc78-41d7-ba71-28f8166549c1","system_id":"levelo_inurba_marseille","lat":43.31226,"lon":5.36886,"is_reserved":false,"is_disabled":false,"rental_uris":{"android":"levelo://app?vid=ec90184e-fc78-41d7-ba71-28f8166549c1","ios":"levelo://app?vid=ec90184e-fc78-41d7-ba71-28f8166549c1"},"vehicle_type_id":"4","last_reported":1739549463,"current_range_meters":28000,"station_id":"ce4bgl92rcd13ifvqbq0","pricing_plan_id":"cebpf4jnsgd1na2vs0mg"},{"bike_id":"d3fc5f7e-9983-4343-a9af-f36df7d45f29","system_id":"levelo_inurba_marseille","lat":43.23189,"lon":5.39978,"is_reserved":false,"is_disabled":false,"rental_uris":{"android":"levelo://app?vid=d3fc5f7e-9983-4343-a9af-f36df7d45f29","ios":"levelo://app?vid=d3fc5f7e-9983-4343-a9af-f36df7d45f29"},"vehicle_type_id":"4","last_reported":1739549463,"current_range_meters":18800,"station_id":"ce4bhn12rcd13ifvqgqg","pricing_plan_id":"cebpf4jnsgd1na2vs0mg"},{"bike_id":"1b2dbc1f-9a8d-4c05-a310-e3efce20b35a","system_id":"levelo_inurba_marseille","lat":43.29237,"lon":5.36072,"is_reserved":false,"is_disabled":false,"rental_uris":{"android":"levelo://app?vid=1b2dbc1f-9a8d-4c05-a310-e3efce20b35a","ios":"levelo://app?vid=1b2dbc1f-9a8d-4c05-a310-e3efce20b35a"},"vehicle_type_id":"4","last_reported":1739549463,"current_range_meters":37600,"station_id":"ce4bhbh2rcd13ifvqeqg","pricing_plan_id":"cebpf4jnsgd1na2vs0mg"},{"bike_id":"3726052c-435c-4e9a-97b4-6741247fd797","system_id":"levelo_inurba_marseille","lat":43.28415,"lon":5.34994,"is_reserved":false,"is_disabled":false,"rental_uris":{"android":"levelo://app?vid=3726052c-435c-4e9a-97b4-6741247fd797","ios":"levelo://app?vid=3726052c-435c-4e9a-97b4-6741247fd797"},"vehicle_type_id":"4","last_reported":1739549463,"current_range_meters":32400,"station_id":"ce4bhbh2rcd13ifvqepg","pricing_plan_id":"cebpf4jnsgd1na2vs0mg"},{"bike_id":"a957ceea-f9ee-4522-a714-0b9b1ae52161","system_id":"levelo_inurba_marseille","lat":43.27062,"lon":5.40255,"is_reserved":false,"is_disabled":false,"rental_uris":{"android":"levelo://app?vid=a957ceea-f9ee-4522-a714-0b9b1ae52161","ios":"levelo://app?vid=a957ceea-f9ee-4522-a714-0b9b1ae52161"},"vehicle_type_id":"4","last_reported":1739549463,"current_range_meters":31200,"station_id":"ce4bhk92rcd13ifvqgc0","pricing_plan_id":"cebpf4jnsgd1na2vs0mg"},{"bike_id":"d4250fe0-40a1-4a17-b21a-dd2222060ec1","system_id":"levelo_inurba_marseille","lat":43.24074,"lon":5.37755,"is_reserved":false,"is_disabled":false,"rental_uris":{"android":"levelo://app?vid=d4250fe0-40a1-4a17-b21a-dd2222060ec1","ios":"levelo://app?vid=d4250fe0-40a1-4a17-b21a-dd2222060ec1"},"vehicle_type_id":"4","last_reported":1739549463,"current_range_meters":32400,"station_id":"ce4bhnp2rcd13ifvqgvg","pricing_plan_id":"cebpf4jnsgd1na2vs0mg"},{"bike_id":"c40e2cb9-b89c-4dbd-956b-535ef79f1d37","system_id":"levelo_inurba_marseille","lat":43.2483,"lon":5.37403,"is_reserved":false,"is_disabled":false,"rental_uris":{"android":"levelo://app?vid=c40e2cb9-b89c-4dbd-956b-535ef79f1d37","ios":"levelo://app?vid=c40e2cb9-b89c-4dbd-956b-535ef79f1d37"},"vehicle_type_id":"4","last_reported":1739549463,"current_range_meters":27600,"station_id":"","pricing_plan_id":"cebpf4jnsgd1na2vs0mg"},{"bike_id":"32933ebe-6c29-4cc2-b332-bee4f0c28d4a","system_id":"levelo_inurba_marseille","lat":43.27375,"lon":5.36251,"is_reserved":false,"is_disabled":false,"rental_uris":{"android":"levelo://app?vid=32933ebe-6c29-4cc2-b332-bee4f0c28d4a","ios":"levelo://app?vid=32933ebe-6c29-4cc2-b332-bee4f0c28d4a"},"vehicle_type_id":"4","last_reported":1739549463,"current_range_meters":19600,"station_id":"ce4bhbh2rcd13ifvqeo0","pricing_plan_id":"cebpf4jnsgd1na2vs0mg"},{"bike_id":"6d14ffd0-8cb0-40f3-8b6f-5b79b4098bae","system_id":"levelo_inurba_marseille","lat":43.28107,"lon":5.37837,"is_reserved":false,"is_disabled":false,"rental_uris":{"android":"levelo://app?vid=6d14ffd0-8cb0-40f3-8b6f-5b79b4098bae","ios":"levelo://app?vid=6d14ffd0-8cb0-40f3-8b6f-5b79b4098bae"},"vehicle_type_id":"4","last_reported":1739549463,"current_range_meters":36800,"station_id":"ce4bha12rcd13ifvqee0","pricing_plan_id":"cebpf4jnsgd1na2vs0mg"},{"bike_id":"561949cb-847c-4d1b-be7b-a4ef16885a4b","system_id":"levelo_inurba_marseille","lat":43.27567,"lon":5.38416,"is_reserved":false,"is_disabled":false,"rental_uris":{"android":"levelo://app?vid=561949cb-847c-4d1b-be7b-a4ef16885a4b","ios":"levelo://app?vid=561949cb-847c-4d1b-be7b-a4ef16885a4b"},"vehicle_type_id":"4","last_reported":1739549463,"current_range_meters":30000,"station_id":"ce4bhh92rcd13ifvqfi0","pricing_plan_id":"cebpf4jnsgd1na2vs0mg"},{"bike_id":"24f49b1d-f018-4b50-9ffd-66b887dbd99f","system_id":"levelo_inurba_marseille","lat":43.26931,"lon":5.38931,"is_reserved":false,"is_disabled":false,"rental_uris":{"android":"levelo://app?vid=24f49b1d-f018-4b50-9ffd-66b887dbd99f","ios":"levelo://app?vid=24f49b1d-f018-4b50-9ffd-66b887dbd99f"},"vehicle_type_id":"4","last_reported":1739549464,"current_range_meters":23200,"station_id":"ce4bhhh2rcd13ifvqfl0","pricing_plan_id":"cebpf4jnsgd1na2vs0mg"},{"bike_id":"c8c0516c-62b0-4cbf-88f8-60819aff6581","system_id":"levelo_inurba_marseille","lat":43.25491,"lon":5.37649,"is_reserved":false,"is_disabled":true,"rental_uris":{"android":"levelo://app?vid=c8c0516c-62b0-4cbf-88f8-60819aff6581","ios":"levelo://app?vid=c8c0516c-62b0-4cbf-88f8-60819aff6581"},"vehicle_type_id":"4","last_reported":1739549464,"current_range_meters":17200,"station_id":"ce4bhh12rcd13ifvqff0","pricing_plan_id":"cebpf4jnsgd1na2vs0mg"},{"bike_id":"0bd1a399-2480-469c-91cd-e64288e63568","system_id":"levelo_inurba_marseille","lat":43.30375,"lon":5.41878,"is_reserved":false,"is_disabled":false,"rental_uris":{"android":"levelo://app?vid=0bd1a399-2480-469c-91cd-e64288e63568","ios":"levelo://app?vid=0bd1a399-2480-469c-91cd-e64288e63568"},"vehicle_type_id":"4","last_reported":1739549464,"current_range_meters":39200,"station_id":"ce4bhop2rcd13ifvqh7g","pricing_plan_id":"cebpf4jnsgd1na2vs0mg"},{"bike_id":"1e059a21-f6ec-4591-9ae0-dced5b8bf4f6","system_id":"levelo_inurba_marseille","lat":43.300985,"lon":5.390656,"is_reserved":false,"is_disabled":false,"rental_uris":{"android":"levelo://app?vid=1e059a21-f6ec-4591-9ae0-dced5b8bf4f6","ios":"levelo://app?vid=1e059a21-f6ec-4591-9ae0-dced5b8bf4f6"},"vehicle_type_id":"4","last_reported":1739549464,"current_range_meters":34000,"station_id":"ce4bh192rcd13ifvqdb0","pricing_plan_id":"cebpf4jnsgd1na2vs0mg"},{"bike_id":"2150b3dc-cbda-431d-855c-d8817881f30b","system_id":"levelo_inurba_marseille","lat":43.29898,"lon":5.38145,"is_reserved":false,"is_disabled":false,"rental_uris":{"android":"levelo://app?vid=2150b3dc-cbda-431d-855c-d8817881f30b","ios":"levelo://app?vid=2150b3dc-cbda-431d-855c-d8817881f30b"},"vehicle_type_id":"4","last_reported":1739549464,"current_range_meters":38400,"station_id":"ce4bgj12rcd13ifvqbc0","pricing_plan_id":"cebpf4jnsgd1na2vs0mg"},{"bike_id":"987f0e38-93fd-422f-86e4-37daf6eb8119","system_id":"levelo_inurba_marseille","lat":43.25578,"lon":5.38234,"is_reserved":false,"is_disabled":false,"rental_uris":{"android":"levelo://app?vid=987f0e38-93fd-422f-86e4-37daf6eb8119","ios":"levelo://app?vid=987f0e38-93fd-422f-86e4-37daf6eb8119"},"vehicle_type_id":"4","last_reported":1739549464,"current_range_meters":28000,"station_id":"ce4bhih2rcd13ifvqfs0","pricing_plan_id":"cebpf4jnsgd1na2vs0mg"},{"bike_id":"69901931-b51c-453f-987f-21137ab8ac55","system_id":"levelo_inurba_marseille","lat":43.26977,"lon":5.40284,"is_reserved":false,"is_disabled":false,"rental_uris":{"android":"levelo://app?vid=69901931-b51c-453f-987f-21137ab8ac55","ios":"levelo://app?vid=69901931-b51c-453f-987f-21137ab8ac55"},"vehicle_type_id":"4","last_reported":1739549464,"current_range_meters":28000,"station_id":"cjm6bp8fraef2m0cb0m0","pricing_plan_id":"cebpf4jnsgd1na2vs0mg"},{"bike_id":"4e38e6f3-e043-461b-aa1f-d9795ea6cb7d","system_id":"levelo_inurba_marseille","lat":43.28154,"lon":5.42646,"is_reserved":false,"is_disabled":false,"rental_uris":{"android":"levelo://app?vid=4e38e6f3-e043-461b-aa1f-d9795ea6cb7d","ios":"levelo://app?vid=4e38e6f3-e043-461b-aa1f-d9795ea6cb7d"},"vehicle_type_id":"4","last_reported":1739549464,"current_range_meters":20800,"station_id":"ce4bhnh2rcd13ifvqgug","pricing_plan_id":"cebpf4jnsgd1na2vs0mg"},{"bike_id":"cb2c880d-6099-4e99-b126-5db2ed775e84","system_id":"levelo_inurba_marseille","lat":43.25014,"lon":5.38937,"is_reserved":false,"is_disabled":false,"rental_uris":{"android":"levelo://app?vid=cb2c880d-6099-4e99-b126-5db2ed775e84","ios":"levelo://app?vid=cb2c880d-6099-4e99-b126-5db2ed775e84"},"vehicle_type_id":"4","last_reported":1739549464,"current_range_meters":38800,"station_id":"ce4bhgp2rcd13ifvqfd0","pricing_plan_id":"cebpf4jnsgd1na2vs0mg"},{"bike_id":"49fa15bb-24fd-418e-972a-73184b9029cb","system_id":"levelo_inurba_marseille","lat":43.29903,"lon":5.43674,"is_reserved":false,"is_disabled":false,"rental_uris":{"android":"levelo://app?vid=49fa15bb-24fd-418e-972a-73184b9029cb","ios":"levelo://app?vid=49fa15bb-24fd-418e-972a-73184b9029cb"},"vehicle_type_id":"4","last_reported":1739549464,"current_range_meters":6800,"station_id":"ce4bhpp2rcd13ifvqhfg","pricing_plan_id":"cebpf4jnsgd1na2vs0mg"},{"bike_id":"07cce0e4-c34c-4c6c-b7f3-11be90ceb56c","system_id":"levelo_inurba_marseille","lat":43.3029,"lon":5.39641,"is_reserved":false,"is_disabled":false,"rental_uris":{"android":"levelo://app?vid=07cce0e4-c34c-4c6c-b7f3-11be90ceb56c","ios":"levelo://app?vid=07cce0e4-c34c-4c6c-b7f3-11be90ceb56c"},"vehicle_type_id":"4","last_reported":1739549464,"current_range_meters":12000,"station_id":"","pricing_plan_id":"cebpf4jnsgd1na2vs0mg"},{"bike_id":"eb4b5a8a-7ccb-401a-ae98-94e0934d6e44","system_id":"levelo_inurba_marseille","lat":43.27998,"lon":5.41665,"is_reserved":false,"is_disabled":false,"rental_uris":{"android":"levelo://app?vid=eb4b5a8a-7ccb-401a-ae98-94e0934d6e44","ios":"levelo://app?vid=eb4b5a8a-7ccb-401a-ae98-94e0934d6e44"},"vehicle_type_id":"4","last_reported":1739549464,"current_range_meters":30800,"station_id":"ce4bho12rcd13ifvqh1g","pricing_plan_id":"cebpf4jnsgd1na2vs0mg"},{"bike_id":"de1ab5a3-9a7a-4643-b3b4-e92d1916e1c7","system_id":"levelo_inurba_marseille","lat":43.29605,"lon":5.38111,"is_reserved":false,"is_disabled":false,"rental_uris":{"android":"levelo://app?vid=de1ab5a3-9a7a-4643-b3b4-e92d1916e1c7","ios":"levelo://app?vid=de1ab5a3-9a7a-4643-b3b4-e92d1916e1c7"},"vehicle_type_id":"4","last_reported":1739549464,"current_range_meters":7200,"station_id":"ce4bgl12rcd13ifvqbo0","pricing_plan_id":"cebpf4jnsgd1na2vs0mg"},{"bike_id":"f95c598b-73a5-4793-bd58-d5ddde21f497","system_id":"levelo_inurba_marseille","lat":43.28613,"lon":5.35107,"is_reserved":false,"is_disabled":false,"rental_uris":{"android":"levelo://app?vid=f95c598b-73a5-4793-bd58-d5ddde21f497","ios":"levelo://app?vid=f95c598b-73a5-4793-bd58-d5ddde21f497"},"vehicle_type_id":"4","last_reported":1739549464,"current_range_meters":15200,"station_id":"ce4bhch2rcd13ifvqeug","pricing_plan_id":"cebpf4jnsgd1na2vs0mg"},{"bike_id":"0c9f491e-2c2e-4a66-985f-4b2dd1fa46b1","system_id":"levelo_inurba_marseille","lat":43.30272,"lon":5.37691,"is_reserved":false,"is_disabled":false,"rental_uris":{"android":"levelo://app?vid=0c9f491e-2c2e-4a66-985f-4b2dd1fa46b1","ios":"levelo://app?vid=0c9f491e-2c2e-4a66-985f-4b2dd1fa46b1"},"vehicle_type_id":"4","last_reported":1739549464,"current_range_meters":38800,"station_id":"ce4bguh2rcd13ifvqcj0","pricing_plan_id":"cebpf4jnsgd1na2vs0mg"},{"bike_id":"f7722aa8-7dbb-40b4-8785-faf5a2e7b631","system_id":"levelo_inurba_marseille","lat":43.24994,"lon":5.3893,"is_reserved":false,"is_disabled":false,"rental_uris":{"android":"levelo://app?vid=f7722aa8-7dbb-40b4-8785-faf5a2e7b631","ios":"levelo://app?vid=f7722aa8-7dbb-40b4-8785-faf5a2e7b631"},"vehicle_type_id":"4","last_reported":1739549464,"current_range_meters":38800,"station_id":"ce4bhgp2rcd13ifvqfd0","pricing_plan_id":"cebpf4jnsgd1na2vs0mg"},{"bike_id":"577cb53f-ab8a-4bfa-8061-840317475338","system_id":"levelo_inurba_marseille","lat":43.2439,"lon":5.37055,"is_reserved":false,"is_disabled":false,"rental_uris":{"android":"levelo://app?vid=577cb53f-ab8a-4bfa-8061-840317475338","ios":"levelo://app?vid=577cb53f-ab8a-4bfa-8061-840317475338"},"vehicle_type_id":"4","last_reported":1739549464,"current_range_meters":38800,"station_id":"ce4bhhh2rcd13ifvqfk0","pricing_plan_id":"cebpf4jnsgd1na2vs0mg"},{"bike_id":"ec496d4a-c31a-4f2c-947b-b17f6dc6b31a","system_id":"levelo_inurba_marseille","lat":43.24997,"lon":5.38937,"is_reserved":false,"is_disabled":false,"rental_uris":{"android":"levelo://app?vid=ec496d4a-c31a-4f2c-947b-b17f6dc6b31a","ios":"levelo://app?vid=ec496d4a-c31a-4f2c-947b-b17f6dc6b31a"},"vehicle_type_id":"4","last_reported":1739549464,"current_range_meters":38800,"station_id":"ce4bhgp2rcd13ifvqfd0","pricing_plan_id":"cebpf4jnsgd1na2vs0mg"},{"bike_id":"62997ab2-046b-45d5-b8cf-ffc389fd3fd1","system_id":"levelo_inurba_marseille","lat":43.29935,"lon":5.36543,"is_reserved":false,"is_disabled":false,"rental_uris":{"android":"levelo://app?vid=62997ab2-046b-45d5-b8cf-ffc389fd3fd1","ios":"levelo://app?vid=62997ab2-046b-45d5-b8cf-ffc389fd3fd1"},"vehicle_type_id":"4","last_reported":1739549464,"current_range_meters":36000,"station_id":"ce4bgm92rcd13ifvqbr0","pricing_plan_id":"cebpf4jnsgd1na2vs0mg"},{"bike_id":"cc825fb1-4f90-40c4-b47a-18caaecff7ee","system_id":"levelo_inurba_marseille","lat":43.26803,"lon":5.40266,"is_reserved":false,"is_disabled":false,"rental_uris":{"android":"levelo://app?vid=cc825fb1-4f90-40c4-b47a-18caaecff7ee","ios":"levelo://app?vid=cc825fb1-4f90-40c4-b47a-18caaecff7ee"},"vehicle_type_id":"4","last_reported":1739549464,"current_range_meters":16800,"station_id":"ce501612rcd8frsf0b60","pricing_plan_id":"cebpf4jnsgd1na2vs0mg"},{"bike_id":"23849fcd-4bc4-44f6-8337-e9a9a16fe0e7","system_id":"levelo_inurba_marseille","lat":43.29756,"lon":5.47971,"is_reserved":false,"is_disabled":false,"rental_uris":{"android":"levelo://app?vid=23849fcd-4bc4-44f6-8337-e9a9a16fe0e7","ios":"levelo://app?vid=23849fcd-4bc4-44f6-8337-e9a9a16fe0e7"},"vehicle_type_id":"4","last_reported":1739549464,"current_range_meters":2800,"station_id":"","pricing_plan_id":"cebpf4jnsgd1na2vs0mg"},{"bike_id":"95ae2a22-aed7-4d28-b9ea-dca74e26051e","system_id":"levelo_inurba_marseille","lat":43.30892,"lon":5.36879,"is_reserved":false,"is_disabled":false,"rental_uris":{"android":"levelo://app?vid=95ae2a22-aed7-4d28-b9ea-dca74e26051e","ios":"levelo://app?vid=95ae2a22-aed7-4d28-b9ea-dca74e26051e"},"vehicle_type_id":"4","last_reported":1739549464,"current_range_meters":39200,"station_id":"ce4bgn92rcd13ifvqbvg","pricing_plan_id":"cebpf4jnsgd1na2vs0mg"},{"bike_id":"b61054ff-0abe-46e6-96ce-d363a172df3c","system_id":"levelo_inurba_marseille","lat":43.30091,"lon":5.39081,"is_reserved":false,"is_disabled":false,"rental_uris":{"android":"levelo://app?vid=b61054ff-0abe-46e6-96ce-d363a172df3c","ios":"levelo://app?vid=b61054ff-0abe-46e6-96ce-d363a172df3c"},"vehicle_type_id":"4","last_reported":1739549464,"current_range_meters":10800,"station_id":"ce4bh192rcd13ifvqdb0","pricing_plan_id":"cebpf4jnsgd1na2vs0mg"},{"bike_id":"ea9ed1ac-1e61-4ab3-8dbc-088ace0a1bf0","system_id":"levelo_inurba_marseille","lat":43.29069,"lon":5.3715,"is_reserved":false,"is_disabled":false,"rental_uris":{"android":"levelo://app?vid=ea9ed1ac-1e61-4ab3-8dbc-088ace0a1bf0","ios":"levelo://app?vid=ea9ed1ac-1e61-4ab3-8dbc-088ace0a1bf0"},"vehicle_type_id":"4","last_reported":1739549464,"current_range_meters":32800,"station_id":"ce4bh5p2rcd13ifvqe4g","pricing_plan_id":"cebpf4jnsgd1na2vs0mg"},{"bike_id":"d1b7e7c3-d876-4585-aa93-a701646b8c19","system_id":"levelo_inurba_marseille","lat":43.23189,"lon":5.39986,"is_reserved":false,"is_disabled":false,"rental_uris":{"android":"levelo://app?vid=d1b7e7c3-d876-4585-aa93-a701646b8c19","ios":"levelo://app?vid=d1b7e7c3-d876-4585-aa93-a701646b8c19"},"vehicle_type_id":"4","last_reported":1739549464,"current_range_meters":33600,"station_id":"ce4bhn12rcd13ifvqgqg","pricing_plan_id":"cebpf4jnsgd1na2vs0mg"},{"bike_id":"c856ec77-37b9-4295-8a12-6c5276666f4e","system_id":"levelo_inurba_marseille","lat":43.31355,"lon":5.385,"is_reserved":false,"is_disabled":false,"rental_uris":{"android":"levelo://app?vid=c856ec77-37b9-4295-8a12-6c5276666f4e","ios":"levelo://app?vid=c856ec77-37b9-4295-8a12-6c5276666f4e"},"vehicle_type_id":"4","last_reported":1739549464,"current_range_meters":21600,"station_id":"ce4bgt92rcd13ifvqcf0","pricing_plan_id":"cebpf4jnsgd1na2vs0mg"},{"bike_id":"4593a7a1-94a4-460d-844e-c8361a923020","system_id":"levelo_inurba_marseille","lat":43.31487,"lon":5.3731,"is_reserved":false,"is_disabled":false,"rental_uris":{"android":"levelo://app?vid=4593a7a1-94a4-460d-844e-c8361a923020","ios":"levelo://app?vid=4593a7a1-94a4-460d-844e-c8361a923020"},"vehicle_type_id":"4","last_reported":1739549464,"current_range_meters":37600,"station_id":"ce4bgt12rcd13ifvqcd0","pricing_plan_id":"cebpf4jnsgd1na2vs0mg"},{"bike_id":"f4819c25-3e00-41ce-8105-106f04d74119","system_id":"levelo_inurba_marseille","lat":43.25584,"lon":5.38238,"is_reserved":false,"is_disabled":true,"rental_uris":{"android":"levelo://app?vid=f4819c25-3e00-41ce-8105-106f04d74119","ios":"levelo://app?vid=f4819c25-3e00-41ce-8105-106f04d74119"},"vehicle_type_id":"4","last_reported":1739549464,"current_range_meters":0,"station_id":"ce4bhih2rcd13ifvqfs0","pricing_plan_id":"cebpf4jnsgd1na2vs0mg"},{"bike_id":"9bcbb187-37f7-4b64-a20c-071b6e3103bf","system_id":"levelo_inurba_marseille","lat":43.31172,"lon":5.38722,"is_reserved":false,"is_disabled":false,"rental_uris":{"android":"levelo://app?vid=9bcbb187-37f7-4b64-a20c-071b6e3103bf","ios":"levelo://app?vid=9bcbb187-37f7-4b64-a20c-071b6e3103bf"},"vehicle_type_id":"4","last_reported":1739549464,"current_range_meters":14400,"station_id":"ce4bgv12rcd13ifvqcp0","pricing_plan_id":"cebpf4jnsgd1na2vs0mg"},{"bike_id":"3c0cbf7a-e5b8-4e60-99ab-08afcccb69f4","system_id":"levelo_inurba_marseille","lat":43.27836,"lon":5.39206,"is_reserved":false,"is_disabled":false,"rental_uris":{"android":"levelo://app?vid=3c0cbf7a-e5b8-4e60-99ab-08afcccb69f4","ios":"levelo://app?vid=3c0cbf7a-e5b8-4e60-99ab-08afcccb69f4"},"vehicle_type_id":"4","last_reported":1739549464,"current_range_meters":33600,"station_id":"ce4bhjp2rcd13ifvqga0","pricing_plan_id":"cebpf4jnsgd1na2vs0mg"},{"bike_id":"4ad51a02-f2dd-46e4-a406-ba69455ffee4","system_id":"levelo_inurba_marseille","lat":43.28013,"lon":5.40842,"is_reserved":false,"is_disabled":false,"rental_uris":{"android":"levelo://app?vid=4ad51a02-f2dd-46e4-a406-ba69455ffee4","ios":"levelo://app?vid=4ad51a02-f2dd-46e4-a406-ba69455ffee4"},"vehicle_type_id":"4","last_reported":1739549464,"current_range_meters":12000,"station_id":"","pricing_plan_id":"cebpf4jnsgd1na2vs0mg"},{"bike_id":"dae8c204-bdfe-4dac-8c0f-5dde3038da1a","system_id":"levelo_inurba_marseille","lat":43.2512,"lon":5.40324,"is_reserved":false,"is_disabled":false,"rental_uris":{"android":"levelo://app?vid=dae8c204-bdfe-4dac-8c0f-5dde3038da1a","ios":"levelo://app?vid=dae8c204-bdfe-4dac-8c0f-5dde3038da1a"},"vehicle_type_id":"4","last_reported":1739549464,"current_range_meters":3600,"station_id":"ce4bhlh2rcd13ifvqgig","pricing_plan_id":"cebpf4jnsgd1na2vs0mg"},{"bike_id":"00a4e08f-061f-446d-9506-371f75a97092","system_id":"levelo_inurba_marseille","lat":43.28004,"lon":5.40011,"is_reserved":false,"is_disabled":false,"rental_uris":{"android":"levelo://app?vid=00a4e08f-061f-446d-9506-371f75a97092","ios":"levelo://app?vid=00a4e08f-061f-446d-9506-371f75a97092"},"vehicle_type_id":"4","last_reported":1739549464,"current_range_meters":22000,"station_id":"ce4bho92rcd13ifvqh4g","pricing_plan_id":"cebpf4jnsgd1na2vs0mg"},{"bike_id":"0493afb9-169f-4b29-a9a1-7c9de3ad68b8","system_id":"levelo_inurba_marseille","lat":43.28609,"lon":5.37053,"is_reserved":false,"is_disabled":false,"rental_uris":{"android":"levelo://app?vid=0493afb9-169f-4b29-a9a1-7c9de3ad68b8","ios":"levelo://app?vid=0493afb9-169f-4b29-a9a1-7c9de3ad68b8"},"vehicle_type_id":"4","last_reported":1739549464,"current_range_meters":36800,"station_id":"ce4bht12rcd13ifvqi60","pricing_plan_id":"cebpf4jnsgd1na2vs0mg"},{"bike_id":"03eba1d0-92c1-4e6e-a4d0-7c546f2439c0","system_id":"levelo_inurba_marseille","lat":43.337444,"lon":5.374475,"is_reserved":false,"is_disabled":true,"rental_uris":{"android":"levelo://app?vid=03eba1d0-92c1-4e6e-a4d0-7c546f2439c0","ios":"levelo://app?vid=03eba1d0-92c1-4e6e-a4d0-7c546f2439c0"},"vehicle_type_id":"4","last_reported":1739549464,"current_range_meters":0,"station_id":"","pricing_plan_id":"cebpf4jnsgd1na2vs0mg"},{"bike_id":"1504eae3-2c47-4bb5-8078-902e9ea1cb61","system_id":"levelo_inurba_marseille","lat":43.27312,"lon":5.39096,"is_reserved":false,"is_disabled":false,"rental_uris":{"android":"levelo://app?vid=1504eae3-2c47-4bb5-8078-902e9ea1cb61","ios":"levelo://app?vid=1504eae3-2c47-4bb5-8078-902e9ea1cb61"},"vehicle_type_id":"4","last_reported":1739549464,"current_range_meters":30000,"station_id":"ce4bhgp2rcd13ifvqfe0","pricing_plan_id":"cebpf4jnsgd1na2vs0mg"},{"bike_id":"ace34ffd-44df-41f7-90a6-92039b1ec78a","system_id":"levelo_inurba_marseille","lat":43.27684,"lon":5.38881,"is_reserved":false,"is_disabled":false,"rental_uris":{"android":"levelo://app?vid=ace34ffd-44df-41f7-90a6-92039b1ec78a","ios":"levelo://app?vid=ace34ffd-44df-41f7-90a6-92039b1ec78a"},"vehicle_type_id":"4","last_reported":1739549464,"current_range_meters":38400,"station_id":"ce4bhi12rcd13ifvqfo0","pricing_plan_id":"cebpf4jnsgd1na2vs0mg"},{"bike_id":"8208b9be-b2fb-4d4a-9708-6254e17f01c5","system_id":"levelo_inurba_marseille","lat":43.25499,"lon":5.37657,"is_reserved":false,"is_disabled":false,"rental_uris":{"android":"levelo://app?vid=8208b9be-b2fb-4d4a-9708-6254e17f01c5","ios":"levelo://app?vid=8208b9be-b2fb-4d4a-9708-6254e17f01c5"},"vehicle_type_id":"4","last_reported":1739549464,"current_range_meters":37600,"station_id":"ce4bhh12rcd13ifvqff0","pricing_plan_id":"cebpf4jnsgd1na2vs0mg"},{"bike_id":"a170b211-c142-460b-9fc9-9e53ceb12694","system_id":"levelo_inurba_marseille","lat":43.31082,"lon":5.38378,"is_reserved":false,"is_disabled":false,"rental_uris":{"android":"levelo://app?vid=a170b211-c142-460b-9fc9-9e53ceb12694","ios":"levelo://app?vid=a170b211-c142-460b-9fc9-9e53ceb12694"},"vehicle_type_id":"4","last_reported":1739549464,"current_range_meters":38400,"station_id":"ce4bgv92rcd13ifvqcr0","pricing_plan_id":"cebpf4jnsgd1na2vs0mg"},{"bike_id":"9192f7da-07ce-4941-97f7-270efa9071fe","system_id":"levelo_inurba_marseille","lat":43.25579,"lon":5.38228,"is_reserved":false,"is_disabled":false,"rental_uris":{"android":"levelo://app?vid=9192f7da-07ce-4941-97f7-270efa9071fe","ios":"levelo://app?vid=9192f7da-07ce-4941-97f7-270efa9071fe"},"vehicle_type_id":"4","last_reported":1739549464,"current_range_meters":13600,"station_id":"ce4bhih2rcd13ifvqfs0","pricing_plan_id":"cebpf4jnsgd1na2vs0mg"},{"bike_id":"5016e875-414a-41bd-8f00-6a5845e39ba6","system_id":"levelo_inurba_marseille","lat":43.308,"lon":5.43542,"is_reserved":false,"is_disabled":false,"rental_uris":{"android":"levelo://app?vid=5016e875-414a-41bd-8f00-6a5845e39ba6","ios":"levelo://app?vid=5016e875-414a-41bd-8f00-6a5845e39ba6"},"vehicle_type_id":"4","last_reported":1739549464,"current_range_meters":33600,"station_id":"ce4bhph2rcd13ifvqheg","pricing_plan_id":"cebpf4jnsgd1na2vs0mg"},{"bike_id":"283e69ea-73d2-4b99-bf14-5bf7704cdaf0","system_id":"levelo_inurba_marseille","lat":43.25089,"lon":5.39527,"is_reserved":false,"is_disabled":false,"rental_uris":{"android":"levelo://app?vid=283e69ea-73d2-4b99-bf14-5bf7704cdaf0","ios":"levelo://app?vid=283e69ea-73d2-4b99-bf14-5bf7704cdaf0"},"vehicle_type_id":"4","last_reported":1739549464,"current_range_meters":38800,"station_id":"ce4bhm12rcd13ifvqgkg","pricing_plan_id":"cebpf4jnsgd1na2vs0mg"},{"bike_id":"0e27a273-b179-4c27-8c6c-b607691a0412","system_id":"levelo_inurba_marseille","lat":43.29094,"lon":5.3811,"is_reserved":false,"is_disabled":false,"rental_uris":{"android":"levelo://app?vid=0e27a273-b179-4c27-8c6c-b607691a0412","ios":"levelo://app?vid=0e27a273-b179-4c27-8c6c-b607691a0412"},"vehicle_type_id":"4","last_reported":1739549464,"current_range_meters":32000,"station_id":"ce4bh512rcd13ifvqe2g","pricing_plan_id":"cebpf4jnsgd1na2vs0mg"},{"bike_id":"db4f80bb-9106-4b57-9781-23c16951baf1","system_id":"levelo_inurba_marseille","lat":43.31082,"lon":5.38366,"is_reserved":false,"is_disabled":false,"rental_uris":{"android":"levelo://app?vid=db4f80bb-9106-4b57-9781-23c16951baf1","ios":"levelo://app?vid=db4f80bb-9106-4b57-9781-23c16951baf1"},"vehicle_type_id":"4","last_reported":1739549464,"current_range_meters":38800,"station_id":"ce4bgv92rcd13ifvqcr0","pricing_plan_id":"cebpf4jnsgd1na2vs0mg"},{"bike_id":"dd4fdde4-fed1-4f42-acdc-c1eb2cf6c563","system_id":"levelo_inurba_marseille","lat":43.29033,"lon":5.37572,"is_reserved":false,"is_disabled":false,"rental_uris":{"android":"levelo://app?vid=dd4fdde4-fed1-4f42-acdc-c1eb2cf6c563","ios":"levelo://app?vid=dd4fdde4-fed1-4f42-acdc-c1eb2cf6c563"},"vehicle_type_id":"4","last_reported":1739549464,"current_range_meters":34800,"station_id":"ce4bh692rcd13ifvqe90","pricing_plan_id":"cebpf4jnsgd1na2vs0mg"},{"bike_id":"59f756f1-4c6e-4593-b1ed-044fff3e31bc","system_id":"levelo_inurba_marseille","lat":43.25861,"lon":5.39902,"is_reserved":false,"is_disabled":false,"rental_uris":{"android":"levelo://app?vid=59f756f1-4c6e-4593-b1ed-044fff3e31bc","ios":"levelo://app?vid=59f756f1-4c6e-4593-b1ed-044fff3e31bc"},"vehicle_type_id":"4","last_reported":1739549464,"current_range_meters":38000,"station_id":"ce4bhl92rcd13ifvqghg","pricing_plan_id":"cebpf4jnsgd1na2vs0mg"},{"bike_id":"3e87dcc7-7cea-4475-a5fb-757c699c3604","system_id":"levelo_inurba_marseille","lat":43.29889,"lon":5.39746,"is_reserved":false,"is_disabled":false,"rental_uris":{"android":"levelo://app?vid=3e87dcc7-7cea-4475-a5fb-757c699c3604","ios":"levelo://app?vid=3e87dcc7-7cea-4475-a5fb-757c699c3604"},"vehicle_type_id":"4","last_reported":1739549464,"current_range_meters":38000,"station_id":"ce4bh0h2rcd13ifvqd50","pricing_plan_id":"cebpf4jnsgd1na2vs0mg"},{"bike_id":"3072a933-973e-43a5-a493-465678f7afd0","system_id":"levelo_inurba_marseille","lat":43.31364,"lon":5.38488,"is_reserved":false,"is_disabled":false,"rental_uris":{"android":"levelo://app?vid=3072a933-973e-43a5-a493-465678f7afd0","ios":"levelo://app?vid=3072a933-973e-43a5-a493-465678f7afd0"},"vehicle_type_id":"4","last_reported":1739549464,"current_range_meters":24800,"station_id":"ce4bgt92rcd13ifvqcf0","pricing_plan_id":"cebpf4jnsgd1na2vs0mg"},{"bike_id":"bd1fbd17-5ecd-4c2a-9290-d1ffd1a70214","system_id":"levelo_inurba_marseille","lat":43.295499,"lon":5.422734,"is_reserved":false,"is_disabled":false,"rental_uris":{"android":"levelo://app?vid=bd1fbd17-5ecd-4c2a-9290-d1ffd1a70214","ios":"levelo://app?vid=bd1fbd17-5ecd-4c2a-9290-d1ffd1a70214"},"vehicle_type_id":"4","last_reported":1739549464,"current_range_meters":36800,"station_id":"ce4bhph2rcd13ifvqhdg","pricing_plan_id":"cebpf4jnsgd1na2vs0mg"},{"bike_id":"492e558b-0ce5-4984-b6b1-1d33f225a96b","system_id":"levelo_inurba_marseille","lat":43.24166,"lon":5.36421,"is_reserved":false,"is_disabled":false,"rental_uris":{"android":"levelo://app?vid=492e558b-0ce5-4984-b6b1-1d33f225a96b","ios":"levelo://app?vid=492e558b-0ce5-4984-b6b1-1d33f225a96b"},"vehicle_type_id":"4","last_reported":1739549464,"current_range_meters":37600,"station_id":"cpo36qri1sfpv3e86is0","pricing_plan_id":"cebpf4jnsgd1na2vs0mg"},{"bike_id":"8bce93c9-dbb4-465e-ab71-851dd9633402","system_id":"levelo_inurba_marseille","lat":43.2705,"lon":5.40262,"is_reserved":false,"is_disabled":true,"rental_uris":{"android":"levelo://app?vid=8bce93c9-dbb4-465e-ab71-851dd9633402","ios":"levelo://app?vid=8bce93c9-dbb4-465e-ab71-851dd9633402"},"vehicle_type_id":"4","last_reported":1739549464,"current_range_meters":400,"station_id":"ce4bhk92rcd13ifvqgc0","pricing_plan_id":"cebpf4jnsgd1na2vs0mg"},{"bike_id":"c10a0aa1-bc95-4ecf-88ff-ed8fd42ba1d8","system_id":"levelo_inurba_marseille","lat":43.29006,"lon":5.35621,"is_reserved":false,"is_disabled":false,"rental_uris":{"android":"levelo://app?vid=c10a0aa1-bc95-4ecf-88ff-ed8fd42ba1d8","ios":"levelo://app?vid=c10a0aa1-bc95-4ecf-88ff-ed8fd42ba1d8"},"vehicle_type_id":"4","last_reported":1739549464,"current_range_meters":39200,"station_id":"ce4bhb92rcd13ifvqen0","pricing_plan_id":"cebpf4jnsgd1na2vs0mg"},{"bike_id":"b3b6f050-f475-463b-9313-1a22d4caa120","system_id":"levelo_inurba_marseille","lat":43.30551,"lon":5.36531,"is_reserved":false,"is_disabled":false,"rental_uris":{"android":"levelo://app?vid=b3b6f050-f475-463b-9313-1a22d4caa120","ios":"levelo://app?vid=b3b6f050-f475-463b-9313-1a22d4caa120"},"vehicle_type_id":"4","last_reported":1739549464,"current_range_meters":30800,"station_id":"ce4bgs12rcd13ifvqcag","pricing_plan_id":"cebpf4jnsgd1na2vs0mg"},{"bike_id":"6b4996c0-38d9-42ce-ac44-b1c67a86aba2","system_id":"levelo_inurba_marseille","lat":43.28443,"lon":5.39208,"is_reserved":false,"is_disabled":false,"rental_uris":{"android":"levelo://app?vid=6b4996c0-38d9-42ce-ac44-b1c67a86aba2","ios":"levelo://app?vid=6b4996c0-38d9-42ce-ac44-b1c67a86aba2"},"vehicle_type_id":"4","last_reported":1739549464,"current_range_meters":23200,"station_id":"ce4bhoh2rcd13ifvqh5g","pricing_plan_id":"cebpf4jnsgd1na2vs0mg"},{"bike_id":"4a952340-3ff3-422a-8e56-52faffd8c272","system_id":"levelo_inurba_marseille","lat":43.30091,"lon":5.39069,"is_reserved":false,"is_disabled":false,"rental_uris":{"android":"levelo://app?vid=4a952340-3ff3-422a-8e56-52faffd8c272","ios":"levelo://app?vid=4a952340-3ff3-422a-8e56-52faffd8c272"},"vehicle_type_id":"4","last_reported":1739549464,"current_range_meters":38800,"station_id":"ce4bh192rcd13ifvqdb0","pricing_plan_id":"cebpf4jnsgd1na2vs0mg"},{"bike_id":"ff489825-db76-49d3-aa98-c1c0aaa6bdad","system_id":"levelo_inurba_marseille","lat":43.2927,"lon":5.36664,"is_reserved":false,"is_disabled":false,"rental_uris":{"android":"levelo://app?vid=ff489825-db76-49d3-aa98-c1c0aaa6bdad","ios":"levelo://app?vid=ff489825-db76-49d3-aa98-c1c0aaa6bdad"},"vehicle_type_id":"4","last_reported":1739549464,"current_range_meters":6800,"station_id":"","pricing_plan_id":"cebpf4jnsgd1na2vs0mg"},{"bike_id":"5706e020-de80-41d6-af82-2f20c63114fa","system_id":"levelo_inurba_marseille","lat":43.29412,"lon":5.38626,"is_reserved":false,"is_disabled":false,"rental_uris":{"android":"levelo://app?vid=5706e020-de80-41d6-af82-2f20c63114fa","ios":"levelo://app?vid=5706e020-de80-41d6-af82-2f20c63114fa"},"vehicle_type_id":"4","last_reported":1739549464,"current_range_meters":31200,"station_id":"ce4bh2h2rcd13ifvqdh0","pricing_plan_id":"cebpf4jnsgd1na2vs0mg"},{"bike_id":"5c866377-fe38-44cd-a863-54b2355763e9","system_id":"levelo_inurba_marseille","lat":43.290302,"lon":5.386414,"is_reserved":false,"is_disabled":false,"rental_uris":{"android":"levelo://app?vid=5c866377-fe38-44cd-a863-54b2355763e9","ios":"levelo://app?vid=5c866377-fe38-44cd-a863-54b2355763e9"},"vehicle_type_id":"4","last_reported":1739549464,"current_range_meters":24800,"station_id":"ce4bh4p2rcd13ifvqe0g","pricing_plan_id":"cebpf4jnsgd1na2vs0mg"},{"bike_id":"b1c4e360-1f20-4ad3-a1d7-c3287f14875a","system_id":"levelo_inurba_marseille","lat":43.293671,"lon":5.378505,"is_reserved":false,"is_disabled":false,"rental_uris":{"android":"levelo://app?vid=b1c4e360-1f20-4ad3-a1d7-c3287f14875a","ios":"levelo://app?vid=b1c4e360-1f20-4ad3-a1d7-c3287f14875a"},"vehicle_type_id":"4","last_reported":1739549464,"current_range_meters":20800,"station_id":"ce4bgjh2rcd13ifvqbf0","pricing_plan_id":"cebpf4jnsgd1na2vs0mg"},{"bike_id":"14e3ce4a-ca90-47db-8914-66b5afcbe195","system_id":"levelo_inurba_marseille","lat":43.30604,"lon":5.37227,"is_reserved":false,"is_disabled":false,"rental_uris":{"android":"levelo://app?vid=14e3ce4a-ca90-47db-8914-66b5afcbe195","ios":"levelo://app?vid=14e3ce4a-ca90-47db-8914-66b5afcbe195"},"vehicle_type_id":"4","last_reported":1739549464,"current_range_meters":23200,"station_id":"ce4bgqh2rcd13ifvqc4g","pricing_plan_id":"cebpf4jnsgd1na2vs0mg"},{"bike_id":"85d24a4d-5b3f-4a2c-957d-09d3f550ee51","system_id":"levelo_inurba_marseille","lat":43.27919,"lon":5.39569,"is_reserved":false,"is_disabled":true,"rental_uris":{"android":"levelo://app?vid=85d24a4d-5b3f-4a2c-957d-09d3f550ee51","ios":"levelo://app?vid=85d24a4d-5b3f-4a2c-957d-09d3f550ee51"},"vehicle_type_id":"4","last_reported":1739549464,"current_range_meters":0,"station_id":"ce4bhf92rcd13ifvqf40","pricing_plan_id":"cebpf4jnsgd1na2vs0mg"},{"bike_id":"7dc6c6c7-ee02-4232-a3bb-55512df220d6","system_id":"levelo_inurba_marseille","lat":43.30548,"lon":5.36543,"is_reserved":false,"is_disabled":false,"rental_uris":{"android":"levelo://app?vid=7dc6c6c7-ee02-4232-a3bb-55512df220d6","ios":"levelo://app?vid=7dc6c6c7-ee02-4232-a3bb-55512df220d6"},"vehicle_type_id":"4","last_reported":1739549464,"current_range_meters":34800,"station_id":"ce4bgs12rcd13ifvqcag","pricing_plan_id":"cebpf4jnsgd1na2vs0mg"},{"bike_id":"64827720-c2e5-4d81-bfed-1c4da7e9a69c","system_id":"levelo_inurba_marseille","lat":43.26492,"lon":5.39559,"is_reserved":false,"is_disabled":false,"rental_uris":{"android":"levelo://app?vid=64827720-c2e5-4d81-bfed-1c4da7e9a69c","ios":"levelo://app?vid=64827720-c2e5-4d81-bfed-1c4da7e9a69c"},"vehicle_type_id":"4","last_reported":1739549464,"current_range_meters":18800,"station_id":"ce4bhi12rcd13ifvqfq0","pricing_plan_id":"cebpf4jnsgd1na2vs0mg"},{"bike_id":"34d190c8-c9ae-47ad-8f5a-8fd7ee28b595","system_id":"levelo_inurba_marseille","lat":43.28858,"lon":5.35852,"is_reserved":false,"is_disabled":false,"rental_uris":{"android":"levelo://app?vid=34d190c8-c9ae-47ad-8f5a-8fd7ee28b595","ios":"levelo://app?vid=34d190c8-c9ae-47ad-8f5a-8fd7ee28b595"},"vehicle_type_id":"4","last_reported":1739549464,"current_range_meters":28400,"station_id":"ce4bhb12rcd13ifvqem0","pricing_plan_id":"cebpf4jnsgd1na2vs0mg"},{"bike_id":"7bb3c3c1-6da2-4ce4-8250-65715dd162df","system_id":"levelo_inurba_marseille","lat":43.27442,"lon":5.39447,"is_reserved":false,"is_disabled":true,"rental_uris":{"android":"levelo://app?vid=7bb3c3c1-6da2-4ce4-8250-65715dd162df","ios":"levelo://app?vid=7bb3c3c1-6da2-4ce4-8250-65715dd162df"},"vehicle_type_id":"4","last_reported":1739549464,"current_range_meters":0,"station_id":"","pricing_plan_id":"cebpf4jnsgd1na2vs0mg"},{"bike_id":"31e2eb6c-3600-4621-8e7d-bfb653464c0b","system_id":"levelo_inurba_marseille","lat":43.31078,"lon":5.38364,"is_reserved":false,"is_disabled":false,"rental_uris":{"android":"levelo://app?vid=31e2eb6c-3600-4621-8e7d-bfb653464c0b","ios":"levelo://app?vid=31e2eb6c-3600-4621-8e7d-bfb653464c0b"},"vehicle_type_id":"4","last_reported":1739549464,"current_range_meters":38800,"station_id":"ce4bgv92rcd13ifvqcr0","pricing_plan_id":"cebpf4jnsgd1na2vs0mg"},{"bike_id":"47733ba0-74fc-4e08-8b43-8d144f05971e","system_id":"levelo_inurba_marseille","lat":43.30531,"lon":5.36545,"is_reserved":false,"is_disabled":false,"rental_uris":{"android":"levelo://app?vid=47733ba0-74fc-4e08-8b43-8d144f05971e","ios":"levelo://app?vid=47733ba0-74fc-4e08-8b43-8d144f05971e"},"vehicle_type_id":"4","last_reported":1739549464,"current_range_meters":32000,"station_id":"ce4bgs12rcd13ifvqcag","pricing_plan_id":"cebpf4jnsgd1na2vs0mg"},{"bike_id":"564e4ed5-f649-48be-9fea-a5c4e638ce90","system_id":"levelo_inurba_marseille","lat":43.27059,"lon":5.40266,"is_reserved":false,"is_disabled":false,"rental_uris":{"android":"levelo://app?vid=564e4ed5-f649-48be-9fea-a5c4e638ce90","ios":"levelo://app?vid=564e4ed5-f649-48be-9fea-a5c4e638ce90"},"vehicle_type_id":"4","last_reported":1739549464,"current_range_meters":32000,"station_id":"ce4bhk92rcd13ifvqgc0","pricing_plan_id":"cebpf4jnsgd1na2vs0mg"},{"bike_id":"6fc7235b-f0a6-4bf5-aed0-5b9b2d472961","system_id":"levelo_inurba_marseille","lat":43.30532,"lon":5.36704,"is_reserved":false,"is_disabled":false,"rental_uris":{"android":"levelo://app?vid=6fc7235b-f0a6-4bf5-aed0-5b9b2d472961","ios":"levelo://app?vid=6fc7235b-f0a6-4bf5-aed0-5b9b2d472961"},"vehicle_type_id":"4","last_reported":1739549464,"current_range_meters":38000,"station_id":"ce4bgrp2rcd13ifvqc9g","pricing_plan_id":"cebpf4jnsgd1na2vs0mg"},{"bike_id":"9bfa8dd7-eaaa-4f40-a162-c7bde322b1c8","system_id":"levelo_inurba_marseille","lat":43.29162,"lon":5.37156,"is_reserved":false,"is_disabled":false,"rental_uris":{"android":"levelo://app?vid=9bfa8dd7-eaaa-4f40-a162-c7bde322b1c8","ios":"levelo://app?vid=9bfa8dd7-eaaa-4f40-a162-c7bde322b1c8"},"vehicle_type_id":"4","last_reported":1739549464,"current_range_meters":38800,"station_id":"ce4bha92rcd13ifvqeh0","pricing_plan_id":"cebpf4jnsgd1na2vs0mg"},{"bike_id":"5429a055-5c17-4863-ac08-ee7234bc7af8","system_id":"levelo_inurba_marseille","lat":43.3227,"lon":5.36837,"is_reserved":false,"is_disabled":false,"rental_uris":{"android":"levelo://app?vid=5429a055-5c17-4863-ac08-ee7234bc7af8","ios":"levelo://app?vid=5429a055-5c17-4863-ac08-ee7234bc7af8"},"vehicle_type_id":"4","last_reported":1739549464,"current_range_meters":36800,"station_id":"","pricing_plan_id":"cebpf4jnsgd1na2vs0mg"},{"bike_id":"4f2e006a-aea6-4dc7-bd27-cacb094193be","system_id":"levelo_inurba_marseille","lat":43.31484,"lon":5.37315,"is_reserved":false,"is_disabled":false,"rental_uris":{"android":"levelo://app?vid=4f2e006a-aea6-4dc7-bd27-cacb094193be","ios":"levelo://app?vid=4f2e006a-aea6-4dc7-bd27-cacb094193be"},"vehicle_type_id":"4","last_reported":1739549464,"current_range_meters":8000,"station_id":"ce4bgt12rcd13ifvqcd0","pricing_plan_id":"cebpf4jnsgd1na2vs0mg"},{"bike_id":"6c54bd98-99ce-4c61-b914-dd19c3edf238","system_id":"levelo_inurba_marseille","lat":43.24785,"lon":5.37413,"is_reserved":false,"is_disabled":false,"rental_uris":{"android":"levelo://app?vid=6c54bd98-99ce-4c61-b914-dd19c3edf238","ios":"levelo://app?vid=6c54bd98-99ce-4c61-b914-dd19c3edf238"},"vehicle_type_id":"4","last_reported":1739549464,"current_range_meters":38800,"station_id":"ce4bhgh2rcd13ifvqfb0","pricing_plan_id":"cebpf4jnsgd1na2vs0mg"},{"bike_id":"859c79c3-9c5b-47b3-94ad-94355d1f1457","system_id":"levelo_inurba_marseille","lat":43.24392,"lon":5.37062,"is_reserved":false,"is_disabled":false,"rental_uris":{"android":"levelo://app?vid=859c79c3-9c5b-47b3-94ad-94355d1f1457","ios":"levelo://app?vid=859c79c3-9c5b-47b3-94ad-94355d1f1457"},"vehicle_type_id":"4","last_reported":1739549464,"current_range_meters":11600,"station_id":"ce4bhhh2rcd13ifvqfk0","pricing_plan_id":"cebpf4jnsgd1na2vs0mg"},{"bike_id":"ba84295b-b70f-4291-b3a8-65315ecffcd8","system_id":"levelo_inurba_marseille","lat":43.29879,"lon":5.39732,"is_reserved":false,"is_disabled":false,"rental_uris":{"android":"levelo://app?vid=ba84295b-b70f-4291-b3a8-65315ecffcd8","ios":"levelo://app?vid=ba84295b-b70f-4291-b3a8-65315ecffcd8"},"vehicle_type_id":"4","last_reported":1739549464,"current_range_meters":18800,"station_id":"ce4bh0h2rcd13ifvqd50","pricing_plan_id":"cebpf4jnsgd1na2vs0mg"},{"bike_id":"93b2bead-6d7d-47b0-acbc-2c4d6703f671","system_id":"levelo_inurba_marseille","lat":43.29856,"lon":5.36285,"is_reserved":false,"is_disabled":false,"rental_uris":{"android":"levelo://app?vid=93b2bead-6d7d-47b0-acbc-2c4d6703f671","ios":"levelo://app?vid=93b2bead-6d7d-47b0-acbc-2c4d6703f671"},"vehicle_type_id":"4","last_reported":1739549464,"current_range_meters":39200,"station_id":"ce4bgpp2rcd13ifvqc3g","pricing_plan_id":"cebpf4jnsgd1na2vs0mg"},{"bike_id":"c9b3dfe5-db4b-4f89-8848-36650c305632","system_id":"levelo_inurba_marseille","lat":43.30922,"lon":5.36858,"is_reserved":false,"is_disabled":false,"rental_uris":{"android":"levelo://app?vid=c9b3dfe5-db4b-4f89-8848-36650c305632","ios":"levelo://app?vid=c9b3dfe5-db4b-4f89-8848-36650c305632"},"vehicle_type_id":"4","last_reported":1739549464,"current_range_meters":38800,"station_id":"ce4bgn92rcd13ifvqbvg","pricing_plan_id":"cebpf4jnsgd1na2vs0mg"},{"bike_id":"744fb4f1-7e88-4d15-903d-8b369cd072b0","system_id":"levelo_inurba_marseille","lat":43.32696,"lon":5.4093,"is_reserved":false,"is_disabled":false,"rental_uris":{"android":"levelo://app?vid=744fb4f1-7e88-4d15-903d-8b369cd072b0","ios":"levelo://app?vid=744fb4f1-7e88-4d15-903d-8b369cd072b0"},"vehicle_type_id":"4","last_reported":1739549464,"current_range_meters":18800,"station_id":"","pricing_plan_id":"cebpf4jnsgd1na2vs0mg"},{"bike_id":"4c17efce-6413-4534-8267-7be847b3cdde","system_id":"levelo_inurba_marseille","lat":43.30104,"lon":5.39066,"is_reserved":false,"is_disabled":false,"rental_uris":{"android":"levelo://app?vid=4c17efce-6413-4534-8267-7be847b3cdde","ios":"levelo://app?vid=4c17efce-6413-4534-8267-7be847b3cdde"},"vehicle_type_id":"4","last_reported":1739549464,"current_range_meters":38800,"station_id":"ce4bh192rcd13ifvqdb0","pricing_plan_id":"cebpf4jnsgd1na2vs0mg"},{"bike_id":"24c9fd7a-dfb5-4755-9c33-7fb2bb66a39c","system_id":"levelo_inurba_marseille","lat":43.30883,"lon":5.37215,"is_reserved":false,"is_disabled":false,"rental_uris":{"android":"levelo://app?vid=24c9fd7a-dfb5-4755-9c33-7fb2bb66a39c","ios":"levelo://app?vid=24c9fd7a-dfb5-4755-9c33-7fb2bb66a39c"},"vehicle_type_id":"4","last_reported":1739549464,"current_range_meters":4800,"station_id":"ce4bguh2rcd13ifvqckg","pricing_plan_id":"cebpf4jnsgd1na2vs0mg"},{"bike_id":"30a0387a-b4f9-4e4b-9234-535a916f7f58","system_id":"levelo_inurba_marseille","lat":43.26216,"lon":5.3795,"is_reserved":false,"is_disabled":false,"rental_uris":{"android":"levelo://app?vid=30a0387a-b4f9-4e4b-9234-535a916f7f58","ios":"levelo://app?vid=30a0387a-b4f9-4e4b-9234-535a916f7f58"},"vehicle_type_id":"4","last_reported":1739549464,"current_range_meters":3200,"station_id":"ce4bhjp2rcd13ifvqg90","pricing_plan_id":"cebpf4jnsgd1na2vs0mg"},{"bike_id":"b569b4de-adea-49b3-92d9-3cfc3ea3b13d","system_id":"levelo_inurba_marseille","lat":43.25,"lon":5.38943,"is_reserved":false,"is_disabled":false,"rental_uris":{"android":"levelo://app?vid=b569b4de-adea-49b3-92d9-3cfc3ea3b13d","ios":"levelo://app?vid=b569b4de-adea-49b3-92d9-3cfc3ea3b13d"},"vehicle_type_id":"4","last_reported":1739549464,"current_range_meters":9200,"station_id":"ce4bhgp2rcd13ifvqfd0","pricing_plan_id":"cebpf4jnsgd1na2vs0mg"},{"bike_id":"9fe907ee-be20-4d9f-97d2-4d173f819e3b","system_id":"levelo_inurba_marseille","lat":43.29624,"lon":5.37157,"is_reserved":false,"is_disabled":false,"rental_uris":{"android":"levelo://app?vid=9fe907ee-be20-4d9f-97d2-4d173f819e3b","ios":"levelo://app?vid=9fe907ee-be20-4d9f-97d2-4d173f819e3b"},"vehicle_type_id":"4","last_reported":1739549464,"current_range_meters":9600,"station_id":"ce4bgnh2rcd13ifvqc0g","pricing_plan_id":"cebpf4jnsgd1na2vs0mg"},{"bike_id":"d6f38d8d-bb5a-4b27-b5d4-6029f0946ece","system_id":"levelo_inurba_marseille","lat":43.27474,"lon":5.43528,"is_reserved":false,"is_disabled":false,"rental_uris":{"android":"levelo://app?vid=d6f38d8d-bb5a-4b27-b5d4-6029f0946ece","ios":"levelo://app?vid=d6f38d8d-bb5a-4b27-b5d4-6029f0946ece"},"vehicle_type_id":"4","last_reported":1739549464,"current_range_meters":8400,"station_id":"","pricing_plan_id":"cebpf4jnsgd1na2vs0mg"},{"bike_id":"a8cb174b-a028-4d1e-9d57-786b91606ee0","system_id":"levelo_inurba_marseille","lat":43.27173,"lon":5.40987,"is_reserved":false,"is_disabled":false,"rental_uris":{"android":"levelo://app?vid=a8cb174b-a028-4d1e-9d57-786b91606ee0","ios":"levelo://app?vid=a8cb174b-a028-4d1e-9d57-786b91606ee0"},"vehicle_type_id":"4","last_reported":1739549464,"current_range_meters":24000,"station_id":"ce4bhl12rcd13ifvqgf0","pricing_plan_id":"cebpf4jnsgd1na2vs0mg"},{"bike_id":"a0b5fc8f-c939-4ac7-b932-de16b49d87dc","system_id":"levelo_inurba_marseille","lat":43.30324,"lon":5.40426,"is_reserved":false,"is_disabled":true,"rental_uris":{"android":"levelo://app?vid=a0b5fc8f-c939-4ac7-b932-de16b49d87dc","ios":"levelo://app?vid=a0b5fc8f-c939-4ac7-b932-de16b49d87dc"},"vehicle_type_id":"4","last_reported":1739549464,"current_range_meters":0,"station_id":"ce4bh012rcd13ifvqd10","pricing_plan_id":"cebpf4jnsgd1na2vs0mg"},{"bike_id":"d0b51faa-4c4d-4552-a8ae-558e4314a083","system_id":"levelo_inurba_marseille","lat":43.284719,"lon":5.384162,"is_reserved":false,"is_disabled":false,"rental_uris":{"android":"levelo://app?vid=d0b51faa-4c4d-4552-a8ae-558e4314a083","ios":"levelo://app?vid=d0b51faa-4c4d-4552-a8ae-558e4314a083"},"vehicle_type_id":"4","last_reported":1739549464,"current_range_meters":20800,"station_id":"ce4bh512rcd13ifvqe3g","pricing_plan_id":"cebpf4jnsgd1na2vs0mg"},{"bike_id":"955c0517-4ef5-44b3-9230-8389e66625b8","system_id":"levelo_inurba_marseille","lat":43.30279,"lon":5.37731,"is_reserved":false,"is_disabled":false,"rental_uris":{"android":"levelo://app?vid=955c0517-4ef5-44b3-9230-8389e66625b8","ios":"levelo://app?vid=955c0517-4ef5-44b3-9230-8389e66625b8"},"vehicle_type_id":"4","last_reported":1739549464,"current_range_meters":38800,"station_id":"ce4bguh2rcd13ifvqcj0","pricing_plan_id":"cebpf4jnsgd1na2vs0mg"},{"bike_id":"8be7b359-7d75-46f9-a926-88066f1c9dde","system_id":"levelo_inurba_marseille","lat":43.31374,"lon":5.38509,"is_reserved":false,"is_disabled":false,"rental_uris":{"android":"levelo://app?vid=8be7b359-7d75-46f9-a926-88066f1c9dde","ios":"levelo://app?vid=8be7b359-7d75-46f9-a926-88066f1c9dde"},"vehicle_type_id":"4","last_reported":1739549464,"current_range_meters":24800,"station_id":"ce4bgt92rcd13ifvqcf0","pricing_plan_id":"cebpf4jnsgd1na2vs0mg"},{"bike_id":"87f766b7-4776-442b-ac83-3b350297b251","system_id":"levelo_inurba_marseille","lat":43.29023,"lon":5.38641,"is_reserved":false,"is_disabled":false,"rental_uris":{"android":"levelo://app?vid=87f766b7-4776-442b-ac83-3b350297b251","ios":"levelo://app?vid=87f766b7-4776-442b-ac83-3b350297b251"},"vehicle_type_id":"4","last_reported":1739549464,"current_range_meters":25200,"station_id":"ce4bh4p2rcd13ifvqe0g","pricing_plan_id":"cebpf4jnsgd1na2vs0mg"},{"bike_id":"c8955459-d2a6-4f41-a370-05ded8b31d7d","system_id":"levelo_inurba_marseille","lat":43.30553,"lon":5.36562,"is_reserved":false,"is_disabled":false,"rental_uris":{"android":"levelo://app?vid=c8955459-d2a6-4f41-a370-05ded8b31d7d","ios":"levelo://app?vid=c8955459-d2a6-4f41-a370-05ded8b31d7d"},"vehicle_type_id":"4","last_reported":1739549464,"current_range_meters":28000,"station_id":"ce4bgs12rcd13ifvqcag","pricing_plan_id":"cebpf4jnsgd1na2vs0mg"},{"bike_id":"25e2f5c0-d416-4e0e-b10b-80dd1188218e","system_id":"levelo_inurba_marseille","lat":43.298,"lon":5.40399,"is_reserved":false,"is_disabled":false,"rental_uris":{"android":"levelo://app?vid=25e2f5c0-d416-4e0e-b10b-80dd1188218e","ios":"levelo://app?vid=25e2f5c0-d416-4e0e-b10b-80dd1188218e"},"vehicle_type_id":"4","last_reported":1739549464,"current_range_meters":30800,"station_id":"ce4bh112rcd13ifvqd90","pricing_plan_id":"cebpf4jnsgd1na2vs0mg"},{"bike_id":"ddf1d674-41d6-443f-b0f1-1da7df267862","system_id":"levelo_inurba_marseille","lat":43.2305,"lon":5.35508,"is_reserved":false,"is_disabled":false,"rental_uris":{"android":"levelo://app?vid=ddf1d674-41d6-443f-b0f1-1da7df267862","ios":"levelo://app?vid=ddf1d674-41d6-443f-b0f1-1da7df267862"},"vehicle_type_id":"4","last_reported":1739549464,"current_range_meters":25200,"station_id":"cpo3342slgdg3j2ifvpg","pricing_plan_id":"cebpf4jnsgd1na2vs0mg"},{"bike_id":"5b87e34f-e9bb-47d0-829d-382e7c8b0a92","system_id":"levelo_inurba_marseille","lat":43.24651,"lon":5.38887,"is_reserved":false,"is_disabled":false,"rental_uris":{"android":"levelo://app?vid=5b87e34f-e9bb-47d0-829d-382e7c8b0a92","ios":"levelo://app?vid=5b87e34f-e9bb-47d0-829d-382e7c8b0a92"},"vehicle_type_id":"4","last_reported":1739549464,"current_range_meters":9200,"station_id":"ce4bhg12rcd13ifvqf60","pricing_plan_id":"cebpf4jnsgd1na2vs0mg"},{"bike_id":"1a1cb256-3b19-4e4f-b9dc-dae154ac3702","system_id":"levelo_inurba_marseille","lat":43.2621,"lon":5.37452,"is_reserved":false,"is_disabled":false,"rental_uris":{"android":"levelo://app?vid=1a1cb256-3b19-4e4f-b9dc-dae154ac3702","ios":"levelo://app?vid=1a1cb256-3b19-4e4f-b9dc-dae154ac3702"},"vehicle_type_id":"4","last_reported":1739549464,"current_range_meters":32400,"station_id":"ce4bhgp2rcd13ifvqfc0","pricing_plan_id":"cebpf4jnsgd1na2vs0mg"},{"bike_id":"c419dff0-f684-4643-a4c0-cfec2654a475","system_id":"levelo_inurba_marseille","lat":43.26952,"lon":5.40214,"is_reserved":false,"is_disabled":false,"rental_uris":{"android":"levelo://app?vid=c419dff0-f684-4643-a4c0-cfec2654a475","ios":"levelo://app?vid=c419dff0-f684-4643-a4c0-cfec2654a475"},"vehicle_type_id":"4","last_reported":1739549464,"current_range_meters":11200,"station_id":"cjm6bp8fraef2m0cb0m0","pricing_plan_id":"cebpf4jnsgd1na2vs0mg"},{"bike_id":"23dad296-342c-4bbe-a5e1-8f86c5c0441f","system_id":"levelo_inurba_marseille","lat":43.31884,"lon":5.40737,"is_reserved":false,"is_disabled":false,"rental_uris":{"android":"levelo://app?vid=23dad296-342c-4bbe-a5e1-8f86c5c0441f","ios":"levelo://app?vid=23dad296-342c-4bbe-a5e1-8f86c5c0441f"},"vehicle_type_id":"4","last_reported":1739549464,"current_range_meters":17200,"station_id":"ce4bhq12rcd13ifvqhig","pricing_plan_id":"cebpf4jnsgd1na2vs0mg"},{"bike_id":"4161ca11-211b-46ad-bc57-b35cf13b9555","system_id":"levelo_inurba_marseille","lat":43.30602,"lon":5.37209,"is_reserved":false,"is_disabled":false,"rental_uris":{"android":"levelo://app?vid=4161ca11-211b-46ad-bc57-b35cf13b9555","ios":"levelo://app?vid=4161ca11-211b-46ad-bc57-b35cf13b9555"},"vehicle_type_id":"4","last_reported":1739549464,"current_range_meters":32800,"station_id":"ce4bgqh2rcd13ifvqc4g","pricing_plan_id":"cebpf4jnsgd1na2vs0mg"},{"bike_id":"c9645a26-5874-480f-a11e-46d2257542e0","system_id":"levelo_inurba_marseille","lat":43.27544,"lon":5.38679,"is_reserved":false,"is_disabled":false,"rental_uris":{"android":"levelo://app?vid=c9645a26-5874-480f-a11e-46d2257542e0","ios":"levelo://app?vid=c9645a26-5874-480f-a11e-46d2257542e0"},"vehicle_type_id":"4","last_reported":1739549464,"current_range_meters":33600,"station_id":"","pricing_plan_id":"cebpf4jnsgd1na2vs0mg"},{"bike_id":"4450d397-c7c4-4c68-aed9-fa811598c082","system_id":"levelo_inurba_marseille","lat":43.32562,"lon":5.36532,"is_reserved":false,"is_disabled":false,"rental_uris":{"android":"levelo://app?vid=4450d397-c7c4-4c68-aed9-fa811598c082","ios":"levelo://app?vid=4450d397-c7c4-4c68-aed9-fa811598c082"},"vehicle_type_id":"4","last_reported":1739549464,"current_range_meters":30000,"station_id":"","pricing_plan_id":"cebpf4jnsgd1na2vs0mg"},{"bike_id":"28a16aee-71d6-4cb1-b35a-d4320a6bf584","system_id":"levelo_inurba_marseille","lat":43.32364,"lon":5.38903,"is_reserved":false,"is_disabled":false,"rental_uris":{"android":"levelo://app?vid=28a16aee-71d6-4cb1-b35a-d4320a6bf584","ios":"levelo://app?vid=28a16aee-71d6-4cb1-b35a-d4320a6bf584"},"vehicle_type_id":"4","last_reported":1739549464,"current_range_meters":24800,"station_id":"ce4bhqp2rcd13ifvqhog","pricing_plan_id":"cebpf4jnsgd1na2vs0mg"},{"bike_id":"59cb679e-245c-46b7-bc74-dfa7c14bb16c","system_id":"levelo_inurba_marseille","lat":43.29,"lon":5.35614,"is_reserved":false,"is_disabled":true,"rental_uris":{"android":"levelo://app?vid=59cb679e-245c-46b7-bc74-dfa7c14bb16c","ios":"levelo://app?vid=59cb679e-245c-46b7-bc74-dfa7c14bb16c"},"vehicle_type_id":"4","last_reported":1739549464,"current_range_meters":38800,"station_id":"ce4bhb92rcd13ifvqen0","pricing_plan_id":"cebpf4jnsgd1na2vs0mg"},{"bike_id":"36ac1b33-f00e-4eb9-b212-c06976f935f5","system_id":"levelo_inurba_marseille","lat":43.27678,"lon":5.38875,"is_reserved":false,"is_disabled":false,"rental_uris":{"android":"levelo://app?vid=36ac1b33-f00e-4eb9-b212-c06976f935f5","ios":"levelo://app?vid=36ac1b33-f00e-4eb9-b212-c06976f935f5"},"vehicle_type_id":"4","last_reported":1739549464,"current_range_meters":30400,"station_id":"ce4bhi12rcd13ifvqfo0","pricing_plan_id":"cebpf4jnsgd1na2vs0mg"},{"bike_id":"a8bc8483-ceef-456e-92ec-efcc9ae8cb95","system_id":"levelo_inurba_marseille","lat":43.27616,"lon":5.36108,"is_reserved":false,"is_disabled":false,"rental_uris":{"android":"levelo://app?vid=a8bc8483-ceef-456e-92ec-efcc9ae8cb95","ios":"levelo://app?vid=a8bc8483-ceef-456e-92ec-efcc9ae8cb95"},"vehicle_type_id":"4","last_reported":1739549464,"current_range_meters":38000,"station_id":"ce4bgj92rcd13ifvqbe0","pricing_plan_id":"cebpf4jnsgd1na2vs0mg"},{"bike_id":"ef8053eb-5d87-4eff-b714-0726f282fbc9","system_id":"levelo_inurba_marseille","lat":43.2782,"lon":5.40717,"is_reserved":false,"is_disabled":false,"rental_uris":{"android":"levelo://app?vid=ef8053eb-5d87-4eff-b714-0726f282fbc9","ios":"levelo://app?vid=ef8053eb-5d87-4eff-b714-0726f282fbc9"},"vehicle_type_id":"4","last_reported":1739549464,"current_range_meters":12400,"station_id":"ce4bhnh2rcd13ifvqgtg","pricing_plan_id":"cebpf4jnsgd1na2vs0mg"},{"bike_id":"6b656e81-a99f-458b-b133-2509327cf097","system_id":"levelo_inurba_marseille","lat":43.282521,"lon":5.36092,"is_reserved":false,"is_disabled":false,"rental_uris":{"android":"levelo://app?vid=6b656e81-a99f-458b-b133-2509327cf097","ios":"levelo://app?vid=6b656e81-a99f-458b-b133-2509327cf097"},"vehicle_type_id":"4","last_reported":1739549464,"current_range_meters":12800,"station_id":"","pricing_plan_id":"cebpf4jnsgd1na2vs0mg"},{"bike_id":"fb27585c-d37a-46e8-9dff-7cf672c65eab","system_id":"levelo_inurba_marseille","lat":43.30153,"lon":5.37416,"is_reserved":false,"is_disabled":false,"rental_uris":{"android":"levelo://app?vid=fb27585c-d37a-46e8-9dff-7cf672c65eab","ios":"levelo://app?vid=fb27585c-d37a-46e8-9dff-7cf672c65eab"},"vehicle_type_id":"4","last_reported":1739549464,"current_range_meters":26000,"station_id":"ce4bgs92rcd13ifvqcc0","pricing_plan_id":"cebpf4jnsgd1na2vs0mg"},{"bike_id":"b64cb318-9a9d-45df-b9e1-d16ce258851f","system_id":"levelo_inurba_marseille","lat":43.2816,"lon":5.42665,"is_reserved":false,"is_disabled":true,"rental_uris":{"android":"levelo://app?vid=b64cb318-9a9d-45df-b9e1-d16ce258851f","ios":"levelo://app?vid=b64cb318-9a9d-45df-b9e1-d16ce258851f"},"vehicle_type_id":"4","last_reported":1739549464,"current_range_meters":800,"station_id":"ce4bhnh2rcd13ifvqgug","pricing_plan_id":"cebpf4jnsgd1na2vs0mg"},{"bike_id":"77c8b1ec-f5c0-4293-827a-c8e3c2f6a9bd","system_id":"levelo_inurba_marseille","lat":43.30929,"lon":5.40142,"is_reserved":false,"is_disabled":false,"rental_uris":{"android":"levelo://app?vid=77c8b1ec-f5c0-4293-827a-c8e3c2f6a9bd","ios":"levelo://app?vid=77c8b1ec-f5c0-4293-827a-c8e3c2f6a9bd"},"vehicle_type_id":"4","last_reported":1739549464,"current_range_meters":38800,"station_id":"ce4bgvp2rcd13ifvqct0","pricing_plan_id":"cebpf4jnsgd1na2vs0mg"},{"bike_id":"8cd34743-59ad-4597-983e-df465622bf8b","system_id":"levelo_inurba_marseille","lat":43.28675,"lon":5.38672,"is_reserved":false,"is_disabled":false,"rental_uris":{"android":"levelo://app?vid=8cd34743-59ad-4597-983e-df465622bf8b","ios":"levelo://app?vid=8cd34743-59ad-4597-983e-df465622bf8b"},"vehicle_type_id":"4","last_reported":1739549464,"current_range_meters":39200,"station_id":"ce4bh492rcd13ifvqdug","pricing_plan_id":"cebpf4jnsgd1na2vs0mg"},{"bike_id":"03690606-29fa-4cb2-8bb1-773c46c4c5e8","system_id":"levelo_inurba_marseille","lat":43.27209,"lon":5.39176,"is_reserved":false,"is_disabled":false,"rental_uris":{"android":"levelo://app?vid=03690606-29fa-4cb2-8bb1-773c46c4c5e8","ios":"levelo://app?vid=03690606-29fa-4cb2-8bb1-773c46c4c5e8"},"vehicle_type_id":"4","last_reported":1739549464,"current_range_meters":33200,"station_id":"ce4bhhp2rcd13ifvqfm0","pricing_plan_id":"cebpf4jnsgd1na2vs0mg"},{"bike_id":"1ff62c13-188e-4e19-b19d-43c6bcdcd865","system_id":"levelo_inurba_marseille","lat":43.28478,"lon":5.39297,"is_reserved":false,"is_disabled":false,"rental_uris":{"android":"levelo://app?vid=1ff62c13-188e-4e19-b19d-43c6bcdcd865","ios":"levelo://app?vid=1ff62c13-188e-4e19-b19d-43c6bcdcd865"},"vehicle_type_id":"4","last_reported":1739549464,"current_range_meters":28000,"station_id":"ce4bhoh2rcd13ifvqh5g","pricing_plan_id":"cebpf4jnsgd1na2vs0mg"},{"bike_id":"53c5123e-435e-4aee-91a5-e6ad241f2d76","system_id":"levelo_inurba_marseille","lat":43.3126,"lon":5.36876,"is_reserved":false,"is_disabled":false,"rental_uris":{"android":"levelo://app?vid=53c5123e-435e-4aee-91a5-e6ad241f2d76","ios":"levelo://app?vid=53c5123e-435e-4aee-91a5-e6ad241f2d76"},"vehicle_type_id":"4","last_reported":1739549464,"current_range_meters":24000,"station_id":"ce4bgl92rcd13ifvqbq0","pricing_plan_id":"cebpf4jnsgd1na2vs0mg"},{"bike_id":"62862006-05b4-4c32-b74d-3d73ca0f3a49","system_id":"levelo_inurba_marseille","lat":43.29493,"lon":5.36395,"is_reserved":false,"is_disabled":true,"rental_uris":{"android":"levelo://app?vid=62862006-05b4-4c32-b74d-3d73ca0f3a49","ios":"levelo://app?vid=62862006-05b4-4c32-b74d-3d73ca0f3a49"},"vehicle_type_id":"4","last_reported":1739549464,"current_range_meters":25600,"station_id":"","pricing_plan_id":"cebpf4jnsgd1na2vs0mg"},{"bike_id":"d4198f78-cfed-4830-b891-47c26a75945e","system_id":"levelo_inurba_marseille","lat":43.29011,"lon":5.35621,"is_reserved":false,"is_disabled":false,"rental_uris":{"android":"levelo://app?vid=d4198f78-cfed-4830-b891-47c26a75945e","ios":"levelo://app?vid=d4198f78-cfed-4830-b891-47c26a75945e"},"vehicle_type_id":"4","last_reported":1739549464,"current_range_meters":38800,"station_id":"ce4bhb92rcd13ifvqen0","pricing_plan_id":"cebpf4jnsgd1na2vs0mg"},{"bike_id":"5d1b1658-d09d-4dbd-a74a-28ee3a39c01a","system_id":"levelo_inurba_marseille","lat":43.30603,"lon":5.372234,"is_reserved":false,"is_disabled":false,"rental_uris":{"android":"levelo://app?vid=5d1b1658-d09d-4dbd-a74a-28ee3a39c01a","ios":"levelo://app?vid=5d1b1658-d09d-4dbd-a74a-28ee3a39c01a"},"vehicle_type_id":"4","last_reported":1739549464,"current_range_meters":15200,"station_id":"ce4bgpp2rcd13ifvqc3g","pricing_plan_id":"cebpf4jnsgd1na2vs0mg"},{"bike_id":"d53dfbe1-e8b6-48e2-bf13-5a5bbc2c73e4","system_id":"levelo_inurba_marseille","lat":43.30442,"lon":5.38897,"is_reserved":false,"is_disabled":false,"rental_uris":{"android":"levelo://app?vid=d53dfbe1-e8b6-48e2-bf13-5a5bbc2c73e4","ios":"levelo://app?vid=d53dfbe1-e8b6-48e2-bf13-5a5bbc2c73e4"},"vehicle_type_id":"4","last_reported":1739549464,"current_range_meters":38400,"station_id":"ce4bgk12rcd13ifvqbi0","pricing_plan_id":"cebpf4jnsgd1na2vs0mg"},{"bike_id":"63dcde03-1c93-4b06-98de-c17e2e2a1b80","system_id":"levelo_inurba_marseille","lat":43.30344,"lon":5.41869,"is_reserved":false,"is_disabled":false,"rental_uris":{"android":"levelo://app?vid=63dcde03-1c93-4b06-98de-c17e2e2a1b80","ios":"levelo://app?vid=63dcde03-1c93-4b06-98de-c17e2e2a1b80"},"vehicle_type_id":"4","last_reported":1739549464,"current_range_meters":38800,"station_id":"ce4bhop2rcd13ifvqh7g","pricing_plan_id":"cebpf4jnsgd1na2vs0mg"},{"bike_id":"92acdede-32ef-428c-a0ea-cece8a9257f2","system_id":"levelo_inurba_marseille","lat":43.29893,"lon":5.39706,"is_reserved":false,"is_disabled":false,"rental_uris":{"android":"levelo://app?vid=92acdede-32ef-428c-a0ea-cece8a9257f2","ios":"levelo://app?vid=92acdede-32ef-428c-a0ea-cece8a9257f2"},"vehicle_type_id":"4","last_reported":1739549464,"current_range_meters":38800,"station_id":"ce4bh0h2rcd13ifvqd50","pricing_plan_id":"cebpf4jnsgd1na2vs0mg"},{"bike_id":"3760be46-9947-4266-a54f-ee253cc823c2","system_id":"levelo_inurba_marseille","lat":43.287,"lon":5.37421,"is_reserved":false,"is_disabled":false,"rental_uris":{"android":"levelo://app?vid=3760be46-9947-4266-a54f-ee253cc823c2","ios":"levelo://app?vid=3760be46-9947-4266-a54f-ee253cc823c2"},"vehicle_type_id":"4","last_reported":1739549464,"current_range_meters":38400,"station_id":"ce4bh3p2rcd13ifvqdq0","pricing_plan_id":"cebpf4jnsgd1na2vs0mg"},{"bike_id":"30364dc2-661f-4966-9215-957a716e89d2","system_id":"levelo_inurba_marseille","lat":43.28614,"lon":5.35106,"is_reserved":false,"is_disabled":false,"rental_uris":{"android":"levelo://app?vid=30364dc2-661f-4966-9215-957a716e89d2","ios":"levelo://app?vid=30364dc2-661f-4966-9215-957a716e89d2"},"vehicle_type_id":"4","last_reported":1739549464,"current_range_meters":19600,"station_id":"ce4bhch2rcd13ifvqeug","pricing_plan_id":"cebpf4jnsgd1na2vs0mg"},{"bike_id":"e031351b-efdb-4640-8255-b69e1640bbff","system_id":"levelo_inurba_marseille","lat":43.241665,"lon":5.363935,"is_reserved":false,"is_disabled":false,"rental_uris":{"android":"levelo://app?vid=e031351b-efdb-4640-8255-b69e1640bbff","ios":"levelo://app?vid=e031351b-efdb-4640-8255-b69e1640bbff"},"vehicle_type_id":"4","last_reported":1739549464,"current_range_meters":33600,"station_id":"cpo36qri1sfpv3e86is0","pricing_plan_id":"cebpf4jnsgd1na2vs0mg"},{"bike_id":"4baceeb3-6ca2-4c96-9ab1-b644e5563264","system_id":"levelo_inurba_marseille","lat":43.30133,"lon":5.38799,"is_reserved":false,"is_disabled":true,"rental_uris":{"android":"levelo://app?vid=4baceeb3-6ca2-4c96-9ab1-b644e5563264","ios":"levelo://app?vid=4baceeb3-6ca2-4c96-9ab1-b644e5563264"},"vehicle_type_id":"4","last_reported":1739549464,"current_range_meters":0,"station_id":"ce4bghh2rcd13ifvqb60","pricing_plan_id":"cebpf4jnsgd1na2vs0mg"},{"bike_id":"c159cea5-51cc-4c79-b782-4a4f30004ebd","system_id":"levelo_inurba_marseille","lat":43.26808,"lon":5.4027,"is_reserved":false,"is_disabled":false,"rental_uris":{"android":"levelo://app?vid=c159cea5-51cc-4c79-b782-4a4f30004ebd","ios":"levelo://app?vid=c159cea5-51cc-4c79-b782-4a4f30004ebd"},"vehicle_type_id":"4","last_reported":1739549464,"current_range_meters":26000,"station_id":"ce501612rcd8frsf0b60","pricing_plan_id":"cebpf4jnsgd1na2vs0mg"},{"bike_id":"ee566f3d-0e78-4ced-ac1b-e3b33c18e89e","system_id":"levelo_inurba_marseille","lat":43.24391,"lon":5.37052,"is_reserved":false,"is_disabled":false,"rental_uris":{"android":"levelo://app?vid=ee566f3d-0e78-4ced-ac1b-e3b33c18e89e","ios":"levelo://app?vid=ee566f3d-0e78-4ced-ac1b-e3b33c18e89e"},"vehicle_type_id":"4","last_reported":1739549464,"current_range_meters":16800,"station_id":"ce4bhhh2rcd13ifvqfk0","pricing_plan_id":"cebpf4jnsgd1na2vs0mg"},{"bike_id":"f6f6bf0d-dd51-4f95-bcdc-8b8b0501ea05","system_id":"levelo_inurba_marseille","lat":43.27342,"lon":5.3908,"is_reserved":false,"is_disabled":false,"rental_uris":{"android":"levelo://app?vid=f6f6bf0d-dd51-4f95-bcdc-8b8b0501ea05","ios":"levelo://app?vid=f6f6bf0d-dd51-4f95-bcdc-8b8b0501ea05"},"vehicle_type_id":"4","last_reported":1739549464,"current_range_meters":20400,"station_id":"ce4bhgp2rcd13ifvqfe0","pricing_plan_id":"cebpf4jnsgd1na2vs0mg"},{"bike_id":"fe2f6787-4ebb-4359-8526-74fd6a592b79","system_id":"levelo_inurba_marseille","lat":43.26946,"lon":5.3891,"is_reserved":false,"is_disabled":false,"rental_uris":{"android":"levelo://app?vid=fe2f6787-4ebb-4359-8526-74fd6a592b79","ios":"levelo://app?vid=fe2f6787-4ebb-4359-8526-74fd6a592b79"},"vehicle_type_id":"4","last_reported":1739549464,"current_range_meters":38400,"station_id":"ce4bhhh2rcd13ifvqfl0","pricing_plan_id":"cebpf4jnsgd1na2vs0mg"},{"bike_id":"c640fc38-e54b-4af1-92ad-d2c50e20e738","system_id":"levelo_inurba_marseille","lat":43.24996,"lon":5.38937,"is_reserved":false,"is_disabled":false,"rental_uris":{"android":"levelo://app?vid=c640fc38-e54b-4af1-92ad-d2c50e20e738","ios":"levelo://app?vid=c640fc38-e54b-4af1-92ad-d2c50e20e738"},"vehicle_type_id":"4","last_reported":1739549464,"current_range_meters":38800,"station_id":"ce4bhgp2rcd13ifvqfd0","pricing_plan_id":"cebpf4jnsgd1na2vs0mg"},{"bike_id":"ee7c1c47-5d22-492a-b3ac-d7c2c4e2182e","system_id":"levelo_inurba_marseille","lat":43.29262,"lon":5.40913,"is_reserved":false,"is_disabled":false,"rental_uris":{"android":"levelo://app?vid=ee7c1c47-5d22-492a-b3ac-d7c2c4e2182e","ios":"levelo://app?vid=ee7c1c47-5d22-492a-b3ac-d7c2c4e2182e"},"vehicle_type_id":"4","last_reported":1739549464,"current_range_meters":28400,"station_id":"ce4bh192rcd13ifvqdc0","pricing_plan_id":"cebpf4jnsgd1na2vs0mg"},{"bike_id":"cd2d2ac0-93da-45ff-8e41-9606ca6ca619","system_id":"levelo_inurba_marseille","lat":43.25833,"lon":5.39436,"is_reserved":false,"is_disabled":false,"rental_uris":{"android":"levelo://app?vid=cd2d2ac0-93da-45ff-8e41-9606ca6ca619","ios":"levelo://app?vid=cd2d2ac0-93da-45ff-8e41-9606ca6ca619"},"vehicle_type_id":"4","last_reported":1739549464,"current_range_meters":32000,"station_id":"ce4bhip2rcd13ifvqft0","pricing_plan_id":"cebpf4jnsgd1na2vs0mg"},{"bike_id":"d2390134-cb0a-4e75-9b5a-5182f3230d9e","system_id":"levelo_inurba_marseille","lat":43.30142,"lon":5.37405,"is_reserved":false,"is_disabled":false,"rental_uris":{"android":"levelo://app?vid=d2390134-cb0a-4e75-9b5a-5182f3230d9e","ios":"levelo://app?vid=d2390134-cb0a-4e75-9b5a-5182f3230d9e"},"vehicle_type_id":"4","last_reported":1739549464,"current_range_meters":38800,"station_id":"ce4bgs92rcd13ifvqcc0","pricing_plan_id":"cebpf4jnsgd1na2vs0mg"},{"bike_id":"aef86154-ad01-48c3-ad30-4eaec881a6d2","system_id":"levelo_inurba_marseille","lat":43.27073,"lon":5.42289,"is_reserved":false,"is_disabled":false,"rental_uris":{"android":"levelo://app?vid=aef86154-ad01-48c3-ad30-4eaec881a6d2","ios":"levelo://app?vid=aef86154-ad01-48c3-ad30-4eaec881a6d2"},"vehicle_type_id":"4","last_reported":1739549464,"current_range_meters":38400,"station_id":"ce4bhk92rcd13ifvqgb0","pricing_plan_id":"cebpf4jnsgd1na2vs0mg"},{"bike_id":"4942a28e-f1b7-4347-98f4-bd2b06cb6a2b","system_id":"levelo_inurba_marseille","lat":43.30925,"lon":5.4016,"is_reserved":false,"is_disabled":false,"rental_uris":{"android":"levelo://app?vid=4942a28e-f1b7-4347-98f4-bd2b06cb6a2b","ios":"levelo://app?vid=4942a28e-f1b7-4347-98f4-bd2b06cb6a2b"},"vehicle_type_id":"4","last_reported":1739549464,"current_range_meters":28800,"station_id":"ce4bgvp2rcd13ifvqct0","pricing_plan_id":"cebpf4jnsgd1na2vs0mg"},{"bike_id":"6cbf8472-67cd-4eef-95a0-1ab7cd9615e0","system_id":"levelo_inurba_marseille","lat":43.29842,"lon":5.36262,"is_reserved":false,"is_disabled":false,"rental_uris":{"android":"levelo://app?vid=6cbf8472-67cd-4eef-95a0-1ab7cd9615e0","ios":"levelo://app?vid=6cbf8472-67cd-4eef-95a0-1ab7cd9615e0"},"vehicle_type_id":"4","last_reported":1739549464,"current_range_meters":24400,"station_id":"ce4bgpp2rcd13ifvqc3g","pricing_plan_id":"cebpf4jnsgd1na2vs0mg"},{"bike_id":"fc1cdf3d-f624-44fc-b746-766fd54a496e","system_id":"levelo_inurba_marseille","lat":43.29218,"lon":5.36076,"is_reserved":false,"is_disabled":false,"rental_uris":{"android":"levelo://app?vid=fc1cdf3d-f624-44fc-b746-766fd54a496e","ios":"levelo://app?vid=fc1cdf3d-f624-44fc-b746-766fd54a496e"},"vehicle_type_id":"4","last_reported":1739549464,"current_range_meters":22400,"station_id":"ce4bhbh2rcd13ifvqeqg","pricing_plan_id":"cebpf4jnsgd1na2vs0mg"},{"bike_id":"3643e00e-d557-45c3-9c3a-156a3faa0884","system_id":"levelo_inurba_marseille","lat":43.24382,"lon":5.37056,"is_reserved":false,"is_disabled":false,"rental_uris":{"android":"levelo://app?vid=3643e00e-d557-45c3-9c3a-156a3faa0884","ios":"levelo://app?vid=3643e00e-d557-45c3-9c3a-156a3faa0884"},"vehicle_type_id":"4","last_reported":1739549464,"current_range_meters":22000,"station_id":"ce4bhhh2rcd13ifvqfk0","pricing_plan_id":"cebpf4jnsgd1na2vs0mg"},{"bike_id":"e5ef80dd-4702-46bb-bfde-5dd61590a716","system_id":"levelo_inurba_marseille","lat":43.29258,"lon":5.40923,"is_reserved":false,"is_disabled":false,"rental_uris":{"android":"levelo://app?vid=e5ef80dd-4702-46bb-bfde-5dd61590a716","ios":"levelo://app?vid=e5ef80dd-4702-46bb-bfde-5dd61590a716"},"vehicle_type_id":"4","last_reported":1739549464,"current_range_meters":36400,"station_id":"ce4bh192rcd13ifvqdc0","pricing_plan_id":"cebpf4jnsgd1na2vs0mg"},{"bike_id":"a0f3b484-b0e7-4ed2-8c7c-86fc1fec1e14","system_id":"levelo_inurba_marseille","lat":43.29611,"lon":5.3723,"is_reserved":false,"is_disabled":false,"rental_uris":{"android":"levelo://app?vid=a0f3b484-b0e7-4ed2-8c7c-86fc1fec1e14","ios":"levelo://app?vid=a0f3b484-b0e7-4ed2-8c7c-86fc1fec1e14"},"vehicle_type_id":"4","last_reported":1739549464,"current_range_meters":32400,"station_id":"","pricing_plan_id":"cebpf4jnsgd1na2vs0mg"},{"bike_id":"351e2369-279c-485b-a2c1-023f7d60c956","system_id":"levelo_inurba_marseille","lat":43.29007,"lon":5.35618,"is_reserved":false,"is_disabled":false,"rental_uris":{"android":"levelo://app?vid=351e2369-279c-485b-a2c1-023f7d60c956","ios":"levelo://app?vid=351e2369-279c-485b-a2c1-023f7d60c956"},"vehicle_type_id":"4","last_reported":1739549464,"current_range_meters":39200,"station_id":"ce4bhb92rcd13ifvqen0","pricing_plan_id":"cebpf4jnsgd1na2vs0mg"},{"bike_id":"b6e01b35-7f6e-4174-86a0-abcf5069756c","system_id":"levelo_inurba_marseille","lat":43.24388,"lon":5.37066,"is_reserved":false,"is_disabled":false,"rental_uris":{"android":"levelo://app?vid=b6e01b35-7f6e-4174-86a0-abcf5069756c","ios":"levelo://app?vid=b6e01b35-7f6e-4174-86a0-abcf5069756c"},"vehicle_type_id":"4","last_reported":1739549464,"current_range_meters":23200,"station_id":"ce4bhhh2rcd13ifvqfk0","pricing_plan_id":"cebpf4jnsgd1na2vs0mg"},{"bike_id":"7ec7d557-b992-4a6d-b60b-14e3a1b9f55a","system_id":"levelo_inurba_marseille","lat":43.26939,"lon":5.40263,"is_reserved":false,"is_disabled":false,"rental_uris":{"android":"levelo://app?vid=7ec7d557-b992-4a6d-b60b-14e3a1b9f55a","ios":"levelo://app?vid=7ec7d557-b992-4a6d-b60b-14e3a1b9f55a"},"vehicle_type_id":"4","last_reported":1739549464,"current_range_meters":5600,"station_id":"cjm6bp8fraef2m0cb0m0","pricing_plan_id":"cebpf4jnsgd1na2vs0mg"},{"bike_id":"d416e95d-a967-4111-8f22-5cff311f8b65","system_id":"levelo_inurba_marseille","lat":43.30218,"lon":5.39466,"is_reserved":false,"is_disabled":false,"rental_uris":{"android":"levelo://app?vid=d416e95d-a967-4111-8f22-5cff311f8b65","ios":"levelo://app?vid=d416e95d-a967-4111-8f22-5cff311f8b65"},"vehicle_type_id":"4","last_reported":1739549464,"current_range_meters":38800,"station_id":"ce4bh0p2rcd13ifvqd70","pricing_plan_id":"cebpf4jnsgd1na2vs0mg"},{"bike_id":"34871b78-7c6b-4a45-854a-a794af1498d9","system_id":"levelo_inurba_marseille","lat":43.266844,"lon":5.38271,"is_reserved":false,"is_disabled":false,"rental_uris":{"android":"levelo://app?vid=34871b78-7c6b-4a45-854a-a794af1498d9","ios":"levelo://app?vid=34871b78-7c6b-4a45-854a-a794af1498d9"},"vehicle_type_id":"4","last_reported":1739549464,"current_range_meters":13600,"station_id":"ce4bhg92rcd13ifvqf90","pricing_plan_id":"cebpf4jnsgd1na2vs0mg"},{"bike_id":"90d6b28b-d2ff-499b-949c-5a4f2ff008b1","system_id":"levelo_inurba_marseille","lat":43.24393,"lon":5.37057,"is_reserved":false,"is_disabled":false,"rental_uris":{"android":"levelo://app?vid=90d6b28b-d2ff-499b-949c-5a4f2ff008b1","ios":"levelo://app?vid=90d6b28b-d2ff-499b-949c-5a4f2ff008b1"},"vehicle_type_id":"4","last_reported":1739549464,"current_range_meters":38800,"station_id":"ce4bhhh2rcd13ifvqfk0","pricing_plan_id":"cebpf4jnsgd1na2vs0mg"},{"bike_id":"71ef33f5-8165-4223-a78b-4f290e38078d","system_id":"levelo_inurba_marseille","lat":43.31321,"lon":5.39699,"is_reserved":false,"is_disabled":false,"rental_uris":{"android":"levelo://app?vid=71ef33f5-8165-4223-a78b-4f290e38078d","ios":"levelo://app?vid=71ef33f5-8165-4223-a78b-4f290e38078d"},"vehicle_type_id":"4","last_reported":1739549464,"current_range_meters":38000,"station_id":"ce4bgvp2rcd13ifvqcu0","pricing_plan_id":"cebpf4jnsgd1na2vs0mg"},{"bike_id":"34141518-2329-4810-b031-afbbcd35d40a","system_id":"levelo_inurba_marseille","lat":43.25929,"lon":5.40913,"is_reserved":false,"is_disabled":false,"rental_uris":{"android":"levelo://app?vid=34141518-2329-4810-b031-afbbcd35d40a","ios":"levelo://app?vid=34141518-2329-4810-b031-afbbcd35d40a"},"vehicle_type_id":"4","last_reported":1739549464,"current_range_meters":30000,"station_id":"ce4bhm92rcd13ifvqglg","pricing_plan_id":"cebpf4jnsgd1na2vs0mg"},{"bike_id":"c1665b9a-8804-49fb-a2e7-87ab5bdd8b6d","system_id":"levelo_inurba_marseille","lat":43.3373,"lon":5.3918,"is_reserved":false,"is_disabled":false,"rental_uris":{"android":"levelo://app?vid=c1665b9a-8804-49fb-a2e7-87ab5bdd8b6d","ios":"levelo://app?vid=c1665b9a-8804-49fb-a2e7-87ab5bdd8b6d"},"vehicle_type_id":"4","last_reported":1739549464,"current_range_meters":38800,"station_id":"ce4bhr92rcd13ifvqhsg","pricing_plan_id":"cebpf4jnsgd1na2vs0mg"},{"bike_id":"9849b2fc-a95b-422f-a196-d18f8dddc31b","system_id":"levelo_inurba_marseille","lat":43.292237,"lon":5.360603,"is_reserved":false,"is_disabled":false,"rental_uris":{"android":"levelo://app?vid=9849b2fc-a95b-422f-a196-d18f8dddc31b","ios":"levelo://app?vid=9849b2fc-a95b-422f-a196-d18f8dddc31b"},"vehicle_type_id":"4","last_reported":1739549464,"current_range_meters":22800,"station_id":"ce4bhbh2rcd13ifvqeqg","pricing_plan_id":"cebpf4jnsgd1na2vs0mg"},{"bike_id":"01cfa099-b795-446b-a00a-3bf1e26583ec","system_id":"levelo_inurba_marseille","lat":43.30546,"lon":5.36531,"is_reserved":false,"is_disabled":false,"rental_uris":{"android":"levelo://app?vid=01cfa099-b795-446b-a00a-3bf1e26583ec","ios":"levelo://app?vid=01cfa099-b795-446b-a00a-3bf1e26583ec"},"vehicle_type_id":"4","last_reported":1739549464,"current_range_meters":34000,"station_id":"ce4bgs12rcd13ifvqcag","pricing_plan_id":"cebpf4jnsgd1na2vs0mg"},{"bike_id":"318f54ce-be01-47d6-829a-f493e582e806","system_id":"levelo_inurba_marseille","lat":43.32105,"lon":5.36788,"is_reserved":false,"is_disabled":false,"rental_uris":{"android":"levelo://app?vid=318f54ce-be01-47d6-829a-f493e582e806","ios":"levelo://app?vid=318f54ce-be01-47d6-829a-f493e582e806"},"vehicle_type_id":"4","last_reported":1739549464,"current_range_meters":38800,"station_id":"ce4bhrh2rcd13ifvqhug","pricing_plan_id":"cebpf4jnsgd1na2vs0mg"},{"bike_id":"6b36b005-fe47-4442-bfed-18edbee6965d","system_id":"levelo_inurba_marseille","lat":43.29528,"lon":5.38556,"is_reserved":false,"is_disabled":false,"rental_uris":{"android":"levelo://app?vid=6b36b005-fe47-4442-bfed-18edbee6965d","ios":"levelo://app?vid=6b36b005-fe47-4442-bfed-18edbee6965d"},"vehicle_type_id":"4","last_reported":1739549464,"current_range_meters":16000,"station_id":"ce4bgih2rcd13ifvqba0","pricing_plan_id":"cebpf4jnsgd1na2vs0mg"},{"bike_id":"d157203c-3a5b-4bbc-9638-6eefce740d5e","system_id":"levelo_inurba_marseille","lat":43.23203,"lon":5.35562,"is_reserved":false,"is_disabled":false,"rental_uris":{"android":"levelo://app?vid=d157203c-3a5b-4bbc-9638-6eefce740d5e","ios":"levelo://app?vid=d157203c-3a5b-4bbc-9638-6eefce740d5e"},"vehicle_type_id":"4","last_reported":1739549464,"current_range_meters":27600,"station_id":"ce4bhu92rcd13ifvqi70","pricing_plan_id":"cebpf4jnsgd1na2vs0mg"},{"bike_id":"eeaf2847-5a28-480b-853a-646f7eb4afb7","system_id":"levelo_inurba_marseille","lat":43.23151,"lon":5.43724,"is_reserved":false,"is_disabled":false,"rental_uris":{"android":"levelo://app?vid=eeaf2847-5a28-480b-853a-646f7eb4afb7","ios":"levelo://app?vid=eeaf2847-5a28-480b-853a-646f7eb4afb7"},"vehicle_type_id":"4","last_reported":1739549464,"current_range_meters":38800,"station_id":"ce4bhmp2rcd13ifvqgog","pricing_plan_id":"cebpf4jnsgd1na2vs0mg"},{"bike_id":"1b12b272-119e-4251-b0be-a241443a6fd9","system_id":"levelo_inurba_marseille","lat":43.26495,"lon":5.39549,"is_reserved":false,"is_disabled":false,"rental_uris":{"android":"levelo://app?vid=1b12b272-119e-4251-b0be-a241443a6fd9","ios":"levelo://app?vid=1b12b272-119e-4251-b0be-a241443a6fd9"},"vehicle_type_id":"4","last_reported":1739549464,"current_range_meters":34800,"station_id":"ce4bhi12rcd13ifvqfq0","pricing_plan_id":"cebpf4jnsgd1na2vs0mg"},{"bike_id":"ba9bf4ad-56c6-40db-aa36-fc960e46ee3a","system_id":"levelo_inurba_marseille","lat":43.29873,"lon":5.39729,"is_reserved":false,"is_disabled":false,"rental_uris":{"android":"levelo://app?vid=ba9bf4ad-56c6-40db-aa36-fc960e46ee3a","ios":"levelo://app?vid=ba9bf4ad-56c6-40db-aa36-fc960e46ee3a"},"vehicle_type_id":"4","last_reported":1739549464,"current_range_meters":20400,"station_id":"ce4bh0h2rcd13ifvqd50","pricing_plan_id":"cebpf4jnsgd1na2vs0mg"},{"bike_id":"74a9f2cd-231b-46ca-b15c-632533777a7c","system_id":"levelo_inurba_marseille","lat":43.30535,"lon":5.36541,"is_reserved":false,"is_disabled":false,"rental_uris":{"android":"levelo://app?vid=74a9f2cd-231b-46ca-b15c-632533777a7c","ios":"levelo://app?vid=74a9f2cd-231b-46ca-b15c-632533777a7c"},