{"last_updated":1728303456,"ttl":60,"version":"2.2","data":{"bikes":[{"bike_id":"8b512217-37f2-4e63-a4a4-63e9412b1fdc","system_id":"levelo_inurba_marseille","lat":43.27499,"lon":5.42455,"is_reserved":false,"is_disabled":false,"rental_uris":{"android":"levelo://app?vid=8b512217-37f2-4e63-a4a4-63e9412b1fdc","ios":"levelo://app?vid=8b512217-37f2-4e63-a4a4-63e9412b1fdc"},"vehicle_type_id":"4","last_reported":1728303456,"current_range_meters":20400,"station_id":"ce4bhn92rcd13ifvqgrg","pricing_plan_id":"cebpf4jnsgd1na2vs0mg"},{"bike_id":"9840128e-20cc-4d85-941b-d961e61c1c08","system_id":"levelo_inurba_marseille","lat":43.23148,"lon":5.43727,"is_reserved":false,"is_disabled":false,"rental_uris":{"android":"levelo://app?vid=9840128e-20cc-4d85-941b-d961e61c1c08","ios":"levelo://app?vid=9840128e-20cc-4d85-941b-d961e61c1c08"},"vehicle_type_id":"4","last_reported":1728303456,"current_range_meters":8000,"station_id":"ce4bhmp2rcd13ifvqgog","pricing_plan_id":"cebpf4jnsgd1na2vs0mg"},{"bike_id":"0ef77d67-51b6-4631-a957-3a7e68853e89","system_id":"levelo_inurba_marseille","lat":43.32543,"lon":5.41424,"is_reserved":false,"is_disabled":false,"rental_uris":{"android":"levelo://app?vid=0ef77d67-51b6-4631-a957-3a7e68853e89","ios":"levelo://app?vid=0ef77d67-51b6-4631-a957-3a7e68853e89"},"vehicle_type_id":"4","last_reported":1728303456,"current_range_meters":32400,"station_id":"ce4bhq12rcd13ifvqhhg","pricing_plan_id":"cebpf4jnsgd1na2vs0mg"},{"bike_id":"8a874caf-3db6-4bc3-b3d8-4f7a2a032123","system_id":"levelo_inurba_marseille","lat":43.22935,"lon":5.35377,"is_reserved":false,"is_disabled":false,"rental_uris":{"android":"levelo://app?vid=8a874caf-3db6-4bc3-b3d8-4f7a2a032123","ios":"levelo://app?vid=8a874caf-3db6-4bc3-b3d8-4f7a2a032123"},"vehicle_type_id":"4","last_reported":1728303456,"current_range_meters":25600,"station_id":"cpo3532slgdg3j2ikp40","pricing_plan_id":"cebpf4jnsgd1na2vs0mg"},{"bike_id":"58681559-e34c-4256-853d-36e318389a2b","system_id":"levelo_inurba_marseille","lat":43.30888,"lon":5.39651,"is_reserved":false,"is_disabled":false,"rental_uris":{"android":"levelo://app?vid=58681559-e34c-4256-853d-36e318389a2b","ios":"levelo://app?vid=58681559-e34c-4256-853d-36e318389a2b"},"vehicle_type_id":"4","last_reported":1728303456,"current_range_meters":32800,"station_id":"ce4bh012rcd13ifvqcv0","pricing_plan_id":"cebpf4jnsgd1na2vs0mg"},{"bike_id":"3edccbad-c604-40df-acb2-6e9d91b67298","system_id":"levelo_inurba_marseille","lat":43.23058,"lon":5.35492,"is_reserved":false,"is_disabled":false,"rental_uris":{"android":"levelo://app?vid=3edccbad-c604-40df-acb2-6e9d91b67298","ios":"levelo://app?vid=3edccbad-c604-40df-acb2-6e9d91b67298"},"vehicle_type_id":"4","last_reported":1728303456,"current_range_meters":20800,"station_id":"cpo3342slgdg3j2ifvpg","pricing_plan_id":"cebpf4jnsgd1na2vs0mg"},{"bike_id":"89ce8ea8-a580-4118-b72b-65776fff9a7d","system_id":"levelo_inurba_marseille","lat":43.28714,"lon":5.37938,"is_reserved":false,"is_disabled":false,"rental_uris":{"android":"levelo://app?vid=89ce8ea8-a580-4118-b72b-65776fff9a7d","ios":"levelo://app?vid=89ce8ea8-a580-4118-b72b-65776fff9a7d"},"vehicle_type_id":"4","last_reported":1728303456,"current_range_meters":25200,"station_id":"ce4bh9p2rcd13ifvqec0","pricing_plan_id":"cebpf4jnsgd1na2vs0mg"},{"bike_id":"dbecab53-ad66-4758-8acf-50523fa05612","system_id":"levelo_inurba_marseille","lat":43.29028,"lon":5.38645,"is_reserved":false,"is_disabled":false,"rental_uris":{"android":"levelo://app?vid=dbecab53-ad66-4758-8acf-50523fa05612","ios":"levelo://app?vid=dbecab53-ad66-4758-8acf-50523fa05612"},"vehicle_type_id":"4","last_reported":1728303456,"current_range_meters":4400,"station_id":"ce4bh4p2rcd13ifvqe0g","pricing_plan_id":"cebpf4jnsgd1na2vs0mg"},{"bike_id":"4f2e7e28-cf34-4f00-8c9d-13f26471c54d","system_id":"levelo_inurba_marseille","lat":43.29707,"lon":5.36621,"is_reserved":false,"is_disabled":false,"rental_uris":{"android":"levelo://app?vid=4f2e7e28-cf34-4f00-8c9d-13f26471c54d","ios":"levelo://app?vid=4f2e7e28-cf34-4f00-8c9d-13f26471c54d"},"vehicle_type_id":"4","last_reported":1728303456,"current_range_meters":6800,"station_id":"ce4bgn12rcd13ifvqbt0","pricing_plan_id":"cebpf4jnsgd1na2vs0mg"},{"bike_id":"dd73ba0e-1ce9-4074-8585-a46a62871814","system_id":"levelo_inurba_marseille","lat":43.2893,"lon":5.36644,"is_reserved":false,"is_disabled":false,"rental_uris":{"android":"levelo://app?vid=dd73ba0e-1ce9-4074-8585-a46a62871814","ios":"levelo://app?vid=dd73ba0e-1ce9-4074-8585-a46a62871814"},"vehicle_type_id":"4","last_reported":1728303456,"current_range_meters":24000,"station_id":"ce4bhap2rcd13ifvqek0","pricing_plan_id":"cebpf4jnsgd1na2vs0mg"},{"bike_id":"9b90015d-afd1-4ef9-a9ac-a8694f237c16","system_id":"levelo_inurba_marseille","lat":43.2315,"lon":5.43714,"is_reserved":false,"is_disabled":false,"rental_uris":{"android":"levelo://app?vid=9b90015d-afd1-4ef9-a9ac-a8694f237c16","ios":"levelo://app?vid=9b90015d-afd1-4ef9-a9ac-a8694f237c16"},"vehicle_type_id":"4","last_reported":1728303456,"current_range_meters":16000,"station_id":"ce4bhmp2rcd13ifvqgog","pricing_plan_id":"cebpf4jnsgd1na2vs0mg"},{"bike_id":"c9f61884-8d06-4833-af9f-e18ca6ea8eb4","system_id":"levelo_inurba_marseille","lat":43.32367,"lon":5.38878,"is_reserved":false,"is_disabled":false,"rental_uris":{"android":"levelo://app?vid=c9f61884-8d06-4833-af9f-e18ca6ea8eb4","ios":"levelo://app?vid=c9f61884-8d06-4833-af9f-e18ca6ea8eb4"},"vehicle_type_id":"4","last_reported":1728303456,"current_range_meters":11600,"station_id":"ce4bhqp2rcd13ifvqhog","pricing_plan_id":"cebpf4jnsgd1na2vs0mg"},{"bike_id":"7c3acb4c-8811-42c8-98ab-05cf388495cd","system_id":"levelo_inurba_marseille","lat":43.25928,"lon":5.40907,"is_reserved":false,"is_disabled":false,"rental_uris":{"android":"levelo://app?vid=7c3acb4c-8811-42c8-98ab-05cf388495cd","ios":"levelo://app?vid=7c3acb4c-8811-42c8-98ab-05cf388495cd"},"vehicle_type_id":"4","last_reported":1728303456,"current_range_meters":27200,"station_id":"ce4bhm92rcd13ifvqglg","pricing_plan_id":"cebpf4jnsgd1na2vs0mg"},{"bike_id":"182c9312-1c0f-460c-8f28-44e0e2bc6c77","system_id":"levelo_inurba_marseille","lat":43.26059,"lon":5.39398,"is_reserved":false,"is_disabled":false,"rental_uris":{"android":"levelo://app?vid=182c9312-1c0f-460c-8f28-44e0e2bc6c77","ios":"levelo://app?vid=182c9312-1c0f-460c-8f28-44e0e2bc6c77"},"vehicle_type_id":"4","last_reported":1728303456,"current_range_meters":31200,"station_id":"ce4bhh92rcd13ifvqfj0","pricing_plan_id":"cebpf4jnsgd1na2vs0mg"},{"bike_id":"6f7b3a87-41ce-483d-a7ea-51a3979ba39a","system_id":"levelo_inurba_marseille","lat":43.29781,"lon":5.37097,"is_reserved":false,"is_disabled":false,"rental_uris":{"android":"levelo://app?vid=6f7b3a87-41ce-483d-a7ea-51a3979ba39a","ios":"levelo://app?vid=6f7b3a87-41ce-483d-a7ea-51a3979ba39a"},"vehicle_type_id":"4","last_reported":1728303456,"current_range_meters":12800,"station_id":"ce4bgop2rcd13ifvqc1g","pricing_plan_id":"cebpf4jnsgd1na2vs0mg"},{"bike_id":"81b07a05-4c57-4e76-99d6-5f6e3acbb201","system_id":"levelo_inurba_marseille","lat":43.23059,"lon":5.35491,"is_reserved":false,"is_disabled":false,"rental_uris":{"android":"levelo://app?vid=81b07a05-4c57-4e76-99d6-5f6e3acbb201","ios":"levelo://app?vid=81b07a05-4c57-4e76-99d6-5f6e3acbb201"},"vehicle_type_id":"4","last_reported":1728303456,"current_range_meters":12400,"station_id":"cpo3342slgdg3j2ifvpg","pricing_plan_id":"cebpf4jnsgd1na2vs0mg"},{"bike_id":"e60bbbd0-387d-4477-9954-d38aa9bd46bf","system_id":"levelo_inurba_marseille","lat":43.2668,"lon":5.38271,"is_reserved":false,"is_disabled":false,"rental_uris":{"android":"levelo://app?vid=e60bbbd0-387d-4477-9954-d38aa9bd46bf","ios":"levelo://app?vid=e60bbbd0-387d-4477-9954-d38aa9bd46bf"},"vehicle_type_id":"4","last_reported":1728303456,"current_range_meters":23200,"station_id":"ce4bhg92rcd13ifvqf90","pricing_plan_id":"cebpf4jnsgd1na2vs0mg"},{"bike_id":"e8438844-ac2f-4837-9701-321e0d97cdb4","system_id":"levelo_inurba_marseille","lat":43.26683,"lon":5.38274,"is_reserved":false,"is_disabled":false,"rental_uris":{"android":"levelo://app?vid=e8438844-ac2f-4837-9701-321e0d97cdb4","ios":"levelo://app?vid=e8438844-ac2f-4837-9701-321e0d97cdb4"},"vehicle_type_id":"4","last_reported":1728303456,"current_range_meters":24400,"station_id":"ce4bhg92rcd13ifvqf90","pricing_plan_id":"cebpf4jnsgd1na2vs0mg"},{"bike_id":"23c5a382-240b-479e-9cea-e5f248736ea2","system_id":"levelo_inurba_marseille","lat":43.26681,"lon":5.38273,"is_reserved":false,"is_disabled":false,"rental_uris":{"android":"levelo://app?vid=23c5a382-240b-479e-9cea-e5f248736ea2","ios":"levelo://app?vid=23c5a382-240b-479e-9cea-e5f248736ea2"},"vehicle_type_id":"4","last_reported":1728303456,"current_range_meters":12000,"station_id":"ce4bhg92rcd13ifvqf90","pricing_plan_id":"cebpf4jnsgd1na2vs0mg"},{"bike_id":"7b5acb30-7728-4d2f-b8de-cc88114cf385","system_id":"levelo_inurba_marseille","lat":43.23144,"lon":5.43719,"is_reserved":false,"is_disabled":false,"rental_uris":{"android":"levelo://app?vid=7b5acb30-7728-4d2f-b8de-cc88114cf385","ios":"levelo://app?vid=7b5acb30-7728-4d2f-b8de-cc88114cf385"},"vehicle_type_id":"4","last_reported":1728303456,"current_range_meters":38800,"station_id":"ce4bhmp2rcd13ifvqgog","pricing_plan_id":"cebpf4jnsgd1na2vs0mg"},{"bike_id":"fa1081b6-d4f5-4f1f-8372-f2444c5f270d","system_id":"levelo_inurba_marseille","lat":43.31347,"lon":5.36716,"is_reserved":false,"is_disabled":false,"rental_uris":{"android":"levelo://app?vid=fa1081b6-d4f5-4f1f-8372-f2444c5f270d","ios":"levelo://app?vid=fa1081b6-d4f5-4f1f-8372-f2444c5f270d"},"vehicle_type_id":"4","last_reported":1728303456,"current_range_meters":28000,"station_id":"ce4bgr92rcd13ifvqc6g","pricing_plan_id":"cebpf4jnsgd1na2vs0mg"},{"bike_id":"7bf3dad8-a724-4fab-8783-7f17a938d9c9","system_id":"levelo_inurba_marseille","lat":43.29789,"lon":5.38114,"is_reserved":false,"is_disabled":false,"rental_uris":{"android":"levelo://app?vid=7bf3dad8-a724-4fab-8783-7f17a938d9c9","ios":"levelo://app?vid=7bf3dad8-a724-4fab-8783-7f17a938d9c9"},"vehicle_type_id":"4","last_reported":1728303456,"current_range_meters":30800,"station_id":"ce4bgip2rcd13ifvqbb0","pricing_plan_id":"cebpf4jnsgd1na2vs0mg"},{"bike_id":"b0e13951-974c-44e5-b17f-75c491d79231","system_id":"levelo_inurba_marseille","lat":43.3091,"lon":5.3685,"is_reserved":false,"is_disabled":false,"rental_uris":{"android":"levelo://app?vid=b0e13951-974c-44e5-b17f-75c491d79231","ios":"levelo://app?vid=b0e13951-974c-44e5-b17f-75c491d79231"},"vehicle_type_id":"4","last_reported":1728303456,"current_range_meters":37600,"station_id":"ce4bgn92rcd13ifvqbvg","pricing_plan_id":"cebpf4jnsgd1na2vs0mg"},{"bike_id":"48a43036-d79d-45c7-808a-09eeaeb71c88","system_id":"levelo_inurba_marseille","lat":43.30917,"lon":5.36852,"is_reserved":false,"is_disabled":false,"rental_uris":{"android":"levelo://app?vid=48a43036-d79d-45c7-808a-09eeaeb71c88","ios":"levelo://app?vid=48a43036-d79d-45c7-808a-09eeaeb71c88"},"vehicle_type_id":"4","last_reported":1728303456,"current_range_meters":3600,"station_id":"ce4bgn92rcd13ifvqbvg","pricing_plan_id":"cebpf4jnsgd1na2vs0mg"},{"bike_id":"ead01eb6-4333-4528-8ec4-db7a5a49ffd3","system_id":"levelo_inurba_marseille","lat":43.29575,"lon":5.37508,"is_reserved":false,"is_disabled":false,"rental_uris":{"android":"levelo://app?vid=ead01eb6-4333-4528-8ec4-db7a5a49ffd3","ios":"levelo://app?vid=ead01eb6-4333-4528-8ec4-db7a5a49ffd3"},"vehicle_type_id":"4","last_reported":1728303456,"current_range_meters":35600,"station_id":"ce4bgh92rcd13ifvqb50","pricing_plan_id":"cebpf4jnsgd1na2vs0mg"},{"bike_id":"473ef055-5645-4f68-a7a3-daae77b88e29","system_id":"levelo_inurba_marseille","lat":43.29028,"lon":5.39971,"is_reserved":false,"is_disabled":false,"rental_uris":{"android":"levelo://app?vid=473ef055-5645-4f68-a7a3-daae77b88e29","ios":"levelo://app?vid=473ef055-5645-4f68-a7a3-daae77b88e29"},"vehicle_type_id":"4","last_reported":1728303456,"current_range_meters":27600,"station_id":"ce4bh392rcd13ifvqdm0","pricing_plan_id":"cebpf4jnsgd1na2vs0mg"},{"bike_id":"97208dc8-755e-4712-9fea-62928fa9a28f","system_id":"levelo_inurba_marseille","lat":43.29062,"lon":5.37177,"is_reserved":false,"is_disabled":false,"rental_uris":{"android":"levelo://app?vid=97208dc8-755e-4712-9fea-62928fa9a28f","ios":"levelo://app?vid=97208dc8-755e-4712-9fea-62928fa9a28f"},"vehicle_type_id":"4","last_reported":1728303456,"current_range_meters":38400,"station_id":"ce4bh5p2rcd13ifvqe4g","pricing_plan_id":"cebpf4jnsgd1na2vs0mg"},{"bike_id":"798124fb-5c17-45d7-b52a-4f0e97a2043c","system_id":"levelo_inurba_marseille","lat":43.29518,"lon":5.39046,"is_reserved":false,"is_disabled":false,"rental_uris":{"android":"levelo://app?vid=798124fb-5c17-45d7-b52a-4f0e97a2043c","ios":"levelo://app?vid=798124fb-5c17-45d7-b52a-4f0e97a2043c"},"vehicle_type_id":"4","last_reported":1728303456,"current_range_meters":24800,"station_id":"ce4bh3p2rcd13ifvqdp0","pricing_plan_id":"cebpf4jnsgd1na2vs0mg"},{"bike_id":"a080df2d-d9de-4e9a-a587-599a3e202ede","system_id":"levelo_inurba_marseille","lat":43.2906,"lon":5.37175,"is_reserved":false,"is_disabled":false,"rental_uris":{"android":"levelo://app?vid=a080df2d-d9de-4e9a-a587-599a3e202ede","ios":"levelo://app?vid=a080df2d-d9de-4e9a-a587-599a3e202ede"},"vehicle_type_id":"4","last_reported":1728303456,"current_range_meters":24800,"station_id":"ce4bh5p2rcd13ifvqe4g","pricing_plan_id":"cebpf4jnsgd1na2vs0mg"},{"bike_id":"35db5aab-a536-4286-87d7-90ec43783f24","system_id":"levelo_inurba_marseille","lat":43.23193,"lon":5.35557,"is_reserved":false,"is_disabled":false,"rental_uris":{"android":"levelo://app?vid=35db5aab-a536-4286-87d7-90ec43783f24","ios":"levelo://app?vid=35db5aab-a536-4286-87d7-90ec43783f24"},"vehicle_type_id":"4","last_reported":1728303456,"current_range_meters":36400,"station_id":"ce4bhu92rcd13ifvqi70","pricing_plan_id":"cebpf4jnsgd1na2vs0mg"},{"bike_id":"be0f5780-a0c5-4b23-b36c-f4d701a8709c","system_id":"levelo_inurba_marseille","lat":43.31487,"lon":5.37306,"is_reserved":false,"is_disabled":false,"rental_uris":{"android":"levelo://app?vid=be0f5780-a0c5-4b23-b36c-f4d701a8709c","ios":"levelo://app?vid=be0f5780-a0c5-4b23-b36c-f4d701a8709c"},"vehicle_type_id":"4","last_reported":1728303456,"current_range_meters":38800,"station_id":"ce4bgt12rcd13ifvqcd0","pricing_plan_id":"cebpf4jnsgd1na2vs0mg"},{"bike_id":"4137167b-c21d-4737-ac16-171dd3b484f8","system_id":"levelo_inurba_marseille","lat":43.30273,"lon":5.37705,"is_reserved":false,"is_disabled":false,"rental_uris":{"android":"levelo://app?vid=4137167b-c21d-4737-ac16-171dd3b484f8","ios":"levelo://app?vid=4137167b-c21d-4737-ac16-171dd3b484f8"},"vehicle_type_id":"4","last_reported":1728303456,"current_range_meters":10800,"station_id":"ce4bguh2rcd13ifvqcj0","pricing_plan_id":"cebpf4jnsgd1na2vs0mg"},{"bike_id":"62dfd99c-f976-4937-b2d0-5b50f5ae699f","system_id":"levelo_inurba_marseille","lat":43.24171,"lon":5.36394,"is_reserved":false,"is_disabled":false,"rental_uris":{"android":"levelo://app?vid=62dfd99c-f976-4937-b2d0-5b50f5ae699f","ios":"levelo://app?vid=62dfd99c-f976-4937-b2d0-5b50f5ae699f"},"vehicle_type_id":"4","last_reported":1728303456,"current_range_meters":10000,"station_id":"cpo36qri1sfpv3e86is0","pricing_plan_id":"cebpf4jnsgd1na2vs0mg"},{"bike_id":"d0e1ea43-d73d-4e39-b4f6-42e9dca2a02f","system_id":"levelo_inurba_marseille","lat":43.3009,"lon":5.39089,"is_reserved":false,"is_disabled":false,"rental_uris":{"android":"levelo://app?vid=d0e1ea43-d73d-4e39-b4f6-42e9dca2a02f","ios":"levelo://app?vid=d0e1ea43-d73d-4e39-b4f6-42e9dca2a02f"},"vehicle_type_id":"4","last_reported":1728303456,"current_range_meters":4400,"station_id":"ce4bh192rcd13ifvqdb0","pricing_plan_id":"cebpf4jnsgd1na2vs0mg"},{"bike_id":"7d8e2075-dfbf-45ea-a039-461732e9d7a3","system_id":"levelo_inurba_marseille","lat":43.26063,"lon":5.39395,"is_reserved":false,"is_disabled":false,"rental_uris":{"android":"levelo://app?vid=7d8e2075-dfbf-45ea-a039-461732e9d7a3","ios":"levelo://app?vid=7d8e2075-dfbf-45ea-a039-461732e9d7a3"},"vehicle_type_id":"4","last_reported":1728303456,"current_range_meters":13600,"station_id":"ce4bhh92rcd13ifvqfj0","pricing_plan_id":"cebpf4jnsgd1na2vs0mg"},{"bike_id":"6be301f0-216c-4e13-b3a1-2848f6fc8e62","system_id":"levelo_inurba_marseille","lat":43.30882,"lon":5.39633,"is_reserved":false,"is_disabled":false,"rental_uris":{"android":"levelo://app?vid=6be301f0-216c-4e13-b3a1-2848f6fc8e62","ios":"levelo://app?vid=6be301f0-216c-4e13-b3a1-2848f6fc8e62"},"vehicle_type_id":"4","last_reported":1728303456,"current_range_meters":38400,"station_id":"ce4bh012rcd13ifvqcv0","pricing_plan_id":"cebpf4jnsgd1na2vs0mg"},{"bike_id":"3c324bf8-86dd-4109-b29b-58f28634f135","system_id":"levelo_inurba_marseille","lat":43.26039,"lon":5.37545,"is_reserved":false,"is_disabled":false,"rental_uris":{"android":"levelo://app?vid=3c324bf8-86dd-4109-b29b-58f28634f135","ios":"levelo://app?vid=3c324bf8-86dd-4109-b29b-58f28634f135"},"vehicle_type_id":"4","last_reported":1728303456,"current_range_meters":37600,"station_id":"ce4bhgh2rcd13ifvqfa0","pricing_plan_id":"cebpf4jnsgd1na2vs0mg"},{"bike_id":"a7d39e11-88db-47a1-b559-47b761427f0e","system_id":"levelo_inurba_marseille","lat":43.25933,"lon":5.40915,"is_reserved":false,"is_disabled":false,"rental_uris":{"android":"levelo://app?vid=a7d39e11-88db-47a1-b559-47b761427f0e","ios":"levelo://app?vid=a7d39e11-88db-47a1-b559-47b761427f0e"},"vehicle_type_id":"4","last_reported":1728303456,"current_range_meters":33200,"station_id":"ce4bhm92rcd13ifvqglg","pricing_plan_id":"cebpf4jnsgd1na2vs0mg"},{"bike_id":"baba7691-81ff-4c7d-90d9-c89eba9696cb","system_id":"levelo_inurba_marseille","lat":43.25928,"lon":5.40918,"is_reserved":false,"is_disabled":false,"rental_uris":{"android":"levelo://app?vid=baba7691-81ff-4c7d-90d9-c89eba9696cb","ios":"levelo://app?vid=baba7691-81ff-4c7d-90d9-c89eba9696cb"},"vehicle_type_id":"4","last_reported":1728303456,"current_range_meters":27600,"station_id":"ce4bhm92rcd13ifvqglg","pricing_plan_id":"cebpf4jnsgd1na2vs0mg"},{"bike_id":"b1a42782-3ee6-4e5c-aa06-ed242166d1ed","system_id":"levelo_inurba_marseille","lat":43.3211,"lon":5.3677,"is_reserved":false,"is_disabled":false,"rental_uris":{"android":"levelo://app?vid=b1a42782-3ee6-4e5c-aa06-ed242166d1ed","ios":"levelo://app?vid=b1a42782-3ee6-4e5c-aa06-ed242166d1ed"},"vehicle_type_id":"4","last_reported":1728303456,"current_range_meters":32800,"station_id":"ce4bhrh2rcd13ifvqhug","pricing_plan_id":"cebpf4jnsgd1na2vs0mg"},{"bike_id":"fec885cd-387f-4f71-9e64-7a12f33aa81b","system_id":"levelo_inurba_marseille","lat":43.24384,"lon":5.37049,"is_reserved":false,"is_disabled":false,"rental_uris":{"android":"levelo://app?vid=fec885cd-387f-4f71-9e64-7a12f33aa81b","ios":"levelo://app?vid=fec885cd-387f-4f71-9e64-7a12f33aa81b"},"vehicle_type_id":"4","last_reported":1728303456,"current_range_meters":25200,"station_id":"ce4bhhh2rcd13ifvqfk0","pricing_plan_id":"cebpf4jnsgd1na2vs0mg"},{"bike_id":"c93b1da1-edd2-49e3-a11b-9a2f82bab027","system_id":"levelo_inurba_marseille","lat":43.27811,"lon":5.40713,"is_reserved":false,"is_disabled":false,"rental_uris":{"android":"levelo://app?vid=c93b1da1-edd2-49e3-a11b-9a2f82bab027","ios":"levelo://app?vid=c93b1da1-edd2-49e3-a11b-9a2f82bab027"},"vehicle_type_id":"4","last_reported":1728303456,"current_range_meters":27600,"station_id":"ce4bhnh2rcd13ifvqgtg","pricing_plan_id":"cebpf4jnsgd1na2vs0mg"},{"bike_id":"4af55307-045f-4c66-a045-a91d88bb4c16","system_id":"levelo_inurba_marseille","lat":43.22926,"lon":5.35372,"is_reserved":false,"is_disabled":false,"rental_uris":{"android":"levelo://app?vid=4af55307-045f-4c66-a045-a91d88bb4c16","ios":"levelo://app?vid=4af55307-045f-4c66-a045-a91d88bb4c16"},"vehicle_type_id":"4","last_reported":1728303456,"current_range_meters":26800,"station_id":"cpo3532slgdg3j2ikp40","pricing_plan_id":"cebpf4jnsgd1na2vs0mg"},{"bike_id":"47efe985-66e3-4fb1-a00d-60851f779f19","system_id":"levelo_inurba_marseille","lat":43.32543,"lon":5.41427,"is_reserved":false,"is_disabled":false,"rental_uris":{"android":"levelo://app?vid=47efe985-66e3-4fb1-a00d-60851f779f19","ios":"levelo://app?vid=47efe985-66e3-4fb1-a00d-60851f779f19"},"vehicle_type_id":"4","last_reported":1728303456,"current_range_meters":30000,"station_id":"ce4bhq12rcd13ifvqhhg","pricing_plan_id":"cebpf4jnsgd1na2vs0mg"},{"bike_id":"6482b1fb-67cb-4384-a7c9-6c0a7b56e3b4","system_id":"levelo_inurba_marseille","lat":43.28846,"lon":5.43323,"is_reserved":false,"is_disabled":false,"rental_uris":{"android":"levelo://app?vid=6482b1fb-67cb-4384-a7c9-6c0a7b56e3b4","ios":"levelo://app?vid=6482b1fb-67cb-4384-a7c9-6c0a7b56e3b4"},"vehicle_type_id":"4","last_reported":1728303456,"current_range_meters":6400,"station_id":"","pricing_plan_id":"cebpf4jnsgd1na2vs0mg"},{"bike_id":"1e592842-3390-46e6-95ec-f120a36922c9","system_id":"levelo_inurba_marseille","lat":43.23151,"lon":5.43704,"is_reserved":false,"is_disabled":false,"rental_uris":{"android":"levelo://app?vid=1e592842-3390-46e6-95ec-f120a36922c9","ios":"levelo://app?vid=1e592842-3390-46e6-95ec-f120a36922c9"},"vehicle_type_id":"4","last_reported":1728303456,"current_range_meters":17200,"station_id":"ce4bhmp2rcd13ifvqgog","pricing_plan_id":"cebpf4jnsgd1na2vs0mg"},{"bike_id":"a34a854b-d20f-4b55-ab38-72dfcc77aa8b","system_id":"levelo_inurba_marseille","lat":43.30951,"lon":5.39034,"is_reserved":false,"is_disabled":false,"rental_uris":{"android":"levelo://app?vid=a34a854b-d20f-4b55-ab38-72dfcc77aa8b","ios":"levelo://app?vid=a34a854b-d20f-4b55-ab38-72dfcc77aa8b"},"vehicle_type_id":"4","last_reported":1728303456,"current_range_meters":3200,"station_id":"ce4bgup2rcd13ifvqco0","pricing_plan_id":"cebpf4jnsgd1na2vs0mg"},{"bike_id":"4c57ea36-0258-43bd-9d60-14ee0eb21b25","system_id":"levelo_inurba_marseille","lat":43.30903,"lon":5.36841,"is_reserved":false,"is_disabled":false,"rental_uris":{"android":"levelo://app?vid=4c57ea36-0258-43bd-9d60-14ee0eb21b25","ios":"levelo://app?vid=4c57ea36-0258-43bd-9d60-14ee0eb21b25"},"vehicle_type_id":"4","last_reported":1728303456,"current_range_meters":24400,"station_id":"ce4bgn92rcd13ifvqbvg","pricing_plan_id":"cebpf4jnsgd1na2vs0mg"},{"bike_id":"97ef281f-c717-429c-a078-d6a368902950","system_id":"levelo_inurba_marseille","lat":43.24175,"lon":5.3639,"is_reserved":false,"is_disabled":false,"rental_uris":{"android":"levelo://app?vid=97ef281f-c717-429c-a078-d6a368902950","ios":"levelo://app?vid=97ef281f-c717-429c-a078-d6a368902950"},"vehicle_type_id":"4","last_reported":1728303456,"current_range_meters":19600,"station_id":"cpo36qri1sfpv3e86is0","pricing_plan_id":"cebpf4jnsgd1na2vs0mg"},{"bike_id":"245fa725-d6bf-4980-b4b6-8f2947ab8cf0","system_id":"levelo_inurba_marseille","lat":43.30296,"lon":5.36901,"is_reserved":false,"is_disabled":false,"rental_uris":{"android":"levelo://app?vid=245fa725-d6bf-4980-b4b6-8f2947ab8cf0","ios":"levelo://app?vid=245fa725-d6bf-4980-b4b6-8f2947ab8cf0"},"vehicle_type_id":"4","last_reported":1728303456,"current_range_meters":11200,"station_id":"ce4bgqh2rcd13ifvqc5g","pricing_plan_id":"cebpf4jnsgd1na2vs0mg"},{"bike_id":"9e0bbbce-d1d8-4369-af4a-8afc071fd3ac","system_id":"levelo_inurba_marseille","lat":43.28,"lon":5.40017,"is_reserved":false,"is_disabled":false,"rental_uris":{"android":"levelo://app?vid=9e0bbbce-d1d8-4369-af4a-8afc071fd3ac","ios":"levelo://app?vid=9e0bbbce-d1d8-4369-af4a-8afc071fd3ac"},"vehicle_type_id":"4","last_reported":1728303456,"current_range_meters":23200,"station_id":"ce4bho92rcd13ifvqh4g","pricing_plan_id":"cebpf4jnsgd1na2vs0mg"},{"bike_id":"c12c46a4-bd86-493d-803e-5d507cd7924b","system_id":"levelo_inurba_marseille","lat":43.23201,"lon":5.35549,"is_reserved":false,"is_disabled":false,"rental_uris":{"android":"levelo://app?vid=c12c46a4-bd86-493d-803e-5d507cd7924b","ios":"levelo://app?vid=c12c46a4-bd86-493d-803e-5d507cd7924b"},"vehicle_type_id":"4","last_reported":1728303456,"current_range_meters":30800,"station_id":"ce4bhu92rcd13ifvqi70","pricing_plan_id":"cebpf4jnsgd1na2vs0mg"},{"bike_id":"e0e6b6e8-a26e-4255-b71a-75c0752c9d62","system_id":"levelo_inurba_marseille","lat":43.24656,"lon":5.38889,"is_reserved":false,"is_disabled":false,"rental_uris":{"android":"levelo://app?vid=e0e6b6e8-a26e-4255-b71a-75c0752c9d62","ios":"levelo://app?vid=e0e6b6e8-a26e-4255-b71a-75c0752c9d62"},"vehicle_type_id":"4","last_reported":1728303456,"current_range_meters":38400,"station_id":"ce4bhg12rcd13ifvqf60","pricing_plan_id":"cebpf4jnsgd1na2vs0mg"},{"bike_id":"0d8c132e-6028-490d-b78f-9ee244fd1c97","system_id":"levelo_inurba_marseille","lat":43.25501,"lon":5.37648,"is_reserved":false,"is_disabled":false,"rental_uris":{"android":"levelo://app?vid=0d8c132e-6028-490d-b78f-9ee244fd1c97","ios":"levelo://app?vid=0d8c132e-6028-490d-b78f-9ee244fd1c97"},"vehicle_type_id":"4","last_reported":1728303456,"current_range_meters":38800,"station_id":"ce4bhh12rcd13ifvqff0","pricing_plan_id":"cebpf4jnsgd1na2vs0mg"},{"bike_id":"0c56dfc2-94e5-42c0-a053-cab60b5053bf","system_id":"levelo_inurba_marseille","lat":43.29031,"lon":5.37587,"is_reserved":false,"is_disabled":false,"rental_uris":{"android":"levelo://app?vid=0c56dfc2-94e5-42c0-a053-cab60b5053bf","ios":"levelo://app?vid=0c56dfc2-94e5-42c0-a053-cab60b5053bf"},"vehicle_type_id":"4","last_reported":1728303456,"current_range_meters":8800,"station_id":"ce4bh692rcd13ifvqe90","pricing_plan_id":"cebpf4jnsgd1na2vs0mg"},{"bike_id":"85a8b07e-682b-4725-800e-b0749654fba5","system_id":"levelo_inurba_marseille","lat":43.24168,"lon":5.36393,"is_reserved":false,"is_disabled":false,"rental_uris":{"android":"levelo://app?vid=85a8b07e-682b-4725-800e-b0749654fba5","ios":"levelo://app?vid=85a8b07e-682b-4725-800e-b0749654fba5"},"vehicle_type_id":"4","last_reported":1728303456,"current_range_meters":24400,"station_id":"cpo36qri1sfpv3e86is0","pricing_plan_id":"cebpf4jnsgd1na2vs0mg"},{"bike_id":"742b0a39-2ee6-4a7f-970b-979e89ae43ed","system_id":"levelo_inurba_marseille","lat":43.30901,"lon":5.37444,"is_reserved":false,"is_disabled":false,"rental_uris":{"android":"levelo://app?vid=742b0a39-2ee6-4a7f-970b-979e89ae43ed","ios":"levelo://app?vid=742b0a39-2ee6-4a7f-970b-979e89ae43ed"},"vehicle_type_id":"4","last_reported":1728303456,"current_range_meters":16800,"station_id":"","pricing_plan_id":"cebpf4jnsgd1na2vs0mg"},{"bike_id":"77195072-5969-4f45-9cda-a62cad991f56","system_id":"levelo_inurba_marseille","lat":43.28975,"lon":5.37837,"is_reserved":false,"is_disabled":false,"rental_uris":{"android":"levelo://app?vid=77195072-5969-4f45-9cda-a62cad991f56","ios":"levelo://app?vid=77195072-5969-4f45-9cda-a62cad991f56"},"vehicle_type_id":"4","last_reported":1728303456,"current_range_meters":38000,"station_id":"ce4bh9p2rcd13ifvqed0","pricing_plan_id":"cebpf4jnsgd1na2vs0mg"},{"bike_id":"bd2f21de-accf-47ec-9943-a1160e7b3eb1","system_id":"levelo_inurba_marseille","lat":43.27199,"lon":5.3919,"is_reserved":false,"is_disabled":false,"rental_uris":{"android":"levelo://app?vid=bd2f21de-accf-47ec-9943-a1160e7b3eb1","ios":"levelo://app?vid=bd2f21de-accf-47ec-9943-a1160e7b3eb1"},"vehicle_type_id":"4","last_reported":1728303456,"current_range_meters":8400,"station_id":"ce4bhhp2rcd13ifvqfm0","pricing_plan_id":"cebpf4jnsgd1na2vs0mg"},{"bike_id":"a90d35c7-16b2-4847-bc2a-b22dd2486dc4","system_id":"levelo_inurba_marseille","lat":43.294851,"lon":5.376461,"is_reserved":false,"is_disabled":false,"rental_uris":{"android":"levelo://app?vid=a90d35c7-16b2-4847-bc2a-b22dd2486dc4","ios":"levelo://app?vid=a90d35c7-16b2-4847-bc2a-b22dd2486dc4"},"vehicle_type_id":"4","last_reported":1728303456,"current_range_meters":21600,"station_id":"ce4bgv12rcd13ifvqcp0","pricing_plan_id":"cebpf4jnsgd1na2vs0mg"},{"bike_id":"47cf5dd1-85eb-40dc-9cda-ce6305623b64","system_id":"levelo_inurba_marseille","lat":43.29875,"lon":5.38913,"is_reserved":false,"is_disabled":false,"rental_uris":{"android":"levelo://app?vid=47cf5dd1-85eb-40dc-9cda-ce6305623b64","ios":"levelo://app?vid=47cf5dd1-85eb-40dc-9cda-ce6305623b64"},"vehicle_type_id":"4","last_reported":1728303456,"current_range_meters":39200,"station_id":"ce4bh392rcd13ifvqdl0","pricing_plan_id":"cebpf4jnsgd1na2vs0mg"},{"bike_id":"ca87370f-46e3-49f3-8aaa-8789e892b478","system_id":"levelo_inurba_marseille","lat":43.30419,"lon":5.38895,"is_reserved":false,"is_disabled":false,"rental_uris":{"android":"levelo://app?vid=ca87370f-46e3-49f3-8aaa-8789e892b478","ios":"levelo://app?vid=ca87370f-46e3-49f3-8aaa-8789e892b478"},"vehicle_type_id":"4","last_reported":1728303456,"current_range_meters":21600,"station_id":"ce4bgk12rcd13ifvqbi0","pricing_plan_id":"cebpf4jnsgd1na2vs0mg"},{"bike_id":"05ddab4b-2219-453e-b9f6-9211ae63c830","system_id":"levelo_inurba_marseille","lat":43.241666,"lon":5.363957,"is_reserved":false,"is_disabled":false,"rental_uris":{"android":"levelo://app?vid=05ddab4b-2219-453e-b9f6-9211ae63c830","ios":"levelo://app?vid=05ddab4b-2219-453e-b9f6-9211ae63c830"},"vehicle_type_id":"4","last_reported":1728303456,"current_range_meters":28000,"station_id":"cpo36qri1sfpv3e86is0","pricing_plan_id":"cebpf4jnsgd1na2vs0mg"},{"bike_id":"ed0f1ea2-c470-469b-aeae-9a8b7a3c4567","system_id":"levelo_inurba_marseille","lat":43.27615,"lon":5.36107,"is_reserved":false,"is_disabled":false,"rental_uris":{"android":"levelo://app?vid=ed0f1ea2-c470-469b-aeae-9a8b7a3c4567","ios":"levelo://app?vid=ed0f1ea2-c470-469b-aeae-9a8b7a3c4567"},"vehicle_type_id":"4","last_reported":1728303456,"current_range_meters":29600,"station_id":"ce4bgj92rcd13ifvqbe0","pricing_plan_id":"cebpf4jnsgd1na2vs0mg"},{"bike_id":"ad40930c-cca9-479d-9795-9e5e5d00b97e","system_id":"levelo_inurba_marseille","lat":43.29026,"lon":5.38141,"is_reserved":false,"is_disabled":false,"rental_uris":{"android":"levelo://app?vid=ad40930c-cca9-479d-9795-9e5e5d00b97e","ios":"levelo://app?vid=ad40930c-cca9-479d-9795-9e5e5d00b97e"},"vehicle_type_id":"4","last_reported":1728303456,"current_range_meters":18800,"station_id":"ce4bh4p2rcd13ifvqe1g","pricing_plan_id":"cebpf4jnsgd1na2vs0mg"},{"bike_id":"aa6a835e-7c99-4f80-9677-a9bc58c08d09","system_id":"levelo_inurba_marseille","lat":43.26195,"lon":5.37926,"is_reserved":false,"is_disabled":false,"rental_uris":{"android":"levelo://app?vid=aa6a835e-7c99-4f80-9677-a9bc58c08d09","ios":"levelo://app?vid=aa6a835e-7c99-4f80-9677-a9bc58c08d09"},"vehicle_type_id":"4","last_reported":1728303456,"current_range_meters":33200,"station_id":"ce4bhjp2rcd13ifvqg90","pricing_plan_id":"cebpf4jnsgd1na2vs0mg"},{"bike_id":"94c2943d-7899-48fa-9d2a-7595a8956fae","system_id":"levelo_inurba_marseille","lat":43.2603,"lon":5.37547,"is_reserved":false,"is_disabled":false,"rental_uris":{"android":"levelo://app?vid=94c2943d-7899-48fa-9d2a-7595a8956fae","ios":"levelo://app?vid=94c2943d-7899-48fa-9d2a-7595a8956fae"},"vehicle_type_id":"4","last_reported":1728303456,"current_range_meters":15200,"station_id":"ce4bhgh2rcd13ifvqfa0","pricing_plan_id":"cebpf4jnsgd1na2vs0mg"},{"bike_id":"cd35eee6-03f0-48eb-87d3-b95e88b2c311","system_id":"levelo_inurba_marseille","lat":43.23148,"lon":5.43715,"is_reserved":false,"is_disabled":false,"rental_uris":{"android":"levelo://app?vid=cd35eee6-03f0-48eb-87d3-b95e88b2c311","ios":"levelo://app?vid=cd35eee6-03f0-48eb-87d3-b95e88b2c311"},"vehicle_type_id":"4","last_reported":1728303456,"current_range_meters":38800,"station_id":"ce4bhmp2rcd13ifvqgog","pricing_plan_id":"cebpf4jnsgd1na2vs0mg"},{"bike_id":"d0ca1193-12e8-4ac2-9a60-4ae6e0040151","system_id":"levelo_inurba_marseille","lat":43.22945,"lon":5.35366,"is_reserved":false,"is_disabled":false,"rental_uris":{"android":"levelo://app?vid=d0ca1193-12e8-4ac2-9a60-4ae6e0040151","ios":"levelo://app?vid=d0ca1193-12e8-4ac2-9a60-4ae6e0040151"},"vehicle_type_id":"4","last_reported":1728303456,"current_range_meters":24400,"station_id":"cpo3532slgdg3j2ikp40","pricing_plan_id":"cebpf4jnsgd1na2vs0mg"},{"bike_id":"4a197fc8-d486-47b8-a710-8788a1a6e67b","system_id":"levelo_inurba_marseille","lat":43.23154,"lon":5.43702,"is_reserved":false,"is_disabled":false,"rental_uris":{"android":"levelo://app?vid=4a197fc8-d486-47b8-a710-8788a1a6e67b","ios":"levelo://app?vid=4a197fc8-d486-47b8-a710-8788a1a6e67b"},"vehicle_type_id":"4","last_reported":1728303456,"current_range_meters":12000,"station_id":"ce4bhmp2rcd13ifvqgog","pricing_plan_id":"cebpf4jnsgd1na2vs0mg"},{"bike_id":"ff7c0a81-08c8-4cce-9b2c-12343d2d7535","system_id":"levelo_inurba_marseille","lat":43.24536,"lon":5.395174,"is_reserved":false,"is_disabled":false,"rental_uris":{"android":"levelo://app?vid=ff7c0a81-08c8-4cce-9b2c-12343d2d7535","ios":"levelo://app?vid=ff7c0a81-08c8-4cce-9b2c-12343d2d7535"},"vehicle_type_id":"4","last_reported":1728303456,"current_range_meters":9600,"station_id":"ce4bhlp2rcd13ifvqgjg","pricing_plan_id":"cebpf4jnsgd1na2vs0mg"},{"bike_id":"90be245c-016a-48b1-a6b9-91aaecc104ba","system_id":"levelo_inurba_marseille","lat":43.26499,"lon":5.39559,"is_reserved":false,"is_disabled":false,"rental_uris":{"android":"levelo://app?vid=90be245c-016a-48b1-a6b9-91aaecc104ba","ios":"levelo://app?vid=90be245c-016a-48b1-a6b9-91aaecc104ba"},"vehicle_type_id":"4","last_reported":1728303456,"current_range_meters":14000,"station_id":"ce4bhi12rcd13ifvqfq0","pricing_plan_id":"cebpf4jnsgd1na2vs0mg"},{"bike_id":"5426ecb5-4d2e-4c65-a5e5-6fa42a39b860","system_id":"levelo_inurba_marseille","lat":43.23056,"lon":5.35492,"is_reserved":false,"is_disabled":false,"rental_uris":{"android":"levelo://app?vid=5426ecb5-4d2e-4c65-a5e5-6fa42a39b860","ios":"levelo://app?vid=5426ecb5-4d2e-4c65-a5e5-6fa42a39b860"},"vehicle_type_id":"4","last_reported":1728303456,"current_range_meters":9600,"station_id":"cpo3342slgdg3j2ifvpg","pricing_plan_id":"cebpf4jnsgd1na2vs0mg"},{"bike_id":"e3612861-f68b-4d36-934b-751ddcbc9895","system_id":"levelo_inurba_marseille","lat":43.3133,"lon":5.39694,"is_reserved":false,"is_disabled":false,"rental_uris":{"android":"levelo://app?vid=e3612861-f68b-4d36-934b-751ddcbc9895","ios":"levelo://app?vid=e3612861-f68b-4d36-934b-751ddcbc9895"},"vehicle_type_id":"4","last_reported":1728303456,"current_range_meters":9600,"station_id":"ce4bgvp2rcd13ifvqcu0","pricing_plan_id":"cebpf4jnsgd1na2vs0mg"},{"bike_id":"7bac8860-d535-489b-ae83-376b080a86fd","system_id":"levelo_inurba_marseille","lat":43.29909,"lon":5.37468,"is_reserved":false,"is_disabled":false,"rental_uris":{"android":"levelo://app?vid=7bac8860-d535-489b-ae83-376b080a86fd","ios":"levelo://app?vid=7bac8860-d535-489b-ae83-376b080a86fd"},"vehicle_type_id":"4","last_reported":1728303456,"current_range_meters":16400,"station_id":"ce4bgjh2rcd13ifvqbg0","pricing_plan_id":"cebpf4jnsgd1na2vs0mg"},{"bike_id":"5fd97b48-8eeb-44e8-bc7a-e8fa9d0cf5b6","system_id":"levelo_inurba_marseille","lat":43.30744,"lon":5.39671,"is_reserved":false,"is_disabled":false,"rental_uris":{"android":"levelo://app?vid=5fd97b48-8eeb-44e8-bc7a-e8fa9d0cf5b6","ios":"levelo://app?vid=5fd97b48-8eeb-44e8-bc7a-e8fa9d0cf5b6"},"vehicle_type_id":"4","last_reported":1728303456,"current_range_meters":9200,"station_id":"","pricing_plan_id":"cebpf4jnsgd1na2vs0mg"},{"bike_id":"a0e0bfdf-acc2-459c-bc45-ce067d972f5d","system_id":"levelo_inurba_marseille","lat":43.2907,"lon":5.37173,"is_reserved":false,"is_disabled":false,"rental_uris":{"android":"levelo://app?vid=a0e0bfdf-acc2-459c-bc45-ce067d972f5d","ios":"levelo://app?vid=a0e0bfdf-acc2-459c-bc45-ce067d972f5d"},"vehicle_type_id":"4","last_reported":1728303456,"current_range_meters":14800,"station_id":"ce4bh5p2rcd13ifvqe4g","pricing_plan_id":"cebpf4jnsgd1na2vs0mg"},{"bike_id":"ab267510-64f8-4c2c-a66c-cda236d57c6d","system_id":"levelo_inurba_marseille","lat":43.3028,"lon":5.37723,"is_reserved":false,"is_disabled":false,"rental_uris":{"android":"levelo://app?vid=ab267510-64f8-4c2c-a66c-cda236d57c6d","ios":"levelo://app?vid=ab267510-64f8-4c2c-a66c-cda236d57c6d"},"vehicle_type_id":"4","last_reported":1728303456,"current_range_meters":34800,"station_id":"ce4bguh2rcd13ifvqcj0","pricing_plan_id":"cebpf4jnsgd1na2vs0mg"},{"bike_id":"338f48c7-97f8-4ed6-8420-28b9e60ee3a3","system_id":"levelo_inurba_marseille","lat":43.31756,"lon":5.39018,"is_reserved":false,"is_disabled":false,"rental_uris":{"android":"levelo://app?vid=338f48c7-97f8-4ed6-8420-28b9e60ee3a3","ios":"levelo://app?vid=338f48c7-97f8-4ed6-8420-28b9e60ee3a3"},"vehicle_type_id":"4","last_reported":1728303456,"current_range_meters":37600,"station_id":"ce4bhqp2rcd13ifvqhng","pricing_plan_id":"cebpf4jnsgd1na2vs0mg"},{"bike_id":"fd4ea170-66bd-4514-bac0-2817003662ff","system_id":"levelo_inurba_marseille","lat":43.337444,"lon":5.374475,"is_reserved":false,"is_disabled":false,"rental_uris":{"android":"levelo://app?vid=fd4ea170-66bd-4514-bac0-2817003662ff","ios":"levelo://app?vid=fd4ea170-66bd-4514-bac0-2817003662ff"},"vehicle_type_id":"4","last_reported":1728303456,"current_range_meters":21600,"station_id":"","pricing_plan_id":"cebpf4jnsgd1na2vs0mg"},{"bike_id":"e8f38f77-6572-42be-9296-0cbe6e7cb972","system_id":"levelo_inurba_marseille","lat":43.23054,"lon":5.35492,"is_reserved":false,"is_disabled":false,"rental_uris":{"android":"levelo://app?vid=e8f38f77-6572-42be-9296-0cbe6e7cb972","ios":"levelo://app?vid=e8f38f77-6572-42be-9296-0cbe6e7cb972"},"vehicle_type_id":"4","last_reported":1728303456,"current_range_meters":36800,"station_id":"cpo3342slgdg3j2ifvpg","pricing_plan_id":"cebpf4jnsgd1na2vs0mg"},{"bike_id":"bb1241e4-0f2c-4e92-bbe4-90da56bad811","system_id":"levelo_inurba_marseille","lat":43.30079,"lon":5.39081,"is_reserved":false,"is_disabled":false,"rental_uris":{"android":"levelo://app?vid=bb1241e4-0f2c-4e92-bbe4-90da56bad811","ios":"levelo://app?vid=bb1241e4-0f2c-4e92-bbe4-90da56bad811"},"vehicle_type_id":"4","last_reported":1728303456,"current_range_meters":19600,"station_id":"ce4bh192rcd13ifvqdb0","pricing_plan_id":"cebpf4jnsgd1na2vs0mg"},{"bike_id":"f8df4726-4ee0-47a3-9ccd-0c8b0d96b43b","system_id":"levelo_inurba_marseille","lat":43.27496,"lon":5.42457,"is_reserved":false,"is_disabled":false,"rental_uris":{"android":"levelo://app?vid=f8df4726-4ee0-47a3-9ccd-0c8b0d96b43b","ios":"levelo://app?vid=f8df4726-4ee0-47a3-9ccd-0c8b0d96b43b"},"vehicle_type_id":"4","last_reported":1728303456,"current_range_meters":3600,"station_id":"ce4bhn92rcd13ifvqgrg","pricing_plan_id":"cebpf4jnsgd1na2vs0mg"},{"bike_id":"b3576681-ace2-4183-b12d-e87c0c5a344d","system_id":"levelo_inurba_marseille","lat":43.25507,"lon":5.37649,"is_reserved":false,"is_disabled":false,"rental_uris":{"android":"levelo://app?vid=b3576681-ace2-4183-b12d-e87c0c5a344d","ios":"levelo://app?vid=b3576681-ace2-4183-b12d-e87c0c5a344d"},"vehicle_type_id":"4","last_reported":1728303456,"current_range_meters":36400,"station_id":"ce4bhh12rcd13ifvqff0","pricing_plan_id":"cebpf4jnsgd1na2vs0mg"},{"bike_id":"1dad735d-481e-47ff-8bf7-942577eed167","system_id":"levelo_inurba_marseille","lat":43.23151,"lon":5.43706,"is_reserved":false,"is_disabled":false,"rental_uris":{"android":"levelo://app?vid=1dad735d-481e-47ff-8bf7-942577eed167","ios":"levelo://app?vid=1dad735d-481e-47ff-8bf7-942577eed167"},"vehicle_type_id":"4","last_reported":1728303456,"current_range_meters":19600,"station_id":"ce4bhmp2rcd13ifvqgog","pricing_plan_id":"cebpf4jnsgd1na2vs0mg"},{"bike_id":"490889b1-cee9-4892-9db5-299333956c90","system_id":"levelo_inurba_marseille","lat":43.34145,"lon":5.40915,"is_reserved":false,"is_disabled":false,"rental_uris":{"android":"levelo://app?vid=490889b1-cee9-4892-9db5-299333956c90","ios":"levelo://app?vid=490889b1-cee9-4892-9db5-299333956c90"},"vehicle_type_id":"4","last_reported":1728303456,"current_range_meters":40000,"station_id":"ce4bhqh2rcd13ifvqhlg","pricing_plan_id":"cebpf4jnsgd1na2vs0mg"},{"bike_id":"10315fd6-48d5-4b6b-b7d4-62499876786f","system_id":"levelo_inurba_marseille","lat":43.28155,"lon":5.42642,"is_reserved":false,"is_disabled":false,"rental_uris":{"android":"levelo://app?vid=10315fd6-48d5-4b6b-b7d4-62499876786f","ios":"levelo://app?vid=10315fd6-48d5-4b6b-b7d4-62499876786f"},"vehicle_type_id":"4","last_reported":1728303456,"current_range_meters":9600,"station_id":"ce4bhnh2rcd13ifvqgug","pricing_plan_id":"cebpf4jnsgd1na2vs0mg"},{"bike_id":"ea30e775-8466-430d-96e1-a121d270f1bd","system_id":"levelo_inurba_marseille","lat":43.24646,"lon":5.3888,"is_reserved":false,"is_disabled":false,"rental_uris":{"android":"levelo://app?vid=ea30e775-8466-430d-96e1-a121d270f1bd","ios":"levelo://app?vid=ea30e775-8466-430d-96e1-a121d270f1bd"},"vehicle_type_id":"4","last_reported":1728303456,"current_range_meters":36800,"station_id":"ce4bhg12rcd13ifvqf60","pricing_plan_id":"cebpf4jnsgd1na2vs0mg"},{"bike_id":"4378a0dd-7ddd-4246-9294-1e2af02e0700","system_id":"levelo_inurba_marseille","lat":43.23192,"lon":5.35545,"is_reserved":false,"is_disabled":false,"rental_uris":{"android":"levelo://app?vid=4378a0dd-7ddd-4246-9294-1e2af02e0700","ios":"levelo://app?vid=4378a0dd-7ddd-4246-9294-1e2af02e0700"},"vehicle_type_id":"4","last_reported":1728303456,"current_range_meters":5600,"station_id":"ce4bhu92rcd13ifvqi70","pricing_plan_id":"cebpf4jnsgd1na2vs0mg"},{"bike_id":"6c9119f6-a1ac-4755-9824-edcb969c8040","system_id":"levelo_inurba_marseille","lat":43.312743,"lon":5.40169,"is_reserved":false,"is_disabled":false,"rental_uris":{"android":"levelo://app?vid=6c9119f6-a1ac-4755-9824-edcb969c8040","ios":"levelo://app?vid=6c9119f6-a1ac-4755-9824-edcb969c8040"},"vehicle_type_id":"4","last_reported":1728303456,"current_range_meters":12400,"station_id":"ce4bh092rcd13ifvqd30","pricing_plan_id":"cebpf4jnsgd1na2vs0mg"},{"bike_id":"11a60370-6f5b-45b9-bb60-1be47b791b26","system_id":"levelo_inurba_marseille","lat":43.29508,"lon":5.38895,"is_reserved":false,"is_disabled":false,"rental_uris":{"android":"levelo://app?vid=11a60370-6f5b-45b9-bb60-1be47b791b26","ios":"levelo://app?vid=11a60370-6f5b-45b9-bb60-1be47b791b26"},"vehicle_type_id":"4","last_reported":1728303456,"current_range_meters":30400,"station_id":"","pricing_plan_id":"cebpf4jnsgd1na2vs0mg"},{"bike_id":"93d45870-2e1c-4ed1-9664-7b219a4ed443","system_id":"levelo_inurba_marseille","lat":43.22931,"lon":5.35382,"is_reserved":false,"is_disabled":false,"rental_uris":{"android":"levelo://app?vid=93d45870-2e1c-4ed1-9664-7b219a4ed443","ios":"levelo://app?vid=93d45870-2e1c-4ed1-9664-7b219a4ed443"},"vehicle_type_id":"4","last_reported":1728303456,"current_range_meters":36800,"station_id":"cpo3532slgdg3j2ikp40","pricing_plan_id":"cebpf4jnsgd1na2vs0mg"},{"bike_id":"8aa18e24-5de9-4b8a-9c05-5ef6a37f9a09","system_id":"levelo_inurba_marseille","lat":43.30141,"lon":5.37418,"is_reserved":false,"is_disabled":false,"rental_uris":{"android":"levelo://app?vid=8aa18e24-5de9-4b8a-9c05-5ef6a37f9a09","ios":"levelo://app?vid=8aa18e24-5de9-4b8a-9c05-5ef6a37f9a09"},"vehicle_type_id":"4","last_reported":1728303456,"current_range_meters":38000,"station_id":"ce4bgs92rcd13ifvqcc0","pricing_plan_id":"cebpf4jnsgd1na2vs0mg"},{"bike_id":"319b9ac7-cd83-40a9-8070-33d01f4f79a1","system_id":"levelo_inurba_marseille","lat":43.308675,"lon":5.368306,"is_reserved":false,"is_disabled":false,"rental_uris":{"android":"levelo://app?vid=319b9ac7-cd83-40a9-8070-33d01f4f79a1","ios":"levelo://app?vid=319b9ac7-cd83-40a9-8070-33d01f4f79a1"},"vehicle_type_id":"4","last_reported":1728303456,"current_range_meters":25600,"station_id":"ce4bgn92rcd13ifvqbvg","pricing_plan_id":"cebpf4jnsgd1na2vs0mg"},{"bike_id":"6e512044-ef12-457b-bcca-26bd86c5618a","system_id":"levelo_inurba_marseille","lat":43.23061,"lon":5.3549,"is_reserved":false,"is_disabled":false,"rental_uris":{"android":"levelo://app?vid=6e512044-ef12-457b-bcca-26bd86c5618a","ios":"levelo://app?vid=6e512044-ef12-457b-bcca-26bd86c5618a"},"vehicle_type_id":"4","last_reported":1728303456,"current_range_meters":36800,"station_id":"cpo3342slgdg3j2ifvpg","pricing_plan_id":"cebpf4jnsgd1na2vs0mg"},{"bike_id":"d8212fe4-5191-461c-9e21-03f220465b9c","system_id":"levelo_inurba_marseille","lat":43.31528,"lon":5.38022,"is_reserved":false,"is_disabled":false,"rental_uris":{"android":"levelo://app?vid=d8212fe4-5191-461c-9e21-03f220465b9c","ios":"levelo://app?vid=d8212fe4-5191-461c-9e21-03f220465b9c"},"vehicle_type_id":"4","last_reported":1728303456,"current_range_meters":23200,"station_id":"ce4bhsp2rcd13ifvqi50","pricing_plan_id":"cebpf4jnsgd1na2vs0mg"},{"bike_id":"a5c8b4bc-2005-44d2-8136-922d7ca3d1b9","system_id":"levelo_inurba_marseille","lat":43.29075,"lon":5.3718,"is_reserved":false,"is_disabled":false,"rental_uris":{"android":"levelo://app?vid=a5c8b4bc-2005-44d2-8136-922d7ca3d1b9","ios":"levelo://app?vid=a5c8b4bc-2005-44d2-8136-922d7ca3d1b9"},"vehicle_type_id":"4","last_reported":1728303456,"current_range_meters":28800,"station_id":"ce4bh5p2rcd13ifvqe4g","pricing_plan_id":"cebpf4jnsgd1na2vs0mg"},{"bike_id":"385b1e92-0cd5-4282-905d-2e075ac555ed","system_id":"levelo_inurba_marseille","lat":43.29783,"lon":5.37111,"is_reserved":false,"is_disabled":false,"rental_uris":{"android":"levelo://app?vid=385b1e92-0cd5-4282-905d-2e075ac555ed","ios":"levelo://app?vid=385b1e92-0cd5-4282-905d-2e075ac555ed"},"vehicle_type_id":"4","last_reported":1728303456,"current_range_meters":36000,"station_id":"ce4bgop2rcd13ifvqc1g","pricing_plan_id":"cebpf4jnsgd1na2vs0mg"},{"bike_id":"2775781b-d30f-4f5b-a24a-c4830ad4c08f","system_id":"levelo_inurba_marseille","lat":43.25871,"lon":5.39919,"is_reserved":false,"is_disabled":false,"rental_uris":{"android":"levelo://app?vid=2775781b-d30f-4f5b-a24a-c4830ad4c08f","ios":"levelo://app?vid=2775781b-d30f-4f5b-a24a-c4830ad4c08f"},"vehicle_type_id":"4","last_reported":1728303456,"current_range_meters":40000,"station_id":"ce4bhl92rcd13ifvqghg","pricing_plan_id":"cebpf4jnsgd1na2vs0mg"},{"bike_id":"270b90ca-7521-4165-af49-e1c727e5fa34","system_id":"levelo_inurba_marseille","lat":43.24165,"lon":5.36395,"is_reserved":false,"is_disabled":false,"rental_uris":{"android":"levelo://app?vid=270b90ca-7521-4165-af49-e1c727e5fa34","ios":"levelo://app?vid=270b90ca-7521-4165-af49-e1c727e5fa34"},"vehicle_type_id":"4","last_reported":1728303456,"current_range_meters":28800,"station_id":"cpo36qri1sfpv3e86is0","pricing_plan_id":"cebpf4jnsgd1na2vs0mg"},{"bike_id":"c1888b84-49e8-46a0-9251-a184dc8878ed","system_id":"levelo_inurba_marseille","lat":43.29585,"lon":5.36737,"is_reserved":false,"is_disabled":false,"rental_uris":{"android":"levelo://app?vid=c1888b84-49e8-46a0-9251-a184dc8878ed","ios":"levelo://app?vid=c1888b84-49e8-46a0-9251-a184dc8878ed"},"vehicle_type_id":"4","last_reported":1728303456,"current_range_meters":38800,"station_id":"ce4bgph2rcd13ifvqc2g","pricing_plan_id":"cebpf4jnsgd1na2vs0mg"},{"bike_id":"eadc232f-99da-41e1-9109-11fae5d42940","system_id":"levelo_inurba_marseille","lat":43.29533,"lon":5.38537,"is_reserved":false,"is_disabled":false,"rental_uris":{"android":"levelo://app?vid=eadc232f-99da-41e1-9109-11fae5d42940","ios":"levelo://app?vid=eadc232f-99da-41e1-9109-11fae5d42940"},"vehicle_type_id":"4","last_reported":1728303456,"current_range_meters":36800,"station_id":"ce4bgih2rcd13ifvqba0","pricing_plan_id":"cebpf4jnsgd1na2vs0mg"},{"bike_id":"33077378-0a62-4a89-9bf5-914b7e06faba","system_id":"levelo_inurba_marseille","lat":43.325387,"lon":5.414347,"is_reserved":false,"is_disabled":false,"rental_uris":{"android":"levelo://app?vid=33077378-0a62-4a89-9bf5-914b7e06faba","ios":"levelo://app?vid=33077378-0a62-4a89-9bf5-914b7e06faba"},"vehicle_type_id":"4","last_reported":1728303456,"current_range_meters":8000,"station_id":"ce4bhq12rcd13ifvqhhg","pricing_plan_id":"cebpf4jnsgd1na2vs0mg"},{"bike_id":"0f57286e-435e-433c-87f0-f75e84fb45ba","system_id":"levelo_inurba_marseille","lat":43.26568,"lon":5.39004,"is_reserved":false,"is_disabled":false,"rental_uris":{"android":"levelo://app?vid=0f57286e-435e-433c-87f0-f75e84fb45ba","ios":"levelo://app?vid=0f57286e-435e-433c-87f0-f75e84fb45ba"},"vehicle_type_id":"4","last_reported":1728303456,"current_range_meters":27600,"station_id":"ce4bhe12rcd13ifvqf30","pricing_plan_id":"cebpf4jnsgd1na2vs0mg"},{"bike_id":"36ce7bd9-8557-4fa1-b635-55b5a0b1fac8","system_id":"levelo_inurba_marseille","lat":43.31085,"lon":5.42429,"is_reserved":false,"is_disabled":false,"rental_uris":{"android":"levelo://app?vid=36ce7bd9-8557-4fa1-b635-55b5a0b1fac8","ios":"levelo://app?vid=36ce7bd9-8557-4fa1-b635-55b5a0b1fac8"},"vehicle_type_id":"4","last_reported":1728303456,"current_range_meters":25200,"station_id":"ce4bhp92rcd13ifvqhag","pricing_plan_id":"cebpf4jnsgd1na2vs0mg"},{"bike_id":"0ba50ae5-f531-4550-a3ce-6f53af1d4e80","system_id":"levelo_inurba_marseille","lat":43.28452,"lon":5.35891,"is_reserved":false,"is_disabled":false,"rental_uris":{"android":"levelo://app?vid=0ba50ae5-f531-4550-a3ce-6f53af1d4e80","ios":"levelo://app?vid=0ba50ae5-f531-4550-a3ce-6f53af1d4e80"},"vehicle_type_id":"4","last_reported":1728303456,"current_range_meters":6000,"station_id":"ce4bhah2rcd13ifvqei0","pricing_plan_id":"cebpf4jnsgd1na2vs0mg"},{"bike_id":"febb7358-6a56-42e2-9c21-684ff62411a8","system_id":"levelo_inurba_marseille","lat":43.29514,"lon":5.39027,"is_reserved":false,"is_disabled":false,"rental_uris":{"android":"levelo://app?vid=febb7358-6a56-42e2-9c21-684ff62411a8","ios":"levelo://app?vid=febb7358-6a56-42e2-9c21-684ff62411a8"},"vehicle_type_id":"4","last_reported":1728303456,"current_range_meters":38800,"station_id":"ce4bh3p2rcd13ifvqdp0","pricing_plan_id":"cebpf4jnsgd1na2vs0mg"},{"bike_id":"85081b74-3c48-4b75-b6b6-b181683e784a","system_id":"levelo_inurba_marseille","lat":43.25723,"lon":5.41114,"is_reserved":false,"is_disabled":false,"rental_uris":{"android":"levelo://app?vid=85081b74-3c48-4b75-b6b6-b181683e784a","ios":"levelo://app?vid=85081b74-3c48-4b75-b6b6-b181683e784a"},"vehicle_type_id":"4","last_reported":1728303456,"current_range_meters":34800,"station_id":"ce4bhkp2rcd13ifvqgd0","pricing_plan_id":"cebpf4jnsgd1na2vs0mg"},{"bike_id":"ca150432-5632-417f-a220-d6e10e3598a2","system_id":"levelo_inurba_marseille","lat":43.29893,"lon":5.43668,"is_reserved":false,"is_disabled":false,"rental_uris":{"android":"levelo://app?vid=ca150432-5632-417f-a220-d6e10e3598a2","ios":"levelo://app?vid=ca150432-5632-417f-a220-d6e10e3598a2"},"vehicle_type_id":"4","last_reported":1728303456,"current_range_meters":40000,"station_id":"ce4bhpp2rcd13ifvqhfg","pricing_plan_id":"cebpf4jnsgd1na2vs0mg"},{"bike_id":"e209dd5c-0d10-4561-adda-dad860e62fd5","system_id":"levelo_inurba_marseille","lat":43.30534,"lon":5.36711,"is_reserved":false,"is_disabled":false,"rental_uris":{"android":"levelo://app?vid=e209dd5c-0d10-4561-adda-dad860e62fd5","ios":"levelo://app?vid=e209dd5c-0d10-4561-adda-dad860e62fd5"},"vehicle_type_id":"4","last_reported":1728303456,"current_range_meters":40000,"station_id":"ce4bgrp2rcd13ifvqc9g","pricing_plan_id":"cebpf4jnsgd1na2vs0mg"},{"bike_id":"6fea6536-76dc-430b-b546-c9439597e325","system_id":"levelo_inurba_marseille","lat":43.27174,"lon":5.41001,"is_reserved":false,"is_disabled":false,"rental_uris":{"android":"levelo://app?vid=6fea6536-76dc-430b-b546-c9439597e325","ios":"levelo://app?vid=6fea6536-76dc-430b-b546-c9439597e325"},"vehicle_type_id":"4","last_reported":1728303456,"current_range_meters":28800,"station_id":"ce4bhl12rcd13ifvqgf0","pricing_plan_id":"cebpf4jnsgd1na2vs0mg"},{"bike_id":"2d5b20f8-7a5a-4d9d-87c8-96e5169df8aa","system_id":"levelo_inurba_marseille","lat":43.3027,"lon":5.37727,"is_reserved":false,"is_disabled":false,"rental_uris":{"android":"levelo://app?vid=2d5b20f8-7a5a-4d9d-87c8-96e5169df8aa","ios":"levelo://app?vid=2d5b20f8-7a5a-4d9d-87c8-96e5169df8aa"},"vehicle_type_id":"4","last_reported":1728303456,"current_range_meters":37600,"station_id":"ce4bguh2rcd13ifvqcj0","pricing_plan_id":"cebpf4jnsgd1na2vs0mg"},{"bike_id":"de7b61ce-9a77-48b8-b281-c8a3b04be6be","system_id":"levelo_inurba_marseille","lat":43.29481,"lon":5.36206,"is_reserved":false,"is_disabled":false,"rental_uris":{"android":"levelo://app?vid=de7b61ce-9a77-48b8-b281-c8a3b04be6be","ios":"levelo://app?vid=de7b61ce-9a77-48b8-b281-c8a3b04be6be"},"vehicle_type_id":"4","last_reported":1728303456,"current_range_meters":20400,"station_id":"","pricing_plan_id":"cebpf4jnsgd1na2vs0mg"},{"bike_id":"c2eafa11-ad6c-4f3b-b6e4-6e6fc5d9785c","system_id":"levelo_inurba_marseille","lat":43.29895,"lon":5.43665,"is_reserved":false,"is_disabled":false,"rental_uris":{"android":"levelo://app?vid=c2eafa11-ad6c-4f3b-b6e4-6e6fc5d9785c","ios":"levelo://app?vid=c2eafa11-ad6c-4f3b-b6e4-6e6fc5d9785c"},"vehicle_type_id":"4","last_reported":1728303456,"current_range_meters":40000,"station_id":"ce4bhpp2rcd13ifvqhfg","pricing_plan_id":"cebpf4jnsgd1na2vs0mg"},{"bike_id":"4697ea21-5cb2-4198-84b3-cdfaa97aa534","system_id":"levelo_inurba_marseille","lat":43.26942,"lon":5.40251,"is_reserved":false,"is_disabled":false,"rental_uris":{"android":"levelo://app?vid=4697ea21-5cb2-4198-84b3-cdfaa97aa534","ios":"levelo://app?vid=4697ea21-5cb2-4198-84b3-cdfaa97aa534"},"vehicle_type_id":"4","last_reported":1728303456,"current_range_meters":35200,"station_id":"cjm6bp8fraef2m0cb0m0","pricing_plan_id":"cebpf4jnsgd1na2vs0mg"},{"bike_id":"f6849e98-e59e-4bc2-8e5a-02bcbb272aa6","system_id":"levelo_inurba_marseille","lat":43.33757,"lon":5.37459,"is_reserved":false,"is_disabled":false,"rental_uris":{"android":"levelo://app?vid=f6849e98-e59e-4bc2-8e5a-02bcbb272aa6","ios":"levelo://app?vid=f6849e98-e59e-4bc2-8e5a-02bcbb272aa6"},"vehicle_type_id":"4","last_reported":1728303456,"current_range_meters":38000,"station_id":"","pricing_plan_id":"cebpf4jnsgd1na2vs0mg"},{"bike_id":"f7612392-4f4b-453b-a64c-499de3c2600f","system_id":"levelo_inurba_marseille","lat":43.24163,"lon":5.36391,"is_reserved":false,"is_disabled":false,"rental_uris":{"android":"levelo://app?vid=f7612392-4f4b-453b-a64c-499de3c2600f","ios":"levelo://app?vid=f7612392-4f4b-453b-a64c-499de3c2600f"},"vehicle_type_id":"4","last_reported":1728303456,"current_range_meters":36800,"station_id":"cpo36qri1sfpv3e86is0","pricing_plan_id":"cebpf4jnsgd1na2vs0mg"},{"bike_id":"f9fa4466-5a77-41dd-8904-7e776f2d0b7f","system_id":"levelo_inurba_marseille","lat":43.28695,"lon":5.39978,"is_reserved":false,"is_disabled":false,"rental_uris":{"android":"levelo://app?vid=f9fa4466-5a77-41dd-8904-7e776f2d0b7f","ios":"levelo://app?vid=f9fa4466-5a77-41dd-8904-7e776f2d0b7f"},"vehicle_type_id":"4","last_reported":1728303456,"current_range_meters":3600,"station_id":"ce4bho92rcd13ifvqh3g","pricing_plan_id":"cebpf4jnsgd1na2vs0mg"},{"bike_id":"80d24225-de63-42fe-9f81-e705c47da6a0","system_id":"levelo_inurba_marseille","lat":43.30455,"lon":5.38097,"is_reserved":false,"is_disabled":false,"rental_uris":{"android":"levelo://app?vid=80d24225-de63-42fe-9f81-e705c47da6a0","ios":"levelo://app?vid=80d24225-de63-42fe-9f81-e705c47da6a0"},"vehicle_type_id":"4","last_reported":1728303456,"current_range_meters":33600,"station_id":"ce4bgup2rcd13ifvqcn0","pricing_plan_id":"cebpf4jnsgd1na2vs0mg"},{"bike_id":"2bbb56d7-7dcd-433a-b393-00a9f730698f","system_id":"levelo_inurba_marseille","lat":43.26565,"lon":5.39017,"is_reserved":false,"is_disabled":false,"rental_uris":{"android":"levelo://app?vid=2bbb56d7-7dcd-433a-b393-00a9f730698f","ios":"levelo://app?vid=2bbb56d7-7dcd-433a-b393-00a9f730698f"},"vehicle_type_id":"4","last_reported":1728303456,"current_range_meters":7200,"station_id":"ce4bhe12rcd13ifvqf30","pricing_plan_id":"cebpf4jnsgd1na2vs0mg"},{"bike_id":"d564790b-0852-4675-98f3-130b2123dbf4","system_id":"levelo_inurba_marseille","lat":43.2558,"lon":5.38233,"is_reserved":false,"is_disabled":false,"rental_uris":{"android":"levelo://app?vid=d564790b-0852-4675-98f3-130b2123dbf4","ios":"levelo://app?vid=d564790b-0852-4675-98f3-130b2123dbf4"},"vehicle_type_id":"4","last_reported":1728303456,"current_range_meters":38800,"station_id":"ce4bhih2rcd13ifvqfs0","pricing_plan_id":"cebpf4jnsgd1na2vs0mg"},{"bike_id":"073fea1b-0d02-4544-830a-8b9c3d72dff8","system_id":"levelo_inurba_marseille","lat":43.30953,"lon":5.3904,"is_reserved":false,"is_disabled":false,"rental_uris":{"android":"levelo://app?vid=073fea1b-0d02-4544-830a-8b9c3d72dff8","ios":"levelo://app?vid=073fea1b-0d02-4544-830a-8b9c3d72dff8"},"vehicle_type_id":"4","last_reported":1728303456,"current_range_meters":33200,"station_id":"ce4bgup2rcd13ifvqco0","pricing_plan_id":"cebpf4jnsgd1na2vs0mg"},{"bike_id":"acc4a158-79c4-46ea-892f-f92f49cbf36e","system_id":"levelo_inurba_marseille","lat":43.29847,"lon":5.36287,"is_reserved":false,"is_disabled":false,"rental_uris":{"android":"levelo://app?vid=acc4a158-79c4-46ea-892f-f92f49cbf36e","ios":"levelo://app?vid=acc4a158-79c4-46ea-892f-f92f49cbf36e"},"vehicle_type_id":"4","last_reported":1728303456,"current_range_meters":40000,"station_id":"ce4bgpp2rcd13ifvqc3g","pricing_plan_id":"cebpf4jnsgd1na2vs0mg"},{"bike_id":"0fae0579-21a9-437c-87f5-9c07357a6f20","system_id":"levelo_inurba_marseille","lat":43.25926,"lon":5.40905,"is_reserved":false,"is_disabled":false,"rental_uris":{"android":"levelo://app?vid=0fae0579-21a9-437c-87f5-9c07357a6f20","ios":"levelo://app?vid=0fae0579-21a9-437c-87f5-9c07357a6f20"},"vehicle_type_id":"4","last_reported":1728303456,"current_range_meters":22000,"station_id":"ce4bhm92rcd13ifvqglg","pricing_plan_id":"cebpf4jnsgd1na2vs0mg"},{"bike_id":"2d424544-332f-45a8-8d54-6ae9533d8e3d","system_id":"levelo_inurba_marseille","lat":43.31221,"lon":5.36863,"is_reserved":false,"is_disabled":false,"rental_uris":{"android":"levelo://app?vid=2d424544-332f-45a8-8d54-6ae9533d8e3d","ios":"levelo://app?vid=2d424544-332f-45a8-8d54-6ae9533d8e3d"},"vehicle_type_id":"4","last_reported":1728303456,"current_range_meters":34000,"station_id":"ce4bgl92rcd13ifvqbq0","pricing_plan_id":"cebpf4jnsgd1na2vs0mg"},{"bike_id":"66a81085-1a96-4f65-934a-3195a2059afa","system_id":"levelo_inurba_marseille","lat":43.24648,"lon":5.38907,"is_reserved":false,"is_disabled":false,"rental_uris":{"android":"levelo://app?vid=66a81085-1a96-4f65-934a-3195a2059afa","ios":"levelo://app?vid=66a81085-1a96-4f65-934a-3195a2059afa"},"vehicle_type_id":"4","last_reported":1728303456,"current_range_meters":38800,"station_id":"ce4bhg12rcd13ifvqf60","pricing_plan_id":"cebpf4jnsgd1na2vs0mg"},{"bike_id":"2a82de31-694c-42cb-99f2-ada90b15a05a","system_id":"levelo_inurba_marseille","lat":43.29906,"lon":5.3747,"is_reserved":false,"is_disabled":false,"rental_uris":{"android":"levelo://app?vid=2a82de31-694c-42cb-99f2-ada90b15a05a","ios":"levelo://app?vid=2a82de31-694c-42cb-99f2-ada90b15a05a"},"vehicle_type_id":"4","last_reported":1728303456,"current_range_meters":29600,"station_id":"ce4bgjh2rcd13ifvqbg0","pricing_plan_id":"cebpf4jnsgd1na2vs0mg"},{"bike_id":"ab1618e0-2572-41ef-8dd5-92073ee89692","system_id":"levelo_inurba_marseille","lat":43.27069,"lon":5.42279,"is_reserved":false,"is_disabled":false,"rental_uris":{"android":"levelo://app?vid=ab1618e0-2572-41ef-8dd5-92073ee89692","ios":"levelo://app?vid=ab1618e0-2572-41ef-8dd5-92073ee89692"},"vehicle_type_id":"4","last_reported":1728303456,"current_range_meters":16400,"station_id":"ce4bhk92rcd13ifvqgb0","pricing_plan_id":"cebpf4jnsgd1na2vs0mg"},{"bike_id":"ac628847-21d5-434d-9db9-532fbbed3684","system_id":"levelo_inurba_marseille","lat":43.27945,"lon":5.38286,"is_reserved":false,"is_disabled":false,"rental_uris":{"android":"levelo://app?vid=ac628847-21d5-434d-9db9-532fbbed3684","ios":"levelo://app?vid=ac628847-21d5-434d-9db9-532fbbed3684"},"vehicle_type_id":"4","last_reported":1728303456,"current_range_meters":17600,"station_id":"ce4bhh92rcd13ifvqfi0","pricing_plan_id":"cebpf4jnsgd1na2vs0mg"},{"bike_id":"2bdb65cd-1e63-4874-80ab-bd72b908164f","system_id":"levelo_inurba_marseille","lat":43.2315,"lon":5.43695,"is_reserved":false,"is_disabled":false,"rental_uris":{"android":"levelo://app?vid=2bdb65cd-1e63-4874-80ab-bd72b908164f","ios":"levelo://app?vid=2bdb65cd-1e63-4874-80ab-bd72b908164f"},"vehicle_type_id":"4","last_reported":1728303456,"current_range_meters":25200,"station_id":"ce4bhmp2rcd13ifvqgog","pricing_plan_id":"cebpf4jnsgd1na2vs0mg"},{"bike_id":"1e237901-05a1-4ed2-aaa3-55fc1e1edbcf","system_id":"levelo_inurba_marseille","lat":43.24387,"lon":5.37057,"is_reserved":false,"is_disabled":false,"rental_uris":{"android":"levelo://app?vid=1e237901-05a1-4ed2-aaa3-55fc1e1edbcf","ios":"levelo://app?vid=1e237901-05a1-4ed2-aaa3-55fc1e1edbcf"},"vehicle_type_id":"4","last_reported":1728303456,"current_range_meters":20400,"station_id":"ce4bhhh2rcd13ifvqfk0","pricing_plan_id":"cebpf4jnsgd1na2vs0mg"},{"bike_id":"025b2914-5a55-4831-9515-ed51afbb3e15","system_id":"levelo_inurba_marseille","lat":43.23149,"lon":5.43704,"is_reserved":false,"is_disabled":false,"rental_uris":{"android":"levelo://app?vid=025b2914-5a55-4831-9515-ed51afbb3e15","ios":"levelo://app?vid=025b2914-5a55-4831-9515-ed51afbb3e15"},"vehicle_type_id":"4","last_reported":1728303456,"current_range_meters":17600,"station_id":"ce4bhmp2rcd13ifvqgog","pricing_plan_id":"cebpf4jnsgd1na2vs0mg"},{"bike_id":"e5d4d030-dd64-4d16-9e56-d768f065d43b","system_id":"levelo_inurba_marseille","lat":43.28476,"lon":5.384315,"is_reserved":false,"is_disabled":false,"rental_uris":{"android":"levelo://app?vid=e5d4d030-dd64-4d16-9e56-d768f065d43b","ios":"levelo://app?vid=e5d4d030-dd64-4d16-9e56-d768f065d43b"},"vehicle_type_id":"4","last_reported":1728303456,"current_range_meters":27600,"station_id":"ce4bh512rcd13ifvqe3g","pricing_plan_id":"cebpf4jnsgd1na2vs0mg"},{"bike_id":"539a8f4c-2281-49e5-83a2-e1626c21c4f4","system_id":"levelo_inurba_marseille","lat":43.30916,"lon":5.36858,"is_reserved":false,"is_disabled":false,"rental_uris":{"android":"levelo://app?vid=539a8f4c-2281-49e5-83a2-e1626c21c4f4","ios":"levelo://app?vid=539a8f4c-2281-49e5-83a2-e1626c21c4f4"},"vehicle_type_id":"4","last_reported":1728303456,"current_range_meters":38400,"station_id":"ce4bgn92rcd13ifvqbvg","pricing_plan_id":"cebpf4jnsgd1na2vs0mg"},{"bike_id":"6fb7ad93-4e45-48ad-9b6b-e03e891607ef","system_id":"levelo_inurba_marseille","lat":43.29532,"lon":5.37663,"is_reserved":false,"is_disabled":false,"rental_uris":{"android":"levelo://app?vid=6fb7ad93-4e45-48ad-9b6b-e03e891607ef","ios":"levelo://app?vid=6fb7ad93-4e45-48ad-9b6b-e03e891607ef"},"vehicle_type_id":"4","last_reported":1728303456,"current_range_meters":26800,"station_id":"ce4bgkp2rcd13ifvqbmg","pricing_plan_id":"cebpf4jnsgd1na2vs0mg"},{"bike_id":"02918d95-b819-4c37-babb-dd52b6c6980f","system_id":"levelo_inurba_marseille","lat":43.30883,"lon":5.37188,"is_reserved":false,"is_disabled":false,"rental_uris":{"android":"levelo://app?vid=02918d95-b819-4c37-babb-dd52b6c6980f","ios":"levelo://app?vid=02918d95-b819-4c37-babb-dd52b6c6980f"},"vehicle_type_id":"4","last_reported":1728303456,"current_range_meters":8800,"station_id":"ce4bguh2rcd13ifvqckg","pricing_plan_id":"cebpf4jnsgd1na2vs0mg"},{"bike_id":"13b0039f-a583-46cf-9deb-910985564f65","system_id":"levelo_inurba_marseille","lat":43.29543,"lon":5.42283,"is_reserved":false,"is_disabled":false,"rental_uris":{"android":"levelo://app?vid=13b0039f-a583-46cf-9deb-910985564f65","ios":"levelo://app?vid=13b0039f-a583-46cf-9deb-910985564f65"},"vehicle_type_id":"4","last_reported":1728303456,"current_range_meters":38800,"station_id":"ce4bhph2rcd13ifvqhdg","pricing_plan_id":"cebpf4jnsgd1na2vs0mg"},{"bike_id":"035169f9-3688-40e7-b630-6e0665ca7977","system_id":"levelo_inurba_marseille","lat":43.27811,"lon":5.40715,"is_reserved":false,"is_disabled":false,"rental_uris":{"android":"levelo://app?vid=035169f9-3688-40e7-b630-6e0665ca7977","ios":"levelo://app?vid=035169f9-3688-40e7-b630-6e0665ca7977"},"vehicle_type_id":"4","last_reported":1728303456,"current_range_meters":30000,"station_id":"ce4bhnh2rcd13ifvqgtg","pricing_plan_id":"cebpf4jnsgd1na2vs0mg"},{"bike_id":"c5fc066f-dc85-4fe1-b2a1-f82ce162f80e","system_id":"levelo_inurba_marseille","lat":43.29705,"lon":5.3662,"is_reserved":false,"is_disabled":false,"rental_uris":{"android":"levelo://app?vid=c5fc066f-dc85-4fe1-b2a1-f82ce162f80e","ios":"levelo://app?vid=c5fc066f-dc85-4fe1-b2a1-f82ce162f80e"},"vehicle_type_id":"4","last_reported":1728303456,"current_range_meters":37600,"station_id":"ce4bgn12rcd13ifvqbt0","pricing_plan_id":"cebpf4jnsgd1na2vs0mg"},{"bike_id":"271949df-b061-4edf-a109-ac910b3f5558","system_id":"levelo_inurba_marseille","lat":43.29639,"lon":5.37155,"is_reserved":false,"is_disabled":false,"rental_uris":{"android":"levelo://app?vid=271949df-b061-4edf-a109-ac910b3f5558","ios":"levelo://app?vid=271949df-b061-4edf-a109-ac910b3f5558"},"vehicle_type_id":"4","last_reported":1728303456,"current_range_meters":37600,"station_id":"ce4bgnh2rcd13ifvqc0g","pricing_plan_id":"cebpf4jnsgd1na2vs0mg"},{"bike_id":"7015adda-36ba-490e-9041-0df976d3621d","system_id":"levelo_inurba_marseille","lat":43.29616,"lon":5.37154,"is_reserved":false,"is_disabled":false,"rental_uris":{"android":"levelo://app?vid=7015adda-36ba-490e-9041-0df976d3621d","ios":"levelo://app?vid=7015adda-36ba-490e-9041-0df976d3621d"},"vehicle_type_id":"4","last_reported":1728303456,"current_range_meters":29600,"station_id":"ce4bgnh2rcd13ifvqc0g","pricing_plan_id":"cebpf4jnsgd1na2vs0mg"},{"bike_id":"c4c4d197-b381-4120-9df7-c2791e51e0f7","system_id":"levelo_inurba_marseille","lat":43.23964,"lon":5.36636,"is_reserved":false,"is_disabled":false,"rental_uris":{"android":"levelo://app?vid=c4c4d197-b381-4120-9df7-c2791e51e0f7","ios":"levelo://app?vid=c4c4d197-b381-4120-9df7-c2791e51e0f7"},"vehicle_type_id":"4","last_reported":1728303456,"current_range_meters":39200,"station_id":"ce4bhi12rcd13ifvqfp0","pricing_plan_id":"cebpf4jnsgd1na2vs0mg"},{"bike_id":"19ab3180-048d-4d8a-b271-16960f370501","system_id":"levelo_inurba_marseille","lat":43.3375,"lon":5.37439,"is_reserved":false,"is_disabled":false,"rental_uris":{"android":"levelo://app?vid=19ab3180-048d-4d8a-b271-16960f370501","ios":"levelo://app?vid=19ab3180-048d-4d8a-b271-16960f370501"},"vehicle_type_id":"4","last_reported":1728303456,"current_range_meters":20800,"station_id":"","pricing_plan_id":"cebpf4jnsgd1na2vs0mg"},{"bike_id":"a9a32616-7dcb-4dee-982b-ba0466bed6ab","system_id":"levelo_inurba_marseille","lat":43.28726,"lon":5.37943,"is_reserved":false,"is_disabled":false,"rental_uris":{"android":"levelo://app?vid=a9a32616-7dcb-4dee-982b-ba0466bed6ab","ios":"levelo://app?vid=a9a32616-7dcb-4dee-982b-ba0466bed6ab"},"vehicle_type_id":"4","last_reported":1728303456,"current_range_meters":38800,"station_id":"ce4bh9p2rcd13ifvqec0","pricing_plan_id":"cebpf4jnsgd1na2vs0mg"},{"bike_id":"816d4237-2a51-49c1-9595-de686bfcf0ed","system_id":"levelo_inurba_marseille","lat":43.26065,"lon":5.39396,"is_reserved":false,"is_disabled":false,"rental_uris":{"android":"levelo://app?vid=816d4237-2a51-49c1-9595-de686bfcf0ed","ios":"levelo://app?vid=816d4237-2a51-49c1-9595-de686bfcf0ed"},"vehicle_type_id":"4","last_reported":1728303456,"current_range_meters":3200,"station_id":"ce4bhh92rcd13ifvqfj0","pricing_plan_id":"cebpf4jnsgd1na2vs0mg"},{"bike_id":"75fd099c-3c6a-454d-a50f-4dd6f61efa86","system_id":"levelo_inurba_marseille","lat":43.33754,"lon":5.37458,"is_reserved":false,"is_disabled":false,"rental_uris":{"android":"levelo://app?vid=75fd099c-3c6a-454d-a50f-4dd6f61efa86","ios":"levelo://app?vid=75fd099c-3c6a-454d-a50f-4dd6f61efa86"},"vehicle_type_id":"4","last_reported":1728303456,"current_range_meters":38800,"station_id":"","pricing_plan_id":"cebpf4jnsgd1na2vs0mg"},{"bike_id":"d194773e-fe06-4f06-8a17-4f237c3f1f3a","system_id":"levelo_inurba_marseille","lat":43.26029,"lon":5.37553,"is_reserved":false,"is_disabled":false,"rental_uris":{"android":"levelo://app?vid=d194773e-fe06-4f06-8a17-4f237c3f1f3a","ios":"levelo://app?vid=d194773e-fe06-4f06-8a17-4f237c3f1f3a"},"vehicle_type_id":"4","last_reported":1728303456,"current_range_meters":3600,"station_id":"ce4bhgh2rcd13ifvqfa0","pricing_plan_id":"cebpf4jnsgd1na2vs0mg"},{"bike_id":"077160c3-5331-4ab6-a784-28bb8cc153bb","system_id":"levelo_inurba_marseille","lat":43.29845,"lon":5.36279,"is_reserved":false,"is_disabled":false,"rental_uris":{"android":"levelo://app?vid=077160c3-5331-4ab6-a784-28bb8cc153bb","ios":"levelo://app?vid=077160c3-5331-4ab6-a784-28bb8cc153bb"},"vehicle_type_id":"4","last_reported":1728303456,"current_range_meters":17600,"station_id":"ce4bgpp2rcd13ifvqc3g","pricing_plan_id":"cebpf4jnsgd1na2vs0mg"},{"bike_id":"f60bd348-d0f9-4f6f-b8af-07856abc07ef","system_id":"levelo_inurba_marseille","lat":43.28845,"lon":5.39347,"is_reserved":false,"is_disabled":false,"rental_uris":{"android":"levelo://app?vid=f60bd348-d0f9-4f6f-b8af-07856abc07ef","ios":"levelo://app?vid=f60bd348-d0f9-4f6f-b8af-07856abc07ef"},"vehicle_type_id":"4","last_reported":1728303456,"current_range_meters":18000,"station_id":"ce4bh2p2rcd13ifvqdi0","pricing_plan_id":"cebpf4jnsgd1na2vs0mg"},{"bike_id":"46f46770-f6ad-48fd-8a1d-eab21dfaafac","system_id":"levelo_inurba_marseille","lat":43.28713,"lon":5.37943,"is_reserved":false,"is_disabled":false,"rental_uris":{"android":"levelo://app?vid=46f46770-f6ad-48fd-8a1d-eab21dfaafac","ios":"levelo://app?vid=46f46770-f6ad-48fd-8a1d-eab21dfaafac"},"vehicle_type_id":"4","last_reported":1728303456,"current_range_meters":38800,"station_id":"ce4bh9p2rcd13ifvqec0","pricing_plan_id":"cebpf4jnsgd1na2vs0mg"},{"bike_id":"4e0c83a2-b0c3-4894-8559-e509681998d3","system_id":"levelo_inurba_marseille","lat":43.31114,"lon":5.3833,"is_reserved":false,"is_disabled":false,"rental_uris":{"android":"levelo://app?vid=4e0c83a2-b0c3-4894-8559-e509681998d3","ios":"levelo://app?vid=4e0c83a2-b0c3-4894-8559-e509681998d3"},"vehicle_type_id":"4","last_reported":1728303456,"current_range_meters":2800,"station_id":"ce4bgv92rcd13ifvqcr0","pricing_plan_id":"cebpf4jnsgd1na2vs0mg"},{"bike_id":"165296e7-5e10-49a5-8d7b-dbb3695d4855","system_id":"levelo_inurba_marseille","lat":43.29035,"lon":5.37571,"is_reserved":false,"is_disabled":false,"rental_uris":{"android":"levelo://app?vid=165296e7-5e10-49a5-8d7b-dbb3695d4855","ios":"levelo://app?vid=165296e7-5e10-49a5-8d7b-dbb3695d4855"},"vehicle_type_id":"4","last_reported":1728303456,"current_range_meters":33600,"station_id":"ce4bh692rcd13ifvqe90","pricing_plan_id":"cebpf4jnsgd1na2vs0mg"},{"bike_id":"e3579194-22b9-4934-a293-675db565e621","system_id":"levelo_inurba_marseille","lat":43.2315,"lon":5.43718,"is_reserved":false,"is_disabled":false,"rental_uris":{"android":"levelo://app?vid=e3579194-22b9-4934-a293-675db565e621","ios":"levelo://app?vid=e3579194-22b9-4934-a293-675db565e621"},"vehicle_type_id":"4","last_reported":1728303456,"current_range_meters":30400,"station_id":"ce4bhmp2rcd13ifvqgog","pricing_plan_id":"cebpf4jnsgd1na2vs0mg"},{"bike_id":"c190b4a1-ea1d-47e2-b2e8-eefa3099f9cc","system_id":"levelo_inurba_marseille","lat":43.23191,"lon":5.35556,"is_reserved":false,"is_disabled":false,"rental_uris":{"android":"levelo://app?vid=c190b4a1-ea1d-47e2-b2e8-eefa3099f9cc","ios":"levelo://app?vid=c190b4a1-ea1d-47e2-b2e8-eefa3099f9cc"},"vehicle_type_id":"4","last_reported":1728303456,"current_range_meters":38800,"station_id":"ce4bhu92rcd13ifvqi70","pricing_plan_id":"cebpf4jnsgd1na2vs0mg"},{"bike_id":"a0efbe72-8a56-4d61-b888-ac0f42f2e91e","system_id":"levelo_inurba_marseille","lat":43.29118,"lon":5.38086,"is_reserved":false,"is_disabled":false,"rental_uris":{"android":"levelo://app?vid=a0efbe72-8a56-4d61-b888-ac0f42f2e91e","ios":"levelo://app?vid=a0efbe72-8a56-4d61-b888-ac0f42f2e91e"},"vehicle_type_id":"4","last_reported":1728303456,"current_range_meters":16400,"station_id":"ce4bgl12rcd13ifvqbo0","pricing_plan_id":"cebpf4jnsgd1na2vs0mg"},{"bike_id":"1fc913ce-e392-407d-a647-fac65211ba41","system_id":"levelo_inurba_marseille","lat":43.27905,"lon":5.41231,"is_reserved":false,"is_disabled":false,"rental_uris":{"android":"levelo://app?vid=1fc913ce-e392-407d-a647-fac65211ba41","ios":"levelo://app?vid=1fc913ce-e392-407d-a647-fac65211ba41"},"vehicle_type_id":"4","last_reported":1728303456,"current_range_meters":23200,"station_id":"","pricing_plan_id":"cebpf4jnsgd1na2vs0mg"},{"bike_id":"9803f1a9-f386-4cd5-82ea-b6bb5d8e42db","system_id":"levelo_inurba_marseille","lat":43.26948,"lon":5.38627,"is_reserved":false,"is_disabled":false,"rental_uris":{"android":"levelo://app?vid=9803f1a9-f386-4cd5-82ea-b6bb5d8e42db","ios":"levelo://app?vid=9803f1a9-f386-4cd5-82ea-b6bb5d8e42db"},"vehicle_type_id":"4","last_reported":1728303456,"current_range_meters":38800,"station_id":"ce4bhh92rcd13ifvqfh0","pricing_plan_id":"cebpf4jnsgd1na2vs0mg"},{"bike_id":"f8f76ece-43e6-44a9-b368-d97ca628cdcf","system_id":"levelo_inurba_marseille","lat":43.23152,"lon":5.43708,"is_reserved":false,"is_disabled":false,"rental_uris":{"android":"levelo://app?vid=f8f76ece-43e6-44a9-b368-d97ca628cdcf","ios":"levelo://app?vid=f8f76ece-43e6-44a9-b368-d97ca628cdcf"},"vehicle_type_id":"4","last_reported":1728303456,"current_range_meters":39200,"station_id":"ce4bhmp2rcd13ifvqgog","pricing_plan_id":"cebpf4jnsgd1na2vs0mg"},{"bike_id":"f1a587de-a4d9-42a8-8fe6-d4518f6dd1b0","system_id":"levelo_inurba_marseille","lat":43.23063,"lon":5.35493,"is_reserved":false,"is_disabled":false,"rental_uris":{"android":"levelo://app?vid=f1a587de-a4d9-42a8-8fe6-d4518f6dd1b0","ios":"levelo://app?vid=f1a587de-a4d9-42a8-8fe6-d4518f6dd1b0"},"vehicle_type_id":"4","last_reported":1728303456,"current_range_meters":12400,"station_id":"cpo3342slgdg3j2ifvpg","pricing_plan_id":"cebpf4jnsgd1na2vs0mg"},{"bike_id":"6b4618ac-bf15-42bd-b8ce-f62f3e28352b","system_id":"levelo_inurba_marseille","lat":43.23193,"lon":5.35554,"is_reserved":false,"is_disabled":false,"rental_uris":{"android":"levelo://app?vid=6b4618ac-bf15-42bd-b8ce-f62f3e28352b","ios":"levelo://app?vid=6b4618ac-bf15-42bd-b8ce-f62f3e28352b"},"vehicle_type_id":"4","last_reported":1728303456,"current_range_meters":33600,"station_id":"ce4bhu92rcd13ifvqi70","pricing_plan_id":"cebpf4jnsgd1na2vs0mg"},{"bike_id":"b125422d-fb60-422a-ae93-e9a231b060e1","system_id":"levelo_inurba_marseille","lat":43.27816,"lon":5.4072,"is_reserved":false,"is_disabled":false,"rental_uris":{"android":"levelo://app?vid=b125422d-fb60-422a-ae93-e9a231b060e1","ios":"levelo://app?vid=b125422d-fb60-422a-ae93-e9a231b060e1"},"vehicle_type_id":"4","last_reported":1728303456,"current_range_meters":11200,"station_id":"ce4bhnh2rcd13ifvqgtg","pricing_plan_id":"cebpf4jnsgd1na2vs0mg"},{"bike_id":"eaacd570-d7f7-4be2-8ab9-5c6952f03840","system_id":"levelo_inurba_marseille","lat":43.327425,"lon":5.411881,"is_reserved":false,"is_disabled":false,"rental_uris":{"android":"levelo://app?vid=eaacd570-d7f7-4be2-8ab9-5c6952f03840","ios":"levelo://app?vid=eaacd570-d7f7-4be2-8ab9-5c6952f03840"},"vehicle_type_id":"4","last_reported":1728303456,"current_range_meters":22000,"station_id":"ce4bhpp2rcd13ifvqhgg","pricing_plan_id":"cebpf4jnsgd1na2vs0mg"},{"bike_id":"3d0edaa1-f962-4282-b27c-b1af9f0460bd","system_id":"levelo_inurba_marseille","lat":43.29575,"lon":5.37514,"is_reserved":false,"is_disabled":false,"rental_uris":{"android":"levelo://app?vid=3d0edaa1-f962-4282-b27c-b1af9f0460bd","ios":"levelo://app?vid=3d0edaa1-f962-4282-b27c-b1af9f0460bd"},"vehicle_type_id":"4","last_reported":1728303456,"current_range_meters":12000,"station_id":"ce4bgh92rcd13ifvqb50","pricing_plan_id":"cebpf4jnsgd1na2vs0mg"},{"bike_id":"363d819c-a03c-4e84-844f-0d177ec98c0f","system_id":"levelo_inurba_marseille","lat":43.26683,"lon":5.38274,"is_reserved":false,"is_disabled":false,"rental_uris":{"android":"levelo://app?vid=363d819c-a03c-4e84-844f-0d177ec98c0f","ios":"levelo://app?vid=363d819c-a03c-4e84-844f-0d177ec98c0f"},"vehicle_type_id":"4","last_reported":1728303456,"current_range_meters":34800,"station_id":"ce4bhg92rcd13ifvqf90","pricing_plan_id":"cebpf4jnsgd1na2vs0mg"},{"bike_id":"e1981508-8176-4aae-a242-53630f7b837d","system_id":"levelo_inurba_marseille","lat":43.32657,"lon":5.40992,"is_reserved":false,"is_disabled":false,"rental_uris":{"android":"levelo://app?vid=e1981508-8176-4aae-a242-53630f7b837d","ios":"levelo://app?vid=e1981508-8176-4aae-a242-53630f7b837d"},"vehicle_type_id":"4","last_reported":1728303456,"current_range_meters":39200,"station_id":"ce4bhpp2rcd13ifvqhgg","pricing_plan_id":"cebpf4jnsgd1na2vs0mg"},{"bike_id":"481b7fa0-9287-46f7-aafe-0ea9386bd9be","system_id":"levelo_inurba_marseille","lat":43.274057,"lon":5.393899,"is_reserved":false,"is_disabled":false,"rental_uris":{"android":"levelo://app?vid=481b7fa0-9287-46f7-aafe-0ea9386bd9be","ios":"levelo://app?vid=481b7fa0-9287-46f7-aafe-0ea9386bd9be"},"vehicle_type_id":"4","last_reported":1728303456,"current_range_meters":33200,"station_id":"ce4bhdp2rcd13ifvqf20","pricing_plan_id":"cebpf4jnsgd1na2vs0mg"},{"bike_id":"25fca34d-d1d1-4912-9ad1-ead795e3fa9a","system_id":"levelo_inurba_marseille","lat":43.3089,"lon":5.37303,"is_reserved":false,"is_disabled":false,"rental_uris":{"android":"levelo://app?vid=25fca34d-d1d1-4912-9ad1-ead795e3fa9a","ios":"levelo://app?vid=25fca34d-d1d1-4912-9ad1-ead795e3fa9a"},"vehicle_type_id":"4","last_reported":1728303456,"current_range_meters":36000,"station_id":"","pricing_plan_id":"cebpf4jnsgd1na2vs0mg"},{"bike_id":"ceae7ede-a81e-41c8-b671-3d168e17e516","system_id":"levelo_inurba_marseille","lat":43.24388,"lon":5.3706,"is_reserved":false,"is_disabled":false,"rental_uris":{"android":"levelo://app?vid=ceae7ede-a81e-41c8-b671-3d168e17e516","ios":"levelo://app?vid=ceae7ede-a81e-41c8-b671-3d168e17e516"},"vehicle_type_id":"4","last_reported":1728303456,"current_range_meters":39200,"station_id":"ce4bhhh2rcd13ifvqfk0","pricing_plan_id":"cebpf4jnsgd1na2vs0mg"},{"bike_id":"8311540e-06e6-4f8c-9f75-d28d3b3022ed","system_id":"levelo_inurba_marseille","lat":43.28027,"lon":5.36945,"is_reserved":false,"is_disabled":false,"rental_uris":{"android":"levelo://app?vid=8311540e-06e6-4f8c-9f75-d28d3b3022ed","ios":"levelo://app?vid=8311540e-06e6-4f8c-9f75-d28d3b3022ed"},"vehicle_type_id":"4","last_reported":1728303456,"current_range_meters":20800,"station_id":"ce4bha12rcd13ifvqef0","pricing_plan_id":"cebpf4jnsgd1na2vs0mg"},{"bike_id":"926380f0-4ec2-45d5-8c58-de39b75f601e","system_id":"levelo_inurba_marseille","lat":43.23064,"lon":5.3549,"is_reserved":false,"is_disabled":false,"rental_uris":{"android":"levelo://app?vid=926380f0-4ec2-45d5-8c58-de39b75f601e","ios":"levelo://app?vid=926380f0-4ec2-45d5-8c58-de39b75f601e"},"vehicle_type_id":"4","last_reported":1728303456,"current_range_meters":16800,"station_id":"cpo3342slgdg3j2ifvpg","pricing_plan_id":"cebpf4jnsgd1na2vs0mg"},{"bike_id":"114dbd04-f02e-4a0e-8ca1-55f348020f86","system_id":"levelo_inurba_marseille","lat":43.30908,"lon":5.36849,"is_reserved":false,"is_disabled":false,"rental_uris":{"android":"levelo://app?vid=114dbd04-f02e-4a0e-8ca1-55f348020f86","ios":"levelo://app?vid=114dbd04-f02e-4a0e-8ca1-55f348020f86"},"vehicle_type_id":"4","last_reported":1728303456,"current_range_meters":38800,"station_id":"ce4bgn92rcd13ifvqbvg","pricing_plan_id":"cebpf4jnsgd1na2vs0mg"},{"bike_id":"a485b0d4-2721-435c-b41c-eed272d33850","system_id":"levelo_inurba_marseille","lat":43.25933,"lon":5.40894,"is_reserved":false,"is_disabled":false,"rental_uris":{"android":"levelo://app?vid=a485b0d4-2721-435c-b41c-eed272d33850","ios":"levelo://app?vid=a485b0d4-2721-435c-b41c-eed272d33850"},"vehicle_type_id":"4","last_reported":1728303456,"current_range_meters":22000,"station_id":"ce4bhm92rcd13ifvqglg","pricing_plan_id":"cebpf4jnsgd1na2vs0mg"},{"bike_id":"b16208da-13e6-4838-9a09-ee4d401cb5e1","system_id":"levelo_inurba_marseille","lat":43.30416,"lon":5.39734,"is_reserved":false,"is_disabled":false,"rental_uris":{"android":"levelo://app?vid=b16208da-13e6-4838-9a09-ee4d401cb5e1","ios":"levelo://app?vid=b16208da-13e6-4838-9a09-ee4d401cb5e1"},"vehicle_type_id":"4","last_reported":1728303456,"current_range_meters":39200,"station_id":"ce4bh092rcd13ifvqd20","pricing_plan_id":"cebpf4jnsgd1na2vs0mg"},{"bike_id":"1861fe18-0fa3-4b8e-9b1a-36e819ce63fc","system_id":"levelo_inurba_marseille","lat":43.26494,"lon":5.3956,"is_reserved":false,"is_disabled":false,"rental_uris":{"android":"levelo://app?vid=1861fe18-0fa3-4b8e-9b1a-36e819ce63fc","ios":"levelo://app?vid=1861fe18-0fa3-4b8e-9b1a-36e819ce63fc"},"vehicle_type_id":"4","last_reported":1728303456,"current_range_meters":39200,"station_id":"ce4bhi12rcd13ifvqfq0","pricing_plan_id":"cebpf4jnsgd1na2vs0mg"},{"bike_id":"8e1e3d2c-16e0-4046-976f-28fa8b9977b3","system_id":"levelo_inurba_marseille","lat":43.267944,"lon":5.394183,"is_reserved":false,"is_disabled":false,"rental_uris":{"android":"levelo://app?vid=8e1e3d2c-16e0-4046-976f-28fa8b9977b3","ios":"levelo://app?vid=8e1e3d2c-16e0-4046-976f-28fa8b9977b3"},"vehicle_type_id":"4","last_reported":1728303456,"current_range_meters":20000,"station_id":"ce4bhh12rcd13ifvqfg0","pricing_plan_id":"cebpf4jnsgd1na2vs0mg"},{"bike_id":"ab6e6edb-0739-4561-acb1-ffa3c039975c","system_id":"levelo_inurba_marseille","lat":43.26034,"lon":5.37548,"is_reserved":false,"is_disabled":false,"rental_uris":{"android":"levelo://app?vid=ab6e6edb-0739-4561-acb1-ffa3c039975c","ios":"levelo://app?vid=ab6e6edb-0739-4561-acb1-ffa3c039975c"},"vehicle_type_id":"4","last_reported":1728303456,"current_range_meters":26000,"station_id":"ce4bhgh2rcd13ifvqfa0","pricing_plan_id":"cebpf4jnsgd1na2vs0mg"},{"bike_id":"65a9b3a1-1d72-474d-9e16-637c602561b7","system_id":"levelo_inurba_marseille","lat":43.325435,"lon":5.414415,"is_reserved":false,"is_disabled":false,"rental_uris":{"android":"levelo://app?vid=65a9b3a1-1d72-474d-9e16-637c602561b7","ios":"levelo://app?vid=65a9b3a1-1d72-474d-9e16-637c602561b7"},"vehicle_type_id":"4","last_reported":1728303456,"current_range_meters":27600,"station_id":"ce4bhq12rcd13ifvqhhg","pricing_plan_id":"cebpf4jnsgd1na2vs0mg"},{"bike_id":"ee919583-acf1-410a-a1dc-eab2743e96fc","system_id":"levelo_inurba_marseille","lat":43.30884,"lon":5.372,"is_reserved":false,"is_disabled":false,"rental_uris":{"android":"levelo://app?vid=ee919583-acf1-410a-a1dc-eab2743e96fc","ios":"levelo://app?vid=ee919583-acf1-410a-a1dc-eab2743e96fc"},"vehicle_type_id":"4","last_reported":1728303456,"current_range_meters":38000,"station_id":"ce4bguh2rcd13ifvqckg","pricing_plan_id":"cebpf4jnsgd1na2vs0mg"},{"bike_id":"cf103bc3-846c-4937-9f52-3983e21f817e","system_id":"levelo_inurba_marseille","lat":43.279362,"lon":5.410562,"is_reserved":false,"is_disabled":false,"rental_uris":{"android":"levelo://app?vid=cf103bc3-846c-4937-9f52-3983e21f817e","ios":"levelo://app?vid=cf103bc3-846c-4937-9f52-3983e21f817e"},"vehicle_type_id":"4","last_reported":1728303456,"current_range_meters":32000,"station_id":"ce4bhnp2rcd13ifvqh0g","pricing_plan_id":"cebpf4jnsgd1na2vs0mg"},{"bike_id":"9aac7612-b9b7-4180-ae0e-3326a7e2dbbd","system_id":"levelo_inurba_marseille","lat":43.29617,"lon":5.3717,"is_reserved":false,"is_disabled":false,"rental_uris":{"android":"levelo://app?vid=9aac7612-b9b7-4180-ae0e-3326a7e2dbbd","ios":"levelo://app?vid=9aac7612-b9b7-4180-ae0e-3326a7e2dbbd"},"vehicle_type_id":"4","last_reported":1728303456,"current_range_meters":8400,"station_id":"ce4bgnh2rcd13ifvqc0g","pricing_plan_id":"cebpf4jnsgd1na2vs0mg"},{"bike_id":"7667f4fa-05a8-49e9-a60c-4172475b64a6","system_id":"levelo_inurba_marseille","lat":43.24545,"lon":5.39527,"is_reserved":false,"is_disabled":false,"rental_uris":{"android":"levelo://app?vid=7667f4fa-05a8-49e9-a60c-4172475b64a6","ios":"levelo://app?vid=7667f4fa-05a8-49e9-a60c-4172475b64a6"},"vehicle_type_id":"4","last_reported":1728303456,"current_range_meters":30000,"station_id":"ce4bhlp2rcd13ifvqgjg","pricing_plan_id":"cebpf4jnsgd1na2vs0mg"},{"bike_id":"b553a0b4-54e4-4ab3-8483-2e5640c6e842","system_id":"levelo_inurba_marseille","lat":43.31475,"lon":5.37155,"is_reserved":false,"is_disabled":false,"rental_uris":{"android":"levelo://app?vid=b553a0b4-54e4-4ab3-8483-2e5640c6e842","ios":"levelo://app?vid=b553a0b4-54e4-4ab3-8483-2e5640c6e842"},"vehicle_type_id":"4","last_reported":1728303456,"current_range_meters":34000,"station_id":"ce4bgr92rcd13ifvqc6g","pricing_plan_id":"cebpf4jnsgd1na2vs0mg"},{"bike_id":"0e9bf4d1-0450-418f-9b74-0151534ef107","system_id":"levelo_inurba_marseille","lat":43.33785,"lon":5.37429,"is_reserved":false,"is_disabled":false,"rental_uris":{"android":"levelo://app?vid=0e9bf4d1-0450-418f-9b74-0151534ef107","ios":"levelo://app?vid=0e9bf4d1-0450-418f-9b74-0151534ef107"},"vehicle_type_id":"4","last_reported":1728303456,"current_range_meters":30000,"station_id":"","pricing_plan_id":"cebpf4jnsgd1na2vs0mg"},{"bike_id":"5790fc04-5122-40c2-bb4f-ff0994be96ba","system_id":"levelo_inurba_marseille","lat":43.25499,"lon":5.37643,"is_reserved":false,"is_disabled":false,"rental_uris":{"android":"levelo://app?vid=5790fc04-5122-40c2-bb4f-ff0994be96ba","ios":"levelo://app?vid=5790fc04-5122-40c2-bb4f-ff0994be96ba"},"vehicle_type_id":"4","last_reported":1728303456,"current_range_meters":38800,"station_id":"ce4bhh12rcd13ifvqff0","pricing_plan_id":"cebpf4jnsgd1na2vs0mg"},{"bike_id":"56b6fd59-75e4-4531-8391-9ea094f65b50","system_id":"levelo_inurba_marseille","lat":43.25931,"lon":5.40906,"is_reserved":false,"is_disabled":false,"rental_uris":{"android":"levelo://app?vid=56b6fd59-75e4-4531-8391-9ea094f65b50","ios":"levelo://app?vid=56b6fd59-75e4-4531-8391-9ea094f65b50"},"vehicle_type_id":"4","last_reported":1728303456,"current_range_meters":23200,"station_id":"ce4bhm92rcd13ifvqglg","pricing_plan_id":"cebpf4jnsgd1na2vs0mg"},{"bike_id":"c7ccc41e-a0a0-40ee-b7dc-86e99a5fb199","system_id":"levelo_inurba_marseille","lat":43.30893,"lon":5.37203,"is_reserved":false,"is_disabled":false,"rental_uris":{"android":"levelo://app?vid=c7ccc41e-a0a0-40ee-b7dc-86e99a5fb199","ios":"levelo://app?vid=c7ccc41e-a0a0-40ee-b7dc-86e99a5fb199"},"vehicle_type_id":"4","last_reported":1728303456,"current_range_meters":10800,"station_id":"ce4bguh2rcd13ifvqckg","pricing_plan_id":"cebpf4jnsgd1na2vs0mg"},{"bike_id":"f06eed97-ed02-491d-93a8-c7ec88f79248","system_id":"levelo_inurba_marseille","lat":43.27493,"lon":5.42457,"is_reserved":false,"is_disabled":false,"rental_uris":{"android":"levelo://app?vid=f06eed97-ed02-491d-93a8-c7ec88f79248","ios":"levelo://app?vid=f06eed97-ed02-491d-93a8-c7ec88f79248"},"vehicle_type_id":"4","last_reported":1728303456,"current_range_meters":4800,"station_id":"ce4bhn92rcd13ifvqgrg","pricing_plan_id":"cebpf4jnsgd1na2vs0mg"},{"bike_id":"475e0eb9-a4d5-4b17-a1bf-e8dd8e446492","system_id":"levelo_inurba_marseille","lat":43.29794,"lon":5.38117,"is_reserved":false,"is_disabled":false,"rental_uris":{"android":"levelo://app?vid=475e0eb9-a4d5-4b17-a1bf-e8dd8e446492","ios":"levelo://app?vid=475e0eb9-a4d5-4b17-a1bf-e8dd8e446492"},"vehicle_type_id":"4","last_reported":1728303456,"current_range_meters":38800,"station_id":"ce4bgip2rcd13ifvqbb0","pricing_plan_id":"cebpf4jnsgd1na2vs0mg"},{"bike_id":"3da37509-ca6a-4252-9897-ea374c4a366f","system_id":"levelo_inurba_marseille","lat":43.30278,"lon":5.37689,"is_reserved":false,"is_disabled":false,"rental_uris":{"android":"levelo://app?vid=3da37509-ca6a-4252-9897-ea374c4a366f","ios":"levelo://app?vid=3da37509-ca6a-4252-9897-ea374c4a366f"},"vehicle_type_id":"4","last_reported":1728303456,"current_range_meters":30400,"station_id":"ce4bguh2rcd13ifvqcj0","pricing_plan_id":"cebpf4jnsgd1na2vs0mg"},{"bike_id":"3dee1b2a-ef99-48c5-b0e9-db6ea2626874","system_id":"levelo_inurba_marseille","lat":43.25867,"lon":5.39896,"is_reserved":false,"is_disabled":false,"rental_uris":{"android":"levelo://app?vid=3dee1b2a-ef99-48c5-b0e9-db6ea2626874","ios":"levelo://app?vid=3dee1b2a-ef99-48c5-b0e9-db6ea2626874"},"vehicle_type_id":"4","last_reported":1728303456,"current_range_meters":37600,"station_id":"ce4bhl92rcd13ifvqghg","pricing_plan_id":"cebpf4jnsgd1na2vs0mg"},{"bike_id":"73078c60-5bbf-4e3d-9a63-1fe8e7d4e977","system_id":"levelo_inurba_marseille","lat":43.29512,"lon":5.37519,"is_reserved":false,"is_disabled":false,"rental_uris":{"android":"levelo://app?vid=73078c60-5bbf-4e3d-9a63-1fe8e7d4e977","ios":"levelo://app?vid=73078c60-5bbf-4e3d-9a63-1fe8e7d4e977"},"vehicle_type_id":"4","last_reported":1728303456,"current_range_meters":14000,"station_id":"ce4bgkp2rcd13ifvqbmg","pricing_plan_id":"cebpf4jnsgd1na2vs0mg"},{"bike_id":"b00144c3-d1ff-493a-aff0-2a0c6f08c6ca","system_id":"levelo_inurba_marseille","lat":43.29685,"lon":5.37295,"is_reserved":false,"is_disabled":false,"rental_uris":{"android":"levelo://app?vid=b00144c3-d1ff-493a-aff0-2a0c6f08c6ca","ios":"levelo://app?vid=b00144c3-d1ff-493a-aff0-2a0c6f08c6ca"},"vehicle_type_id":"4","last_reported":1728303456,"current_range_meters":11200,"station_id":"ce4bgk12rcd13ifvqbj0","pricing_plan_id":"cebpf4jnsgd1na2vs0mg"},{"bike_id":"c7ed9f65-d7f1-4884-ada5-a518b0bda1e9","system_id":"levelo_inurba_marseille","lat":43.24079,"lon":5.37762,"is_reserved":false,"is_disabled":false,"rental_uris":{"android":"levelo://app?vid=c7ed9f65-d7f1-4884-ada5-a518b0bda1e9","ios":"levelo://app?vid=c7ed9f65-d7f1-4884-ada5-a518b0bda1e9"},"vehicle_type_id":"4","last_reported":1728303456,"current_range_meters":17200,"station_id":"ce4bhnp2rcd13ifvqgvg","pricing_plan_id":"cebpf4jnsgd1na2vs0mg"},{"bike_id":"af101257-97d8-427d-926c-bfd575a5c827","system_id":"levelo_inurba_marseille","lat":43.23067,"lon":5.35486,"is_reserved":false,"is_disabled":false,"rental_uris":{"android":"levelo://app?vid=af101257-97d8-427d-926c-bfd575a5c827","ios":"levelo://app?vid=af101257-97d8-427d-926c-bfd575a5c827"},"vehicle_type_id":"4","last_reported":1728303456,"current_range_meters":10000,"station_id":"cpo3342slgdg3j2ifvpg","pricing_plan_id":"cebpf4jnsgd1na2vs0mg"},{"bike_id":"79d4ce44-dde0-4856-adfb-9d048612b764","system_id":"levelo_inurba_marseille","lat":43.24165,"lon":5.36402,"is_reserved":false,"is_disabled":false,"rental_uris":{"android":"levelo://app?vid=79d4ce44-dde0-4856-adfb-9d048612b764","ios":"levelo://app?vid=79d4ce44-dde0-4856-adfb-9d048612b764"},"vehicle_type_id":"4","last_reported":1728303456,"current_range_meters":28800,"station_id":"cpo36qri1sfpv3e86is0","pricing_plan_id":"cebpf4jnsgd1na2vs0mg"},{"bike_id":"2b14b968-be46-41e3-bb0a-4216341f5ebc","system_id":"levelo_inurba_marseille","lat":43.29565,"lon":5.37505,"is_reserved":false,"is_disabled":false,"rental_uris":{"android":"levelo://app?vid=2b14b968-be46-41e3-bb0a-4216341f5ebc","ios":"levelo://app?vid=2b14b968-be46-41e3-bb0a-4216341f5ebc"},"vehicle_type_id":"4","last_reported":1728303456,"current_range_meters":38800,"station_id":"ce4bgh92rcd13ifvqb50","pricing_plan_id":"cebpf4jnsgd1na2vs0mg"},{"bike_id":"6362dd7e-711b-4b82-af8e-291ea8f6ea1e","system_id":"levelo_inurba_marseille","lat":43.23068,"lon":5.35493,"is_reserved":false,"is_disabled":false,"rental_uris":{"android":"levelo://app?vid=6362dd7e-711b-4b82-af8e-291ea8f6ea1e","ios":"levelo://app?vid=6362dd7e-711b-4b82-af8e-291ea8f6ea1e"},"vehicle_type_id":"4","last_reported":1728303456,"current_range_meters":26000,"station_id":"cpo3342slgdg3j2ifvpg","pricing_plan_id":"cebpf4jnsgd1na2vs0mg"},{"bike_id":"2b50d858-5911-4fa7-9d01-57dec5fbffbb","system_id":"levelo_inurba_marseille","lat":43.27612,"lon":5.36108,"is_reserved":false,"is_disabled":false,"rental_uris":{"android":"levelo://app?vid=2b50d858-5911-4fa7-9d01-57dec5fbffbb","ios":"levelo://app?vid=2b50d858-5911-4fa7-9d01-57dec5fbffbb"},"vehicle_type_id":"4","last_reported":1728303456,"current_range_meters":38000,"station_id":"ce4bgj92rcd13ifvqbe0","pricing_plan_id":"cebpf4jnsgd1na2vs0mg"},{"bike_id":"70e1ea21-f683-4ae0-9184-7321d3d559ad","system_id":"levelo_inurba_marseille","lat":43.29845,"lon":5.36277,"is_reserved":false,"is_disabled":false,"rental_uris":{"android":"levelo://app?vid=70e1ea21-f683-4ae0-9184-7321d3d559ad","ios":"levelo://app?vid=70e1ea21-f683-4ae0-9184-7321d3d559ad"},"vehicle_type_id":"4","last_reported":1728303456,"current_range_meters":38800,"station_id":"ce4bgpp2rcd13ifvqc3g","pricing_plan_id":"cebpf4jnsgd1na2vs0mg"},{"bike_id":"696a9608-db6b-4db2-80ec-c9fa9508daa4","system_id":"levelo_inurba_marseille","lat":43.31167,"lon":5.38727,"is_reserved":false,"is_disabled":false,"rental_uris":{"android":"levelo://app?vid=696a9608-db6b-4db2-80ec-c9fa9508daa4","ios":"levelo://app?vid=696a9608-db6b-4db2-80ec-c9fa9508daa4"},"vehicle_type_id":"4","last_reported":1728303456,"current_range_meters":6800,"station_id":"ce4bgv12rcd13ifvqcp0","pricing_plan_id":"cebpf4jnsgd1na2vs0mg"},{"bike_id":"1cf9611f-df1b-4b51-9eeb-09129952c99f","system_id":"levelo_inurba_marseille","lat":43.28404,"lon":5.37526,"is_reserved":false,"is_disabled":false,"rental_uris":{"android":"levelo://app?vid=1cf9611f-df1b-4b51-9eeb-09129952c99f","ios":"levelo://app?vid=1cf9611f-df1b-4b51-9eeb-09129952c99f"},"vehicle_type_id":"4","last_reported":1728303456,"current_range_meters":6800,"station_id":"ce4bh412rcd13ifvqds0","pricing_plan_id":"cebpf4jnsgd1na2vs0mg"},{"bike_id":"a6eb02c9-05b8-44b0-90b0-1198a1aead23","system_id":"levelo_inurba_marseille","lat":43.26058,"lon":5.3939,"is_reserved":false,"is_disabled":false,"rental_uris":{"android":"levelo://app?vid=a6eb02c9-05b8-44b0-90b0-1198a1aead23","ios":"levelo://app?vid=a6eb02c9-05b8-44b0-90b0-1198a1aead23"},"vehicle_type_id":"4","last_reported":1728303456,"current_range_meters":40000,"station_id":"ce4bhh92rcd13ifvqfj0","pricing_plan_id":"cebpf4jnsgd1na2vs0mg"},{"bike_id":"33386e6b-8266-44ca-954d-b284c73a35c7","system_id":"levelo_inurba_marseille","lat":43.30957,"lon":5.39045,"is_reserved":false,"is_disabled":false,"rental_uris":{"android":"levelo://app?vid=33386e6b-8266-44ca-954d-b284c73a35c7","ios":"levelo://app?vid=33386e6b-8266-44ca-954d-b284c73a35c7"},"vehicle_type_id":"4","last_reported":1728303456,"current_range_meters":25200,"station_id":"ce4bgup2rcd13ifvqco0","pricing_plan_id":"cebpf4jnsgd1na2vs0mg"},{"bike_id":"5eacd59a-3813-4618-a2ec-d82c08676829","system_id":"levelo_inurba_marseille","lat":43.33757,"lon":5.37444,"is_reserved":false,"is_disabled":false,"rental_uris":{"android":"levelo://app?vid=5eacd59a-3813-4618-a2ec-d82c08676829","ios":"levelo://app?vid=5eacd59a-3813-4618-a2ec-d82c08676829"},"vehicle_type_id":"4","last_reported":1728303456,"current_range_meters":36400,"station_id":"","pricing_plan_id":"cebpf4jnsgd1na2vs0mg"},{"bike_id":"8d394569-cfc6-49ec-b089-64881f694018","system_id":"levelo_inurba_marseille","lat":43.28718,"lon":5.37942,"is_reserved":false,"is_disabled":false,"rental_uris":{"android":"levelo://app?vid=8d394569-cfc6-49ec-b089-64881f694018","ios":"levelo://app?vid=8d394569-cfc6-49ec-b089-64881f694018"},"vehicle_type_id":"4","last_reported":1728303456,"current_range_meters":37600,"station_id":"ce4bh9p2rcd13ifvqec0","pricing_plan_id":"cebpf4jnsgd1na2vs0mg"},{"bike_id":"e962fcc1-d011-40a4-97ef-5bc5d2bc647a","system_id":"levelo_inurba_marseille","lat":43.29274,"lon":5.40118,"is_reserved":false,"is_disabled":false,"rental_uris":{"android":"levelo://app?vid=e962fcc1-d011-40a4-97ef-5bc5d2bc647a","ios":"levelo://app?vid=e962fcc1-d011-40a4-97ef-5bc5d2bc647a"},"vehicle_type_id":"4","last_reported":1728303456,"current_range_meters":6000,"station_id":"ce4bh312rcd13ifvqdk0","pricing_plan_id":"cebpf4jnsgd1na2vs0mg"},{"bike_id":"2ff64e05-9a18-43cc-a44e-9ffbec44777b","system_id":"levelo_inurba_marseille","lat":43.31345,"lon":5.3672,"is_reserved":false,"is_disabled":false,"rental_uris":{"android":"levelo://app?vid=2ff64e05-9a18-43cc-a44e-9ffbec44777b","ios":"levelo://app?vid=2ff64e05-9a18-43cc-a44e-9ffbec44777b"},"vehicle_type_id":"4","last_reported":1728303456,"current_range_meters":8800,"station_id":"ce4bgr92rcd13ifvqc6g","pricing_plan_id":"cebpf4jnsgd1na2vs0mg"},{"bike_id":"fbab334e-6568-46ac-88f7-b856d9d2d598","system_id":"levelo_inurba_marseille","lat":43.23193,"lon":5.35566,"is_reserved":false,"is_disabled":false,"rental_uris":{"android":"levelo://app?vid=fbab334e-6568-46ac-88f7-b856d9d2d598","ios":"levelo://app?vid=fbab334e-6568-46ac-88f7-b856d9d2d598"},"vehicle_type_id":"4","last_reported":1728303456,"current_range_meters":39200,"station_id":"ce4bhu92rcd13ifvqi70","pricing_plan_id":"cebpf4jnsgd1na2vs0mg"},{"bike_id":"931b4e40-734d-4cd0-b16d-9d656faf0eda","system_id":"levelo_inurba_marseille","lat":43.28401,"lon":5.37524,"is_reserved":false,"is_disabled":false,"rental_uris":{"android":"levelo://app?vid=931b4e40-734d-4cd0-b16d-9d656faf0eda","ios":"levelo://app?vid=931b4e40-734d-4cd0-b16d-9d656faf0eda"},"vehicle_type_id":"4","last_reported":1728303456,"current_range_meters":13600,"station_id":"ce4bh412rcd13ifvqds0","pricing_plan_id":"cebpf4jnsgd1na2vs0mg"},{"bike_id":"ca06f500-fdb8-4316-9347-00462f47e52b","system_id":"levelo_inurba_marseille","lat":43.25489,"lon":5.37648,"is_reserved":false,"is_disabled":false,"rental_uris":{"android":"levelo://app?vid=ca06f500-fdb8-4316-9347-00462f47e52b","ios":"levelo://app?vid=ca06f500-fdb8-4316-9347-00462f47e52b"},"vehicle_type_id":"4","last_reported":1728303456,"current_range_meters":11600,"station_id":"ce4bhh12rcd13ifvqff0","pricing_plan_id":"cebpf4jnsgd1na2vs0mg"},{"bike_id":"ba8b027d-2c92-4667-abaf-633299dc6a99","system_id":"levelo_inurba_marseille","lat":43.24076,"lon":5.37737,"is_reserved":false,"is_disabled":false,"rental_uris":{"android":"levelo://app?vid=ba8b027d-2c92-4667-abaf-633299dc6a99","ios":"levelo://app?vid=ba8b027d-2c92-4667-abaf-633299dc6a99"},"vehicle_type_id":"4","last_reported":1728303456,"current_range_meters":7200,"station_id":"ce4bhnp2rcd13ifvqgvg","pricing_plan_id":"cebpf4jnsgd1na2vs0mg"},{"bike_id":"40646223-7a2e-4316-a7d2-5f008c56f877","system_id":"levelo_inurba_marseille","lat":43.30606,"lon":5.37232,"is_reserved":false,"is_disabled":false,"rental_uris":{"android":"levelo://app?vid=40646223-7a2e-4316-a7d2-5f008c56f877","ios":"levelo://app?vid=40646223-7a2e-4316-a7d2-5f008c56f877"},"vehicle_type_id":"4","last_reported":1728303456,"current_range_meters":34800,"station_id":"ce4bgqh2rcd13ifvqc4g","pricing_plan_id":"cebpf4jnsgd1na2vs0mg"},{"bike_id":"9b55cc4c-c807-40f5-97bb-fcb69d4691e0","system_id":"levelo_inurba_marseille","lat":43.26205,"lon":5.37932,"is_reserved":false,"is_disabled":false,"rental_uris":{"android":"levelo://app?vid=9b55cc4c-c807-40f5-97bb-fcb69d4691e0","ios":"levelo://app?vid=9b55cc4c-c807-40f5-97bb-fcb69d4691e0"},"vehicle_type_id":"4","last_reported":1728303456,"current_range_meters":6400,"station_id":"ce4bhjp2rcd13ifvqg90","pricing_plan_id":"cebpf4jnsgd1na2vs0mg"},{"bike_id":"83afa39e-2aeb-4ac1-8435-852455a569a4","system_id":"levelo_inurba_marseille","lat":43.2668,"lon":5.3828,"is_reserved":false,"is_disabled":false,"rental_uris":{"android":"levelo://app?vid=83afa39e-2aeb-4ac1-8435-852455a569a4","ios":"levelo://app?vid=83afa39e-2aeb-4ac1-8435-852455a569a4"},"vehicle_type_id":"4","last_reported":1728303456,"current_range_meters":28800,"station_id":"ce4bhg92rcd13ifvqf90","pricing_plan_id":"cebpf4jnsgd1na2vs0mg"},{"bike_id":"096c3c52-ea66-4fc7-aedf-0f68535ced1d","system_id":"levelo_inurba_marseille","lat":43.23881,"lon":5.39538,"is_reserved":false,"is_disabled":false,"rental_uris":{"android":"levelo://app?vid=096c3c52-ea66-4fc7-aedf-0f68535ced1d","ios":"levelo://app?vid=096c3c52-ea66-4fc7-aedf-0f68535ced1d"},"vehicle_type_id":"4","last_reported":1728303456,"current_range_meters":6400,"station_id":"","pricing_plan_id":"cebpf4jnsgd1na2vs0mg"},{"bike_id":"4d16d40c-8119-4af0-848f-b5cdbd15ecbd","system_id":"levelo_inurba_marseille","lat":43.30903,"lon":5.36853,"is_reserved":false,"is_disabled":false,"rental_uris":{"android":"levelo://app?vid=4d16d40c-8119-4af0-848f-b5cdbd15ecbd","ios":"levelo://app?vid=4d16d40c-8119-4af0-848f-b5cdbd15ecbd"},"vehicle_type_id":"4","last_reported":1728303456,"current_range_meters":32000,"station_id":"ce4bgn92rcd13ifvqbvg","pricing_plan_id":"cebpf4jnsgd1na2vs0mg"},{"bike_id":"ac63b881-53ef-4e4b-b5e6-9f4914bcf168","system_id":"levelo_inurba_marseille","lat":43.23054,"lon":5.35491,"is_reserved":false,"is_disabled":false,"rental_uris":{"android":"levelo://app?vid=ac63b881-53ef-4e4b-b5e6-9f4914bcf168","ios":"levelo://app?vid=ac63b881-53ef-4e4b-b5e6-9f4914bcf168"},"vehicle_type_id":"4","last_reported":1728303456,"current_range_meters":36400,"station_id":"cpo3342slgdg3j2ifvpg","pricing_plan_id":"cebpf4jnsgd1na2vs0mg"},{"bike_id":"10e2cad8-5b87-4361-a750-816e7c888c91","system_id":"levelo_inurba_marseille","lat":43.23064,"lon":5.35487,"is_reserved":false,"is_disabled":false,"rental_uris":{"android":"levelo://app?vid=10e2cad8-5b87-4361-a750-816e7c888c91","ios":"levelo://app?vid=10e2cad8-5b87-4361-a750-816e7c888c91"},"vehicle_type_id":"4","last_reported":1728303456,"current_range_meters":26800,"station_id":"cpo3342slgdg3j2ifvpg","pricing_plan_id":"cebpf4jnsgd1na2vs0mg"},{"bike_id":"480adba8-d30e-4ae6-acdd-893ce48a0a2d","system_id":"levelo_inurba_marseille","lat":43.22931,"lon":5.35377,"is_reserved":false,"is_disabled":false,"rental_uris":{"android":"levelo://app?vid=480adba8-d30e-4ae6-acdd-893ce48a0a2d","ios":"levelo://app?vid=480adba8-d30e-4ae6-acdd-893ce48a0a2d"},"vehicle_type_id":"4","last_reported":1728303456,"current_range_meters":28400,"station_id":"cpo3532slgdg3j2ikp40","pricing_plan_id":"cebpf4jnsgd1na2vs0mg"},