{"last_updated":1762164826,"ttl":60,"version":"2.2","data":{"bikes":[{"bike_id":"7d8e9792-4bcb-4d9e-9229-202b68b9cf26","system_id":"levelo_inurba_marseille","lat":43.26218,"lon":5.40455,"is_reserved":false,"is_disabled":false,"rental_uris":{"android":"levelo://app?vid=7d8e9792-4bcb-4d9e-9229-202b68b9cf26","ios":"levelo://app?vid=7d8e9792-4bcb-4d9e-9229-202b68b9cf26"},"vehicle_type_id":"4","last_reported":1762164827,"current_range_meters":3200,"station_id":"ce4bhmh2rcd13ifvqgmg","pricing_plan_id":"cebpf4jnsgd1na2vs0mg"},{"bike_id":"b4e492f6-3c2d-4bca-ab1f-5bb5d6d104f8","system_id":"levelo_inurba_marseille","lat":43.30529,"lon":5.36557,"is_reserved":false,"is_disabled":false,"rental_uris":{"android":"levelo://app?vid=b4e492f6-3c2d-4bca-ab1f-5bb5d6d104f8","ios":"levelo://app?vid=b4e492f6-3c2d-4bca-ab1f-5bb5d6d104f8"},"vehicle_type_id":"4","last_reported":1762164827,"current_range_meters":3200,"station_id":"ce4bgs12rcd13ifvqcag","pricing_plan_id":"cebpf4jnsgd1na2vs0mg"},{"bike_id":"8de24cda-ea2a-4bc0-8386-2b9ddecf48be","system_id":"levelo_inurba_marseille","lat":43.296212,"lon":5.377,"is_reserved":false,"is_disabled":true,"rental_uris":{"android":"levelo://app?vid=8de24cda-ea2a-4bc0-8386-2b9ddecf48be","ios":"levelo://app?vid=8de24cda-ea2a-4bc0-8386-2b9ddecf48be"},"vehicle_type_id":"4","last_reported":1762164827,"current_range_meters":3200,"station_id":"ce4bhh92rcd13ifvqfh0","pricing_plan_id":"cebpf4jnsgd1na2vs0mg"},{"bike_id":"ac7c3375-d8c0-4c3f-9aa8-cb0badebd6b8","system_id":"levelo_inurba_marseille","lat":43.29804,"lon":5.38092,"is_reserved":false,"is_disabled":false,"rental_uris":{"android":"levelo://app?vid=ac7c3375-d8c0-4c3f-9aa8-cb0badebd6b8","ios":"levelo://app?vid=ac7c3375-d8c0-4c3f-9aa8-cb0badebd6b8"},"vehicle_type_id":"4","last_reported":1762164827,"current_range_meters":3200,"station_id":"ce4bgip2rcd13ifvqbb0","pricing_plan_id":"cebpf4jnsgd1na2vs0mg"},{"bike_id":"ed890a36-02ef-4914-b497-b0b60f616f2a","system_id":"levelo_inurba_marseille","lat":43.281516,"lon":5.426549,"is_reserved":false,"is_disabled":false,"rental_uris":{"android":"levelo://app?vid=ed890a36-02ef-4914-b497-b0b60f616f2a","ios":"levelo://app?vid=ed890a36-02ef-4914-b497-b0b60f616f2a"},"vehicle_type_id":"4","last_reported":1762164827,"current_range_meters":3600,"station_id":"ce4bhnh2rcd13ifvqgug","pricing_plan_id":"cebpf4jnsgd1na2vs0mg"},{"bike_id":"b1e81361-2b17-4ef1-8a58-6def5753471b","system_id":"levelo_inurba_marseille","lat":43.33753,"lon":5.37484,"is_reserved":false,"is_disabled":false,"rental_uris":{"android":"levelo://app?vid=b1e81361-2b17-4ef1-8a58-6def5753471b","ios":"levelo://app?vid=b1e81361-2b17-4ef1-8a58-6def5753471b"},"vehicle_type_id":"4","last_reported":1762164827,"current_range_meters":3600,"station_id":"","pricing_plan_id":"cebpf4jnsgd1na2vs0mg"},{"bike_id":"c1dba410-79ba-4924-a3bd-9922aea0102d","system_id":"levelo_inurba_marseille","lat":43.26226,"lon":5.40449,"is_reserved":false,"is_disabled":false,"rental_uris":{"android":"levelo://app?vid=c1dba410-79ba-4924-a3bd-9922aea0102d","ios":"levelo://app?vid=c1dba410-79ba-4924-a3bd-9922aea0102d"},"vehicle_type_id":"4","last_reported":1762164827,"current_range_meters":3600,"station_id":"ce4bhmh2rcd13ifvqgmg","pricing_plan_id":"cebpf4jnsgd1na2vs0mg"},{"bike_id":"50f28589-73f1-4473-9fc6-7623d32adbc9","system_id":"levelo_inurba_marseille","lat":43.264954,"lon":5.373465,"is_reserved":false,"is_disabled":false,"rental_uris":{"android":"levelo://app?vid=50f28589-73f1-4473-9fc6-7623d32adbc9","ios":"levelo://app?vid=50f28589-73f1-4473-9fc6-7623d32adbc9"},"vehicle_type_id":"4","last_reported":1762164827,"current_range_meters":3600,"station_id":"ce4bghh2rcd13ifvqb60","pricing_plan_id":"cebpf4jnsgd1na2vs0mg"},{"bike_id":"2374dbc1-512d-4a25-b53b-a8240bf9978a","system_id":"levelo_inurba_marseille","lat":43.27905,"lon":5.38005,"is_reserved":false,"is_disabled":false,"rental_uris":{"android":"levelo://app?vid=2374dbc1-512d-4a25-b53b-a8240bf9978a","ios":"levelo://app?vid=2374dbc1-512d-4a25-b53b-a8240bf9978a"},"vehicle_type_id":"4","last_reported":1762164827,"current_range_meters":3600,"station_id":"ce4bhf92rcd13ifvqf50","pricing_plan_id":"cebpf4jnsgd1na2vs0mg"},{"bike_id":"98ae70a7-845f-4fca-806c-2c13fb3772f4","system_id":"levelo_inurba_marseille","lat":43.29694,"lon":5.37839,"is_reserved":false,"is_disabled":false,"rental_uris":{"android":"levelo://app?vid=98ae70a7-845f-4fca-806c-2c13fb3772f4","ios":"levelo://app?vid=98ae70a7-845f-4fca-806c-2c13fb3772f4"},"vehicle_type_id":"4","last_reported":1762164827,"current_range_meters":3600,"station_id":"","pricing_plan_id":"cebpf4jnsgd1na2vs0mg"},{"bike_id":"601e8ffc-4dd3-4180-830c-8d8c127e15ef","system_id":"levelo_inurba_marseille","lat":43.337444,"lon":5.374475,"is_reserved":false,"is_disabled":false,"rental_uris":{"android":"levelo://app?vid=601e8ffc-4dd3-4180-830c-8d8c127e15ef","ios":"levelo://app?vid=601e8ffc-4dd3-4180-830c-8d8c127e15ef"},"vehicle_type_id":"4","last_reported":1762164827,"current_range_meters":4000,"station_id":"ce4bhb92rcd13ifvqen0","pricing_plan_id":"cebpf4jnsgd1na2vs0mg"},{"bike_id":"1da56141-654f-442c-b20c-6c2bd52c2965","system_id":"levelo_inurba_marseille","lat":43.312708,"lon":5.381765,"is_reserved":false,"is_disabled":true,"rental_uris":{"android":"levelo://app?vid=1da56141-654f-442c-b20c-6c2bd52c2965","ios":"levelo://app?vid=1da56141-654f-442c-b20c-6c2bd52c2965"},"vehicle_type_id":"4","last_reported":1762164827,"current_range_meters":4000,"station_id":"","pricing_plan_id":"cebpf4jnsgd1na2vs0mg"},{"bike_id":"3d2ac210-d1e5-43ba-b4cc-8cd99b96e0c8","system_id":"levelo_inurba_marseille","lat":43.30619,"lon":5.37423,"is_reserved":false,"is_disabled":false,"rental_uris":{"android":"levelo://app?vid=3d2ac210-d1e5-43ba-b4cc-8cd99b96e0c8","ios":"levelo://app?vid=3d2ac210-d1e5-43ba-b4cc-8cd99b96e0c8"},"vehicle_type_id":"4","last_reported":1762164827,"current_range_meters":4000,"station_id":"","pricing_plan_id":"cebpf4jnsgd1na2vs0mg"},{"bike_id":"90da5d1c-86a3-42ed-b6a9-2b37c1c725b8","system_id":"levelo_inurba_marseille","lat":43.2861,"lon":5.35112,"is_reserved":false,"is_disabled":false,"rental_uris":{"android":"levelo://app?vid=90da5d1c-86a3-42ed-b6a9-2b37c1c725b8","ios":"levelo://app?vid=90da5d1c-86a3-42ed-b6a9-2b37c1c725b8"},"vehicle_type_id":"4","last_reported":1762164827,"current_range_meters":4000,"station_id":"ce4bhch2rcd13ifvqeug","pricing_plan_id":"cebpf4jnsgd1na2vs0mg"},{"bike_id":"41533083-8a3e-4a51-90a5-5e33406fccd0","system_id":"levelo_inurba_marseille","lat":43.27953,"lon":5.38714,"is_reserved":false,"is_disabled":false,"rental_uris":{"android":"levelo://app?vid=41533083-8a3e-4a51-90a5-5e33406fccd0","ios":"levelo://app?vid=41533083-8a3e-4a51-90a5-5e33406fccd0"},"vehicle_type_id":"4","last_reported":1762164827,"current_range_meters":4400,"station_id":"ce4bhg12rcd13ifvqf80","pricing_plan_id":"cebpf4jnsgd1na2vs0mg"},{"bike_id":"7258587a-6766-463f-b319-5f19e94998b3","system_id":"levelo_inurba_marseille","lat":43.24069,"lon":5.37763,"is_reserved":false,"is_disabled":false,"rental_uris":{"android":"levelo://app?vid=7258587a-6766-463f-b319-5f19e94998b3","ios":"levelo://app?vid=7258587a-6766-463f-b319-5f19e94998b3"},"vehicle_type_id":"4","last_reported":1762164827,"current_range_meters":4400,"station_id":"ce4bhnp2rcd13ifvqgvg","pricing_plan_id":"cebpf4jnsgd1na2vs0mg"},{"bike_id":"50e67e87-c67c-4ba1-94c9-7d779c6ccd30","system_id":"levelo_inurba_marseille","lat":43.29967,"lon":5.3849,"is_reserved":false,"is_disabled":false,"rental_uris":{"android":"levelo://app?vid=50e67e87-c67c-4ba1-94c9-7d779c6ccd30","ios":"levelo://app?vid=50e67e87-c67c-4ba1-94c9-7d779c6ccd30"},"vehicle_type_id":"4","last_reported":1762164827,"current_range_meters":4400,"station_id":"ce4bgj92rcd13ifvqbd0","pricing_plan_id":"cebpf4jnsgd1na2vs0mg"},{"bike_id":"dc70789f-3aaf-46d3-8c7f-243ef84916ab","system_id":"levelo_inurba_marseille","lat":43.25328,"lon":5.42166,"is_reserved":false,"is_disabled":false,"rental_uris":{"android":"levelo://app?vid=dc70789f-3aaf-46d3-8c7f-243ef84916ab","ios":"levelo://app?vid=dc70789f-3aaf-46d3-8c7f-243ef84916ab"},"vehicle_type_id":"4","last_reported":1762164827,"current_range_meters":4400,"station_id":"st_d2m65c5bi1j21697t3ng","pricing_plan_id":"cebpf4jnsgd1na2vs0mg"},{"bike_id":"60c7e9df-6bcd-4513-82ea-171bc1fa25e5","system_id":"levelo_inurba_marseille","lat":43.29665,"lon":5.38002,"is_reserved":false,"is_disabled":false,"rental_uris":{"android":"levelo://app?vid=60c7e9df-6bcd-4513-82ea-171bc1fa25e5","ios":"levelo://app?vid=60c7e9df-6bcd-4513-82ea-171bc1fa25e5"},"vehicle_type_id":"4","last_reported":1762164827,"current_range_meters":4800,"station_id":"","pricing_plan_id":"cebpf4jnsgd1na2vs0mg"},{"bike_id":"cfc10f95-46e3-4fbc-a1f9-d7897f6d225c","system_id":"levelo_inurba_marseille","lat":43.2841,"lon":5.37517,"is_reserved":false,"is_disabled":false,"rental_uris":{"android":"levelo://app?vid=cfc10f95-46e3-4fbc-a1f9-d7897f6d225c","ios":"levelo://app?vid=cfc10f95-46e3-4fbc-a1f9-d7897f6d225c"},"vehicle_type_id":"4","last_reported":1762164827,"current_range_meters":4800,"station_id":"ce4bh412rcd13ifvqds0","pricing_plan_id":"cebpf4jnsgd1na2vs0mg"},{"bike_id":"ff18dd0a-1b8c-4ca2-8a7c-1d8b6e7b87a3","system_id":"levelo_inurba_marseille","lat":43.28969,"lon":5.37821,"is_reserved":false,"is_disabled":false,"rental_uris":{"android":"levelo://app?vid=ff18dd0a-1b8c-4ca2-8a7c-1d8b6e7b87a3","ios":"levelo://app?vid=ff18dd0a-1b8c-4ca2-8a7c-1d8b6e7b87a3"},"vehicle_type_id":"4","last_reported":1762164827,"current_range_meters":4800,"station_id":"ce4bh9p2rcd13ifvqed0","pricing_plan_id":"cebpf4jnsgd1na2vs0mg"},{"bike_id":"8b31bc3b-df16-43cb-935e-24f77b16979b","system_id":"levelo_inurba_marseille","lat":43.30552,"lon":5.36544,"is_reserved":false,"is_disabled":false,"rental_uris":{"android":"levelo://app?vid=8b31bc3b-df16-43cb-935e-24f77b16979b","ios":"levelo://app?vid=8b31bc3b-df16-43cb-935e-24f77b16979b"},"vehicle_type_id":"4","last_reported":1762164827,"current_range_meters":4800,"station_id":"ce4bgs12rcd13ifvqcag","pricing_plan_id":"cebpf4jnsgd1na2vs0mg"},{"bike_id":"aedc6e74-3234-44e6-9af5-ca353a7f77f0","system_id":"levelo_inurba_marseille","lat":43.28404,"lon":5.34983,"is_reserved":false,"is_disabled":false,"rental_uris":{"android":"levelo://app?vid=aedc6e74-3234-44e6-9af5-ca353a7f77f0","ios":"levelo://app?vid=aedc6e74-3234-44e6-9af5-ca353a7f77f0"},"vehicle_type_id":"4","last_reported":1762164827,"current_range_meters":5600,"station_id":"ce4bhbh2rcd13ifvqepg","pricing_plan_id":"cebpf4jnsgd1na2vs0mg"},{"bike_id":"059b442e-d040-495a-991c-662b79177c55","system_id":"levelo_inurba_marseille","lat":43.293525,"lon":5.453787,"is_reserved":false,"is_disabled":false,"rental_uris":{"android":"levelo://app?vid=059b442e-d040-495a-991c-662b79177c55","ios":"levelo://app?vid=059b442e-d040-495a-991c-662b79177c55"},"vehicle_type_id":"4","last_reported":1762164827,"current_range_meters":5600,"station_id":"","pricing_plan_id":"cebpf4jnsgd1na2vs0mg"},{"bike_id":"603f84c7-55e1-4d19-8f37-178ddadc668f","system_id":"levelo_inurba_marseille","lat":43.212051,"lon":5.35074,"is_reserved":false,"is_disabled":false,"rental_uris":{"android":"levelo://app?vid=603f84c7-55e1-4d19-8f37-178ddadc668f","ios":"levelo://app?vid=603f84c7-55e1-4d19-8f37-178ddadc668f"},"vehicle_type_id":"4","last_reported":1762164827,"current_range_meters":5600,"station_id":"st_cvj6sg6p6f1abm77japg","pricing_plan_id":"cebpf4jnsgd1na2vs0mg"},{"bike_id":"298b7acb-527a-41ca-8e53-45e63614a1d2","system_id":"levelo_inurba_marseille","lat":43.29683,"lon":5.37272,"is_reserved":false,"is_disabled":false,"rental_uris":{"android":"levelo://app?vid=298b7acb-527a-41ca-8e53-45e63614a1d2","ios":"levelo://app?vid=298b7acb-527a-41ca-8e53-45e63614a1d2"},"vehicle_type_id":"4","last_reported":1762164827,"current_range_meters":5600,"station_id":"ce4bgk12rcd13ifvqbj0","pricing_plan_id":"cebpf4jnsgd1na2vs0mg"},{"bike_id":"8a759722-19f7-4a56-9646-2c26a5e7e25d","system_id":"levelo_inurba_marseille","lat":43.279821,"lon":5.387392,"is_reserved":false,"is_disabled":true,"rental_uris":{"android":"levelo://app?vid=8a759722-19f7-4a56-9646-2c26a5e7e25d","ios":"levelo://app?vid=8a759722-19f7-4a56-9646-2c26a5e7e25d"},"vehicle_type_id":"4","last_reported":1762164827,"current_range_meters":6000,"station_id":"ce4bhg12rcd13ifvqf80","pricing_plan_id":"cebpf4jnsgd1na2vs0mg"},{"bike_id":"098d7ae5-5b2b-4d49-ad2f-d14f29937957","system_id":"levelo_inurba_marseille","lat":43.28993,"lon":5.37815,"is_reserved":false,"is_disabled":false,"rental_uris":{"android":"levelo://app?vid=098d7ae5-5b2b-4d49-ad2f-d14f29937957","ios":"levelo://app?vid=098d7ae5-5b2b-4d49-ad2f-d14f29937957"},"vehicle_type_id":"4","last_reported":1762164827,"current_range_meters":6000,"station_id":"ce4bh9p2rcd13ifvqed0","pricing_plan_id":"cebpf4jnsgd1na2vs0mg"},{"bike_id":"ef4bb5e7-9fea-4aea-9d78-3b7ddf5eaba0","system_id":"levelo_inurba_marseille","lat":43.25097,"lon":5.40321,"is_reserved":false,"is_disabled":true,"rental_uris":{"android":"levelo://app?vid=ef4bb5e7-9fea-4aea-9d78-3b7ddf5eaba0","ios":"levelo://app?vid=ef4bb5e7-9fea-4aea-9d78-3b7ddf5eaba0"},"vehicle_type_id":"4","last_reported":1762164827,"current_range_meters":6000,"station_id":"ce4bhlh2rcd13ifvqgig","pricing_plan_id":"cebpf4jnsgd1na2vs0mg"},{"bike_id":"2ea7364a-2c1a-4370-95b0-a7e7548a5b6b","system_id":"levelo_inurba_marseille","lat":43.312686,"lon":5.401729,"is_reserved":false,"is_disabled":false,"rental_uris":{"android":"levelo://app?vid=2ea7364a-2c1a-4370-95b0-a7e7548a5b6b","ios":"levelo://app?vid=2ea7364a-2c1a-4370-95b0-a7e7548a5b6b"},"vehicle_type_id":"4","last_reported":1762164827,"current_range_meters":6000,"station_id":"ce4bh092rcd13ifvqd30","pricing_plan_id":"cebpf4jnsgd1na2vs0mg"},{"bike_id":"1d29646a-da1f-4f66-b008-0838ffb2fa84","system_id":"levelo_inurba_marseille","lat":43.29997,"lon":5.37236,"is_reserved":false,"is_disabled":false,"rental_uris":{"android":"levelo://app?vid=1d29646a-da1f-4f66-b008-0838ffb2fa84","ios":"levelo://app?vid=1d29646a-da1f-4f66-b008-0838ffb2fa84"},"vehicle_type_id":"4","last_reported":1762164827,"current_range_meters":6400,"station_id":"","pricing_plan_id":"cebpf4jnsgd1na2vs0mg"},{"bike_id":"da96f7e0-2b29-4246-913c-3972a28909fc","system_id":"levelo_inurba_marseille","lat":43.249479,"lon":5.404998,"is_reserved":false,"is_disabled":false,"rental_uris":{"android":"levelo://app?vid=da96f7e0-2b29-4246-913c-3972a28909fc","ios":"levelo://app?vid=da96f7e0-2b29-4246-913c-3972a28909fc"},"vehicle_type_id":"4","last_reported":1762164827,"current_range_meters":6800,"station_id":"st_d2ngiaodas8pm72gd1h0","pricing_plan_id":"cebpf4jnsgd1na2vs0mg"},{"bike_id":"feb278b3-0e4f-4653-acaf-52c94bef77e8","system_id":"levelo_inurba_marseille","lat":43.31361,"lon":5.38489,"is_reserved":false,"is_disabled":false,"rental_uris":{"android":"levelo://app?vid=feb278b3-0e4f-4653-acaf-52c94bef77e8","ios":"levelo://app?vid=feb278b3-0e4f-4653-acaf-52c94bef77e8"},"vehicle_type_id":"4","last_reported":1762164827,"current_range_meters":6800,"station_id":"ce4bgt92rcd13ifvqcf0","pricing_plan_id":"cebpf4jnsgd1na2vs0mg"},{"bike_id":"c3bf699d-d7bf-4154-b2ad-cfcb384e0028","system_id":"levelo_inurba_marseille","lat":43.29191,"lon":5.39314,"is_reserved":false,"is_disabled":false,"rental_uris":{"android":"levelo://app?vid=c3bf699d-d7bf-4154-b2ad-cfcb384e0028","ios":"levelo://app?vid=c3bf699d-d7bf-4154-b2ad-cfcb384e0028"},"vehicle_type_id":"4","last_reported":1762164827,"current_range_meters":6800,"station_id":"ce4bh192rcd13ifvqdd0","pricing_plan_id":"cebpf4jnsgd1na2vs0mg"},{"bike_id":"dfe129f0-2962-4702-8ddb-d8c409aadd0a","system_id":"levelo_inurba_marseille","lat":43.28483,"lon":5.38557,"is_reserved":false,"is_disabled":false,"rental_uris":{"android":"levelo://app?vid=dfe129f0-2962-4702-8ddb-d8c409aadd0a","ios":"levelo://app?vid=dfe129f0-2962-4702-8ddb-d8c409aadd0a"},"vehicle_type_id":"4","last_reported":1762164827,"current_range_meters":6800,"station_id":"ce4bh8p2rcd13ifvqeb0","pricing_plan_id":"cebpf4jnsgd1na2vs0mg"},{"bike_id":"39b67074-13cd-46c4-90ac-e76c03f162be","system_id":"levelo_inurba_marseille","lat":43.30965,"lon":5.39044,"is_reserved":false,"is_disabled":false,"rental_uris":{"android":"levelo://app?vid=39b67074-13cd-46c4-90ac-e76c03f162be","ios":"levelo://app?vid=39b67074-13cd-46c4-90ac-e76c03f162be"},"vehicle_type_id":"4","last_reported":1762164827,"current_range_meters":6800,"station_id":"ce4bgup2rcd13ifvqco0","pricing_plan_id":"cebpf4jnsgd1na2vs0mg"},{"bike_id":"79a318af-d5b3-42a5-a645-2dfaa2b541cf","system_id":"levelo_inurba_marseille","lat":43.27211,"lon":5.3919,"is_reserved":false,"is_disabled":false,"rental_uris":{"android":"levelo://app?vid=79a318af-d5b3-42a5-a645-2dfaa2b541cf","ios":"levelo://app?vid=79a318af-d5b3-42a5-a645-2dfaa2b541cf"},"vehicle_type_id":"4","last_reported":1762164827,"current_range_meters":7200,"station_id":"ce4bhhp2rcd13ifvqfm0","pricing_plan_id":"cebpf4jnsgd1na2vs0mg"},{"bike_id":"ccbb9b89-ebba-4c6c-b9fe-acafe29ddb47","system_id":"levelo_inurba_marseille","lat":43.33501,"lon":5.42756,"is_reserved":false,"is_disabled":false,"rental_uris":{"android":"levelo://app?vid=ccbb9b89-ebba-4c6c-b9fe-acafe29ddb47","ios":"levelo://app?vid=ccbb9b89-ebba-4c6c-b9fe-acafe29ddb47"},"vehicle_type_id":"4","last_reported":1762164827,"current_range_meters":7200,"station_id":"","pricing_plan_id":"cebpf4jnsgd1na2vs0mg"},{"bike_id":"28547c8c-576f-4a41-96ea-6e9c6c5ce61a","system_id":"levelo_inurba_marseille","lat":43.26571,"lon":5.38979,"is_reserved":false,"is_disabled":false,"rental_uris":{"android":"levelo://app?vid=28547c8c-576f-4a41-96ea-6e9c6c5ce61a","ios":"levelo://app?vid=28547c8c-576f-4a41-96ea-6e9c6c5ce61a"},"vehicle_type_id":"4","last_reported":1762164827,"current_range_meters":7200,"station_id":"ce4bhe12rcd13ifvqf30","pricing_plan_id":"cebpf4jnsgd1na2vs0mg"},{"bike_id":"8d01830e-1093-416f-b724-12ef0b3ae11a","system_id":"levelo_inurba_marseille","lat":43.302493,"lon":5.400731,"is_reserved":false,"is_disabled":false,"rental_uris":{"android":"levelo://app?vid=8d01830e-1093-416f-b724-12ef0b3ae11a","ios":"levelo://app?vid=8d01830e-1093-416f-b724-12ef0b3ae11a"},"vehicle_type_id":"4","last_reported":1762164827,"current_range_meters":7200,"station_id":"","pricing_plan_id":"cebpf4jnsgd1na2vs0mg"},{"bike_id":"6c390290-25db-484a-a017-69f36b30d21d","system_id":"levelo_inurba_marseille","lat":43.30536,"lon":5.36719,"is_reserved":false,"is_disabled":false,"rental_uris":{"android":"levelo://app?vid=6c390290-25db-484a-a017-69f36b30d21d","ios":"levelo://app?vid=6c390290-25db-484a-a017-69f36b30d21d"},"vehicle_type_id":"4","last_reported":1762164827,"current_range_meters":8000,"station_id":"ce4bgrp2rcd13ifvqc9g","pricing_plan_id":"cebpf4jnsgd1na2vs0mg"},{"bike_id":"66925e46-3d28-4952-8314-68099c46f540","system_id":"levelo_inurba_marseille","lat":43.29571,"lon":5.375,"is_reserved":false,"is_disabled":false,"rental_uris":{"android":"levelo://app?vid=66925e46-3d28-4952-8314-68099c46f540","ios":"levelo://app?vid=66925e46-3d28-4952-8314-68099c46f540"},"vehicle_type_id":"4","last_reported":1762164827,"current_range_meters":8000,"station_id":"ce4bgh92rcd13ifvqb50","pricing_plan_id":"cebpf4jnsgd1na2vs0mg"},{"bike_id":"88f8f48c-6781-4c68-bd19-db0a2c806998","system_id":"levelo_inurba_marseille","lat":43.28263,"lon":5.35065,"is_reserved":false,"is_disabled":false,"rental_uris":{"android":"levelo://app?vid=88f8f48c-6781-4c68-bd19-db0a2c806998","ios":"levelo://app?vid=88f8f48c-6781-4c68-bd19-db0a2c806998"},"vehicle_type_id":"4","last_reported":1762164827,"current_range_meters":8000,"station_id":"ce4bhbp2rcd13ifvqerg","pricing_plan_id":"cebpf4jnsgd1na2vs0mg"},{"bike_id":"0a880c10-2aff-4f4e-b0ca-bdc3e03b359c","system_id":"levelo_inurba_marseille","lat":43.23779,"lon":5.36629,"is_reserved":false,"is_disabled":false,"rental_uris":{"android":"levelo://app?vid=0a880c10-2aff-4f4e-b0ca-bdc3e03b359c","ios":"levelo://app?vid=0a880c10-2aff-4f4e-b0ca-bdc3e03b359c"},"vehicle_type_id":"4","last_reported":1762164827,"current_range_meters":8000,"station_id":"st_d3nk18o9ro0c73en2l3g","pricing_plan_id":"cebpf4jnsgd1na2vs0mg"},{"bike_id":"de0ca7a8-116a-46c8-8c50-6b445a473423","system_id":"levelo_inurba_marseille","lat":43.28874,"lon":5.4253,"is_reserved":false,"is_disabled":false,"rental_uris":{"android":"levelo://app?vid=de0ca7a8-116a-46c8-8c50-6b445a473423","ios":"levelo://app?vid=de0ca7a8-116a-46c8-8c50-6b445a473423"},"vehicle_type_id":"4","last_reported":1762164827,"current_range_meters":8400,"station_id":"st_d3b462108ojc7389ooeg","pricing_plan_id":"cebpf4jnsgd1na2vs0mg"},{"bike_id":"84f1bfac-8d21-499b-b8e1-fdc8049e10ac","system_id":"levelo_inurba_marseille","lat":43.31248,"lon":5.37729,"is_reserved":false,"is_disabled":false,"rental_uris":{"android":"levelo://app?vid=84f1bfac-8d21-499b-b8e1-fdc8049e10ac","ios":"levelo://app?vid=84f1bfac-8d21-499b-b8e1-fdc8049e10ac"},"vehicle_type_id":"4","last_reported":1762164827,"current_range_meters":8400,"station_id":"","pricing_plan_id":"cebpf4jnsgd1na2vs0mg"},{"bike_id":"c4c5d540-caac-4903-aba8-275aa7fb9054","system_id":"levelo_inurba_marseille","lat":43.26547,"lon":5.39869,"is_reserved":false,"is_disabled":false,"rental_uris":{"android":"levelo://app?vid=c4c5d540-caac-4903-aba8-275aa7fb9054","ios":"levelo://app?vid=c4c5d540-caac-4903-aba8-275aa7fb9054"},"vehicle_type_id":"4","last_reported":1762164827,"current_range_meters":8400,"station_id":"","pricing_plan_id":"cebpf4jnsgd1na2vs0mg"},{"bike_id":"806cc777-0c10-4f2f-b1d1-f523aaa01a63","system_id":"levelo_inurba_marseille","lat":43.23148,"lon":5.43706,"is_reserved":false,"is_disabled":false,"rental_uris":{"android":"levelo://app?vid=806cc777-0c10-4f2f-b1d1-f523aaa01a63","ios":"levelo://app?vid=806cc777-0c10-4f2f-b1d1-f523aaa01a63"},"vehicle_type_id":"4","last_reported":1762164827,"current_range_meters":8400,"station_id":"ce4bhmp2rcd13ifvqgog","pricing_plan_id":"cebpf4jnsgd1na2vs0mg"},{"bike_id":"77679107-31f6-4769-888c-bfa8b6d2bccd","system_id":"levelo_inurba_marseille","lat":43.28859,"lon":5.42528,"is_reserved":false,"is_disabled":false,"rental_uris":{"android":"levelo://app?vid=77679107-31f6-4769-888c-bfa8b6d2bccd","ios":"levelo://app?vid=77679107-31f6-4769-888c-bfa8b6d2bccd"},"vehicle_type_id":"4","last_reported":1762164827,"current_range_meters":8800,"station_id":"st_d3b462108ojc7389ooeg","pricing_plan_id":"cebpf4jnsgd1na2vs0mg"},{"bike_id":"ef23791b-b75f-4a06-b830-8fbc911478d2","system_id":"levelo_inurba_marseille","lat":43.2845,"lon":5.39202,"is_reserved":false,"is_disabled":false,"rental_uris":{"android":"levelo://app?vid=ef23791b-b75f-4a06-b830-8fbc911478d2","ios":"levelo://app?vid=ef23791b-b75f-4a06-b830-8fbc911478d2"},"vehicle_type_id":"4","last_reported":1762164827,"current_range_meters":8800,"station_id":"ce4bhoh2rcd13ifvqh5g","pricing_plan_id":"cebpf4jnsgd1na2vs0mg"},{"bike_id":"a0bbabc7-6009-4c92-9143-09b6b92969fe","system_id":"levelo_inurba_marseille","lat":43.325519,"lon":5.41431,"is_reserved":false,"is_disabled":false,"rental_uris":{"android":"levelo://app?vid=a0bbabc7-6009-4c92-9143-09b6b92969fe","ios":"levelo://app?vid=a0bbabc7-6009-4c92-9143-09b6b92969fe"},"vehicle_type_id":"4","last_reported":1762164827,"current_range_meters":8800,"station_id":"ce4bhq12rcd13ifvqhhg","pricing_plan_id":"cebpf4jnsgd1na2vs0mg"},{"bike_id":"721c632e-cb52-4d62-b0f4-f78059e85aec","system_id":"levelo_inurba_marseille","lat":43.291057,"lon":5.381318,"is_reserved":false,"is_disabled":false,"rental_uris":{"android":"levelo://app?vid=721c632e-cb52-4d62-b0f4-f78059e85aec","ios":"levelo://app?vid=721c632e-cb52-4d62-b0f4-f78059e85aec"},"vehicle_type_id":"4","last_reported":1762164827,"current_range_meters":8800,"station_id":"ce4bh512rcd13ifvqe2g","pricing_plan_id":"cebpf4jnsgd1na2vs0mg"},{"bike_id":"f200c087-a441-4e08-89f8-62169c537b94","system_id":"levelo_inurba_marseille","lat":43.27224,"lon":5.39128,"is_reserved":false,"is_disabled":false,"rental_uris":{"android":"levelo://app?vid=f200c087-a441-4e08-89f8-62169c537b94","ios":"levelo://app?vid=f200c087-a441-4e08-89f8-62169c537b94"},"vehicle_type_id":"4","last_reported":1762164827,"current_range_meters":8800,"station_id":"ce4bhhp2rcd13ifvqfm0","pricing_plan_id":"cebpf4jnsgd1na2vs0mg"},{"bike_id":"26451360-c1c8-464f-a7bf-bc2a31850d65","system_id":"levelo_inurba_marseille","lat":43.22534,"lon":5.34836,"is_reserved":false,"is_disabled":false,"rental_uris":{"android":"levelo://app?vid=26451360-c1c8-464f-a7bf-bc2a31850d65","ios":"levelo://app?vid=26451360-c1c8-464f-a7bf-bc2a31850d65"},"vehicle_type_id":"4","last_reported":1762164827,"current_range_meters":9200,"station_id":"","pricing_plan_id":"cebpf4jnsgd1na2vs0mg"},{"bike_id":"ebf85bdb-1a2b-49af-a88d-03e90d4c31b8","system_id":"levelo_inurba_marseille","lat":43.23947,"lon":5.36637,"is_reserved":false,"is_disabled":true,"rental_uris":{"android":"levelo://app?vid=ebf85bdb-1a2b-49af-a88d-03e90d4c31b8","ios":"levelo://app?vid=ebf85bdb-1a2b-49af-a88d-03e90d4c31b8"},"vehicle_type_id":"4","last_reported":1762164827,"current_range_meters":9200,"station_id":"ce4bhi12rcd13ifvqfp0","pricing_plan_id":"cebpf4jnsgd1na2vs0mg"},{"bike_id":"af79d3f1-ea9f-4c0b-9a2d-782b39386671","system_id":"levelo_inurba_marseille","lat":43.21751,"lon":5.34593,"is_reserved":false,"is_disabled":true,"rental_uris":{"android":"levelo://app?vid=af79d3f1-ea9f-4c0b-9a2d-782b39386671","ios":"levelo://app?vid=af79d3f1-ea9f-4c0b-9a2d-782b39386671"},"vehicle_type_id":"4","last_reported":1762164827,"current_range_meters":9200,"station_id":"st_cvj6r9ubvosntc0bgbag","pricing_plan_id":"cebpf4jnsgd1na2vs0mg"},{"bike_id":"0194494d-15f2-4657-934d-201bae0347f7","system_id":"levelo_inurba_marseille","lat":43.2407,"lon":5.37758,"is_reserved":false,"is_disabled":false,"rental_uris":{"android":"levelo://app?vid=0194494d-15f2-4657-934d-201bae0347f7","ios":"levelo://app?vid=0194494d-15f2-4657-934d-201bae0347f7"},"vehicle_type_id":"4","last_reported":1762164827,"current_range_meters":9200,"station_id":"","pricing_plan_id":"cebpf4jnsgd1na2vs0mg"},{"bike_id":"e4cae2d0-288a-4db5-87ab-2bfb635a1052","system_id":"levelo_inurba_marseille","lat":43.29695,"lon":5.37685,"is_reserved":false,"is_disabled":false,"rental_uris":{"android":"levelo://app?vid=e4cae2d0-288a-4db5-87ab-2bfb635a1052","ios":"levelo://app?vid=e4cae2d0-288a-4db5-87ab-2bfb635a1052"},"vehicle_type_id":"4","last_reported":1762164827,"current_range_meters":9200,"station_id":"ce4bgkh2rcd13ifvqbl0","pricing_plan_id":"cebpf4jnsgd1na2vs0mg"},{"bike_id":"2081c8e0-beb4-4e4b-9606-0506855dd729","system_id":"levelo_inurba_marseille","lat":43.33602,"lon":5.41035,"is_reserved":false,"is_disabled":false,"rental_uris":{"android":"levelo://app?vid=2081c8e0-beb4-4e4b-9606-0506855dd729","ios":"levelo://app?vid=2081c8e0-beb4-4e4b-9606-0506855dd729"},"vehicle_type_id":"4","last_reported":1762164827,"current_range_meters":9200,"station_id":"ce4bhqh2rcd13ifvqhmg","pricing_plan_id":"cebpf4jnsgd1na2vs0mg"},{"bike_id":"ba541a52-7e4e-4241-9791-ae6f1fb03dcd","system_id":"levelo_inurba_marseille","lat":43.32005,"lon":5.41601,"is_reserved":false,"is_disabled":false,"rental_uris":{"android":"levelo://app?vid=ba541a52-7e4e-4241-9791-ae6f1fb03dcd","ios":"levelo://app?vid=ba541a52-7e4e-4241-9791-ae6f1fb03dcd"},"vehicle_type_id":"4","last_reported":1762164827,"current_range_meters":9200,"station_id":"","pricing_plan_id":"cebpf4jnsgd1na2vs0mg"},{"bike_id":"37f1c9a6-c0f9-4742-8245-6a655f7ae83c","system_id":"levelo_inurba_marseille","lat":43.30639,"lon":5.40106,"is_reserved":false,"is_disabled":false,"rental_uris":{"android":"levelo://app?vid=37f1c9a6-c0f9-4742-8245-6a655f7ae83c","ios":"levelo://app?vid=37f1c9a6-c0f9-4742-8245-6a655f7ae83c"},"vehicle_type_id":"4","last_reported":1762164827,"current_range_meters":9200,"station_id":"ce4bh112rcd13ifvqda0","pricing_plan_id":"cebpf4jnsgd1na2vs0mg"},{"bike_id":"066ede02-47a2-4c83-bcb1-7eb633a370fb","system_id":"levelo_inurba_marseille","lat":43.31277,"lon":5.37757,"is_reserved":false,"is_disabled":false,"rental_uris":{"android":"levelo://app?vid=066ede02-47a2-4c83-bcb1-7eb633a370fb","ios":"levelo://app?vid=066ede02-47a2-4c83-bcb1-7eb633a370fb"},"vehicle_type_id":"4","last_reported":1762164827,"current_range_meters":9600,"station_id":"","pricing_plan_id":"cebpf4jnsgd1na2vs0mg"},{"bike_id":"7419db87-3322-4dfb-9891-f33725aac996","system_id":"levelo_inurba_marseille","lat":43.27047,"lon":5.42244,"is_reserved":false,"is_disabled":false,"rental_uris":{"android":"levelo://app?vid=7419db87-3322-4dfb-9891-f33725aac996","ios":"levelo://app?vid=7419db87-3322-4dfb-9891-f33725aac996"},"vehicle_type_id":"4","last_reported":1762164827,"current_range_meters":9600,"station_id":"ce4bhk92rcd13ifvqgb0","pricing_plan_id":"cebpf4jnsgd1na2vs0mg"},{"bike_id":"dea67bbb-8d56-4994-9ad4-a92e185fa6f3","system_id":"levelo_inurba_marseille","lat":43.291062,"lon":5.381307,"is_reserved":false,"is_disabled":false,"rental_uris":{"android":"levelo://app?vid=dea67bbb-8d56-4994-9ad4-a92e185fa6f3","ios":"levelo://app?vid=dea67bbb-8d56-4994-9ad4-a92e185fa6f3"},"vehicle_type_id":"4","last_reported":1762164827,"current_range_meters":9600,"station_id":"ce4bh512rcd13ifvqe2g","pricing_plan_id":"cebpf4jnsgd1na2vs0mg"},{"bike_id":"b25eb0e6-5f96-4e13-bead-90e72cf8752b","system_id":"levelo_inurba_marseille","lat":43.2885,"lon":5.39304,"is_reserved":false,"is_disabled":false,"rental_uris":{"android":"levelo://app?vid=b25eb0e6-5f96-4e13-bead-90e72cf8752b","ios":"levelo://app?vid=b25eb0e6-5f96-4e13-bead-90e72cf8752b"},"vehicle_type_id":"4","last_reported":1762164827,"current_range_meters":9600,"station_id":"ce4bh2p2rcd13ifvqdi0","pricing_plan_id":"cebpf4jnsgd1na2vs0mg"},{"bike_id":"be3573b7-8196-40e5-a2a7-98f9aee7ce37","system_id":"levelo_inurba_marseille","lat":43.23152,"lon":5.43721,"is_reserved":false,"is_disabled":false,"rental_uris":{"android":"levelo://app?vid=be3573b7-8196-40e5-a2a7-98f9aee7ce37","ios":"levelo://app?vid=be3573b7-8196-40e5-a2a7-98f9aee7ce37"},"vehicle_type_id":"4","last_reported":1762164827,"current_range_meters":9600,"station_id":"ce4bhmp2rcd13ifvqgog","pricing_plan_id":"cebpf4jnsgd1na2vs0mg"},{"bike_id":"bebae95e-1e51-4e89-9f8b-f413cb5a56ac","system_id":"levelo_inurba_marseille","lat":43.27363,"lon":5.36262,"is_reserved":false,"is_disabled":false,"rental_uris":{"android":"levelo://app?vid=bebae95e-1e51-4e89-9f8b-f413cb5a56ac","ios":"levelo://app?vid=bebae95e-1e51-4e89-9f8b-f413cb5a56ac"},"vehicle_type_id":"4","last_reported":1762164827,"current_range_meters":9600,"station_id":"ce4bhbh2rcd13ifvqeo0","pricing_plan_id":"cebpf4jnsgd1na2vs0mg"},{"bike_id":"3e7014b2-ba9a-4d75-8782-701c73a1be03","system_id":"levelo_inurba_marseille","lat":43.30335,"lon":5.40428,"is_reserved":false,"is_disabled":false,"rental_uris":{"android":"levelo://app?vid=3e7014b2-ba9a-4d75-8782-701c73a1be03","ios":"levelo://app?vid=3e7014b2-ba9a-4d75-8782-701c73a1be03"},"vehicle_type_id":"4","last_reported":1762164827,"current_range_meters":10000,"station_id":"ce4bh012rcd13ifvqd10","pricing_plan_id":"cebpf4jnsgd1na2vs0mg"},{"bike_id":"8f807847-58e1-4ffe-a2fa-26760afbde59","system_id":"levelo_inurba_marseille","lat":43.337444,"lon":5.374475,"is_reserved":false,"is_disabled":false,"rental_uris":{"android":"levelo://app?vid=8f807847-58e1-4ffe-a2fa-26760afbde59","ios":"levelo://app?vid=8f807847-58e1-4ffe-a2fa-26760afbde59"},"vehicle_type_id":"4","last_reported":1762164827,"current_range_meters":10000,"station_id":"ce4bhb92rcd13ifvqen0","pricing_plan_id":"cebpf4jnsgd1na2vs0mg"},{"bike_id":"423802bb-722e-4533-9018-c0f75cce34a6","system_id":"levelo_inurba_marseille","lat":43.30718,"lon":5.38251,"is_reserved":false,"is_disabled":false,"rental_uris":{"android":"levelo://app?vid=423802bb-722e-4533-9018-c0f75cce34a6","ios":"levelo://app?vid=423802bb-722e-4533-9018-c0f75cce34a6"},"vehicle_type_id":"4","last_reported":1762164827,"current_range_meters":10000,"station_id":"","pricing_plan_id":"cebpf4jnsgd1na2vs0mg"},{"bike_id":"4fe88f25-9c82-4678-b7b4-42819f510084","system_id":"levelo_inurba_marseille","lat":43.29842,"lon":5.36272,"is_reserved":false,"is_disabled":false,"rental_uris":{"android":"levelo://app?vid=4fe88f25-9c82-4678-b7b4-42819f510084","ios":"levelo://app?vid=4fe88f25-9c82-4678-b7b4-42819f510084"},"vehicle_type_id":"4","last_reported":1762164827,"current_range_meters":10000,"station_id":"ce4bgpp2rcd13ifvqc3g","pricing_plan_id":"cebpf4jnsgd1na2vs0mg"},{"bike_id":"9a8800fa-24be-4848-a250-19e32415acb4","system_id":"levelo_inurba_marseille","lat":43.212,"lon":5.35074,"is_reserved":false,"is_disabled":false,"rental_uris":{"android":"levelo://app?vid=9a8800fa-24be-4848-a250-19e32415acb4","ios":"levelo://app?vid=9a8800fa-24be-4848-a250-19e32415acb4"},"vehicle_type_id":"4","last_reported":1762164827,"current_range_meters":10000,"station_id":"st_cvj6sg6p6f1abm77japg","pricing_plan_id":"cebpf4jnsgd1na2vs0mg"},{"bike_id":"c5f862a1-8eec-4aec-8ae3-d749d9cf0f0c","system_id":"levelo_inurba_marseille","lat":43.2619,"lon":5.37447,"is_reserved":false,"is_disabled":false,"rental_uris":{"android":"levelo://app?vid=c5f862a1-8eec-4aec-8ae3-d749d9cf0f0c","ios":"levelo://app?vid=c5f862a1-8eec-4aec-8ae3-d749d9cf0f0c"},"vehicle_type_id":"4","last_reported":1762164827,"current_range_meters":10000,"station_id":"ce4bhgp2rcd13ifvqfc0","pricing_plan_id":"cebpf4jnsgd1na2vs0mg"},{"bike_id":"2432c14e-ad67-4a4c-b242-1442a7806825","system_id":"levelo_inurba_marseille","lat":43.23156,"lon":5.43705,"is_reserved":false,"is_disabled":false,"rental_uris":{"android":"levelo://app?vid=2432c14e-ad67-4a4c-b242-1442a7806825","ios":"levelo://app?vid=2432c14e-ad67-4a4c-b242-1442a7806825"},"vehicle_type_id":"4","last_reported":1762164827,"current_range_meters":10000,"station_id":"ce4bhmp2rcd13ifvqgog","pricing_plan_id":"cebpf4jnsgd1na2vs0mg"},{"bike_id":"bcce88af-1bee-468a-bf16-0c272a3fb8d2","system_id":"levelo_inurba_marseille","lat":43.2706,"lon":5.38313,"is_reserved":false,"is_disabled":false,"rental_uris":{"android":"levelo://app?vid=bcce88af-1bee-468a-bf16-0c272a3fb8d2","ios":"levelo://app?vid=bcce88af-1bee-468a-bf16-0c272a3fb8d2"},"vehicle_type_id":"4","last_reported":1762164827,"current_range_meters":10000,"station_id":"st_d3n2fo6cfp8s73cte1j0","pricing_plan_id":"cebpf4jnsgd1na2vs0mg"},{"bike_id":"ec1a2785-e623-4205-ae6b-d306b1402770","system_id":"levelo_inurba_marseille","lat":43.29768,"lon":5.42765,"is_reserved":false,"is_disabled":false,"rental_uris":{"android":"levelo://app?vid=ec1a2785-e623-4205-ae6b-d306b1402770","ios":"levelo://app?vid=ec1a2785-e623-4205-ae6b-d306b1402770"},"vehicle_type_id":"4","last_reported":1762164827,"current_range_meters":10000,"station_id":"st_d3md5207bmas73dh9klg","pricing_plan_id":"cebpf4jnsgd1na2vs0mg"},{"bike_id":"cb2fe63d-5d55-49a2-aa82-0359c33e9c44","system_id":"levelo_inurba_marseille","lat":43.30162,"lon":5.38071,"is_reserved":false,"is_disabled":false,"rental_uris":{"android":"levelo://app?vid=cb2fe63d-5d55-49a2-aa82-0359c33e9c44","ios":"levelo://app?vid=cb2fe63d-5d55-49a2-aa82-0359c33e9c44"},"vehicle_type_id":"4","last_reported":1762164827,"current_range_meters":10000,"station_id":"ce4bgjp2rcd13ifvqbh0","pricing_plan_id":"cebpf4jnsgd1na2vs0mg"},{"bike_id":"2ff20ab9-b52b-4e51-beea-738711729e0e","system_id":"levelo_inurba_marseille","lat":43.21183,"lon":5.35066,"is_reserved":false,"is_disabled":false,"rental_uris":{"android":"levelo://app?vid=2ff20ab9-b52b-4e51-beea-738711729e0e","ios":"levelo://app?vid=2ff20ab9-b52b-4e51-beea-738711729e0e"},"vehicle_type_id":"4","last_reported":1762164827,"current_range_meters":10000,"station_id":"st_cvj6sg6p6f1abm77japg","pricing_plan_id":"cebpf4jnsgd1na2vs0mg"},{"bike_id":"57d6d77b-bfaa-417c-84d5-bdb5c1fb06c4","system_id":"levelo_inurba_marseille","lat":43.25338,"lon":5.42169,"is_reserved":false,"is_disabled":false,"rental_uris":{"android":"levelo://app?vid=57d6d77b-bfaa-417c-84d5-bdb5c1fb06c4","ios":"levelo://app?vid=57d6d77b-bfaa-417c-84d5-bdb5c1fb06c4"},"vehicle_type_id":"4","last_reported":1762164827,"current_range_meters":10000,"station_id":"st_d2m65c5bi1j21697t3ng","pricing_plan_id":"cebpf4jnsgd1na2vs0mg"},{"bike_id":"4e440271-e188-46d2-b5ca-300fe9c5cf04","system_id":"levelo_inurba_marseille","lat":43.29846,"lon":5.36281,"is_reserved":false,"is_disabled":false,"rental_uris":{"android":"levelo://app?vid=4e440271-e188-46d2-b5ca-300fe9c5cf04","ios":"levelo://app?vid=4e440271-e188-46d2-b5ca-300fe9c5cf04"},"vehicle_type_id":"4","last_reported":1762164827,"current_range_meters":10000,"station_id":"ce4bgpp2rcd13ifvqc3g","pricing_plan_id":"cebpf4jnsgd1na2vs0mg"},{"bike_id":"d9493c75-f63c-4e3c-9735-e1df060fedd8","system_id":"levelo_inurba_marseille","lat":43.27935,"lon":5.387013,"is_reserved":false,"is_disabled":false,"rental_uris":{"android":"levelo://app?vid=d9493c75-f63c-4e3c-9735-e1df060fedd8","ios":"levelo://app?vid=d9493c75-f63c-4e3c-9735-e1df060fedd8"},"vehicle_type_id":"4","last_reported":1762164827,"current_range_meters":10800,"station_id":"ce4bhg12rcd13ifvqf80","pricing_plan_id":"cebpf4jnsgd1na2vs0mg"},{"bike_id":"3f947c23-ae34-4c1f-9a5e-d145a37c54c9","system_id":"levelo_inurba_marseille","lat":43.25334,"lon":5.42168,"is_reserved":false,"is_disabled":false,"rental_uris":{"android":"levelo://app?vid=3f947c23-ae34-4c1f-9a5e-d145a37c54c9","ios":"levelo://app?vid=3f947c23-ae34-4c1f-9a5e-d145a37c54c9"},"vehicle_type_id":"4","last_reported":1762164827,"current_range_meters":10800,"station_id":"st_d2m65c5bi1j21697t3ng","pricing_plan_id":"cebpf4jnsgd1na2vs0mg"},{"bike_id":"d2740620-0e56-4095-b10e-44c67631b6ec","system_id":"levelo_inurba_marseille","lat":43.31273,"lon":5.40167,"is_reserved":false,"is_disabled":false,"rental_uris":{"android":"levelo://app?vid=d2740620-0e56-4095-b10e-44c67631b6ec","ios":"levelo://app?vid=d2740620-0e56-4095-b10e-44c67631b6ec"},"vehicle_type_id":"4","last_reported":1762164827,"current_range_meters":10800,"station_id":"ce4bh092rcd13ifvqd30","pricing_plan_id":"cebpf4jnsgd1na2vs0mg"},{"bike_id":"fe2272ea-7316-4280-b90c-d8c4db7bc73e","system_id":"levelo_inurba_marseille","lat":43.279281,"lon":5.393018,"is_reserved":false,"is_disabled":false,"rental_uris":{"android":"levelo://app?vid=fe2272ea-7316-4280-b90c-d8c4db7bc73e","ios":"levelo://app?vid=fe2272ea-7316-4280-b90c-d8c4db7bc73e"},"vehicle_type_id":"4","last_reported":1762164827,"current_range_meters":10800,"station_id":"","pricing_plan_id":"cebpf4jnsgd1na2vs0mg"},{"bike_id":"f557c786-2345-4ac4-a840-c1dcc726774f","system_id":"levelo_inurba_marseille","lat":43.31077,"lon":5.38345,"is_reserved":false,"is_disabled":true,"rental_uris":{"android":"levelo://app?vid=f557c786-2345-4ac4-a840-c1dcc726774f","ios":"levelo://app?vid=f557c786-2345-4ac4-a840-c1dcc726774f"},"vehicle_type_id":"4","last_reported":1762164827,"current_range_meters":10800,"station_id":"ce4bgv92rcd13ifvqcr0","pricing_plan_id":"cebpf4jnsgd1na2vs0mg"},{"bike_id":"b4233161-9917-437b-90dc-491e5a5d5214","system_id":"levelo_inurba_marseille","lat":43.26568,"lon":5.37275,"is_reserved":false,"is_disabled":false,"rental_uris":{"android":"levelo://app?vid=b4233161-9917-437b-90dc-491e5a5d5214","ios":"levelo://app?vid=b4233161-9917-437b-90dc-491e5a5d5214"},"vehicle_type_id":"4","last_reported":1762164827,"current_range_meters":10800,"station_id":"ce4bhg12rcd13ifvqf70","pricing_plan_id":"cebpf4jnsgd1na2vs0mg"},{"bike_id":"b7334413-eb65-4ee5-a3de-22f7846f5d99","system_id":"levelo_inurba_marseille","lat":43.3015,"lon":5.37416,"is_reserved":false,"is_disabled":false,"rental_uris":{"android":"levelo://app?vid=b7334413-eb65-4ee5-a3de-22f7846f5d99","ios":"levelo://app?vid=b7334413-eb65-4ee5-a3de-22f7846f5d99"},"vehicle_type_id":"4","last_reported":1762164827,"current_range_meters":10800,"station_id":"ce4bgs92rcd13ifvqcc0","pricing_plan_id":"cebpf4jnsgd1na2vs0mg"},{"bike_id":"6267ef2f-f2b0-45c4-bad4-dc3b4c136c76","system_id":"levelo_inurba_marseille","lat":43.33027,"lon":5.39029,"is_reserved":false,"is_disabled":false,"rental_uris":{"android":"levelo://app?vid=6267ef2f-f2b0-45c4-bad4-dc3b4c136c76","ios":"levelo://app?vid=6267ef2f-f2b0-45c4-bad4-dc3b4c136c76"},"vehicle_type_id":"4","last_reported":1762164827,"current_range_meters":10800,"station_id":"ce4bhr92rcd13ifvqhrg","pricing_plan_id":"cebpf4jnsgd1na2vs0mg"},{"bike_id":"ea8b436d-64bd-4ace-80da-4be491184ad7","system_id":"levelo_inurba_marseille","lat":43.33605,"lon":5.41016,"is_reserved":false,"is_disabled":false,"rental_uris":{"android":"levelo://app?vid=ea8b436d-64bd-4ace-80da-4be491184ad7","ios":"levelo://app?vid=ea8b436d-64bd-4ace-80da-4be491184ad7"},"vehicle_type_id":"4","last_reported":1762164827,"current_range_meters":10800,"station_id":"ce4bhqh2rcd13ifvqhmg","pricing_plan_id":"cebpf4jnsgd1na2vs0mg"},{"bike_id":"444e71af-a424-4007-b106-e35d221d4ece","system_id":"levelo_inurba_marseille","lat":43.26931,"lon":5.38924,"is_reserved":false,"is_disabled":false,"rental_uris":{"android":"levelo://app?vid=444e71af-a424-4007-b106-e35d221d4ece","ios":"levelo://app?vid=444e71af-a424-4007-b106-e35d221d4ece"},"vehicle_type_id":"4","last_reported":1762164827,"current_range_meters":11200,"station_id":"ce4bhhh2rcd13ifvqfl0","pricing_plan_id":"cebpf4jnsgd1na2vs0mg"},{"bike_id":"bbfaa054-3bde-4aa6-8d40-ce2fd793f9c3","system_id":"levelo_inurba_marseille","lat":43.2417,"lon":5.36395,"is_reserved":false,"is_disabled":true,"rental_uris":{"android":"levelo://app?vid=bbfaa054-3bde-4aa6-8d40-ce2fd793f9c3","ios":"levelo://app?vid=bbfaa054-3bde-4aa6-8d40-ce2fd793f9c3"},"vehicle_type_id":"4","last_reported":1762164827,"current_range_meters":11600,"station_id":"","pricing_plan_id":"cebpf4jnsgd1na2vs0mg"},{"bike_id":"1c021526-342b-4826-8664-1280e770d070","system_id":"levelo_inurba_marseille","lat":43.30304,"lon":5.36889,"is_reserved":false,"is_disabled":false,"rental_uris":{"android":"levelo://app?vid=1c021526-342b-4826-8664-1280e770d070","ios":"levelo://app?vid=1c021526-342b-4826-8664-1280e770d070"},"vehicle_type_id":"4","last_reported":1762164827,"current_range_meters":11600,"station_id":"ce4bgqh2rcd13ifvqc5g","pricing_plan_id":"cebpf4jnsgd1na2vs0mg"},{"bike_id":"5a3b55bf-3980-4469-95ec-f32deb7bdad3","system_id":"levelo_inurba_marseille","lat":43.3144,"lon":5.39275,"is_reserved":false,"is_disabled":false,"rental_uris":{"android":"levelo://app?vid=5a3b55bf-3980-4469-95ec-f32deb7bdad3","ios":"levelo://app?vid=5a3b55bf-3980-4469-95ec-f32deb7bdad3"},"vehicle_type_id":"4","last_reported":1762164827,"current_range_meters":11600,"station_id":"","pricing_plan_id":"cebpf4jnsgd1na2vs0mg"},{"bike_id":"a86e4117-515a-45fd-a9ae-9bf165d5c212","system_id":"levelo_inurba_marseille","lat":43.31285,"lon":5.37841,"is_reserved":false,"is_disabled":false,"rental_uris":{"android":"levelo://app?vid=a86e4117-515a-45fd-a9ae-9bf165d5c212","ios":"levelo://app?vid=a86e4117-515a-45fd-a9ae-9bf165d5c212"},"vehicle_type_id":"4","last_reported":1762164827,"current_range_meters":11600,"station_id":"","pricing_plan_id":"cebpf4jnsgd1na2vs0mg"},{"bike_id":"015cd313-5e47-4d9e-a3a9-d61a56ea690c","system_id":"levelo_inurba_marseille","lat":43.302746,"lon":5.377213,"is_reserved":false,"is_disabled":false,"rental_uris":{"android":"levelo://app?vid=015cd313-5e47-4d9e-a3a9-d61a56ea690c","ios":"levelo://app?vid=015cd313-5e47-4d9e-a3a9-d61a56ea690c"},"vehicle_type_id":"4","last_reported":1762164827,"current_range_meters":11600,"station_id":"ce4bguh2rcd13ifvqcj0","pricing_plan_id":"cebpf4jnsgd1na2vs0mg"},{"bike_id":"41bfdac5-f841-4ace-aee5-aa410d8acc4c","system_id":"levelo_inurba_marseille","lat":43.28605,"lon":5.370664,"is_reserved":false,"is_disabled":false,"rental_uris":{"android":"levelo://app?vid=41bfdac5-f841-4ace-aee5-aa410d8acc4c","ios":"levelo://app?vid=41bfdac5-f841-4ace-aee5-aa410d8acc4c"},"vehicle_type_id":"4","last_reported":1762164827,"current_range_meters":11600,"station_id":"ce4bht12rcd13ifvqi60","pricing_plan_id":"cebpf4jnsgd1na2vs0mg"},{"bike_id":"5593c75f-c45e-45ed-9fae-e2676a986a0e","system_id":"levelo_inurba_marseille","lat":43.2593,"lon":5.40907,"is_reserved":false,"is_disabled":false,"rental_uris":{"android":"levelo://app?vid=5593c75f-c45e-45ed-9fae-e2676a986a0e","ios":"levelo://app?vid=5593c75f-c45e-45ed-9fae-e2676a986a0e"},"vehicle_type_id":"4","last_reported":1762164827,"current_range_meters":12000,"station_id":"ce4bhm92rcd13ifvqglg","pricing_plan_id":"cebpf4jnsgd1na2vs0mg"},{"bike_id":"0a54d18f-fe43-4be5-a009-461a89594788","system_id":"levelo_inurba_marseille","lat":43.28271,"lon":5.35058,"is_reserved":false,"is_disabled":true,"rental_uris":{"android":"levelo://app?vid=0a54d18f-fe43-4be5-a009-461a89594788","ios":"levelo://app?vid=0a54d18f-fe43-4be5-a009-461a89594788"},"vehicle_type_id":"4","last_reported":1762164827,"current_range_meters":12000,"station_id":"","pricing_plan_id":"cebpf4jnsgd1na2vs0mg"},{"bike_id":"d7420e2c-f073-4c34-8c4f-ea109e498c21","system_id":"levelo_inurba_marseille","lat":43.25935,"lon":5.40904,"is_reserved":false,"is_disabled":false,"rental_uris":{"android":"levelo://app?vid=d7420e2c-f073-4c34-8c4f-ea109e498c21","ios":"levelo://app?vid=d7420e2c-f073-4c34-8c4f-ea109e498c21"},"vehicle_type_id":"4","last_reported":1762164827,"current_range_meters":12000,"station_id":"ce4bhm92rcd13ifvqglg","pricing_plan_id":"cebpf4jnsgd1na2vs0mg"},{"bike_id":"0b29fc28-1f0d-4d6c-b71f-627728651ef4","system_id":"levelo_inurba_marseille","lat":43.301347,"lon":5.387769,"is_reserved":false,"is_disabled":false,"rental_uris":{"android":"levelo://app?vid=0b29fc28-1f0d-4d6c-b71f-627728651ef4","ios":"levelo://app?vid=0b29fc28-1f0d-4d6c-b71f-627728651ef4"},"vehicle_type_id":"4","last_reported":1762164827,"current_range_meters":12000,"station_id":"ce4bghh2rcd13ifvqb60","pricing_plan_id":"cebpf4jnsgd1na2vs0mg"},{"bike_id":"cb6c36c2-4646-44ee-b9d1-9f2d0dee0a1f","system_id":"levelo_inurba_marseille","lat":43.240694,"lon":5.3776,"is_reserved":false,"is_disabled":false,"rental_uris":{"android":"levelo://app?vid=cb6c36c2-4646-44ee-b9d1-9f2d0dee0a1f","ios":"levelo://app?vid=cb6c36c2-4646-44ee-b9d1-9f2d0dee0a1f"},"vehicle_type_id":"4","last_reported":1762164827,"current_range_meters":12000,"station_id":"ce4bhnp2rcd13ifvqgvg","pricing_plan_id":"cebpf4jnsgd1na2vs0mg"},{"bike_id":"6eb523a4-350d-4959-ac5e-1335d8f70954","system_id":"levelo_inurba_marseille","lat":43.315717,"lon":5.406423,"is_reserved":false,"is_disabled":false,"rental_uris":{"android":"levelo://app?vid=6eb523a4-350d-4959-ac5e-1335d8f70954","ios":"levelo://app?vid=6eb523a4-350d-4959-ac5e-1335d8f70954"},"vehicle_type_id":"4","last_reported":1762164827,"current_range_meters":12000,"station_id":"","pricing_plan_id":"cebpf4jnsgd1na2vs0mg"},{"bike_id":"0163419c-1679-45e1-9032-cce11e007e49","system_id":"levelo_inurba_marseille","lat":43.23142,"lon":5.43711,"is_reserved":false,"is_disabled":false,"rental_uris":{"android":"levelo://app?vid=0163419c-1679-45e1-9032-cce11e007e49","ios":"levelo://app?vid=0163419c-1679-45e1-9032-cce11e007e49"},"vehicle_type_id":"4","last_reported":1762164827,"current_range_meters":12400,"station_id":"ce4bhmp2rcd13ifvqgog","pricing_plan_id":"cebpf4jnsgd1na2vs0mg"},{"bike_id":"e419722c-f733-4d7c-8bee-89e1642e91ec","system_id":"levelo_inurba_marseille","lat":43.31379,"lon":5.37572,"is_reserved":false,"is_disabled":false,"rental_uris":{"android":"levelo://app?vid=e419722c-f733-4d7c-8bee-89e1642e91ec","ios":"levelo://app?vid=e419722c-f733-4d7c-8bee-89e1642e91ec"},"vehicle_type_id":"4","last_reported":1762164827,"current_range_meters":12400,"station_id":"","pricing_plan_id":"cebpf4jnsgd1na2vs0mg"},{"bike_id":"b2514755-0f11-4833-b225-7d1f8289efa4","system_id":"levelo_inurba_marseille","lat":43.22929,"lon":5.35372,"is_reserved":false,"is_disabled":false,"rental_uris":{"android":"levelo://app?vid=b2514755-0f11-4833-b225-7d1f8289efa4","ios":"levelo://app?vid=b2514755-0f11-4833-b225-7d1f8289efa4"},"vehicle_type_id":"4","last_reported":1762164827,"current_range_meters":12400,"station_id":"cpo3532slgdg3j2ikp40","pricing_plan_id":"cebpf4jnsgd1na2vs0mg"},{"bike_id":"aa56963e-5f6a-4043-b1c7-23e4d9f05d8c","system_id":"levelo_inurba_marseille","lat":43.313499,"lon":5.379119,"is_reserved":false,"is_disabled":false,"rental_uris":{"android":"levelo://app?vid=aa56963e-5f6a-4043-b1c7-23e4d9f05d8c","ios":"levelo://app?vid=aa56963e-5f6a-4043-b1c7-23e4d9f05d8c"},"vehicle_type_id":"4","last_reported":1762164827,"current_range_meters":12400,"station_id":"","pricing_plan_id":"cebpf4jnsgd1na2vs0mg"},{"bike_id":"05752604-98b5-4eca-b6d4-7951f7da6439","system_id":"levelo_inurba_marseille","lat":43.30885,"lon":5.36854,"is_reserved":false,"is_disabled":false,"rental_uris":{"android":"levelo://app?vid=05752604-98b5-4eca-b6d4-7951f7da6439","ios":"levelo://app?vid=05752604-98b5-4eca-b6d4-7951f7da6439"},"vehicle_type_id":"4","last_reported":1762164827,"current_range_meters":12800,"station_id":"ce4bgn92rcd13ifvqbvg","pricing_plan_id":"cebpf4jnsgd1na2vs0mg"},{"bike_id":"65959e76-2dec-43d3-b15c-b4e7433182fd","system_id":"levelo_inurba_marseille","lat":43.293631,"lon":5.371955,"is_reserved":false,"is_disabled":false,"rental_uris":{"android":"levelo://app?vid=65959e76-2dec-43d3-b15c-b4e7433182fd","ios":"levelo://app?vid=65959e76-2dec-43d3-b15c-b4e7433182fd"},"vehicle_type_id":"4","last_reported":1762164827,"current_range_meters":12800,"station_id":"","pricing_plan_id":"cebpf4jnsgd1na2vs0mg"},{"bike_id":"c5128ab7-a4bf-457c-a666-4a12337462d5","system_id":"levelo_inurba_marseille","lat":43.23153,"lon":5.43712,"is_reserved":false,"is_disabled":false,"rental_uris":{"android":"levelo://app?vid=c5128ab7-a4bf-457c-a666-4a12337462d5","ios":"levelo://app?vid=c5128ab7-a4bf-457c-a666-4a12337462d5"},"vehicle_type_id":"4","last_reported":1762164827,"current_range_meters":12800,"station_id":"ce4bhmp2rcd13ifvqgog","pricing_plan_id":"cebpf4jnsgd1na2vs0mg"},{"bike_id":"b028a7b7-523b-439d-8e11-3c320950d782","system_id":"levelo_inurba_marseille","lat":43.30219,"lon":5.37667,"is_reserved":false,"is_disabled":false,"rental_uris":{"android":"levelo://app?vid=b028a7b7-523b-439d-8e11-3c320950d782","ios":"levelo://app?vid=b028a7b7-523b-439d-8e11-3c320950d782"},"vehicle_type_id":"4","last_reported":1762164827,"current_range_meters":12800,"station_id":"","pricing_plan_id":"cebpf4jnsgd1na2vs0mg"},{"bike_id":"9ee0ca18-2f71-4e87-8c60-48d7271e0e0a","system_id":"levelo_inurba_marseille","lat":43.29021,"lon":5.37553,"is_reserved":false,"is_disabled":false,"rental_uris":{"android":"levelo://app?vid=9ee0ca18-2f71-4e87-8c60-48d7271e0e0a","ios":"levelo://app?vid=9ee0ca18-2f71-4e87-8c60-48d7271e0e0a"},"vehicle_type_id":"4","last_reported":1762164827,"current_range_meters":12800,"station_id":"ce4bh692rcd13ifvqe90","pricing_plan_id":"cebpf4jnsgd1na2vs0mg"},{"bike_id":"bd892b37-b9e3-4c40-a276-e0fc8291fdbb","system_id":"levelo_inurba_marseille","lat":43.2768,"lon":5.38877,"is_reserved":false,"is_disabled":false,"rental_uris":{"android":"levelo://app?vid=bd892b37-b9e3-4c40-a276-e0fc8291fdbb","ios":"levelo://app?vid=bd892b37-b9e3-4c40-a276-e0fc8291fdbb"},"vehicle_type_id":"4","last_reported":1762164827,"current_range_meters":12800,"station_id":"ce4bhi12rcd13ifvqfo0","pricing_plan_id":"cebpf4jnsgd1na2vs0mg"},{"bike_id":"1765f7a5-09e5-4fb8-9094-c3cf3291fff7","system_id":"levelo_inurba_marseille","lat":43.2315,"lon":5.43713,"is_reserved":false,"is_disabled":false,"rental_uris":{"android":"levelo://app?vid=1765f7a5-09e5-4fb8-9094-c3cf3291fff7","ios":"levelo://app?vid=1765f7a5-09e5-4fb8-9094-c3cf3291fff7"},"vehicle_type_id":"4","last_reported":1762164827,"current_range_meters":12800,"station_id":"ce4bhmp2rcd13ifvqgog","pricing_plan_id":"cebpf4jnsgd1na2vs0mg"},{"bike_id":"d94fe113-ed87-4d14-803b-e09546003d5b","system_id":"levelo_inurba_marseille","lat":43.33602,"lon":5.410315,"is_reserved":false,"is_disabled":false,"rental_uris":{"android":"levelo://app?vid=d94fe113-ed87-4d14-803b-e09546003d5b","ios":"levelo://app?vid=d94fe113-ed87-4d14-803b-e09546003d5b"},"vehicle_type_id":"4","last_reported":1762164827,"current_range_meters":13600,"station_id":"","pricing_plan_id":"cebpf4jnsgd1na2vs0mg"},{"bike_id":"5b799c05-4773-42cb-848c-2ee9a6799b9c","system_id":"levelo_inurba_marseille","lat":43.28151,"lon":5.42645,"is_reserved":false,"is_disabled":false,"rental_uris":{"android":"levelo://app?vid=5b799c05-4773-42cb-848c-2ee9a6799b9c","ios":"levelo://app?vid=5b799c05-4773-42cb-848c-2ee9a6799b9c"},"vehicle_type_id":"4","last_reported":1762164827,"current_range_meters":13600,"station_id":"ce4bhnh2rcd13ifvqgug","pricing_plan_id":"cebpf4jnsgd1na2vs0mg"},{"bike_id":"5023cdf7-0c52-45fb-9183-f63705494cdd","system_id":"levelo_inurba_marseille","lat":43.29276,"lon":5.36836,"is_reserved":false,"is_disabled":false,"rental_uris":{"android":"levelo://app?vid=5023cdf7-0c52-45fb-9183-f63705494cdd","ios":"levelo://app?vid=5023cdf7-0c52-45fb-9183-f63705494cdd"},"vehicle_type_id":"4","last_reported":1762164827,"current_range_meters":13600,"station_id":"ce4bhbp2rcd13ifvqesg","pricing_plan_id":"cebpf4jnsgd1na2vs0mg"},{"bike_id":"ef3051ac-87a4-400e-a432-5bfc2a83a3e3","system_id":"levelo_inurba_marseille","lat":43.32487,"lon":5.3657,"is_reserved":false,"is_disabled":false,"rental_uris":{"android":"levelo://app?vid=ef3051ac-87a4-400e-a432-5bfc2a83a3e3","ios":"levelo://app?vid=ef3051ac-87a4-400e-a432-5bfc2a83a3e3"},"vehicle_type_id":"4","last_reported":1762164827,"current_range_meters":13600,"station_id":"ce4bhs12rcd13ifvqhvg","pricing_plan_id":"cebpf4jnsgd1na2vs0mg"},{"bike_id":"63b99142-d93e-4ec3-9f27-908c29f1ab9a","system_id":"levelo_inurba_marseille","lat":43.29932,"lon":5.36542,"is_reserved":false,"is_disabled":false,"rental_uris":{"android":"levelo://app?vid=63b99142-d93e-4ec3-9f27-908c29f1ab9a","ios":"levelo://app?vid=63b99142-d93e-4ec3-9f27-908c29f1ab9a"},"vehicle_type_id":"4","last_reported":1762164827,"current_range_meters":13600,"station_id":"ce4bgm92rcd13ifvqbr0","pricing_plan_id":"cebpf4jnsgd1na2vs0mg"},{"bike_id":"db6e6260-2d85-4166-9263-dac4db5de003","system_id":"levelo_inurba_marseille","lat":43.29906,"lon":5.37432,"is_reserved":false,"is_disabled":false,"rental_uris":{"android":"levelo://app?vid=db6e6260-2d85-4166-9263-dac4db5de003","ios":"levelo://app?vid=db6e6260-2d85-4166-9263-dac4db5de003"},"vehicle_type_id":"4","last_reported":1762164827,"current_range_meters":14000,"station_id":"ce4bgjh2rcd13ifvqbg0","pricing_plan_id":"cebpf4jnsgd1na2vs0mg"},{"bike_id":"2457a6da-e737-4e7a-9c85-e9723cf378b9","system_id":"levelo_inurba_marseille","lat":43.27181,"lon":5.40983,"is_reserved":false,"is_disabled":false,"rental_uris":{"android":"levelo://app?vid=2457a6da-e737-4e7a-9c85-e9723cf378b9","ios":"levelo://app?vid=2457a6da-e737-4e7a-9c85-e9723cf378b9"},"vehicle_type_id":"4","last_reported":1762164827,"current_range_meters":14000,"station_id":"ce4bhl12rcd13ifvqgf0","pricing_plan_id":"cebpf4jnsgd1na2vs0mg"},{"bike_id":"e02a3254-dcd5-44fb-b560-58c6650676ee","system_id":"levelo_inurba_marseille","lat":43.283353,"lon":5.350374,"is_reserved":false,"is_disabled":false,"rental_uris":{"android":"levelo://app?vid=e02a3254-dcd5-44fb-b560-58c6650676ee","ios":"levelo://app?vid=e02a3254-dcd5-44fb-b560-58c6650676ee"},"vehicle_type_id":"4","last_reported":1762164827,"current_range_meters":14000,"station_id":"ce4bhbp2rcd13ifvqerg","pricing_plan_id":"cebpf4jnsgd1na2vs0mg"},{"bike_id":"8ec32919-9adc-4a63-8582-9123feddc5fc","system_id":"levelo_inurba_marseille","lat":43.27492,"lon":5.42457,"is_reserved":false,"is_disabled":false,"rental_uris":{"android":"levelo://app?vid=8ec32919-9adc-4a63-8582-9123feddc5fc","ios":"levelo://app?vid=8ec32919-9adc-4a63-8582-9123feddc5fc"},"vehicle_type_id":"4","last_reported":1762164827,"current_range_meters":14000,"station_id":"ce4bhn92rcd13ifvqgrg","pricing_plan_id":"cebpf4jnsgd1na2vs0mg"},{"bike_id":"2932bf8d-b0e8-4aea-91e5-d7a17a2b0b80","system_id":"levelo_inurba_marseille","lat":43.29962,"lon":5.3849,"is_reserved":false,"is_disabled":false,"rental_uris":{"android":"levelo://app?vid=2932bf8d-b0e8-4aea-91e5-d7a17a2b0b80","ios":"levelo://app?vid=2932bf8d-b0e8-4aea-91e5-d7a17a2b0b80"},"vehicle_type_id":"4","last_reported":1762164827,"current_range_meters":14000,"station_id":"ce4bgj92rcd13ifvqbd0","pricing_plan_id":"cebpf4jnsgd1na2vs0mg"},{"bike_id":"7f4ea1c9-e771-489a-82b2-fae7d0c0a729","system_id":"levelo_inurba_marseille","lat":43.29786,"lon":5.39352,"is_reserved":false,"is_disabled":true,"rental_uris":{"android":"levelo://app?vid=7f4ea1c9-e771-489a-82b2-fae7d0c0a729","ios":"levelo://app?vid=7f4ea1c9-e771-489a-82b2-fae7d0c0a729"},"vehicle_type_id":"4","last_reported":1762164827,"current_range_meters":14000,"station_id":"chh1huq6cuj3fo74tm60","pricing_plan_id":"cebpf4jnsgd1na2vs0mg"},{"bike_id":"e145aa7f-eaf1-4972-a5f1-427d69fd4bff","system_id":"levelo_inurba_marseille","lat":43.29,"lon":5.35605,"is_reserved":false,"is_disabled":false,"rental_uris":{"android":"levelo://app?vid=e145aa7f-eaf1-4972-a5f1-427d69fd4bff","ios":"levelo://app?vid=e145aa7f-eaf1-4972-a5f1-427d69fd4bff"},"vehicle_type_id":"4","last_reported":1762164827,"current_range_meters":14000,"station_id":"ce4bhb92rcd13ifvqen0","pricing_plan_id":"cebpf4jnsgd1na2vs0mg"},{"bike_id":"735e0f88-d3d6-4418-b6b7-1b5d793a6628","system_id":"levelo_inurba_marseille","lat":43.26555,"lon":5.37282,"is_reserved":false,"is_disabled":false,"rental_uris":{"android":"levelo://app?vid=735e0f88-d3d6-4418-b6b7-1b5d793a6628","ios":"levelo://app?vid=735e0f88-d3d6-4418-b6b7-1b5d793a6628"},"vehicle_type_id":"4","last_reported":1762164827,"current_range_meters":14000,"station_id":"ce4bhg12rcd13ifvqf70","pricing_plan_id":"cebpf4jnsgd1na2vs0mg"},{"bike_id":"1b1e71cc-c221-4e91-89c8-2d987f944d9c","system_id":"levelo_inurba_marseille","lat":43.24173,"lon":5.36408,"is_reserved":false,"is_disabled":false,"rental_uris":{"android":"levelo://app?vid=1b1e71cc-c221-4e91-89c8-2d987f944d9c","ios":"levelo://app?vid=1b1e71cc-c221-4e91-89c8-2d987f944d9c"},"vehicle_type_id":"4","last_reported":1762164827,"current_range_meters":14000,"station_id":"cpo36qri1sfpv3e86is0","pricing_plan_id":"cebpf4jnsgd1na2vs0mg"},{"bike_id":"00098e54-9402-4a09-8114-2ecec601bb86","system_id":"levelo_inurba_marseille","lat":43.292616,"lon":5.367773,"is_reserved":false,"is_disabled":false,"rental_uris":{"android":"levelo://app?vid=00098e54-9402-4a09-8114-2ecec601bb86","ios":"levelo://app?vid=00098e54-9402-4a09-8114-2ecec601bb86"},"vehicle_type_id":"4","last_reported":1762164827,"current_range_meters":14000,"station_id":"ce4bhbp2rcd13ifvqesg","pricing_plan_id":"cebpf4jnsgd1na2vs0mg"},{"bike_id":"fa26f30c-f4d8-4ef3-973f-f6b6f33bca8a","system_id":"levelo_inurba_marseille","lat":43.329951,"lon":5.403839,"is_reserved":false,"is_disabled":false,"rental_uris":{"android":"levelo://app?vid=fa26f30c-f4d8-4ef3-973f-f6b6f33bca8a","ios":"levelo://app?vid=fa26f30c-f4d8-4ef3-973f-f6b6f33bca8a"},"vehicle_type_id":"4","last_reported":1762164827,"current_range_meters":14000,"station_id":"","pricing_plan_id":"cebpf4jnsgd1na2vs0mg"},{"bike_id":"8476911d-82c6-4282-acdf-9d10f08498f3","system_id":"levelo_inurba_marseille","lat":43.29574,"lon":5.37508,"is_reserved":false,"is_disabled":false,"rental_uris":{"android":"levelo://app?vid=8476911d-82c6-4282-acdf-9d10f08498f3","ios":"levelo://app?vid=8476911d-82c6-4282-acdf-9d10f08498f3"},"vehicle_type_id":"4","last_reported":1762164827,"current_range_meters":14000,"station_id":"ce4bgh92rcd13ifvqb50","pricing_plan_id":"cebpf4jnsgd1na2vs0mg"},{"bike_id":"12ddbe34-4468-46bf-ace4-40b97dd26782","system_id":"levelo_inurba_marseille","lat":43.25931,"lon":5.40908,"is_reserved":false,"is_disabled":false,"rental_uris":{"android":"levelo://app?vid=12ddbe34-4468-46bf-ace4-40b97dd26782","ios":"levelo://app?vid=12ddbe34-4468-46bf-ace4-40b97dd26782"},"vehicle_type_id":"4","last_reported":1762164827,"current_range_meters":14400,"station_id":"ce4bhm92rcd13ifvqglg","pricing_plan_id":"cebpf4jnsgd1na2vs0mg"},{"bike_id":"32d4a401-7eac-4706-9e22-d4c2a7e55b17","system_id":"levelo_inurba_marseille","lat":43.24639,"lon":5.43149,"is_reserved":false,"is_disabled":false,"rental_uris":{"android":"levelo://app?vid=32d4a401-7eac-4706-9e22-d4c2a7e55b17","ios":"levelo://app?vid=32d4a401-7eac-4706-9e22-d4c2a7e55b17"},"vehicle_type_id":"4","last_reported":1762164827,"current_range_meters":14400,"station_id":"st_d2m6c4gdas8pm72e190g","pricing_plan_id":"cebpf4jnsgd1na2vs0mg"},{"bike_id":"0d2f4678-206b-466b-b246-81e90c39c925","system_id":"levelo_inurba_marseille","lat":43.28513,"lon":5.440939,"is_reserved":false,"is_disabled":true,"rental_uris":{"android":"levelo://app?vid=0d2f4678-206b-466b-b246-81e90c39c925","ios":"levelo://app?vid=0d2f4678-206b-466b-b246-81e90c39c925"},"vehicle_type_id":"4","last_reported":1762164827,"current_range_meters":14400,"station_id":"st_d3j3df2ikq2c7380ej80","pricing_plan_id":"cebpf4jnsgd1na2vs0mg"},{"bike_id":"e1c4d172-c89e-4a23-9e73-099ed288e933","system_id":"levelo_inurba_marseille","lat":43.29777,"lon":5.37104,"is_reserved":false,"is_disabled":false,"rental_uris":{"android":"levelo://app?vid=e1c4d172-c89e-4a23-9e73-099ed288e933","ios":"levelo://app?vid=e1c4d172-c89e-4a23-9e73-099ed288e933"},"vehicle_type_id":"4","last_reported":1762164827,"current_range_meters":14400,"station_id":"ce4bgop2rcd13ifvqc1g","pricing_plan_id":"cebpf4jnsgd1na2vs0mg"},{"bike_id":"ddf0cc27-c6a2-4cb1-914f-948ee3731571","system_id":"levelo_inurba_marseille","lat":43.30542,"lon":5.36711,"is_reserved":false,"is_disabled":false,"rental_uris":{"android":"levelo://app?vid=ddf0cc27-c6a2-4cb1-914f-948ee3731571","ios":"levelo://app?vid=ddf0cc27-c6a2-4cb1-914f-948ee3731571"},"vehicle_type_id":"4","last_reported":1762164827,"current_range_meters":14400,"station_id":"ce4bgrp2rcd13ifvqc9g","pricing_plan_id":"cebpf4jnsgd1na2vs0mg"},{"bike_id":"25b8b9c6-92a5-43d3-8767-0700e7c7de1c","system_id":"levelo_inurba_marseille","lat":43.3375,"lon":5.37467,"is_reserved":false,"is_disabled":false,"rental_uris":{"android":"levelo://app?vid=25b8b9c6-92a5-43d3-8767-0700e7c7de1c","ios":"levelo://app?vid=25b8b9c6-92a5-43d3-8767-0700e7c7de1c"},"vehicle_type_id":"4","last_reported":1762164827,"current_range_meters":14800,"station_id":"","pricing_plan_id":"cebpf4jnsgd1na2vs0mg"},{"bike_id":"4c4b8bcf-4ef8-4551-8b0c-0892f8af6559","system_id":"levelo_inurba_marseille","lat":43.22565,"lon":5.41614,"is_reserved":false,"is_disabled":false,"rental_uris":{"android":"levelo://app?vid=4c4b8bcf-4ef8-4551-8b0c-0892f8af6559","ios":"levelo://app?vid=4c4b8bcf-4ef8-4551-8b0c-0892f8af6559"},"vehicle_type_id":"4","last_reported":1762164827,"current_range_meters":14800,"station_id":"st_d2o4gvlbi1j2169b742g","pricing_plan_id":"cebpf4jnsgd1na2vs0mg"},{"bike_id":"94fe637d-8c0a-4043-97bc-5ae6d09c4f72","system_id":"levelo_inurba_marseille","lat":43.30549,"lon":5.36535,"is_reserved":false,"is_disabled":false,"rental_uris":{"android":"levelo://app?vid=94fe637d-8c0a-4043-97bc-5ae6d09c4f72","ios":"levelo://app?vid=94fe637d-8c0a-4043-97bc-5ae6d09c4f72"},"vehicle_type_id":"4","last_reported":1762164827,"current_range_meters":14800,"station_id":"ce4bgs12rcd13ifvqcag","pricing_plan_id":"cebpf4jnsgd1na2vs0mg"},{"bike_id":"88a37c3f-2822-4e65-9019-f92712cd5915","system_id":"levelo_inurba_marseille","lat":43.21174,"lon":5.35048,"is_reserved":false,"is_disabled":true,"rental_uris":{"android":"levelo://app?vid=88a37c3f-2822-4e65-9019-f92712cd5915","ios":"levelo://app?vid=88a37c3f-2822-4e65-9019-f92712cd5915"},"vehicle_type_id":"4","last_reported":1762164827,"current_range_meters":14800,"station_id":"st_cvj6sg6p6f1abm77japg","pricing_plan_id":"cebpf4jnsgd1na2vs0mg"},{"bike_id":"06193922-fdf4-438d-bc7c-945799a56899","system_id":"levelo_inurba_marseille","lat":43.23152,"lon":5.43706,"is_reserved":false,"is_disabled":false,"rental_uris":{"android":"levelo://app?vid=06193922-fdf4-438d-bc7c-945799a56899","ios":"levelo://app?vid=06193922-fdf4-438d-bc7c-945799a56899"},"vehicle_type_id":"4","last_reported":1762164827,"current_range_meters":14800,"station_id":"ce4bhmp2rcd13ifvqgog","pricing_plan_id":"cebpf4jnsgd1na2vs0mg"},{"bike_id":"68c4808d-d5c0-4e04-84f4-98b4db3e7b56","system_id":"levelo_inurba_marseille","lat":43.29782,"lon":5.39335,"is_reserved":false,"is_disabled":false,"rental_uris":{"android":"levelo://app?vid=68c4808d-d5c0-4e04-84f4-98b4db3e7b56","ios":"levelo://app?vid=68c4808d-d5c0-4e04-84f4-98b4db3e7b56"},"vehicle_type_id":"4","last_reported":1762164827,"current_range_meters":14800,"station_id":"chh1huq6cuj3fo74tm60","pricing_plan_id":"cebpf4jnsgd1na2vs0mg"},{"bike_id":"2f70dd19-728d-424d-ba26-5fe3ad50c685","system_id":"levelo_inurba_marseille","lat":43.259354,"lon":5.409131,"is_reserved":false,"is_disabled":false,"rental_uris":{"android":"levelo://app?vid=2f70dd19-728d-424d-ba26-5fe3ad50c685","ios":"levelo://app?vid=2f70dd19-728d-424d-ba26-5fe3ad50c685"},"vehicle_type_id":"4","last_reported":1762164827,"current_range_meters":14800,"station_id":"ce4bhm92rcd13ifvqglg","pricing_plan_id":"cebpf4jnsgd1na2vs0mg"},{"bike_id":"f64d03a0-c2a7-48f7-8f54-d388d015c7b9","system_id":"levelo_inurba_marseille","lat":43.23159,"lon":5.43708,"is_reserved":false,"is_disabled":false,"rental_uris":{"android":"levelo://app?vid=f64d03a0-c2a7-48f7-8f54-d388d015c7b9","ios":"levelo://app?vid=f64d03a0-c2a7-48f7-8f54-d388d015c7b9"},"vehicle_type_id":"4","last_reported":1762164827,"current_range_meters":14800,"station_id":"ce4bhmp2rcd13ifvqgog","pricing_plan_id":"cebpf4jnsgd1na2vs0mg"},{"bike_id":"9ba85076-7676-452a-8b12-b1d0582d1709","system_id":"levelo_inurba_marseille","lat":43.30145,"lon":5.37409,"is_reserved":false,"is_disabled":false,"rental_uris":{"android":"levelo://app?vid=9ba85076-7676-452a-8b12-b1d0582d1709","ios":"levelo://app?vid=9ba85076-7676-452a-8b12-b1d0582d1709"},"vehicle_type_id":"4","last_reported":1762164827,"current_range_meters":15200,"station_id":"ce4bgs92rcd13ifvqcc0","pricing_plan_id":"cebpf4jnsgd1na2vs0mg"},{"bike_id":"5a96cc8c-7aea-4f8c-941f-8c7122bd9517","system_id":"levelo_inurba_marseille","lat":43.284778,"lon":5.483896,"is_reserved":false,"is_disabled":false,"rental_uris":{"android":"levelo://app?vid=5a96cc8c-7aea-4f8c-941f-8c7122bd9517","ios":"levelo://app?vid=5a96cc8c-7aea-4f8c-941f-8c7122bd9517"},"vehicle_type_id":"4","last_reported":1762164827,"current_range_meters":15200,"station_id":"","pricing_plan_id":"cebpf4jnsgd1na2vs0mg"},{"bike_id":"aad6a064-c048-4ba9-a156-1745b89548aa","system_id":"levelo_inurba_marseille","lat":43.283135,"lon":5.410967,"is_reserved":false,"is_disabled":false,"rental_uris":{"android":"levelo://app?vid=aad6a064-c048-4ba9-a156-1745b89548aa","ios":"levelo://app?vid=aad6a064-c048-4ba9-a156-1745b89548aa"},"vehicle_type_id":"4","last_reported":1762164827,"current_range_meters":15200,"station_id":"","pricing_plan_id":"cebpf4jnsgd1na2vs0mg"},{"bike_id":"ac2f2e0c-7f3a-4615-95a9-755ddbeafcff","system_id":"levelo_inurba_marseille","lat":43.27375,"lon":5.36245,"is_reserved":false,"is_disabled":true,"rental_uris":{"android":"levelo://app?vid=ac2f2e0c-7f3a-4615-95a9-755ddbeafcff","ios":"levelo://app?vid=ac2f2e0c-7f3a-4615-95a9-755ddbeafcff"},"vehicle_type_id":"4","last_reported":1762164827,"current_range_meters":15200,"station_id":"ce4bhbh2rcd13ifvqeo0","pricing_plan_id":"cebpf4jnsgd1na2vs0mg"},{"bike_id":"e76b87a5-9393-4b07-847a-8fd9996dc2c1","system_id":"levelo_inurba_marseille","lat":43.27486,"lon":5.42457,"is_reserved":false,"is_disabled":false,"rental_uris":{"android":"levelo://app?vid=e76b87a5-9393-4b07-847a-8fd9996dc2c1","ios":"levelo://app?vid=e76b87a5-9393-4b07-847a-8fd9996dc2c1"},"vehicle_type_id":"4","last_reported":1762164827,"current_range_meters":15200,"station_id":"ce4bhn92rcd13ifvqgrg","pricing_plan_id":"cebpf4jnsgd1na2vs0mg"},{"bike_id":"d1b7e294-8ae6-48ef-89d0-e05e23f9f8e0","system_id":"levelo_inurba_marseille","lat":43.295408,"lon":5.361081,"is_reserved":false,"is_disabled":true,"rental_uris":{"android":"levelo://app?vid=d1b7e294-8ae6-48ef-89d0-e05e23f9f8e0","ios":"levelo://app?vid=d1b7e294-8ae6-48ef-89d0-e05e23f9f8e0"},"vehicle_type_id":"4","last_reported":1762164827,"current_range_meters":15200,"station_id":"","pricing_plan_id":"cebpf4jnsgd1na2vs0mg"},{"bike_id":"03518348-a473-43a5-aebe-4dbf2f87920e","system_id":"levelo_inurba_marseille","lat":43.28483,"lon":5.37901,"is_reserved":false,"is_disabled":false,"rental_uris":{"android":"levelo://app?vid=03518348-a473-43a5-aebe-4dbf2f87920e","ios":"levelo://app?vid=03518348-a473-43a5-aebe-4dbf2f87920e"},"vehicle_type_id":"4","last_reported":1762164827,"current_range_meters":15200,"station_id":"","pricing_plan_id":"cebpf4jnsgd1na2vs0mg"},{"bike_id":"a8ec203b-d616-4825-acb4-ec9a8037e9f2","system_id":"levelo_inurba_marseille","lat":43.28133,"lon":5.38322,"is_reserved":false,"is_disabled":false,"rental_uris":{"android":"levelo://app?vid=a8ec203b-d616-4825-acb4-ec9a8037e9f2","ios":"levelo://app?vid=a8ec203b-d616-4825-acb4-ec9a8037e9f2"},"vehicle_type_id":"4","last_reported":1762164827,"current_range_meters":15200,"station_id":"","pricing_plan_id":"cebpf4jnsgd1na2vs0mg"},{"bike_id":"05bfe200-7b61-464d-ab39-3f5b3a465489","system_id":"levelo_inurba_marseille","lat":43.27813,"lon":5.40704,"is_reserved":false,"is_disabled":false,"rental_uris":{"android":"levelo://app?vid=05bfe200-7b61-464d-ab39-3f5b3a465489","ios":"levelo://app?vid=05bfe200-7b61-464d-ab39-3f5b3a465489"},"vehicle_type_id":"4","last_reported":1762164827,"current_range_meters":16000,"station_id":"ce4bhnh2rcd13ifvqgtg","pricing_plan_id":"cebpf4jnsgd1na2vs0mg"},{"bike_id":"c37decea-906a-43ca-8450-8ed6fad0917a","system_id":"levelo_inurba_marseille","lat":43.21758,"lon":5.3462,"is_reserved":false,"is_disabled":false,"rental_uris":{"android":"levelo://app?vid=c37decea-906a-43ca-8450-8ed6fad0917a","ios":"levelo://app?vid=c37decea-906a-43ca-8450-8ed6fad0917a"},"vehicle_type_id":"4","last_reported":1762164827,"current_range_meters":16000,"station_id":"","pricing_plan_id":"cebpf4jnsgd1na2vs0mg"},{"bike_id":"5eee67bb-3614-4f3b-ab22-554d031d3012","system_id":"levelo_inurba_marseille","lat":43.257238,"lon":5.411188,"is_reserved":false,"is_disabled":false,"rental_uris":{"android":"levelo://app?vid=5eee67bb-3614-4f3b-ab22-554d031d3012","ios":"levelo://app?vid=5eee67bb-3614-4f3b-ab22-554d031d3012"},"vehicle_type_id":"4","last_reported":1762164827,"current_range_meters":16000,"station_id":"ce4bhkp2rcd13ifvqgd0","pricing_plan_id":"cebpf4jnsgd1na2vs0mg"},{"bike_id":"4316ebb6-af9e-414e-ba87-072103d4da75","system_id":"levelo_inurba_marseille","lat":43.335132,"lon":5.397547,"is_reserved":false,"is_disabled":false,"rental_uris":{"android":"levelo://app?vid=4316ebb6-af9e-414e-ba87-072103d4da75","ios":"levelo://app?vid=4316ebb6-af9e-414e-ba87-072103d4da75"},"vehicle_type_id":"4","last_reported":1762164827,"current_range_meters":16000,"station_id":"","pricing_plan_id":"cebpf4jnsgd1na2vs0mg"},{"bike_id":"314dcefd-13a2-43d4-a786-fbcaee9c7a33","system_id":"levelo_inurba_marseille","lat":43.259234,"lon":5.408799,"is_reserved":false,"is_disabled":false,"rental_uris":{"android":"levelo://app?vid=314dcefd-13a2-43d4-a786-fbcaee9c7a33","ios":"levelo://app?vid=314dcefd-13a2-43d4-a786-fbcaee9c7a33"},"vehicle_type_id":"4","last_reported":1762164827,"current_range_meters":16000,"station_id":"ce4bhm92rcd13ifvqglg","pricing_plan_id":"cebpf4jnsgd1na2vs0mg"},{"bike_id":"dfafc353-61c4-40ae-835b-c3799534af4a","system_id":"levelo_inurba_marseille","lat":43.29583,"lon":5.37512,"is_reserved":false,"is_disabled":false,"rental_uris":{"android":"levelo://app?vid=dfafc353-61c4-40ae-835b-c3799534af4a","ios":"levelo://app?vid=dfafc353-61c4-40ae-835b-c3799534af4a"},"vehicle_type_id":"4","last_reported":1762164827,"current_range_meters":16000,"station_id":"ce4bgh92rcd13ifvqb50","pricing_plan_id":"cebpf4jnsgd1na2vs0mg"},{"bike_id":"ed454fc0-6f00-4b98-bc76-a83b2a690243","system_id":"levelo_inurba_marseille","lat":43.24043,"lon":5.37726,"is_reserved":false,"is_disabled":false,"rental_uris":{"android":"levelo://app?vid=ed454fc0-6f00-4b98-bc76-a83b2a690243","ios":"levelo://app?vid=ed454fc0-6f00-4b98-bc76-a83b2a690243"},"vehicle_type_id":"4","last_reported":1762164827,"current_range_meters":16400,"station_id":"ce4bhnp2rcd13ifvqgvg","pricing_plan_id":"cebpf4jnsgd1na2vs0mg"},{"bike_id":"782a02c9-f51b-4b61-89b2-ec2ecf7d0e40","system_id":"levelo_inurba_marseille","lat":43.24956,"lon":5.40497,"is_reserved":false,"is_disabled":false,"rental_uris":{"android":"levelo://app?vid=782a02c9-f51b-4b61-89b2-ec2ecf7d0e40","ios":"levelo://app?vid=782a02c9-f51b-4b61-89b2-ec2ecf7d0e40"},"vehicle_type_id":"4","last_reported":1762164827,"current_range_meters":16400,"station_id":"st_d2ngiaodas8pm72gd1h0","pricing_plan_id":"cebpf4jnsgd1na2vs0mg"},{"bike_id":"145adec1-02ad-4d16-a5dd-42bf80721343","system_id":"levelo_inurba_marseille","lat":43.30127,"lon":5.38433,"is_reserved":false,"is_disabled":false,"rental_uris":{"android":"levelo://app?vid=145adec1-02ad-4d16-a5dd-42bf80721343","ios":"levelo://app?vid=145adec1-02ad-4d16-a5dd-42bf80721343"},"vehicle_type_id":"4","last_reported":1762164827,"current_range_meters":16400,"station_id":"","pricing_plan_id":"cebpf4jnsgd1na2vs0mg"},{"bike_id":"5eb9db26-abf8-4b3a-a40c-77af04cc957e","system_id":"levelo_inurba_marseille","lat":43.24171,"lon":5.36387,"is_reserved":false,"is_disabled":false,"rental_uris":{"android":"levelo://app?vid=5eb9db26-abf8-4b3a-a40c-77af04cc957e","ios":"levelo://app?vid=5eb9db26-abf8-4b3a-a40c-77af04cc957e"},"vehicle_type_id":"4","last_reported":1762164827,"current_range_meters":16400,"station_id":"cpo36qri1sfpv3e86is0","pricing_plan_id":"cebpf4jnsgd1na2vs0mg"},{"bike_id":"7697f83b-11c1-4978-89f1-e9d9aca50ac7","system_id":"levelo_inurba_marseille","lat":43.246763,"lon":5.381874,"is_reserved":false,"is_disabled":true,"rental_uris":{"android":"levelo://app?vid=7697f83b-11c1-4978-89f1-e9d9aca50ac7","ios":"levelo://app?vid=7697f83b-11c1-4978-89f1-e9d9aca50ac7"},"vehicle_type_id":"4","last_reported":1762164827,"current_range_meters":16400,"station_id":"ce4bhih2rcd13ifvqfr0","pricing_plan_id":"cebpf4jnsgd1na2vs0mg"},{"bike_id":"7708bffb-696f-4643-a4ce-b711420b0e7b","system_id":"levelo_inurba_marseille","lat":43.31055,"lon":5.38362,"is_reserved":false,"is_disabled":false,"rental_uris":{"android":"levelo://app?vid=7708bffb-696f-4643-a4ce-b711420b0e7b","ios":"levelo://app?vid=7708bffb-696f-4643-a4ce-b711420b0e7b"},"vehicle_type_id":"4","last_reported":1762164827,"current_range_meters":16400,"station_id":"ce4bgv92rcd13ifvqcr0","pricing_plan_id":"cebpf4jnsgd1na2vs0mg"},{"bike_id":"e0d5d79a-4657-4295-a668-5945c4e132a1","system_id":"levelo_inurba_marseille","lat":43.30795,"lon":5.43521,"is_reserved":false,"is_disabled":true,"rental_uris":{"android":"levelo://app?vid=e0d5d79a-4657-4295-a668-5945c4e132a1","ios":"levelo://app?vid=e0d5d79a-4657-4295-a668-5945c4e132a1"},"vehicle_type_id":"4","last_reported":1762164827,"current_range_meters":16400,"station_id":"","pricing_plan_id":"cebpf4jnsgd1na2vs0mg"},{"bike_id":"0b15c0a8-c7d6-48a6-aeda-283614cfe5a5","system_id":"levelo_inurba_marseille","lat":43.23151,"lon":5.43718,"is_reserved":false,"is_disabled":false,"rental_uris":{"android":"levelo://app?vid=0b15c0a8-c7d6-48a6-aeda-283614cfe5a5","ios":"levelo://app?vid=0b15c0a8-c7d6-48a6-aeda-283614cfe5a5"},"vehicle_type_id":"4","last_reported":1762164827,"current_range_meters":16400,"station_id":"ce4bhmp2rcd13ifvqgog","pricing_plan_id":"cebpf4jnsgd1na2vs0mg"},{"bike_id":"9990e007-a533-44cc-a3d9-5107d66c4752","system_id":"levelo_inurba_marseille","lat":43.298502,"lon":5.362838,"is_reserved":false,"is_disabled":false,"rental_uris":{"android":"levelo://app?vid=9990e007-a533-44cc-a3d9-5107d66c4752","ios":"levelo://app?vid=9990e007-a533-44cc-a3d9-5107d66c4752"},"vehicle_type_id":"4","last_reported":1762164827,"current_range_meters":16800,"station_id":"ce4bgpp2rcd13ifvqc3g","pricing_plan_id":"cebpf4jnsgd1na2vs0mg"},{"bike_id":"28e5e78d-97c9-4124-ae4c-2fe3bcfd4986","system_id":"levelo_inurba_marseille","lat":43.29094,"lon":5.38141,"is_reserved":false,"is_disabled":false,"rental_uris":{"android":"levelo://app?vid=28e5e78d-97c9-4124-ae4c-2fe3bcfd4986","ios":"levelo://app?vid=28e5e78d-97c9-4124-ae4c-2fe3bcfd4986"},"vehicle_type_id":"4","last_reported":1762164827,"current_range_meters":16800,"station_id":"ce4bh512rcd13ifvqe2g","pricing_plan_id":"cebpf4jnsgd1na2vs0mg"},{"bike_id":"e8adea7e-0a90-49fd-b3a2-32134cae9db0","system_id":"levelo_inurba_marseille","lat":43.21184,"lon":5.35076,"is_reserved":false,"is_disabled":false,"rental_uris":{"android":"levelo://app?vid=e8adea7e-0a90-49fd-b3a2-32134cae9db0","ios":"levelo://app?vid=e8adea7e-0a90-49fd-b3a2-32134cae9db0"},"vehicle_type_id":"4","last_reported":1762164827,"current_range_meters":16800,"station_id":"","pricing_plan_id":"cebpf4jnsgd1na2vs0mg"},{"bike_id":"25570b4b-751a-4f05-b3b1-595837533824","system_id":"levelo_inurba_marseille","lat":43.281623,"lon":5.426397,"is_reserved":false,"is_disabled":false,"rental_uris":{"android":"levelo://app?vid=25570b4b-751a-4f05-b3b1-595837533824","ios":"levelo://app?vid=25570b4b-751a-4f05-b3b1-595837533824"},"vehicle_type_id":"4","last_reported":1762164827,"current_range_meters":16800,"station_id":"ce4bhnh2rcd13ifvqgug","pricing_plan_id":"cebpf4jnsgd1na2vs0mg"},{"bike_id":"bb335a03-7df2-4888-8b52-a5b22bc811a1","system_id":"levelo_inurba_marseille","lat":43.32536,"lon":5.41428,"is_reserved":false,"is_disabled":false,"rental_uris":{"android":"levelo://app?vid=bb335a03-7df2-4888-8b52-a5b22bc811a1","ios":"levelo://app?vid=bb335a03-7df2-4888-8b52-a5b22bc811a1"},"vehicle_type_id":"4","last_reported":1762164827,"current_range_meters":16800,"station_id":"ce4bhq12rcd13ifvqhhg","pricing_plan_id":"cebpf4jnsgd1na2vs0mg"},{"bike_id":"37843105-62c4-4d82-bee6-44395fbbf429","system_id":"levelo_inurba_marseille","lat":43.24578,"lon":5.41639,"is_reserved":false,"is_disabled":false,"rental_uris":{"android":"levelo://app?vid=37843105-62c4-4d82-bee6-44395fbbf429","ios":"levelo://app?vid=37843105-62c4-4d82-bee6-44395fbbf429"},"vehicle_type_id":"4","last_reported":1762164827,"current_range_meters":16800,"station_id":"","pricing_plan_id":"cebpf4jnsgd1na2vs0mg"},{"bike_id":"51bf3cb7-470c-477e-9e73-8c565aae20cb","system_id":"levelo_inurba_marseille","lat":43.297408,"lon":5.426886,"is_reserved":false,"is_disabled":false,"rental_uris":{"android":"levelo://app?vid=51bf3cb7-470c-477e-9e73-8c565aae20cb","ios":"levelo://app?vid=51bf3cb7-470c-477e-9e73-8c565aae20cb"},"vehicle_type_id":"4","last_reported":1762164827,"current_range_meters":17200,"station_id":"","pricing_plan_id":"cebpf4jnsgd1na2vs0mg"},{"bike_id":"37be67f3-a4f7-4f90-8fef-488fdc4a9989","system_id":"levelo_inurba_marseille","lat":43.270591,"lon":5.402571,"is_reserved":false,"is_disabled":false,"rental_uris":{"android":"levelo://app?vid=37be67f3-a4f7-4f90-8fef-488fdc4a9989","ios":"levelo://app?vid=37be67f3-a4f7-4f90-8fef-488fdc4a9989"},"vehicle_type_id":"4","last_reported":1762164827,"current_range_meters":17200,"station_id":"ce4bhk92rcd13ifvqgc0","pricing_plan_id":"cebpf4jnsgd1na2vs0mg"},{"bike_id":"258d165a-449f-4925-b56e-beae8f481fb2","system_id":"levelo_inurba_marseille","lat":43.284004,"lon":5.349923,"is_reserved":false,"is_disabled":true,"rental_uris":{"android":"levelo://app?vid=258d165a-449f-4925-b56e-beae8f481fb2","ios":"levelo://app?vid=258d165a-449f-4925-b56e-beae8f481fb2"},"vehicle_type_id":"4","last_reported":1762164827,"current_range_meters":17200,"station_id":"","pricing_plan_id":"cebpf4jnsgd1na2vs0mg"},{"bike_id":"7b3ada81-0ff3-49e9-8471-eb10e4c9b7f2","system_id":"levelo_inurba_marseille","lat":43.290189,"lon":5.381331,"is_reserved":false,"is_disabled":true,"rental_uris":{"android":"levelo://app?vid=7b3ada81-0ff3-49e9-8471-eb10e4c9b7f2","ios":"levelo://app?vid=7b3ada81-0ff3-49e9-8471-eb10e4c9b7f2"},"vehicle_type_id":"4","last_reported":1762164827,"current_range_meters":17200,"station_id":"ce4bh4p2rcd13ifvqe1g","pricing_plan_id":"cebpf4jnsgd1na2vs0mg"},{"bike_id":"484598d9-3fc7-4dd6-8292-f3adcea97683","system_id":"levelo_inurba_marseille","lat":43.32364,"lon":5.36758,"is_reserved":false,"is_disabled":false,"rental_uris":{"android":"levelo://app?vid=484598d9-3fc7-4dd6-8292-f3adcea97683","ios":"levelo://app?vid=484598d9-3fc7-4dd6-8292-f3adcea97683"},"vehicle_type_id":"4","last_reported":1762164827,"current_range_meters":17200,"station_id":"ce4bhsh2rcd13ifvqi2g","pricing_plan_id":"cebpf4jnsgd1na2vs0mg"},{"bike_id":"f234ad47-0901-40bf-a06a-e46adc6b907e","system_id":"levelo_inurba_marseille","lat":43.23189,"lon":5.35549,"is_reserved":false,"is_disabled":false,"rental_uris":{"android":"levelo://app?vid=f234ad47-0901-40bf-a06a-e46adc6b907e","ios":"levelo://app?vid=f234ad47-0901-40bf-a06a-e46adc6b907e"},"vehicle_type_id":"4","last_reported":1762164827,"current_range_meters":17200,"station_id":"ce4bhu92rcd13ifvqi70","pricing_plan_id":"cebpf4jnsgd1na2vs0mg"},{"bike_id":"e894c9e8-7f1e-4e5b-850e-008cc5de5e6e","system_id":"levelo_inurba_marseille","lat":43.23155,"lon":5.43702,"is_reserved":false,"is_disabled":false,"rental_uris":{"android":"levelo://app?vid=e894c9e8-7f1e-4e5b-850e-008cc5de5e6e","ios":"levelo://app?vid=e894c9e8-7f1e-4e5b-850e-008cc5de5e6e"},"vehicle_type_id":"4","last_reported":1762164827,"current_range_meters":17200,"station_id":"ce4bhmp2rcd13ifvqgog","pricing_plan_id":"cebpf4jnsgd1na2vs0mg"},{"bike_id":"7ee96323-da9c-4c60-bbe4-d1054018acab","system_id":"levelo_inurba_marseille","lat":43.305481,"lon":5.367102,"is_reserved":false,"is_disabled":false,"rental_uris":{"android":"levelo://app?vid=7ee96323-da9c-4c60-bbe4-d1054018acab","ios":"levelo://app?vid=7ee96323-da9c-4c60-bbe4-d1054018acab"},"vehicle_type_id":"4","last_reported":1762164827,"current_range_meters":17200,"station_id":"ce4bgrp2rcd13ifvqc9g","pricing_plan_id":"cebpf4jnsgd1na2vs0mg"},{"bike_id":"35d638e5-e289-4767-93f6-59d2ea427782","system_id":"levelo_inurba_marseille","lat":43.33605,"lon":5.41033,"is_reserved":false,"is_disabled":false,"rental_uris":{"android":"levelo://app?vid=35d638e5-e289-4767-93f6-59d2ea427782","ios":"levelo://app?vid=35d638e5-e289-4767-93f6-59d2ea427782"},"vehicle_type_id":"4","last_reported":1762164827,"current_range_meters":17200,"station_id":"ce4bhqh2rcd13ifvqhmg","pricing_plan_id":"cebpf4jnsgd1na2vs0mg"},{"bike_id":"6bea32a2-9164-4df3-9a46-0d547e21d3c1","system_id":"levelo_inurba_marseille","lat":43.29566,"lon":5.37476,"is_reserved":false,"is_disabled":false,"rental_uris":{"android":"levelo://app?vid=6bea32a2-9164-4df3-9a46-0d547e21d3c1","ios":"levelo://app?vid=6bea32a2-9164-4df3-9a46-0d547e21d3c1"},"vehicle_type_id":"4","last_reported":1762164827,"current_range_meters":17600,"station_id":"ce4bgh92rcd13ifvqb50","pricing_plan_id":"cebpf4jnsgd1na2vs0mg"},{"bike_id":"594dbb71-1dd5-4bbb-93ca-f919e2f0c097","system_id":"levelo_inurba_marseille","lat":43.231542,"lon":5.43711,"is_reserved":false,"is_disabled":false,"rental_uris":{"android":"levelo://app?vid=594dbb71-1dd5-4bbb-93ca-f919e2f0c097","ios":"levelo://app?vid=594dbb71-1dd5-4bbb-93ca-f919e2f0c097"},"vehicle_type_id":"4","last_reported":1762164827,"current_range_meters":17600,"station_id":"ce4bhmp2rcd13ifvqgog","pricing_plan_id":"cebpf4jnsgd1na2vs0mg"},{"bike_id":"e7082184-bbd2-4e79-aba1-51e0892249ea","system_id":"levelo_inurba_marseille","lat":43.27074,"lon":5.42266,"is_reserved":false,"is_disabled":false,"rental_uris":{"android":"levelo://app?vid=e7082184-bbd2-4e79-aba1-51e0892249ea","ios":"levelo://app?vid=e7082184-bbd2-4e79-aba1-51e0892249ea"},"vehicle_type_id":"4","last_reported":1762164827,"current_range_meters":17600,"station_id":"ce4bhk92rcd13ifvqgb0","pricing_plan_id":"cebpf4jnsgd1na2vs0mg"},{"bike_id":"f10c1fd0-819c-4bcb-a779-837cb537741a","system_id":"levelo_inurba_marseille","lat":43.29452,"lon":5.37408,"is_reserved":false,"is_disabled":false,"rental_uris":{"android":"levelo://app?vid=f10c1fd0-819c-4bcb-a779-837cb537741a","ios":"levelo://app?vid=f10c1fd0-819c-4bcb-a779-837cb537741a"},"vehicle_type_id":"4","last_reported":1762164827,"current_range_meters":17600,"station_id":"","pricing_plan_id":"cebpf4jnsgd1na2vs0mg"},{"bike_id":"9c182b54-339d-4510-b32d-4fa9957bf129","system_id":"levelo_inurba_marseille","lat":43.24077,"lon":5.37761,"is_reserved":false,"is_disabled":false,"rental_uris":{"android":"levelo://app?vid=9c182b54-339d-4510-b32d-4fa9957bf129","ios":"levelo://app?vid=9c182b54-339d-4510-b32d-4fa9957bf129"},"vehicle_type_id":"4","last_reported":1762164827,"current_range_meters":17600,"station_id":"ce4bhnp2rcd13ifvqgvg","pricing_plan_id":"cebpf4jnsgd1na2vs0mg"},{"bike_id":"4574a3f2-6659-4a8c-b290-e953b53739fd","system_id":"levelo_inurba_marseille","lat":43.27959,"lon":5.38739,"is_reserved":false,"is_disabled":false,"rental_uris":{"android":"levelo://app?vid=4574a3f2-6659-4a8c-b290-e953b53739fd","ios":"levelo://app?vid=4574a3f2-6659-4a8c-b290-e953b53739fd"},"vehicle_type_id":"4","last_reported":1762164827,"current_range_meters":17600,"station_id":"ce4bhg12rcd13ifvqf80","pricing_plan_id":"cebpf4jnsgd1na2vs0mg"},{"bike_id":"deced319-b4d4-49f8-b7e3-c2fe947e9551","system_id":"levelo_inurba_marseille","lat":43.31228,"lon":5.36856,"is_reserved":false,"is_disabled":false,"rental_uris":{"android":"levelo://app?vid=deced319-b4d4-49f8-b7e3-c2fe947e9551","ios":"levelo://app?vid=deced319-b4d4-49f8-b7e3-c2fe947e9551"},"vehicle_type_id":"4","last_reported":1762164827,"current_range_meters":18000,"station_id":"ce4bgl92rcd13ifvqbq0","pricing_plan_id":"cebpf4jnsgd1na2vs0mg"},{"bike_id":"20e70bf0-b6e6-4e7a-add8-8e0c8d57fdb0","system_id":"levelo_inurba_marseille","lat":43.24745,"lon":5.40682,"is_reserved":false,"is_disabled":false,"rental_uris":{"android":"levelo://app?vid=20e70bf0-b6e6-4e7a-add8-8e0c8d57fdb0","ios":"levelo://app?vid=20e70bf0-b6e6-4e7a-add8-8e0c8d57fdb0"},"vehicle_type_id":"4","last_reported":1762164827,"current_range_meters":18000,"station_id":"","pricing_plan_id":"cebpf4jnsgd1na2vs0mg"},{"bike_id":"9aa8e647-5d35-4da4-a0d7-9280e13a02c7","system_id":"levelo_inurba_marseille","lat":43.281483,"lon":5.426507,"is_reserved":false,"is_disabled":false,"rental_uris":{"android":"levelo://app?vid=9aa8e647-5d35-4da4-a0d7-9280e13a02c7","ios":"levelo://app?vid=9aa8e647-5d35-4da4-a0d7-9280e13a02c7"},"vehicle_type_id":"4","last_reported":1762164827,"current_range_meters":18000,"station_id":"ce4bhnh2rcd13ifvqgug","pricing_plan_id":"cebpf4jnsgd1na2vs0mg"},{"bike_id":"e63cb36e-d726-47ba-9669-f6bfde566583","system_id":"levelo_inurba_marseille","lat":43.27992,"lon":5.40025,"is_reserved":false,"is_disabled":false,"rental_uris":{"android":"levelo://app?vid=e63cb36e-d726-47ba-9669-f6bfde566583","ios":"levelo://app?vid=e63cb36e-d726-47ba-9669-f6bfde566583"},"vehicle_type_id":"4","last_reported":1762164827,"current_range_meters":18000,"station_id":"ce4bho92rcd13ifvqh4g","pricing_plan_id":"cebpf4jnsgd1na2vs0mg"},{"bike_id":"c2355dc4-632d-4ba0-8bc2-f0457cf83d4c","system_id":"levelo_inurba_marseille","lat":43.292278,"lon":5.360552,"is_reserved":false,"is_disabled":false,"rental_uris":{"android":"levelo://app?vid=c2355dc4-632d-4ba0-8bc2-f0457cf83d4c","ios":"levelo://app?vid=c2355dc4-632d-4ba0-8bc2-f0457cf83d4c"},"vehicle_type_id":"4","last_reported":1762164827,"current_range_meters":18000,"station_id":"","pricing_plan_id":"cebpf4jnsgd1na2vs0mg"},{"bike_id":"21dc7a1f-86e9-41d9-831f-a41099086a6a","system_id":"levelo_inurba_marseille","lat":43.232386,"lon":5.436016,"is_reserved":false,"is_disabled":false,"rental_uris":{"android":"levelo://app?vid=21dc7a1f-86e9-41d9-831f-a41099086a6a","ios":"levelo://app?vid=21dc7a1f-86e9-41d9-831f-a41099086a6a"},"vehicle_type_id":"4","last_reported":1762164827,"current_range_meters":18000,"station_id":"","pricing_plan_id":"cebpf4jnsgd1na2vs0mg"},{"bike_id":"8a55456c-f67d-4191-b598-f80968fbbe70","system_id":"levelo_inurba_marseille","lat":43.3088,"lon":5.39632,"is_reserved":false,"is_disabled":false,"rental_uris":{"android":"levelo://app?vid=8a55456c-f67d-4191-b598-f80968fbbe70","ios":"levelo://app?vid=8a55456c-f67d-4191-b598-f80968fbbe70"},"vehicle_type_id":"4","last_reported":1762164827,"current_range_meters":18000,"station_id":"ce4bh012rcd13ifvqcv0","pricing_plan_id":"cebpf4jnsgd1na2vs0mg"},{"bike_id":"9c6ca871-f5b0-414f-a25e-0027df3ab686","system_id":"levelo_inurba_marseille","lat":43.246469,"lon":5.431224,"is_reserved":false,"is_disabled":false,"rental_uris":{"android":"levelo://app?vid=9c6ca871-f5b0-414f-a25e-0027df3ab686","ios":"levelo://app?vid=9c6ca871-f5b0-414f-a25e-0027df3ab686"},"vehicle_type_id":"4","last_reported":1762164827,"current_range_meters":18000,"station_id":"st_d2m6c4gdas8pm72e190g","pricing_plan_id":"cebpf4jnsgd1na2vs0mg"},{"bike_id":"148f9c44-752a-403d-af38-8ba0f0a9445a","system_id":"levelo_inurba_marseille","lat":43.31224,"lon":5.36864,"is_reserved":false,"is_disabled":false,"rental_uris":{"android":"levelo://app?vid=148f9c44-752a-403d-af38-8ba0f0a9445a","ios":"levelo://app?vid=148f9c44-752a-403d-af38-8ba0f0a9445a"},"vehicle_type_id":"4","last_reported":1762164827,"current_range_meters":18000,"station_id":"ce4bgl92rcd13ifvqbq0","pricing_plan_id":"cebpf4jnsgd1na2vs0mg"},{"bike_id":"7047db8e-fbeb-4a57-8651-83ac429dbc8e","system_id":"levelo_inurba_marseille","lat":43.25931,"lon":5.40898,"is_reserved":false,"is_disabled":false,"rental_uris":{"android":"levelo://app?vid=7047db8e-fbeb-4a57-8651-83ac429dbc8e","ios":"levelo://app?vid=7047db8e-fbeb-4a57-8651-83ac429dbc8e"},"vehicle_type_id":"4","last_reported":1762164827,"current_range_meters":18000,"station_id":"ce4bhm92rcd13ifvqglg","pricing_plan_id":"cebpf4jnsgd1na2vs0mg"},{"bike_id":"6bc3a254-e7b1-4b29-b647-cc9e2c56fa32","system_id":"levelo_inurba_marseille","lat":43.29843,"lon":5.36277,"is_reserved":false,"is_disabled":false,"rental_uris":{"android":"levelo://app?vid=6bc3a254-e7b1-4b29-b647-cc9e2c56fa32","ios":"levelo://app?vid=6bc3a254-e7b1-4b29-b647-cc9e2c56fa32"},"vehicle_type_id":"4","last_reported":1762164827,"current_range_meters":18800,"station_id":"ce4bgpp2rcd13ifvqc3g","pricing_plan_id":"cebpf4jnsgd1na2vs0mg"},{"bike_id":"27ccecc2-04fe-4328-a03e-09458d1cfc0d","system_id":"levelo_inurba_marseille","lat":43.265767,"lon":5.390157,"is_reserved":false,"is_disabled":false,"rental_uris":{"android":"levelo://app?vid=27ccecc2-04fe-4328-a03e-09458d1cfc0d","ios":"levelo://app?vid=27ccecc2-04fe-4328-a03e-09458d1cfc0d"},"vehicle_type_id":"4","last_reported":1762164827,"current_range_meters":18800,"station_id":"ce4bhe12rcd13ifvqf30","pricing_plan_id":"cebpf4jnsgd1na2vs0mg"},{"bike_id":"b792aa60-3e96-4534-bbc2-bcb4007102ba","system_id":"levelo_inurba_marseille","lat":43.232538,"lon":5.35884,"is_reserved":false,"is_disabled":false,"rental_uris":{"android":"levelo://app?vid=b792aa60-3e96-4534-bbc2-bcb4007102ba","ios":"levelo://app?vid=b792aa60-3e96-4534-bbc2-bcb4007102ba"},"vehicle_type_id":"4","last_reported":1762164827,"current_range_meters":18800,"station_id":"","pricing_plan_id":"cebpf4jnsgd1na2vs0mg"},{"bike_id":"2027ca7f-2d34-4bbf-9ad0-ab60b2ac1397","system_id":"levelo_inurba_marseille","lat":43.23145,"lon":5.43703,"is_reserved":false,"is_disabled":false,"rental_uris":{"android":"levelo://app?vid=2027ca7f-2d34-4bbf-9ad0-ab60b2ac1397","ios":"levelo://app?vid=2027ca7f-2d34-4bbf-9ad0-ab60b2ac1397"},"vehicle_type_id":"4","last_reported":1762164827,"current_range_meters":18800,"station_id":"ce4bhmp2rcd13ifvqgog","pricing_plan_id":"cebpf4jnsgd1na2vs0mg"},{"bike_id":"e3b21cd4-4b51-47a5-a49c-78c85c27336d","system_id":"levelo_inurba_marseille","lat":43.25928,"lon":5.40879,"is_reserved":false,"is_disabled":false,"rental_uris":{"android":"levelo://app?vid=e3b21cd4-4b51-47a5-a49c-78c85c27336d","ios":"levelo://app?vid=e3b21cd4-4b51-47a5-a49c-78c85c27336d"},"vehicle_type_id":"4","last_reported":1762164827,"current_range_meters":18800,"station_id":"ce4bhm92rcd13ifvqglg","pricing_plan_id":"cebpf4jnsgd1na2vs0mg"},{"bike_id":"5d7dff95-44a1-4820-98fe-0c85cbe8d145","system_id":"levelo_inurba_marseille","lat":43.26776,"lon":5.39417,"is_reserved":false,"is_disabled":false,"rental_uris":{"android":"levelo://app?vid=5d7dff95-44a1-4820-98fe-0c85cbe8d145","ios":"levelo://app?vid=5d7dff95-44a1-4820-98fe-0c85cbe8d145"},"vehicle_type_id":"4","last_reported":1762164827,"current_range_meters":18800,"station_id":"ce4bhh12rcd13ifvqfg0","pricing_plan_id":"cebpf4jnsgd1na2vs0mg"},{"bike_id":"081dfc20-5d7e-46e3-ad7b-ad81f6f0472e","system_id":"levelo_inurba_marseille","lat":43.233414,"lon":5.357905,"is_reserved":false,"is_disabled":false,"rental_uris":{"android":"levelo://app?vid=081dfc20-5d7e-46e3-ad7b-ad81f6f0472e","ios":"levelo://app?vid=081dfc20-5d7e-46e3-ad7b-ad81f6f0472e"},"vehicle_type_id":"4","last_reported":1762164827,"current_range_meters":18800,"station_id":"ce4bhu92rcd13ifvqi70","pricing_plan_id":"cebpf4jnsgd1na2vs0mg"},{"bike_id":"744c9faa-d6dc-43e3-a36e-112e67c000d1","system_id":"levelo_inurba_marseille","lat":43.25714,"lon":5.41109,"is_reserved":false,"is_disabled":false,"rental_uris":{"android":"levelo://app?vid=744c9faa-d6dc-43e3-a36e-112e67c000d1","ios":"levelo://app?vid=744c9faa-d6dc-43e3-a36e-112e67c000d1"},"vehicle_type_id":"4","last_reported":1762164827,"current_range_meters":18800,"station_id":"ce4bhkp2rcd13ifvqgd0","pricing_plan_id":"cebpf4jnsgd1na2vs0mg"},{"bike_id":"c2c41c56-053c-4889-88df-57fa33106c1d","system_id":"levelo_inurba_marseille","lat":43.307807,"lon":5.405363,"is_reserved":false,"is_disabled":false,"rental_uris":{"android":"levelo://app?vid=c2c41c56-053c-4889-88df-57fa33106c1d","ios":"levelo://app?vid=c2c41c56-053c-4889-88df-57fa33106c1d"},"vehicle_type_id":"4","last_reported":1762164827,"current_range_meters":18800,"station_id":"","pricing_plan_id":"cebpf4jnsgd1na2vs0mg"},{"bike_id":"79421745-6788-40b1-b05c-8dad3260166c","system_id":"levelo_inurba_marseille","lat":43.28424,"lon":5.34978,"is_reserved":false,"is_disabled":true,"rental_uris":{"android":"levelo://app?vid=79421745-6788-40b1-b05c-8dad3260166c","ios":"levelo://app?vid=79421745-6788-40b1-b05c-8dad3260166c"},"vehicle_type_id":"4","last_reported":1762164827,"current_range_meters":18800,"station_id":"ce4bhbh2rcd13ifvqepg","pricing_plan_id":"cebpf4jnsgd1na2vs0mg"},{"bike_id":"8ccdfd4d-00dc-4449-a73f-372c06c41a1f","system_id":"levelo_inurba_marseille","lat":43.23148,"lon":5.43702,"is_reserved":false,"is_disabled":false,"rental_uris":{"android":"levelo://app?vid=8ccdfd4d-00dc-4449-a73f-372c06c41a1f","ios":"levelo://app?vid=8ccdfd4d-00dc-4449-a73f-372c06c41a1f"},"vehicle_type_id":"4","last_reported":1762164827,"current_range_meters":18800,"station_id":"ce4bhmp2rcd13ifvqgog","pricing_plan_id":"cebpf4jnsgd1na2vs0mg"},{"bike_id":"aa57417c-8bed-4ac9-901e-05a2c4cc9773","system_id":"levelo_inurba_marseille","lat":43.246433,"lon":5.431329,"is_reserved":false,"is_disabled":false,"rental_uris":{"android":"levelo://app?vid=aa57417c-8bed-4ac9-901e-05a2c4cc9773","ios":"levelo://app?vid=aa57417c-8bed-4ac9-901e-05a2c4cc9773"},"vehicle_type_id":"4","last_reported":1762164827,"current_range_meters":19200,"station_id":"st_d2m6c4gdas8pm72e190g","pricing_plan_id":"cebpf4jnsgd1na2vs0mg"},{"bike_id":"c915b1c5-f9ec-4989-8feb-44cc55af4282","system_id":"levelo_inurba_marseille","lat":43.292583,"lon":5.40096,"is_reserved":false,"is_disabled":false,"rental_uris":{"android":"levelo://app?vid=c915b1c5-f9ec-4989-8feb-44cc55af4282","ios":"levelo://app?vid=c915b1c5-f9ec-4989-8feb-44cc55af4282"},"vehicle_type_id":"4","last_reported":1762164827,"current_range_meters":19200,"station_id":"ce4bgj92rcd13ifvqbd0","pricing_plan_id":"cebpf4jnsgd1na2vs0mg"},{"bike_id":"9d0cc32d-6d7a-418a-b997-4f922b3d17f7","system_id":"levelo_inurba_marseille","lat":43.29779,"lon":5.43801,"is_reserved":false,"is_disabled":false,"rental_uris":{"android":"levelo://app?vid=9d0cc32d-6d7a-418a-b997-4f922b3d17f7","ios":"levelo://app?vid=9d0cc32d-6d7a-418a-b997-4f922b3d17f7"},"vehicle_type_id":"4","last_reported":1762164827,"current_range_meters":19200,"station_id":"","pricing_plan_id":"cebpf4jnsgd1na2vs0mg"},{"bike_id":"14b85bc8-e0c7-4f84-9243-26bd3bb154c0","system_id":"levelo_inurba_marseille","lat":43.31158,"lon":5.39331,"is_reserved":false,"is_disabled":false,"rental_uris":{"android":"levelo://app?vid=14b85bc8-e0c7-4f84-9243-26bd3bb154c0","ios":"levelo://app?vid=14b85bc8-e0c7-4f84-9243-26bd3bb154c0"},"vehicle_type_id":"4","last_reported":1762164827,"current_range_meters":19200,"station_id":"","pricing_plan_id":"cebpf4jnsgd1na2vs0mg"},{"bike_id":"d5ec298f-79e0-49e6-bf2b-2465a990ce9b","system_id":"levelo_inurba_marseille","lat":43.29968,"lon":5.37168,"is_reserved":false,"is_disabled":false,"rental_uris":{"android":"levelo://app?vid=d5ec298f-79e0-49e6-bf2b-2465a990ce9b","ios":"levelo://app?vid=d5ec298f-79e0-49e6-bf2b-2465a990ce9b"},"vehicle_type_id":"4","last_reported":1762164827,"current_range_meters":19200,"station_id":"ce4bgr92rcd13ifvqc7g","pricing_plan_id":"cebpf4jnsgd1na2vs0mg"},{"bike_id":"a038b67a-aea2-4785-ad1c-a27dcc34aee4","system_id":"levelo_inurba_marseille","lat":43.305498,"lon":5.367349,"is_reserved":false,"is_disabled":false,"rental_uris":{"android":"levelo://app?vid=a038b67a-aea2-4785-ad1c-a27dcc34aee4","ios":"levelo://app?vid=a038b67a-aea2-4785-ad1c-a27dcc34aee4"},"vehicle_type_id":"4","last_reported":1762164827,"current_range_meters":19200,"station_id":"ce4bgrp2rcd13ifvqc9g","pricing_plan_id":"cebpf4jnsgd1na2vs0mg"},{"bike_id":"f8a00c60-56bb-47f7-ad0c-170f2e65ebf8","system_id":"levelo_inurba_marseille","lat":43.23968,"lon":5.36605,"is_reserved":false,"is_disabled":false,"rental_uris":{"android":"levelo://app?vid=f8a00c60-56bb-47f7-ad0c-170f2e65ebf8","ios":"levelo://app?vid=f8a00c60-56bb-47f7-ad0c-170f2e65ebf8"},"vehicle_type_id":"4","last_reported":1762164827,"current_range_meters":19200,"station_id":"ce4bhi12rcd13ifvqfp0","pricing_plan_id":"cebpf4jnsgd1na2vs0mg"},{"bike_id":"b773bce2-368d-4ff9-99a2-fe4a03716bc0","system_id":"levelo_inurba_marseille","lat":43.320973,"lon":5.367836,"is_reserved":false,"is_disabled":false,"rental_uris":{"android":"levelo://app?vid=b773bce2-368d-4ff9-99a2-fe4a03716bc0","ios":"levelo://app?vid=b773bce2-368d-4ff9-99a2-fe4a03716bc0"},"vehicle_type_id":"4","last_reported":1762164827,"current_range_meters":19200,"station_id":"ce4bhrh2rcd13ifvqhug","pricing_plan_id":"cebpf4jnsgd1na2vs0mg"},{"bike_id":"7b5c65e5-814e-407e-a671-737778f7a4af","system_id":"levelo_inurba_marseille","lat":43.28104,"lon":5.37842,"is_reserved":false,"is_disabled":false,"rental_uris":{"android":"levelo://app?vid=7b5c65e5-814e-407e-a671-737778f7a4af","ios":"levelo://app?vid=7b5c65e5-814e-407e-a671-737778f7a4af"},"vehicle_type_id":"4","last_reported":1762164827,"current_range_meters":19200,"station_id":"ce4bha12rcd13ifvqee0","pricing_plan_id":"cebpf4jnsgd1na2vs0mg"},{"bike_id":"e61819c5-a8d4-4dc1-b7d4-b160073c646f","system_id":"levelo_inurba_marseille","lat":43.29563,"lon":5.42292,"is_reserved":false,"is_disabled":false,"rental_uris":{"android":"levelo://app?vid=e61819c5-a8d4-4dc1-b7d4-b160073c646f","ios":"levelo://app?vid=e61819c5-a8d4-4dc1-b7d4-b160073c646f"},"vehicle_type_id":"4","last_reported":1762164827,"current_range_meters":19200,"station_id":"ce4bhph2rcd13ifvqhdg","pricing_plan_id":"cebpf4jnsgd1na2vs0mg"},{"bike_id":"169ca636-fb32-4fc5-b852-874228274473","system_id":"levelo_inurba_marseille","lat":43.3415,"lon":5.40904,"is_reserved":false,"is_disabled":false,"rental_uris":{"android":"levelo://app?vid=169ca636-fb32-4fc5-b852-874228274473","ios":"levelo://app?vid=169ca636-fb32-4fc5-b852-874228274473"},"vehicle_type_id":"4","last_reported":1762164827,"current_range_meters":19600,"station_id":"ce4bhqh2rcd13ifvqhlg","pricing_plan_id":"cebpf4jnsgd1na2vs0mg"},{"bike_id":"166c7889-f492-4d1e-bf87-ca52d4c3a086","system_id":"levelo_inurba_marseille","lat":43.2463,"lon":5.43144,"is_reserved":false,"is_disabled":false,"rental_uris":{"android":"levelo://app?vid=166c7889-f492-4d1e-bf87-ca52d4c3a086","ios":"levelo://app?vid=166c7889-f492-4d1e-bf87-ca52d4c3a086"},"vehicle_type_id":"4","last_reported":1762164827,"current_range_meters":19600,"station_id":"st_d2m6c4gdas8pm72e190g","pricing_plan_id":"cebpf4jnsgd1na2vs0mg"},{"bike_id":"5a391d56-7858-4368-8402-4004e28b265f","system_id":"levelo_inurba_marseille","lat":43.26202,"lon":5.37928,"is_reserved":false,"is_disabled":false,"rental_uris":{"android":"levelo://app?vid=5a391d56-7858-4368-8402-4004e28b265f","ios":"levelo://app?vid=5a391d56-7858-4368-8402-4004e28b265f"},"vehicle_type_id":"4","last_reported":1762164827,"current_range_meters":19600,"station_id":"ce4bhjp2rcd13ifvqg90","pricing_plan_id":"cebpf4jnsgd1na2vs0mg"},{"bike_id":"5d17d995-8733-4614-b7a4-37078653d06e","system_id":"levelo_inurba_marseille","lat":43.27366,"lon":5.36252,"is_reserved":false,"is_disabled":false,"rental_uris":{"android":"levelo://app?vid=5d17d995-8733-4614-b7a4-37078653d06e","ios":"levelo://app?vid=5d17d995-8733-4614-b7a4-37078653d06e"},