{"last_updated":1739207271,"ttl":60,"version":"2.2","data":{"bikes":[{"bike_id":"5cda301b-bce8-41d3-abea-2e981f99524e","system_id":"levelo_inurba_marseille","lat":43.29851,"lon":5.36291,"is_reserved":false,"is_disabled":false,"rental_uris":{"android":"levelo://app?vid=5cda301b-bce8-41d3-abea-2e981f99524e","ios":"levelo://app?vid=5cda301b-bce8-41d3-abea-2e981f99524e"},"vehicle_type_id":"4","last_reported":1739207271,"current_range_meters":28800,"station_id":"ce4bgpp2rcd13ifvqc3g","pricing_plan_id":"cebpf4jnsgd1na2vs0mg"},{"bike_id":"4f7a648d-0884-4b7c-afa9-00d4603e5e75","system_id":"levelo_inurba_marseille","lat":43.3113,"lon":5.37761,"is_reserved":false,"is_disabled":false,"rental_uris":{"android":"levelo://app?vid=4f7a648d-0884-4b7c-afa9-00d4603e5e75","ios":"levelo://app?vid=4f7a648d-0884-4b7c-afa9-00d4603e5e75"},"vehicle_type_id":"4","last_reported":1739207271,"current_range_meters":38800,"station_id":"ce4bgt92rcd13ifvqcg0","pricing_plan_id":"cebpf4jnsgd1na2vs0mg"},{"bike_id":"e7d8ed8c-85a3-44c3-8805-56fbe310205d","system_id":"levelo_inurba_marseille","lat":43.28395,"lon":5.37544,"is_reserved":false,"is_disabled":false,"rental_uris":{"android":"levelo://app?vid=e7d8ed8c-85a3-44c3-8805-56fbe310205d","ios":"levelo://app?vid=e7d8ed8c-85a3-44c3-8805-56fbe310205d"},"vehicle_type_id":"4","last_reported":1739207271,"current_range_meters":38400,"station_id":"ce4bh412rcd13ifvqds0","pricing_plan_id":"cebpf4jnsgd1na2vs0mg"},{"bike_id":"b068362a-3288-489d-9388-78d1aec4149d","system_id":"levelo_inurba_marseille","lat":43.26559,"lon":5.38999,"is_reserved":false,"is_disabled":false,"rental_uris":{"android":"levelo://app?vid=b068362a-3288-489d-9388-78d1aec4149d","ios":"levelo://app?vid=b068362a-3288-489d-9388-78d1aec4149d"},"vehicle_type_id":"4","last_reported":1739207271,"current_range_meters":38800,"station_id":"ce4bhe12rcd13ifvqf30","pricing_plan_id":"cebpf4jnsgd1na2vs0mg"},{"bike_id":"2c79f386-0aff-4f60-b200-023bfcd6d056","system_id":"levelo_inurba_marseille","lat":43.29579,"lon":5.36742,"is_reserved":false,"is_disabled":false,"rental_uris":{"android":"levelo://app?vid=2c79f386-0aff-4f60-b200-023bfcd6d056","ios":"levelo://app?vid=2c79f386-0aff-4f60-b200-023bfcd6d056"},"vehicle_type_id":"4","last_reported":1739207271,"current_range_meters":36800,"station_id":"ce4bgph2rcd13ifvqc2g","pricing_plan_id":"cebpf4jnsgd1na2vs0mg"},{"bike_id":"a21045bb-249a-4fc3-a19a-0a39573fe339","system_id":"levelo_inurba_marseille","lat":43.28697,"lon":5.3999,"is_reserved":false,"is_disabled":false,"rental_uris":{"android":"levelo://app?vid=a21045bb-249a-4fc3-a19a-0a39573fe339","ios":"levelo://app?vid=a21045bb-249a-4fc3-a19a-0a39573fe339"},"vehicle_type_id":"4","last_reported":1739207271,"current_range_meters":9600,"station_id":"ce4bho92rcd13ifvqh3g","pricing_plan_id":"cebpf4jnsgd1na2vs0mg"},{"bike_id":"1e432c46-6902-4068-bc83-c8d18cce47cc","system_id":"levelo_inurba_marseille","lat":43.26062,"lon":5.39404,"is_reserved":false,"is_disabled":false,"rental_uris":{"android":"levelo://app?vid=1e432c46-6902-4068-bc83-c8d18cce47cc","ios":"levelo://app?vid=1e432c46-6902-4068-bc83-c8d18cce47cc"},"vehicle_type_id":"4","last_reported":1739207271,"current_range_meters":38800,"station_id":"ce4bhh92rcd13ifvqfj0","pricing_plan_id":"cebpf4jnsgd1na2vs0mg"},{"bike_id":"3887b386-3ca2-4422-b535-49b5419b189a","system_id":"levelo_inurba_marseille","lat":43.28355,"lon":5.38107,"is_reserved":false,"is_disabled":false,"rental_uris":{"android":"levelo://app?vid=3887b386-3ca2-4422-b535-49b5419b189a","ios":"levelo://app?vid=3887b386-3ca2-4422-b535-49b5419b189a"},"vehicle_type_id":"4","last_reported":1739207271,"current_range_meters":32400,"station_id":"ce4bh412rcd13ifvqdr0","pricing_plan_id":"cebpf4jnsgd1na2vs0mg"},{"bike_id":"cd43b8b3-9bce-4582-844f-517531c1058f","system_id":"levelo_inurba_marseille","lat":43.28263,"lon":5.38553,"is_reserved":false,"is_disabled":false,"rental_uris":{"android":"levelo://app?vid=cd43b8b3-9bce-4582-844f-517531c1058f","ios":"levelo://app?vid=cd43b8b3-9bce-4582-844f-517531c1058f"},"vehicle_type_id":"4","last_reported":1739207271,"current_range_meters":17200,"station_id":"","pricing_plan_id":"cebpf4jnsgd1na2vs0mg"},{"bike_id":"ff82ee3e-6927-4929-9ab9-69d9ba0b2981","system_id":"levelo_inurba_marseille","lat":43.27943,"lon":5.41038,"is_reserved":false,"is_disabled":true,"rental_uris":{"android":"levelo://app?vid=ff82ee3e-6927-4929-9ab9-69d9ba0b2981","ios":"levelo://app?vid=ff82ee3e-6927-4929-9ab9-69d9ba0b2981"},"vehicle_type_id":"4","last_reported":1739207271,"current_range_meters":0,"station_id":"ce4bhnp2rcd13ifvqh0g","pricing_plan_id":"cebpf4jnsgd1na2vs0mg"},{"bike_id":"acfa6e83-9dec-41be-a012-0d6b6130d9d9","system_id":"levelo_inurba_marseille","lat":43.31119,"lon":5.37772,"is_reserved":false,"is_disabled":false,"rental_uris":{"android":"levelo://app?vid=acfa6e83-9dec-41be-a012-0d6b6130d9d9","ios":"levelo://app?vid=acfa6e83-9dec-41be-a012-0d6b6130d9d9"},"vehicle_type_id":"4","last_reported":1739207271,"current_range_meters":34000,"station_id":"ce4bgt92rcd13ifvqcg0","pricing_plan_id":"cebpf4jnsgd1na2vs0mg"},{"bike_id":"098d23d3-b0ff-49f7-b274-3bf734d8b986","system_id":"levelo_inurba_marseille","lat":43.29299,"lon":5.37454,"is_reserved":false,"is_disabled":false,"rental_uris":{"android":"levelo://app?vid=098d23d3-b0ff-49f7-b274-3bf734d8b986","ios":"levelo://app?vid=098d23d3-b0ff-49f7-b274-3bf734d8b986"},"vehicle_type_id":"4","last_reported":1739207271,"current_range_meters":31200,"station_id":"ce4bgi12rcd13ifvqb70","pricing_plan_id":"cebpf4jnsgd1na2vs0mg"},{"bike_id":"6137e2b6-9f28-4b0a-8923-7198ab8d9ffc","system_id":"levelo_inurba_marseille","lat":43.29024,"lon":5.38641,"is_reserved":false,"is_disabled":false,"rental_uris":{"android":"levelo://app?vid=6137e2b6-9f28-4b0a-8923-7198ab8d9ffc","ios":"levelo://app?vid=6137e2b6-9f28-4b0a-8923-7198ab8d9ffc"},"vehicle_type_id":"4","last_reported":1739207271,"current_range_meters":17600,"station_id":"ce4bh4p2rcd13ifvqe0g","pricing_plan_id":"cebpf4jnsgd1na2vs0mg"},{"bike_id":"1bb66ead-99d8-459f-8b91-810ad3ce8223","system_id":"levelo_inurba_marseille","lat":43.31111,"lon":5.37765,"is_reserved":false,"is_disabled":false,"rental_uris":{"android":"levelo://app?vid=1bb66ead-99d8-459f-8b91-810ad3ce8223","ios":"levelo://app?vid=1bb66ead-99d8-459f-8b91-810ad3ce8223"},"vehicle_type_id":"4","last_reported":1739207271,"current_range_meters":10000,"station_id":"ce4bgt92rcd13ifvqcg0","pricing_plan_id":"cebpf4jnsgd1na2vs0mg"},{"bike_id":"783ee94b-6044-42f0-85b3-7d1aca1b3d61","system_id":"levelo_inurba_marseille","lat":43.29581,"lon":5.37517,"is_reserved":false,"is_disabled":true,"rental_uris":{"android":"levelo://app?vid=783ee94b-6044-42f0-85b3-7d1aca1b3d61","ios":"levelo://app?vid=783ee94b-6044-42f0-85b3-7d1aca1b3d61"},"vehicle_type_id":"4","last_reported":1739207271,"current_range_meters":23200,"station_id":"ce4bgh92rcd13ifvqb50","pricing_plan_id":"cebpf4jnsgd1na2vs0mg"},{"bike_id":"fc63d1c6-39db-42fc-a5f0-8ec761e9b064","system_id":"levelo_inurba_marseille","lat":43.31719,"lon":5.40478,"is_reserved":false,"is_disabled":false,"rental_uris":{"android":"levelo://app?vid=fc63d1c6-39db-42fc-a5f0-8ec761e9b064","ios":"levelo://app?vid=fc63d1c6-39db-42fc-a5f0-8ec761e9b064"},"vehicle_type_id":"4","last_reported":1739207271,"current_range_meters":38800,"station_id":"ce4bh012rcd13ifvqd00","pricing_plan_id":"cebpf4jnsgd1na2vs0mg"},{"bike_id":"4d204692-43d3-495c-b2d3-51ca2587e954","system_id":"levelo_inurba_marseille","lat":43.26936,"lon":5.40279,"is_reserved":false,"is_disabled":false,"rental_uris":{"android":"levelo://app?vid=4d204692-43d3-495c-b2d3-51ca2587e954","ios":"levelo://app?vid=4d204692-43d3-495c-b2d3-51ca2587e954"},"vehicle_type_id":"4","last_reported":1739207271,"current_range_meters":23200,"station_id":"cjm6bp8fraef2m0cb0m0","pricing_plan_id":"cebpf4jnsgd1na2vs0mg"},{"bike_id":"4fec62a4-5d14-461f-a07c-ceeb3a48fbed","system_id":"levelo_inurba_marseille","lat":43.31063,"lon":5.38368,"is_reserved":false,"is_disabled":false,"rental_uris":{"android":"levelo://app?vid=4fec62a4-5d14-461f-a07c-ceeb3a48fbed","ios":"levelo://app?vid=4fec62a4-5d14-461f-a07c-ceeb3a48fbed"},"vehicle_type_id":"4","last_reported":1739207271,"current_range_meters":38800,"station_id":"ce4bgv92rcd13ifvqcr0","pricing_plan_id":"cebpf4jnsgd1na2vs0mg"},{"bike_id":"7228a801-f264-46b9-8dc1-d5a8ed60c10b","system_id":"levelo_inurba_marseille","lat":43.29572,"lon":5.39971,"is_reserved":false,"is_disabled":false,"rental_uris":{"android":"levelo://app?vid=7228a801-f264-46b9-8dc1-d5a8ed60c10b","ios":"levelo://app?vid=7228a801-f264-46b9-8dc1-d5a8ed60c10b"},"vehicle_type_id":"4","last_reported":1739207271,"current_range_meters":19200,"station_id":"ce4bh312rcd13ifvqdj0","pricing_plan_id":"cebpf4jnsgd1na2vs0mg"},{"bike_id":"44976dab-4e89-4f2d-8a14-6c8c7d5e8913","system_id":"levelo_inurba_marseille","lat":43.28155,"lon":5.42663,"is_reserved":false,"is_disabled":false,"rental_uris":{"android":"levelo://app?vid=44976dab-4e89-4f2d-8a14-6c8c7d5e8913","ios":"levelo://app?vid=44976dab-4e89-4f2d-8a14-6c8c7d5e8913"},"vehicle_type_id":"4","last_reported":1739207271,"current_range_meters":38800,"station_id":"ce4bhnh2rcd13ifvqgug","pricing_plan_id":"cebpf4jnsgd1na2vs0mg"},{"bike_id":"111672d5-ab51-46ac-b98d-b7bc77f4bbf9","system_id":"levelo_inurba_marseille","lat":43.28179,"lon":5.40444,"is_reserved":false,"is_disabled":false,"rental_uris":{"android":"levelo://app?vid=111672d5-ab51-46ac-b98d-b7bc77f4bbf9","ios":"levelo://app?vid=111672d5-ab51-46ac-b98d-b7bc77f4bbf9"},"vehicle_type_id":"4","last_reported":1739207271,"current_range_meters":11200,"station_id":"ce4bho12rcd13ifvqh2g","pricing_plan_id":"cebpf4jnsgd1na2vs0mg"},{"bike_id":"8e7ce03c-394f-4066-aafd-5b16027f082f","system_id":"levelo_inurba_marseille","lat":43.28347,"lon":5.38108,"is_reserved":false,"is_disabled":false,"rental_uris":{"android":"levelo://app?vid=8e7ce03c-394f-4066-aafd-5b16027f082f","ios":"levelo://app?vid=8e7ce03c-394f-4066-aafd-5b16027f082f"},"vehicle_type_id":"4","last_reported":1739207271,"current_range_meters":38000,"station_id":"ce4bh412rcd13ifvqdr0","pricing_plan_id":"cebpf4jnsgd1na2vs0mg"},{"bike_id":"8fa465ec-101c-43a7-930c-1881514a84d9","system_id":"levelo_inurba_marseille","lat":43.26197,"lon":5.37453,"is_reserved":false,"is_disabled":true,"rental_uris":{"android":"levelo://app?vid=8fa465ec-101c-43a7-930c-1881514a84d9","ios":"levelo://app?vid=8fa465ec-101c-43a7-930c-1881514a84d9"},"vehicle_type_id":"4","last_reported":1739207271,"current_range_meters":1600,"station_id":"ce4bhgp2rcd13ifvqfc0","pricing_plan_id":"cebpf4jnsgd1na2vs0mg"},{"bike_id":"a5107f39-92f7-457a-abc6-ef1e21f23056","system_id":"levelo_inurba_marseille","lat":43.2619,"lon":5.37439,"is_reserved":false,"is_disabled":false,"rental_uris":{"android":"levelo://app?vid=a5107f39-92f7-457a-abc6-ef1e21f23056","ios":"levelo://app?vid=a5107f39-92f7-457a-abc6-ef1e21f23056"},"vehicle_type_id":"4","last_reported":1739207271,"current_range_meters":21600,"station_id":"ce4bhgp2rcd13ifvqfc0","pricing_plan_id":"cebpf4jnsgd1na2vs0mg"},{"bike_id":"6803ddfa-d502-42a2-ad93-8e0a9a783768","system_id":"levelo_inurba_marseille","lat":43.2603,"lon":5.37555,"is_reserved":false,"is_disabled":false,"rental_uris":{"android":"levelo://app?vid=6803ddfa-d502-42a2-ad93-8e0a9a783768","ios":"levelo://app?vid=6803ddfa-d502-42a2-ad93-8e0a9a783768"},"vehicle_type_id":"4","last_reported":1739207271,"current_range_meters":24400,"station_id":"ce4bhgh2rcd13ifvqfa0","pricing_plan_id":"cebpf4jnsgd1na2vs0mg"},{"bike_id":"ec577290-415e-4adf-bee8-70a702854fd7","system_id":"levelo_inurba_marseille","lat":43.28463,"lon":5.35882,"is_reserved":false,"is_disabled":false,"rental_uris":{"android":"levelo://app?vid=ec577290-415e-4adf-bee8-70a702854fd7","ios":"levelo://app?vid=ec577290-415e-4adf-bee8-70a702854fd7"},"vehicle_type_id":"4","last_reported":1739207271,"current_range_meters":38800,"station_id":"ce4bhah2rcd13ifvqei0","pricing_plan_id":"cebpf4jnsgd1na2vs0mg"},{"bike_id":"85c1c3b8-7af7-4c02-85b9-64f241166f0c","system_id":"levelo_inurba_marseille","lat":43.2572,"lon":5.41115,"is_reserved":false,"is_disabled":false,"rental_uris":{"android":"levelo://app?vid=85c1c3b8-7af7-4c02-85b9-64f241166f0c","ios":"levelo://app?vid=85c1c3b8-7af7-4c02-85b9-64f241166f0c"},"vehicle_type_id":"4","last_reported":1739207271,"current_range_meters":26800,"station_id":"ce4bhkp2rcd13ifvqgd0","pricing_plan_id":"cebpf4jnsgd1na2vs0mg"},{"bike_id":"a22080bf-acff-4e92-8754-12d2bb2dad68","system_id":"levelo_inurba_marseille","lat":43.28466,"lon":5.35887,"is_reserved":false,"is_disabled":false,"rental_uris":{"android":"levelo://app?vid=a22080bf-acff-4e92-8754-12d2bb2dad68","ios":"levelo://app?vid=a22080bf-acff-4e92-8754-12d2bb2dad68"},"vehicle_type_id":"4","last_reported":1739207271,"current_range_meters":28000,"station_id":"ce4bhah2rcd13ifvqei0","pricing_plan_id":"cebpf4jnsgd1na2vs0mg"},{"bike_id":"f798cbc4-a869-471f-bce8-f64397eebe81","system_id":"levelo_inurba_marseille","lat":43.23957,"lon":5.366278,"is_reserved":false,"is_disabled":false,"rental_uris":{"android":"levelo://app?vid=f798cbc4-a869-471f-bce8-f64397eebe81","ios":"levelo://app?vid=f798cbc4-a869-471f-bce8-f64397eebe81"},"vehicle_type_id":"4","last_reported":1739207271,"current_range_meters":25200,"station_id":"ce4bhi12rcd13ifvqfp0","pricing_plan_id":"cebpf4jnsgd1na2vs0mg"},{"bike_id":"b021e1a2-bb30-4956-b0f1-62e84c7a74e2","system_id":"levelo_inurba_marseille","lat":43.32358,"lon":5.36779,"is_reserved":false,"is_disabled":false,"rental_uris":{"android":"levelo://app?vid=b021e1a2-bb30-4956-b0f1-62e84c7a74e2","ios":"levelo://app?vid=b021e1a2-bb30-4956-b0f1-62e84c7a74e2"},"vehicle_type_id":"4","last_reported":1739207271,"current_range_meters":32000,"station_id":"ce4bhsh2rcd13ifvqi2g","pricing_plan_id":"cebpf4jnsgd1na2vs0mg"},{"bike_id":"54d63e68-b968-4dd7-9b72-70e4fcd836d3","system_id":"levelo_inurba_marseille","lat":43.28463,"lon":5.35886,"is_reserved":false,"is_disabled":false,"rental_uris":{"android":"levelo://app?vid=54d63e68-b968-4dd7-9b72-70e4fcd836d3","ios":"levelo://app?vid=54d63e68-b968-4dd7-9b72-70e4fcd836d3"},"vehicle_type_id":"4","last_reported":1739207271,"current_range_meters":29600,"station_id":"ce4bhah2rcd13ifvqei0","pricing_plan_id":"cebpf4jnsgd1na2vs0mg"},{"bike_id":"776c444e-ae69-4270-af0f-40003d483afe","system_id":"levelo_inurba_marseille","lat":43.23963,"lon":5.36643,"is_reserved":false,"is_disabled":false,"rental_uris":{"android":"levelo://app?vid=776c444e-ae69-4270-af0f-40003d483afe","ios":"levelo://app?vid=776c444e-ae69-4270-af0f-40003d483afe"},"vehicle_type_id":"4","last_reported":1739207271,"current_range_meters":37600,"station_id":"ce4bhi12rcd13ifvqfp0","pricing_plan_id":"cebpf4jnsgd1na2vs0mg"},{"bike_id":"e75d6c62-a45c-4b3f-9777-72b08f7b81f9","system_id":"levelo_inurba_marseille","lat":43.26922,"lon":5.38926,"is_reserved":false,"is_disabled":false,"rental_uris":{"android":"levelo://app?vid=e75d6c62-a45c-4b3f-9777-72b08f7b81f9","ios":"levelo://app?vid=e75d6c62-a45c-4b3f-9777-72b08f7b81f9"},"vehicle_type_id":"4","last_reported":1739207271,"current_range_meters":33600,"station_id":"ce4bhhh2rcd13ifvqfl0","pricing_plan_id":"cebpf4jnsgd1na2vs0mg"},{"bike_id":"f3bcba27-74ec-4bdf-ade8-289e62afd362","system_id":"levelo_inurba_marseille","lat":43.26055,"lon":5.394,"is_reserved":false,"is_disabled":false,"rental_uris":{"android":"levelo://app?vid=f3bcba27-74ec-4bdf-ade8-289e62afd362","ios":"levelo://app?vid=f3bcba27-74ec-4bdf-ade8-289e62afd362"},"vehicle_type_id":"4","last_reported":1739207271,"current_range_meters":24400,"station_id":"ce4bhh92rcd13ifvqfj0","pricing_plan_id":"cebpf4jnsgd1na2vs0mg"},{"bike_id":"bf8cd02e-ccdc-4523-894a-3fce83d782e3","system_id":"levelo_inurba_marseille","lat":43.33722,"lon":5.39185,"is_reserved":false,"is_disabled":false,"rental_uris":{"android":"levelo://app?vid=bf8cd02e-ccdc-4523-894a-3fce83d782e3","ios":"levelo://app?vid=bf8cd02e-ccdc-4523-894a-3fce83d782e3"},"vehicle_type_id":"4","last_reported":1739207271,"current_range_meters":37600,"station_id":"ce4bhr92rcd13ifvqhsg","pricing_plan_id":"cebpf4jnsgd1na2vs0mg"},{"bike_id":"737069c9-5ad2-47c2-9f67-1faa49c2861e","system_id":"levelo_inurba_marseille","lat":43.30419,"lon":5.39752,"is_reserved":false,"is_disabled":false,"rental_uris":{"android":"levelo://app?vid=737069c9-5ad2-47c2-9f67-1faa49c2861e","ios":"levelo://app?vid=737069c9-5ad2-47c2-9f67-1faa49c2861e"},"vehicle_type_id":"4","last_reported":1739207271,"current_range_meters":38800,"station_id":"ce4bh092rcd13ifvqd20","pricing_plan_id":"cebpf4jnsgd1na2vs0mg"},{"bike_id":"20ae166b-19b8-4e2c-8018-6388a5f6be55","system_id":"levelo_inurba_marseille","lat":43.29373,"lon":5.37869,"is_reserved":false,"is_disabled":false,"rental_uris":{"android":"levelo://app?vid=20ae166b-19b8-4e2c-8018-6388a5f6be55","ios":"levelo://app?vid=20ae166b-19b8-4e2c-8018-6388a5f6be55"},"vehicle_type_id":"4","last_reported":1739207271,"current_range_meters":36400,"station_id":"ce4bgjh2rcd13ifvqbf0","pricing_plan_id":"cebpf4jnsgd1na2vs0mg"},{"bike_id":"c93ba4b5-809f-42a1-951f-4f195f9c3735","system_id":"levelo_inurba_marseille","lat":43.29209,"lon":5.358,"is_reserved":false,"is_disabled":false,"rental_uris":{"android":"levelo://app?vid=c93ba4b5-809f-42a1-951f-4f195f9c3735","ios":"levelo://app?vid=c93ba4b5-809f-42a1-951f-4f195f9c3735"},"vehicle_type_id":"4","last_reported":1739207271,"current_range_meters":37600,"station_id":"ce4bhb12rcd13ifvqel0","pricing_plan_id":"cebpf4jnsgd1na2vs0mg"},{"bike_id":"3269462b-d1f8-4e6c-ad17-2a10a27bad7b","system_id":"levelo_inurba_marseille","lat":43.281,"lon":5.37847,"is_reserved":false,"is_disabled":false,"rental_uris":{"android":"levelo://app?vid=3269462b-d1f8-4e6c-ad17-2a10a27bad7b","ios":"levelo://app?vid=3269462b-d1f8-4e6c-ad17-2a10a27bad7b"},"vehicle_type_id":"4","last_reported":1739207271,"current_range_meters":28000,"station_id":"ce4bha12rcd13ifvqee0","pricing_plan_id":"cebpf4jnsgd1na2vs0mg"},{"bike_id":"3d775884-6b38-47ff-bdab-a7708da1a655","system_id":"levelo_inurba_marseille","lat":43.2618,"lon":5.37454,"is_reserved":false,"is_disabled":false,"rental_uris":{"android":"levelo://app?vid=3d775884-6b38-47ff-bdab-a7708da1a655","ios":"levelo://app?vid=3d775884-6b38-47ff-bdab-a7708da1a655"},"vehicle_type_id":"4","last_reported":1739207271,"current_range_meters":28800,"station_id":"ce4bhgp2rcd13ifvqfc0","pricing_plan_id":"cebpf4jnsgd1na2vs0mg"},{"bike_id":"f9ad69d8-d617-466c-97c4-c95fccc37994","system_id":"levelo_inurba_marseille","lat":43.28465,"lon":5.35888,"is_reserved":false,"is_disabled":false,"rental_uris":{"android":"levelo://app?vid=f9ad69d8-d617-466c-97c4-c95fccc37994","ios":"levelo://app?vid=f9ad69d8-d617-466c-97c4-c95fccc37994"},"vehicle_type_id":"4","last_reported":1739207271,"current_range_meters":20000,"station_id":"ce4bhah2rcd13ifvqei0","pricing_plan_id":"cebpf4jnsgd1na2vs0mg"},{"bike_id":"a1e1c154-9e5a-4afc-9a7e-cedaf38d9921","system_id":"levelo_inurba_marseille","lat":43.289995,"lon":5.356203,"is_reserved":false,"is_disabled":false,"rental_uris":{"android":"levelo://app?vid=a1e1c154-9e5a-4afc-9a7e-cedaf38d9921","ios":"levelo://app?vid=a1e1c154-9e5a-4afc-9a7e-cedaf38d9921"},"vehicle_type_id":"4","last_reported":1739207271,"current_range_meters":34000,"station_id":"ce4bhb92rcd13ifvqen0","pricing_plan_id":"cebpf4jnsgd1na2vs0mg"},{"bike_id":"726fb099-c3d7-4106-beb8-89951bfba46d","system_id":"levelo_inurba_marseille","lat":43.2957,"lon":5.37494,"is_reserved":false,"is_disabled":true,"rental_uris":{"android":"levelo://app?vid=726fb099-c3d7-4106-beb8-89951bfba46d","ios":"levelo://app?vid=726fb099-c3d7-4106-beb8-89951bfba46d"},"vehicle_type_id":"4","last_reported":1739207271,"current_range_meters":33600,"station_id":"ce4bgh92rcd13ifvqb50","pricing_plan_id":"cebpf4jnsgd1na2vs0mg"},{"bike_id":"bb1f3f31-bd4d-448a-aae7-6d6daf25599d","system_id":"levelo_inurba_marseille","lat":43.28933,"lon":5.38389,"is_reserved":false,"is_disabled":false,"rental_uris":{"android":"levelo://app?vid=bb1f3f31-bd4d-448a-aae7-6d6daf25599d","ios":"levelo://app?vid=bb1f3f31-bd4d-448a-aae7-6d6daf25599d"},"vehicle_type_id":"4","last_reported":1739207271,"current_range_meters":35600,"station_id":"ce4bh612rcd13ifvqe6g","pricing_plan_id":"cebpf4jnsgd1na2vs0mg"},{"bike_id":"0381de35-f333-4648-ac27-3a02f9943927","system_id":"levelo_inurba_marseille","lat":43.31124,"lon":5.37765,"is_reserved":false,"is_disabled":false,"rental_uris":{"android":"levelo://app?vid=0381de35-f333-4648-ac27-3a02f9943927","ios":"levelo://app?vid=0381de35-f333-4648-ac27-3a02f9943927"},"vehicle_type_id":"4","last_reported":1739207271,"current_range_meters":35600,"station_id":"ce4bgt92rcd13ifvqcg0","pricing_plan_id":"cebpf4jnsgd1na2vs0mg"},{"bike_id":"5728af05-01f3-4c14-afd6-c4ebe0f65611","system_id":"levelo_inurba_marseille","lat":43.24998,"lon":5.38931,"is_reserved":false,"is_disabled":false,"rental_uris":{"android":"levelo://app?vid=5728af05-01f3-4c14-afd6-c4ebe0f65611","ios":"levelo://app?vid=5728af05-01f3-4c14-afd6-c4ebe0f65611"},"vehicle_type_id":"4","last_reported":1739207271,"current_range_meters":8400,"station_id":"ce4bhgp2rcd13ifvqfd0","pricing_plan_id":"cebpf4jnsgd1na2vs0mg"},{"bike_id":"55fe04a7-d37a-4ee4-965a-2262a655cb55","system_id":"levelo_inurba_marseille","lat":43.23188,"lon":5.39993,"is_reserved":false,"is_disabled":false,"rental_uris":{"android":"levelo://app?vid=55fe04a7-d37a-4ee4-965a-2262a655cb55","ios":"levelo://app?vid=55fe04a7-d37a-4ee4-965a-2262a655cb55"},"vehicle_type_id":"4","last_reported":1739207271,"current_range_meters":38000,"station_id":"ce4bhn12rcd13ifvqgqg","pricing_plan_id":"cebpf4jnsgd1na2vs0mg"},{"bike_id":"3441c74a-282b-45aa-b329-9e43a88c8a80","system_id":"levelo_inurba_marseille","lat":43.24811,"lon":5.37459,"is_reserved":false,"is_disabled":false,"rental_uris":{"android":"levelo://app?vid=3441c74a-282b-45aa-b329-9e43a88c8a80","ios":"levelo://app?vid=3441c74a-282b-45aa-b329-9e43a88c8a80"},"vehicle_type_id":"4","last_reported":1739207271,"current_range_meters":19200,"station_id":"ce4bhgh2rcd13ifvqfb0","pricing_plan_id":"cebpf4jnsgd1na2vs0mg"},{"bike_id":"e00cd517-4a6d-40d8-b46e-27fb98e2bb39","system_id":"levelo_inurba_marseille","lat":43.28458,"lon":5.35902,"is_reserved":false,"is_disabled":false,"rental_uris":{"android":"levelo://app?vid=e00cd517-4a6d-40d8-b46e-27fb98e2bb39","ios":"levelo://app?vid=e00cd517-4a6d-40d8-b46e-27fb98e2bb39"},"vehicle_type_id":"4","last_reported":1739207271,"current_range_meters":38800,"station_id":"ce4bhah2rcd13ifvqei0","pricing_plan_id":"cebpf4jnsgd1na2vs0mg"},{"bike_id":"83c2ff06-608d-40a9-a7f8-39c1bf124d6e","system_id":"levelo_inurba_marseille","lat":43.30137,"lon":5.39852,"is_reserved":false,"is_disabled":false,"rental_uris":{"android":"levelo://app?vid=83c2ff06-608d-40a9-a7f8-39c1bf124d6e","ios":"levelo://app?vid=83c2ff06-608d-40a9-a7f8-39c1bf124d6e"},"vehicle_type_id":"4","last_reported":1739207271,"current_range_meters":21600,"station_id":"ce4bh0h2rcd13ifvqd40","pricing_plan_id":"cebpf4jnsgd1na2vs0mg"},{"bike_id":"3964663c-b0ef-4fd9-bca2-5e6eb580081e","system_id":"levelo_inurba_marseille","lat":43.2814,"lon":5.39888,"is_reserved":false,"is_disabled":false,"rental_uris":{"android":"levelo://app?vid=3964663c-b0ef-4fd9-bca2-5e6eb580081e","ios":"levelo://app?vid=3964663c-b0ef-4fd9-bca2-5e6eb580081e"},"vehicle_type_id":"4","last_reported":1739207271,"current_range_meters":19200,"station_id":"","pricing_plan_id":"cebpf4jnsgd1na2vs0mg"},{"bike_id":"8e2f681c-56b3-4dbe-acf6-d95949b97842","system_id":"levelo_inurba_marseille","lat":43.301561,"lon":5.380922,"is_reserved":false,"is_disabled":true,"rental_uris":{"android":"levelo://app?vid=8e2f681c-56b3-4dbe-acf6-d95949b97842","ios":"levelo://app?vid=8e2f681c-56b3-4dbe-acf6-d95949b97842"},"vehicle_type_id":"4","last_reported":1739207271,"current_range_meters":26000,"station_id":"","pricing_plan_id":"cebpf4jnsgd1na2vs0mg"},{"bike_id":"fa2aa83b-ea8e-4382-8883-daf1d30785d3","system_id":"levelo_inurba_marseille","lat":43.27075,"lon":5.42272,"is_reserved":false,"is_disabled":false,"rental_uris":{"android":"levelo://app?vid=fa2aa83b-ea8e-4382-8883-daf1d30785d3","ios":"levelo://app?vid=fa2aa83b-ea8e-4382-8883-daf1d30785d3"},"vehicle_type_id":"4","last_reported":1739207271,"current_range_meters":23200,"station_id":"ce4bhk92rcd13ifvqgb0","pricing_plan_id":"cebpf4jnsgd1na2vs0mg"},{"bike_id":"3c75fe6a-b20a-44a5-8fcb-40d1f88da82b","system_id":"levelo_inurba_marseille","lat":43.33022,"lon":5.39045,"is_reserved":false,"is_disabled":false,"rental_uris":{"android":"levelo://app?vid=3c75fe6a-b20a-44a5-8fcb-40d1f88da82b","ios":"levelo://app?vid=3c75fe6a-b20a-44a5-8fcb-40d1f88da82b"},"vehicle_type_id":"4","last_reported":1739207271,"current_range_meters":38800,"station_id":"ce4bhr92rcd13ifvqhrg","pricing_plan_id":"cebpf4jnsgd1na2vs0mg"},{"bike_id":"5a712f7b-faea-4b41-b7bd-078b067ddb56","system_id":"levelo_inurba_marseille","lat":43.25575,"lon":5.38237,"is_reserved":false,"is_disabled":true,"rental_uris":{"android":"levelo://app?vid=5a712f7b-faea-4b41-b7bd-078b067ddb56","ios":"levelo://app?vid=5a712f7b-faea-4b41-b7bd-078b067ddb56"},"vehicle_type_id":"4","last_reported":1739207271,"current_range_meters":32400,"station_id":"ce4bhih2rcd13ifvqfs0","pricing_plan_id":"cebpf4jnsgd1na2vs0mg"},{"bike_id":"b41d8475-1b61-4022-b648-2777adae10ea","system_id":"levelo_inurba_marseille","lat":43.24167,"lon":5.36395,"is_reserved":false,"is_disabled":false,"rental_uris":{"android":"levelo://app?vid=b41d8475-1b61-4022-b648-2777adae10ea","ios":"levelo://app?vid=b41d8475-1b61-4022-b648-2777adae10ea"},"vehicle_type_id":"4","last_reported":1739207271,"current_range_meters":28800,"station_id":"cpo36qri1sfpv3e86is0","pricing_plan_id":"cebpf4jnsgd1na2vs0mg"},{"bike_id":"797c91fd-a875-467b-999b-207e5af3706b","system_id":"levelo_inurba_marseille","lat":43.27906,"lon":5.380023,"is_reserved":false,"is_disabled":false,"rental_uris":{"android":"levelo://app?vid=797c91fd-a875-467b-999b-207e5af3706b","ios":"levelo://app?vid=797c91fd-a875-467b-999b-207e5af3706b"},"vehicle_type_id":"4","last_reported":1739207271,"current_range_meters":38400,"station_id":"ce4bhf92rcd13ifvqf50","pricing_plan_id":"cebpf4jnsgd1na2vs0mg"},{"bike_id":"fa1d3426-6924-4679-877d-315e8d2e7c0a","system_id":"levelo_inurba_marseille","lat":43.25119,"lon":5.4033,"is_reserved":false,"is_disabled":false,"rental_uris":{"android":"levelo://app?vid=fa1d3426-6924-4679-877d-315e8d2e7c0a","ios":"levelo://app?vid=fa1d3426-6924-4679-877d-315e8d2e7c0a"},"vehicle_type_id":"4","last_reported":1739207271,"current_range_meters":38800,"station_id":"ce4bhlh2rcd13ifvqgig","pricing_plan_id":"cebpf4jnsgd1na2vs0mg"},{"bike_id":"e5f8d77e-9dce-4d46-a39b-2d8058329c62","system_id":"levelo_inurba_marseille","lat":43.25871,"lon":5.39907,"is_reserved":false,"is_disabled":false,"rental_uris":{"android":"levelo://app?vid=e5f8d77e-9dce-4d46-a39b-2d8058329c62","ios":"levelo://app?vid=e5f8d77e-9dce-4d46-a39b-2d8058329c62"},"vehicle_type_id":"4","last_reported":1739207271,"current_range_meters":30000,"station_id":"ce4bhl92rcd13ifvqghg","pricing_plan_id":"cebpf4jnsgd1na2vs0mg"},{"bike_id":"4380d772-4a93-4e24-beaf-11c145e3a87e","system_id":"levelo_inurba_marseille","lat":43.26192,"lon":5.37456,"is_reserved":false,"is_disabled":false,"rental_uris":{"android":"levelo://app?vid=4380d772-4a93-4e24-beaf-11c145e3a87e","ios":"levelo://app?vid=4380d772-4a93-4e24-beaf-11c145e3a87e"},"vehicle_type_id":"4","last_reported":1739207271,"current_range_meters":6800,"station_id":"ce4bhgp2rcd13ifvqfc0","pricing_plan_id":"cebpf4jnsgd1na2vs0mg"},{"bike_id":"51ab7186-5043-4bed-baca-73708608a302","system_id":"levelo_inurba_marseille","lat":43.29584,"lon":5.37026,"is_reserved":false,"is_disabled":true,"rental_uris":{"android":"levelo://app?vid=51ab7186-5043-4bed-baca-73708608a302","ios":"levelo://app?vid=51ab7186-5043-4bed-baca-73708608a302"},"vehicle_type_id":"4","last_reported":1739207271,"current_range_meters":11200,"station_id":"","pricing_plan_id":"cebpf4jnsgd1na2vs0mg"},{"bike_id":"e2312f90-2e3a-4eb8-b45e-fec76ab24514","system_id":"levelo_inurba_marseille","lat":43.26948,"lon":5.38635,"is_reserved":false,"is_disabled":false,"rental_uris":{"android":"levelo://app?vid=e2312f90-2e3a-4eb8-b45e-fec76ab24514","ios":"levelo://app?vid=e2312f90-2e3a-4eb8-b45e-fec76ab24514"},"vehicle_type_id":"4","last_reported":1739207271,"current_range_meters":38800,"station_id":"ce4bhh92rcd13ifvqfh0","pricing_plan_id":"cebpf4jnsgd1na2vs0mg"},{"bike_id":"a8158c90-43cd-485b-b227-ab2c6a7833b6","system_id":"levelo_inurba_marseille","lat":43.2803,"lon":5.3694,"is_reserved":false,"is_disabled":false,"rental_uris":{"android":"levelo://app?vid=a8158c90-43cd-485b-b227-ab2c6a7833b6","ios":"levelo://app?vid=a8158c90-43cd-485b-b227-ab2c6a7833b6"},"vehicle_type_id":"4","last_reported":1739207271,"current_range_meters":32400,"station_id":"ce4bha12rcd13ifvqef0","pricing_plan_id":"cebpf4jnsgd1na2vs0mg"},{"bike_id":"0b2730f4-2761-48a6-b43d-961c9e696ec1","system_id":"levelo_inurba_marseille","lat":43.28465,"lon":5.3588,"is_reserved":false,"is_disabled":false,"rental_uris":{"android":"levelo://app?vid=0b2730f4-2761-48a6-b43d-961c9e696ec1","ios":"levelo://app?vid=0b2730f4-2761-48a6-b43d-961c9e696ec1"},"vehicle_type_id":"4","last_reported":1739207271,"current_range_meters":38800,"station_id":"ce4bhah2rcd13ifvqei0","pricing_plan_id":"cebpf4jnsgd1na2vs0mg"},{"bike_id":"e3eff0a8-f83f-48ba-b75d-0731d0172d6e","system_id":"levelo_inurba_marseille","lat":43.26828,"lon":5.40238,"is_reserved":false,"is_disabled":false,"rental_uris":{"android":"levelo://app?vid=e3eff0a8-f83f-48ba-b75d-0731d0172d6e","ios":"levelo://app?vid=e3eff0a8-f83f-48ba-b75d-0731d0172d6e"},"vehicle_type_id":"4","last_reported":1739207271,"current_range_meters":30800,"station_id":"ce501612rcd8frsf0b60","pricing_plan_id":"cebpf4jnsgd1na2vs0mg"},{"bike_id":"4b6e4a55-f3d4-49c1-a732-6d7559c99b7b","system_id":"levelo_inurba_marseille","lat":43.30465,"lon":5.37909,"is_reserved":false,"is_disabled":false,"rental_uris":{"android":"levelo://app?vid=4b6e4a55-f3d4-49c1-a732-6d7559c99b7b","ios":"levelo://app?vid=4b6e4a55-f3d4-49c1-a732-6d7559c99b7b"},"vehicle_type_id":"4","last_reported":1739207271,"current_range_meters":34800,"station_id":"ce4bgup2rcd13ifvqcn0","pricing_plan_id":"cebpf4jnsgd1na2vs0mg"},{"bike_id":"6a61494c-64e7-4150-8260-115f4cb420a4","system_id":"levelo_inurba_marseille","lat":43.29258,"lon":5.38446,"is_reserved":false,"is_disabled":false,"rental_uris":{"android":"levelo://app?vid=6a61494c-64e7-4150-8260-115f4cb420a4","ios":"levelo://app?vid=6a61494c-64e7-4150-8260-115f4cb420a4"},"vehicle_type_id":"4","last_reported":1739207271,"current_range_meters":12800,"station_id":"ce4bh692rcd13ifvqea0","pricing_plan_id":"cebpf4jnsgd1na2vs0mg"},{"bike_id":"0cdcc8f7-f674-43f1-9b73-0f1949650402","system_id":"levelo_inurba_marseille","lat":43.23962,"lon":5.36624,"is_reserved":false,"is_disabled":false,"rental_uris":{"android":"levelo://app?vid=0cdcc8f7-f674-43f1-9b73-0f1949650402","ios":"levelo://app?vid=0cdcc8f7-f674-43f1-9b73-0f1949650402"},"vehicle_type_id":"4","last_reported":1739207271,"current_range_meters":38000,"station_id":"ce4bhi12rcd13ifvqfp0","pricing_plan_id":"cebpf4jnsgd1na2vs0mg"},{"bike_id":"8f13d0cc-c30c-4f8f-a32a-c4d1fcac0b05","system_id":"levelo_inurba_marseille","lat":43.28108,"lon":5.37848,"is_reserved":false,"is_disabled":false,"rental_uris":{"android":"levelo://app?vid=8f13d0cc-c30c-4f8f-a32a-c4d1fcac0b05","ios":"levelo://app?vid=8f13d0cc-c30c-4f8f-a32a-c4d1fcac0b05"},"vehicle_type_id":"4","last_reported":1739207271,"current_range_meters":10800,"station_id":"ce4bha12rcd13ifvqee0","pricing_plan_id":"cebpf4jnsgd1na2vs0mg"},{"bike_id":"de77abfa-6f74-40e9-8131-b7884eda37eb","system_id":"levelo_inurba_marseille","lat":43.29942,"lon":5.39394,"is_reserved":false,"is_disabled":false,"rental_uris":{"android":"levelo://app?vid=de77abfa-6f74-40e9-8131-b7884eda37eb","ios":"levelo://app?vid=de77abfa-6f74-40e9-8131-b7884eda37eb"},"vehicle_type_id":"4","last_reported":1739207271,"current_range_meters":31200,"station_id":"","pricing_plan_id":"cebpf4jnsgd1na2vs0mg"},{"bike_id":"44dd6324-cf8b-4645-bc5d-6f2dbec52f2a","system_id":"levelo_inurba_marseille","lat":43.265656,"lon":5.390098,"is_reserved":false,"is_disabled":false,"rental_uris":{"android":"levelo://app?vid=44dd6324-cf8b-4645-bc5d-6f2dbec52f2a","ios":"levelo://app?vid=44dd6324-cf8b-4645-bc5d-6f2dbec52f2a"},"vehicle_type_id":"4","last_reported":1739207271,"current_range_meters":18800,"station_id":"ce4bhe12rcd13ifvqf30","pricing_plan_id":"cebpf4jnsgd1na2vs0mg"},{"bike_id":"ee079ffa-4416-4a91-bc98-3bd665acea3b","system_id":"levelo_inurba_marseille","lat":43.33725,"lon":5.39187,"is_reserved":false,"is_disabled":false,"rental_uris":{"android":"levelo://app?vid=ee079ffa-4416-4a91-bc98-3bd665acea3b","ios":"levelo://app?vid=ee079ffa-4416-4a91-bc98-3bd665acea3b"},"vehicle_type_id":"4","last_reported":1739207271,"current_range_meters":38800,"station_id":"ce4bhr92rcd13ifvqhsg","pricing_plan_id":"cebpf4jnsgd1na2vs0mg"},{"bike_id":"1fa82dc6-47d4-4356-bbca-393bf4461726","system_id":"levelo_inurba_marseille","lat":43.239601,"lon":5.366336,"is_reserved":false,"is_disabled":false,"rental_uris":{"android":"levelo://app?vid=1fa82dc6-47d4-4356-bbca-393bf4461726","ios":"levelo://app?vid=1fa82dc6-47d4-4356-bbca-393bf4461726"},"vehicle_type_id":"4","last_reported":1739207271,"current_range_meters":22800,"station_id":"ce4bhi12rcd13ifvqfp0","pricing_plan_id":"cebpf4jnsgd1na2vs0mg"},{"bike_id":"c6a4319f-5177-4e2c-a761-978445166b5f","system_id":"levelo_inurba_marseille","lat":43.29249,"lon":5.40892,"is_reserved":false,"is_disabled":false,"rental_uris":{"android":"levelo://app?vid=c6a4319f-5177-4e2c-a761-978445166b5f","ios":"levelo://app?vid=c6a4319f-5177-4e2c-a761-978445166b5f"},"vehicle_type_id":"4","last_reported":1739207271,"current_range_meters":19600,"station_id":"ce4bh192rcd13ifvqdc0","pricing_plan_id":"cebpf4jnsgd1na2vs0mg"},{"bike_id":"86dc9b09-86a3-4184-8d6a-458f0f38903d","system_id":"levelo_inurba_marseille","lat":43.29956,"lon":5.38502,"is_reserved":false,"is_disabled":false,"rental_uris":{"android":"levelo://app?vid=86dc9b09-86a3-4184-8d6a-458f0f38903d","ios":"levelo://app?vid=86dc9b09-86a3-4184-8d6a-458f0f38903d"},"vehicle_type_id":"4","last_reported":1739207271,"current_range_meters":39200,"station_id":"ce4bgj92rcd13ifvqbd0","pricing_plan_id":"cebpf4jnsgd1na2vs0mg"},{"bike_id":"a1d17c8b-232f-4d33-9b3f-abdb43c607e4","system_id":"levelo_inurba_marseille","lat":43.30102,"lon":5.39908,"is_reserved":false,"is_disabled":false,"rental_uris":{"android":"levelo://app?vid=a1d17c8b-232f-4d33-9b3f-abdb43c607e4","ios":"levelo://app?vid=a1d17c8b-232f-4d33-9b3f-abdb43c607e4"},"vehicle_type_id":"4","last_reported":1739207271,"current_range_meters":35600,"station_id":"ce4bh0h2rcd13ifvqd40","pricing_plan_id":"cebpf4jnsgd1na2vs0mg"},{"bike_id":"67c77a93-95e0-4dde-b030-1b6a0f65cf9a","system_id":"levelo_inurba_marseille","lat":43.27166,"lon":5.40997,"is_reserved":false,"is_disabled":false,"rental_uris":{"android":"levelo://app?vid=67c77a93-95e0-4dde-b030-1b6a0f65cf9a","ios":"levelo://app?vid=67c77a93-95e0-4dde-b030-1b6a0f65cf9a"},"vehicle_type_id":"4","last_reported":1739207271,"current_range_meters":12400,"station_id":"ce4bhl12rcd13ifvqgf0","pricing_plan_id":"cebpf4jnsgd1na2vs0mg"},{"bike_id":"d0d8ec2f-c95a-46f3-be60-0d8863b57c52","system_id":"levelo_inurba_marseille","lat":43.28347,"lon":5.38112,"is_reserved":false,"is_disabled":false,"rental_uris":{"android":"levelo://app?vid=d0d8ec2f-c95a-46f3-be60-0d8863b57c52","ios":"levelo://app?vid=d0d8ec2f-c95a-46f3-be60-0d8863b57c52"},"vehicle_type_id":"4","last_reported":1739207271,"current_range_meters":39200,"station_id":"ce4bh412rcd13ifvqdr0","pricing_plan_id":"cebpf4jnsgd1na2vs0mg"},{"bike_id":"86c28008-749a-4391-af36-70c52ad22b9a","system_id":"levelo_inurba_marseille","lat":43.27498,"lon":5.42452,"is_reserved":false,"is_disabled":false,"rental_uris":{"android":"levelo://app?vid=86c28008-749a-4391-af36-70c52ad22b9a","ios":"levelo://app?vid=86c28008-749a-4391-af36-70c52ad22b9a"},"vehicle_type_id":"4","last_reported":1739207271,"current_range_meters":38800,"station_id":"ce4bhn92rcd13ifvqgrg","pricing_plan_id":"cebpf4jnsgd1na2vs0mg"},{"bike_id":"f53564a4-cbf9-4b55-bb72-8eda8cad3a05","system_id":"levelo_inurba_marseille","lat":43.27074,"lon":5.42267,"is_reserved":false,"is_disabled":false,"rental_uris":{"android":"levelo://app?vid=f53564a4-cbf9-4b55-bb72-8eda8cad3a05","ios":"levelo://app?vid=f53564a4-cbf9-4b55-bb72-8eda8cad3a05"},"vehicle_type_id":"4","last_reported":1739207271,"current_range_meters":22400,"station_id":"ce4bhk92rcd13ifvqgb0","pricing_plan_id":"cebpf4jnsgd1na2vs0mg"},{"bike_id":"094ce0d3-0869-4a4e-bc44-e588765eb895","system_id":"levelo_inurba_marseille","lat":43.275652,"lon":5.384146,"is_reserved":false,"is_disabled":false,"rental_uris":{"android":"levelo://app?vid=094ce0d3-0869-4a4e-bc44-e588765eb895","ios":"levelo://app?vid=094ce0d3-0869-4a4e-bc44-e588765eb895"},"vehicle_type_id":"4","last_reported":1739207271,"current_range_meters":12800,"station_id":"ce4bhh92rcd13ifvqfi0","pricing_plan_id":"cebpf4jnsgd1na2vs0mg"},{"bike_id":"05f6ac8f-0127-4e39-bd11-d53a74225ef8","system_id":"levelo_inurba_marseille","lat":43.27874,"lon":5.40597,"is_reserved":false,"is_disabled":true,"rental_uris":{"android":"levelo://app?vid=05f6ac8f-0127-4e39-bd11-d53a74225ef8","ios":"levelo://app?vid=05f6ac8f-0127-4e39-bd11-d53a74225ef8"},"vehicle_type_id":"4","last_reported":1739207271,"current_range_meters":0,"station_id":"","pricing_plan_id":"cebpf4jnsgd1na2vs0mg"},{"bike_id":"e49ee871-b82d-4767-83e2-99541bcc1e76","system_id":"levelo_inurba_marseille","lat":43.31754,"lon":5.39019,"is_reserved":false,"is_disabled":false,"rental_uris":{"android":"levelo://app?vid=e49ee871-b82d-4767-83e2-99541bcc1e76","ios":"levelo://app?vid=e49ee871-b82d-4767-83e2-99541bcc1e76"},"vehicle_type_id":"4","last_reported":1739207271,"current_range_meters":24800,"station_id":"ce4bhqp2rcd13ifvqhng","pricing_plan_id":"cebpf4jnsgd1na2vs0mg"},{"bike_id":"2e7e5300-a6f7-4ccf-84c3-359fc332edfa","system_id":"levelo_inurba_marseille","lat":43.29971,"lon":5.3849,"is_reserved":false,"is_disabled":false,"rental_uris":{"android":"levelo://app?vid=2e7e5300-a6f7-4ccf-84c3-359fc332edfa","ios":"levelo://app?vid=2e7e5300-a6f7-4ccf-84c3-359fc332edfa"},"vehicle_type_id":"4","last_reported":1739207271,"current_range_meters":38800,"station_id":"ce4bgj92rcd13ifvqbd0","pricing_plan_id":"cebpf4jnsgd1na2vs0mg"},{"bike_id":"d7bf6032-a666-4565-a3dd-0e8379e11783","system_id":"levelo_inurba_marseille","lat":43.31321,"lon":5.39712,"is_reserved":false,"is_disabled":false,"rental_uris":{"android":"levelo://app?vid=d7bf6032-a666-4565-a3dd-0e8379e11783","ios":"levelo://app?vid=d7bf6032-a666-4565-a3dd-0e8379e11783"},"vehicle_type_id":"4","last_reported":1739207271,"current_range_meters":37600,"station_id":"ce4bgvp2rcd13ifvqcu0","pricing_plan_id":"cebpf4jnsgd1na2vs0mg"},{"bike_id":"b1a7b0fa-555f-4903-9974-06360d8d836d","system_id":"levelo_inurba_marseille","lat":43.29533,"lon":5.37505,"is_reserved":false,"is_disabled":false,"rental_uris":{"android":"levelo://app?vid=b1a7b0fa-555f-4903-9974-06360d8d836d","ios":"levelo://app?vid=b1a7b0fa-555f-4903-9974-06360d8d836d"},"vehicle_type_id":"4","last_reported":1739207271,"current_range_meters":22400,"station_id":"ce4bgkp2rcd13ifvqbmg","pricing_plan_id":"cebpf4jnsgd1na2vs0mg"},{"bike_id":"a11bda5f-e8b3-4b2f-a9ee-d474ac602af8","system_id":"levelo_inurba_marseille","lat":43.29535,"lon":5.38541,"is_reserved":false,"is_disabled":false,"rental_uris":{"android":"levelo://app?vid=a11bda5f-e8b3-4b2f-a9ee-d474ac602af8","ios":"levelo://app?vid=a11bda5f-e8b3-4b2f-a9ee-d474ac602af8"},"vehicle_type_id":"4","last_reported":1739207271,"current_range_meters":38800,"station_id":"ce4bgih2rcd13ifvqba0","pricing_plan_id":"cebpf4jnsgd1na2vs0mg"},{"bike_id":"1fdf0618-86d8-4dbc-9fa6-ce8ceed227b9","system_id":"levelo_inurba_marseille","lat":43.26056,"lon":5.39401,"is_reserved":false,"is_disabled":false,"rental_uris":{"android":"levelo://app?vid=1fdf0618-86d8-4dbc-9fa6-ce8ceed227b9","ios":"levelo://app?vid=1fdf0618-86d8-4dbc-9fa6-ce8ceed227b9"},"vehicle_type_id":"4","last_reported":1739207271,"current_range_meters":31200,"station_id":"ce4bhh92rcd13ifvqfj0","pricing_plan_id":"cebpf4jnsgd1na2vs0mg"},{"bike_id":"5109ac96-45cc-4c05-91ba-3089107596d8","system_id":"levelo_inurba_marseille","lat":43.23952,"lon":5.36651,"is_reserved":false,"is_disabled":false,"rental_uris":{"android":"levelo://app?vid=5109ac96-45cc-4c05-91ba-3089107596d8","ios":"levelo://app?vid=5109ac96-45cc-4c05-91ba-3089107596d8"},"vehicle_type_id":"4","last_reported":1739207271,"current_range_meters":14000,"station_id":"ce4bhi12rcd13ifvqfp0","pricing_plan_id":"cebpf4jnsgd1na2vs0mg"},{"bike_id":"b42108eb-8268-4c7a-9fcd-7579d275b36e","system_id":"levelo_inurba_marseille","lat":43.29287,"lon":5.37451,"is_reserved":false,"is_disabled":false,"rental_uris":{"android":"levelo://app?vid=b42108eb-8268-4c7a-9fcd-7579d275b36e","ios":"levelo://app?vid=b42108eb-8268-4c7a-9fcd-7579d275b36e"},"vehicle_type_id":"4","last_reported":1739207271,"current_range_meters":31200,"station_id":"ce4bgi12rcd13ifvqb70","pricing_plan_id":"cebpf4jnsgd1na2vs0mg"},{"bike_id":"04564863-f1f2-443b-b8f1-fcbab471f36d","system_id":"levelo_inurba_marseille","lat":43.29515,"lon":5.39049,"is_reserved":false,"is_disabled":false,"rental_uris":{"android":"levelo://app?vid=04564863-f1f2-443b-b8f1-fcbab471f36d","ios":"levelo://app?vid=04564863-f1f2-443b-b8f1-fcbab471f36d"},"vehicle_type_id":"4","last_reported":1739207271,"current_range_meters":39200,"station_id":"ce4bh3p2rcd13ifvqdp0","pricing_plan_id":"cebpf4jnsgd1na2vs0mg"},{"bike_id":"a001191e-c098-4ed6-818f-5c131d567c46","system_id":"levelo_inurba_marseille","lat":43.30096,"lon":5.39099,"is_reserved":false,"is_disabled":false,"rental_uris":{"android":"levelo://app?vid=a001191e-c098-4ed6-818f-5c131d567c46","ios":"levelo://app?vid=a001191e-c098-4ed6-818f-5c131d567c46"},"vehicle_type_id":"4","last_reported":1739207271,"current_range_meters":38400,"station_id":"ce4bh192rcd13ifvqdb0","pricing_plan_id":"cebpf4jnsgd1na2vs0mg"},{"bike_id":"fd7cd6eb-8023-4160-9061-39fa556cf25c","system_id":"levelo_inurba_marseille","lat":43.30316,"lon":5.40437,"is_reserved":false,"is_disabled":true,"rental_uris":{"android":"levelo://app?vid=fd7cd6eb-8023-4160-9061-39fa556cf25c","ios":"levelo://app?vid=fd7cd6eb-8023-4160-9061-39fa556cf25c"},"vehicle_type_id":"4","last_reported":1739207271,"current_range_meters":32000,"station_id":"ce4bh012rcd13ifvqd10","pricing_plan_id":"cebpf4jnsgd1na2vs0mg"},{"bike_id":"a5168041-1b3d-49a6-9f44-b7b9bc9707e0","system_id":"levelo_inurba_marseille","lat":43.29273,"lon":5.38446,"is_reserved":false,"is_disabled":false,"rental_uris":{"android":"levelo://app?vid=a5168041-1b3d-49a6-9f44-b7b9bc9707e0","ios":"levelo://app?vid=a5168041-1b3d-49a6-9f44-b7b9bc9707e0"},"vehicle_type_id":"4","last_reported":1739207271,"current_range_meters":9200,"station_id":"ce4bh692rcd13ifvqea0","pricing_plan_id":"cebpf4jnsgd1na2vs0mg"},{"bike_id":"d32849cf-4c14-4032-9063-172d06d3f04f","system_id":"levelo_inurba_marseille","lat":43.23186,"lon":5.35558,"is_reserved":false,"is_disabled":false,"rental_uris":{"android":"levelo://app?vid=d32849cf-4c14-4032-9063-172d06d3f04f","ios":"levelo://app?vid=d32849cf-4c14-4032-9063-172d06d3f04f"},"vehicle_type_id":"4","last_reported":1739207271,"current_range_meters":37600,"station_id":"ce4bhu92rcd13ifvqi70","pricing_plan_id":"cebpf4jnsgd1na2vs0mg"},{"bike_id":"a3a65707-7f08-41d8-b597-974517ebc430","system_id":"levelo_inurba_marseille","lat":43.26942,"lon":5.40254,"is_reserved":false,"is_disabled":false,"rental_uris":{"android":"levelo://app?vid=a3a65707-7f08-41d8-b597-974517ebc430","ios":"levelo://app?vid=a3a65707-7f08-41d8-b597-974517ebc430"},"vehicle_type_id":"4","last_reported":1739207271,"current_range_meters":27200,"station_id":"cjm6bp8fraef2m0cb0m0","pricing_plan_id":"cebpf4jnsgd1na2vs0mg"},{"bike_id":"b00c295a-8f71-4044-bfe7-faa250b6ed2c","system_id":"levelo_inurba_marseille","lat":43.29571,"lon":5.37515,"is_reserved":false,"is_disabled":false,"rental_uris":{"android":"levelo://app?vid=b00c295a-8f71-4044-bfe7-faa250b6ed2c","ios":"levelo://app?vid=b00c295a-8f71-4044-bfe7-faa250b6ed2c"},"vehicle_type_id":"4","last_reported":1739207271,"current_range_meters":38800,"station_id":"ce4bgh92rcd13ifvqb50","pricing_plan_id":"cebpf4jnsgd1na2vs0mg"},{"bike_id":"004f82cb-12b5-4fce-a2b2-0ca435398846","system_id":"levelo_inurba_marseille","lat":43.3042,"lon":5.39744,"is_reserved":false,"is_disabled":false,"rental_uris":{"android":"levelo://app?vid=004f82cb-12b5-4fce-a2b2-0ca435398846","ios":"levelo://app?vid=004f82cb-12b5-4fce-a2b2-0ca435398846"},"vehicle_type_id":"4","last_reported":1739207271,"current_range_meters":29600,"station_id":"ce4bh092rcd13ifvqd20","pricing_plan_id":"cebpf4jnsgd1na2vs0mg"},{"bike_id":"c87979fc-74ca-4ba9-b239-380ca60004cb","system_id":"levelo_inurba_marseille","lat":43.29535,"lon":5.38539,"is_reserved":false,"is_disabled":false,"rental_uris":{"android":"levelo://app?vid=c87979fc-74ca-4ba9-b239-380ca60004cb","ios":"levelo://app?vid=c87979fc-74ca-4ba9-b239-380ca60004cb"},"vehicle_type_id":"4","last_reported":1739207271,"current_range_meters":27600,"station_id":"ce4bgih2rcd13ifvqba0","pricing_plan_id":"cebpf4jnsgd1na2vs0mg"},{"bike_id":"b7cfafc0-fba3-47fa-8c3d-d96c6bee1f7a","system_id":"levelo_inurba_marseille","lat":43.24403,"lon":5.37066,"is_reserved":false,"is_disabled":false,"rental_uris":{"android":"levelo://app?vid=b7cfafc0-fba3-47fa-8c3d-d96c6bee1f7a","ios":"levelo://app?vid=b7cfafc0-fba3-47fa-8c3d-d96c6bee1f7a"},"vehicle_type_id":"4","last_reported":1739207271,"current_range_meters":36400,"station_id":"ce4bhhh2rcd13ifvqfk0","pricing_plan_id":"cebpf4jnsgd1na2vs0mg"},{"bike_id":"7ad2debf-586d-4c17-96ee-4293391683d1","system_id":"levelo_inurba_marseille","lat":43.28152,"lon":5.42639,"is_reserved":false,"is_disabled":false,"rental_uris":{"android":"levelo://app?vid=7ad2debf-586d-4c17-96ee-4293391683d1","ios":"levelo://app?vid=7ad2debf-586d-4c17-96ee-4293391683d1"},"vehicle_type_id":"4","last_reported":1739207271,"current_range_meters":22000,"station_id":"ce4bhnh2rcd13ifvqgug","pricing_plan_id":"cebpf4jnsgd1na2vs0mg"},{"bike_id":"386a5c6b-0374-40ee-8fee-068f2ec38f9b","system_id":"levelo_inurba_marseille","lat":43.23961,"lon":5.36621,"is_reserved":false,"is_disabled":false,"rental_uris":{"android":"levelo://app?vid=386a5c6b-0374-40ee-8fee-068f2ec38f9b","ios":"levelo://app?vid=386a5c6b-0374-40ee-8fee-068f2ec38f9b"},"vehicle_type_id":"4","last_reported":1739207271,"current_range_meters":16000,"station_id":"ce4bhi12rcd13ifvqfp0","pricing_plan_id":"cebpf4jnsgd1na2vs0mg"},{"bike_id":"30763087-fc08-4ede-abfb-49456b622cea","system_id":"levelo_inurba_marseille","lat":43.27942,"lon":5.4105,"is_reserved":false,"is_disabled":false,"rental_uris":{"android":"levelo://app?vid=30763087-fc08-4ede-abfb-49456b622cea","ios":"levelo://app?vid=30763087-fc08-4ede-abfb-49456b622cea"},"vehicle_type_id":"4","last_reported":1739207271,"current_range_meters":30000,"station_id":"ce4bhnp2rcd13ifvqh0g","pricing_plan_id":"cebpf4jnsgd1na2vs0mg"},{"bike_id":"3ad78980-d954-4439-b88d-56e0dcfe7b89","system_id":"levelo_inurba_marseille","lat":43.2396,"lon":5.3663,"is_reserved":false,"is_disabled":false,"rental_uris":{"android":"levelo://app?vid=3ad78980-d954-4439-b88d-56e0dcfe7b89","ios":"levelo://app?vid=3ad78980-d954-4439-b88d-56e0dcfe7b89"},"vehicle_type_id":"4","last_reported":1739207271,"current_range_meters":14400,"station_id":"ce4bhi12rcd13ifvqfp0","pricing_plan_id":"cebpf4jnsgd1na2vs0mg"},{"bike_id":"cadba6b3-7793-42af-88e5-c898681e364d","system_id":"levelo_inurba_marseille","lat":43.29562,"lon":5.37508,"is_reserved":false,"is_disabled":false,"rental_uris":{"android":"levelo://app?vid=cadba6b3-7793-42af-88e5-c898681e364d","ios":"levelo://app?vid=cadba6b3-7793-42af-88e5-c898681e364d"},"vehicle_type_id":"4","last_reported":1739207271,"current_range_meters":38800,"station_id":"ce4bgh92rcd13ifvqb50","pricing_plan_id":"cebpf4jnsgd1na2vs0mg"},{"bike_id":"d8b06b31-42ae-4f0f-a889-3731e22a56ff","system_id":"levelo_inurba_marseille","lat":43.28156,"lon":5.42646,"is_reserved":false,"is_disabled":false,"rental_uris":{"android":"levelo://app?vid=d8b06b31-42ae-4f0f-a889-3731e22a56ff","ios":"levelo://app?vid=d8b06b31-42ae-4f0f-a889-3731e22a56ff"},"vehicle_type_id":"4","last_reported":1739207271,"current_range_meters":25200,"station_id":"ce4bhnh2rcd13ifvqgug","pricing_plan_id":"cebpf4jnsgd1na2vs0mg"},{"bike_id":"fbf400e2-cf26-49ca-814c-959c2a33d21e","system_id":"levelo_inurba_marseille","lat":43.3169,"lon":5.40483,"is_reserved":false,"is_disabled":false,"rental_uris":{"android":"levelo://app?vid=fbf400e2-cf26-49ca-814c-959c2a33d21e","ios":"levelo://app?vid=fbf400e2-cf26-49ca-814c-959c2a33d21e"},"vehicle_type_id":"4","last_reported":1739207271,"current_range_meters":8000,"station_id":"ce4bh012rcd13ifvqd00","pricing_plan_id":"cebpf4jnsgd1na2vs0mg"},{"bike_id":"01b0e03f-7b96-4ac3-a2a1-cc92043b5081","system_id":"levelo_inurba_marseille","lat":43.29195,"lon":5.3933,"is_reserved":false,"is_disabled":true,"rental_uris":{"android":"levelo://app?vid=01b0e03f-7b96-4ac3-a2a1-cc92043b5081","ios":"levelo://app?vid=01b0e03f-7b96-4ac3-a2a1-cc92043b5081"},"vehicle_type_id":"4","last_reported":1739207271,"current_range_meters":26800,"station_id":"ce4bh192rcd13ifvqdd0","pricing_plan_id":"cebpf4jnsgd1na2vs0mg"},{"bike_id":"e86a799e-3e6e-4715-b9cd-b7ec9b4bf324","system_id":"levelo_inurba_marseille","lat":43.30142,"lon":5.39877,"is_reserved":false,"is_disabled":false,"rental_uris":{"android":"levelo://app?vid=e86a799e-3e6e-4715-b9cd-b7ec9b4bf324","ios":"levelo://app?vid=e86a799e-3e6e-4715-b9cd-b7ec9b4bf324"},"vehicle_type_id":"4","last_reported":1739207271,"current_range_meters":35600,"station_id":"ce4bh0h2rcd13ifvqd40","pricing_plan_id":"cebpf4jnsgd1na2vs0mg"},{"bike_id":"e69ca3b9-f109-4b08-8796-8d3b0348b424","system_id":"levelo_inurba_marseille","lat":43.27626,"lon":5.36101,"is_reserved":false,"is_disabled":false,"rental_uris":{"android":"levelo://app?vid=e69ca3b9-f109-4b08-8796-8d3b0348b424","ios":"levelo://app?vid=e69ca3b9-f109-4b08-8796-8d3b0348b424"},"vehicle_type_id":"4","last_reported":1739207271,"current_range_meters":36400,"station_id":"ce4bgj92rcd13ifvqbe0","pricing_plan_id":"cebpf4jnsgd1na2vs0mg"},{"bike_id":"90169c41-79f4-489a-a71f-a091cab9f0c4","system_id":"levelo_inurba_marseille","lat":43.29622,"lon":5.37152,"is_reserved":false,"is_disabled":false,"rental_uris":{"android":"levelo://app?vid=90169c41-79f4-489a-a71f-a091cab9f0c4","ios":"levelo://app?vid=90169c41-79f4-489a-a71f-a091cab9f0c4"},"vehicle_type_id":"4","last_reported":1739207271,"current_range_meters":38800,"station_id":"ce4bgnh2rcd13ifvqc0g","pricing_plan_id":"cebpf4jnsgd1na2vs0mg"},{"bike_id":"d083bfc3-cca1-45dd-bf2a-a271ff65031c","system_id":"levelo_inurba_marseille","lat":43.30131,"lon":5.39857,"is_reserved":false,"is_disabled":false,"rental_uris":{"android":"levelo://app?vid=d083bfc3-cca1-45dd-bf2a-a271ff65031c","ios":"levelo://app?vid=d083bfc3-cca1-45dd-bf2a-a271ff65031c"},"vehicle_type_id":"4","last_reported":1739207271,"current_range_meters":38400,"station_id":"ce4bh0h2rcd13ifvqd40","pricing_plan_id":"cebpf4jnsgd1na2vs0mg"},{"bike_id":"6d23bdc7-b1c6-49b8-ba12-da7bd007a8b6","system_id":"levelo_inurba_marseille","lat":43.31493,"lon":5.37309,"is_reserved":false,"is_disabled":false,"rental_uris":{"android":"levelo://app?vid=6d23bdc7-b1c6-49b8-ba12-da7bd007a8b6","ios":"levelo://app?vid=6d23bdc7-b1c6-49b8-ba12-da7bd007a8b6"},"vehicle_type_id":"4","last_reported":1739207271,"current_range_meters":32000,"station_id":"ce4bgt12rcd13ifvqcd0","pricing_plan_id":"cebpf4jnsgd1na2vs0mg"},{"bike_id":"9f443121-e8ff-4aac-bc9a-d9077c8e664b","system_id":"levelo_inurba_marseille","lat":43.2707,"lon":5.42296,"is_reserved":false,"is_disabled":false,"rental_uris":{"android":"levelo://app?vid=9f443121-e8ff-4aac-bc9a-d9077c8e664b","ios":"levelo://app?vid=9f443121-e8ff-4aac-bc9a-d9077c8e664b"},"vehicle_type_id":"4","last_reported":1739207271,"current_range_meters":28800,"station_id":"ce4bhk92rcd13ifvqgb0","pricing_plan_id":"cebpf4jnsgd1na2vs0mg"},{"bike_id":"2a770ae2-03a1-4cb9-a363-e879ddefa502","system_id":"levelo_inurba_marseille","lat":43.3176,"lon":5.39019,"is_reserved":false,"is_disabled":false,"rental_uris":{"android":"levelo://app?vid=2a770ae2-03a1-4cb9-a363-e879ddefa502","ios":"levelo://app?vid=2a770ae2-03a1-4cb9-a363-e879ddefa502"},"vehicle_type_id":"4","last_reported":1739207271,"current_range_meters":38800,"station_id":"ce4bhqp2rcd13ifvqhng","pricing_plan_id":"cebpf4jnsgd1na2vs0mg"},{"bike_id":"c03e3e74-2231-4470-8600-8fa32748c474","system_id":"levelo_inurba_marseille","lat":43.24771,"lon":5.37472,"is_reserved":false,"is_disabled":false,"rental_uris":{"android":"levelo://app?vid=c03e3e74-2231-4470-8600-8fa32748c474","ios":"levelo://app?vid=c03e3e74-2231-4470-8600-8fa32748c474"},"vehicle_type_id":"4","last_reported":1739207271,"current_range_meters":37600,"station_id":"ce4bhgh2rcd13ifvqfb0","pricing_plan_id":"cebpf4jnsgd1na2vs0mg"},{"bike_id":"4591023d-5c1e-434a-8f93-a035257c7caf","system_id":"levelo_inurba_marseille","lat":43.28354,"lon":5.38107,"is_reserved":false,"is_disabled":false,"rental_uris":{"android":"levelo://app?vid=4591023d-5c1e-434a-8f93-a035257c7caf","ios":"levelo://app?vid=4591023d-5c1e-434a-8f93-a035257c7caf"},"vehicle_type_id":"4","last_reported":1739207271,"current_range_meters":30400,"station_id":"ce4bh412rcd13ifvqdr0","pricing_plan_id":"cebpf4jnsgd1na2vs0mg"},{"bike_id":"b31aee6a-50fe-46b0-9973-1cb3e84501e5","system_id":"levelo_inurba_marseille","lat":43.2906,"lon":5.37188,"is_reserved":false,"is_disabled":false,"rental_uris":{"android":"levelo://app?vid=b31aee6a-50fe-46b0-9973-1cb3e84501e5","ios":"levelo://app?vid=b31aee6a-50fe-46b0-9973-1cb3e84501e5"},"vehicle_type_id":"4","last_reported":1739207271,"current_range_meters":36800,"station_id":"ce4bh5p2rcd13ifvqe4g","pricing_plan_id":"cebpf4jnsgd1na2vs0mg"},{"bike_id":"8583503a-2f4a-4fb0-b76e-4ce9a4778990","system_id":"levelo_inurba_marseille","lat":43.29539,"lon":5.37495,"is_reserved":false,"is_disabled":false,"rental_uris":{"android":"levelo://app?vid=8583503a-2f4a-4fb0-b76e-4ce9a4778990","ios":"levelo://app?vid=8583503a-2f4a-4fb0-b76e-4ce9a4778990"},"vehicle_type_id":"4","last_reported":1739207271,"current_range_meters":38800,"station_id":"ce4bgkp2rcd13ifvqbmg","pricing_plan_id":"cebpf4jnsgd1na2vs0mg"},{"bike_id":"0c174ecb-8ae2-48d6-9741-cc42350cc396","system_id":"levelo_inurba_marseille","lat":43.29036,"lon":5.3997,"is_reserved":false,"is_disabled":false,"rental_uris":{"android":"levelo://app?vid=0c174ecb-8ae2-48d6-9741-cc42350cc396","ios":"levelo://app?vid=0c174ecb-8ae2-48d6-9741-cc42350cc396"},"vehicle_type_id":"4","last_reported":1739207271,"current_range_meters":28400,"station_id":"ce4bh392rcd13ifvqdm0","pricing_plan_id":"cebpf4jnsgd1na2vs0mg"},{"bike_id":"fdcb41f8-a4c8-462f-a3ed-fdbca4069024","system_id":"levelo_inurba_marseille","lat":43.28078,"lon":5.3966,"is_reserved":false,"is_disabled":false,"rental_uris":{"android":"levelo://app?vid=fdcb41f8-a4c8-462f-a3ed-fdbca4069024","ios":"levelo://app?vid=fdcb41f8-a4c8-462f-a3ed-fdbca4069024"},"vehicle_type_id":"4","last_reported":1739207271,"current_range_meters":36400,"station_id":"ce4bho12rcd13ifvqh2g","pricing_plan_id":"cebpf4jnsgd1na2vs0mg"},{"bike_id":"ebfe9b19-a020-4e42-9515-d839082cd818","system_id":"levelo_inurba_marseille","lat":43.27995,"lon":5.40013,"is_reserved":false,"is_disabled":false,"rental_uris":{"android":"levelo://app?vid=ebfe9b19-a020-4e42-9515-d839082cd818","ios":"levelo://app?vid=ebfe9b19-a020-4e42-9515-d839082cd818"},"vehicle_type_id":"4","last_reported":1739207271,"current_range_meters":36400,"station_id":"ce4bho92rcd13ifvqh4g","pricing_plan_id":"cebpf4jnsgd1na2vs0mg"},{"bike_id":"46364d9d-9e7c-4b5a-9d07-d05c87074a64","system_id":"levelo_inurba_marseille","lat":43.29522,"lon":5.39038,"is_reserved":false,"is_disabled":true,"rental_uris":{"android":"levelo://app?vid=46364d9d-9e7c-4b5a-9d07-d05c87074a64","ios":"levelo://app?vid=46364d9d-9e7c-4b5a-9d07-d05c87074a64"},"vehicle_type_id":"4","last_reported":1739207271,"current_range_meters":24000,"station_id":"ce4bh3p2rcd13ifvqdp0","pricing_plan_id":"cebpf4jnsgd1na2vs0mg"},{"bike_id":"0a261332-55f6-4ea5-8bd3-dc2e591b1330","system_id":"levelo_inurba_marseille","lat":43.28461,"lon":5.35888,"is_reserved":false,"is_disabled":false,"rental_uris":{"android":"levelo://app?vid=0a261332-55f6-4ea5-8bd3-dc2e591b1330","ios":"levelo://app?vid=0a261332-55f6-4ea5-8bd3-dc2e591b1330"},"vehicle_type_id":"4","last_reported":1739207271,"current_range_meters":30400,"station_id":"ce4bhah2rcd13ifvqei0","pricing_plan_id":"cebpf4jnsgd1na2vs0mg"},{"bike_id":"02dda515-7b78-4cf1-8bd3-c1f58c49e12b","system_id":"levelo_inurba_marseille","lat":43.28355,"lon":5.381,"is_reserved":false,"is_disabled":false,"rental_uris":{"android":"levelo://app?vid=02dda515-7b78-4cf1-8bd3-c1f58c49e12b","ios":"levelo://app?vid=02dda515-7b78-4cf1-8bd3-c1f58c49e12b"},"vehicle_type_id":"4","last_reported":1739207271,"current_range_meters":32000,"station_id":"ce4bh412rcd13ifvqdr0","pricing_plan_id":"cebpf4jnsgd1na2vs0mg"},{"bike_id":"37013ad9-dda1-4aaa-bc03-0fecfc70eba5","system_id":"levelo_inurba_marseille","lat":43.26921,"lon":5.38682,"is_reserved":false,"is_disabled":false,"rental_uris":{"android":"levelo://app?vid=37013ad9-dda1-4aaa-bc03-0fecfc70eba5","ios":"levelo://app?vid=37013ad9-dda1-4aaa-bc03-0fecfc70eba5"},"vehicle_type_id":"4","last_reported":1739207271,"current_range_meters":37600,"station_id":"ce4bhh92rcd13ifvqfh0","pricing_plan_id":"cebpf4jnsgd1na2vs0mg"},{"bike_id":"8561f34f-b3d2-4289-940f-2e1e4d5d11d0","system_id":"levelo_inurba_marseille","lat":43.29884,"lon":5.39736,"is_reserved":false,"is_disabled":false,"rental_uris":{"android":"levelo://app?vid=8561f34f-b3d2-4289-940f-2e1e4d5d11d0","ios":"levelo://app?vid=8561f34f-b3d2-4289-940f-2e1e4d5d11d0"},"vehicle_type_id":"4","last_reported":1739207271,"current_range_meters":26000,"station_id":"ce4bh0h2rcd13ifvqd50","pricing_plan_id":"cebpf4jnsgd1na2vs0mg"},{"bike_id":"4ea077d2-07af-4186-8315-91e9e76cedf0","system_id":"levelo_inurba_marseille","lat":43.29285,"lon":5.40115,"is_reserved":false,"is_disabled":false,"rental_uris":{"android":"levelo://app?vid=4ea077d2-07af-4186-8315-91e9e76cedf0","ios":"levelo://app?vid=4ea077d2-07af-4186-8315-91e9e76cedf0"},"vehicle_type_id":"4","last_reported":1739207271,"current_range_meters":11200,"station_id":"ce4bh312rcd13ifvqdk0","pricing_plan_id":"cebpf4jnsgd1na2vs0mg"},{"bike_id":"1d2000e3-6e82-4c8d-9a0a-5d8181e36eb3","system_id":"levelo_inurba_marseille","lat":43.25007,"lon":5.38917,"is_reserved":false,"is_disabled":false,"rental_uris":{"android":"levelo://app?vid=1d2000e3-6e82-4c8d-9a0a-5d8181e36eb3","ios":"levelo://app?vid=1d2000e3-6e82-4c8d-9a0a-5d8181e36eb3"},"vehicle_type_id":"4","last_reported":1739207271,"current_range_meters":9600,"station_id":"ce4bhgp2rcd13ifvqfd0","pricing_plan_id":"cebpf4jnsgd1na2vs0mg"},{"bike_id":"b3ed37df-3b5e-472c-b09d-2de12cf2dab9","system_id":"levelo_inurba_marseille","lat":43.30315,"lon":5.39222,"is_reserved":false,"is_disabled":false,"rental_uris":{"android":"levelo://app?vid=b3ed37df-3b5e-472c-b09d-2de12cf2dab9","ios":"levelo://app?vid=b3ed37df-3b5e-472c-b09d-2de12cf2dab9"},"vehicle_type_id":"4","last_reported":1739207271,"current_range_meters":32400,"station_id":"ce4bgkh2rcd13ifvqbk0","pricing_plan_id":"cebpf4jnsgd1na2vs0mg"},{"bike_id":"288ed061-f3af-4bd4-ae8f-737bd17d8ab1","system_id":"levelo_inurba_marseille","lat":43.317276,"lon":5.423883,"is_reserved":false,"is_disabled":false,"rental_uris":{"android":"levelo://app?vid=288ed061-f3af-4bd4-ae8f-737bd17d8ab1","ios":"levelo://app?vid=288ed061-f3af-4bd4-ae8f-737bd17d8ab1"},"vehicle_type_id":"4","last_reported":1739207271,"current_range_meters":38800,"station_id":"ce4bhp92rcd13ifvqhbg","pricing_plan_id":"cebpf4jnsgd1na2vs0mg"},{"bike_id":"6998168a-02ed-49b8-bc0c-4b81f2baa47a","system_id":"levelo_inurba_marseille","lat":43.33729,"lon":5.3919,"is_reserved":false,"is_disabled":false,"rental_uris":{"android":"levelo://app?vid=6998168a-02ed-49b8-bc0c-4b81f2baa47a","ios":"levelo://app?vid=6998168a-02ed-49b8-bc0c-4b81f2baa47a"},"vehicle_type_id":"4","last_reported":1739207271,"current_range_meters":38800,"station_id":"ce4bhr92rcd13ifvqhsg","pricing_plan_id":"cebpf4jnsgd1na2vs0mg"},{"bike_id":"0bdfd0dd-9741-4f8e-ac4b-7a02400a13ed","system_id":"levelo_inurba_marseille","lat":43.30535,"lon":5.36686,"is_reserved":false,"is_disabled":false,"rental_uris":{"android":"levelo://app?vid=0bdfd0dd-9741-4f8e-ac4b-7a02400a13ed","ios":"levelo://app?vid=0bdfd0dd-9741-4f8e-ac4b-7a02400a13ed"},"vehicle_type_id":"4","last_reported":1739207271,"current_range_meters":24400,"station_id":"ce4bgrp2rcd13ifvqc9g","pricing_plan_id":"cebpf4jnsgd1na2vs0mg"},{"bike_id":"79c27d1b-6e84-42bc-bef4-d8fc6ca0d19a","system_id":"levelo_inurba_marseille","lat":43.28708,"lon":5.40002,"is_reserved":false,"is_disabled":true,"rental_uris":{"android":"levelo://app?vid=79c27d1b-6e84-42bc-bef4-d8fc6ca0d19a","ios":"levelo://app?vid=79c27d1b-6e84-42bc-bef4-d8fc6ca0d19a"},"vehicle_type_id":"4","last_reported":1739207271,"current_range_meters":38800,"station_id":"ce4bho92rcd13ifvqh3g","pricing_plan_id":"cebpf4jnsgd1na2vs0mg"},{"bike_id":"d5a37605-4e0b-406c-a924-7ca9f964c4e0","system_id":"levelo_inurba_marseille","lat":43.24811,"lon":5.37464,"is_reserved":false,"is_disabled":false,"rental_uris":{"android":"levelo://app?vid=d5a37605-4e0b-406c-a924-7ca9f964c4e0","ios":"levelo://app?vid=d5a37605-4e0b-406c-a924-7ca9f964c4e0"},"vehicle_type_id":"4","last_reported":1739207271,"current_range_meters":29600,"station_id":"ce4bhgh2rcd13ifvqfb0","pricing_plan_id":"cebpf4jnsgd1na2vs0mg"},{"bike_id":"a97f3a8d-e1f7-4ede-af5a-b155aa57a80e","system_id":"levelo_inurba_marseille","lat":43.25578,"lon":5.38239,"is_reserved":false,"is_disabled":false,"rental_uris":{"android":"levelo://app?vid=a97f3a8d-e1f7-4ede-af5a-b155aa57a80e","ios":"levelo://app?vid=a97f3a8d-e1f7-4ede-af5a-b155aa57a80e"},"vehicle_type_id":"4","last_reported":1739207271,"current_range_meters":18800,"station_id":"ce4bhih2rcd13ifvqfs0","pricing_plan_id":"cebpf4jnsgd1na2vs0mg"},{"bike_id":"0b34c7a7-de37-455f-99c9-9caa35edce2e","system_id":"levelo_inurba_marseille","lat":43.27306,"lon":5.39079,"is_reserved":false,"is_disabled":false,"rental_uris":{"android":"levelo://app?vid=0b34c7a7-de37-455f-99c9-9caa35edce2e","ios":"levelo://app?vid=0b34c7a7-de37-455f-99c9-9caa35edce2e"},"vehicle_type_id":"4","last_reported":1739207271,"current_range_meters":38800,"station_id":"ce4bhgp2rcd13ifvqfe0","pricing_plan_id":"cebpf4jnsgd1na2vs0mg"},{"bike_id":"07baf43e-fc57-48a3-beea-0bd26e095e21","system_id":"levelo_inurba_marseille","lat":43.292057,"lon":5.393118,"is_reserved":false,"is_disabled":false,"rental_uris":{"android":"levelo://app?vid=07baf43e-fc57-48a3-beea-0bd26e095e21","ios":"levelo://app?vid=07baf43e-fc57-48a3-beea-0bd26e095e21"},"vehicle_type_id":"4","last_reported":1739207271,"current_range_meters":24000,"station_id":"ce4bh192rcd13ifvqdd0","pricing_plan_id":"cebpf4jnsgd1na2vs0mg"},{"bike_id":"c4813b27-4250-43ea-8be5-ccd7321d2af3","system_id":"levelo_inurba_marseille","lat":43.28231,"lon":5.3698,"is_reserved":false,"is_disabled":false,"rental_uris":{"android":"levelo://app?vid=c4813b27-4250-43ea-8be5-ccd7321d2af3","ios":"levelo://app?vid=c4813b27-4250-43ea-8be5-ccd7321d2af3"},"vehicle_type_id":"4","last_reported":1739207271,"current_range_meters":24800,"station_id":"","pricing_plan_id":"cebpf4jnsgd1na2vs0mg"},{"bike_id":"5db23e37-8064-476d-afd5-67dc342e52ab","system_id":"levelo_inurba_marseille","lat":43.32018,"lon":5.41574,"is_reserved":false,"is_disabled":false,"rental_uris":{"android":"levelo://app?vid=5db23e37-8064-476d-afd5-67dc342e52ab","ios":"levelo://app?vid=5db23e37-8064-476d-afd5-67dc342e52ab"},"vehicle_type_id":"4","last_reported":1739207271,"current_range_meters":33200,"station_id":"ce4bhq92rcd13ifvqhkg","pricing_plan_id":"cebpf4jnsgd1na2vs0mg"},{"bike_id":"1d695c88-2120-4066-90f1-68155ff06e63","system_id":"levelo_inurba_marseille","lat":43.316245,"lon":5.3889,"is_reserved":false,"is_disabled":false,"rental_uris":{"android":"levelo://app?vid=1d695c88-2120-4066-90f1-68155ff06e63","ios":"levelo://app?vid=1d695c88-2120-4066-90f1-68155ff06e63"},"vehicle_type_id":"4","last_reported":1739207271,"current_range_meters":27200,"station_id":"","pricing_plan_id":"cebpf4jnsgd1na2vs0mg"},{"bike_id":"45d61edb-619c-42f8-8765-79348baf47ab","system_id":"levelo_inurba_marseille","lat":43.29623,"lon":5.37725,"is_reserved":false,"is_disabled":false,"rental_uris":{"android":"levelo://app?vid=45d61edb-619c-42f8-8765-79348baf47ab","ios":"levelo://app?vid=45d61edb-619c-42f8-8765-79348baf47ab"},"vehicle_type_id":"4","last_reported":1739207271,"current_range_meters":30400,"station_id":"ce4bgi92rcd13ifvqb90","pricing_plan_id":"cebpf4jnsgd1na2vs0mg"},{"bike_id":"30040434-0ce6-4639-9cfb-4b7e126d7c60","system_id":"levelo_inurba_marseille","lat":43.27493,"lon":5.4246,"is_reserved":false,"is_disabled":false,"rental_uris":{"android":"levelo://app?vid=30040434-0ce6-4639-9cfb-4b7e126d7c60","ios":"levelo://app?vid=30040434-0ce6-4639-9cfb-4b7e126d7c60"},"vehicle_type_id":"4","last_reported":1739207271,"current_range_meters":38800,"station_id":"ce4bhn92rcd13ifvqgrg","pricing_plan_id":"cebpf4jnsgd1na2vs0mg"},{"bike_id":"1b32f8e4-e340-450b-9817-99b4ddba9c26","system_id":"levelo_inurba_marseille","lat":43.30799,"lon":5.38141,"is_reserved":false,"is_disabled":false,"rental_uris":{"android":"levelo://app?vid=1b32f8e4-e340-450b-9817-99b4ddba9c26","ios":"levelo://app?vid=1b32f8e4-e340-450b-9817-99b4ddba9c26"},"vehicle_type_id":"4","last_reported":1739207271,"current_range_meters":29600,"station_id":"ce4bgt12rcd13ifvqce0","pricing_plan_id":"cebpf4jnsgd1na2vs0mg"},{"bike_id":"3aee1a37-713a-4089-a06a-b5701718bebc","system_id":"levelo_inurba_marseille","lat":43.27366,"lon":5.36261,"is_reserved":false,"is_disabled":false,"rental_uris":{"android":"levelo://app?vid=3aee1a37-713a-4089-a06a-b5701718bebc","ios":"levelo://app?vid=3aee1a37-713a-4089-a06a-b5701718bebc"},"vehicle_type_id":"4","last_reported":1739207271,"current_range_meters":38800,"station_id":"ce4bhbh2rcd13ifvqeo0","pricing_plan_id":"cebpf4jnsgd1na2vs0mg"},{"bike_id":"addd07a1-34d8-46c5-813c-e5860355448f","system_id":"levelo_inurba_marseille","lat":43.28414,"lon":5.37503,"is_reserved":false,"is_disabled":false,"rental_uris":{"android":"levelo://app?vid=addd07a1-34d8-46c5-813c-e5860355448f","ios":"levelo://app?vid=addd07a1-34d8-46c5-813c-e5860355448f"},"vehicle_type_id":"4","last_reported":1739207271,"current_range_meters":29600,"station_id":"ce4bho92rcd13ifvqh3g","pricing_plan_id":"cebpf4jnsgd1na2vs0mg"},{"bike_id":"868bab58-7fb6-4926-8070-cd9a4296d6f1","system_id":"levelo_inurba_marseille","lat":43.28354,"lon":5.38109,"is_reserved":false,"is_disabled":false,"rental_uris":{"android":"levelo://app?vid=868bab58-7fb6-4926-8070-cd9a4296d6f1","ios":"levelo://app?vid=868bab58-7fb6-4926-8070-cd9a4296d6f1"},"vehicle_type_id":"4","last_reported":1739207271,"current_range_meters":38000,"station_id":"ce4bh412rcd13ifvqdr0","pricing_plan_id":"cebpf4jnsgd1na2vs0mg"},{"bike_id":"0b684d71-a881-4b9e-a112-3d45042a912a","system_id":"levelo_inurba_marseille","lat":43.31168,"lon":5.38718,"is_reserved":false,"is_disabled":false,"rental_uris":{"android":"levelo://app?vid=0b684d71-a881-4b9e-a112-3d45042a912a","ios":"levelo://app?vid=0b684d71-a881-4b9e-a112-3d45042a912a"},"vehicle_type_id":"4","last_reported":1739207271,"current_range_meters":28800,"station_id":"ce4bgv12rcd13ifvqcp0","pricing_plan_id":"cebpf4jnsgd1na2vs0mg"},{"bike_id":"598c2bbf-6a25-4cff-b55d-aa2b11dcffd1","system_id":"levelo_inurba_marseille","lat":43.29581,"lon":5.36744,"is_reserved":false,"is_disabled":false,"rental_uris":{"android":"levelo://app?vid=598c2bbf-6a25-4cff-b55d-aa2b11dcffd1","ios":"levelo://app?vid=598c2bbf-6a25-4cff-b55d-aa2b11dcffd1"},"vehicle_type_id":"4","last_reported":1739207271,"current_range_meters":35600,"station_id":"ce4bgph2rcd13ifvqc2g","pricing_plan_id":"cebpf4jnsgd1na2vs0mg"},{"bike_id":"db2cb8ba-850b-4646-be66-57100750f4fe","system_id":"levelo_inurba_marseille","lat":43.23195,"lon":5.35552,"is_reserved":false,"is_disabled":false,"rental_uris":{"android":"levelo://app?vid=db2cb8ba-850b-4646-be66-57100750f4fe","ios":"levelo://app?vid=db2cb8ba-850b-4646-be66-57100750f4fe"},"vehicle_type_id":"4","last_reported":1739207271,"current_range_meters":9200,"station_id":"ce4bhu92rcd13ifvqi70","pricing_plan_id":"cebpf4jnsgd1na2vs0mg"},{"bike_id":"841e0f04-b00a-44de-83b7-b9b92c40d93b","system_id":"levelo_inurba_marseille","lat":43.28164,"lon":5.42637,"is_reserved":false,"is_disabled":false,"rental_uris":{"android":"levelo://app?vid=841e0f04-b00a-44de-83b7-b9b92c40d93b","ios":"levelo://app?vid=841e0f04-b00a-44de-83b7-b9b92c40d93b"},"vehicle_type_id":"4","last_reported":1739207271,"current_range_meters":17600,"station_id":"ce4bhnh2rcd13ifvqgug","pricing_plan_id":"cebpf4jnsgd1na2vs0mg"},{"bike_id":"9dbbe69c-d641-4040-9bb0-f4b5c8ea5dc6","system_id":"levelo_inurba_marseille","lat":43.31372,"lon":5.38488,"is_reserved":false,"is_disabled":false,"rental_uris":{"android":"levelo://app?vid=9dbbe69c-d641-4040-9bb0-f4b5c8ea5dc6","ios":"levelo://app?vid=9dbbe69c-d641-4040-9bb0-f4b5c8ea5dc6"},"vehicle_type_id":"4","last_reported":1739207271,"current_range_meters":36400,"station_id":"ce4bgt92rcd13ifvqcf0","pricing_plan_id":"cebpf4jnsgd1na2vs0mg"},{"bike_id":"88379eaf-5a6d-4117-a07a-21ee5231369a","system_id":"levelo_inurba_marseille","lat":43.31535,"lon":5.3802,"is_reserved":false,"is_disabled":false,"rental_uris":{"android":"levelo://app?vid=88379eaf-5a6d-4117-a07a-21ee5231369a","ios":"levelo://app?vid=88379eaf-5a6d-4117-a07a-21ee5231369a"},"vehicle_type_id":"4","last_reported":1739207271,"current_range_meters":38800,"station_id":"ce4bhsp2rcd13ifvqi50","pricing_plan_id":"cebpf4jnsgd1na2vs0mg"},{"bike_id":"71245798-1c48-4fae-ae90-fb5dbb3e0a7f","system_id":"levelo_inurba_marseille","lat":43.29536,"lon":5.38541,"is_reserved":false,"is_disabled":false,"rental_uris":{"android":"levelo://app?vid=71245798-1c48-4fae-ae90-fb5dbb3e0a7f","ios":"levelo://app?vid=71245798-1c48-4fae-ae90-fb5dbb3e0a7f"},"vehicle_type_id":"4","last_reported":1739207271,"current_range_meters":36800,"station_id":"ce4bgih2rcd13ifvqba0","pricing_plan_id":"cebpf4jnsgd1na2vs0mg"},{"bike_id":"1b4f517b-00c2-44c7-9f02-8b50fa8704dc","system_id":"levelo_inurba_marseille","lat":43.28417,"lon":5.37521,"is_reserved":false,"is_disabled":false,"rental_uris":{"android":"levelo://app?vid=1b4f517b-00c2-44c7-9f02-8b50fa8704dc","ios":"levelo://app?vid=1b4f517b-00c2-44c7-9f02-8b50fa8704dc"},"vehicle_type_id":"4","last_reported":1739207271,"current_range_meters":24400,"station_id":"ce4bh412rcd13ifvqds0","pricing_plan_id":"cebpf4jnsgd1na2vs0mg"},{"bike_id":"49fc3cc7-1c77-4b35-91d1-1a43091973b5","system_id":"levelo_inurba_marseille","lat":43.2917,"lon":5.3716,"is_reserved":false,"is_disabled":false,"rental_uris":{"android":"levelo://app?vid=49fc3cc7-1c77-4b35-91d1-1a43091973b5","ios":"levelo://app?vid=49fc3cc7-1c77-4b35-91d1-1a43091973b5"},"vehicle_type_id":"4","last_reported":1739207271,"current_range_meters":36800,"station_id":"ce4bha92rcd13ifvqeh0","pricing_plan_id":"cebpf4jnsgd1na2vs0mg"},{"bike_id":"b8cbd248-db62-4d84-b3a4-fd8e7e00f9d3","system_id":"levelo_inurba_marseille","lat":43.28031,"lon":5.36952,"is_reserved":false,"is_disabled":false,"rental_uris":{"android":"levelo://app?vid=b8cbd248-db62-4d84-b3a4-fd8e7e00f9d3","ios":"levelo://app?vid=b8cbd248-db62-4d84-b3a4-fd8e7e00f9d3"},"vehicle_type_id":"4","last_reported":1739207271,"current_range_meters":33200,"station_id":"ce4bha12rcd13ifvqef0","pricing_plan_id":"cebpf4jnsgd1na2vs0mg"},{"bike_id":"1ec14052-2d33-4aa1-9ab8-58cc71db74d1","system_id":"levelo_inurba_marseille","lat":43.24168,"lon":5.36396,"is_reserved":false,"is_disabled":false,"rental_uris":{"android":"levelo://app?vid=1ec14052-2d33-4aa1-9ab8-58cc71db74d1","ios":"levelo://app?vid=1ec14052-2d33-4aa1-9ab8-58cc71db74d1"},"vehicle_type_id":"4","last_reported":1739207271,"current_range_meters":18000,"station_id":"cpo36qri1sfpv3e86is0","pricing_plan_id":"cebpf4jnsgd1na2vs0mg"},{"bike_id":"6e99eac2-ce29-457d-b4dd-f5cd87e6b34c","system_id":"levelo_inurba_marseille","lat":43.28348,"lon":5.38104,"is_reserved":false,"is_disabled":false,"rental_uris":{"android":"levelo://app?vid=6e99eac2-ce29-457d-b4dd-f5cd87e6b34c","ios":"levelo://app?vid=6e99eac2-ce29-457d-b4dd-f5cd87e6b34c"},"vehicle_type_id":"4","last_reported":1739207271,"current_range_meters":36000,"station_id":"ce4bh412rcd13ifvqdr0","pricing_plan_id":"cebpf4jnsgd1na2vs0mg"},{"bike_id":"217b50bb-6dfb-4fdf-b8ec-e129004f7d6e","system_id":"levelo_inurba_marseille","lat":43.26935,"lon":5.38927,"is_reserved":false,"is_disabled":false,"rental_uris":{"android":"levelo://app?vid=217b50bb-6dfb-4fdf-b8ec-e129004f7d6e","ios":"levelo://app?vid=217b50bb-6dfb-4fdf-b8ec-e129004f7d6e"},"vehicle_type_id":"4","last_reported":1739207271,"current_range_meters":11200,"station_id":"ce4bhhh2rcd13ifvqfl0","pricing_plan_id":"cebpf4jnsgd1na2vs0mg"},{"bike_id":"97136f8b-2739-4b8b-8b9a-f4d78842f5ad","system_id":"levelo_inurba_marseille","lat":43.26199,"lon":5.37928,"is_reserved":false,"is_disabled":false,"rental_uris":{"android":"levelo://app?vid=97136f8b-2739-4b8b-8b9a-f4d78842f5ad","ios":"levelo://app?vid=97136f8b-2739-4b8b-8b9a-f4d78842f5ad"},"vehicle_type_id":"4","last_reported":1739207271,"current_range_meters":8000,"station_id":"ce4bhjp2rcd13ifvqg90","pricing_plan_id":"cebpf4jnsgd1na2vs0mg"},{"bike_id":"fbb98623-bd6f-4427-9463-8f7fc3b3bd20","system_id":"levelo_inurba_marseille","lat":43.28036,"lon":5.36942,"is_reserved":false,"is_disabled":false,"rental_uris":{"android":"levelo://app?vid=fbb98623-bd6f-4427-9463-8f7fc3b3bd20","ios":"levelo://app?vid=fbb98623-bd6f-4427-9463-8f7fc3b3bd20"},"vehicle_type_id":"4","last_reported":1739207271,"current_range_meters":32400,"station_id":"ce4bha12rcd13ifvqef0","pricing_plan_id":"cebpf4jnsgd1na2vs0mg"},{"bike_id":"11a7e504-7941-49b5-9d75-cffde04de541","system_id":"levelo_inurba_marseille","lat":43.30798,"lon":5.38135,"is_reserved":false,"is_disabled":false,"rental_uris":{"android":"levelo://app?vid=11a7e504-7941-49b5-9d75-cffde04de541","ios":"levelo://app?vid=11a7e504-7941-49b5-9d75-cffde04de541"},"vehicle_type_id":"4","last_reported":1739207271,"current_range_meters":6000,"station_id":"ce4bgt12rcd13ifvqce0","pricing_plan_id":"cebpf4jnsgd1na2vs0mg"},{"bike_id":"c96f92a7-f6aa-4b72-bfcc-b3fd0520d382","system_id":"levelo_inurba_marseille","lat":43.26199,"lon":5.37457,"is_reserved":false,"is_disabled":false,"rental_uris":{"android":"levelo://app?vid=c96f92a7-f6aa-4b72-bfcc-b3fd0520d382","ios":"levelo://app?vid=c96f92a7-f6aa-4b72-bfcc-b3fd0520d382"},"vehicle_type_id":"4","last_reported":1739207271,"current_range_meters":38800,"station_id":"ce4bhgp2rcd13ifvqfc0","pricing_plan_id":"cebpf4jnsgd1na2vs0mg"},{"bike_id":"53dedc30-10cb-4cf6-aa3e-119646708c08","system_id":"levelo_inurba_marseille","lat":43.260316,"lon":5.375494,"is_reserved":false,"is_disabled":false,"rental_uris":{"android":"levelo://app?vid=53dedc30-10cb-4cf6-aa3e-119646708c08","ios":"levelo://app?vid=53dedc30-10cb-4cf6-aa3e-119646708c08"},"vehicle_type_id":"4","last_reported":1739207271,"current_range_meters":38800,"station_id":"ce4bhgh2rcd13ifvqfa0","pricing_plan_id":"cebpf4jnsgd1na2vs0mg"},{"bike_id":"5d5b9d52-4005-4b8d-8e03-12940e9796d0","system_id":"levelo_inurba_marseille","lat":43.24068,"lon":5.37758,"is_reserved":false,"is_disabled":true,"rental_uris":{"android":"levelo://app?vid=5d5b9d52-4005-4b8d-8e03-12940e9796d0","ios":"levelo://app?vid=5d5b9d52-4005-4b8d-8e03-12940e9796d0"},"vehicle_type_id":"4","last_reported":1739207271,"current_range_meters":3600,"station_id":"ce4bhnp2rcd13ifvqgvg","pricing_plan_id":"cebpf4jnsgd1na2vs0mg"},{"bike_id":"e74edd37-0ec7-4f56-b77f-e7249fd01314","system_id":"levelo_inurba_marseille","lat":43.30555,"lon":5.36526,"is_reserved":false,"is_disabled":true,"rental_uris":{"android":"levelo://app?vid=e74edd37-0ec7-4f56-b77f-e7249fd01314","ios":"levelo://app?vid=e74edd37-0ec7-4f56-b77f-e7249fd01314"},"vehicle_type_id":"4","last_reported":1739207271,"current_range_meters":18000,"station_id":"ce4bgs12rcd13ifvqcag","pricing_plan_id":"cebpf4jnsgd1na2vs0mg"},{"bike_id":"d65a14c4-ecf3-4048-b05f-9a757ce2f182","system_id":"levelo_inurba_marseille","lat":43.24667,"lon":5.38175,"is_reserved":false,"is_disabled":false,"rental_uris":{"android":"levelo://app?vid=d65a14c4-ecf3-4048-b05f-9a757ce2f182","ios":"levelo://app?vid=d65a14c4-ecf3-4048-b05f-9a757ce2f182"},"vehicle_type_id":"4","last_reported":1739207271,"current_range_meters":38800,"station_id":"ce4bhih2rcd13ifvqfr0","pricing_plan_id":"cebpf4jnsgd1na2vs0mg"},{"bike_id":"58c14be6-53c6-4d0f-b521-769c58db5f96","system_id":"levelo_inurba_marseille","lat":43.29575,"lon":5.39985,"is_reserved":false,"is_disabled":false,"rental_uris":{"android":"levelo://app?vid=58c14be6-53c6-4d0f-b521-769c58db5f96","ios":"levelo://app?vid=58c14be6-53c6-4d0f-b521-769c58db5f96"},"vehicle_type_id":"4","last_reported":1739207271,"current_range_meters":18800,"station_id":"ce4bh312rcd13ifvqdj0","pricing_plan_id":"cebpf4jnsgd1na2vs0mg"},{"bike_id":"0580eb58-e6b1-4e7b-a86c-47b05cf37565","system_id":"levelo_inurba_marseille","lat":43.27322,"lon":5.39078,"is_reserved":false,"is_disabled":false,"rental_uris":{"android":"levelo://app?vid=0580eb58-e6b1-4e7b-a86c-47b05cf37565","ios":"levelo://app?vid=0580eb58-e6b1-4e7b-a86c-47b05cf37565"},"vehicle_type_id":"4","last_reported":1739207271,"current_range_meters":38800,"station_id":"ce4bhgp2rcd13ifvqfe0","pricing_plan_id":"cebpf4jnsgd1na2vs0mg"},{"bike_id":"fc5d4bc6-2b39-43b7-9b1d-497ee96a253f","system_id":"levelo_inurba_marseille","lat":43.29422,"lon":5.38626,"is_reserved":false,"is_disabled":false,"rental_uris":{"android":"levelo://app?vid=fc5d4bc6-2b39-43b7-9b1d-497ee96a253f","ios":"levelo://app?vid=fc5d4bc6-2b39-43b7-9b1d-497ee96a253f"},"vehicle_type_id":"4","last_reported":1739207271,"current_range_meters":28800,"station_id":"ce4bh2h2rcd13ifvqdh0","pricing_plan_id":"cebpf4jnsgd1na2vs0mg"},{"bike_id":"79d0b172-0217-44e3-bae8-123b0260e5bd","system_id":"levelo_inurba_marseille","lat":43.27531,"lon":5.38448,"is_reserved":false,"is_disabled":false,"rental_uris":{"android":"levelo://app?vid=79d0b172-0217-44e3-bae8-123b0260e5bd","ios":"levelo://app?vid=79d0b172-0217-44e3-bae8-123b0260e5bd"},"vehicle_type_id":"4","last_reported":1739207271,"current_range_meters":29600,"station_id":"ce4bhh92rcd13ifvqfi0","pricing_plan_id":"cebpf4jnsgd1na2vs0mg"},{"bike_id":"e5491c41-467c-40d9-b58c-33959b38346b","system_id":"levelo_inurba_marseille","lat":43.28718,"lon":5.36107,"is_reserved":false,"is_disabled":false,"rental_uris":{"android":"levelo://app?vid=e5491c41-467c-40d9-b58c-33959b38346b","ios":"levelo://app?vid=e5491c41-467c-40d9-b58c-33959b38346b"},"vehicle_type_id":"4","last_reported":1739207271,"current_range_meters":16000,"station_id":"cki0cbj6b192h4jlfktg","pricing_plan_id":"cebpf4jnsgd1na2vs0mg"},{"bike_id":"e1918a80-e061-48ff-a7f0-f6cb259b93c9","system_id":"levelo_inurba_marseille","lat":43.2953,"lon":5.39039,"is_reserved":false,"is_disabled":false,"rental_uris":{"android":"levelo://app?vid=e1918a80-e061-48ff-a7f0-f6cb259b93c9","ios":"levelo://app?vid=e1918a80-e061-48ff-a7f0-f6cb259b93c9"},"vehicle_type_id":"4","last_reported":1739207271,"current_range_meters":28400,"station_id":"ce4bh3p2rcd13ifvqdp0","pricing_plan_id":"cebpf4jnsgd1na2vs0mg"},{"bike_id":"f2a19d6d-1c3c-4ae5-a155-e51d34c1aabd","system_id":"levelo_inurba_marseille","lat":43.28577,"lon":5.39499,"is_reserved":false,"is_disabled":false,"rental_uris":{"android":"levelo://app?vid=f2a19d6d-1c3c-4ae5-a155-e51d34c1aabd","ios":"levelo://app?vid=f2a19d6d-1c3c-4ae5-a155-e51d34c1aabd"},"vehicle_type_id":"4","last_reported":1739207271,"current_range_meters":28000,"station_id":"ce4bh292rcd13ifvqdg0","pricing_plan_id":"cebpf4jnsgd1na2vs0mg"},{"bike_id":"118acaa8-c377-4759-a8f9-c3303973ef34","system_id":"levelo_inurba_marseille","lat":43.29884,"lon":5.38901,"is_reserved":false,"is_disabled":false,"rental_uris":{"android":"levelo://app?vid=118acaa8-c377-4759-a8f9-c3303973ef34","ios":"levelo://app?vid=118acaa8-c377-4759-a8f9-c3303973ef34"},"vehicle_type_id":"4","last_reported":1739207271,"current_range_meters":28400,"station_id":"ce4bh392rcd13ifvqdl0","pricing_plan_id":"cebpf4jnsgd1na2vs0mg"},{"bike_id":"fd487318-ffb5-497c-aa43-11d15abb3d71","system_id":"levelo_inurba_marseille","lat":43.29788,"lon":5.371,"is_reserved":false,"is_disabled":false,"rental_uris":{"android":"levelo://app?vid=fd487318-ffb5-497c-aa43-11d15abb3d71","ios":"levelo://app?vid=fd487318-ffb5-497c-aa43-11d15abb3d71"},"vehicle_type_id":"4","last_reported":1739207271,"current_range_meters":22000,"station_id":"ce4bgop2rcd13ifvqc1g","pricing_plan_id":"cebpf4jnsgd1na2vs0mg"},{"bike_id":"90a5a9a9-9ea7-4619-b9b7-10691f0ea3c3","system_id":"levelo_inurba_marseille","lat":43.293693,"lon":5.37854,"is_reserved":false,"is_disabled":false,"rental_uris":{"android":"levelo://app?vid=90a5a9a9-9ea7-4619-b9b7-10691f0ea3c3","ios":"levelo://app?vid=90a5a9a9-9ea7-4619-b9b7-10691f0ea3c3"},"vehicle_type_id":"4","last_reported":1739207271,"current_range_meters":7200,"station_id":"ce4bgjh2rcd13ifvqbf0","pricing_plan_id":"cebpf4jnsgd1na2vs0mg"},{"bike_id":"528ffdd1-2d55-4b8a-b653-fb17589bc390","system_id":"levelo_inurba_marseille","lat":43.29278,"lon":5.40116,"is_reserved":false,"is_disabled":false,"rental_uris":{"android":"levelo://app?vid=528ffdd1-2d55-4b8a-b653-fb17589bc390","ios":"levelo://app?vid=528ffdd1-2d55-4b8a-b653-fb17589bc390"},"vehicle_type_id":"4","last_reported":1739207271,"current_range_meters":3200,"station_id":"ce4bh312rcd13ifvqdk0","pricing_plan_id":"cebpf4jnsgd1na2vs0mg"},{"bike_id":"bf06a992-ef12-4c29-9ae8-9540c94d527a","system_id":"levelo_inurba_marseille","lat":43.30882,"lon":5.37194,"is_reserved":false,"is_disabled":false,"rental_uris":{"android":"levelo://app?vid=bf06a992-ef12-4c29-9ae8-9540c94d527a","ios":"levelo://app?vid=bf06a992-ef12-4c29-9ae8-9540c94d527a"},"vehicle_type_id":"4","last_reported":1739207271,"current_range_meters":30400,"station_id":"ce4bguh2rcd13ifvqckg","pricing_plan_id":"cebpf4jnsgd1na2vs0mg"},{"bike_id":"54ce597b-1ca1-4d62-923d-d4b29eec04b3","system_id":"levelo_inurba_marseille","lat":43.31131,"lon":5.38261,"is_reserved":false,"is_disabled":false,"rental_uris":{"android":"levelo://app?vid=54ce597b-1ca1-4d62-923d-d4b29eec04b3","ios":"levelo://app?vid=54ce597b-1ca1-4d62-923d-d4b29eec04b3"},"vehicle_type_id":"4","last_reported":1739207271,"current_range_meters":24800,"station_id":"","pricing_plan_id":"cebpf4jnsgd1na2vs0mg"},{"bike_id":"b4765ae2-b7fb-4718-bf68-ce7ba2c817f9","system_id":"levelo_inurba_marseille","lat":43.27072,"lon":5.42283,"is_reserved":false,"is_disabled":false,"rental_uris":{"android":"levelo://app?vid=b4765ae2-b7fb-4718-bf68-ce7ba2c817f9","ios":"levelo://app?vid=b4765ae2-b7fb-4718-bf68-ce7ba2c817f9"},"vehicle_type_id":"4","last_reported":1739207271,"current_range_meters":27600,"station_id":"ce4bhk92rcd13ifvqgb0","pricing_plan_id":"cebpf4jnsgd1na2vs0mg"},{"bike_id":"a208325e-37e5-4c4e-8da6-ada4810a13ed","system_id":"levelo_inurba_marseille","lat":43.26058,"lon":5.39409,"is_reserved":false,"is_disabled":false,"rental_uris":{"android":"levelo://app?vid=a208325e-37e5-4c4e-8da6-ada4810a13ed","ios":"levelo://app?vid=a208325e-37e5-4c4e-8da6-ada4810a13ed"},"vehicle_type_id":"4","last_reported":1739207271,"current_range_meters":39200,"station_id":"ce4bhh92rcd13ifvqfj0","pricing_plan_id":"cebpf4jnsgd1na2vs0mg"},{"bike_id":"a2edcc76-2265-4bc6-8f2e-29b460d743ff","system_id":"levelo_inurba_marseille","lat":43.25583,"lon":5.38222,"is_reserved":false,"is_disabled":false,"rental_uris":{"android":"levelo://app?vid=a2edcc76-2265-4bc6-8f2e-29b460d743ff","ios":"levelo://app?vid=a2edcc76-2265-4bc6-8f2e-29b460d743ff"},"vehicle_type_id":"4","last_reported":1739207271,"current_range_meters":25200,"station_id":"ce4bhih2rcd13ifvqfs0","pricing_plan_id":"cebpf4jnsgd1na2vs0mg"},{"bike_id":"657f73ac-fa35-4594-8623-6a81edb9eb82","system_id":"levelo_inurba_marseille","lat":43.29533,"lon":5.38551,"is_reserved":false,"is_disabled":false,"rental_uris":{"android":"levelo://app?vid=657f73ac-fa35-4594-8623-6a81edb9eb82","ios":"levelo://app?vid=657f73ac-fa35-4594-8623-6a81edb9eb82"},"vehicle_type_id":"4","last_reported":1739207271,"current_range_meters":17200,"station_id":"ce4bgih2rcd13ifvqba0","pricing_plan_id":"cebpf4jnsgd1na2vs0mg"},{"bike_id":"c8491384-f52d-4c3d-b2f4-45fe0c615375","system_id":"levelo_inurba_marseille","lat":43.28281,"lon":5.35075,"is_reserved":false,"is_disabled":false,"rental_uris":{"android":"levelo://app?vid=c8491384-f52d-4c3d-b2f4-45fe0c615375","ios":"levelo://app?vid=c8491384-f52d-4c3d-b2f4-45fe0c615375"},"vehicle_type_id":"4","last_reported":1739207271,"current_range_meters":33200,"station_id":"ce4bhbp2rcd13ifvqerg","pricing_plan_id":"cebpf4jnsgd1na2vs0mg"},{"bike_id":"f6032093-acba-469c-87fb-29d8d78369ea","system_id":"levelo_inurba_marseille","lat":43.28614,"lon":5.35103,"is_reserved":false,"is_disabled":false,"rental_uris":{"android":"levelo://app?vid=f6032093-acba-469c-87fb-29d8d78369ea","ios":"levelo://app?vid=f6032093-acba-469c-87fb-29d8d78369ea"},"vehicle_type_id":"4","last_reported":1739207271,"current_range_meters":28800,"station_id":"ce4bhch2rcd13ifvqeug","pricing_plan_id":"cebpf4jnsgd1na2vs0mg"},{"bike_id":"a59bcb7e-b2e3-4ee5-b218-1c28e53b3039","system_id":"levelo_inurba_marseille","lat":43.27318,"lon":5.39097,"is_reserved":false,"is_disabled":true,"rental_uris":{"android":"levelo://app?vid=a59bcb7e-b2e3-4ee5-b218-1c28e53b3039","ios":"levelo://app?vid=a59bcb7e-b2e3-4ee5-b218-1c28e53b3039"},"vehicle_type_id":"4","last_reported":1739207271,"current_range_meters":6400,"station_id":"ce4bhgp2rcd13ifvqfe0","pricing_plan_id":"cebpf4jnsgd1na2vs0mg"},{"bike_id":"bc7ea8ce-8503-416e-b234-f24bd4e69b21","system_id":"levelo_inurba_marseille","lat":43.30532,"lon":5.38431,"is_reserved":false,"is_disabled":false,"rental_uris":{"android":"levelo://app?vid=bc7ea8ce-8503-416e-b234-f24bd4e69b21","ios":"levelo://app?vid=bc7ea8ce-8503-416e-b234-f24bd4e69b21"},"vehicle_type_id":"4","last_reported":1739207271,"current_range_meters":38000,"station_id":"ce4bgg92rcd13ifvqb30","pricing_plan_id":"cebpf4jnsgd1na2vs0mg"},{"bike_id":"6cce0b8e-92db-4346-93f8-6b55e72ef75c","system_id":"levelo_inurba_marseille","lat":43.24803,"lon":5.37459,"is_reserved":false,"is_disabled":false,"rental_uris":{"android":"levelo://app?vid=6cce0b8e-92db-4346-93f8-6b55e72ef75c","ios":"levelo://app?vid=6cce0b8e-92db-4346-93f8-6b55e72ef75c"},"vehicle_type_id":"4","last_reported":1739207271,"current_range_meters":38800,"station_id":"ce4bhgh2rcd13ifvqfb0","pricing_plan_id":"cebpf4jnsgd1na2vs0mg"},{"bike_id":"ec849b97-32e8-4538-a3ea-2e1cfc5ef6fe","system_id":"levelo_inurba_marseille","lat":43.28611,"lon":5.37065,"is_reserved":false,"is_disabled":false,"rental_uris":{"android":"levelo://app?vid=ec849b97-32e8-4538-a3ea-2e1cfc5ef6fe","ios":"levelo://app?vid=ec849b97-32e8-4538-a3ea-2e1cfc5ef6fe"},"vehicle_type_id":"4","last_reported":1739207271,"current_range_meters":38800,"station_id":"ce4bht12rcd13ifvqi60","pricing_plan_id":"cebpf4jnsgd1na2vs0mg"},{"bike_id":"0d06f8ed-583f-4925-acc0-af879bb23622","system_id":"levelo_inurba_marseille","lat":43.27772,"lon":5.39871,"is_reserved":false,"is_disabled":true,"rental_uris":{"android":"levelo://app?vid=0d06f8ed-583f-4925-acc0-af879bb23622","ios":"levelo://app?vid=0d06f8ed-583f-4925-acc0-af879bb23622"},"vehicle_type_id":"4","last_reported":1739207271,"current_range_meters":0,"station_id":"","pricing_plan_id":"cebpf4jnsgd1na2vs0mg"},{"bike_id":"0a1d33b3-0778-4516-96bc-c29b5ce2b81a","system_id":"levelo_inurba_marseille","lat":43.30089,"lon":5.39096,"is_reserved":false,"is_disabled":false,"rental_uris":{"android":"levelo://app?vid=0a1d33b3-0778-4516-96bc-c29b5ce2b81a","ios":"levelo://app?vid=0a1d33b3-0778-4516-96bc-c29b5ce2b81a"},"vehicle_type_id":"4","last_reported":1739207271,"current_range_meters":8000,"station_id":"ce4bh192rcd13ifvqdb0","pricing_plan_id":"cebpf4jnsgd1na2vs0mg"},{"bike_id":"d606c525-7dbc-4209-ad64-fc43807a857e","system_id":"levelo_inurba_marseille","lat":43.27985,"lon":5.40021,"is_reserved":false,"is_disabled":false,"rental_uris":{"android":"levelo://app?vid=d606c525-7dbc-4209-ad64-fc43807a857e","ios":"levelo://app?vid=d606c525-7dbc-4209-ad64-fc43807a857e"},"vehicle_type_id":"4","last_reported":1739207271,"current_range_meters":34800,"station_id":"ce4bho92rcd13ifvqh4g","pricing_plan_id":"cebpf4jnsgd1na2vs0mg"},{"bike_id":"15d8c906-1286-4b4c-9ca3-d38c21e42dbe","system_id":"levelo_inurba_marseille","lat":43.27941,"lon":5.38698,"is_reserved":false,"is_disabled":false,"rental_uris":{"android":"levelo://app?vid=15d8c906-1286-4b4c-9ca3-d38c21e42dbe","ios":"levelo://app?vid=15d8c906-1286-4b4c-9ca3-d38c21e42dbe"},"vehicle_type_id":"4","last_reported":1739207271,"current_range_meters":15200,"station_id":"","pricing_plan_id":"cebpf4jnsgd1na2vs0mg"},{"bike_id":"4112fca7-ef57-460b-ab4e-479bd8d00484","system_id":"levelo_inurba_marseille","lat":43.27202,"lon":5.39196,"is_reserved":false,"is_disabled":false,"rental_uris":{"android":"levelo://app?vid=4112fca7-ef57-460b-ab4e-479bd8d00484","ios":"levelo://app?vid=4112fca7-ef57-460b-ab4e-479bd8d00484"},"vehicle_type_id":"4","last_reported":1739207271,"current_range_meters":6000,"station_id":"ce4bhhp2rcd13ifvqfm0","pricing_plan_id":"cebpf4jnsgd1na2vs0mg"},{"bike_id":"aa73f3e1-5d29-48cf-86fc-acab720e3734","system_id":"levelo_inurba_marseille","lat":43.23964,"lon":5.36623,"is_reserved":false,"is_disabled":false,"rental_uris":{"android":"levelo://app?vid=aa73f3e1-5d29-48cf-86fc-acab720e3734","ios":"levelo://app?vid=aa73f3e1-5d29-48cf-86fc-acab720e3734"},"vehicle_type_id":"4","last_reported":1739207271,"current_range_meters":15200,"station_id":"ce4bhi12rcd13ifvqfp0","pricing_plan_id":"cebpf4jnsgd1na2vs0mg"},{"bike_id":"277fab29-c1dc-4fca-bdc0-afb633753197","system_id":"levelo_inurba_marseille","lat":43.24396,"lon":5.37046,"is_reserved":false,"is_disabled":false,"rental_uris":{"android":"levelo://app?vid=277fab29-c1dc-4fca-bdc0-afb633753197","ios":"levelo://app?vid=277fab29-c1dc-4fca-bdc0-afb633753197"},"vehicle_type_id":"4","last_reported":1739207271,"current_range_meters":38800,"station_id":"ce4bhhh2rcd13ifvqfk0","pricing_plan_id":"cebpf4jnsgd1na2vs0mg"},{"bike_id":"672e4bf2-f620-4b18-b74b-82421f95f602","system_id":"levelo_inurba_marseille","lat":43.3254,"lon":5.41422,"is_reserved":false,"is_disabled":false,"rental_uris":{"android":"levelo://app?vid=672e4bf2-f620-4b18-b74b-82421f95f602","ios":"levelo://app?vid=672e4bf2-f620-4b18-b74b-82421f95f602"},"vehicle_type_id":"4","last_reported":1739207271,"current_range_meters":28400,"station_id":"ce4bhq12rcd13ifvqhhg","pricing_plan_id":"cebpf4jnsgd1na2vs0mg"},{"bike_id":"68f2e2f5-6877-4dcc-b245-592907d28096","system_id":"levelo_inurba_marseille","lat":43.27577,"lon":5.38432,"is_reserved":false,"is_disabled":false,"rental_uris":{"android":"levelo://app?vid=68f2e2f5-6877-4dcc-b245-592907d28096","ios":"levelo://app?vid=68f2e2f5-6877-4dcc-b245-592907d28096"},"vehicle_type_id":"4","last_reported":1739207271,"current_range_meters":39200,"station_id":"ce4bhh92rcd13ifvqfi0","pricing_plan_id":"cebpf4jnsgd1na2vs0mg"},{"bike_id":"cda48b2f-1182-4f4a-969a-7bcc019636b4","system_id":"levelo_inurba_marseille","lat":43.29973,"lon":5.38527,"is_reserved":false,"is_disabled":false,"rental_uris":{"android":"levelo://app?vid=cda48b2f-1182-4f4a-969a-7bcc019636b4","ios":"levelo://app?vid=cda48b2f-1182-4f4a-969a-7bcc019636b4"},"vehicle_type_id":"4","last_reported":1739207271,"current_range_meters":30400,"station_id":"ce4bgj92rcd13ifvqbd0","pricing_plan_id":"cebpf4jnsgd1na2vs0mg"},{"bike_id":"c950ea40-9af8-455a-88b8-64cd1c8d982d","system_id":"levelo_inurba_marseille","lat":43.28153,"lon":5.42648,"is_reserved":false,"is_disabled":false,"rental_uris":{"android":"levelo://app?vid=c950ea40-9af8-455a-88b8-64cd1c8d982d","ios":"levelo://app?vid=c950ea40-9af8-455a-88b8-64cd1c8d982d"},"vehicle_type_id":"4","last_reported":1739207271,"current_range_meters":28400,"station_id":"ce4bhnh2rcd13ifvqgug","pricing_plan_id":"cebpf4jnsgd1na2vs0mg"},{"bike_id":"d157203c-3a5b-4bbc-9638-6eefce740d5e","system_id":"levelo_inurba_marseille","lat":43.2319,"lon":5.355478,"is_reserved":false,"is_disabled":false,"rental_uris":{"android":"levelo://app?vid=d157203c-3a5b-4bbc-9638-6eefce740d5e","ios":"levelo://app?vid=d157203c-3a5b-4bbc-9638-6eefce740d5e"},"vehicle_type_id":"4","last_reported":1739207271,"current_range_meters":38800,"station_id":"ce4bhu92rcd13ifvqi70","pricing_plan_id":"cebpf4jnsgd1na2vs0mg"},{"bike_id":"db9ac0fb-e4aa-4802-809c-d38a770b5c83","system_id":"levelo_inurba_marseille","lat":43.28944,"lon":5.3639,"is_reserved":false,"is_disabled":false,"rental_uris":{"android":"levelo://app?vid=db9ac0fb-e4aa-4802-809c-d38a770b5c83","ios":"levelo://app?vid=db9ac0fb-e4aa-4802-809c-d38a770b5c83"},"vehicle_type_id":"4","last_reported":1739207271,"current_range_meters":34800,"station_id":"ce4bhc92rcd13ifvqetg","pricing_plan_id":"cebpf4jnsgd1na2vs0mg"},{"bike_id":"b8da116a-4d54-4af7-be2e-2b0cce3d889a","system_id":"levelo_inurba_marseille","lat":43.25003,"lon":5.38925,"is_reserved":false,"is_disabled":false,"rental_uris":{"android":"levelo://app?vid=b8da116a-4d54-4af7-be2e-2b0cce3d889a","ios":"levelo://app?vid=b8da116a-4d54-4af7-be2e-2b0cce3d889a"},"vehicle_type_id":"4","last_reported":1739207271,"current_range_meters":28400,"station_id":"ce4bhgp2rcd13ifvqfd0","pricing_plan_id":"cebpf4jnsgd1na2vs0mg"},{"bike_id":"c966f66f-638e-4218-b1f1-bc3b8822ffa0","system_id":"levelo_inurba_marseille","lat":43.29283,"lon":5.36858,"is_reserved":false,"is_disabled":false,"rental_uris":{"android":"levelo://app?vid=c966f66f-638e-4218-b1f1-bc3b8822ffa0","ios":"levelo://app?vid=c966f66f-638e-4218-b1f1-bc3b8822ffa0"},"vehicle_type_id":"4","last_reported":1739207271,"current_range_meters":28000,"station_id":"ce4bhbp2rcd13ifvqesg","pricing_plan_id":"cebpf4jnsgd1na2vs0mg"},{"bike_id":"6477f7d9-757f-4fec-8c2c-6f528ed204dc","system_id":"levelo_inurba_marseille","lat":43.24162,"lon":5.36412,"is_reserved":false,"is_disabled":false,"rental_uris":{"android":"levelo://app?vid=6477f7d9-757f-4fec-8c2c-6f528ed204dc","ios":"levelo://app?vid=6477f7d9-757f-4fec-8c2c-6f528ed204dc"},"vehicle_type_id":"4","last_reported":1739207271,"current_range_meters":9600,"station_id":"cpo36qri1sfpv3e86is0","pricing_plan_id":"cebpf4jnsgd1na2vs0mg"},{"bike_id":"42328eb6-0e8f-42b7-a9a6-e1f2e4608848","system_id":"levelo_inurba_marseille","lat":43.25585,"lon":5.38218,"is_reserved":false,"is_disabled":false,"rental_uris":{"android":"levelo://app?vid=42328eb6-0e8f-42b7-a9a6-e1f2e4608848","ios":"levelo://app?vid=42328eb6-0e8f-42b7-a9a6-e1f2e4608848"},"vehicle_type_id":"4","last_reported":1739207271,"current_range_meters":38400,"station_id":"ce4bhih2rcd13ifvqfs0","pricing_plan_id":"cebpf4jnsgd1na2vs0mg"},{"bike_id":"073c638d-f67d-4e0c-b317-ac6f6333f297","system_id":"levelo_inurba_marseille","lat":43.27834,"lon":5.39206,"is_reserved":false,"is_disabled":false,"rental_uris":{"android":"levelo://app?vid=073c638d-f67d-4e0c-b317-ac6f6333f297","ios":"levelo://app?vid=073c638d-f67d-4e0c-b317-ac6f6333f297"},"vehicle_type_id":"4","last_reported":1739207271,"current_range_meters":39200,"station_id":"ce4bhjp2rcd13ifvqga0","pricing_plan_id":"cebpf4jnsgd1na2vs0mg"},{"bike_id":"a94e4fa8-7750-4db4-a92c-f530b3c96c75","system_id":"levelo_inurba_marseille","lat":43.30223,"lon":5.39477,"is_reserved":false,"is_disabled":false,"rental_uris":{"android":"levelo://app?vid=a94e4fa8-7750-4db4-a92c-f530b3c96c75","ios":"levelo://app?vid=a94e4fa8-7750-4db4-a92c-f530b3c96c75"},"vehicle_type_id":"4","last_reported":1739207271,"current_range_meters":36400,"station_id":"ce4bh0p2rcd13ifvqd70","pricing_plan_id":"cebpf4jnsgd1na2vs0mg"},{"bike_id":"792ea10e-3b0a-4287-8ed5-bd99153ed548","system_id":"levelo_inurba_marseille","lat":43.29418,"lon":5.38623,"is_reserved":false,"is_disabled":false,"rental_uris":{"android":"levelo://app?vid=792ea10e-3b0a-4287-8ed5-bd99153ed548","ios":"levelo://app?vid=792ea10e-3b0a-4287-8ed5-bd99153ed548"},"vehicle_type_id":"4","last_reported":1739207271,"current_range_meters":20400,"station_id":"ce4bh2h2rcd13ifvqdh0","pricing_plan_id":"cebpf4jnsgd1na2vs0mg"},{"bike_id":"5056a139-0a18-4cf7-b5f2-5d5036ac0e6d","system_id":"levelo_inurba_marseille","lat":43.246446,"lon":5.388925,"is_reserved":false,"is_disabled":false,"rental_uris":{"android":"levelo://app?vid=5056a139-0a18-4cf7-b5f2-5d5036ac0e6d","ios":"levelo://app?vid=5056a139-0a18-4cf7-b5f2-5d5036ac0e6d"},"vehicle_type_id":"4","last_reported":1739207271,"current_range_meters":14400,"station_id":"ce4bhg12rcd13ifvqf60","pricing_plan_id":"cebpf4jnsgd1na2vs0mg"},{"bike_id":"f7324774-aba1-4f8d-b8dc-42a3b830ec32","system_id":"levelo_inurba_marseille","lat":43.270733,"lon":5.42276,"is_reserved":false,"is_disabled":false,"rental_uris":{"android":"levelo://app?vid=f7324774-aba1-4f8d-b8dc-42a3b830ec32","ios":"levelo://app?vid=f7324774-aba1-4f8d-b8dc-42a3b830ec32"},"vehicle_type_id":"4","last_reported":1739207271,"current_range_meters":8000,"station_id":"ce4bhk92rcd13ifvqgb0","pricing_plan_id":"cebpf4jnsgd1na2vs0mg"},{"bike_id":"8dd63036-da54-4f69-97b1-6b956a7756b3","system_id":"levelo_inurba_marseille","lat":43.28559,"lon":5.39501,"is_reserved":false,"is_disabled":false,"rental_uris":{"android":"levelo://app?vid=8dd63036-da54-4f69-97b1-6b956a7756b3","ios":"levelo://app?vid=8dd63036-da54-4f69-97b1-6b956a7756b3"},"vehicle_type_id":"4","last_reported":1739207271,"current_range_meters":38000,"station_id":"ce4bh292rcd13ifvqdg0","pricing_plan_id":"cebpf4jnsgd1na2vs0mg"},{"bike_id":"d5c70d96-d82e-42c2-b58e-ae1bce0f322b","system_id":"levelo_inurba_marseille","lat":43.24163,"lon":5.36408,"is_reserved":false,"is_disabled":false,"rental_uris":{"android":"levelo://app?vid=d5c70d96-d82e-42c2-b58e-ae1bce0f322b","ios":"levelo://app?vid=d5c70d96-d82e-42c2-b58e-ae1bce0f322b"},"vehicle_type_id":"4","last_reported":1739207271,"current_range_meters":10000,"station_id":"cpo36qri1sfpv3e86is0","pricing_plan_id":"cebpf4jnsgd1na2vs0mg"},{"bike_id":"17cc9f3b-640b-487d-bdff-1e55670045a8","system_id":"levelo_inurba_marseille","lat":43.32359,"lon":5.38887,"is_reserved":false,"is_disabled":false,"rental_uris":{"android":"levelo://app?vid=17cc9f3b-640b-487d-bdff-1e55670045a8","ios":"levelo://app?vid=17cc9f3b-640b-487d-bdff-1e55670045a8"},"vehicle_type_id":"4","last_reported":1739207271,"current_range_meters":6400,"station_id":"ce4bhqp2rcd13ifvqhog","pricing_plan_id":"cebpf4jnsgd1na2vs0mg"},{"bike_id":"19c380f3-3cda-464a-ac7f-c639f19077f2","system_id":"levelo_inurba_marseille","lat":43.32896,"lon":5.39954,"is_reserved":false,"is_disabled":false,"rental_uris":{"android":"levelo://app?vid=19c380f3-3cda-464a-ac7f-c639f19077f2","ios":"levelo://app?vid=19c380f3-3cda-464a-ac7f-c639f19077f2"},"vehicle_type_id":"4","last_reported":1739207271,"current_range_meters":36400,"station_id":"","pricing_plan_id":"cebpf4jnsgd1na2vs0mg"},{"bike_id":"d88d06f5-ee4b-49e4-bfae-afae57f90422","system_id":"levelo_inurba_marseille","lat":43.30217,"lon":5.39486,"is_reserved":false,"is_disabled":false,"rental_uris":{"android":"levelo://app?vid=d88d06f5-ee4b-49e4-bfae-afae57f90422","ios":"levelo://app?vid=d88d06f5-ee4b-49e4-bfae-afae57f90422"},"vehicle_type_id":"4","last_reported":1739207271,"current_range_meters":38400,"station_id":"ce4bh0p2rcd13ifvqd70","pricing_plan_id":"cebpf4jnsgd1na2vs0mg"},{"bike_id":"d4426273-0ddc-4d55-81f0-37090a3bcd43","system_id":"levelo_inurba_marseille","lat":43.25101,"lon":5.40331,"is_reserved":false,"is_disabled":true,"rental_uris":{"android":"levelo://app?vid=d4426273-0ddc-4d55-81f0-37090a3bcd43","ios":"levelo://app?vid=d4426273-0ddc-4d55-81f0-37090a3bcd43"},"vehicle_type_id":"4","last_reported":1739207271,"current_range_meters":38800,"station_id":"ce4bhlh2rcd13ifvqgig","pricing_plan_id":"cebpf4jnsgd1na2vs0mg"},