{"last_updated":1710597946,"ttl":30,"version":"2.2","data":{"bikes":[{"bike_id":"0def9a9d-f069-4b09-b2ac-f2f6d1afe225","system_id":"levelo_inurba_marseille","lat":43.312239,"lon":5.368562,"is_reserved":false,"is_disabled":false,"rental_uris":{"android":"levelo://app?vid=0def9a9d-f069-4b09-b2ac-f2f6d1afe225","ios":"levelo://app?vid=0def9a9d-f069-4b09-b2ac-f2f6d1afe225"},"vehicle_type_id":"4","last_reported":1710597946,"current_range_meters":13200,"station_id":"ce4bgl92rcd13ifvqbq0","pricing_plan_id":"cebpf4jnsgd1na2vs0mg"},{"bike_id":"0fd29f7d-d26b-40ca-ba87-d338359f312c","system_id":"levelo_inurba_marseille","lat":43.312239,"lon":5.368562,"is_reserved":false,"is_disabled":false,"rental_uris":{"android":"levelo://app?vid=0fd29f7d-d26b-40ca-ba87-d338359f312c","ios":"levelo://app?vid=0fd29f7d-d26b-40ca-ba87-d338359f312c"},"vehicle_type_id":"4","last_reported":1710597946,"current_range_meters":19600,"station_id":"ce4bgl92rcd13ifvqbq0","pricing_plan_id":"cebpf4jnsgd1na2vs0mg"},{"bike_id":"c9b07454-7990-4978-a36d-0afd68c3baa8","system_id":"levelo_inurba_marseille","lat":43.312246,"lon":5.368589,"is_reserved":false,"is_disabled":false,"rental_uris":{"android":"levelo://app?vid=c9b07454-7990-4978-a36d-0afd68c3baa8","ios":"levelo://app?vid=c9b07454-7990-4978-a36d-0afd68c3baa8"},"vehicle_type_id":"4","last_reported":1710597946,"current_range_meters":27200,"station_id":"ce4bgl92rcd13ifvqbq0","pricing_plan_id":"cebpf4jnsgd1na2vs0mg"},{"bike_id":"bff1eab9-8e7f-4bfc-af0e-9a256ab91fa6","system_id":"levelo_inurba_marseille","lat":43.312239,"lon":5.368562,"is_reserved":false,"is_disabled":false,"rental_uris":{"android":"levelo://app?vid=bff1eab9-8e7f-4bfc-af0e-9a256ab91fa6","ios":"levelo://app?vid=bff1eab9-8e7f-4bfc-af0e-9a256ab91fa6"},"vehicle_type_id":"4","last_reported":1710597946,"current_range_meters":26400,"station_id":"ce4bgl92rcd13ifvqbq0","pricing_plan_id":"cebpf4jnsgd1na2vs0mg"},{"bike_id":"8d805d4c-ecf6-422e-9c29-fa6e9a347718","system_id":"levelo_inurba_marseille","lat":43.3091,"lon":5.36856,"is_reserved":false,"is_disabled":false,"rental_uris":{"android":"levelo://app?vid=8d805d4c-ecf6-422e-9c29-fa6e9a347718","ios":"levelo://app?vid=8d805d4c-ecf6-422e-9c29-fa6e9a347718"},"vehicle_type_id":"4","last_reported":1710597946,"current_range_meters":3200,"station_id":"ce4bgn92rcd13ifvqbvg","pricing_plan_id":"cebpf4jnsgd1na2vs0mg"},{"bike_id":"d74aac2a-fdaa-4c86-9fdf-a7d24e8fd9ec","system_id":"levelo_inurba_marseille","lat":43.314811,"lon":5.373103,"is_reserved":false,"is_disabled":false,"rental_uris":{"android":"levelo://app?vid=d74aac2a-fdaa-4c86-9fdf-a7d24e8fd9ec","ios":"levelo://app?vid=d74aac2a-fdaa-4c86-9fdf-a7d24e8fd9ec"},"vehicle_type_id":"4","last_reported":1710597946,"current_range_meters":10000,"station_id":"ce4bgt12rcd13ifvqcd0","pricing_plan_id":"cebpf4jnsgd1na2vs0mg"},{"bike_id":"fd1bf0c0-3c09-4025-9101-9407065055b5","system_id":"levelo_inurba_marseille","lat":43.314811,"lon":5.373104,"is_reserved":false,"is_disabled":false,"rental_uris":{"android":"levelo://app?vid=fd1bf0c0-3c09-4025-9101-9407065055b5","ios":"levelo://app?vid=fd1bf0c0-3c09-4025-9101-9407065055b5"},"vehicle_type_id":"4","last_reported":1710597946,"current_range_meters":17200,"station_id":"ce4bgt12rcd13ifvqcd0","pricing_plan_id":"cebpf4jnsgd1na2vs0mg"},{"bike_id":"839cc7c2-c710-487c-aafb-7c5c714505ca","system_id":"levelo_inurba_marseille","lat":43.314811,"lon":5.373103,"is_reserved":false,"is_disabled":false,"rental_uris":{"android":"levelo://app?vid=839cc7c2-c710-487c-aafb-7c5c714505ca","ios":"levelo://app?vid=839cc7c2-c710-487c-aafb-7c5c714505ca"},"vehicle_type_id":"4","last_reported":1710597946,"current_range_meters":25600,"station_id":"ce4bgt12rcd13ifvqcd0","pricing_plan_id":"cebpf4jnsgd1na2vs0mg"},{"bike_id":"7ebe71b5-2d80-47bb-ba4f-65c9a2240eb8","system_id":"levelo_inurba_marseille","lat":43.314811,"lon":5.373104,"is_reserved":false,"is_disabled":false,"rental_uris":{"android":"levelo://app?vid=7ebe71b5-2d80-47bb-ba4f-65c9a2240eb8","ios":"levelo://app?vid=7ebe71b5-2d80-47bb-ba4f-65c9a2240eb8"},"vehicle_type_id":"4","last_reported":1710597946,"current_range_meters":16000,"station_id":"ce4bgt12rcd13ifvqcd0","pricing_plan_id":"cebpf4jnsgd1na2vs0mg"},{"bike_id":"8a610df9-817e-4c10-b94c-f022a2a2b2c2","system_id":"levelo_inurba_marseille","lat":43.309034,"lon":5.371783,"is_reserved":false,"is_disabled":false,"rental_uris":{"android":"levelo://app?vid=8a610df9-817e-4c10-b94c-f022a2a2b2c2","ios":"levelo://app?vid=8a610df9-817e-4c10-b94c-f022a2a2b2c2"},"vehicle_type_id":"4","last_reported":1710597946,"current_range_meters":25600,"station_id":"ce4bguh2rcd13ifvqckg","pricing_plan_id":"cebpf4jnsgd1na2vs0mg"},{"bike_id":"39dacae5-3510-43a8-b5dc-7abaaa38ff7e","system_id":"levelo_inurba_marseille","lat":43.309034,"lon":5.371783,"is_reserved":false,"is_disabled":false,"rental_uris":{"android":"levelo://app?vid=39dacae5-3510-43a8-b5dc-7abaaa38ff7e","ios":"levelo://app?vid=39dacae5-3510-43a8-b5dc-7abaaa38ff7e"},"vehicle_type_id":"4","last_reported":1710597946,"current_range_meters":26400,"station_id":"ce4bguh2rcd13ifvqckg","pricing_plan_id":"cebpf4jnsgd1na2vs0mg"},{"bike_id":"57a9a273-37d6-426c-ae9a-ce6e5859cd40","system_id":"levelo_inurba_marseille","lat":43.30695,"lon":5.366087,"is_reserved":false,"is_disabled":false,"rental_uris":{"android":"levelo://app?vid=57a9a273-37d6-426c-ae9a-ce6e5859cd40","ios":"levelo://app?vid=57a9a273-37d6-426c-ae9a-ce6e5859cd40"},"vehicle_type_id":"4","last_reported":1710597946,"current_range_meters":12400,"station_id":"","pricing_plan_id":"cebpf4jnsgd1na2vs0mg"},{"bike_id":"48142ab5-20e0-47e8-b2b4-25de4aa6919f","system_id":"levelo_inurba_marseille","lat":43.305368,"lon":5.367343,"is_reserved":false,"is_disabled":false,"rental_uris":{"android":"levelo://app?vid=48142ab5-20e0-47e8-b2b4-25de4aa6919f","ios":"levelo://app?vid=48142ab5-20e0-47e8-b2b4-25de4aa6919f"},"vehicle_type_id":"4","last_reported":1710597946,"current_range_meters":0,"station_id":"ce4bgrp2rcd13ifvqc9g","pricing_plan_id":"cebpf4jnsgd1na2vs0mg"},{"bike_id":"67b93e6c-09e0-41dc-8bb1-f0351d437a40","system_id":"levelo_inurba_marseille","lat":43.305368,"lon":5.367343,"is_reserved":false,"is_disabled":false,"rental_uris":{"android":"levelo://app?vid=67b93e6c-09e0-41dc-8bb1-f0351d437a40","ios":"levelo://app?vid=67b93e6c-09e0-41dc-8bb1-f0351d437a40"},"vehicle_type_id":"4","last_reported":1710597946,"current_range_meters":19200,"station_id":"ce4bgrp2rcd13ifvqc9g","pricing_plan_id":"cebpf4jnsgd1na2vs0mg"},{"bike_id":"c9b3eafc-5b52-4f7c-8f6e-7671b506fec8","system_id":"levelo_inurba_marseille","lat":43.305368,"lon":5.367343,"is_reserved":false,"is_disabled":false,"rental_uris":{"android":"levelo://app?vid=c9b3eafc-5b52-4f7c-8f6e-7671b506fec8","ios":"levelo://app?vid=c9b3eafc-5b52-4f7c-8f6e-7671b506fec8"},"vehicle_type_id":"4","last_reported":1710597946,"current_range_meters":400,"station_id":"ce4bgrp2rcd13ifvqc9g","pricing_plan_id":"cebpf4jnsgd1na2vs0mg"},{"bike_id":"bb12af97-6135-4c0f-913a-9d39672eefb6","system_id":"levelo_inurba_marseille","lat":43.305989,"lon":5.37225,"is_reserved":false,"is_disabled":false,"rental_uris":{"android":"levelo://app?vid=bb12af97-6135-4c0f-913a-9d39672eefb6","ios":"levelo://app?vid=bb12af97-6135-4c0f-913a-9d39672eefb6"},"vehicle_type_id":"4","last_reported":1710597946,"current_range_meters":20800,"station_id":"ce4bgqh2rcd13ifvqc4g","pricing_plan_id":"cebpf4jnsgd1na2vs0mg"},{"bike_id":"3be217bb-12ef-4908-9958-15ead6b628db","system_id":"levelo_inurba_marseille","lat":43.311131,"lon":5.377651,"is_reserved":false,"is_disabled":false,"rental_uris":{"android":"levelo://app?vid=3be217bb-12ef-4908-9958-15ead6b628db","ios":"levelo://app?vid=3be217bb-12ef-4908-9958-15ead6b628db"},"vehicle_type_id":"4","last_reported":1710597946,"current_range_meters":12000,"station_id":"ce4bgt92rcd13ifvqcg0","pricing_plan_id":"cebpf4jnsgd1na2vs0mg"},{"bike_id":"6ee7d18c-86c0-468e-a8a1-3c20556238ef","system_id":"levelo_inurba_marseille","lat":43.311131,"lon":5.377651,"is_reserved":false,"is_disabled":false,"rental_uris":{"android":"levelo://app?vid=6ee7d18c-86c0-468e-a8a1-3c20556238ef","ios":"levelo://app?vid=6ee7d18c-86c0-468e-a8a1-3c20556238ef"},"vehicle_type_id":"4","last_reported":1710597946,"current_range_meters":18800,"station_id":"ce4bgt92rcd13ifvqcg0","pricing_plan_id":"cebpf4jnsgd1na2vs0mg"},{"bike_id":"c0997019-10d4-4886-8341-e4ba4bbd2e00","system_id":"levelo_inurba_marseille","lat":43.3042,"lon":5.36543,"is_reserved":false,"is_disabled":false,"rental_uris":{"android":"levelo://app?vid=c0997019-10d4-4886-8341-e4ba4bbd2e00","ios":"levelo://app?vid=c0997019-10d4-4886-8341-e4ba4bbd2e00"},"vehicle_type_id":"4","last_reported":1710597946,"current_range_meters":2400,"station_id":"","pricing_plan_id":"cebpf4jnsgd1na2vs0mg"},{"bike_id":"c5b87446-f1bb-4633-ac29-e9df253cba77","system_id":"levelo_inurba_marseille","lat":43.307945,"lon":5.376487,"is_reserved":false,"is_disabled":false,"rental_uris":{"android":"levelo://app?vid=c5b87446-f1bb-4633-ac29-e9df253cba77","ios":"levelo://app?vid=c5b87446-f1bb-4633-ac29-e9df253cba77"},"vehicle_type_id":"4","last_reported":1710597946,"current_range_meters":27200,"station_id":"ce4bgv92rcd13ifvqcq0","pricing_plan_id":"cebpf4jnsgd1na2vs0mg"},{"bike_id":"6648bf75-1e96-43d3-98f1-39e6f9343bfc","system_id":"levelo_inurba_marseille","lat":43.31707,"lon":5.377513,"is_reserved":false,"is_disabled":false,"rental_uris":{"android":"levelo://app?vid=6648bf75-1e96-43d3-98f1-39e6f9343bfc","ios":"levelo://app?vid=6648bf75-1e96-43d3-98f1-39e6f9343bfc"},"vehicle_type_id":"4","last_reported":1710597946,"current_range_meters":15200,"station_id":"ce4bgth2rcd13ifvqch0","pricing_plan_id":"cebpf4jnsgd1na2vs0mg"},{"bike_id":"abb32d38-9a83-42c5-b817-44207ed101e1","system_id":"levelo_inurba_marseille","lat":43.317075,"lon":5.377367,"is_reserved":false,"is_disabled":false,"rental_uris":{"android":"levelo://app?vid=abb32d38-9a83-42c5-b817-44207ed101e1","ios":"levelo://app?vid=abb32d38-9a83-42c5-b817-44207ed101e1"},"vehicle_type_id":"4","last_reported":1710597946,"current_range_meters":20000,"station_id":"ce4bgth2rcd13ifvqch0","pricing_plan_id":"cebpf4jnsgd1na2vs0mg"},{"bike_id":"de9c9002-c793-4d31-8f9c-4a7dd3d41b37","system_id":"levelo_inurba_marseille","lat":43.31706,"lon":5.37755,"is_reserved":false,"is_disabled":false,"rental_uris":{"android":"levelo://app?vid=de9c9002-c793-4d31-8f9c-4a7dd3d41b37","ios":"levelo://app?vid=de9c9002-c793-4d31-8f9c-4a7dd3d41b37"},"vehicle_type_id":"4","last_reported":1710597946,"current_range_meters":18800,"station_id":"ce4bgth2rcd13ifvqch0","pricing_plan_id":"cebpf4jnsgd1na2vs0mg"},{"bike_id":"6805a406-4048-42d0-9b5f-2b1932338969","system_id":"levelo_inurba_marseille","lat":43.317075,"lon":5.377367,"is_reserved":false,"is_disabled":false,"rental_uris":{"android":"levelo://app?vid=6805a406-4048-42d0-9b5f-2b1932338969","ios":"levelo://app?vid=6805a406-4048-42d0-9b5f-2b1932338969"},"vehicle_type_id":"4","last_reported":1710597946,"current_range_meters":24400,"station_id":"ce4bgth2rcd13ifvqch0","pricing_plan_id":"cebpf4jnsgd1na2vs0mg"},{"bike_id":"53f1669c-29ff-41ab-91ca-4f91d8b1a36f","system_id":"levelo_inurba_marseille","lat":43.317075,"lon":5.377367,"is_reserved":false,"is_disabled":false,"rental_uris":{"android":"levelo://app?vid=53f1669c-29ff-41ab-91ca-4f91d8b1a36f","ios":"levelo://app?vid=53f1669c-29ff-41ab-91ca-4f91d8b1a36f"},"vehicle_type_id":"4","last_reported":1710597946,"current_range_meters":31600,"station_id":"ce4bgth2rcd13ifvqch0","pricing_plan_id":"cebpf4jnsgd1na2vs0mg"},{"bike_id":"7c03cb85-9fb8-4e93-b1ef-90fa42e389de","system_id":"levelo_inurba_marseille","lat":43.317075,"lon":5.377367,"is_reserved":false,"is_disabled":false,"rental_uris":{"android":"levelo://app?vid=7c03cb85-9fb8-4e93-b1ef-90fa42e389de","ios":"levelo://app?vid=7c03cb85-9fb8-4e93-b1ef-90fa42e389de"},"vehicle_type_id":"4","last_reported":1710597946,"current_range_meters":20400,"station_id":"ce4bgth2rcd13ifvqch0","pricing_plan_id":"cebpf4jnsgd1na2vs0mg"},{"bike_id":"d0365cdb-ac18-4b51-af08-e78a881a8201","system_id":"levelo_inurba_marseille","lat":43.317075,"lon":5.377367,"is_reserved":false,"is_disabled":false,"rental_uris":{"android":"levelo://app?vid=d0365cdb-ac18-4b51-af08-e78a881a8201","ios":"levelo://app?vid=d0365cdb-ac18-4b51-af08-e78a881a8201"},"vehicle_type_id":"4","last_reported":1710597946,"current_range_meters":31200,"station_id":"ce4bgth2rcd13ifvqch0","pricing_plan_id":"cebpf4jnsgd1na2vs0mg"},{"bike_id":"6df8a519-a704-46e9-b3eb-42b1fb917e85","system_id":"levelo_inurba_marseille","lat":43.31772,"lon":5.37781,"is_reserved":false,"is_disabled":false,"rental_uris":{"android":"levelo://app?vid=6df8a519-a704-46e9-b3eb-42b1fb917e85","ios":"levelo://app?vid=6df8a519-a704-46e9-b3eb-42b1fb917e85"},"vehicle_type_id":"4","last_reported":1710597946,"current_range_meters":10800,"station_id":"","pricing_plan_id":"cebpf4jnsgd1na2vs0mg"},{"bike_id":"3a530262-71d2-45ac-b743-2ae979ca3859","system_id":"levelo_inurba_marseille","lat":43.303046,"lon":5.368981,"is_reserved":false,"is_disabled":false,"rental_uris":{"android":"levelo://app?vid=3a530262-71d2-45ac-b743-2ae979ca3859","ios":"levelo://app?vid=3a530262-71d2-45ac-b743-2ae979ca3859"},"vehicle_type_id":"4","last_reported":1710597946,"current_range_meters":16000,"station_id":"ce4bgqh2rcd13ifvqc5g","pricing_plan_id":"cebpf4jnsgd1na2vs0mg"},{"bike_id":"64445dba-e78c-474a-af22-35766edcdc00","system_id":"levelo_inurba_marseille","lat":43.315289,"lon":5.380349,"is_reserved":false,"is_disabled":false,"rental_uris":{"android":"levelo://app?vid=64445dba-e78c-474a-af22-35766edcdc00","ios":"levelo://app?vid=64445dba-e78c-474a-af22-35766edcdc00"},"vehicle_type_id":"4","last_reported":1710597946,"current_range_meters":6400,"station_id":"ce4bhsp2rcd13ifvqi50","pricing_plan_id":"cebpf4jnsgd1na2vs0mg"},{"bike_id":"3302df43-73ec-47c8-a9bf-32c8df77ebb6","system_id":"levelo_inurba_marseille","lat":43.302,"lon":5.36607,"is_reserved":false,"is_disabled":false,"rental_uris":{"android":"levelo://app?vid=3302df43-73ec-47c8-a9bf-32c8df77ebb6","ios":"levelo://app?vid=3302df43-73ec-47c8-a9bf-32c8df77ebb6"},"vehicle_type_id":"4","last_reported":1710597946,"current_range_meters":11600,"station_id":"ce4bgrh2rcd13ifvqc8g","pricing_plan_id":"cebpf4jnsgd1na2vs0mg"},{"bike_id":"0b9fc3fb-42fb-4afa-b921-137bb43e929b","system_id":"levelo_inurba_marseille","lat":43.307953,"lon":5.381604,"is_reserved":false,"is_disabled":false,"rental_uris":{"android":"levelo://app?vid=0b9fc3fb-42fb-4afa-b921-137bb43e929b","ios":"levelo://app?vid=0b9fc3fb-42fb-4afa-b921-137bb43e929b"},"vehicle_type_id":"4","last_reported":1710597946,"current_range_meters":0,"station_id":"ce4bgt12rcd13ifvqce0","pricing_plan_id":"cebpf4jnsgd1na2vs0mg"},{"bike_id":"8e0a8e62-bb29-444d-ac35-959cc2ea5af6","system_id":"levelo_inurba_marseille","lat":43.304606,"lon":5.379026,"is_reserved":false,"is_disabled":false,"rental_uris":{"android":"levelo://app?vid=8e0a8e62-bb29-444d-ac35-959cc2ea5af6","ios":"levelo://app?vid=8e0a8e62-bb29-444d-ac35-959cc2ea5af6"},"vehicle_type_id":"4","last_reported":1710597946,"current_range_meters":12000,"station_id":"ce4bgup2rcd13ifvqcn0","pricing_plan_id":"cebpf4jnsgd1na2vs0mg"},{"bike_id":"83be375a-7308-4bcd-aff9-138b4ffe760b","system_id":"levelo_inurba_marseille","lat":43.304606,"lon":5.379026,"is_reserved":false,"is_disabled":false,"rental_uris":{"android":"levelo://app?vid=83be375a-7308-4bcd-aff9-138b4ffe760b","ios":"levelo://app?vid=83be375a-7308-4bcd-aff9-138b4ffe760b"},"vehicle_type_id":"4","last_reported":1710597946,"current_range_meters":28800,"station_id":"ce4bgup2rcd13ifvqcn0","pricing_plan_id":"cebpf4jnsgd1na2vs0mg"},{"bike_id":"348ed43c-ca95-41c0-bf05-f0c6e933744f","system_id":"levelo_inurba_marseille","lat":43.304606,"lon":5.379026,"is_reserved":false,"is_disabled":false,"rental_uris":{"android":"levelo://app?vid=348ed43c-ca95-41c0-bf05-f0c6e933744f","ios":"levelo://app?vid=348ed43c-ca95-41c0-bf05-f0c6e933744f"},"vehicle_type_id":"4","last_reported":1710597946,"current_range_meters":16800,"station_id":"ce4bgup2rcd13ifvqcn0","pricing_plan_id":"cebpf4jnsgd1na2vs0mg"},{"bike_id":"30437f2e-5a24-4239-9ddc-089c83f2b604","system_id":"levelo_inurba_marseille","lat":43.304606,"lon":5.379026,"is_reserved":false,"is_disabled":false,"rental_uris":{"android":"levelo://app?vid=30437f2e-5a24-4239-9ddc-089c83f2b604","ios":"levelo://app?vid=30437f2e-5a24-4239-9ddc-089c83f2b604"},"vehicle_type_id":"4","last_reported":1710597946,"current_range_meters":22000,"station_id":"ce4bgup2rcd13ifvqcn0","pricing_plan_id":"cebpf4jnsgd1na2vs0mg"},{"bike_id":"5897c3ec-b9c0-4e05-8772-bfbb5647f8b4","system_id":"levelo_inurba_marseille","lat":43.304606,"lon":5.379026,"is_reserved":false,"is_disabled":false,"rental_uris":{"android":"levelo://app?vid=5897c3ec-b9c0-4e05-8772-bfbb5647f8b4","ios":"levelo://app?vid=5897c3ec-b9c0-4e05-8772-bfbb5647f8b4"},"vehicle_type_id":"4","last_reported":1710597946,"current_range_meters":26800,"station_id":"ce4bgup2rcd13ifvqcn0","pricing_plan_id":"cebpf4jnsgd1na2vs0mg"},{"bike_id":"9f28a0f8-e82a-4729-b654-3d763367d728","system_id":"levelo_inurba_marseille","lat":43.304606,"lon":5.379026,"is_reserved":false,"is_disabled":false,"rental_uris":{"android":"levelo://app?vid=9f28a0f8-e82a-4729-b654-3d763367d728","ios":"levelo://app?vid=9f28a0f8-e82a-4729-b654-3d763367d728"},"vehicle_type_id":"4","last_reported":1710597946,"current_range_meters":28400,"station_id":"ce4bgup2rcd13ifvqcn0","pricing_plan_id":"cebpf4jnsgd1na2vs0mg"},{"bike_id":"181c04fe-9a57-4b67-b1c2-98e7a72256d2","system_id":"levelo_inurba_marseille","lat":43.30461,"lon":5.379,"is_reserved":false,"is_disabled":false,"rental_uris":{"android":"levelo://app?vid=181c04fe-9a57-4b67-b1c2-98e7a72256d2","ios":"levelo://app?vid=181c04fe-9a57-4b67-b1c2-98e7a72256d2"},"vehicle_type_id":"4","last_reported":1710597946,"current_range_meters":0,"station_id":"ce4bgup2rcd13ifvqcn0","pricing_plan_id":"cebpf4jnsgd1na2vs0mg"},{"bike_id":"3912f4d8-7505-4574-a065-c3c17de48352","system_id":"levelo_inurba_marseille","lat":43.304587,"lon":5.379007,"is_reserved":false,"is_disabled":false,"rental_uris":{"android":"levelo://app?vid=3912f4d8-7505-4574-a065-c3c17de48352","ios":"levelo://app?vid=3912f4d8-7505-4574-a065-c3c17de48352"},"vehicle_type_id":"4","last_reported":1710597946,"current_range_meters":31200,"station_id":"","pricing_plan_id":"cebpf4jnsgd1na2vs0mg"},{"bike_id":"aa094c3e-5f97-41d8-92cb-f03a5ba0a9a0","system_id":"levelo_inurba_marseille","lat":43.304606,"lon":5.379026,"is_reserved":false,"is_disabled":false,"rental_uris":{"android":"levelo://app?vid=aa094c3e-5f97-41d8-92cb-f03a5ba0a9a0","ios":"levelo://app?vid=aa094c3e-5f97-41d8-92cb-f03a5ba0a9a0"},"vehicle_type_id":"4","last_reported":1710597946,"current_range_meters":18000,"station_id":"ce4bgup2rcd13ifvqcn0","pricing_plan_id":"cebpf4jnsgd1na2vs0mg"},{"bike_id":"7e1cbcf2-eb90-4ea8-a1cb-7a47d7ee4d66","system_id":"levelo_inurba_marseille","lat":43.324771,"lon":5.36557,"is_reserved":false,"is_disabled":false,"rental_uris":{"android":"levelo://app?vid=7e1cbcf2-eb90-4ea8-a1cb-7a47d7ee4d66","ios":"levelo://app?vid=7e1cbcf2-eb90-4ea8-a1cb-7a47d7ee4d66"},"vehicle_type_id":"4","last_reported":1710597946,"current_range_meters":4800,"station_id":"ce4bhs12rcd13ifvqhvg","pricing_plan_id":"cebpf4jnsgd1na2vs0mg"},{"bike_id":"45c182d4-c42c-4114-9e74-abc1eba34bef","system_id":"levelo_inurba_marseille","lat":43.32476,"lon":5.36571,"is_reserved":false,"is_disabled":false,"rental_uris":{"android":"levelo://app?vid=45c182d4-c42c-4114-9e74-abc1eba34bef","ios":"levelo://app?vid=45c182d4-c42c-4114-9e74-abc1eba34bef"},"vehicle_type_id":"4","last_reported":1710597946,"current_range_meters":21600,"station_id":"ce4bhs12rcd13ifvqhvg","pricing_plan_id":"cebpf4jnsgd1na2vs0mg"},{"bike_id":"78d038f2-7275-4580-be77-1d1f6e4d5781","system_id":"levelo_inurba_marseille","lat":43.32476,"lon":5.36565,"is_reserved":false,"is_disabled":false,"rental_uris":{"android":"levelo://app?vid=78d038f2-7275-4580-be77-1d1f6e4d5781","ios":"levelo://app?vid=78d038f2-7275-4580-be77-1d1f6e4d5781"},"vehicle_type_id":"4","last_reported":1710597946,"current_range_meters":5600,"station_id":"ce4bhs12rcd13ifvqhvg","pricing_plan_id":"cebpf4jnsgd1na2vs0mg"},{"bike_id":"12c419ff-5d5f-445b-9471-a4225b24c594","system_id":"levelo_inurba_marseille","lat":43.324771,"lon":5.365653,"is_reserved":false,"is_disabled":false,"rental_uris":{"android":"levelo://app?vid=12c419ff-5d5f-445b-9471-a4225b24c594","ios":"levelo://app?vid=12c419ff-5d5f-445b-9471-a4225b24c594"},"vehicle_type_id":"4","last_reported":1710597946,"current_range_meters":3200,"station_id":"ce4bhs12rcd13ifvqhvg","pricing_plan_id":"cebpf4jnsgd1na2vs0mg"},{"bike_id":"18fc47d4-f43a-4eed-abb4-9d13f9e04f59","system_id":"levelo_inurba_marseille","lat":43.324771,"lon":5.36557,"is_reserved":false,"is_disabled":false,"rental_uris":{"android":"levelo://app?vid=18fc47d4-f43a-4eed-abb4-9d13f9e04f59","ios":"levelo://app?vid=18fc47d4-f43a-4eed-abb4-9d13f9e04f59"},"vehicle_type_id":"4","last_reported":1710597946,"current_range_meters":17600,"station_id":"ce4bhs12rcd13ifvqhvg","pricing_plan_id":"cebpf4jnsgd1na2vs0mg"},{"bike_id":"d69751e7-bcb1-429b-980a-92c1795eb564","system_id":"levelo_inurba_marseille","lat":43.32482,"lon":5.36567,"is_reserved":false,"is_disabled":false,"rental_uris":{"android":"levelo://app?vid=d69751e7-bcb1-429b-980a-92c1795eb564","ios":"levelo://app?vid=d69751e7-bcb1-429b-980a-92c1795eb564"},"vehicle_type_id":"4","last_reported":1710597946,"current_range_meters":10800,"station_id":"ce4bhs12rcd13ifvqhvg","pricing_plan_id":"cebpf4jnsgd1na2vs0mg"},{"bike_id":"dfdda61e-4228-4960-8e69-6798d494e3cd","system_id":"levelo_inurba_marseille","lat":43.324771,"lon":5.36557,"is_reserved":false,"is_disabled":false,"rental_uris":{"android":"levelo://app?vid=dfdda61e-4228-4960-8e69-6798d494e3cd","ios":"levelo://app?vid=dfdda61e-4228-4960-8e69-6798d494e3cd"},"vehicle_type_id":"4","last_reported":1710597946,"current_range_meters":0,"station_id":"ce4bhs12rcd13ifvqhvg","pricing_plan_id":"cebpf4jnsgd1na2vs0mg"},{"bike_id":"da567509-4db8-4fc1-b19a-c99372b2cbb5","system_id":"levelo_inurba_marseille","lat":43.32486,"lon":5.365627,"is_reserved":false,"is_disabled":false,"rental_uris":{"android":"levelo://app?vid=da567509-4db8-4fc1-b19a-c99372b2cbb5","ios":"levelo://app?vid=da567509-4db8-4fc1-b19a-c99372b2cbb5"},"vehicle_type_id":"4","last_reported":1710597946,"current_range_meters":1200,"station_id":"ce4bhs12rcd13ifvqhvg","pricing_plan_id":"cebpf4jnsgd1na2vs0mg"},{"bike_id":"3636e797-ae37-4ed8-ae31-11958c8b0dde","system_id":"levelo_inurba_marseille","lat":43.324872,"lon":5.365704,"is_reserved":false,"is_disabled":false,"rental_uris":{"android":"levelo://app?vid=3636e797-ae37-4ed8-ae31-11958c8b0dde","ios":"levelo://app?vid=3636e797-ae37-4ed8-ae31-11958c8b0dde"},"vehicle_type_id":"4","last_reported":1710597946,"current_range_meters":12000,"station_id":"ce4bhs12rcd13ifvqhvg","pricing_plan_id":"cebpf4jnsgd1na2vs0mg"},{"bike_id":"e5021f38-60e5-4eb6-876e-5c0b57676a37","system_id":"levelo_inurba_marseille","lat":43.310804,"lon":5.38359,"is_reserved":false,"is_disabled":false,"rental_uris":{"android":"levelo://app?vid=e5021f38-60e5-4eb6-876e-5c0b57676a37","ios":"levelo://app?vid=e5021f38-60e5-4eb6-876e-5c0b57676a37"},"vehicle_type_id":"4","last_reported":1710597946,"current_range_meters":19600,"station_id":"ce4bgv92rcd13ifvqcr0","pricing_plan_id":"cebpf4jnsgd1na2vs0mg"},{"bike_id":"47a9ca4c-c775-484e-a592-ef44adbf3952","system_id":"levelo_inurba_marseille","lat":43.319968,"lon":5.38049,"is_reserved":false,"is_disabled":false,"rental_uris":{"android":"levelo://app?vid=47a9ca4c-c775-484e-a592-ef44adbf3952","ios":"levelo://app?vid=47a9ca4c-c775-484e-a592-ef44adbf3952"},"vehicle_type_id":"4","last_reported":1710597946,"current_range_meters":0,"station_id":"","pricing_plan_id":"cebpf4jnsgd1na2vs0mg"},{"bike_id":"ceb11ed8-ed81-4569-a2e5-1a843a657e42","system_id":"levelo_inurba_marseille","lat":43.302784,"lon":5.377158,"is_reserved":false,"is_disabled":false,"rental_uris":{"android":"levelo://app?vid=ceb11ed8-ed81-4569-a2e5-1a843a657e42","ios":"levelo://app?vid=ceb11ed8-ed81-4569-a2e5-1a843a657e42"},"vehicle_type_id":"4","last_reported":1710597946,"current_range_meters":800,"station_id":"ce4bguh2rcd13ifvqcj0","pricing_plan_id":"cebpf4jnsgd1na2vs0mg"},{"bike_id":"10b1ba44-5589-4cd0-b5d6-8406c4b90a7b","system_id":"levelo_inurba_marseille","lat":43.302784,"lon":5.377158,"is_reserved":false,"is_disabled":false,"rental_uris":{"android":"levelo://app?vid=10b1ba44-5589-4cd0-b5d6-8406c4b90a7b","ios":"levelo://app?vid=10b1ba44-5589-4cd0-b5d6-8406c4b90a7b"},"vehicle_type_id":"4","last_reported":1710597946,"current_range_meters":0,"station_id":"ce4bguh2rcd13ifvqcj0","pricing_plan_id":"cebpf4jnsgd1na2vs0mg"},{"bike_id":"3bf8bca0-7307-47a6-a38a-9e6b4ee57d47","system_id":"levelo_inurba_marseille","lat":43.299243,"lon":5.37481,"is_reserved":false,"is_disabled":false,"rental_uris":{"android":"levelo://app?vid=3bf8bca0-7307-47a6-a38a-9e6b4ee57d47","ios":"levelo://app?vid=3bf8bca0-7307-47a6-a38a-9e6b4ee57d47"},"vehicle_type_id":"4","last_reported":1710597946,"current_range_meters":0,"station_id":"ce4bgjh2rcd13ifvqbg0","pricing_plan_id":"cebpf4jnsgd1na2vs0mg"},{"bike_id":"6e53a99a-37e7-4773-933a-11f75535e26a","system_id":"levelo_inurba_marseille","lat":43.30281,"lon":5.37702,"is_reserved":false,"is_disabled":false,"rental_uris":{"android":"levelo://app?vid=6e53a99a-37e7-4773-933a-11f75535e26a","ios":"levelo://app?vid=6e53a99a-37e7-4773-933a-11f75535e26a"},"vehicle_type_id":"4","last_reported":1710597946,"current_range_meters":25600,"station_id":"ce4bguh2rcd13ifvqcj0","pricing_plan_id":"cebpf4jnsgd1na2vs0mg"},{"bike_id":"96984f5a-af1a-434b-aba1-92476e3519b1","system_id":"levelo_inurba_marseille","lat":43.302784,"lon":5.377158,"is_reserved":false,"is_disabled":false,"rental_uris":{"android":"levelo://app?vid=96984f5a-af1a-434b-aba1-92476e3519b1","ios":"levelo://app?vid=96984f5a-af1a-434b-aba1-92476e3519b1"},"vehicle_type_id":"4","last_reported":1710597946,"current_range_meters":31200,"station_id":"ce4bguh2rcd13ifvqcj0","pricing_plan_id":"cebpf4jnsgd1na2vs0mg"},{"bike_id":"0c1b6dcd-8ba1-449b-93c5-06400b844f87","system_id":"levelo_inurba_marseille","lat":43.302784,"lon":5.377158,"is_reserved":false,"is_disabled":false,"rental_uris":{"android":"levelo://app?vid=0c1b6dcd-8ba1-449b-93c5-06400b844f87","ios":"levelo://app?vid=0c1b6dcd-8ba1-449b-93c5-06400b844f87"},"vehicle_type_id":"4","last_reported":1710597946,"current_range_meters":4800,"station_id":"ce4bguh2rcd13ifvqcj0","pricing_plan_id":"cebpf4jnsgd1na2vs0mg"},{"bike_id":"d22350da-7c1a-4381-91db-444a676073c7","system_id":"levelo_inurba_marseille","lat":43.301429,"lon":5.37413,"is_reserved":false,"is_disabled":false,"rental_uris":{"android":"levelo://app?vid=d22350da-7c1a-4381-91db-444a676073c7","ios":"levelo://app?vid=d22350da-7c1a-4381-91db-444a676073c7"},"vehicle_type_id":"4","last_reported":1710597946,"current_range_meters":27200,"station_id":"ce4bgs92rcd13ifvqcc0","pricing_plan_id":"cebpf4jnsgd1na2vs0mg"},{"bike_id":"a46f3b86-7dc1-46bc-b469-645f5d47ddad","system_id":"levelo_inurba_marseille","lat":43.319935,"lon":5.381699,"is_reserved":false,"is_disabled":false,"rental_uris":{"android":"levelo://app?vid=a46f3b86-7dc1-46bc-b469-645f5d47ddad","ios":"levelo://app?vid=a46f3b86-7dc1-46bc-b469-645f5d47ddad"},"vehicle_type_id":"4","last_reported":1710597946,"current_range_meters":16400,"station_id":"ce4bhr12rcd13ifvqhpg","pricing_plan_id":"cebpf4jnsgd1na2vs0mg"},{"bike_id":"5e3113e3-29f6-4f14-a9c5-2af5d9ac0333","system_id":"levelo_inurba_marseille","lat":43.31994,"lon":5.38143,"is_reserved":false,"is_disabled":false,"rental_uris":{"android":"levelo://app?vid=5e3113e3-29f6-4f14-a9c5-2af5d9ac0333","ios":"levelo://app?vid=5e3113e3-29f6-4f14-a9c5-2af5d9ac0333"},"vehicle_type_id":"4","last_reported":1710597946,"current_range_meters":6400,"station_id":"ce4bhr12rcd13ifvqhpg","pricing_plan_id":"cebpf4jnsgd1na2vs0mg"},{"bike_id":"747ec0e5-a700-4ed0-859f-8b01d77434a9","system_id":"levelo_inurba_marseille","lat":43.319935,"lon":5.381699,"is_reserved":false,"is_disabled":false,"rental_uris":{"android":"levelo://app?vid=747ec0e5-a700-4ed0-859f-8b01d77434a9","ios":"levelo://app?vid=747ec0e5-a700-4ed0-859f-8b01d77434a9"},"vehicle_type_id":"4","last_reported":1710597946,"current_range_meters":26400,"station_id":"ce4bhr12rcd13ifvqhpg","pricing_plan_id":"cebpf4jnsgd1na2vs0mg"},{"bike_id":"be83824f-cd7e-44ed-bda3-89905b40ab1f","system_id":"levelo_inurba_marseille","lat":43.31994,"lon":5.38147,"is_reserved":false,"is_disabled":false,"rental_uris":{"android":"levelo://app?vid=be83824f-cd7e-44ed-bda3-89905b40ab1f","ios":"levelo://app?vid=be83824f-cd7e-44ed-bda3-89905b40ab1f"},"vehicle_type_id":"4","last_reported":1710597946,"current_range_meters":21600,"station_id":"ce4bhr12rcd13ifvqhpg","pricing_plan_id":"cebpf4jnsgd1na2vs0mg"},{"bike_id":"1ea896b3-204e-4227-ac74-99fc448fc64a","system_id":"levelo_inurba_marseille","lat":43.31993,"lon":5.38148,"is_reserved":false,"is_disabled":false,"rental_uris":{"android":"levelo://app?vid=1ea896b3-204e-4227-ac74-99fc448fc64a","ios":"levelo://app?vid=1ea896b3-204e-4227-ac74-99fc448fc64a"},"vehicle_type_id":"4","last_reported":1710597946,"current_range_meters":24400,"station_id":"ce4bhr12rcd13ifvqhpg","pricing_plan_id":"cebpf4jnsgd1na2vs0mg"},{"bike_id":"99b6d252-0b8b-4d81-bda6-bfc67dc33b41","system_id":"levelo_inurba_marseille","lat":43.31995,"lon":5.38149,"is_reserved":false,"is_disabled":false,"rental_uris":{"android":"levelo://app?vid=99b6d252-0b8b-4d81-bda6-bfc67dc33b41","ios":"levelo://app?vid=99b6d252-0b8b-4d81-bda6-bfc67dc33b41"},"vehicle_type_id":"4","last_reported":1710597946,"current_range_meters":24000,"station_id":"ce4bhr12rcd13ifvqhpg","pricing_plan_id":"cebpf4jnsgd1na2vs0mg"},{"bike_id":"4bc451a1-3314-4300-994e-f9fd16ea23b7","system_id":"levelo_inurba_marseille","lat":43.319948,"lon":5.381508,"is_reserved":false,"is_disabled":false,"rental_uris":{"android":"levelo://app?vid=4bc451a1-3314-4300-994e-f9fd16ea23b7","ios":"levelo://app?vid=4bc451a1-3314-4300-994e-f9fd16ea23b7"},"vehicle_type_id":"4","last_reported":1710597946,"current_range_meters":25200,"station_id":"ce4bhr12rcd13ifvqhpg","pricing_plan_id":"cebpf4jnsgd1na2vs0mg"},{"bike_id":"b2273e34-f3b1-45d8-a7c1-e0a5296f08a5","system_id":"levelo_inurba_marseille","lat":43.319935,"lon":5.381699,"is_reserved":false,"is_disabled":false,"rental_uris":{"android":"levelo://app?vid=b2273e34-f3b1-45d8-a7c1-e0a5296f08a5","ios":"levelo://app?vid=b2273e34-f3b1-45d8-a7c1-e0a5296f08a5"},"vehicle_type_id":"4","last_reported":1710597946,"current_range_meters":16800,"station_id":"ce4bhr12rcd13ifvqhpg","pricing_plan_id":"cebpf4jnsgd1na2vs0mg"},{"bike_id":"b3015aab-550e-45d6-9e44-61aef91bf99b","system_id":"levelo_inurba_marseille","lat":43.31993,"lon":5.38156,"is_reserved":false,"is_disabled":false,"rental_uris":{"android":"levelo://app?vid=b3015aab-550e-45d6-9e44-61aef91bf99b","ios":"levelo://app?vid=b3015aab-550e-45d6-9e44-61aef91bf99b"},"vehicle_type_id":"4","last_reported":1710597946,"current_range_meters":26000,"station_id":"ce4bhr12rcd13ifvqhpg","pricing_plan_id":"cebpf4jnsgd1na2vs0mg"},{"bike_id":"32f5d04a-4a49-412d-8179-8f69e2f51ddc","system_id":"levelo_inurba_marseille","lat":43.31998,"lon":5.38156,"is_reserved":false,"is_disabled":false,"rental_uris":{"android":"levelo://app?vid=32f5d04a-4a49-412d-8179-8f69e2f51ddc","ios":"levelo://app?vid=32f5d04a-4a49-412d-8179-8f69e2f51ddc"},"vehicle_type_id":"4","last_reported":1710597946,"current_range_meters":3200,"station_id":"ce4bhr12rcd13ifvqhpg","pricing_plan_id":"cebpf4jnsgd1na2vs0mg"},{"bike_id":"768f43ce-773e-415d-9246-521adb63827d","system_id":"levelo_inurba_marseille","lat":43.313571,"lon":5.384829,"is_reserved":false,"is_disabled":false,"rental_uris":{"android":"levelo://app?vid=768f43ce-773e-415d-9246-521adb63827d","ios":"levelo://app?vid=768f43ce-773e-415d-9246-521adb63827d"},"vehicle_type_id":"4","last_reported":1710597946,"current_range_meters":20800,"station_id":"ce4bgt92rcd13ifvqcf0","pricing_plan_id":"cebpf4jnsgd1na2vs0mg"},{"bike_id":"c942628a-0dd8-4d54-939c-adeb50624481","system_id":"levelo_inurba_marseille","lat":43.299724,"lon":5.371829,"is_reserved":false,"is_disabled":false,"rental_uris":{"android":"levelo://app?vid=c942628a-0dd8-4d54-939c-adeb50624481","ios":"levelo://app?vid=c942628a-0dd8-4d54-939c-adeb50624481"},"vehicle_type_id":"4","last_reported":1710597946,"current_range_meters":29600,"station_id":"ce4bgr92rcd13ifvqc7g","pricing_plan_id":"cebpf4jnsgd1na2vs0mg"},{"bike_id":"6f93669d-4702-4ba6-9cb2-1c53696acc2d","system_id":"levelo_inurba_marseille","lat":43.313571,"lon":5.384829,"is_reserved":false,"is_disabled":false,"rental_uris":{"android":"levelo://app?vid=6f93669d-4702-4ba6-9cb2-1c53696acc2d","ios":"levelo://app?vid=6f93669d-4702-4ba6-9cb2-1c53696acc2d"},"vehicle_type_id":"4","last_reported":1710597946,"current_range_meters":5200,"station_id":"ce4bgt92rcd13ifvqcf0","pricing_plan_id":"cebpf4jnsgd1na2vs0mg"},{"bike_id":"0f8a8e92-8d0a-4760-9e0b-ee7289e8b4ac","system_id":"levelo_inurba_marseille","lat":43.299724,"lon":5.371829,"is_reserved":false,"is_disabled":false,"rental_uris":{"android":"levelo://app?vid=0f8a8e92-8d0a-4760-9e0b-ee7289e8b4ac","ios":"levelo://app?vid=0f8a8e92-8d0a-4760-9e0b-ee7289e8b4ac"},"vehicle_type_id":"4","last_reported":1710597946,"current_range_meters":11600,"station_id":"ce4bgr92rcd13ifvqc7g","pricing_plan_id":"cebpf4jnsgd1na2vs0mg"},{"bike_id":"370f73a6-a6e7-4e0b-8e7b-1fd132c6afc5","system_id":"levelo_inurba_marseille","lat":43.29852,"lon":5.36291,"is_reserved":false,"is_disabled":false,"rental_uris":{"android":"levelo://app?vid=370f73a6-a6e7-4e0b-8e7b-1fd132c6afc5","ios":"levelo://app?vid=370f73a6-a6e7-4e0b-8e7b-1fd132c6afc5"},"vehicle_type_id":"4","last_reported":1710597946,"current_range_meters":1200,"station_id":"ce4bgpp2rcd13ifvqc3g","pricing_plan_id":"cebpf4jnsgd1na2vs0mg"},{"bike_id":"b70edced-f168-4931-a50c-3e0cd7eb8981","system_id":"levelo_inurba_marseille","lat":43.298433,"lon":5.362774,"is_reserved":false,"is_disabled":false,"rental_uris":{"android":"levelo://app?vid=b70edced-f168-4931-a50c-3e0cd7eb8981","ios":"levelo://app?vid=b70edced-f168-4931-a50c-3e0cd7eb8981"},"vehicle_type_id":"4","last_reported":1710597946,"current_range_meters":4800,"station_id":"ce4bgpp2rcd13ifvqc3g","pricing_plan_id":"cebpf4jnsgd1na2vs0mg"},{"bike_id":"64f2b266-54c5-4ca3-950e-03bf00fe0292","system_id":"levelo_inurba_marseille","lat":43.29851,"lon":5.36288,"is_reserved":false,"is_disabled":false,"rental_uris":{"android":"levelo://app?vid=64f2b266-54c5-4ca3-950e-03bf00fe0292","ios":"levelo://app?vid=64f2b266-54c5-4ca3-950e-03bf00fe0292"},"vehicle_type_id":"4","last_reported":1710597946,"current_range_meters":17600,"station_id":"ce4bgpp2rcd13ifvqc3g","pricing_plan_id":"cebpf4jnsgd1na2vs0mg"},{"bike_id":"fc095a2a-c3e9-429f-9640-7f1822dabba9","system_id":"levelo_inurba_marseille","lat":43.298433,"lon":5.362774,"is_reserved":false,"is_disabled":false,"rental_uris":{"android":"levelo://app?vid=fc095a2a-c3e9-429f-9640-7f1822dabba9","ios":"levelo://app?vid=fc095a2a-c3e9-429f-9640-7f1822dabba9"},"vehicle_type_id":"4","last_reported":1710597946,"current_range_meters":19200,"station_id":"ce4bgpp2rcd13ifvqc3g","pricing_plan_id":"cebpf4jnsgd1na2vs0mg"},{"bike_id":"4deb7284-4bbf-445b-99cd-e6f49213f4bf","system_id":"levelo_inurba_marseille","lat":43.299243,"lon":5.374807,"is_reserved":false,"is_disabled":false,"rental_uris":{"android":"levelo://app?vid=4deb7284-4bbf-445b-99cd-e6f49213f4bf","ios":"levelo://app?vid=4deb7284-4bbf-445b-99cd-e6f49213f4bf"},"vehicle_type_id":"4","last_reported":1710597946,"current_range_meters":0,"station_id":"ce4bgjh2rcd13ifvqbg0","pricing_plan_id":"cebpf4jnsgd1na2vs0mg"},{"bike_id":"f75046b0-5840-4a74-b9bd-5675791eab6d","system_id":"levelo_inurba_marseille","lat":43.298433,"lon":5.362774,"is_reserved":false,"is_disabled":false,"rental_uris":{"android":"levelo://app?vid=f75046b0-5840-4a74-b9bd-5675791eab6d","ios":"levelo://app?vid=f75046b0-5840-4a74-b9bd-5675791eab6d"},"vehicle_type_id":"4","last_reported":1710597946,"current_range_meters":31600,"station_id":"ce4bgpp2rcd13ifvqc3g","pricing_plan_id":"cebpf4jnsgd1na2vs0mg"},{"bike_id":"48cf51db-ff7d-4776-abc9-4c05cb3deb78","system_id":"levelo_inurba_marseille","lat":43.298433,"lon":5.362774,"is_reserved":false,"is_disabled":false,"rental_uris":{"android":"levelo://app?vid=48cf51db-ff7d-4776-abc9-4c05cb3deb78","ios":"levelo://app?vid=48cf51db-ff7d-4776-abc9-4c05cb3deb78"},"vehicle_type_id":"4","last_reported":1710597946,"current_range_meters":30000,"station_id":"ce4bgpp2rcd13ifvqc3g","pricing_plan_id":"cebpf4jnsgd1na2vs0mg"},{"bike_id":"84476ffd-2400-42b3-9813-8f3d23b5ff3e","system_id":"levelo_inurba_marseille","lat":43.298433,"lon":5.362774,"is_reserved":false,"is_disabled":false,"rental_uris":{"android":"levelo://app?vid=84476ffd-2400-42b3-9813-8f3d23b5ff3e","ios":"levelo://app?vid=84476ffd-2400-42b3-9813-8f3d23b5ff3e"},"vehicle_type_id":"4","last_reported":1710597946,"current_range_meters":18000,"station_id":"ce4bgpp2rcd13ifvqc3g","pricing_plan_id":"cebpf4jnsgd1na2vs0mg"},{"bike_id":"d30d5c79-93dd-4582-980e-afd11a72cf46","system_id":"levelo_inurba_marseille","lat":43.29846,"lon":5.36271,"is_reserved":false,"is_disabled":false,"rental_uris":{"android":"levelo://app?vid=d30d5c79-93dd-4582-980e-afd11a72cf46","ios":"levelo://app?vid=d30d5c79-93dd-4582-980e-afd11a72cf46"},"vehicle_type_id":"4","last_reported":1710597946,"current_range_meters":10800,"station_id":"ce4bgpp2rcd13ifvqc3g","pricing_plan_id":"cebpf4jnsgd1na2vs0mg"},{"bike_id":"4b322680-2df2-43dd-90e6-ca767bdf43cc","system_id":"levelo_inurba_marseille","lat":43.29845,"lon":5.36273,"is_reserved":false,"is_disabled":false,"rental_uris":{"android":"levelo://app?vid=4b322680-2df2-43dd-90e6-ca767bdf43cc","ios":"levelo://app?vid=4b322680-2df2-43dd-90e6-ca767bdf43cc"},"vehicle_type_id":"4","last_reported":1710597946,"current_range_meters":2000,"station_id":"ce4bgpp2rcd13ifvqc3g","pricing_plan_id":"cebpf4jnsgd1na2vs0mg"},{"bike_id":"bba310e9-6071-4e70-8864-580db65391f1","system_id":"levelo_inurba_marseille","lat":43.298433,"lon":5.362774,"is_reserved":false,"is_disabled":false,"rental_uris":{"android":"levelo://app?vid=bba310e9-6071-4e70-8864-580db65391f1","ios":"levelo://app?vid=bba310e9-6071-4e70-8864-580db65391f1"},"vehicle_type_id":"4","last_reported":1710597946,"current_range_meters":16800,"station_id":"ce4bgpp2rcd13ifvqc3g","pricing_plan_id":"cebpf4jnsgd1na2vs0mg"},{"bike_id":"a9ed810c-1197-43de-9b17-3c5b2eedca01","system_id":"levelo_inurba_marseille","lat":43.29843,"lon":5.36276,"is_reserved":false,"is_disabled":false,"rental_uris":{"android":"levelo://app?vid=a9ed810c-1197-43de-9b17-3c5b2eedca01","ios":"levelo://app?vid=a9ed810c-1197-43de-9b17-3c5b2eedca01"},"vehicle_type_id":"4","last_reported":1710597946,"current_range_meters":12400,"station_id":"ce4bgpp2rcd13ifvqc3g","pricing_plan_id":"cebpf4jnsgd1na2vs0mg"},{"bike_id":"6822ccb3-529d-49ef-9616-1ee902f50076","system_id":"levelo_inurba_marseille","lat":43.298433,"lon":5.362774,"is_reserved":false,"is_disabled":false,"rental_uris":{"android":"levelo://app?vid=6822ccb3-529d-49ef-9616-1ee902f50076","ios":"levelo://app?vid=6822ccb3-529d-49ef-9616-1ee902f50076"},"vehicle_type_id":"4","last_reported":1710597946,"current_range_meters":24800,"station_id":"ce4bgpp2rcd13ifvqc3g","pricing_plan_id":"cebpf4jnsgd1na2vs0mg"},{"bike_id":"a2e034b0-9020-4c8c-99e2-62539ad858ec","system_id":"levelo_inurba_marseille","lat":43.299243,"lon":5.37481,"is_reserved":false,"is_disabled":false,"rental_uris":{"android":"levelo://app?vid=a2e034b0-9020-4c8c-99e2-62539ad858ec","ios":"levelo://app?vid=a2e034b0-9020-4c8c-99e2-62539ad858ec"},"vehicle_type_id":"4","last_reported":1710597946,"current_range_meters":20800,"station_id":"ce4bgjh2rcd13ifvqbg0","pricing_plan_id":"cebpf4jnsgd1na2vs0mg"},{"bike_id":"3d49ccf2-a358-4030-9d88-1af3990c3331","system_id":"levelo_inurba_marseille","lat":43.298433,"lon":5.362774,"is_reserved":false,"is_disabled":false,"rental_uris":{"android":"levelo://app?vid=3d49ccf2-a358-4030-9d88-1af3990c3331","ios":"levelo://app?vid=3d49ccf2-a358-4030-9d88-1af3990c3331"},"vehicle_type_id":"4","last_reported":1710597946,"current_range_meters":29200,"station_id":"ce4bgpp2rcd13ifvqc3g","pricing_plan_id":"cebpf4jnsgd1na2vs0mg"},{"bike_id":"83349b90-ee8f-453a-aeda-74943af0f19b","system_id":"levelo_inurba_marseille","lat":43.298433,"lon":5.362774,"is_reserved":false,"is_disabled":false,"rental_uris":{"android":"levelo://app?vid=83349b90-ee8f-453a-aeda-74943af0f19b","ios":"levelo://app?vid=83349b90-ee8f-453a-aeda-74943af0f19b"},"vehicle_type_id":"4","last_reported":1710597946,"current_range_meters":14800,"station_id":"ce4bgpp2rcd13ifvqc3g","pricing_plan_id":"cebpf4jnsgd1na2vs0mg"},{"bike_id":"2a5e6a80-1a72-439f-96fc-c4a8a739ce7e","system_id":"levelo_inurba_marseille","lat":43.298433,"lon":5.362774,"is_reserved":false,"is_disabled":false,"rental_uris":{"android":"levelo://app?vid=2a5e6a80-1a72-439f-96fc-c4a8a739ce7e","ios":"levelo://app?vid=2a5e6a80-1a72-439f-96fc-c4a8a739ce7e"},"vehicle_type_id":"4","last_reported":1710597946,"current_range_meters":28800,"station_id":"ce4bgpp2rcd13ifvqc3g","pricing_plan_id":"cebpf4jnsgd1na2vs0mg"},{"bike_id":"0c6f5da3-a1a5-4153-af73-8d6eca99271d","system_id":"levelo_inurba_marseille","lat":43.31187,"lon":5.38716,"is_reserved":false,"is_disabled":false,"rental_uris":{"android":"levelo://app?vid=0c6f5da3-a1a5-4153-af73-8d6eca99271d","ios":"levelo://app?vid=0c6f5da3-a1a5-4153-af73-8d6eca99271d"},"vehicle_type_id":"4","last_reported":1710597946,"current_range_meters":15200,"station_id":"ce4bgv12rcd13ifvqcp0","pricing_plan_id":"cebpf4jnsgd1na2vs0mg"},{"bike_id":"4dc5453a-64ff-4b00-befe-21b23e249650","system_id":"levelo_inurba_marseille","lat":43.298433,"lon":5.362774,"is_reserved":false,"is_disabled":false,"rental_uris":{"android":"levelo://app?vid=4dc5453a-64ff-4b00-befe-21b23e249650","ios":"levelo://app?vid=4dc5453a-64ff-4b00-befe-21b23e249650"},"vehicle_type_id":"4","last_reported":1710597946,"current_range_meters":18000,"station_id":"ce4bgpp2rcd13ifvqc3g","pricing_plan_id":"cebpf4jnsgd1na2vs0mg"},{"bike_id":"8263a0d0-3cf4-413d-88fc-7d72e33269bf","system_id":"levelo_inurba_marseille","lat":43.299724,"lon":5.371829,"is_reserved":false,"is_disabled":false,"rental_uris":{"android":"levelo://app?vid=8263a0d0-3cf4-413d-88fc-7d72e33269bf","ios":"levelo://app?vid=8263a0d0-3cf4-413d-88fc-7d72e33269bf"},"vehicle_type_id":"4","last_reported":1710597946,"current_range_meters":13600,"station_id":"ce4bgr92rcd13ifvqc7g","pricing_plan_id":"cebpf4jnsgd1na2vs0mg"},{"bike_id":"3ea96a17-7e50-44f1-8717-de7dc85febb6","system_id":"levelo_inurba_marseille","lat":43.297774,"lon":5.370875,"is_reserved":false,"is_disabled":false,"rental_uris":{"android":"levelo://app?vid=3ea96a17-7e50-44f1-8717-de7dc85febb6","ios":"levelo://app?vid=3ea96a17-7e50-44f1-8717-de7dc85febb6"},"vehicle_type_id":"4","last_reported":1710597946,"current_range_meters":31600,"station_id":"ce4bgop2rcd13ifvqc1g","pricing_plan_id":"cebpf4jnsgd1na2vs0mg"},{"bike_id":"b35bd9f3-ff83-4ee4-abe1-f88ae4d3d1bc","system_id":"levelo_inurba_marseille","lat":43.298433,"lon":5.362774,"is_reserved":false,"is_disabled":false,"rental_uris":{"android":"levelo://app?vid=b35bd9f3-ff83-4ee4-abe1-f88ae4d3d1bc","ios":"levelo://app?vid=b35bd9f3-ff83-4ee4-abe1-f88ae4d3d1bc"},"vehicle_type_id":"4","last_reported":1710597946,"current_range_meters":20000,"station_id":"ce4bgpp2rcd13ifvqc3g","pricing_plan_id":"cebpf4jnsgd1na2vs0mg"},{"bike_id":"3ff125a5-dff1-4591-b6cc-449dc2424878","system_id":"levelo_inurba_marseille","lat":43.32284,"lon":5.38263,"is_reserved":false,"is_disabled":false,"rental_uris":{"android":"levelo://app?vid=3ff125a5-dff1-4591-b6cc-449dc2424878","ios":"levelo://app?vid=3ff125a5-dff1-4591-b6cc-449dc2424878"},"vehicle_type_id":"4","last_reported":1710597946,"current_range_meters":20800,"station_id":"ce4bhr12rcd13ifvqhqg","pricing_plan_id":"cebpf4jnsgd1na2vs0mg"},{"bike_id":"6d4e2da6-8f55-491d-8339-12784275c9e4","system_id":"levelo_inurba_marseille","lat":43.32288,"lon":5.38265,"is_reserved":false,"is_disabled":false,"rental_uris":{"android":"levelo://app?vid=6d4e2da6-8f55-491d-8339-12784275c9e4","ios":"levelo://app?vid=6d4e2da6-8f55-491d-8339-12784275c9e4"},"vehicle_type_id":"4","last_reported":1710597946,"current_range_meters":3200,"station_id":"ce4bhr12rcd13ifvqhqg","pricing_plan_id":"cebpf4jnsgd1na2vs0mg"},{"bike_id":"a1ea46c0-4921-4767-a801-a177044432f3","system_id":"levelo_inurba_marseille","lat":43.322872,"lon":5.382756,"is_reserved":false,"is_disabled":false,"rental_uris":{"android":"levelo://app?vid=a1ea46c0-4921-4767-a801-a177044432f3","ios":"levelo://app?vid=a1ea46c0-4921-4767-a801-a177044432f3"},"vehicle_type_id":"4","last_reported":1710597946,"current_range_meters":30800,"station_id":"ce4bhr12rcd13ifvqhqg","pricing_plan_id":"cebpf4jnsgd1na2vs0mg"},{"bike_id":"2d6887a7-62ae-4d89-8c19-2ea133424140","system_id":"levelo_inurba_marseille","lat":43.322872,"lon":5.382756,"is_reserved":false,"is_disabled":false,"rental_uris":{"android":"levelo://app?vid=2d6887a7-62ae-4d89-8c19-2ea133424140","ios":"levelo://app?vid=2d6887a7-62ae-4d89-8c19-2ea133424140"},"vehicle_type_id":"4","last_reported":1710597946,"current_range_meters":4800,"station_id":"ce4bhr12rcd13ifvqhqg","pricing_plan_id":"cebpf4jnsgd1na2vs0mg"},{"bike_id":"36727d06-0af4-4c64-88de-4193d3d2494b","system_id":"levelo_inurba_marseille","lat":43.322872,"lon":5.382756,"is_reserved":false,"is_disabled":false,"rental_uris":{"android":"levelo://app?vid=36727d06-0af4-4c64-88de-4193d3d2494b","ios":"levelo://app?vid=36727d06-0af4-4c64-88de-4193d3d2494b"},"vehicle_type_id":"4","last_reported":1710597946,"current_range_meters":18400,"station_id":"ce4bhr12rcd13ifvqhqg","pricing_plan_id":"cebpf4jnsgd1na2vs0mg"},{"bike_id":"7d711117-8f24-4ca5-af35-2d207110a750","system_id":"levelo_inurba_marseille","lat":43.322872,"lon":5.382756,"is_reserved":false,"is_disabled":false,"rental_uris":{"android":"levelo://app?vid=7d711117-8f24-4ca5-af35-2d207110a750","ios":"levelo://app?vid=7d711117-8f24-4ca5-af35-2d207110a750"},"vehicle_type_id":"4","last_reported":1710597946,"current_range_meters":31200,"station_id":"ce4bhr12rcd13ifvqhqg","pricing_plan_id":"cebpf4jnsgd1na2vs0mg"},{"bike_id":"9be1610f-c31d-4ce8-90f5-92648a7ce7bd","system_id":"levelo_inurba_marseille","lat":43.322872,"lon":5.382756,"is_reserved":false,"is_disabled":false,"rental_uris":{"android":"levelo://app?vid=9be1610f-c31d-4ce8-90f5-92648a7ce7bd","ios":"levelo://app?vid=9be1610f-c31d-4ce8-90f5-92648a7ce7bd"},"vehicle_type_id":"4","last_reported":1710597946,"current_range_meters":21200,"station_id":"ce4bhr12rcd13ifvqhqg","pricing_plan_id":"cebpf4jnsgd1na2vs0mg"},{"bike_id":"7af2c24f-c532-43ec-834a-0f53bf2180ec","system_id":"levelo_inurba_marseille","lat":43.297774,"lon":5.370875,"is_reserved":false,"is_disabled":false,"rental_uris":{"android":"levelo://app?vid=7af2c24f-c532-43ec-834a-0f53bf2180ec","ios":"levelo://app?vid=7af2c24f-c532-43ec-834a-0f53bf2180ec"},"vehicle_type_id":"4","last_reported":1710597946,"current_range_meters":20000,"station_id":"ce4bgop2rcd13ifvqc1g","pricing_plan_id":"cebpf4jnsgd1na2vs0mg"},{"bike_id":"26a6f107-4553-428a-b878-f3d63b74f859","system_id":"levelo_inurba_marseille","lat":43.322872,"lon":5.382756,"is_reserved":false,"is_disabled":false,"rental_uris":{"android":"levelo://app?vid=26a6f107-4553-428a-b878-f3d63b74f859","ios":"levelo://app?vid=26a6f107-4553-428a-b878-f3d63b74f859"},"vehicle_type_id":"4","last_reported":1710597946,"current_range_meters":10400,"station_id":"ce4bhr12rcd13ifvqhqg","pricing_plan_id":"cebpf4jnsgd1na2vs0mg"},{"bike_id":"41a964d5-3943-4f24-b8cf-62a929f835d5","system_id":"levelo_inurba_marseille","lat":43.322872,"lon":5.382756,"is_reserved":false,"is_disabled":false,"rental_uris":{"android":"levelo://app?vid=41a964d5-3943-4f24-b8cf-62a929f835d5","ios":"levelo://app?vid=41a964d5-3943-4f24-b8cf-62a929f835d5"},"vehicle_type_id":"4","last_reported":1710597946,"current_range_meters":19600,"station_id":"ce4bhr12rcd13ifvqhqg","pricing_plan_id":"cebpf4jnsgd1na2vs0mg"},{"bike_id":"c7138234-dee1-496b-a4b5-ec50ce387339","system_id":"levelo_inurba_marseille","lat":43.322872,"lon":5.382756,"is_reserved":false,"is_disabled":false,"rental_uris":{"android":"levelo://app?vid=c7138234-dee1-496b-a4b5-ec50ce387339","ios":"levelo://app?vid=c7138234-dee1-496b-a4b5-ec50ce387339"},"vehicle_type_id":"4","last_reported":1710597946,"current_range_meters":16000,"station_id":"ce4bhr12rcd13ifvqhqg","pricing_plan_id":"cebpf4jnsgd1na2vs0mg"},{"bike_id":"cc3d57c6-9e1a-42ec-89c1-2a9409f6bc4a","system_id":"levelo_inurba_marseille","lat":43.296694,"lon":5.362356,"is_reserved":false,"is_disabled":false,"rental_uris":{"android":"levelo://app?vid=cc3d57c6-9e1a-42ec-89c1-2a9409f6bc4a","ios":"levelo://app?vid=cc3d57c6-9e1a-42ec-89c1-2a9409f6bc4a"},"vehicle_type_id":"4","last_reported":1710597946,"current_range_meters":21200,"station_id":"","pricing_plan_id":"cebpf4jnsgd1na2vs0mg"},{"bike_id":"96e04ccb-b390-4397-a015-a75717c4b032","system_id":"levelo_inurba_marseille","lat":43.296807,"lon":5.372817,"is_reserved":false,"is_disabled":false,"rental_uris":{"android":"levelo://app?vid=96e04ccb-b390-4397-a015-a75717c4b032","ios":"levelo://app?vid=96e04ccb-b390-4397-a015-a75717c4b032"},"vehicle_type_id":"4","last_reported":1710597946,"current_range_meters":9200,"station_id":"ce4bgk12rcd13ifvqbj0","pricing_plan_id":"cebpf4jnsgd1na2vs0mg"},{"bike_id":"701ee0eb-f67f-41d3-aab5-213423820759","system_id":"levelo_inurba_marseille","lat":43.29652,"lon":5.362418,"is_reserved":false,"is_disabled":false,"rental_uris":{"android":"levelo://app?vid=701ee0eb-f67f-41d3-aab5-213423820759","ios":"levelo://app?vid=701ee0eb-f67f-41d3-aab5-213423820759"},"vehicle_type_id":"4","last_reported":1710597946,"current_range_meters":4400,"station_id":"","pricing_plan_id":"cebpf4jnsgd1na2vs0mg"},{"bike_id":"48505f2d-97a4-477c-b29e-ddeb697e414d","system_id":"levelo_inurba_marseille","lat":43.296478,"lon":5.362405,"is_reserved":false,"is_disabled":false,"rental_uris":{"android":"levelo://app?vid=48505f2d-97a4-477c-b29e-ddeb697e414d","ios":"levelo://app?vid=48505f2d-97a4-477c-b29e-ddeb697e414d"},"vehicle_type_id":"4","last_reported":1710597946,"current_range_meters":26400,"station_id":"ce4bgpp2rcd13ifvqc3g","pricing_plan_id":"cebpf4jnsgd1na2vs0mg"},{"bike_id":"dbda0961-9bc7-46d9-95bf-b54f2eec296a","system_id":"levelo_inurba_marseille","lat":43.29584,"lon":5.36735,"is_reserved":false,"is_disabled":false,"rental_uris":{"android":"levelo://app?vid=dbda0961-9bc7-46d9-95bf-b54f2eec296a","ios":"levelo://app?vid=dbda0961-9bc7-46d9-95bf-b54f2eec296a"},"vehicle_type_id":"4","last_reported":1710597946,"current_range_meters":20000,"station_id":"ce4bgph2rcd13ifvqc2g","pricing_plan_id":"cebpf4jnsgd1na2vs0mg"},{"bike_id":"39b93f82-fa0f-4570-9cfb-6233b83ed18f","system_id":"levelo_inurba_marseille","lat":43.29616,"lon":5.37149,"is_reserved":false,"is_disabled":false,"rental_uris":{"android":"levelo://app?vid=39b93f82-fa0f-4570-9cfb-6233b83ed18f","ios":"levelo://app?vid=39b93f82-fa0f-4570-9cfb-6233b83ed18f"},"vehicle_type_id":"4","last_reported":1710597946,"current_range_meters":0,"station_id":"ce4bgnh2rcd13ifvqc0g","pricing_plan_id":"cebpf4jnsgd1na2vs0mg"},{"bike_id":"dfb615b1-aee9-463c-bb04-eba9441416a8","system_id":"levelo_inurba_marseille","lat":43.29579,"lon":5.367388,"is_reserved":false,"is_disabled":false,"rental_uris":{"android":"levelo://app?vid=dfb615b1-aee9-463c-bb04-eba9441416a8","ios":"levelo://app?vid=dfb615b1-aee9-463c-bb04-eba9441416a8"},"vehicle_type_id":"4","last_reported":1710597946,"current_range_meters":0,"station_id":"ce4bgph2rcd13ifvqc2g","pricing_plan_id":"cebpf4jnsgd1na2vs0mg"},{"bike_id":"41ee5bfc-31d8-46c4-88d4-78feb0b38d7b","system_id":"levelo_inurba_marseille","lat":43.296921,"lon":5.376579,"is_reserved":false,"is_disabled":false,"rental_uris":{"android":"levelo://app?vid=41ee5bfc-31d8-46c4-88d4-78feb0b38d7b","ios":"levelo://app?vid=41ee5bfc-31d8-46c4-88d4-78feb0b38d7b"},"vehicle_type_id":"4","last_reported":1710597946,"current_range_meters":16400,"station_id":"ce4bgkh2rcd13ifvqbl0","pricing_plan_id":"cebpf4jnsgd1na2vs0mg"},{"bike_id":"47e2a54d-aa3a-4383-a00e-580179666370","system_id":"levelo_inurba_marseille","lat":43.296935,"lon":5.376544,"is_reserved":false,"is_disabled":false,"rental_uris":{"android":"levelo://app?vid=47e2a54d-aa3a-4383-a00e-580179666370","ios":"levelo://app?vid=47e2a54d-aa3a-4383-a00e-580179666370"},"vehicle_type_id":"4","last_reported":1710597946,"current_range_meters":5200,"station_id":"ce4bgkh2rcd13ifvqbl0","pricing_plan_id":"cebpf4jnsgd1na2vs0mg"},{"bike_id":"91510c96-9511-46d6-be2e-293fcf433ce8","system_id":"levelo_inurba_marseille","lat":43.297082,"lon":5.376934,"is_reserved":false,"is_disabled":false,"rental_uris":{"android":"levelo://app?vid=91510c96-9511-46d6-be2e-293fcf433ce8","ios":"levelo://app?vid=91510c96-9511-46d6-be2e-293fcf433ce8"},"vehicle_type_id":"4","last_reported":1710597946,"current_range_meters":0,"station_id":"ce4bgkh2rcd13ifvqbl0","pricing_plan_id":"cebpf4jnsgd1na2vs0mg"},{"bike_id":"c8277a87-9646-445e-b030-229f0dc99ffd","system_id":"levelo_inurba_marseille","lat":43.296935,"lon":5.376544,"is_reserved":false,"is_disabled":false,"rental_uris":{"android":"levelo://app?vid=c8277a87-9646-445e-b030-229f0dc99ffd","ios":"levelo://app?vid=c8277a87-9646-445e-b030-229f0dc99ffd"},"vehicle_type_id":"4","last_reported":1710597946,"current_range_meters":2800,"station_id":"ce4bgkh2rcd13ifvqbl0","pricing_plan_id":"cebpf4jnsgd1na2vs0mg"},{"bike_id":"0a64af66-b540-4aa9-af76-a07ee547770a","system_id":"levelo_inurba_marseille","lat":43.309589,"lon":5.390258,"is_reserved":false,"is_disabled":false,"rental_uris":{"android":"levelo://app?vid=0a64af66-b540-4aa9-af76-a07ee547770a","ios":"levelo://app?vid=0a64af66-b540-4aa9-af76-a07ee547770a"},"vehicle_type_id":"4","last_reported":1710597946,"current_range_meters":6400,"station_id":"ce4bgup2rcd13ifvqco0","pricing_plan_id":"cebpf4jnsgd1na2vs0mg"},{"bike_id":"26f9dcdc-afa8-4b80-ad48-f40768d24896","system_id":"levelo_inurba_marseille","lat":43.31755,"lon":5.39014,"is_reserved":false,"is_disabled":false,"rental_uris":{"android":"levelo://app?vid=26f9dcdc-afa8-4b80-ad48-f40768d24896","ios":"levelo://app?vid=26f9dcdc-afa8-4b80-ad48-f40768d24896"},"vehicle_type_id":"4","last_reported":1710597946,"current_range_meters":3600,"station_id":"ce4bhqp2rcd13ifvqhng","pricing_plan_id":"cebpf4jnsgd1na2vs0mg"},{"bike_id":"0a6a95c3-c8dd-4faf-8c99-e02c809a1589","system_id":"levelo_inurba_marseille","lat":43.295796,"lon":5.374937,"is_reserved":false,"is_disabled":false,"rental_uris":{"android":"levelo://app?vid=0a6a95c3-c8dd-4faf-8c99-e02c809a1589","ios":"levelo://app?vid=0a6a95c3-c8dd-4faf-8c99-e02c809a1589"},"vehicle_type_id":"4","last_reported":1710597946,"current_range_meters":18000,"station_id":"ce4bgh92rcd13ifvqb50","pricing_plan_id":"cebpf4jnsgd1na2vs0mg"},{"bike_id":"1bb779c2-5fcf-49c1-9bfc-aa3c247f9b1b","system_id":"levelo_inurba_marseille","lat":43.2958,"lon":5.37503,"is_reserved":false,"is_disabled":false,"rental_uris":{"android":"levelo://app?vid=1bb779c2-5fcf-49c1-9bfc-aa3c247f9b1b","ios":"levelo://app?vid=1bb779c2-5fcf-49c1-9bfc-aa3c247f9b1b"},"vehicle_type_id":"4","last_reported":1710597946,"current_range_meters":0,"station_id":"ce4bgh92rcd13ifvqb50","pricing_plan_id":"cebpf4jnsgd1na2vs0mg"},{"bike_id":"fbdb587f-81c2-41e3-b174-e8ba89ecc2f2","system_id":"levelo_inurba_marseille","lat":43.298037,"lon":5.381066,"is_reserved":false,"is_disabled":false,"rental_uris":{"android":"levelo://app?vid=fbdb587f-81c2-41e3-b174-e8ba89ecc2f2","ios":"levelo://app?vid=fbdb587f-81c2-41e3-b174-e8ba89ecc2f2"},"vehicle_type_id":"4","last_reported":1710597946,"current_range_meters":8800,"station_id":"ce4bgip2rcd13ifvqbb0","pricing_plan_id":"cebpf4jnsgd1na2vs0mg"},{"bike_id":"59d389ed-9451-46bf-aa6a-b403864db40f","system_id":"levelo_inurba_marseille","lat":43.296263,"lon":5.377094,"is_reserved":false,"is_disabled":false,"rental_uris":{"android":"levelo://app?vid=59d389ed-9451-46bf-aa6a-b403864db40f","ios":"levelo://app?vid=59d389ed-9451-46bf-aa6a-b403864db40f"},"vehicle_type_id":"4","last_reported":1710597946,"current_range_meters":28400,"station_id":"ce4bgi92rcd13ifvqb90","pricing_plan_id":"cebpf4jnsgd1na2vs0mg"},{"bike_id":"7949ae50-1fc3-4185-88a9-159eabfac7b2","system_id":"levelo_inurba_marseille","lat":43.296277,"lon":5.377108,"is_reserved":false,"is_disabled":false,"rental_uris":{"android":"levelo://app?vid=7949ae50-1fc3-4185-88a9-159eabfac7b2","ios":"levelo://app?vid=7949ae50-1fc3-4185-88a9-159eabfac7b2"},"vehicle_type_id":"4","last_reported":1710597946,"current_range_meters":21200,"station_id":"ce4bgi92rcd13ifvqb90","pricing_plan_id":"cebpf4jnsgd1na2vs0mg"},{"bike_id":"0da22b28-274e-40ce-b50a-ba06ab4640d6","system_id":"levelo_inurba_marseille","lat":43.29971,"lon":5.38498,"is_reserved":false,"is_disabled":false,"rental_uris":{"android":"levelo://app?vid=0da22b28-274e-40ce-b50a-ba06ab4640d6","ios":"levelo://app?vid=0da22b28-274e-40ce-b50a-ba06ab4640d6"},"vehicle_type_id":"4","last_reported":1710597946,"current_range_meters":0,"station_id":"ce4bgj92rcd13ifvqbd0","pricing_plan_id":"cebpf4jnsgd1na2vs0mg"},{"bike_id":"58a7867b-7e54-440a-b9d0-829744709c74","system_id":"levelo_inurba_marseille","lat":43.295279,"lon":5.375048,"is_reserved":false,"is_disabled":false,"rental_uris":{"android":"levelo://app?vid=58a7867b-7e54-440a-b9d0-829744709c74","ios":"levelo://app?vid=58a7867b-7e54-440a-b9d0-829744709c74"},"vehicle_type_id":"4","last_reported":1710597946,"current_range_meters":0,"station_id":"ce4bgkp2rcd13ifvqbmg","pricing_plan_id":"cebpf4jnsgd1na2vs0mg"},{"bike_id":"45a88a9e-e056-454c-9edc-729c9e13ae0a","system_id":"levelo_inurba_marseille","lat":43.299717,"lon":5.384845,"is_reserved":false,"is_disabled":false,"rental_uris":{"android":"levelo://app?vid=45a88a9e-e056-454c-9edc-729c9e13ae0a","ios":"levelo://app?vid=45a88a9e-e056-454c-9edc-729c9e13ae0a"},"vehicle_type_id":"4","last_reported":1710597946,"current_range_meters":0,"station_id":"ce4bgj92rcd13ifvqbd0","pricing_plan_id":"cebpf4jnsgd1na2vs0mg"},{"bike_id":"e08e4c96-19dd-4ec9-90b3-cd3eb6efe292","system_id":"levelo_inurba_marseille","lat":43.294337,"lon":5.360143,"is_reserved":false,"is_disabled":false,"rental_uris":{"android":"levelo://app?vid=e08e4c96-19dd-4ec9-90b3-cd3eb6efe292","ios":"levelo://app?vid=e08e4c96-19dd-4ec9-90b3-cd3eb6efe292"},"vehicle_type_id":"4","last_reported":1710597946,"current_range_meters":12400,"station_id":"ce4bhbh2rcd13ifvqepg","pricing_plan_id":"cebpf4jnsgd1na2vs0mg"},{"bike_id":"201311ce-1bf8-44d1-b737-4b48807696c3","system_id":"levelo_inurba_marseille","lat":43.32367,"lon":5.388836,"is_reserved":false,"is_disabled":false,"rental_uris":{"android":"levelo://app?vid=201311ce-1bf8-44d1-b737-4b48807696c3","ios":"levelo://app?vid=201311ce-1bf8-44d1-b737-4b48807696c3"},"vehicle_type_id":"4","last_reported":1710597946,"current_range_meters":26400,"station_id":"ce4bhqp2rcd13ifvqhog","pricing_plan_id":"cebpf4jnsgd1na2vs0mg"},{"bike_id":"216b1a3f-a2d1-419a-8d0e-008d68681fb8","system_id":"levelo_inurba_marseille","lat":43.32361,"lon":5.38876,"is_reserved":false,"is_disabled":false,"rental_uris":{"android":"levelo://app?vid=216b1a3f-a2d1-419a-8d0e-008d68681fb8","ios":"levelo://app?vid=216b1a3f-a2d1-419a-8d0e-008d68681fb8"},"vehicle_type_id":"4","last_reported":1710597946,"current_range_meters":10800,"station_id":"ce4bhqp2rcd13ifvqhog","pricing_plan_id":"cebpf4jnsgd1na2vs0mg"},{"bike_id":"eaf421f3-46ac-4e30-949b-910710944134","system_id":"levelo_inurba_marseille","lat":43.32362,"lon":5.3888,"is_reserved":false,"is_disabled":false,"rental_uris":{"android":"levelo://app?vid=eaf421f3-46ac-4e30-949b-910710944134","ios":"levelo://app?vid=eaf421f3-46ac-4e30-949b-910710944134"},"vehicle_type_id":"4","last_reported":1710597946,"current_range_meters":6000,"station_id":"ce4bhqp2rcd13ifvqhog","pricing_plan_id":"cebpf4jnsgd1na2vs0mg"},{"bike_id":"5f8e7063-dd69-447b-a5ac-c0f3aed48f4a","system_id":"levelo_inurba_marseille","lat":43.32362,"lon":5.38882,"is_reserved":false,"is_disabled":false,"rental_uris":{"android":"levelo://app?vid=5f8e7063-dd69-447b-a5ac-c0f3aed48f4a","ios":"levelo://app?vid=5f8e7063-dd69-447b-a5ac-c0f3aed48f4a"},"vehicle_type_id":"4","last_reported":1710597946,"current_range_meters":21200,"station_id":"ce4bhqp2rcd13ifvqhog","pricing_plan_id":"cebpf4jnsgd1na2vs0mg"},{"bike_id":"30e3f18a-83d6-43b4-b149-71fce596c76a","system_id":"levelo_inurba_marseille","lat":43.323638,"lon":5.388823,"is_reserved":false,"is_disabled":false,"rental_uris":{"android":"levelo://app?vid=30e3f18a-83d6-43b4-b149-71fce596c76a","ios":"levelo://app?vid=30e3f18a-83d6-43b4-b149-71fce596c76a"},"vehicle_type_id":"4","last_reported":1710597946,"current_range_meters":29600,"station_id":"ce4bhqp2rcd13ifvqhog","pricing_plan_id":"cebpf4jnsgd1na2vs0mg"},{"bike_id":"fabfa73f-5084-4820-a827-515b7447769f","system_id":"levelo_inurba_marseille","lat":43.323638,"lon":5.388838,"is_reserved":false,"is_disabled":false,"rental_uris":{"android":"levelo://app?vid=fabfa73f-5084-4820-a827-515b7447769f","ios":"levelo://app?vid=fabfa73f-5084-4820-a827-515b7447769f"},"vehicle_type_id":"4","last_reported":1710597946,"current_range_meters":8400,"station_id":"ce4bhqp2rcd13ifvqhog","pricing_plan_id":"cebpf4jnsgd1na2vs0mg"},{"bike_id":"40e2eb8a-4357-46b9-90f8-84a1e303713d","system_id":"levelo_inurba_marseille","lat":43.32369,"lon":5.38882,"is_reserved":false,"is_disabled":false,"rental_uris":{"android":"levelo://app?vid=40e2eb8a-4357-46b9-90f8-84a1e303713d","ios":"levelo://app?vid=40e2eb8a-4357-46b9-90f8-84a1e303713d"},"vehicle_type_id":"4","last_reported":1710597946,"current_range_meters":2800,"station_id":"ce4bhqp2rcd13ifvqhog","pricing_plan_id":"cebpf4jnsgd1na2vs0mg"},{"bike_id":"acba90d4-5ff8-4ebf-9f96-646bbc59c349","system_id":"levelo_inurba_marseille","lat":43.32368,"lon":5.38883,"is_reserved":false,"is_disabled":false,"rental_uris":{"android":"levelo://app?vid=acba90d4-5ff8-4ebf-9f96-646bbc59c349","ios":"levelo://app?vid=acba90d4-5ff8-4ebf-9f96-646bbc59c349"},"vehicle_type_id":"4","last_reported":1710597946,"current_range_meters":9600,"station_id":"ce4bhqp2rcd13ifvqhog","pricing_plan_id":"cebpf4jnsgd1na2vs0mg"},{"bike_id":"73189312-5711-4f07-9ba2-a07b812fa614","system_id":"levelo_inurba_marseille","lat":43.32366,"lon":5.38885,"is_reserved":false,"is_disabled":false,"rental_uris":{"android":"levelo://app?vid=73189312-5711-4f07-9ba2-a07b812fa614","ios":"levelo://app?vid=73189312-5711-4f07-9ba2-a07b812fa614"},"vehicle_type_id":"4","last_reported":1710597946,"current_range_meters":22800,"station_id":"ce4bhqp2rcd13ifvqhog","pricing_plan_id":"cebpf4jnsgd1na2vs0mg"},{"bike_id":"98c893c2-7601-480f-b687-9b8b6030928a","system_id":"levelo_inurba_marseille","lat":43.32367,"lon":5.388836,"is_reserved":false,"is_disabled":false,"rental_uris":{"android":"levelo://app?vid=98c893c2-7601-480f-b687-9b8b6030928a","ios":"levelo://app?vid=98c893c2-7601-480f-b687-9b8b6030928a"},"vehicle_type_id":"4","last_reported":1710597946,"current_range_meters":800,"station_id":"ce4bhqp2rcd13ifvqhog","pricing_plan_id":"cebpf4jnsgd1na2vs0mg"},{"bike_id":"775cf867-e75b-4fd5-b02f-97c73260f4b7","system_id":"levelo_inurba_marseille","lat":43.323652,"lon":5.388881,"is_reserved":false,"is_disabled":false,"rental_uris":{"android":"levelo://app?vid=775cf867-e75b-4fd5-b02f-97c73260f4b7","ios":"levelo://app?vid=775cf867-e75b-4fd5-b02f-97c73260f4b7"},"vehicle_type_id":"4","last_reported":1710597946,"current_range_meters":22800,"station_id":"ce4bhqp2rcd13ifvqhog","pricing_plan_id":"cebpf4jnsgd1na2vs0mg"},{"bike_id":"2ee1c5a1-ba6a-407a-83c1-d51467fcd730","system_id":"levelo_inurba_marseille","lat":43.32367,"lon":5.388836,"is_reserved":false,"is_disabled":false,"rental_uris":{"android":"levelo://app?vid=2ee1c5a1-ba6a-407a-83c1-d51467fcd730","ios":"levelo://app?vid=2ee1c5a1-ba6a-407a-83c1-d51467fcd730"},"vehicle_type_id":"4","last_reported":1710597946,"current_range_meters":30000,"station_id":"ce4bhqp2rcd13ifvqhog","pricing_plan_id":"cebpf4jnsgd1na2vs0mg"},{"bike_id":"e7defb13-07db-447b-afd9-2164da423aef","system_id":"levelo_inurba_marseille","lat":43.32367,"lon":5.388836,"is_reserved":false,"is_disabled":false,"rental_uris":{"android":"levelo://app?vid=e7defb13-07db-447b-afd9-2164da423aef","ios":"levelo://app?vid=e7defb13-07db-447b-afd9-2164da423aef"},"vehicle_type_id":"4","last_reported":1710597946,"current_range_meters":18800,"station_id":"ce4bhqp2rcd13ifvqhog","pricing_plan_id":"cebpf4jnsgd1na2vs0mg"},{"bike_id":"3987cddb-4ed7-405b-96ca-b1abeb478286","system_id":"levelo_inurba_marseille","lat":43.32367,"lon":5.388836,"is_reserved":false,"is_disabled":false,"rental_uris":{"android":"levelo://app?vid=3987cddb-4ed7-405b-96ca-b1abeb478286","ios":"levelo://app?vid=3987cddb-4ed7-405b-96ca-b1abeb478286"},"vehicle_type_id":"4","last_reported":1710597946,"current_range_meters":17600,"station_id":"ce4bhqp2rcd13ifvqhog","pricing_plan_id":"cebpf4jnsgd1na2vs0mg"},{"bike_id":"aa08a152-15ce-4024-a530-0aa74ba9a66c","system_id":"levelo_inurba_marseille","lat":43.296072,"lon":5.381012,"is_reserved":false,"is_disabled":false,"rental_uris":{"android":"levelo://app?vid=aa08a152-15ce-4024-a530-0aa74ba9a66c","ios":"levelo://app?vid=aa08a152-15ce-4024-a530-0aa74ba9a66c"},"vehicle_type_id":"4","last_reported":1710597946,"current_range_meters":0,"station_id":"ce4bgl12rcd13ifvqbo0","pricing_plan_id":"cebpf4jnsgd1na2vs0mg"},{"bike_id":"76de1e1f-945b-4c1d-bf97-88ded8ce4b46","system_id":"levelo_inurba_marseille","lat":43.29596,"lon":5.38085,"is_reserved":false,"is_disabled":false,"rental_uris":{"android":"levelo://app?vid=76de1e1f-945b-4c1d-bf97-88ded8ce4b46","ios":"levelo://app?vid=76de1e1f-945b-4c1d-bf97-88ded8ce4b46"},"vehicle_type_id":"4","last_reported":1710597946,"current_range_meters":14800,"station_id":"ce4bgl12rcd13ifvqbo0","pricing_plan_id":"cebpf4jnsgd1na2vs0mg"},{"bike_id":"38ef9a6d-af87-4b69-b0dc-2c88751d1e66","system_id":"levelo_inurba_marseille","lat":43.29591,"lon":5.38101,"is_reserved":false,"is_disabled":false,"rental_uris":{"android":"levelo://app?vid=38ef9a6d-af87-4b69-b0dc-2c88751d1e66","ios":"levelo://app?vid=38ef9a6d-af87-4b69-b0dc-2c88751d1e66"},"vehicle_type_id":"4","last_reported":1710597946,"current_range_meters":0,"station_id":"ce4bgl12rcd13ifvqbo0","pricing_plan_id":"cebpf4jnsgd1na2vs0mg"},{"bike_id":"881f4386-849f-4779-a44a-f43bfe25ab8b","system_id":"levelo_inurba_marseille","lat":43.29486,"lon":5.378578,"is_reserved":false,"is_disabled":false,"rental_uris":{"android":"levelo://app?vid=881f4386-849f-4779-a44a-f43bfe25ab8b","ios":"levelo://app?vid=881f4386-849f-4779-a44a-f43bfe25ab8b"},"vehicle_type_id":"4","last_reported":1710597946,"current_range_meters":14000,"station_id":"","pricing_plan_id":"cebpf4jnsgd1na2vs0mg"},{"bike_id":"b6d11894-0573-438b-a743-e7c1551ad469","system_id":"levelo_inurba_marseille","lat":43.292749,"lon":5.368402,"is_reserved":false,"is_disabled":false,"rental_uris":{"android":"levelo://app?vid=b6d11894-0573-438b-a743-e7c1551ad469","ios":"levelo://app?vid=b6d11894-0573-438b-a743-e7c1551ad469"},"vehicle_type_id":"4","last_reported":1710597946,"current_range_meters":0,"station_id":"ce4bhbp2rcd13ifvqesg","pricing_plan_id":"cebpf4jnsgd1na2vs0mg"},{"bike_id":"c6fd72f3-d669-4f43-93d2-06ef0c36a28d","system_id":"levelo_inurba_marseille","lat":43.292749,"lon":5.368402,"is_reserved":false,"is_disabled":false,"rental_uris":{"android":"levelo://app?vid=c6fd72f3-d669-4f43-93d2-06ef0c36a28d","ios":"levelo://app?vid=c6fd72f3-d669-4f43-93d2-06ef0c36a28d"},"vehicle_type_id":"4","last_reported":1710597946,"current_range_meters":2800,"station_id":"ce4bhbp2rcd13ifvqesg","pricing_plan_id":"cebpf4jnsgd1na2vs0mg"},{"bike_id":"1a347e03-1458-4e7f-ae81-ef9a5dd9881e","system_id":"levelo_inurba_marseille","lat":43.292749,"lon":5.368402,"is_reserved":false,"is_disabled":false,"rental_uris":{"android":"levelo://app?vid=1a347e03-1458-4e7f-ae81-ef9a5dd9881e","ios":"levelo://app?vid=1a347e03-1458-4e7f-ae81-ef9a5dd9881e"},"vehicle_type_id":"4","last_reported":1710597946,"current_range_meters":4400,"station_id":"ce4bhbp2rcd13ifvqesg","pricing_plan_id":"cebpf4jnsgd1na2vs0mg"},{"bike_id":"3674fff1-7575-4b49-b193-824430af5a23","system_id":"levelo_inurba_marseille","lat":43.292749,"lon":5.368402,"is_reserved":false,"is_disabled":false,"rental_uris":{"android":"levelo://app?vid=3674fff1-7575-4b49-b193-824430af5a23","ios":"levelo://app?vid=3674fff1-7575-4b49-b193-824430af5a23"},"vehicle_type_id":"4","last_reported":1710597946,"current_range_meters":8400,"station_id":"ce4bhbp2rcd13ifvqesg","pricing_plan_id":"cebpf4jnsgd1na2vs0mg"},{"bike_id":"4d3ceb04-29a8-4536-8b33-e597c7079d68","system_id":"levelo_inurba_marseille","lat":43.292749,"lon":5.368402,"is_reserved":false,"is_disabled":false,"rental_uris":{"android":"levelo://app?vid=4d3ceb04-29a8-4536-8b33-e597c7079d68","ios":"levelo://app?vid=4d3ceb04-29a8-4536-8b33-e597c7079d68"},"vehicle_type_id":"4","last_reported":1710597946,"current_range_meters":4000,"station_id":"ce4bhbp2rcd13ifvqesg","pricing_plan_id":"cebpf4jnsgd1na2vs0mg"},{"bike_id":"28654416-99da-4752-9d3f-8ea0bb5f7e30","system_id":"levelo_inurba_marseille","lat":43.292749,"lon":5.368402,"is_reserved":false,"is_disabled":false,"rental_uris":{"android":"levelo://app?vid=28654416-99da-4752-9d3f-8ea0bb5f7e30","ios":"levelo://app?vid=28654416-99da-4752-9d3f-8ea0bb5f7e30"},"vehicle_type_id":"4","last_reported":1710597946,"current_range_meters":2400,"station_id":"ce4bhbp2rcd13ifvqesg","pricing_plan_id":"cebpf4jnsgd1na2vs0mg"},{"bike_id":"e332c440-5f73-4e2f-82b5-e941cafd5f81","system_id":"levelo_inurba_marseille","lat":43.29235,"lon":5.36514,"is_reserved":false,"is_disabled":false,"rental_uris":{"android":"levelo://app?vid=e332c440-5f73-4e2f-82b5-e941cafd5f81","ios":"levelo://app?vid=e332c440-5f73-4e2f-82b5-e941cafd5f81"},"vehicle_type_id":"4","last_reported":1710597946,"current_range_meters":20800,"station_id":"","pricing_plan_id":"cebpf4jnsgd1na2vs0mg"},{"bike_id":"7ecf54b2-0638-4883-b231-849275a0eb4a","system_id":"levelo_inurba_marseille","lat":43.30308,"lon":5.392045,"is_reserved":false,"is_disabled":false,"rental_uris":{"android":"levelo://app?vid=7ecf54b2-0638-4883-b231-849275a0eb4a","ios":"levelo://app?vid=7ecf54b2-0638-4883-b231-849275a0eb4a"},"vehicle_type_id":"4","last_reported":1710597946,"current_range_meters":0,"station_id":"ce4bgkh2rcd13ifvqbk0","pricing_plan_id":"cebpf4jnsgd1na2vs0mg"},{"bike_id":"961b2385-9c29-4c4a-b504-7d82599cde78","system_id":"levelo_inurba_marseille","lat":43.292311,"lon":5.360731,"is_reserved":false,"is_disabled":false,"rental_uris":{"android":"levelo://app?vid=961b2385-9c29-4c4a-b504-7d82599cde78","ios":"levelo://app?vid=961b2385-9c29-4c4a-b504-7d82599cde78"},"vehicle_type_id":"4","last_reported":1710597946,"current_range_meters":26000,"station_id":"ce4bhbh2rcd13ifvqeqg","pricing_plan_id":"cebpf4jnsgd1na2vs0mg"},{"bike_id":"53177f4f-52cc-4e89-a2fa-6b83cb58333c","system_id":"levelo_inurba_marseille","lat":43.300852,"lon":5.390859,"is_reserved":false,"is_disabled":false,"rental_uris":{"android":"levelo://app?vid=53177f4f-52cc-4e89-a2fa-6b83cb58333c","ios":"levelo://app?vid=53177f4f-52cc-4e89-a2fa-6b83cb58333c"},"vehicle_type_id":"4","last_reported":1710597946,"current_range_meters":3600,"station_id":"ce4bh192rcd13ifvqdb0","pricing_plan_id":"cebpf4jnsgd1na2vs0mg"},{"bike_id":"826a3cac-9e19-4b3c-a74b-af046ee5f23f","system_id":"levelo_inurba_marseille","lat":43.298764,"lon":5.388973,"is_reserved":false,"is_disabled":false,"rental_uris":{"android":"levelo://app?vid=826a3cac-9e19-4b3c-a74b-af046ee5f23f","ios":"levelo://app?vid=826a3cac-9e19-4b3c-a74b-af046ee5f23f"},"vehicle_type_id":"4","last_reported":1710597946,"current_range_meters":0,"station_id":"ce4bh392rcd13ifvqdl0","pricing_plan_id":"cebpf4jnsgd1na2vs0mg"},{"bike_id":"e8573756-89a8-4d97-a50a-cf58b9f2923c","system_id":"levelo_inurba_marseille","lat":43.32777,"lon":5.38811,"is_reserved":false,"is_disabled":false,"rental_uris":{"android":"levelo://app?vid=e8573756-89a8-4d97-a50a-cf58b9f2923c","ios":"levelo://app?vid=e8573756-89a8-4d97-a50a-cf58b9f2923c"},"vehicle_type_id":"4","last_reported":1710597946,"current_range_meters":22400,"station_id":"","pricing_plan_id":"cebpf4jnsgd1na2vs0mg"},{"bike_id":"8bc3d09b-f03f-4b6a-a690-cb4476281229","system_id":"levelo_inurba_marseille","lat":43.292085,"lon":5.358545,"is_reserved":false,"is_disabled":false,"rental_uris":{"android":"levelo://app?vid=8bc3d09b-f03f-4b6a-a690-cb4476281229","ios":"levelo://app?vid=8bc3d09b-f03f-4b6a-a690-cb4476281229"},"vehicle_type_id":"4","last_reported":1710597946,"current_range_meters":6400,"station_id":"ce4bhb12rcd13ifvqel0","pricing_plan_id":"cebpf4jnsgd1na2vs0mg"},{"bike_id":"809b5324-051d-4ee8-afb0-50f7656f0610","system_id":"levelo_inurba_marseille","lat":43.292014,"lon":5.358093,"is_reserved":false,"is_disabled":false,"rental_uris":{"android":"levelo://app?vid=809b5324-051d-4ee8-afb0-50f7656f0610","ios":"levelo://app?vid=809b5324-051d-4ee8-afb0-50f7656f0610"},"vehicle_type_id":"4","last_reported":1710597946,"current_range_meters":20000,"station_id":"ce4bhb12rcd13ifvqel0","pricing_plan_id":"cebpf4jnsgd1na2vs0mg"},{"bike_id":"63cdad64-ffaf-4f75-9216-e513dbc76e17","system_id":"levelo_inurba_marseille","lat":43.29204,"lon":5.35797,"is_reserved":false,"is_disabled":false,"rental_uris":{"android":"levelo://app?vid=63cdad64-ffaf-4f75-9216-e513dbc76e17","ios":"levelo://app?vid=63cdad64-ffaf-4f75-9216-e513dbc76e17"},"vehicle_type_id":"4","last_reported":1710597946,"current_range_meters":7200,"station_id":"ce4bhb12rcd13ifvqel0","pricing_plan_id":"cebpf4jnsgd1na2vs0mg"},{"bike_id":"56298b89-269f-4713-8ae7-d5318373aa18","system_id":"levelo_inurba_marseille","lat":43.291994,"lon":5.357886,"is_reserved":false,"is_disabled":false,"rental_uris":{"android":"levelo://app?vid=56298b89-269f-4713-8ae7-d5318373aa18","ios":"levelo://app?vid=56298b89-269f-4713-8ae7-d5318373aa18"},"vehicle_type_id":"4","last_reported":1710597946,"current_range_meters":15200,"station_id":"ce4bhb12rcd13ifvqel0","pricing_plan_id":"cebpf4jnsgd1na2vs0mg"},{"bike_id":"18dc4000-a523-4f7a-a78f-b9f65e42c391","system_id":"levelo_inurba_marseille","lat":43.291994,"lon":5.357886,"is_reserved":false,"is_disabled":false,"rental_uris":{"android":"levelo://app?vid=18dc4000-a523-4f7a-a78f-b9f65e42c391","ios":"levelo://app?vid=18dc4000-a523-4f7a-a78f-b9f65e42c391"},"vehicle_type_id":"4","last_reported":1710597946,"current_range_meters":5600,"station_id":"ce4bhb12rcd13ifvqel0","pricing_plan_id":"cebpf4jnsgd1na2vs0mg"},{"bike_id":"ec0161c8-ef79-48e0-bc98-4f0843b1bd8f","system_id":"levelo_inurba_marseille","lat":43.29197,"lon":5.35803,"is_reserved":false,"is_disabled":false,"rental_uris":{"android":"levelo://app?vid=ec0161c8-ef79-48e0-bc98-4f0843b1bd8f","ios":"levelo://app?vid=ec0161c8-ef79-48e0-bc98-4f0843b1bd8f"},"vehicle_type_id":"4","last_reported":1710597946,"current_range_meters":0,"station_id":"ce4bhb12rcd13ifvqel0","pricing_plan_id":"cebpf4jnsgd1na2vs0mg"},{"bike_id":"c3c26169-29e7-4f10-8ad7-ce8bfa6b5840","system_id":"levelo_inurba_marseille","lat":43.31322,"lon":5.39689,"is_reserved":false,"is_disabled":false,"rental_uris":{"android":"levelo://app?vid=c3c26169-29e7-4f10-8ad7-ce8bfa6b5840","ios":"levelo://app?vid=c3c26169-29e7-4f10-8ad7-ce8bfa6b5840"},"vehicle_type_id":"4","last_reported":1710597946,"current_range_meters":15200,"station_id":"ce4bgvp2rcd13ifvqcu0","pricing_plan_id":"cebpf4jnsgd1na2vs0mg"},{"bike_id":"d25dde5f-54ab-46e0-b7b9-285647f930d3","system_id":"levelo_inurba_marseille","lat":43.31329,"lon":5.3969,"is_reserved":false,"is_disabled":false,"rental_uris":{"android":"levelo://app?vid=d25dde5f-54ab-46e0-b7b9-285647f930d3","ios":"levelo://app?vid=d25dde5f-54ab-46e0-b7b9-285647f930d3"},"vehicle_type_id":"4","last_reported":1710597946,"current_range_meters":14800,"station_id":"ce4bgvp2rcd13ifvqcu0","pricing_plan_id":"cebpf4jnsgd1na2vs0mg"},{"bike_id":"f107fdb8-c299-4ce9-aa06-d7f5a56ef2e7","system_id":"levelo_inurba_marseille","lat":43.313291,"lon":5.396838,"is_reserved":false,"is_disabled":false,"rental_uris":{"android":"levelo://app?vid=f107fdb8-c299-4ce9-aa06-d7f5a56ef2e7","ios":"levelo://app?vid=f107fdb8-c299-4ce9-aa06-d7f5a56ef2e7"},"vehicle_type_id":"4","last_reported":1710597946,"current_range_meters":27200,"station_id":"ce4bgvp2rcd13ifvqcu0","pricing_plan_id":"cebpf4jnsgd1na2vs0mg"},{"bike_id":"b098ec52-476d-463f-9183-0c93226c6a90","system_id":"levelo_inurba_marseille","lat":43.313291,"lon":5.396838,"is_reserved":false,"is_disabled":false,"rental_uris":{"android":"levelo://app?vid=b098ec52-476d-463f-9183-0c93226c6a90","ios":"levelo://app?vid=b098ec52-476d-463f-9183-0c93226c6a90"},"vehicle_type_id":"4","last_reported":1710597946,"current_range_meters":16800,"station_id":"ce4bgvp2rcd13ifvqcu0","pricing_plan_id":"cebpf4jnsgd1na2vs0mg"},{"bike_id":"09af92ce-7a7b-4ed5-9718-052341a6df11","system_id":"levelo_inurba_marseille","lat":43.313291,"lon":5.396838,"is_reserved":false,"is_disabled":false,"rental_uris":{"android":"levelo://app?vid=09af92ce-7a7b-4ed5-9718-052341a6df11","ios":"levelo://app?vid=09af92ce-7a7b-4ed5-9718-052341a6df11"},"vehicle_type_id":"4","last_reported":1710597946,"current_range_meters":4400,"station_id":"ce4bgvp2rcd13ifvqcu0","pricing_plan_id":"cebpf4jnsgd1na2vs0mg"},{"bike_id":"9e61b1d6-300a-4dfb-9d70-4d93a391b9d9","system_id":"levelo_inurba_marseille","lat":43.309038,"lon":5.396546,"is_reserved":false,"is_disabled":false,"rental_uris":{"android":"levelo://app?vid=9e61b1d6-300a-4dfb-9d70-4d93a391b9d9","ios":"levelo://app?vid=9e61b1d6-300a-4dfb-9d70-4d93a391b9d9"},"vehicle_type_id":"4","last_reported":1710597946,"current_range_meters":4400,"station_id":"ce4bh012rcd13ifvqcv0","pricing_plan_id":"cebpf4jnsgd1na2vs0mg"},{"bike_id":"638bc041-5d27-4e25-9fbf-904e42e380b6","system_id":"levelo_inurba_marseille","lat":43.313291,"lon":5.396838,"is_reserved":false,"is_disabled":false,"rental_uris":{"android":"levelo://app?vid=638bc041-5d27-4e25-9fbf-904e42e380b6","ios":"levelo://app?vid=638bc041-5d27-4e25-9fbf-904e42e380b6"},"vehicle_type_id":"4","last_reported":1710597946,"current_range_meters":30000,"station_id":"ce4bgvp2rcd13ifvqcu0","pricing_plan_id":"cebpf4jnsgd1na2vs0mg"},{"bike_id":"0c4b6dde-abe8-4cdc-91d4-4cf167b50a89","system_id":"levelo_inurba_marseille","lat":43.29539,"lon":5.38545,"is_reserved":false,"is_disabled":false,"rental_uris":{"android":"levelo://app?vid=0c4b6dde-abe8-4cdc-91d4-4cf167b50a89","ios":"levelo://app?vid=0c4b6dde-abe8-4cdc-91d4-4cf167b50a89"},"vehicle_type_id":"4","last_reported":1710597946,"current_range_meters":7200,"station_id":"ce4bgih2rcd13ifvqba0","pricing_plan_id":"cebpf4jnsgd1na2vs0mg"},{"bike_id":"9f53f154-b32b-4412-b8f3-3a315c934a41","system_id":"levelo_inurba_marseille","lat":43.290104,"lon":5.356111,"is_reserved":false,"is_disabled":false,"rental_uris":{"android":"levelo://app?vid=9f53f154-b32b-4412-b8f3-3a315c934a41","ios":"levelo://app?vid=9f53f154-b32b-4412-b8f3-3a315c934a41"},"vehicle_type_id":"4","last_reported":1710597946,"current_range_meters":0,"station_id":"ce4bhb92rcd13ifvqen0","pricing_plan_id":"cebpf4jnsgd1na2vs0mg"},{"bike_id":"df37c951-9d4e-4879-8874-d8b3fa04e6f3","system_id":"levelo_inurba_marseille","lat":43.290631,"lon":5.359244,"is_reserved":false,"is_disabled":false,"rental_uris":{"android":"levelo://app?vid=df37c951-9d4e-4879-8874-d8b3fa04e6f3","ios":"levelo://app?vid=df37c951-9d4e-4879-8874-d8b3fa04e6f3"},"vehicle_type_id":"4","last_reported":1710597946,"current_range_meters":25600,"station_id":"ce4bha92rcd13ifvqeg0","pricing_plan_id":"cebpf4jnsgd1na2vs0mg"},{"bike_id":"eb92915b-126e-40db-824a-8fcc4e2bdb74","system_id":"levelo_inurba_marseille","lat":43.2901,"lon":5.381269,"is_reserved":false,"is_disabled":false,"rental_uris":{"android":"levelo://app?vid=eb92915b-126e-40db-824a-8fcc4e2bdb74","ios":"levelo://app?vid=eb92915b-126e-40db-824a-8fcc4e2bdb74"},"vehicle_type_id":"4","last_reported":1710597946,"current_range_meters":0,"station_id":"ce4bh4p2rcd13ifvqe1g","pricing_plan_id":"cebpf4jnsgd1na2vs0mg"},{"bike_id":"1e5dfe6c-e257-4168-87cb-16e9446c8f81","system_id":"levelo_inurba_marseille","lat":43.289468,"lon":5.363719,"is_reserved":false,"is_disabled":false,"rental_uris":{"android":"levelo://app?vid=1e5dfe6c-e257-4168-87cb-16e9446c8f81","ios":"levelo://app?vid=1e5dfe6c-e257-4168-87cb-16e9446c8f81"},"vehicle_type_id":"4","last_reported":1710597946,"current_range_meters":24000,"station_id":"ce4bhc92rcd13ifvqetg","pricing_plan_id":"cebpf4jnsgd1na2vs0mg"},{"bike_id":"aaa7878b-4fb8-4a2b-b480-7f903bdb39b7","system_id":"levelo_inurba_marseille","lat":43.28943,"lon":5.3664,"is_reserved":false,"is_disabled":false,"rental_uris":{"android":"levelo://app?vid=aaa7878b-4fb8-4a2b-b480-7f903bdb39b7","ios":"levelo://app?vid=aaa7878b-4fb8-4a2b-b480-7f903bdb39b7"},"vehicle_type_id":"4","last_reported":1710597946,"current_range_meters":0,"station_id":"ce4bhap2rcd13ifvqek0","pricing_plan_id":"cebpf4jnsgd1na2vs0mg"},{"bike_id":"e44fb0b9-1420-4a4e-bb1e-e6ee1d7c1320","system_id":"levelo_inurba_marseille","lat":43.28941,"lon":5.36626,"is_reserved":false,"is_disabled":false,"rental_uris":{"android":"levelo://app?vid=e44fb0b9-1420-4a4e-bb1e-e6ee1d7c1320","ios":"levelo://app?vid=e44fb0b9-1420-4a4e-bb1e-e6ee1d7c1320"},"vehicle_type_id":"4","last_reported":1710597946,"current_range_meters":16000,"station_id":"ce4bhap2rcd13ifvqek0","pricing_plan_id":"cebpf4jnsgd1na2vs0mg"},{"bike_id":"29939f96-bd05-4e91-8d81-76a5977a6635","system_id":"levelo_inurba_marseille","lat":43.289468,"lon":5.363719,"is_reserved":false,"is_disabled":false,"rental_uris":{"android":"levelo://app?vid=29939f96-bd05-4e91-8d81-76a5977a6635","ios":"levelo://app?vid=29939f96-bd05-4e91-8d81-76a5977a6635"},"vehicle_type_id":"4","last_reported":1710597946,"current_range_meters":21600,"station_id":"ce4bhc92rcd13ifvqetg","pricing_plan_id":"cebpf4jnsgd1na2vs0mg"},{"bike_id":"d9145e44-f746-4946-9296-42e6e88f1c42","system_id":"levelo_inurba_marseille","lat":43.29414,"lon":5.38635,"is_reserved":false,"is_disabled":false,"rental_uris":{"android":"levelo://app?vid=d9145e44-f746-4946-9296-42e6e88f1c42","ios":"levelo://app?vid=d9145e44-f746-4946-9296-42e6e88f1c42"},"vehicle_type_id":"4","last_reported":1710597946,"current_range_meters":0,"station_id":"","pricing_plan_id":"cebpf4jnsgd1na2vs0mg"},{"bike_id":"09aa0545-808b-4a32-ac23-9f972dd44084","system_id":"levelo_inurba_marseille","lat":43.28906,"lon":5.361785,"is_reserved":false,"is_disabled":false,"rental_uris":{"android":"levelo://app?vid=09aa0545-808b-4a32-ac23-9f972dd44084","ios":"levelo://app?vid=09aa0545-808b-4a32-ac23-9f972dd44084"},"vehicle_type_id":"4","last_reported":1710597946,"current_range_meters":19600,"station_id":"","pricing_plan_id":"cebpf4jnsgd1na2vs0mg"},{"bike_id":"1932aa0c-0242-4ef4-b4e1-f22b2074c78c","system_id":"levelo_inurba_marseille","lat":43.2901,"lon":5.35606,"is_reserved":false,"is_disabled":false,"rental_uris":{"android":"levelo://app?vid=1932aa0c-0242-4ef4-b4e1-f22b2074c78c","ios":"levelo://app?vid=1932aa0c-0242-4ef4-b4e1-f22b2074c78c"},"vehicle_type_id":"4","last_reported":1710597946,"current_range_meters":10000,"station_id":"ce4bhb92rcd13ifvqen0","pricing_plan_id":"cebpf4jnsgd1na2vs0mg"},{"bike_id":"c778a0a8-54c0-472d-84f4-c3cb191c1f71","system_id":"levelo_inurba_marseille","lat":43.290103,"lon":5.356114,"is_reserved":false,"is_disabled":false,"rental_uris":{"android":"levelo://app?vid=c778a0a8-54c0-472d-84f4-c3cb191c1f71","ios":"levelo://app?vid=c778a0a8-54c0-472d-84f4-c3cb191c1f71"},"vehicle_type_id":"4","last_reported":1710597946,"current_range_meters":9200,"station_id":"ce4bhb92rcd13ifvqen0","pricing_plan_id":"cebpf4jnsgd1na2vs0mg"},{"bike_id":"1ae0c0ab-aa7a-4993-b570-dc67e5c7f271","system_id":"levelo_inurba_marseille","lat":43.29009,"lon":5.35604,"is_reserved":false,"is_disabled":false,"rental_uris":{"android":"levelo://app?vid=1ae0c0ab-aa7a-4993-b570-dc67e5c7f271","ios":"levelo://app?vid=1ae0c0ab-aa7a-4993-b570-dc67e5c7f271"},"vehicle_type_id":"4","last_reported":1710597946,"current_range_meters":20000,"station_id":"ce4bhb92rcd13ifvqen0","pricing_plan_id":"cebpf4jnsgd1na2vs0mg"},{"bike_id":"53d37688-a712-4a56-b67c-8a2d7829f71e","system_id":"levelo_inurba_marseille","lat":43.29007,"lon":5.35611,"is_reserved":false,"is_disabled":false,"rental_uris":{"android":"levelo://app?vid=53d37688-a712-4a56-b67c-8a2d7829f71e","ios":"levelo://app?vid=53d37688-a712-4a56-b67c-8a2d7829f71e"},"vehicle_type_id":"4","last_reported":1710597946,"current_range_meters":22000,"station_id":"ce4bhb92rcd13ifvqen0","pricing_plan_id":"cebpf4jnsgd1na2vs0mg"},{"bike_id":"46655948-3c7c-4d0f-8c85-51ed9b98e6c7","system_id":"levelo_inurba_marseille","lat":43.290104,"lon":5.356111,"is_reserved":false,"is_disabled":false,"rental_uris":{"android":"levelo://app?vid=46655948-3c7c-4d0f-8c85-51ed9b98e6c7","ios":"levelo://app?vid=46655948-3c7c-4d0f-8c85-51ed9b98e6c7"},"vehicle_type_id":"4","last_reported":1710597946,"current_range_meters":6000,"station_id":"ce4bhb92rcd13ifvqen0","pricing_plan_id":"cebpf4jnsgd1na2vs0mg"},{"bike_id":"49c7c4a6-e25b-4700-bdb4-0b5d08754f61","system_id":"levelo_inurba_marseille","lat":43.29007,"lon":5.35608,"is_reserved":false,"is_disabled":false,"rental_uris":{"android":"levelo://app?vid=49c7c4a6-e25b-4700-bdb4-0b5d08754f61","ios":"levelo://app?vid=49c7c4a6-e25b-4700-bdb4-0b5d08754f61"},"vehicle_type_id":"4","last_reported":1710597946,"current_range_meters":8800,"station_id":"ce4bhb92rcd13ifvqen0","pricing_plan_id":"cebpf4jnsgd1na2vs0mg"},{"bike_id":"2f10cf40-8b5a-4900-b333-fb24b6399837","system_id":"levelo_inurba_marseille","lat":43.290104,"lon":5.356111,"is_reserved":false,"is_disabled":false,"rental_uris":{"android":"levelo://app?vid=2f10cf40-8b5a-4900-b333-fb24b6399837","ios":"levelo://app?vid=2f10cf40-8b5a-4900-b333-fb24b6399837"},"vehicle_type_id":"4","last_reported":1710597946,"current_range_meters":0,"station_id":"ce4bhb92rcd13ifvqen0","pricing_plan_id":"cebpf4jnsgd1na2vs0mg"},{"bike_id":"07f1c46f-9eb6-4b68-8da4-23a528629192","system_id":"levelo_inurba_marseille","lat":43.29005,"lon":5.35613,"is_reserved":false,"is_disabled":false,"rental_uris":{"android":"levelo://app?vid=07f1c46f-9eb6-4b68-8da4-23a528629192","ios":"levelo://app?vid=07f1c46f-9eb6-4b68-8da4-23a528629192"},"vehicle_type_id":"4","last_reported":1710597946,"current_range_meters":3200,"station_id":"ce4bhb92rcd13ifvqen0","pricing_plan_id":"cebpf4jnsgd1na2vs0mg"},{"bike_id":"03e4797f-ad80-4a54-b1b5-f9191a4c9b7a","system_id":"levelo_inurba_marseille","lat":43.290103,"lon":5.356114,"is_reserved":false,"is_disabled":false,"rental_uris":{"android":"levelo://app?vid=03e4797f-ad80-4a54-b1b5-f9191a4c9b7a","ios":"levelo://app?vid=03e4797f-ad80-4a54-b1b5-f9191a4c9b7a"},"vehicle_type_id":"4","last_reported":1710597946,"current_range_meters":24800,"station_id":"ce4bhb92rcd13ifvqen0","pricing_plan_id":"cebpf4jnsgd1na2vs0mg"},{"bike_id":"cf1a28fb-7943-4316-9eb0-d763ace24c63","system_id":"levelo_inurba_marseille","lat":43.29005,"lon":5.35611,"is_reserved":false,"is_disabled":false,"rental_uris":{"android":"levelo://app?vid=cf1a28fb-7943-4316-9eb0-d763ace24c63","ios":"levelo://app?vid=cf1a28fb-7943-4316-9eb0-d763ace24c63"},"vehicle_type_id":"4","last_reported":1710597946,"current_range_meters":16000,"station_id":"ce4bhb92rcd13ifvqen0","pricing_plan_id":"cebpf4jnsgd1na2vs0mg"},{"bike_id":"cda2970e-4bc3-4f15-bf81-34943ab35d5a","system_id":"levelo_inurba_marseille","lat":43.29005,"lon":5.35611,"is_reserved":false,"is_disabled":false,"rental_uris":{"android":"levelo://app?vid=cda2970e-4bc3-4f15-bf81-34943ab35d5a","ios":"levelo://app?vid=cda2970e-4bc3-4f15-bf81-34943ab35d5a"},"vehicle_type_id":"4","last_reported":1710597946,"current_range_meters":20000,"station_id":"ce4bhb92rcd13ifvqen0","pricing_plan_id":"cebpf4jnsgd1na2vs0mg"},{"bike_id":"1ef78edb-a782-431c-994a-68e38635ea82","system_id":"levelo_inurba_marseille","lat":43.29006,"lon":5.35607,"is_reserved":false,"is_disabled":false,"rental_uris":{"android":"levelo://app?vid=1ef78edb-a782-431c-994a-68e38635ea82","ios":"levelo://app?vid=1ef78edb-a782-431c-994a-68e38635ea82"},"vehicle_type_id":"4","last_reported":1710597946,"current_range_meters":6400,"station_id":"ce4bhb92rcd13ifvqen0","pricing_plan_id":"cebpf4jnsgd1na2vs0mg"},{"bike_id":"51245845-7388-48b8-8636-fef3447486cf","system_id":"levelo_inurba_marseille","lat":43.290104,"lon":5.356111,"is_reserved":false,"is_disabled":false,"rental_uris":{"android":"levelo://app?vid=51245845-7388-48b8-8636-fef3447486cf","ios":"levelo://app?vid=51245845-7388-48b8-8636-fef3447486cf"},"vehicle_type_id":"4","last_reported":1710597946,"current_range_meters":0,"station_id":"ce4bhb92rcd13ifvqen0","pricing_plan_id":"cebpf4jnsgd1na2vs0mg"},{"bike_id":"94e1701e-c9a7-492f-9a23-0ba0a10c86b1","system_id":"levelo_inurba_marseille","lat":43.29006,"lon":5.35605,"is_reserved":false,"is_disabled":false,"rental_uris":{"android":"levelo://app?vid=94e1701e-c9a7-492f-9a23-0ba0a10c86b1","ios":"levelo://app?vid=94e1701e-c9a7-492f-9a23-0ba0a10c86b1"},"vehicle_type_id":"4","last_reported":1710597946,"current_range_meters":21600,"station_id":"ce4bhb92rcd13ifvqen0","pricing_plan_id":"cebpf4jnsgd1na2vs0mg"},{"bike_id":"ce185be4-4f2d-47cc-a638-b8d92920cc42","system_id":"levelo_inurba_marseille","lat":43.290104,"lon":5.356111,"is_reserved":false,"is_disabled":false,"rental_uris":{"android":"levelo://app?vid=ce185be4-4f2d-47cc-a638-b8d92920cc42","ios":"levelo://app?vid=ce185be4-4f2d-47cc-a638-b8d92920cc42"},"vehicle_type_id":"4","last_reported":1710597946,"current_range_meters":20400,"station_id":"ce4bhb92rcd13ifvqen0","pricing_plan_id":"cebpf4jnsgd1na2vs0mg"},{"bike_id":"13df5faf-2f62-4e5a-a9b1-6705605388ff","system_id":"levelo_inurba_marseille","lat":43.290103,"lon":5.356114,"is_reserved":false,"is_disabled":false,"rental_uris":{"android":"levelo://app?vid=13df5faf-2f62-4e5a-a9b1-6705605388ff","ios":"levelo://app?vid=13df5faf-2f62-4e5a-a9b1-6705605388ff"},"vehicle_type_id":"4","last_reported":1710597946,"current_range_meters":15600,"station_id":"ce4bhb92rcd13ifvqen0","pricing_plan_id":"cebpf4jnsgd1na2vs0mg"},{"bike_id":"5ed12fd3-2829-4292-a897-99dc989fd928","system_id":"levelo_inurba_marseille","lat":43.29004,"lon":5.3561,"is_reserved":false,"is_disabled":false,"rental_uris":{"android":"levelo://app?vid=5ed12fd3-2829-4292-a897-99dc989fd928","ios":"levelo://app?vid=5ed12fd3-2829-4292-a897-99dc989fd928"},"vehicle_type_id":"4","last_reported":1710597946,"current_range_meters":26800,"station_id":"ce4bhb92rcd13ifvqen0","pricing_plan_id":"cebpf4jnsgd1na2vs0mg"},{"bike_id":"a07f1681-ef32-424a-bb26-6e0b1c0966d0","system_id":"levelo_inurba_marseille","lat":43.29004,"lon":5.3561,"is_reserved":false,"is_disabled":false,"rental_uris":{"android":"levelo://app?vid=a07f1681-ef32-424a-bb26-6e0b1c0966d0","ios":"levelo://app?vid=a07f1681-ef32-424a-bb26-6e0b1c0966d0"},"vehicle_type_id":"4","last_reported":1710597946,"current_range_meters":17200,"station_id":"ce4bhb92rcd13ifvqen0","pricing_plan_id":"cebpf4jnsgd1na2vs0mg"},{"bike_id":"40b21f7e-2300-40f3-8233-19e9d64768f2","system_id":"levelo_inurba_marseille","lat":43.29003,"lon":5.35613,"is_reserved":false,"is_disabled":false,"rental_uris":{"android":"levelo://app?vid=40b21f7e-2300-40f3-8233-19e9d64768f2","ios":"levelo://app?vid=40b21f7e-2300-40f3-8233-19e9d64768f2"},"vehicle_type_id":"4","last_reported":1710597946,"current_range_meters":22400,"station_id":"ce4bhb92rcd13ifvqen0","pricing_plan_id":"cebpf4jnsgd1na2vs0mg"},{"bike_id":"1a65efa3-9340-4139-9850-5aa6c2413904","system_id":"levelo_inurba_marseille","lat":43.29003,"lon":5.35609,"is_reserved":false,"is_disabled":false,"rental_uris":{"android":"levelo://app?vid=1a65efa3-9340-4139-9850-5aa6c2413904","ios":"levelo://app?vid=1a65efa3-9340-4139-9850-5aa6c2413904"},"vehicle_type_id":"4","last_reported":1710597946,"current_range_meters":15200,"station_id":"ce4bhb92rcd13ifvqen0","pricing_plan_id":"cebpf4jnsgd1na2vs0mg"},{"bike_id":"c67c550b-1e1d-4aa0-a62c-8c56c010ae80","system_id":"levelo_inurba_marseille","lat":43.290104,"lon":5.356111,"is_reserved":false,"is_disabled":false,"rental_uris":{"android":"levelo://app?vid=c67c550b-1e1d-4aa0-a62c-8c56c010ae80","ios":"levelo://app?vid=c67c550b-1e1d-4aa0-a62c-8c56c010ae80"},"vehicle_type_id":"4","last_reported":1710597946,"current_range_meters":2800,"station_id":"ce4bhb92rcd13ifvqen0","pricing_plan_id":"cebpf4jnsgd1na2vs0mg"},{"bike_id":"079e0ccc-8948-45bd-872e-a923adeffbec","system_id":"levelo_inurba_marseille","lat":43.290104,"lon":5.356111,"is_reserved":false,"is_disabled":false,"rental_uris":{"android":"levelo://app?vid=079e0ccc-8948-45bd-872e-a923adeffbec","ios":"levelo://app?vid=079e0ccc-8948-45bd-872e-a923adeffbec"},"vehicle_type_id":"4","last_reported":1710597946,"current_range_meters":22000,"station_id":"ce4bhb92rcd13ifvqen0","pricing_plan_id":"cebpf4jnsgd1na2vs0mg"},{"bike_id":"be555434-db1b-4de2-97ad-5d2674ffb535","system_id":"levelo_inurba_marseille","lat":43.290103,"lon":5.356114,"is_reserved":false,"is_disabled":false,"rental_uris":{"android":"levelo://app?vid=be555434-db1b-4de2-97ad-5d2674ffb535","ios":"levelo://app?vid=be555434-db1b-4de2-97ad-5d2674ffb535"},"vehicle_type_id":"4","last_reported":1710597946,"current_range_meters":25600,"station_id":"ce4bhb92rcd13ifvqen0","pricing_plan_id":"cebpf4jnsgd1na2vs0mg"},{"bike_id":"ce15b2d1-ff3e-44df-941e-23a980acdfe1","system_id":"levelo_inurba_marseille","lat":43.290103,"lon":5.356114,"is_reserved":false,"is_disabled":false,"rental_uris":{"android":"levelo://app?vid=ce15b2d1-ff3e-44df-941e-23a980acdfe1","ios":"levelo://app?vid=ce15b2d1-ff3e-44df-941e-23a980acdfe1"},"vehicle_type_id":"4","last_reported":1710597946,"current_range_meters":22800,"station_id":"ce4bhb92rcd13ifvqen0","pricing_plan_id":"cebpf4jnsgd1na2vs0mg"},{"bike_id":"5624f43c-507f-498f-ade1-46de3a2c8435","system_id":"levelo_inurba_marseille","lat":43.290104,"lon":5.356111,"is_reserved":false,"is_disabled":false,"rental_uris":{"android":"levelo://app?vid=5624f43c-507f-498f-ade1-46de3a2c8435","ios":"levelo://app?vid=5624f43c-507f-498f-ade1-46de3a2c8435"},"vehicle_type_id":"4","last_reported":1710597946,"current_range_meters":19600,"station_id":"ce4bhb92rcd13ifvqen0","pricing_plan_id":"cebpf4jnsgd1na2vs0mg"},{"bike_id":"60aeba57-4884-47b6-bf6c-5325e3c5fa8c","system_id":"levelo_inurba_marseille","lat":43.290104,"lon":5.356111,"is_reserved":false,"is_disabled":false,"rental_uris":{"android":"levelo://app?vid=60aeba57-4884-47b6-bf6c-5325e3c5fa8c","ios":"levelo://app?vid=60aeba57-4884-47b6-bf6c-5325e3c5fa8c"},"vehicle_type_id":"4","last_reported":1710597946,"current_range_meters":12400,"station_id":"ce4bhb92rcd13ifvqen0","pricing_plan_id":"cebpf4jnsgd1na2vs0mg"},{"bike_id":"154c340f-e868-4b19-b20b-c7e3f11df3bc","system_id":"levelo_inurba_marseille","lat":43.29217,"lon":5.384055,"is_reserved":false,"is_disabled":false,"rental_uris":{"android":"levelo://app?vid=154c340f-e868-4b19-b20b-c7e3f11df3bc","ios":"levelo://app?vid=154c340f-e868-4b19-b20b-c7e3f11df3bc"},"vehicle_type_id":"4","last_reported":1710597946,"current_range_meters":8800,"station_id":"","pricing_plan_id":"cebpf4jnsgd1na2vs0mg"},{"bike_id":"03e52291-65f6-4fb1-8ea6-fe601177100b","system_id":"levelo_inurba_marseille","lat":43.29003,"lon":5.35604,"is_reserved":false,"is_disabled":false,"rental_uris":{"android":"levelo://app?vid=03e52291-65f6-4fb1-8ea6-fe601177100b","ios":"levelo://app?vid=03e52291-65f6-4fb1-8ea6-fe601177100b"},"vehicle_type_id":"4","last_reported":1710597946,"current_range_meters":5200,"station_id":"ce4bhb92rcd13ifvqen0","pricing_plan_id":"cebpf4jnsgd1na2vs0mg"},{"bike_id":"6b2acf59-9fdd-4c71-9cff-b5b055425b69","system_id":"levelo_inurba_marseille","lat":43.290035,"lon":5.355996,"is_reserved":false,"is_disabled":false,"rental_uris":{"android":"levelo://app?vid=6b2acf59-9fdd-4c71-9cff-b5b055425b69","ios":"levelo://app?vid=6b2acf59-9fdd-4c71-9cff-b5b055425b69"},"vehicle_type_id":"4","last_reported":1710597946,"current_range_meters":0,"station_id":"ce4bhb92rcd13ifvqen0","pricing_plan_id":"cebpf4jnsgd1na2vs0mg"},{"bike_id":"3015525b-a195-4102-8bab-0b7e78a3249f","system_id":"levelo_inurba_marseille","lat":43.29001,"lon":5.35607,"is_reserved":false,"is_disabled":false,"rental_uris":{"android":"levelo://app?vid=3015525b-a195-4102-8bab-0b7e78a3249f","ios":"levelo://app?vid=3015525b-a195-4102-8bab-0b7e78a3249f"},"vehicle_type_id":"4","last_reported":1710597946,"current_range_meters":8400,"station_id":"ce4bhb92rcd13ifvqen0","pricing_plan_id":"cebpf4jnsgd1na2vs0mg"},{"bike_id":"15b5e046-7bb9-44c1-8ac1-8e19a739d187","system_id":"levelo_inurba_marseille","lat":43.290103,"lon":5.356114,"is_reserved":false,"is_disabled":false,"rental_uris":{"android":"levelo://app?vid=15b5e046-7bb9-44c1-8ac1-8e19a739d187","ios":"levelo://app?vid=15b5e046-7bb9-44c1-8ac1-8e19a739d187"},"vehicle_type_id":"4","last_reported":1710597946,"current_range_meters":27600,"station_id":"ce4bhb92rcd13ifvqen0","pricing_plan_id":"cebpf4jnsgd1na2vs0mg"},{"bike_id":"41039e38-920a-4b44-ad2a-ca09f3ed1889","system_id":"levelo_inurba_marseille","lat":43.29,"lon":5.35605,"is_reserved":false,"is_disabled":false,"rental_uris":{"android":"levelo://app?vid=41039e38-920a-4b44-ad2a-ca09f3ed1889","ios":"levelo://app?vid=41039e38-920a-4b44-ad2a-ca09f3ed1889"},"vehicle_type_id":"4","last_reported":1710597946,"current_range_meters":25600,"station_id":"ce4bhb92rcd13ifvqen0","pricing_plan_id":"cebpf4jnsgd1na2vs0mg"},{"bike_id":"82ffdd7f-e2f3-4c53-8c67-91f1843cd4c2","system_id":"levelo_inurba_marseille","lat":43.290104,"lon":5.356111,"is_reserved":false,"is_disabled":false,"rental_uris":{"android":"levelo://app?vid=82ffdd7f-e2f3-4c53-8c67-91f1843cd4c2","ios":"levelo://app?vid=82ffdd7f-e2f3-4c53-8c67-91f1843cd4c2"},"vehicle_type_id":"4","last_reported":1710597946,"current_range_meters":27600,"station_id":"ce4bhb92rcd13ifvqen0","pricing_plan_id":"cebpf4jnsgd1na2vs0mg"},{"bike_id":"ebb60dd2-7218-4a28-9b09-faefd399b4d0","system_id":"levelo_inurba_marseille","lat":43.28952,"lon":5.35779,"is_reserved":false,"is_disabled":false,"rental_uris":{"android":"levelo://app?vid=ebb60dd2-7218-4a28-9b09-faefd399b4d0","ios":"levelo://app?vid=ebb60dd2-7218-4a28-9b09-faefd399b4d0"},"vehicle_type_id":"4","last_reported":1710597946,"current_range_meters":4400,"station_id":"ce4bhb92rcd13ifvqen0","pricing_plan_id":"cebpf4jnsgd1na2vs0mg"},{"bike_id":"2dfa5e8c-3586-4ec6-ac44-5ef4b8d9c404","system_id":"levelo_inurba_marseille","lat":43.290995,"lon":5.381361,"is_reserved":false,"is_disabled":false,"rental_uris":{"android":"levelo://app?vid=2dfa5e8c-3586-4ec6-ac44-5ef4b8d9c404","ios":"levelo://app?vid=2dfa5e8c-3586-4ec6-ac44-5ef4b8d9c404"},"vehicle_type_id":"4","last_reported":1710597946,"current_range_meters":0,"station_id":"ce4bh512rcd13ifvqe2g","pricing_plan_id":"cebpf4jnsgd1na2vs0mg"},{"bike_id":"a99ec15e-ddc2-49e9-9a70-8dc28956ced4","system_id":"levelo_inurba_marseille","lat":43.243884,"lon":5.370736,"is_reserved":false,"is_disabled":false,"rental_uris":{"android":"levelo://app?vid=a99ec15e-ddc2-49e9-9a70-8dc28956ced4","ios":"levelo://app?vid=a99ec15e-ddc2-49e9-9a70-8dc28956ced4"},"vehicle_type_id":"4","last_reported":1710597946,"current_range_meters":22800,"station_id":"ce4bhhh2rcd13ifvqfk0","pricing_plan_id":"cebpf4jnsgd1na2vs0mg"},{"bike_id":"9b994343-5d1e-4f19-8847-1a7988461c28","system_id":"levelo_inurba_marseille","lat":43.33021,"lon":5.39035,"is_reserved":false,"is_disabled":false,"rental_uris":{"android":"levelo://app?vid=9b994343-5d1e-4f19-8847-1a7988461c28","ios":"levelo://app?vid=9b994343-5d1e-4f19-8847-1a7988461c28"},"vehicle_type_id":"4","last_reported":1710597946,"current_range_meters":22000,"station_id":"ce4bhr92rcd13ifvqhrg","pricing_plan_id":"cebpf4jnsgd1na2vs0mg"},{"bike_id":"40bc874e-cdfd-4435-be23-448cf3875ca8","system_id":"levelo_inurba_marseille","lat":43.33022,"lon":5.39035,"is_reserved":false,"is_disabled":false,"rental_uris":{"android":"levelo://app?vid=40bc874e-cdfd-4435-be23-448cf3875ca8","ios":"levelo://app?vid=40bc874e-cdfd-4435-be23-448cf3875ca8"},"vehicle_type_id":"4","last_reported":1710597946,"current_range_meters":14400,"station_id":"ce4bhr92rcd13ifvqhrg","pricing_plan_id":"cebpf4jnsgd1na2vs0mg"},