{"last_updated":1747757573,"ttl":60,"version":"2.2","data":{"bikes":[{"bike_id":"c0b9fd4f-e181-46ce-b0bf-f5119973334f","system_id":"levelo_inurba_marseille","lat":43.33771,"lon":5.37424,"is_reserved":false,"is_disabled":true,"rental_uris":{"android":"levelo://app?vid=c0b9fd4f-e181-46ce-b0bf-f5119973334f","ios":"levelo://app?vid=c0b9fd4f-e181-46ce-b0bf-f5119973334f"},"vehicle_type_id":"4","last_reported":1747757574,"current_range_meters":0,"station_id":"","pricing_plan_id":"cebpf4jnsgd1na2vs0mg"},{"bike_id":"fc2577e7-1497-425b-9d4f-ab8d7dc843c6","system_id":"levelo_inurba_marseille","lat":43.33771,"lon":5.37485,"is_reserved":false,"is_disabled":true,"rental_uris":{"android":"levelo://app?vid=fc2577e7-1497-425b-9d4f-ab8d7dc843c6","ios":"levelo://app?vid=fc2577e7-1497-425b-9d4f-ab8d7dc843c6"},"vehicle_type_id":"4","last_reported":1747757574,"current_range_meters":0,"station_id":"","pricing_plan_id":"cebpf4jnsgd1na2vs0mg"},{"bike_id":"fea43c0c-64be-4bdb-9fbb-ba49fa4326e1","system_id":"levelo_inurba_marseille","lat":43.28217,"lon":5.39061,"is_reserved":false,"is_disabled":true,"rental_uris":{"android":"levelo://app?vid=fea43c0c-64be-4bdb-9fbb-ba49fa4326e1","ios":"levelo://app?vid=fea43c0c-64be-4bdb-9fbb-ba49fa4326e1"},"vehicle_type_id":"4","last_reported":1747757574,"current_range_meters":0,"station_id":"","pricing_plan_id":"cebpf4jnsgd1na2vs0mg"},{"bike_id":"e9dd3aa4-b5e7-4480-926d-d7f537719bfa","system_id":"levelo_inurba_marseille","lat":43.23027,"lon":5.40202,"is_reserved":false,"is_disabled":true,"rental_uris":{"android":"levelo://app?vid=e9dd3aa4-b5e7-4480-926d-d7f537719bfa","ios":"levelo://app?vid=e9dd3aa4-b5e7-4480-926d-d7f537719bfa"},"vehicle_type_id":"4","last_reported":1747757574,"current_range_meters":0,"station_id":"","pricing_plan_id":"cebpf4jnsgd1na2vs0mg"},{"bike_id":"d39b0691-bc60-4cd0-b785-c088ac9eb07b","system_id":"levelo_inurba_marseille","lat":43.2762,"lon":5.3611,"is_reserved":false,"is_disabled":true,"rental_uris":{"android":"levelo://app?vid=d39b0691-bc60-4cd0-b785-c088ac9eb07b","ios":"levelo://app?vid=d39b0691-bc60-4cd0-b785-c088ac9eb07b"},"vehicle_type_id":"4","last_reported":1747757574,"current_range_meters":0,"station_id":"ce4bgj92rcd13ifvqbe0","pricing_plan_id":"cebpf4jnsgd1na2vs0mg"},{"bike_id":"14974035-fd48-416f-bad8-cc634dbbbe81","system_id":"levelo_inurba_marseille","lat":43.2804,"lon":5.36942,"is_reserved":false,"is_disabled":true,"rental_uris":{"android":"levelo://app?vid=14974035-fd48-416f-bad8-cc634dbbbe81","ios":"levelo://app?vid=14974035-fd48-416f-bad8-cc634dbbbe81"},"vehicle_type_id":"4","last_reported":1747757574,"current_range_meters":0,"station_id":"ce4bha12rcd13ifvqef0","pricing_plan_id":"cebpf4jnsgd1na2vs0mg"},{"bike_id":"78618e30-0d84-4b58-b410-3c8647627b20","system_id":"levelo_inurba_marseille","lat":43.271632,"lon":5.362738,"is_reserved":false,"is_disabled":true,"rental_uris":{"android":"levelo://app?vid=78618e30-0d84-4b58-b410-3c8647627b20","ios":"levelo://app?vid=78618e30-0d84-4b58-b410-3c8647627b20"},"vehicle_type_id":"4","last_reported":1747757574,"current_range_meters":0,"station_id":"ce4bhgp2rcd13ifvqfc0","pricing_plan_id":"cebpf4jnsgd1na2vs0mg"},{"bike_id":"27d5f3ff-3edd-4541-918f-fed403ec68c4","system_id":"levelo_inurba_marseille","lat":43.26214,"lon":5.3744,"is_reserved":false,"is_disabled":true,"rental_uris":{"android":"levelo://app?vid=27d5f3ff-3edd-4541-918f-fed403ec68c4","ios":"levelo://app?vid=27d5f3ff-3edd-4541-918f-fed403ec68c4"},"vehicle_type_id":"4","last_reported":1747757574,"current_range_meters":0,"station_id":"ce4bhgp2rcd13ifvqfc0","pricing_plan_id":"cebpf4jnsgd1na2vs0mg"},{"bike_id":"5a31e7dd-61fc-4438-92a4-30a4f60926b7","system_id":"levelo_inurba_marseille","lat":43.27836,"lon":5.39211,"is_reserved":false,"is_disabled":true,"rental_uris":{"android":"levelo://app?vid=5a31e7dd-61fc-4438-92a4-30a4f60926b7","ios":"levelo://app?vid=5a31e7dd-61fc-4438-92a4-30a4f60926b7"},"vehicle_type_id":"4","last_reported":1747757574,"current_range_meters":0,"station_id":"ce4bhjp2rcd13ifvqga0","pricing_plan_id":"cebpf4jnsgd1na2vs0mg"},{"bike_id":"82aa2f8e-bccb-48b2-9e85-40a823c3fa2e","system_id":"levelo_inurba_marseille","lat":43.2794,"lon":5.41047,"is_reserved":false,"is_disabled":true,"rental_uris":{"android":"levelo://app?vid=82aa2f8e-bccb-48b2-9e85-40a823c3fa2e","ios":"levelo://app?vid=82aa2f8e-bccb-48b2-9e85-40a823c3fa2e"},"vehicle_type_id":"4","last_reported":1747757574,"current_range_meters":0,"station_id":"ce4bhnp2rcd13ifvqh0g","pricing_plan_id":"cebpf4jnsgd1na2vs0mg"},{"bike_id":"c096b84d-0381-4398-8259-54809d444fae","system_id":"levelo_inurba_marseille","lat":43.23193,"lon":5.35556,"is_reserved":false,"is_disabled":false,"rental_uris":{"android":"levelo://app?vid=c096b84d-0381-4398-8259-54809d444fae","ios":"levelo://app?vid=c096b84d-0381-4398-8259-54809d444fae"},"vehicle_type_id":"4","last_reported":1747757574,"current_range_meters":0,"station_id":"ce4bhu92rcd13ifvqi70","pricing_plan_id":"cebpf4jnsgd1na2vs0mg"},{"bike_id":"f4874877-1871-46fd-a37c-edb9f74888b0","system_id":"levelo_inurba_marseille","lat":43.23149,"lon":5.43719,"is_reserved":false,"is_disabled":true,"rental_uris":{"android":"levelo://app?vid=f4874877-1871-46fd-a37c-edb9f74888b0","ios":"levelo://app?vid=f4874877-1871-46fd-a37c-edb9f74888b0"},"vehicle_type_id":"4","last_reported":1747757574,"current_range_meters":400,"station_id":"ce4bhmp2rcd13ifvqgog","pricing_plan_id":"cebpf4jnsgd1na2vs0mg"},{"bike_id":"b911217b-2567-4f98-b197-23006b66028e","system_id":"levelo_inurba_marseille","lat":43.279275,"lon":5.408716,"is_reserved":false,"is_disabled":true,"rental_uris":{"android":"levelo://app?vid=b911217b-2567-4f98-b197-23006b66028e","ios":"levelo://app?vid=b911217b-2567-4f98-b197-23006b66028e"},"vehicle_type_id":"4","last_reported":1747757574,"current_range_meters":400,"station_id":"ce4bhnp2rcd13ifvqh0g","pricing_plan_id":"cebpf4jnsgd1na2vs0mg"},{"bike_id":"9f95cae2-5933-4bac-9018-ed32a5077647","system_id":"levelo_inurba_marseille","lat":43.2931,"lon":5.37177,"is_reserved":false,"is_disabled":true,"rental_uris":{"android":"levelo://app?vid=9f95cae2-5933-4bac-9018-ed32a5077647","ios":"levelo://app?vid=9f95cae2-5933-4bac-9018-ed32a5077647"},"vehicle_type_id":"4","last_reported":1747757574,"current_range_meters":800,"station_id":"ce4bgh92rcd13ifvqb40","pricing_plan_id":"cebpf4jnsgd1na2vs0mg"},{"bike_id":"a486be26-5e60-45b0-b1e8-bac768517bc7","system_id":"levelo_inurba_marseille","lat":43.30645,"lon":5.40094,"is_reserved":false,"is_disabled":true,"rental_uris":{"android":"levelo://app?vid=a486be26-5e60-45b0-b1e8-bac768517bc7","ios":"levelo://app?vid=a486be26-5e60-45b0-b1e8-bac768517bc7"},"vehicle_type_id":"4","last_reported":1747757574,"current_range_meters":800,"station_id":"ce4bh112rcd13ifvqda0","pricing_plan_id":"cebpf4jnsgd1na2vs0mg"},{"bike_id":"1e3d1f90-912d-42c3-aa22-c82a2fa4340d","system_id":"levelo_inurba_marseille","lat":43.27055,"lon":5.40268,"is_reserved":false,"is_disabled":true,"rental_uris":{"android":"levelo://app?vid=1e3d1f90-912d-42c3-aa22-c82a2fa4340d","ios":"levelo://app?vid=1e3d1f90-912d-42c3-aa22-c82a2fa4340d"},"vehicle_type_id":"4","last_reported":1747757574,"current_range_meters":800,"station_id":"ce4bhk92rcd13ifvqgc0","pricing_plan_id":"cebpf4jnsgd1na2vs0mg"},{"bike_id":"3e614c29-0a3b-463d-9d5d-09bdf12182f8","system_id":"levelo_inurba_marseille","lat":43.25864,"lon":5.39897,"is_reserved":false,"is_disabled":true,"rental_uris":{"android":"levelo://app?vid=3e614c29-0a3b-463d-9d5d-09bdf12182f8","ios":"levelo://app?vid=3e614c29-0a3b-463d-9d5d-09bdf12182f8"},"vehicle_type_id":"4","last_reported":1747757574,"current_range_meters":800,"station_id":"ce4bhl92rcd13ifvqghg","pricing_plan_id":"cebpf4jnsgd1na2vs0mg"},{"bike_id":"cd52443c-f49d-41f3-bdff-ea76720ceefd","system_id":"levelo_inurba_marseille","lat":43.25109,"lon":5.40326,"is_reserved":false,"is_disabled":true,"rental_uris":{"android":"levelo://app?vid=cd52443c-f49d-41f3-bdff-ea76720ceefd","ios":"levelo://app?vid=cd52443c-f49d-41f3-bdff-ea76720ceefd"},"vehicle_type_id":"4","last_reported":1747757574,"current_range_meters":800,"station_id":"ce4bhlh2rcd13ifvqgig","pricing_plan_id":"cebpf4jnsgd1na2vs0mg"},{"bike_id":"acdcf164-e5bf-4ea2-83b6-332e1a8c4b7d","system_id":"levelo_inurba_marseille","lat":43.30531,"lon":5.38437,"is_reserved":false,"is_disabled":true,"rental_uris":{"android":"levelo://app?vid=acdcf164-e5bf-4ea2-83b6-332e1a8c4b7d","ios":"levelo://app?vid=acdcf164-e5bf-4ea2-83b6-332e1a8c4b7d"},"vehicle_type_id":"4","last_reported":1747757574,"current_range_meters":1200,"station_id":"ce4bgg92rcd13ifvqb30","pricing_plan_id":"cebpf4jnsgd1na2vs0mg"},{"bike_id":"23bbf684-11ad-4605-a922-f3de4ba792a4","system_id":"levelo_inurba_marseille","lat":43.30125,"lon":5.39883,"is_reserved":false,"is_disabled":true,"rental_uris":{"android":"levelo://app?vid=23bbf684-11ad-4605-a922-f3de4ba792a4","ios":"levelo://app?vid=23bbf684-11ad-4605-a922-f3de4ba792a4"},"vehicle_type_id":"4","last_reported":1747757574,"current_range_meters":1200,"station_id":"ce4bh0h2rcd13ifvqd40","pricing_plan_id":"cebpf4jnsgd1na2vs0mg"},{"bike_id":"4d321f5d-00cc-4587-a0b1-e8b71e8583e0","system_id":"levelo_inurba_marseille","lat":43.26577,"lon":5.390368,"is_reserved":false,"is_disabled":true,"rental_uris":{"android":"levelo://app?vid=4d321f5d-00cc-4587-a0b1-e8b71e8583e0","ios":"levelo://app?vid=4d321f5d-00cc-4587-a0b1-e8b71e8583e0"},"vehicle_type_id":"4","last_reported":1747757574,"current_range_meters":1200,"station_id":"ce4bhe12rcd13ifvqf30","pricing_plan_id":"cebpf4jnsgd1na2vs0mg"},{"bike_id":"accd0198-afc3-4e9b-93f8-4c53d5400ad2","system_id":"levelo_inurba_marseille","lat":43.251197,"lon":5.403021,"is_reserved":false,"is_disabled":true,"rental_uris":{"android":"levelo://app?vid=accd0198-afc3-4e9b-93f8-4c53d5400ad2","ios":"levelo://app?vid=accd0198-afc3-4e9b-93f8-4c53d5400ad2"},"vehicle_type_id":"4","last_reported":1747757574,"current_range_meters":1200,"station_id":"ce4bhlh2rcd13ifvqgig","pricing_plan_id":"cebpf4jnsgd1na2vs0mg"},{"bike_id":"7ed43073-6dab-4b40-a7db-fa849f1cb19f","system_id":"levelo_inurba_marseille","lat":43.23201,"lon":5.3557,"is_reserved":false,"is_disabled":true,"rental_uris":{"android":"levelo://app?vid=7ed43073-6dab-4b40-a7db-fa849f1cb19f","ios":"levelo://app?vid=7ed43073-6dab-4b40-a7db-fa849f1cb19f"},"vehicle_type_id":"4","last_reported":1747757574,"current_range_meters":1200,"station_id":"ce4bhu92rcd13ifvqi70","pricing_plan_id":"cebpf4jnsgd1na2vs0mg"},{"bike_id":"c82aa317-0d12-473e-998a-cb9c65053ef6","system_id":"levelo_inurba_marseille","lat":43.27838,"lon":5.39211,"is_reserved":false,"is_disabled":true,"rental_uris":{"android":"levelo://app?vid=c82aa317-0d12-473e-998a-cb9c65053ef6","ios":"levelo://app?vid=c82aa317-0d12-473e-998a-cb9c65053ef6"},"vehicle_type_id":"4","last_reported":1747757574,"current_range_meters":1600,"station_id":"ce4bhjp2rcd13ifvqga0","pricing_plan_id":"cebpf4jnsgd1na2vs0mg"},{"bike_id":"403acc11-3bee-4bae-8dba-5b60f8591ecf","system_id":"levelo_inurba_marseille","lat":43.30425,"lon":5.41292,"is_reserved":false,"is_disabled":true,"rental_uris":{"android":"levelo://app?vid=403acc11-3bee-4bae-8dba-5b60f8591ecf","ios":"levelo://app?vid=403acc11-3bee-4bae-8dba-5b60f8591ecf"},"vehicle_type_id":"4","last_reported":1747757574,"current_range_meters":1600,"station_id":"ce4bhop2rcd13ifvqh8g","pricing_plan_id":"cebpf4jnsgd1na2vs0mg"},{"bike_id":"21d40c9b-ecee-46eb-8f8e-91e49db08a8a","system_id":"levelo_inurba_marseille","lat":43.29627,"lon":5.40592,"is_reserved":false,"is_disabled":true,"rental_uris":{"android":"levelo://app?vid=21d40c9b-ecee-46eb-8f8e-91e49db08a8a","ios":"levelo://app?vid=21d40c9b-ecee-46eb-8f8e-91e49db08a8a"},"vehicle_type_id":"4","last_reported":1747757574,"current_range_meters":2000,"station_id":"ce4bh0h2rcd13ifvqd60","pricing_plan_id":"cebpf4jnsgd1na2vs0mg"},{"bike_id":"95806a58-d80c-4044-89f2-e62b3f1f54b0","system_id":"levelo_inurba_marseille","lat":43.28939,"lon":5.36638,"is_reserved":false,"is_disabled":false,"rental_uris":{"android":"levelo://app?vid=95806a58-d80c-4044-89f2-e62b3f1f54b0","ios":"levelo://app?vid=95806a58-d80c-4044-89f2-e62b3f1f54b0"},"vehicle_type_id":"4","last_reported":1747757574,"current_range_meters":2000,"station_id":"ce4bhap2rcd13ifvqek0","pricing_plan_id":"cebpf4jnsgd1na2vs0mg"},{"bike_id":"a2f377fc-ceeb-44c6-b80d-9be882a97936","system_id":"levelo_inurba_marseille","lat":43.31747,"lon":5.39035,"is_reserved":false,"is_disabled":true,"rental_uris":{"android":"levelo://app?vid=a2f377fc-ceeb-44c6-b80d-9be882a97936","ios":"levelo://app?vid=a2f377fc-ceeb-44c6-b80d-9be882a97936"},"vehicle_type_id":"4","last_reported":1747757574,"current_range_meters":2000,"station_id":"ce4bhqp2rcd13ifvqhng","pricing_plan_id":"cebpf4jnsgd1na2vs0mg"},{"bike_id":"3c2e874b-823b-4069-8a4a-aca4fb4238f3","system_id":"levelo_inurba_marseille","lat":43.27644,"lon":5.39735,"is_reserved":false,"is_disabled":false,"rental_uris":{"android":"levelo://app?vid=3c2e874b-823b-4069-8a4a-aca4fb4238f3","ios":"levelo://app?vid=3c2e874b-823b-4069-8a4a-aca4fb4238f3"},"vehicle_type_id":"4","last_reported":1747757574,"current_range_meters":2800,"station_id":"","pricing_plan_id":"cebpf4jnsgd1na2vs0mg"},{"bike_id":"18d166f2-c73d-4693-a94f-24ac919e2344","system_id":"levelo_inurba_marseille","lat":43.29362,"lon":5.37835,"is_reserved":false,"is_disabled":false,"rental_uris":{"android":"levelo://app?vid=18d166f2-c73d-4693-a94f-24ac919e2344","ios":"levelo://app?vid=18d166f2-c73d-4693-a94f-24ac919e2344"},"vehicle_type_id":"4","last_reported":1747757574,"current_range_meters":2800,"station_id":"ce4bgjh2rcd13ifvqbf0","pricing_plan_id":"cebpf4jnsgd1na2vs0mg"},{"bike_id":"70b11b84-a721-46dc-8e5a-413951016f6a","system_id":"levelo_inurba_marseille","lat":43.28139,"lon":5.4265,"is_reserved":false,"is_disabled":false,"rental_uris":{"android":"levelo://app?vid=70b11b84-a721-46dc-8e5a-413951016f6a","ios":"levelo://app?vid=70b11b84-a721-46dc-8e5a-413951016f6a"},"vehicle_type_id":"4","last_reported":1747757574,"current_range_meters":2800,"station_id":"ce4bhnh2rcd13ifvqgug","pricing_plan_id":"cebpf4jnsgd1na2vs0mg"},{"bike_id":"70cededa-5e74-4166-a6d1-01424ffc6754","system_id":"levelo_inurba_marseille","lat":43.31085,"lon":5.42433,"is_reserved":false,"is_disabled":false,"rental_uris":{"android":"levelo://app?vid=70cededa-5e74-4166-a6d1-01424ffc6754","ios":"levelo://app?vid=70cededa-5e74-4166-a6d1-01424ffc6754"},"vehicle_type_id":"4","last_reported":1747757574,"current_range_meters":3200,"station_id":"ce4bhp92rcd13ifvqhag","pricing_plan_id":"cebpf4jnsgd1na2vs0mg"},{"bike_id":"1564514d-cc8e-42ef-8372-aa83ad864c8e","system_id":"levelo_inurba_marseille","lat":43.281172,"lon":5.406043,"is_reserved":false,"is_disabled":false,"rental_uris":{"android":"levelo://app?vid=1564514d-cc8e-42ef-8372-aa83ad864c8e","ios":"levelo://app?vid=1564514d-cc8e-42ef-8372-aa83ad864c8e"},"vehicle_type_id":"4","last_reported":1747757574,"current_range_meters":3600,"station_id":"","pricing_plan_id":"cebpf4jnsgd1na2vs0mg"},{"bike_id":"9846aed6-2f02-483b-9cc9-f36fd48ef280","system_id":"levelo_inurba_marseille","lat":43.31166,"lon":5.38719,"is_reserved":false,"is_disabled":false,"rental_uris":{"android":"levelo://app?vid=9846aed6-2f02-483b-9cc9-f36fd48ef280","ios":"levelo://app?vid=9846aed6-2f02-483b-9cc9-f36fd48ef280"},"vehicle_type_id":"4","last_reported":1747757574,"current_range_meters":3600,"station_id":"ce4bgv12rcd13ifvqcp0","pricing_plan_id":"cebpf4jnsgd1na2vs0mg"},{"bike_id":"cceac8c5-f567-4ed5-a703-6bf5bf660144","system_id":"levelo_inurba_marseille","lat":43.29034,"lon":5.38652,"is_reserved":false,"is_disabled":false,"rental_uris":{"android":"levelo://app?vid=cceac8c5-f567-4ed5-a703-6bf5bf660144","ios":"levelo://app?vid=cceac8c5-f567-4ed5-a703-6bf5bf660144"},"vehicle_type_id":"4","last_reported":1747757574,"current_range_meters":3600,"station_id":"ce4bh4p2rcd13ifvqe0g","pricing_plan_id":"cebpf4jnsgd1na2vs0mg"},{"bike_id":"958046fd-0991-40f9-b354-bd3e624f1d21","system_id":"levelo_inurba_marseille","lat":43.29271,"lon":5.36845,"is_reserved":false,"is_disabled":false,"rental_uris":{"android":"levelo://app?vid=958046fd-0991-40f9-b354-bd3e624f1d21","ios":"levelo://app?vid=958046fd-0991-40f9-b354-bd3e624f1d21"},"vehicle_type_id":"4","last_reported":1747757574,"current_range_meters":3600,"station_id":"ce4bhbp2rcd13ifvqesg","pricing_plan_id":"cebpf4jnsgd1na2vs0mg"},{"bike_id":"3382afa1-d983-46d6-b1ef-24c762748769","system_id":"levelo_inurba_marseille","lat":43.27941,"lon":5.41049,"is_reserved":false,"is_disabled":false,"rental_uris":{"android":"levelo://app?vid=3382afa1-d983-46d6-b1ef-24c762748769","ios":"levelo://app?vid=3382afa1-d983-46d6-b1ef-24c762748769"},"vehicle_type_id":"4","last_reported":1747757574,"current_range_meters":3600,"station_id":"ce4bhnp2rcd13ifvqh0g","pricing_plan_id":"cebpf4jnsgd1na2vs0mg"},{"bike_id":"0f459924-77c7-4e4d-91ab-eefd8404a7f3","system_id":"levelo_inurba_marseille","lat":43.32106,"lon":5.39211,"is_reserved":false,"is_disabled":false,"rental_uris":{"android":"levelo://app?vid=0f459924-77c7-4e4d-91ab-eefd8404a7f3","ios":"levelo://app?vid=0f459924-77c7-4e4d-91ab-eefd8404a7f3"},"vehicle_type_id":"4","last_reported":1747757574,"current_range_meters":4000,"station_id":"","pricing_plan_id":"cebpf4jnsgd1na2vs0mg"},{"bike_id":"beee01e1-6036-436e-b41f-a70603c25f49","system_id":"levelo_inurba_marseille","lat":43.2926,"lon":5.40916,"is_reserved":false,"is_disabled":false,"rental_uris":{"android":"levelo://app?vid=beee01e1-6036-436e-b41f-a70603c25f49","ios":"levelo://app?vid=beee01e1-6036-436e-b41f-a70603c25f49"},"vehicle_type_id":"4","last_reported":1747757574,"current_range_meters":4000,"station_id":"ce4bh192rcd13ifvqdc0","pricing_plan_id":"cebpf4jnsgd1na2vs0mg"},{"bike_id":"91d3ff24-7edd-4fa2-a267-617488f24a5b","system_id":"levelo_inurba_marseille","lat":43.2872,"lon":5.361,"is_reserved":false,"is_disabled":false,"rental_uris":{"android":"levelo://app?vid=91d3ff24-7edd-4fa2-a267-617488f24a5b","ios":"levelo://app?vid=91d3ff24-7edd-4fa2-a267-617488f24a5b"},"vehicle_type_id":"4","last_reported":1747757574,"current_range_meters":4000,"station_id":"cki0cbj6b192h4jlfktg","pricing_plan_id":"cebpf4jnsgd1na2vs0mg"},{"bike_id":"3756623f-8650-41f1-921f-b5cabd8d6af7","system_id":"levelo_inurba_marseille","lat":43.29871,"lon":5.3811,"is_reserved":false,"is_disabled":false,"rental_uris":{"android":"levelo://app?vid=3756623f-8650-41f1-921f-b5cabd8d6af7","ios":"levelo://app?vid=3756623f-8650-41f1-921f-b5cabd8d6af7"},"vehicle_type_id":"4","last_reported":1747757574,"current_range_meters":4400,"station_id":"","pricing_plan_id":"cebpf4jnsgd1na2vs0mg"},{"bike_id":"a9dc5350-d232-4e8a-a38e-9e4f5ded6595","system_id":"levelo_inurba_marseille","lat":43.30221,"lon":5.39478,"is_reserved":false,"is_disabled":false,"rental_uris":{"android":"levelo://app?vid=a9dc5350-d232-4e8a-a38e-9e4f5ded6595","ios":"levelo://app?vid=a9dc5350-d232-4e8a-a38e-9e4f5ded6595"},"vehicle_type_id":"4","last_reported":1747757574,"current_range_meters":4400,"station_id":"ce4bh0p2rcd13ifvqd70","pricing_plan_id":"cebpf4jnsgd1na2vs0mg"},{"bike_id":"ce2999d9-7355-4c62-b560-cadf2807e1d4","system_id":"levelo_inurba_marseille","lat":43.28933,"lon":5.36639,"is_reserved":false,"is_disabled":false,"rental_uris":{"android":"levelo://app?vid=ce2999d9-7355-4c62-b560-cadf2807e1d4","ios":"levelo://app?vid=ce2999d9-7355-4c62-b560-cadf2807e1d4"},"vehicle_type_id":"4","last_reported":1747757574,"current_range_meters":4400,"station_id":"ce4bhap2rcd13ifvqek0","pricing_plan_id":"cebpf4jnsgd1na2vs0mg"},{"bike_id":"43a669de-adcd-42c3-8105-1febeebaa55c","system_id":"levelo_inurba_marseille","lat":43.27917,"lon":5.39583,"is_reserved":false,"is_disabled":false,"rental_uris":{"android":"levelo://app?vid=43a669de-adcd-42c3-8105-1febeebaa55c","ios":"levelo://app?vid=43a669de-adcd-42c3-8105-1febeebaa55c"},"vehicle_type_id":"4","last_reported":1747757574,"current_range_meters":4400,"station_id":"ce4bhf92rcd13ifvqf40","pricing_plan_id":"cebpf4jnsgd1na2vs0mg"},{"bike_id":"04a61269-ebb2-46b2-a132-297f6518df34","system_id":"levelo_inurba_marseille","lat":43.281557,"lon":5.426413,"is_reserved":false,"is_disabled":false,"rental_uris":{"android":"levelo://app?vid=04a61269-ebb2-46b2-a132-297f6518df34","ios":"levelo://app?vid=04a61269-ebb2-46b2-a132-297f6518df34"},"vehicle_type_id":"4","last_reported":1747757574,"current_range_meters":4400,"station_id":"ce4bhnh2rcd13ifvqgug","pricing_plan_id":"cebpf4jnsgd1na2vs0mg"},{"bike_id":"bcf76825-b688-4776-b2c2-b9e8e703785a","system_id":"levelo_inurba_marseille","lat":43.30732,"lon":5.42435,"is_reserved":false,"is_disabled":false,"rental_uris":{"android":"levelo://app?vid=bcf76825-b688-4776-b2c2-b9e8e703785a","ios":"levelo://app?vid=bcf76825-b688-4776-b2c2-b9e8e703785a"},"vehicle_type_id":"4","last_reported":1747757574,"current_range_meters":4400,"station_id":"st_cvj6ca6bvosntc0bfgr0","pricing_plan_id":"cebpf4jnsgd1na2vs0mg"},{"bike_id":"e64e36d1-c3e7-4427-9260-70ac75fa0a1c","system_id":"levelo_inurba_marseille","lat":43.33769,"lon":5.37532,"is_reserved":false,"is_disabled":false,"rental_uris":{"android":"levelo://app?vid=e64e36d1-c3e7-4427-9260-70ac75fa0a1c","ios":"levelo://app?vid=e64e36d1-c3e7-4427-9260-70ac75fa0a1c"},"vehicle_type_id":"4","last_reported":1747757574,"current_range_meters":4800,"station_id":"","pricing_plan_id":"cebpf4jnsgd1na2vs0mg"},{"bike_id":"271c1695-a106-49c2-a283-35d65057d2be","system_id":"levelo_inurba_marseille","lat":43.308926,"lon":5.396514,"is_reserved":false,"is_disabled":false,"rental_uris":{"android":"levelo://app?vid=271c1695-a106-49c2-a283-35d65057d2be","ios":"levelo://app?vid=271c1695-a106-49c2-a283-35d65057d2be"},"vehicle_type_id":"4","last_reported":1747757574,"current_range_meters":4800,"station_id":"ce4bh012rcd13ifvqcv0","pricing_plan_id":"cebpf4jnsgd1na2vs0mg"},{"bike_id":"e1cebfe6-58bd-4927-b23a-c3967fe94b45","system_id":"levelo_inurba_marseille","lat":43.26567,"lon":5.39012,"is_reserved":false,"is_disabled":false,"rental_uris":{"android":"levelo://app?vid=e1cebfe6-58bd-4927-b23a-c3967fe94b45","ios":"levelo://app?vid=e1cebfe6-58bd-4927-b23a-c3967fe94b45"},"vehicle_type_id":"4","last_reported":1747757574,"current_range_meters":4800,"station_id":"ce4bhe12rcd13ifvqf30","pricing_plan_id":"cebpf4jnsgd1na2vs0mg"},{"bike_id":"c9712e0c-2e84-4ab9-a19d-b2f0870bbac5","system_id":"levelo_inurba_marseille","lat":43.31758,"lon":5.3902,"is_reserved":false,"is_disabled":false,"rental_uris":{"android":"levelo://app?vid=c9712e0c-2e84-4ab9-a19d-b2f0870bbac5","ios":"levelo://app?vid=c9712e0c-2e84-4ab9-a19d-b2f0870bbac5"},"vehicle_type_id":"4","last_reported":1747757574,"current_range_meters":4800,"station_id":"ce4bhqp2rcd13ifvqhng","pricing_plan_id":"cebpf4jnsgd1na2vs0mg"},{"bike_id":"20bee342-4a3f-4f34-940d-bb6cf00d52ae","system_id":"levelo_inurba_marseille","lat":43.26675,"lon":5.38609,"is_reserved":false,"is_disabled":false,"rental_uris":{"android":"levelo://app?vid=20bee342-4a3f-4f34-940d-bb6cf00d52ae","ios":"levelo://app?vid=20bee342-4a3f-4f34-940d-bb6cf00d52ae"},"vehicle_type_id":"4","last_reported":1747757574,"current_range_meters":5600,"station_id":"","pricing_plan_id":"cebpf4jnsgd1na2vs0mg"},{"bike_id":"b4b21016-abad-40fd-86b3-36a6cd917691","system_id":"levelo_inurba_marseille","lat":43.31564,"lon":5.37326,"is_reserved":false,"is_disabled":false,"rental_uris":{"android":"levelo://app?vid=b4b21016-abad-40fd-86b3-36a6cd917691","ios":"levelo://app?vid=b4b21016-abad-40fd-86b3-36a6cd917691"},"vehicle_type_id":"4","last_reported":1747757574,"current_range_meters":5600,"station_id":"","pricing_plan_id":"cebpf4jnsgd1na2vs0mg"},{"bike_id":"3427e9d4-a658-4b62-84e7-1905d6bfcb70","system_id":"levelo_inurba_marseille","lat":43.28948,"lon":5.36407,"is_reserved":false,"is_disabled":false,"rental_uris":{"android":"levelo://app?vid=3427e9d4-a658-4b62-84e7-1905d6bfcb70","ios":"levelo://app?vid=3427e9d4-a658-4b62-84e7-1905d6bfcb70"},"vehicle_type_id":"4","last_reported":1747757574,"current_range_meters":5600,"station_id":"ce4bhc92rcd13ifvqetg","pricing_plan_id":"cebpf4jnsgd1na2vs0mg"},{"bike_id":"57359e2a-980a-4a00-9987-2588669c0174","system_id":"levelo_inurba_marseille","lat":43.25003,"lon":5.38925,"is_reserved":false,"is_disabled":false,"rental_uris":{"android":"levelo://app?vid=57359e2a-980a-4a00-9987-2588669c0174","ios":"levelo://app?vid=57359e2a-980a-4a00-9987-2588669c0174"},"vehicle_type_id":"4","last_reported":1747757574,"current_range_meters":5600,"station_id":"ce4bhgp2rcd13ifvqfd0","pricing_plan_id":"cebpf4jnsgd1na2vs0mg"},{"bike_id":"396f2af7-a1b7-45ae-b053-326bdaf45e1b","system_id":"levelo_inurba_marseille","lat":43.30388,"lon":5.4249,"is_reserved":false,"is_disabled":false,"rental_uris":{"android":"levelo://app?vid=396f2af7-a1b7-45ae-b053-326bdaf45e1b","ios":"levelo://app?vid=396f2af7-a1b7-45ae-b053-326bdaf45e1b"},"vehicle_type_id":"4","last_reported":1747757574,"current_range_meters":5600,"station_id":"ce4bhoh2rcd13ifvqh6g","pricing_plan_id":"cebpf4jnsgd1na2vs0mg"},{"bike_id":"1c466d85-e897-4aa4-804b-1559a2be7b7c","system_id":"levelo_inurba_marseille","lat":43.32337,"lon":5.40614,"is_reserved":false,"is_disabled":false,"rental_uris":{"android":"levelo://app?vid=1c466d85-e897-4aa4-804b-1559a2be7b7c","ios":"levelo://app?vid=1c466d85-e897-4aa4-804b-1559a2be7b7c"},"vehicle_type_id":"4","last_reported":1747757574,"current_range_meters":5600,"station_id":"ce4bhq92rcd13ifvqhjg","pricing_plan_id":"cebpf4jnsgd1na2vs0mg"},{"bike_id":"3024c075-30be-4aae-b801-dea585bb31ce","system_id":"levelo_inurba_marseille","lat":43.29526,"lon":5.39406,"is_reserved":false,"is_disabled":false,"rental_uris":{"android":"levelo://app?vid=3024c075-30be-4aae-b801-dea585bb31ce","ios":"levelo://app?vid=3024c075-30be-4aae-b801-dea585bb31ce"},"vehicle_type_id":"4","last_reported":1747757574,"current_range_meters":6000,"station_id":"ce4bh292rcd13ifvqdf0","pricing_plan_id":"cebpf4jnsgd1na2vs0mg"},{"bike_id":"e1099fc2-8880-4344-bde0-04dfc31e44a5","system_id":"levelo_inurba_marseille","lat":43.30805,"lon":5.43529,"is_reserved":false,"is_disabled":false,"rental_uris":{"android":"levelo://app?vid=e1099fc2-8880-4344-bde0-04dfc31e44a5","ios":"levelo://app?vid=e1099fc2-8880-4344-bde0-04dfc31e44a5"},"vehicle_type_id":"4","last_reported":1747757574,"current_range_meters":6000,"station_id":"ce4bhph2rcd13ifvqheg","pricing_plan_id":"cebpf4jnsgd1na2vs0mg"},{"bike_id":"5d5aec1c-99aa-4b10-b2ba-fa9f33897ab1","system_id":"levelo_inurba_marseille","lat":43.32364,"lon":5.36762,"is_reserved":false,"is_disabled":false,"rental_uris":{"android":"levelo://app?vid=5d5aec1c-99aa-4b10-b2ba-fa9f33897ab1","ios":"levelo://app?vid=5d5aec1c-99aa-4b10-b2ba-fa9f33897ab1"},"vehicle_type_id":"4","last_reported":1747757574,"current_range_meters":6000,"station_id":"ce4bhsh2rcd13ifvqi2g","pricing_plan_id":"cebpf4jnsgd1na2vs0mg"},{"bike_id":"ba59102a-6c47-4600-bcb9-76e5920c2815","system_id":"levelo_inurba_marseille","lat":43.31317,"lon":5.37215,"is_reserved":false,"is_disabled":false,"rental_uris":{"android":"levelo://app?vid=ba59102a-6c47-4600-bcb9-76e5920c2815","ios":"levelo://app?vid=ba59102a-6c47-4600-bcb9-76e5920c2815"},"vehicle_type_id":"4","last_reported":1747757574,"current_range_meters":6400,"station_id":"","pricing_plan_id":"cebpf4jnsgd1na2vs0mg"},{"bike_id":"bcbdbd69-7be8-42f8-a855-a4358565de8f","system_id":"levelo_inurba_marseille","lat":43.27728,"lon":5.41389,"is_reserved":false,"is_disabled":false,"rental_uris":{"android":"levelo://app?vid=bcbdbd69-7be8-42f8-a855-a4358565de8f","ios":"levelo://app?vid=bcbdbd69-7be8-42f8-a855-a4358565de8f"},"vehicle_type_id":"4","last_reported":1747757574,"current_range_meters":6800,"station_id":"","pricing_plan_id":"cebpf4jnsgd1na2vs0mg"},{"bike_id":"ad8cfcc6-58f5-4218-b13a-5a54e5d98fa3","system_id":"levelo_inurba_marseille","lat":43.33767,"lon":5.374303,"is_reserved":false,"is_disabled":false,"rental_uris":{"android":"levelo://app?vid=ad8cfcc6-58f5-4218-b13a-5a54e5d98fa3","ios":"levelo://app?vid=ad8cfcc6-58f5-4218-b13a-5a54e5d98fa3"},"vehicle_type_id":"4","last_reported":1747757574,"current_range_meters":6800,"station_id":"","pricing_plan_id":"cebpf4jnsgd1na2vs0mg"},{"bike_id":"792fd0f6-40cc-4a59-8c1c-b3fc3f97c81f","system_id":"levelo_inurba_marseille","lat":43.27917,"lon":5.39581,"is_reserved":false,"is_disabled":false,"rental_uris":{"android":"levelo://app?vid=792fd0f6-40cc-4a59-8c1c-b3fc3f97c81f","ios":"levelo://app?vid=792fd0f6-40cc-4a59-8c1c-b3fc3f97c81f"},"vehicle_type_id":"4","last_reported":1747757574,"current_range_meters":6800,"station_id":"ce4bhf92rcd13ifvqf40","pricing_plan_id":"cebpf4jnsgd1na2vs0mg"},{"bike_id":"857e9619-2480-4b9a-ad64-f63ee72e0300","system_id":"levelo_inurba_marseille","lat":43.2622,"lon":5.37456,"is_reserved":false,"is_disabled":false,"rental_uris":{"android":"levelo://app?vid=857e9619-2480-4b9a-ad64-f63ee72e0300","ios":"levelo://app?vid=857e9619-2480-4b9a-ad64-f63ee72e0300"},"vehicle_type_id":"4","last_reported":1747757574,"current_range_meters":6800,"station_id":"ce4bhgp2rcd13ifvqfc0","pricing_plan_id":"cebpf4jnsgd1na2vs0mg"},{"bike_id":"6390ec1f-97c3-4659-8a03-7cd361c941f3","system_id":"levelo_inurba_marseille","lat":43.23182,"lon":5.39988,"is_reserved":false,"is_disabled":false,"rental_uris":{"android":"levelo://app?vid=6390ec1f-97c3-4659-8a03-7cd361c941f3","ios":"levelo://app?vid=6390ec1f-97c3-4659-8a03-7cd361c941f3"},"vehicle_type_id":"4","last_reported":1747757574,"current_range_meters":6800,"station_id":"ce4bhn12rcd13ifvqgqg","pricing_plan_id":"cebpf4jnsgd1na2vs0mg"},{"bike_id":"bea86052-2701-462a-9922-d8d76e0161c2","system_id":"levelo_inurba_marseille","lat":43.297765,"lon":5.393259,"is_reserved":false,"is_disabled":false,"rental_uris":{"android":"levelo://app?vid=bea86052-2701-462a-9922-d8d76e0161c2","ios":"levelo://app?vid=bea86052-2701-462a-9922-d8d76e0161c2"},"vehicle_type_id":"4","last_reported":1747757574,"current_range_meters":6800,"station_id":"chh1huq6cuj3fo74tm60","pricing_plan_id":"cebpf4jnsgd1na2vs0mg"},{"bike_id":"17f4d073-9486-4cee-a2fa-a99cdc38b173","system_id":"levelo_inurba_marseille","lat":43.30909,"lon":5.39671,"is_reserved":false,"is_disabled":false,"rental_uris":{"android":"levelo://app?vid=17f4d073-9486-4cee-a2fa-a99cdc38b173","ios":"levelo://app?vid=17f4d073-9486-4cee-a2fa-a99cdc38b173"},"vehicle_type_id":"4","last_reported":1747757574,"current_range_meters":7200,"station_id":"ce4bh012rcd13ifvqcv0","pricing_plan_id":"cebpf4jnsgd1na2vs0mg"},{"bike_id":"4837646a-f458-4061-b814-5b2939a22c37","system_id":"levelo_inurba_marseille","lat":43.28158,"lon":5.42646,"is_reserved":false,"is_disabled":false,"rental_uris":{"android":"levelo://app?vid=4837646a-f458-4061-b814-5b2939a22c37","ios":"levelo://app?vid=4837646a-f458-4061-b814-5b2939a22c37"},"vehicle_type_id":"4","last_reported":1747757574,"current_range_meters":7200,"station_id":"ce4bhnh2rcd13ifvqgug","pricing_plan_id":"cebpf4jnsgd1na2vs0mg"},{"bike_id":"8f0f531d-6a65-4647-8a6f-baa3d982f42f","system_id":"levelo_inurba_marseille","lat":43.28124,"lon":5.42574,"is_reserved":false,"is_disabled":false,"rental_uris":{"android":"levelo://app?vid=8f0f531d-6a65-4647-8a6f-baa3d982f42f","ios":"levelo://app?vid=8f0f531d-6a65-4647-8a6f-baa3d982f42f"},"vehicle_type_id":"4","last_reported":1747757574,"current_range_meters":8000,"station_id":"","pricing_plan_id":"cebpf4jnsgd1na2vs0mg"},{"bike_id":"9a37274a-f8f5-4142-b044-42212df4d7e9","system_id":"levelo_inurba_marseille","lat":43.29263,"lon":5.38445,"is_reserved":false,"is_disabled":false,"rental_uris":{"android":"levelo://app?vid=9a37274a-f8f5-4142-b044-42212df4d7e9","ios":"levelo://app?vid=9a37274a-f8f5-4142-b044-42212df4d7e9"},"vehicle_type_id":"4","last_reported":1747757574,"current_range_meters":8000,"station_id":"ce4bh692rcd13ifvqea0","pricing_plan_id":"cebpf4jnsgd1na2vs0mg"},{"bike_id":"8a77c670-a7af-4ac0-9918-4e6c1c91e962","system_id":"levelo_inurba_marseille","lat":43.25086,"lon":5.3952,"is_reserved":false,"is_disabled":false,"rental_uris":{"android":"levelo://app?vid=8a77c670-a7af-4ac0-9918-4e6c1c91e962","ios":"levelo://app?vid=8a77c670-a7af-4ac0-9918-4e6c1c91e962"},"vehicle_type_id":"4","last_reported":1747757574,"current_range_meters":8000,"station_id":"ce4bhm12rcd13ifvqgkg","pricing_plan_id":"cebpf4jnsgd1na2vs0mg"},{"bike_id":"a86d588e-15d7-4bbc-a49c-a091c128c973","system_id":"levelo_inurba_marseille","lat":43.23201,"lon":5.35555,"is_reserved":false,"is_disabled":false,"rental_uris":{"android":"levelo://app?vid=a86d588e-15d7-4bbc-a49c-a091c128c973","ios":"levelo://app?vid=a86d588e-15d7-4bbc-a49c-a091c128c973"},"vehicle_type_id":"4","last_reported":1747757574,"current_range_meters":8000,"station_id":"ce4bhu92rcd13ifvqi70","pricing_plan_id":"cebpf4jnsgd1na2vs0mg"},{"bike_id":"2f778d50-f2d3-4645-9ebf-d4ccf88fa15e","system_id":"levelo_inurba_marseille","lat":43.27997,"lon":5.38975,"is_reserved":false,"is_disabled":false,"rental_uris":{"android":"levelo://app?vid=2f778d50-f2d3-4645-9ebf-d4ccf88fa15e","ios":"levelo://app?vid=2f778d50-f2d3-4645-9ebf-d4ccf88fa15e"},"vehicle_type_id":"4","last_reported":1747757574,"current_range_meters":8400,"station_id":"","pricing_plan_id":"cebpf4jnsgd1na2vs0mg"},{"bike_id":"85eaca89-9437-48d0-9bca-a254337b88db","system_id":"levelo_inurba_marseille","lat":43.27459,"lon":5.40965,"is_reserved":false,"is_disabled":false,"rental_uris":{"android":"levelo://app?vid=85eaca89-9437-48d0-9bca-a254337b88db","ios":"levelo://app?vid=85eaca89-9437-48d0-9bca-a254337b88db"},"vehicle_type_id":"4","last_reported":1747757574,"current_range_meters":8400,"station_id":"","pricing_plan_id":"cebpf4jnsgd1na2vs0mg"},{"bike_id":"85ae9ebf-ad76-4eb7-ad25-21cca193ab11","system_id":"levelo_inurba_marseille","lat":43.30466,"lon":5.37902,"is_reserved":false,"is_disabled":false,"rental_uris":{"android":"levelo://app?vid=85ae9ebf-ad76-4eb7-ad25-21cca193ab11","ios":"levelo://app?vid=85ae9ebf-ad76-4eb7-ad25-21cca193ab11"},"vehicle_type_id":"4","last_reported":1747757574,"current_range_meters":8400,"station_id":"ce4bgup2rcd13ifvqcn0","pricing_plan_id":"cebpf4jnsgd1na2vs0mg"},{"bike_id":"c076ad54-d589-4eeb-ac51-e1376a33ec39","system_id":"levelo_inurba_marseille","lat":43.29542,"lon":5.42283,"is_reserved":false,"is_disabled":false,"rental_uris":{"android":"levelo://app?vid=c076ad54-d589-4eeb-ac51-e1376a33ec39","ios":"levelo://app?vid=c076ad54-d589-4eeb-ac51-e1376a33ec39"},"vehicle_type_id":"4","last_reported":1747757574,"current_range_meters":8400,"station_id":"ce4bhph2rcd13ifvqhdg","pricing_plan_id":"cebpf4jnsgd1na2vs0mg"},{"bike_id":"3fd2e6f4-d275-4706-a894-58b52384fb09","system_id":"levelo_inurba_marseille","lat":43.29308,"lon":5.37161,"is_reserved":false,"is_disabled":false,"rental_uris":{"android":"levelo://app?vid=3fd2e6f4-d275-4706-a894-58b52384fb09","ios":"levelo://app?vid=3fd2e6f4-d275-4706-a894-58b52384fb09"},"vehicle_type_id":"4","last_reported":1747757574,"current_range_meters":8800,"station_id":"ce4bgh92rcd13ifvqb40","pricing_plan_id":"cebpf4jnsgd1na2vs0mg"},{"bike_id":"1fa24010-3fbd-417f-997c-4baaffced0ae","system_id":"levelo_inurba_marseille","lat":43.30885,"lon":5.39659,"is_reserved":false,"is_disabled":false,"rental_uris":{"android":"levelo://app?vid=1fa24010-3fbd-417f-997c-4baaffced0ae","ios":"levelo://app?vid=1fa24010-3fbd-417f-997c-4baaffced0ae"},"vehicle_type_id":"4","last_reported":1747757574,"current_range_meters":8800,"station_id":"ce4bh012rcd13ifvqcv0","pricing_plan_id":"cebpf4jnsgd1na2vs0mg"},{"bike_id":"e1e81824-98c8-489f-a3e0-a060c5dc61b1","system_id":"levelo_inurba_marseille","lat":43.30888,"lon":5.3966,"is_reserved":false,"is_disabled":false,"rental_uris":{"android":"levelo://app?vid=e1e81824-98c8-489f-a3e0-a060c5dc61b1","ios":"levelo://app?vid=e1e81824-98c8-489f-a3e0-a060c5dc61b1"},"vehicle_type_id":"4","last_reported":1747757574,"current_range_meters":8800,"station_id":"ce4bh012rcd13ifvqcv0","pricing_plan_id":"cebpf4jnsgd1na2vs0mg"},{"bike_id":"ca82b1b9-0662-40ab-ab66-e70667e4384c","system_id":"levelo_inurba_marseille","lat":43.28702,"lon":5.39991,"is_reserved":false,"is_disabled":false,"rental_uris":{"android":"levelo://app?vid=ca82b1b9-0662-40ab-ab66-e70667e4384c","ios":"levelo://app?vid=ca82b1b9-0662-40ab-ab66-e70667e4384c"},"vehicle_type_id":"4","last_reported":1747757574,"current_range_meters":8800,"station_id":"ce4bho92rcd13ifvqh3g","pricing_plan_id":"cebpf4jnsgd1na2vs0mg"},{"bike_id":"1d776b01-3663-497a-b971-3d51caa4afc6","system_id":"levelo_inurba_marseille","lat":43.280707,"lon":5.396655,"is_reserved":false,"is_disabled":false,"rental_uris":{"android":"levelo://app?vid=1d776b01-3663-497a-b971-3d51caa4afc6","ios":"levelo://app?vid=1d776b01-3663-497a-b971-3d51caa4afc6"},"vehicle_type_id":"4","last_reported":1747757574,"current_range_meters":9200,"station_id":"","pricing_plan_id":"cebpf4jnsgd1na2vs0mg"},{"bike_id":"bffbaf88-357a-4e87-a68c-a9a27a6e01e6","system_id":"levelo_inurba_marseille","lat":43.26238,"lon":5.4213,"is_reserved":false,"is_disabled":false,"rental_uris":{"android":"levelo://app?vid=bffbaf88-357a-4e87-a68c-a9a27a6e01e6","ios":"levelo://app?vid=bffbaf88-357a-4e87-a68c-a9a27a6e01e6"},"vehicle_type_id":"4","last_reported":1747757574,"current_range_meters":9200,"station_id":"","pricing_plan_id":"cebpf4jnsgd1na2vs0mg"},{"bike_id":"49ae5d67-61b7-4563-bfdf-10cbe23806b7","system_id":"levelo_inurba_marseille","lat":43.29875,"lon":5.39733,"is_reserved":false,"is_disabled":false,"rental_uris":{"android":"levelo://app?vid=49ae5d67-61b7-4563-bfdf-10cbe23806b7","ios":"levelo://app?vid=49ae5d67-61b7-4563-bfdf-10cbe23806b7"},"vehicle_type_id":"4","last_reported":1747757574,"current_range_meters":9200,"station_id":"ce4bh0h2rcd13ifvqd50","pricing_plan_id":"cebpf4jnsgd1na2vs0mg"},{"bike_id":"598900bc-cc96-46f3-b8f9-32958f862dd5","system_id":"levelo_inurba_marseille","lat":43.303963,"lon":5.36803,"is_reserved":false,"is_disabled":false,"rental_uris":{"android":"levelo://app?vid=598900bc-cc96-46f3-b8f9-32958f862dd5","ios":"levelo://app?vid=598900bc-cc96-46f3-b8f9-32958f862dd5"},"vehicle_type_id":"4","last_reported":1747757574,"current_range_meters":9600,"station_id":"","pricing_plan_id":"cebpf4jnsgd1na2vs0mg"},{"bike_id":"44fd2c27-3a21-4b22-9ae2-60a945517f5d","system_id":"levelo_inurba_marseille","lat":43.29534,"lon":5.38543,"is_reserved":false,"is_disabled":false,"rental_uris":{"android":"levelo://app?vid=44fd2c27-3a21-4b22-9ae2-60a945517f5d","ios":"levelo://app?vid=44fd2c27-3a21-4b22-9ae2-60a945517f5d"},"vehicle_type_id":"4","last_reported":1747757574,"current_range_meters":9600,"station_id":"ce4bgih2rcd13ifvqba0","pricing_plan_id":"cebpf4jnsgd1na2vs0mg"},{"bike_id":"9106fd9d-ed82-4f29-8933-190c7c2e6e05","system_id":"levelo_inurba_marseille","lat":43.25504,"lon":5.37651,"is_reserved":false,"is_disabled":false,"rental_uris":{"android":"levelo://app?vid=9106fd9d-ed82-4f29-8933-190c7c2e6e05","ios":"levelo://app?vid=9106fd9d-ed82-4f29-8933-190c7c2e6e05"},"vehicle_type_id":"4","last_reported":1747757574,"current_range_meters":9600,"station_id":"ce4bhh12rcd13ifvqff0","pricing_plan_id":"cebpf4jnsgd1na2vs0mg"},{"bike_id":"ab756091-2c46-457a-8903-1638e5289e41","system_id":"levelo_inurba_marseille","lat":43.23184,"lon":5.39981,"is_reserved":false,"is_disabled":false,"rental_uris":{"android":"levelo://app?vid=ab756091-2c46-457a-8903-1638e5289e41","ios":"levelo://app?vid=ab756091-2c46-457a-8903-1638e5289e41"},"vehicle_type_id":"4","last_reported":1747757574,"current_range_meters":9600,"station_id":"ce4bhn12rcd13ifvqgqg","pricing_plan_id":"cebpf4jnsgd1na2vs0mg"},{"bike_id":"500c31d7-20b6-46d6-8ca4-981f2a997df0","system_id":"levelo_inurba_marseille","lat":43.30184,"lon":5.36624,"is_reserved":false,"is_disabled":false,"rental_uris":{"android":"levelo://app?vid=500c31d7-20b6-46d6-8ca4-981f2a997df0","ios":"levelo://app?vid=500c31d7-20b6-46d6-8ca4-981f2a997df0"},"vehicle_type_id":"4","last_reported":1747757574,"current_range_meters":10000,"station_id":"ce4bgrh2rcd13ifvqc8g","pricing_plan_id":"cebpf4jnsgd1na2vs0mg"},{"bike_id":"e155f766-e08e-4617-af21-ae7335f3d671","system_id":"levelo_inurba_marseille","lat":43.29418,"lon":5.3863,"is_reserved":false,"is_disabled":false,"rental_uris":{"android":"levelo://app?vid=e155f766-e08e-4617-af21-ae7335f3d671","ios":"levelo://app?vid=e155f766-e08e-4617-af21-ae7335f3d671"},"vehicle_type_id":"4","last_reported":1747757574,"current_range_meters":10000,"station_id":"ce4bh2h2rcd13ifvqdh0","pricing_plan_id":"cebpf4jnsgd1na2vs0mg"},{"bike_id":"4adfaff3-fff3-4528-a38c-a83f7ab466cf","system_id":"levelo_inurba_marseille","lat":43.28411,"lon":5.37524,"is_reserved":false,"is_disabled":false,"rental_uris":{"android":"levelo://app?vid=4adfaff3-fff3-4528-a38c-a83f7ab466cf","ios":"levelo://app?vid=4adfaff3-fff3-4528-a38c-a83f7ab466cf"},"vehicle_type_id":"4","last_reported":1747757574,"current_range_meters":10000,"station_id":"ce4bh412rcd13ifvqds0","pricing_plan_id":"cebpf4jnsgd1na2vs0mg"},{"bike_id":"a34588a0-470c-43db-a57f-187f7e22054e","system_id":"levelo_inurba_marseille","lat":43.28267,"lon":5.35065,"is_reserved":false,"is_disabled":false,"rental_uris":{"android":"levelo://app?vid=a34588a0-470c-43db-a57f-187f7e22054e","ios":"levelo://app?vid=a34588a0-470c-43db-a57f-187f7e22054e"},"vehicle_type_id":"4","last_reported":1747757574,"current_range_meters":10000,"station_id":"ce4bhbp2rcd13ifvqerg","pricing_plan_id":"cebpf4jnsgd1na2vs0mg"},{"bike_id":"d3d440bd-4f88-458f-a715-f2816c388b10","system_id":"levelo_inurba_marseille","lat":43.26029,"lon":5.37548,"is_reserved":false,"is_disabled":false,"rental_uris":{"android":"levelo://app?vid=d3d440bd-4f88-458f-a715-f2816c388b10","ios":"levelo://app?vid=d3d440bd-4f88-458f-a715-f2816c388b10"},"vehicle_type_id":"4","last_reported":1747757574,"current_range_meters":10000,"station_id":"ce4bhgh2rcd13ifvqfa0","pricing_plan_id":"cebpf4jnsgd1na2vs0mg"},{"bike_id":"71e146ad-5169-4dc5-a288-c7c746aad618","system_id":"levelo_inurba_marseille","lat":43.23193,"lon":5.39979,"is_reserved":false,"is_disabled":false,"rental_uris":{"android":"levelo://app?vid=71e146ad-5169-4dc5-a288-c7c746aad618","ios":"levelo://app?vid=71e146ad-5169-4dc5-a288-c7c746aad618"},"vehicle_type_id":"4","last_reported":1747757574,"current_range_meters":10000,"station_id":"ce4bhn12rcd13ifvqgqg","pricing_plan_id":"cebpf4jnsgd1na2vs0mg"},{"bike_id":"936ba786-db54-4bbe-a523-305c4f15a874","system_id":"levelo_inurba_marseille","lat":43.27997,"lon":5.41667,"is_reserved":false,"is_disabled":false,"rental_uris":{"android":"levelo://app?vid=936ba786-db54-4bbe-a523-305c4f15a874","ios":"levelo://app?vid=936ba786-db54-4bbe-a523-305c4f15a874"},"vehicle_type_id":"4","last_reported":1747757574,"current_range_meters":10000,"station_id":"ce4bho12rcd13ifvqh1g","pricing_plan_id":"cebpf4jnsgd1na2vs0mg"},{"bike_id":"e8162579-a5ad-485f-ad83-fec8a2ebe7e1","system_id":"levelo_inurba_marseille","lat":43.26826,"lon":5.39099,"is_reserved":false,"is_disabled":false,"rental_uris":{"android":"levelo://app?vid=e8162579-a5ad-485f-ad83-fec8a2ebe7e1","ios":"levelo://app?vid=e8162579-a5ad-485f-ad83-fec8a2ebe7e1"},"vehicle_type_id":"4","last_reported":1747757574,"current_range_meters":10800,"station_id":"","pricing_plan_id":"cebpf4jnsgd1na2vs0mg"},{"bike_id":"8515e518-e6ae-4d30-823e-a81239625260","system_id":"levelo_inurba_marseille","lat":43.29676,"lon":5.36156,"is_reserved":false,"is_disabled":false,"rental_uris":{"android":"levelo://app?vid=8515e518-e6ae-4d30-823e-a81239625260","ios":"levelo://app?vid=8515e518-e6ae-4d30-823e-a81239625260"},"vehicle_type_id":"4","last_reported":1747757574,"current_range_meters":10800,"station_id":"","pricing_plan_id":"cebpf4jnsgd1na2vs0mg"},{"bike_id":"dd53bff0-5e09-4a8a-a1ce-a458df612388","system_id":"levelo_inurba_marseille","lat":43.29378,"lon":5.37856,"is_reserved":false,"is_disabled":false,"rental_uris":{"android":"levelo://app?vid=dd53bff0-5e09-4a8a-a1ce-a458df612388","ios":"levelo://app?vid=dd53bff0-5e09-4a8a-a1ce-a458df612388"},"vehicle_type_id":"4","last_reported":1747757574,"current_range_meters":10800,"station_id":"ce4bgjh2rcd13ifvqbf0","pricing_plan_id":"cebpf4jnsgd1na2vs0mg"},{"bike_id":"7160c556-29ba-40a5-b7e5-2eb4ec3409f7","system_id":"levelo_inurba_marseille","lat":43.23189,"lon":5.39983,"is_reserved":false,"is_disabled":false,"rental_uris":{"android":"levelo://app?vid=7160c556-29ba-40a5-b7e5-2eb4ec3409f7","ios":"levelo://app?vid=7160c556-29ba-40a5-b7e5-2eb4ec3409f7"},"vehicle_type_id":"4","last_reported":1747757574,"current_range_meters":10800,"station_id":"ce4bhn12rcd13ifvqgqg","pricing_plan_id":"cebpf4jnsgd1na2vs0mg"},{"bike_id":"efa3d3ee-6ab6-4771-aa3d-1ec2742cd864","system_id":"levelo_inurba_marseille","lat":43.27813,"lon":5.40719,"is_reserved":false,"is_disabled":false,"rental_uris":{"android":"levelo://app?vid=efa3d3ee-6ab6-4771-aa3d-1ec2742cd864","ios":"levelo://app?vid=efa3d3ee-6ab6-4771-aa3d-1ec2742cd864"},"vehicle_type_id":"4","last_reported":1747757574,"current_range_meters":10800,"station_id":"ce4bhnh2rcd13ifvqgtg","pricing_plan_id":"cebpf4jnsgd1na2vs0mg"},{"bike_id":"5c3b54fd-5452-4fca-91a4-7fdc418024a3","system_id":"levelo_inurba_marseille","lat":43.24176,"lon":5.3973,"is_reserved":false,"is_disabled":false,"rental_uris":{"android":"levelo://app?vid=5c3b54fd-5452-4fca-91a4-7fdc418024a3","ios":"levelo://app?vid=5c3b54fd-5452-4fca-91a4-7fdc418024a3"},"vehicle_type_id":"4","last_reported":1747757574,"current_range_meters":11200,"station_id":"ce4bhn12rcd13ifvqgpg","pricing_plan_id":"cebpf4jnsgd1na2vs0mg"},{"bike_id":"3552fbf2-b43a-446f-93f5-d695fc251b73","system_id":"levelo_inurba_marseille","lat":43.25174,"lon":5.37508,"is_reserved":false,"is_disabled":false,"rental_uris":{"android":"levelo://app?vid=3552fbf2-b43a-446f-93f5-d695fc251b73","ios":"levelo://app?vid=3552fbf2-b43a-446f-93f5-d695fc251b73"},"vehicle_type_id":"4","last_reported":1747757574,"current_range_meters":11600,"station_id":"","pricing_plan_id":"cebpf4jnsgd1na2vs0mg"},{"bike_id":"59b8a132-4666-485c-b6ad-3e889f0d9322","system_id":"levelo_inurba_marseille","lat":43.25542,"lon":5.37667,"is_reserved":false,"is_disabled":false,"rental_uris":{"android":"levelo://app?vid=59b8a132-4666-485c-b6ad-3e889f0d9322","ios":"levelo://app?vid=59b8a132-4666-485c-b6ad-3e889f0d9322"},"vehicle_type_id":"4","last_reported":1747757574,"current_range_meters":11600,"station_id":"ce4bhh12rcd13ifvqff0","pricing_plan_id":"cebpf4jnsgd1na2vs0mg"},{"bike_id":"49f05bcc-fd58-450f-908f-51a1dca2ea65","system_id":"levelo_inurba_marseille","lat":43.25089,"lon":5.3952,"is_reserved":false,"is_disabled":false,"rental_uris":{"android":"levelo://app?vid=49f05bcc-fd58-450f-908f-51a1dca2ea65","ios":"levelo://app?vid=49f05bcc-fd58-450f-908f-51a1dca2ea65"},"vehicle_type_id":"4","last_reported":1747757574,"current_range_meters":11600,"station_id":"ce4bhm12rcd13ifvqgkg","pricing_plan_id":"cebpf4jnsgd1na2vs0mg"},{"bike_id":"48f7c201-fb5e-45c8-abef-48e10d43789c","system_id":"levelo_inurba_marseille","lat":43.29376,"lon":5.37844,"is_reserved":false,"is_disabled":false,"rental_uris":{"android":"levelo://app?vid=48f7c201-fb5e-45c8-abef-48e10d43789c","ios":"levelo://app?vid=48f7c201-fb5e-45c8-abef-48e10d43789c"},"vehicle_type_id":"4","last_reported":1747757574,"current_range_meters":12000,"station_id":"ce4bgjh2rcd13ifvqbf0","pricing_plan_id":"cebpf4jnsgd1na2vs0mg"},{"bike_id":"93b6ce27-3a4e-4f33-bf4d-3db831398fb9","system_id":"levelo_inurba_marseille","lat":43.29623,"lon":5.37175,"is_reserved":false,"is_disabled":false,"rental_uris":{"android":"levelo://app?vid=93b6ce27-3a4e-4f33-bf4d-3db831398fb9","ios":"levelo://app?vid=93b6ce27-3a4e-4f33-bf4d-3db831398fb9"},"vehicle_type_id":"4","last_reported":1747757574,"current_range_meters":12000,"station_id":"ce4bgnh2rcd13ifvqc0g","pricing_plan_id":"cebpf4jnsgd1na2vs0mg"},{"bike_id":"b80db9b6-f5bb-40b6-af9a-c7651c099e01","system_id":"levelo_inurba_marseille","lat":43.3088,"lon":5.3965,"is_reserved":false,"is_disabled":false,"rental_uris":{"android":"levelo://app?vid=b80db9b6-f5bb-40b6-af9a-c7651c099e01","ios":"levelo://app?vid=b80db9b6-f5bb-40b6-af9a-c7651c099e01"},"vehicle_type_id":"4","last_reported":1747757574,"current_range_meters":12000,"station_id":"ce4bh012rcd13ifvqcv0","pricing_plan_id":"cebpf4jnsgd1na2vs0mg"},{"bike_id":"c3c11b11-8507-45b4-bd48-1e3bdd46fbbe","system_id":"levelo_inurba_marseille","lat":43.23163,"lon":5.39949,"is_reserved":false,"is_disabled":false,"rental_uris":{"android":"levelo://app?vid=c3c11b11-8507-45b4-bd48-1e3bdd46fbbe","ios":"levelo://app?vid=c3c11b11-8507-45b4-bd48-1e3bdd46fbbe"},"vehicle_type_id":"4","last_reported":1747757574,"current_range_meters":12000,"station_id":"ce4bhn12rcd13ifvqgqg","pricing_plan_id":"cebpf4jnsgd1na2vs0mg"},{"bike_id":"340e3790-36da-4d22-98f6-954033a41ef7","system_id":"levelo_inurba_marseille","lat":43.280733,"lon":5.395803,"is_reserved":false,"is_disabled":false,"rental_uris":{"android":"levelo://app?vid=340e3790-36da-4d22-98f6-954033a41ef7","ios":"levelo://app?vid=340e3790-36da-4d22-98f6-954033a41ef7"},"vehicle_type_id":"4","last_reported":1747757574,"current_range_meters":12000,"station_id":"ce4bho12rcd13ifvqh2g","pricing_plan_id":"cebpf4jnsgd1na2vs0mg"},{"bike_id":"0fafdb87-1930-499e-9dbb-31ed60ea596e","system_id":"levelo_inurba_marseille","lat":43.318971,"lon":5.407548,"is_reserved":false,"is_disabled":false,"rental_uris":{"android":"levelo://app?vid=0fafdb87-1930-499e-9dbb-31ed60ea596e","ios":"levelo://app?vid=0fafdb87-1930-499e-9dbb-31ed60ea596e"},"vehicle_type_id":"4","last_reported":1747757574,"current_range_meters":12000,"station_id":"ce4bhq12rcd13ifvqhig","pricing_plan_id":"cebpf4jnsgd1na2vs0mg"},{"bike_id":"87d6d5a1-9525-4f53-8029-ce8961cf66d2","system_id":"levelo_inurba_marseille","lat":43.29529,"lon":5.3854,"is_reserved":false,"is_disabled":false,"rental_uris":{"android":"levelo://app?vid=87d6d5a1-9525-4f53-8029-ce8961cf66d2","ios":"levelo://app?vid=87d6d5a1-9525-4f53-8029-ce8961cf66d2"},"vehicle_type_id":"4","last_reported":1747757574,"current_range_meters":12400,"station_id":"ce4bgih2rcd13ifvqba0","pricing_plan_id":"cebpf4jnsgd1na2vs0mg"},{"bike_id":"d222c036-c02a-40db-bb80-83d7b7358871","system_id":"levelo_inurba_marseille","lat":43.33737,"lon":5.39189,"is_reserved":false,"is_disabled":false,"rental_uris":{"android":"levelo://app?vid=d222c036-c02a-40db-bb80-83d7b7358871","ios":"levelo://app?vid=d222c036-c02a-40db-bb80-83d7b7358871"},"vehicle_type_id":"4","last_reported":1747757574,"current_range_meters":12400,"station_id":"ce4bhr92rcd13ifvqhsg","pricing_plan_id":"cebpf4jnsgd1na2vs0mg"},{"bike_id":"c5be94cb-eef2-42b6-92c5-9c13e92e49aa","system_id":"levelo_inurba_marseille","lat":43.31329,"lon":5.39702,"is_reserved":false,"is_disabled":false,"rental_uris":{"android":"levelo://app?vid=c5be94cb-eef2-42b6-92c5-9c13e92e49aa","ios":"levelo://app?vid=c5be94cb-eef2-42b6-92c5-9c13e92e49aa"},"vehicle_type_id":"4","last_reported":1747757574,"current_range_meters":12800,"station_id":"ce4bgvp2rcd13ifvqcu0","pricing_plan_id":"cebpf4jnsgd1na2vs0mg"},{"bike_id":"e4480448-2aa6-43cb-8a2b-42b4ab13179d","system_id":"levelo_inurba_marseille","lat":43.29266,"lon":5.38431,"is_reserved":false,"is_disabled":false,"rental_uris":{"android":"levelo://app?vid=e4480448-2aa6-43cb-8a2b-42b4ab13179d","ios":"levelo://app?vid=e4480448-2aa6-43cb-8a2b-42b4ab13179d"},"vehicle_type_id":"4","last_reported":1747757574,"current_range_meters":12800,"station_id":"ce4bh692rcd13ifvqea0","pricing_plan_id":"cebpf4jnsgd1na2vs0mg"},{"bike_id":"6abf9179-5919-4aea-b8e3-feb1f3d71154","system_id":"levelo_inurba_marseille","lat":43.32359,"lon":5.36754,"is_reserved":false,"is_disabled":false,"rental_uris":{"android":"levelo://app?vid=6abf9179-5919-4aea-b8e3-feb1f3d71154","ios":"levelo://app?vid=6abf9179-5919-4aea-b8e3-feb1f3d71154"},"vehicle_type_id":"4","last_reported":1747757574,"current_range_meters":12800,"station_id":"ce4bhsh2rcd13ifvqi2g","pricing_plan_id":"cebpf4jnsgd1na2vs0mg"},{"bike_id":"e87d44cd-2fe7-40ec-8eb3-881b92b0aba9","system_id":"levelo_inurba_marseille","lat":43.29428,"lon":5.3863,"is_reserved":false,"is_disabled":false,"rental_uris":{"android":"levelo://app?vid=e87d44cd-2fe7-40ec-8eb3-881b92b0aba9","ios":"levelo://app?vid=e87d44cd-2fe7-40ec-8eb3-881b92b0aba9"},"vehicle_type_id":"4","last_reported":1747757574,"current_range_meters":13600,"station_id":"ce4bh2h2rcd13ifvqdh0","pricing_plan_id":"cebpf4jnsgd1na2vs0mg"},{"bike_id":"4c96922f-5fa7-4b55-ad7f-38ec77761d12","system_id":"levelo_inurba_marseille","lat":43.2804,"lon":5.36943,"is_reserved":false,"is_disabled":false,"rental_uris":{"android":"levelo://app?vid=4c96922f-5fa7-4b55-ad7f-38ec77761d12","ios":"levelo://app?vid=4c96922f-5fa7-4b55-ad7f-38ec77761d12"},"vehicle_type_id":"4","last_reported":1747757574,"current_range_meters":13600,"station_id":"ce4bha12rcd13ifvqef0","pricing_plan_id":"cebpf4jnsgd1na2vs0mg"},{"bike_id":"eeb52b9a-e875-4090-a996-e745d1dab863","system_id":"levelo_inurba_marseille","lat":43.25579,"lon":5.3823,"is_reserved":false,"is_disabled":false,"rental_uris":{"android":"levelo://app?vid=eeb52b9a-e875-4090-a996-e745d1dab863","ios":"levelo://app?vid=eeb52b9a-e875-4090-a996-e745d1dab863"},"vehicle_type_id":"4","last_reported":1747757574,"current_range_meters":13600,"station_id":"ce4bhih2rcd13ifvqfs0","pricing_plan_id":"cebpf4jnsgd1na2vs0mg"},{"bike_id":"dc80936a-51b4-4ef9-b71e-e259b58f2ac3","system_id":"levelo_inurba_marseille","lat":43.232,"lon":5.39976,"is_reserved":false,"is_disabled":false,"rental_uris":{"android":"levelo://app?vid=dc80936a-51b4-4ef9-b71e-e259b58f2ac3","ios":"levelo://app?vid=dc80936a-51b4-4ef9-b71e-e259b58f2ac3"},"vehicle_type_id":"4","last_reported":1747757574,"current_range_meters":13600,"station_id":"ce4bhn12rcd13ifvqgqg","pricing_plan_id":"cebpf4jnsgd1na2vs0mg"},{"bike_id":"bfadeaec-216b-47d1-99b4-74d81f9ee763","system_id":"levelo_inurba_marseille","lat":43.321164,"lon":5.367901,"is_reserved":false,"is_disabled":false,"rental_uris":{"android":"levelo://app?vid=bfadeaec-216b-47d1-99b4-74d81f9ee763","ios":"levelo://app?vid=bfadeaec-216b-47d1-99b4-74d81f9ee763"},"vehicle_type_id":"4","last_reported":1747757574,"current_range_meters":13600,"station_id":"ce4bhrh2rcd13ifvqhug","pricing_plan_id":"cebpf4jnsgd1na2vs0mg"},{"bike_id":"1dc11bc0-5f09-4847-84a0-e8a8e47157b4","system_id":"levelo_inurba_marseille","lat":43.27376,"lon":5.36263,"is_reserved":false,"is_disabled":false,"rental_uris":{"android":"levelo://app?vid=1dc11bc0-5f09-4847-84a0-e8a8e47157b4","ios":"levelo://app?vid=1dc11bc0-5f09-4847-84a0-e8a8e47157b4"},"vehicle_type_id":"4","last_reported":1747757574,"current_range_meters":14000,"station_id":"ce4bhbh2rcd13ifvqeo0","pricing_plan_id":"cebpf4jnsgd1na2vs0mg"},{"bike_id":"9aeefe59-f1de-4d87-aeff-0188d0c4bd6c","system_id":"levelo_inurba_marseille","lat":43.26062,"lon":5.39399,"is_reserved":false,"is_disabled":false,"rental_uris":{"android":"levelo://app?vid=9aeefe59-f1de-4d87-aeff-0188d0c4bd6c","ios":"levelo://app?vid=9aeefe59-f1de-4d87-aeff-0188d0c4bd6c"},"vehicle_type_id":"4","last_reported":1747757574,"current_range_meters":14000,"station_id":"ce4bhh92rcd13ifvqfj0","pricing_plan_id":"cebpf4jnsgd1na2vs0mg"},{"bike_id":"db7d7499-ec14-48f3-8c83-f25039d8eb63","system_id":"levelo_inurba_marseille","lat":43.28728,"lon":5.36095,"is_reserved":false,"is_disabled":false,"rental_uris":{"android":"levelo://app?vid=db7d7499-ec14-48f3-8c83-f25039d8eb63","ios":"levelo://app?vid=db7d7499-ec14-48f3-8c83-f25039d8eb63"},"vehicle_type_id":"4","last_reported":1747757574,"current_range_meters":14400,"station_id":"cki0cbj6b192h4jlfktg","pricing_plan_id":"cebpf4jnsgd1na2vs0mg"},{"bike_id":"5d5fb57d-7e0f-45ee-bd4e-31f5a6cf5e8e","system_id":"levelo_inurba_marseille","lat":43.285663,"lon":5.395083,"is_reserved":false,"is_disabled":false,"rental_uris":{"android":"levelo://app?vid=5d5fb57d-7e0f-45ee-bd4e-31f5a6cf5e8e","ios":"levelo://app?vid=5d5fb57d-7e0f-45ee-bd4e-31f5a6cf5e8e"},"vehicle_type_id":"4","last_reported":1747757574,"current_range_meters":14800,"station_id":"ce4bh292rcd13ifvqdg0","pricing_plan_id":"cebpf4jnsgd1na2vs0mg"},{"bike_id":"00440487-0b16-4180-9a65-5bd738a1f121","system_id":"levelo_inurba_marseille","lat":43.29047,"lon":5.35915,"is_reserved":false,"is_disabled":false,"rental_uris":{"android":"levelo://app?vid=00440487-0b16-4180-9a65-5bd738a1f121","ios":"levelo://app?vid=00440487-0b16-4180-9a65-5bd738a1f121"},"vehicle_type_id":"4","last_reported":1747757574,"current_range_meters":14800,"station_id":"ce4bha92rcd13ifvqeg0","pricing_plan_id":"cebpf4jnsgd1na2vs0mg"},{"bike_id":"5af004d4-9cad-4537-bca0-7981059e85db","system_id":"levelo_inurba_marseille","lat":43.25003,"lon":5.38901,"is_reserved":false,"is_disabled":false,"rental_uris":{"android":"levelo://app?vid=5af004d4-9cad-4537-bca0-7981059e85db","ios":"levelo://app?vid=5af004d4-9cad-4537-bca0-7981059e85db"},"vehicle_type_id":"4","last_reported":1747757574,"current_range_meters":14800,"station_id":"ce4bhgp2rcd13ifvqfd0","pricing_plan_id":"cebpf4jnsgd1na2vs0mg"},{"bike_id":"bbcb26be-d76e-431e-8a14-7c68fc27a846","system_id":"levelo_inurba_marseille","lat":43.30195,"lon":5.36637,"is_reserved":false,"is_disabled":false,"rental_uris":{"android":"levelo://app?vid=bbcb26be-d76e-431e-8a14-7c68fc27a846","ios":"levelo://app?vid=bbcb26be-d76e-431e-8a14-7c68fc27a846"},"vehicle_type_id":"4","last_reported":1747757574,"current_range_meters":16000,"station_id":"ce4bgrh2rcd13ifvqc8g","pricing_plan_id":"cebpf4jnsgd1na2vs0mg"},{"bike_id":"56cf80a0-6e20-4517-b7ab-ff4ac3730a84","system_id":"levelo_inurba_marseille","lat":43.231865,"lon":5.399828,"is_reserved":false,"is_disabled":false,"rental_uris":{"android":"levelo://app?vid=56cf80a0-6e20-4517-b7ab-ff4ac3730a84","ios":"levelo://app?vid=56cf80a0-6e20-4517-b7ab-ff4ac3730a84"},"vehicle_type_id":"4","last_reported":1747757574,"current_range_meters":16000,"station_id":"ce4bhn12rcd13ifvqgqg","pricing_plan_id":"cebpf4jnsgd1na2vs0mg"},{"bike_id":"be800782-d773-4eab-9030-4baa450cd244","system_id":"levelo_inurba_marseille","lat":43.28699,"lon":5.39987,"is_reserved":false,"is_disabled":false,"rental_uris":{"android":"levelo://app?vid=be800782-d773-4eab-9030-4baa450cd244","ios":"levelo://app?vid=be800782-d773-4eab-9030-4baa450cd244"},"vehicle_type_id":"4","last_reported":1747757574,"current_range_meters":16000,"station_id":"ce4bho92rcd13ifvqh3g","pricing_plan_id":"cebpf4jnsgd1na2vs0mg"},{"bike_id":"5765434c-77b5-41b5-8b14-b978e4d6dd10","system_id":"levelo_inurba_marseille","lat":43.21199,"lon":5.350781,"is_reserved":false,"is_disabled":false,"rental_uris":{"android":"levelo://app?vid=5765434c-77b5-41b5-8b14-b978e4d6dd10","ios":"levelo://app?vid=5765434c-77b5-41b5-8b14-b978e4d6dd10"},"vehicle_type_id":"4","last_reported":1747757574,"current_range_meters":16000,"station_id":"st_cvj6sg6p6f1abm77japg","pricing_plan_id":"cebpf4jnsgd1na2vs0mg"},{"bike_id":"d22b0fd0-78a6-46fc-aad8-ce2ca2a629e3","system_id":"levelo_inurba_marseille","lat":43.21213,"lon":5.35088,"is_reserved":false,"is_disabled":false,"rental_uris":{"android":"levelo://app?vid=d22b0fd0-78a6-46fc-aad8-ce2ca2a629e3","ios":"levelo://app?vid=d22b0fd0-78a6-46fc-aad8-ce2ca2a629e3"},"vehicle_type_id":"4","last_reported":1747757574,"current_range_meters":16000,"station_id":"st_cvj6sg6p6f1abm77japg","pricing_plan_id":"cebpf4jnsgd1na2vs0mg"},{"bike_id":"d0d15b6b-946c-4019-8ec9-fd2fc9e19ea7","system_id":"levelo_inurba_marseille","lat":43.31366,"lon":5.38499,"is_reserved":false,"is_disabled":false,"rental_uris":{"android":"levelo://app?vid=d0d15b6b-946c-4019-8ec9-fd2fc9e19ea7","ios":"levelo://app?vid=d0d15b6b-946c-4019-8ec9-fd2fc9e19ea7"},"vehicle_type_id":"4","last_reported":1747757574,"current_range_meters":16400,"station_id":"ce4bgt92rcd13ifvqcf0","pricing_plan_id":"cebpf4jnsgd1na2vs0mg"},{"bike_id":"272bec82-4094-435f-8bc6-0105a5286f0d","system_id":"levelo_inurba_marseille","lat":43.29032,"lon":5.38658,"is_reserved":false,"is_disabled":false,"rental_uris":{"android":"levelo://app?vid=272bec82-4094-435f-8bc6-0105a5286f0d","ios":"levelo://app?vid=272bec82-4094-435f-8bc6-0105a5286f0d"},"vehicle_type_id":"4","last_reported":1747757574,"current_range_meters":16400,"station_id":"ce4bh4p2rcd13ifvqe0g","pricing_plan_id":"cebpf4jnsgd1na2vs0mg"},{"bike_id":"1b7077b7-2ce5-42c7-a5ba-f52e42c251df","system_id":"levelo_inurba_marseille","lat":43.2842,"lon":5.34982,"is_reserved":false,"is_disabled":false,"rental_uris":{"android":"levelo://app?vid=1b7077b7-2ce5-42c7-a5ba-f52e42c251df","ios":"levelo://app?vid=1b7077b7-2ce5-42c7-a5ba-f52e42c251df"},"vehicle_type_id":"4","last_reported":1747757574,"current_range_meters":16400,"station_id":"ce4bhbh2rcd13ifvqepg","pricing_plan_id":"cebpf4jnsgd1na2vs0mg"},{"bike_id":"a253706b-1cb9-4ca4-9560-173eeb92ac1f","system_id":"levelo_inurba_marseille","lat":43.30813,"lon":5.43523,"is_reserved":false,"is_disabled":false,"rental_uris":{"android":"levelo://app?vid=a253706b-1cb9-4ca4-9560-173eeb92ac1f","ios":"levelo://app?vid=a253706b-1cb9-4ca4-9560-173eeb92ac1f"},"vehicle_type_id":"4","last_reported":1747757574,"current_range_meters":16400,"station_id":"ce4bhph2rcd13ifvqheg","pricing_plan_id":"cebpf4jnsgd1na2vs0mg"},{"bike_id":"1a340bac-8012-4c7c-b50a-247d19f083a9","system_id":"levelo_inurba_marseille","lat":43.211918,"lon":5.350738,"is_reserved":false,"is_disabled":false,"rental_uris":{"android":"levelo://app?vid=1a340bac-8012-4c7c-b50a-247d19f083a9","ios":"levelo://app?vid=1a340bac-8012-4c7c-b50a-247d19f083a9"},"vehicle_type_id":"4","last_reported":1747757574,"current_range_meters":16400,"station_id":"st_cvj6sg6p6f1abm77japg","pricing_plan_id":"cebpf4jnsgd1na2vs0mg"},{"bike_id":"dd174f92-397e-4b35-9ff5-ed23e59055eb","system_id":"levelo_inurba_marseille","lat":43.30525,"lon":5.39918,"is_reserved":false,"is_disabled":false,"rental_uris":{"android":"levelo://app?vid=dd174f92-397e-4b35-9ff5-ed23e59055eb","ios":"levelo://app?vid=dd174f92-397e-4b35-9ff5-ed23e59055eb"},"vehicle_type_id":"4","last_reported":1747757574,"current_range_meters":16800,"station_id":"","pricing_plan_id":"cebpf4jnsgd1na2vs0mg"},{"bike_id":"debfd227-1f19-45e4-9c86-a7de74cd0cf1","system_id":"levelo_inurba_marseille","lat":43.3089,"lon":5.37205,"is_reserved":false,"is_disabled":false,"rental_uris":{"android":"levelo://app?vid=debfd227-1f19-45e4-9c86-a7de74cd0cf1","ios":"levelo://app?vid=debfd227-1f19-45e4-9c86-a7de74cd0cf1"},"vehicle_type_id":"4","last_reported":1747757574,"current_range_meters":16800,"station_id":"ce4bguh2rcd13ifvqckg","pricing_plan_id":"cebpf4jnsgd1na2vs0mg"},{"bike_id":"c2c782c8-2f39-4d58-9187-3ac706dd0825","system_id":"levelo_inurba_marseille","lat":43.29258,"lon":5.40907,"is_reserved":false,"is_disabled":false,"rental_uris":{"android":"levelo://app?vid=c2c782c8-2f39-4d58-9187-3ac706dd0825","ios":"levelo://app?vid=c2c782c8-2f39-4d58-9187-3ac706dd0825"},"vehicle_type_id":"4","last_reported":1747757574,"current_range_meters":16800,"station_id":"ce4bh192rcd13ifvqdc0","pricing_plan_id":"cebpf4jnsgd1na2vs0mg"},{"bike_id":"c9332228-05cb-4726-839c-afbf0dc20163","system_id":"levelo_inurba_marseille","lat":43.32293,"lon":5.38279,"is_reserved":false,"is_disabled":false,"rental_uris":{"android":"levelo://app?vid=c9332228-05cb-4726-839c-afbf0dc20163","ios":"levelo://app?vid=c9332228-05cb-4726-839c-afbf0dc20163"},"vehicle_type_id":"4","last_reported":1747757574,"current_range_meters":16800,"station_id":"ce4bhr12rcd13ifvqhqg","pricing_plan_id":"cebpf4jnsgd1na2vs0mg"},{"bike_id":"41a63ad7-5271-4c92-a07b-12a7b1d342de","system_id":"levelo_inurba_marseille","lat":43.21199,"lon":5.35064,"is_reserved":false,"is_disabled":false,"rental_uris":{"android":"levelo://app?vid=41a63ad7-5271-4c92-a07b-12a7b1d342de","ios":"levelo://app?vid=41a63ad7-5271-4c92-a07b-12a7b1d342de"},"vehicle_type_id":"4","last_reported":1747757574,"current_range_meters":16800,"station_id":"st_cvj6sg6p6f1abm77japg","pricing_plan_id":"cebpf4jnsgd1na2vs0mg"},{"bike_id":"23334f57-0970-4928-944a-6932a13ef346","system_id":"levelo_inurba_marseille","lat":43.29195,"lon":5.35811,"is_reserved":false,"is_disabled":false,"rental_uris":{"android":"levelo://app?vid=23334f57-0970-4928-944a-6932a13ef346","ios":"levelo://app?vid=23334f57-0970-4928-944a-6932a13ef346"},"vehicle_type_id":"4","last_reported":1747757574,"current_range_meters":17200,"station_id":"ce4bhb12rcd13ifvqel0","pricing_plan_id":"cebpf4jnsgd1na2vs0mg"},{"bike_id":"9023c4c0-54ae-4bf4-a0d3-7e8ad2241dbd","system_id":"levelo_inurba_marseille","lat":43.29007,"lon":5.35611,"is_reserved":false,"is_disabled":false,"rental_uris":{"android":"levelo://app?vid=9023c4c0-54ae-4bf4-a0d3-7e8ad2241dbd","ios":"levelo://app?vid=9023c4c0-54ae-4bf4-a0d3-7e8ad2241dbd"},"vehicle_type_id":"4","last_reported":1747757574,"current_range_meters":17200,"station_id":"ce4bhb92rcd13ifvqen0","pricing_plan_id":"cebpf4jnsgd1na2vs0mg"},{"bike_id":"00259ec7-4c1b-4771-99ca-fe05b3a7606f","system_id":"levelo_inurba_marseille","lat":43.24995,"lon":5.38935,"is_reserved":false,"is_disabled":false,"rental_uris":{"android":"levelo://app?vid=00259ec7-4c1b-4771-99ca-fe05b3a7606f","ios":"levelo://app?vid=00259ec7-4c1b-4771-99ca-fe05b3a7606f"},"vehicle_type_id":"4","last_reported":1747757574,"current_range_meters":17200,"station_id":"ce4bhgp2rcd13ifvqfd0","pricing_plan_id":"cebpf4jnsgd1na2vs0mg"},{"bike_id":"0c027a45-4cb4-4ec9-a3c0-cf229628abe3","system_id":"levelo_inurba_marseille","lat":43.25587,"lon":5.38236,"is_reserved":false,"is_disabled":false,"rental_uris":{"android":"levelo://app?vid=0c027a45-4cb4-4ec9-a3c0-cf229628abe3","ios":"levelo://app?vid=0c027a45-4cb4-4ec9-a3c0-cf229628abe3"},"vehicle_type_id":"4","last_reported":1747757574,"current_range_meters":17200,"station_id":"ce4bhih2rcd13ifvqfs0","pricing_plan_id":"cebpf4jnsgd1na2vs0mg"},{"bike_id":"b2098f36-3a4b-4364-a6b7-9bce689a500e","system_id":"levelo_inurba_marseille","lat":43.27817,"lon":5.40712,"is_reserved":false,"is_disabled":false,"rental_uris":{"android":"levelo://app?vid=b2098f36-3a4b-4364-a6b7-9bce689a500e","ios":"levelo://app?vid=b2098f36-3a4b-4364-a6b7-9bce689a500e"},"vehicle_type_id":"4","last_reported":1747757574,"current_range_meters":17200,"station_id":"ce4bhnh2rcd13ifvqgtg","pricing_plan_id":"cebpf4jnsgd1na2vs0mg"},{"bike_id":"24dc12dd-e0a1-4ccc-b473-486d35ddca69","system_id":"levelo_inurba_marseille","lat":43.317106,"lon":5.437069,"is_reserved":false,"is_disabled":false,"rental_uris":{"android":"levelo://app?vid=24dc12dd-e0a1-4ccc-b473-486d35ddca69","ios":"levelo://app?vid=24dc12dd-e0a1-4ccc-b473-486d35ddca69"},"vehicle_type_id":"4","last_reported":1747757574,"current_range_meters":17200,"station_id":"ce4bhp92rcd13ifvqhcg","pricing_plan_id":"cebpf4jnsgd1na2vs0mg"},{"bike_id":"ea9916d3-39c7-40d6-bfff-4681af13a658","system_id":"levelo_inurba_marseille","lat":43.30187,"lon":5.36625,"is_reserved":false,"is_disabled":false,"rental_uris":{"android":"levelo://app?vid=ea9916d3-39c7-40d6-bfff-4681af13a658","ios":"levelo://app?vid=ea9916d3-39c7-40d6-bfff-4681af13a658"},"vehicle_type_id":"4","last_reported":1747757574,"current_range_meters":17600,"station_id":"ce4bgrh2rcd13ifvqc8g","pricing_plan_id":"cebpf4jnsgd1na2vs0mg"},{"bike_id":"50561136-349a-4704-9c33-7409465c7753","system_id":"levelo_inurba_marseille","lat":43.295233,"lon":5.39406,"is_reserved":false,"is_disabled":false,"rental_uris":{"android":"levelo://app?vid=50561136-349a-4704-9c33-7409465c7753","ios":"levelo://app?vid=50561136-349a-4704-9c33-7409465c7753"},"vehicle_type_id":"4","last_reported":1747757574,"current_range_meters":17600,"station_id":"ce4bh292rcd13ifvqdf0","pricing_plan_id":"cebpf4jnsgd1na2vs0mg"},{"bike_id":"af16ab83-5718-4ca3-a85e-e3f0c52e6999","system_id":"levelo_inurba_marseille","lat":43.27917,"lon":5.39579,"is_reserved":false,"is_disabled":false,"rental_uris":{"android":"levelo://app?vid=af16ab83-5718-4ca3-a85e-e3f0c52e6999","ios":"levelo://app?vid=af16ab83-5718-4ca3-a85e-e3f0c52e6999"},"vehicle_type_id":"4","last_reported":1747757574,"current_range_meters":17600,"station_id":"ce4bhf92rcd13ifvqf40","pricing_plan_id":"cebpf4jnsgd1na2vs0mg"},{"bike_id":"fc22c1d1-0ab4-4a73-be29-30596b048f1e","system_id":"levelo_inurba_marseille","lat":43.26162,"lon":5.374686,"is_reserved":false,"is_disabled":false,"rental_uris":{"android":"levelo://app?vid=fc22c1d1-0ab4-4a73-be29-30596b048f1e","ios":"levelo://app?vid=fc22c1d1-0ab4-4a73-be29-30596b048f1e"},"vehicle_type_id":"4","last_reported":1747757574,"current_range_meters":17600,"station_id":"ce4bhgp2rcd13ifvqfc0","pricing_plan_id":"cebpf4jnsgd1na2vs0mg"},{"bike_id":"0e6bb125-ff93-4853-97e0-da4a593482f4","system_id":"levelo_inurba_marseille","lat":43.280801,"lon":5.396405,"is_reserved":false,"is_disabled":false,"rental_uris":{"android":"levelo://app?vid=0e6bb125-ff93-4853-97e0-da4a593482f4","ios":"levelo://app?vid=0e6bb125-ff93-4853-97e0-da4a593482f4"},"vehicle_type_id":"4","last_reported":1747757574,"current_range_meters":17600,"station_id":"ce4bho12rcd13ifvqh2g","pricing_plan_id":"cebpf4jnsgd1na2vs0mg"},{"bike_id":"e31833c9-3629-4b2f-810c-c09df0eb266c","system_id":"levelo_inurba_marseille","lat":43.33751,"lon":5.37509,"is_reserved":false,"is_disabled":false,"rental_uris":{"android":"levelo://app?vid=e31833c9-3629-4b2f-810c-c09df0eb266c","ios":"levelo://app?vid=e31833c9-3629-4b2f-810c-c09df0eb266c"},"vehicle_type_id":"4","last_reported":1747757574,"current_range_meters":18000,"station_id":"","pricing_plan_id":"cebpf4jnsgd1na2vs0mg"},{"bike_id":"3734b161-f773-41c4-aaa1-9fefe2216ca0","system_id":"levelo_inurba_marseille","lat":43.28426,"lon":5.34999,"is_reserved":false,"is_disabled":false,"rental_uris":{"android":"levelo://app?vid=3734b161-f773-41c4-aaa1-9fefe2216ca0","ios":"levelo://app?vid=3734b161-f773-41c4-aaa1-9fefe2216ca0"},"vehicle_type_id":"4","last_reported":1747757574,"current_range_meters":18000,"station_id":"ce4bhbh2rcd13ifvqepg","pricing_plan_id":"cebpf4jnsgd1na2vs0mg"},{"bike_id":"c16935eb-8359-43db-9ef2-a032dc9f0fc1","system_id":"levelo_inurba_marseille","lat":43.26556,"lon":5.37285,"is_reserved":false,"is_disabled":false,"rental_uris":{"android":"levelo://app?vid=c16935eb-8359-43db-9ef2-a032dc9f0fc1","ios":"levelo://app?vid=c16935eb-8359-43db-9ef2-a032dc9f0fc1"},"vehicle_type_id":"4","last_reported":1747757574,"current_range_meters":18000,"station_id":"ce4bhg12rcd13ifvqf70","pricing_plan_id":"cebpf4jnsgd1na2vs0mg"},{"bike_id":"80757a81-ac7c-4654-bc3f-2fe6670d514e","system_id":"levelo_inurba_marseille","lat":43.25091,"lon":5.39525,"is_reserved":false,"is_disabled":false,"rental_uris":{"android":"levelo://app?vid=80757a81-ac7c-4654-bc3f-2fe6670d514e","ios":"levelo://app?vid=80757a81-ac7c-4654-bc3f-2fe6670d514e"},"vehicle_type_id":"4","last_reported":1747757574,"current_range_meters":18000,"station_id":"ce4bhm12rcd13ifvqgkg","pricing_plan_id":"cebpf4jnsgd1na2vs0mg"},{"bike_id":"6b33c5c8-a645-4cf9-b1ef-0c6445076710","system_id":"levelo_inurba_marseille","lat":43.28153,"lon":5.4266,"is_reserved":false,"is_disabled":false,"rental_uris":{"android":"levelo://app?vid=6b33c5c8-a645-4cf9-b1ef-0c6445076710","ios":"levelo://app?vid=6b33c5c8-a645-4cf9-b1ef-0c6445076710"},"vehicle_type_id":"4","last_reported":1747757574,"current_range_meters":18000,"station_id":"ce4bhnh2rcd13ifvqgug","pricing_plan_id":"cebpf4jnsgd1na2vs0mg"},{"bike_id":"d2243da5-46a4-4675-a166-c5959f727fa3","system_id":"levelo_inurba_marseille","lat":43.27944,"lon":5.4104,"is_reserved":false,"is_disabled":false,"rental_uris":{"android":"levelo://app?vid=d2243da5-46a4-4675-a166-c5959f727fa3","ios":"levelo://app?vid=d2243da5-46a4-4675-a166-c5959f727fa3"},"vehicle_type_id":"4","last_reported":1747757574,"current_range_meters":18000,"station_id":"ce4bhnp2rcd13ifvqh0g","pricing_plan_id":"cebpf4jnsgd1na2vs0mg"},{"bike_id":"75a4b4dd-0287-4dcb-827c-9aea0292d3a1","system_id":"levelo_inurba_marseille","lat":43.32339,"lon":5.40622,"is_reserved":false,"is_disabled":false,"rental_uris":{"android":"levelo://app?vid=75a4b4dd-0287-4dcb-827c-9aea0292d3a1","ios":"levelo://app?vid=75a4b4dd-0287-4dcb-827c-9aea0292d3a1"},"vehicle_type_id":"4","last_reported":1747757574,"current_range_meters":18000,"station_id":"ce4bhq92rcd13ifvqhjg","pricing_plan_id":"cebpf4jnsgd1na2vs0mg"},{"bike_id":"4e38f7d2-3a2f-4430-97f0-7b564ed6c4b9","system_id":"levelo_inurba_marseille","lat":43.21206,"lon":5.35091,"is_reserved":false,"is_disabled":false,"rental_uris":{"android":"levelo://app?vid=4e38f7d2-3a2f-4430-97f0-7b564ed6c4b9","ios":"levelo://app?vid=4e38f7d2-3a2f-4430-97f0-7b564ed6c4b9"},"vehicle_type_id":"4","last_reported":1747757574,"current_range_meters":18000,"station_id":"st_cvj6sg6p6f1abm77japg","pricing_plan_id":"cebpf4jnsgd1na2vs0mg"},{"bike_id":"509a7bc5-3ed4-44a0-83b3-6bbf477b3a61","system_id":"levelo_inurba_marseille","lat":43.21151,"lon":5.3509,"is_reserved":false,"is_disabled":false,"rental_uris":{"android":"levelo://app?vid=509a7bc5-3ed4-44a0-83b3-6bbf477b3a61","ios":"levelo://app?vid=509a7bc5-3ed4-44a0-83b3-6bbf477b3a61"},"vehicle_type_id":"4","last_reported":1747757574,"current_range_meters":18000,"station_id":"st_cvj6sg6p6f1abm77japg","pricing_plan_id":"cebpf4jnsgd1na2vs0mg"},{"bike_id":"f56db87a-1a55-454e-9ccd-59025b315d66","system_id":"levelo_inurba_marseille","lat":43.28032,"lon":5.3694,"is_reserved":false,"is_disabled":false,"rental_uris":{"android":"levelo://app?vid=f56db87a-1a55-454e-9ccd-59025b315d66","ios":"levelo://app?vid=f56db87a-1a55-454e-9ccd-59025b315d66"},"vehicle_type_id":"4","last_reported":1747757574,"current_range_meters":18800,"station_id":"ce4bha12rcd13ifvqef0","pricing_plan_id":"cebpf4jnsgd1na2vs0mg"},{"bike_id":"930caa11-be47-436a-aab5-3334c7621d59","system_id":"levelo_inurba_marseille","lat":43.25588,"lon":5.38205,"is_reserved":false,"is_disabled":false,"rental_uris":{"android":"levelo://app?vid=930caa11-be47-436a-aab5-3334c7621d59","ios":"levelo://app?vid=930caa11-be47-436a-aab5-3334c7621d59"},"vehicle_type_id":"4","last_reported":1747757574,"current_range_meters":18800,"station_id":"ce4bhih2rcd13ifvqfs0","pricing_plan_id":"cebpf4jnsgd1na2vs0mg"},{"bike_id":"a3fd78ff-2ba8-40ac-af17-9d8995bcf078","system_id":"levelo_inurba_marseille","lat":43.30424,"lon":5.41282,"is_reserved":false,"is_disabled":false,"rental_uris":{"android":"levelo://app?vid=a3fd78ff-2ba8-40ac-af17-9d8995bcf078","ios":"levelo://app?vid=a3fd78ff-2ba8-40ac-af17-9d8995bcf078"},"vehicle_type_id":"4","last_reported":1747757574,"current_range_meters":18800,"station_id":"ce4bhop2rcd13ifvqh8g","pricing_plan_id":"cebpf4jnsgd1na2vs0mg"},{"bike_id":"c4f0ddbf-912f-4dc6-81b8-da7688e7978e","system_id":"levelo_inurba_marseille","lat":43.30791,"lon":5.43507,"is_reserved":false,"is_disabled":false,"rental_uris":{"android":"levelo://app?vid=c4f0ddbf-912f-4dc6-81b8-da7688e7978e","ios":"levelo://app?vid=c4f0ddbf-912f-4dc6-81b8-da7688e7978e"},"vehicle_type_id":"4","last_reported":1747757574,"current_range_meters":18800,"station_id":"ce4bhph2rcd13ifvqheg","pricing_plan_id":"cebpf4jnsgd1na2vs0mg"},{"bike_id":"18d4f046-c73b-4ed1-bd45-69ca2f62023e","system_id":"levelo_inurba_marseille","lat":43.22519,"lon":5.3477,"is_reserved":false,"is_disabled":false,"rental_uris":{"android":"levelo://app?vid=18d4f046-c73b-4ed1-bd45-69ca2f62023e","ios":"levelo://app?vid=18d4f046-c73b-4ed1-bd45-69ca2f62023e"},"vehicle_type_id":"4","last_reported":1747757574,"current_range_meters":18800,"station_id":"st_cvj5dfep6f1abm77gieg","pricing_plan_id":"cebpf4jnsgd1na2vs0mg"},{"bike_id":"628c52ae-b897-4dca-953c-8475bb2941d3","system_id":"levelo_inurba_marseille","lat":43.21191,"lon":5.35078,"is_reserved":false,"is_disabled":false,"rental_uris":{"android":"levelo://app?vid=628c52ae-b897-4dca-953c-8475bb2941d3","ios":"levelo://app?vid=628c52ae-b897-4dca-953c-8475bb2941d3"},"vehicle_type_id":"4","last_reported":1747757574,"current_range_meters":18800,"station_id":"st_cvj6sg6p6f1abm77japg","pricing_plan_id":"cebpf4jnsgd1na2vs0mg"},{"bike_id":"8bb7d43c-e583-40c0-9a6a-a2f0c4f03243","system_id":"levelo_inurba_marseille","lat":43.29259,"lon":5.409163,"is_reserved":false,"is_disabled":false,"rental_uris":{"android":"levelo://app?vid=8bb7d43c-e583-40c0-9a6a-a2f0c4f03243","ios":"levelo://app?vid=8bb7d43c-e583-40c0-9a6a-a2f0c4f03243"},"vehicle_type_id":"4","last_reported":1747757574,"current_range_meters":19200,"station_id":"ce4bh192rcd13ifvqdc0","pricing_plan_id":"cebpf4jnsgd1na2vs0mg"},{"bike_id":"ca9f1ee8-0047-4532-9af4-5bc1094c14f7","system_id":"levelo_inurba_marseille","lat":43.29033,"lon":5.38676,"is_reserved":false,"is_disabled":false,"rental_uris":{"android":"levelo://app?vid=ca9f1ee8-0047-4532-9af4-5bc1094c14f7","ios":"levelo://app?vid=ca9f1ee8-0047-4532-9af4-5bc1094c14f7"},"vehicle_type_id":"4","last_reported":1747757574,"current_range_meters":19200,"station_id":"ce4bh4p2rcd13ifvqe0g","pricing_plan_id":"cebpf4jnsgd1na2vs0mg"},{"bike_id":"d8ffba2d-54fe-4943-8261-c06a0966ae68","system_id":"levelo_inurba_marseille","lat":43.26064,"lon":5.39392,"is_reserved":false,"is_disabled":false,"rental_uris":{"android":"levelo://app?vid=d8ffba2d-54fe-4943-8261-c06a0966ae68","ios":"levelo://app?vid=d8ffba2d-54fe-4943-8261-c06a0966ae68"},"vehicle_type_id":"4","last_reported":1747757574,"current_range_meters":19200,"station_id":"ce4bhh92rcd13ifvqfj0","pricing_plan_id":"cebpf4jnsgd1na2vs0mg"},{"bike_id":"ac54cb9d-c717-4084-9363-e0498a0029df","system_id":"levelo_inurba_marseille","lat":43.27969,"lon":5.4104,"is_reserved":false,"is_disabled":false,"rental_uris":{"android":"levelo://app?vid=ac54cb9d-c717-4084-9363-e0498a0029df","ios":"levelo://app?vid=ac54cb9d-c717-4084-9363-e0498a0029df"},"vehicle_type_id":"4","last_reported":1747757574,"current_range_meters":19200,"station_id":"ce4bhnp2rcd13ifvqh0g","pricing_plan_id":"cebpf4jnsgd1na2vs0mg"},{"bike_id":"8f082b97-1537-4819-9324-aa9669be3a5a","system_id":"levelo_inurba_marseille","lat":43.31083,"lon":5.42465,"is_reserved":false,"is_disabled":false,"rental_uris":{"android":"levelo://app?vid=8f082b97-1537-4819-9324-aa9669be3a5a","ios":"levelo://app?vid=8f082b97-1537-4819-9324-aa9669be3a5a"},"vehicle_type_id":"4","last_reported":1747757574,"current_range_meters":19200,"station_id":"ce4bhp92rcd13ifvqhag","pricing_plan_id":"cebpf4jnsgd1na2vs0mg"},{"bike_id":"c9a00e74-029a-454e-8e85-1b3d994b9d78","system_id":"levelo_inurba_marseille","lat":43.21209,"lon":5.35111,"is_reserved":false,"is_disabled":false,"rental_uris":{"android":"levelo://app?vid=c9a00e74-029a-454e-8e85-1b3d994b9d78","ios":"levelo://app?vid=c9a00e74-029a-454e-8e85-1b3d994b9d78"},"vehicle_type_id":"4","last_reported":1747757574,"current_range_meters":19200,"station_id":"st_cvj6sg6p6f1abm77japg","pricing_plan_id":"cebpf4jnsgd1na2vs0mg"},{"bike_id":"98157c4b-7a06-48fd-bcd7-860ac2330434","system_id":"levelo_inurba_marseille","lat":43.29877,"lon":5.39773,"is_reserved":false,"is_disabled":false,"rental_uris":{"android":"levelo://app?vid=98157c4b-7a06-48fd-bcd7-860ac2330434","ios":"levelo://app?vid=98157c4b-7a06-48fd-bcd7-860ac2330434"},"vehicle_type_id":"4","last_reported":1747757574,"current_range_meters":19600,"station_id":"ce4bh0h2rcd13ifvqd50","pricing_plan_id":"cebpf4jnsgd1na2vs0mg"},{"bike_id":"b51e3648-c405-41c7-a6e9-09c5bf7cdfb5","system_id":"levelo_inurba_marseille","lat":43.29046,"lon":5.3592,"is_reserved":false,"is_disabled":false,"rental_uris":{"android":"levelo://app?vid=b51e3648-c405-41c7-a6e9-09c5bf7cdfb5","ios":"levelo://app?vid=b51e3648-c405-41c7-a6e9-09c5bf7cdfb5"},"vehicle_type_id":"4","last_reported":1747757574,"current_range_meters":19600,"station_id":"ce4bha92rcd13ifvqeg0","pricing_plan_id":"cebpf4jnsgd1na2vs0mg"},{"bike_id":"95b2b573-630a-40b0-a96b-e260b0eba945","system_id":"levelo_inurba_marseille","lat":43.25834,"lon":5.39429,"is_reserved":false,"is_disabled":false,"rental_uris":{"android":"levelo://app?vid=95b2b573-630a-40b0-a96b-e260b0eba945","ios":"levelo://app?vid=95b2b573-630a-40b0-a96b-e260b0eba945"},"vehicle_type_id":"4","last_reported":1747757574,"current_range_meters":19600,"station_id":"ce4bhip2rcd13ifvqft0","pricing_plan_id":"cebpf4jnsgd1na2vs0mg"},{"bike_id":"12855e6f-61dd-49d1-a672-739ac41830e6","system_id":"levelo_inurba_marseille","lat":43.28001,"lon":5.41664,"is_reserved":false,"is_disabled":false,"rental_uris":{"android":"levelo://app?vid=12855e6f-61dd-49d1-a672-739ac41830e6","ios":"levelo://app?vid=12855e6f-61dd-49d1-a672-739ac41830e6"},"vehicle_type_id":"4","last_reported":1747757574,"current_range_meters":19600,"station_id":"ce4bho12rcd13ifvqh1g","pricing_plan_id":"cebpf4jnsgd1na2vs0mg"},{"bike_id":"6a1749c5-9676-4c54-b9bb-74e6236a2699","system_id":"levelo_inurba_marseille","lat":43.304984,"lon":5.393226,"is_reserved":false,"is_disabled":false,"rental_uris":{"android":"levelo://app?vid=6a1749c5-9676-4c54-b9bb-74e6236a2699","ios":"levelo://app?vid=6a1749c5-9676-4c54-b9bb-74e6236a2699"},"vehicle_type_id":"4","last_reported":1747757574,"current_range_meters":20000,"station_id":"ce4bgup2rcd13ifvqco0","pricing_plan_id":"cebpf4jnsgd1na2vs0mg"},{"bike_id":"8d91ffe1-7ed0-4097-a685-bf2a602d8b30","system_id":"levelo_inurba_marseille","lat":43.23153,"lon":5.43715,"is_reserved":false,"is_disabled":false,"rental_uris":{"android":"levelo://app?vid=8d91ffe1-7ed0-4097-a685-bf2a602d8b30","ios":"levelo://app?vid=8d91ffe1-7ed0-4097-a685-bf2a602d8b30"},"vehicle_type_id":"4","last_reported":1747757574,"current_range_meters":20000,"station_id":"ce4bhmp2rcd13ifvqgog","pricing_plan_id":"cebpf4jnsgd1na2vs0mg"},{"bike_id":"d93ad4ac-223e-4cfa-933f-c8d1b4994cef","system_id":"levelo_inurba_marseille","lat":43.31761,"lon":5.39012,"is_reserved":false,"is_disabled":false,"rental_uris":{"android":"levelo://app?vid=d93ad4ac-223e-4cfa-933f-c8d1b4994cef","ios":"levelo://app?vid=d93ad4ac-223e-4cfa-933f-c8d1b4994cef"},"vehicle_type_id":"4","last_reported":1747757574,"current_range_meters":20000,"station_id":"ce4bhqp2rcd13ifvqhng","pricing_plan_id":"cebpf4jnsgd1na2vs0mg"},{"bike_id":"13a3c706-0d7d-439c-8cc2-2e1583f6c653","system_id":"levelo_inurba_marseille","lat":43.28722,"lon":5.36091,"is_reserved":false,"is_disabled":false,"rental_uris":{"android":"levelo://app?vid=13a3c706-0d7d-439c-8cc2-2e1583f6c653","ios":"levelo://app?vid=13a3c706-0d7d-439c-8cc2-2e1583f6c653"},"vehicle_type_id":"4","last_reported":1747757574,"current_range_meters":20000,"station_id":"cki0cbj6b192h4jlfktg","pricing_plan_id":"cebpf4jnsgd1na2vs0mg"},{"bike_id":"e781443b-53b4-4bad-9a9b-e01a2c6134b3","system_id":"levelo_inurba_marseille","lat":43.30931,"lon":5.40147,"is_reserved":false,"is_disabled":false,"rental_uris":{"android":"levelo://app?vid=e781443b-53b4-4bad-9a9b-e01a2c6134b3","ios":"levelo://app?vid=e781443b-53b4-4bad-9a9b-e01a2c6134b3"},"vehicle_type_id":"4","last_reported":1747757574,"current_range_meters":20800,"station_id":"ce4bgvp2rcd13ifvqct0","pricing_plan_id":"cebpf4jnsgd1na2vs0mg"},{"bike_id":"ba8f50af-c39c-44aa-ac0b-30a5d74ff3e0","system_id":"levelo_inurba_marseille","lat":43.29253,"lon":5.40898,"is_reserved":false,"is_disabled":false,"rental_uris":{"android":"levelo://app?vid=ba8f50af-c39c-44aa-ac0b-30a5d74ff3e0","ios":"levelo://app?vid=ba8f50af-c39c-44aa-ac0b-30a5d74ff3e0"},"vehicle_type_id":"4","last_reported":1747757574,"current_range_meters":20800,"station_id":"ce4bh192rcd13ifvqdc0","pricing_plan_id":"cebpf4jnsgd1na2vs0mg"},{"bike_id":"2952ade9-356c-4336-99a1-396e23965977","system_id":"levelo_inurba_marseille","lat":43.284088,"lon":5.375015,"is_reserved":false,"is_disabled":false,"rental_uris":{"android":"levelo://app?vid=2952ade9-356c-4336-99a1-396e23965977","ios":"levelo://app?vid=2952ade9-356c-4336-99a1-396e23965977"},"vehicle_type_id":"4","last_reported":1747757574,"current_range_meters":20800,"station_id":"ce4bh412rcd13ifvqds0","pricing_plan_id":"cebpf4jnsgd1na2vs0mg"},{"bike_id":"19ec9e85-c62e-472f-9f0f-f56858ae90af","system_id":"levelo_inurba_marseille","lat":43.290899,"lon":5.371629,"is_reserved":false,"is_disabled":false,"rental_uris":{"android":"levelo://app?vid=19ec9e85-c62e-472f-9f0f-f56858ae90af","ios":"levelo://app?vid=19ec9e85-c62e-472f-9f0f-f56858ae90af"},"vehicle_type_id":"4","last_reported":1747757574,"current_range_meters":20800,"station_id":"ce4bh5p2rcd13ifvqe4g","pricing_plan_id":"cebpf4jnsgd1na2vs0mg"},{"bike_id":"5c9299f6-bc3f-48fe-9ee8-6369779a448d","system_id":"levelo_inurba_marseille","lat":43.27373,"lon":5.36268,"is_reserved":false,"is_disabled":false,"rental_uris":{"android":"levelo://app?vid=5c9299f6-bc3f-48fe-9ee8-6369779a448d","ios":"levelo://app?vid=5c9299f6-bc3f-48fe-9ee8-6369779a448d"},"vehicle_type_id":"4","last_reported":1747757574,"current_range_meters":20800,"station_id":"ce4bhbh2rcd13ifvqeo0","pricing_plan_id":"cebpf4jnsgd1na2vs0mg"},{"bike_id":"9cc5074e-a27e-484a-9ac9-9baacf34c7b6","system_id":"levelo_inurba_marseille","lat":43.27377,"lon":5.36263,"is_reserved":false,"is_disabled":false,"rental_uris":{"android":"levelo://app?vid=9cc5074e-a27e-484a-9ac9-9baacf34c7b6","ios":"levelo://app?vid=9cc5074e-a27e-484a-9ac9-9baacf34c7b6"},"vehicle_type_id":"4","last_reported":1747757574,"current_range_meters":20800,"station_id":"ce4bhbh2rcd13ifvqeo0","pricing_plan_id":"cebpf4jnsgd1na2vs0mg"},{"bike_id":"e7732b4e-c657-419b-a05d-d8ef89fcac35","system_id":"levelo_inurba_marseille","lat":43.28636,"lon":5.35092,"is_reserved":false,"is_disabled":false,"rental_uris":{"android":"levelo://app?vid=e7732b4e-c657-419b-a05d-d8ef89fcac35","ios":"levelo://app?vid=e7732b4e-c657-419b-a05d-d8ef89fcac35"},"vehicle_type_id":"4","last_reported":1747757574,"current_range_meters":20800,"station_id":"ce4bhch2rcd13ifvqeug","pricing_plan_id":"cebpf4jnsgd1na2vs0mg"},{"bike_id":"dc61c065-6ed1-487e-9ecf-5a93a8f61ca7","system_id":"levelo_inurba_marseille","lat":43.23199,"lon":5.40024,"is_reserved":false,"is_disabled":false,"rental_uris":{"android":"levelo://app?vid=dc61c065-6ed1-487e-9ecf-5a93a8f61ca7","ios":"levelo://app?vid=dc61c065-6ed1-487e-9ecf-5a93a8f61ca7"},"vehicle_type_id":"4","last_reported":1747757574,"current_range_meters":20800,"station_id":"ce4bhn12rcd13ifvqgqg","pricing_plan_id":"cebpf4jnsgd1na2vs0mg"},{"bike_id":"512cad48-a180-4060-b1f1-89c6ef5852f2","system_id":"levelo_inurba_marseille","lat":43.23187,"lon":5.399751,"is_reserved":false,"is_disabled":false,"rental_uris":{"android":"levelo://app?vid=512cad48-a180-4060-b1f1-89c6ef5852f2","ios":"levelo://app?vid=512cad48-a180-4060-b1f1-89c6ef5852f2"},"vehicle_type_id":"4","last_reported":1747757574,"current_range_meters":20800,"station_id":"ce4bhn12rcd13ifvqgqg","pricing_plan_id":"cebpf4jnsgd1na2vs0mg"},{"bike_id":"939250ee-6768-490d-9bf0-d03cdc710dee","system_id":"levelo_inurba_marseille","lat":43.28947,"lon":5.36392,"is_reserved":false,"is_disabled":false,"rental_uris":{"android":"levelo://app?vid=939250ee-6768-490d-9bf0-d03cdc710dee","ios":"levelo://app?vid=939250ee-6768-490d-9bf0-d03cdc710dee"},"vehicle_type_id":"4","last_reported":1747757574,"current_range_meters":21600,"station_id":"","pricing_plan_id":"cebpf4jnsgd1na2vs0mg"},{"bike_id":"389fcc63-d97e-455d-b1fa-21426afd2af4","system_id":"levelo_inurba_marseille","lat":43.28489,"lon":5.38419,"is_reserved":false,"is_disabled":false,"rental_uris":{"android":"levelo://app?vid=389fcc63-d97e-455d-b1fa-21426afd2af4","ios":"levelo://app?vid=389fcc63-d97e-455d-b1fa-21426afd2af4"},"vehicle_type_id":"4","last_reported":1747757574,"current_range_meters":21600,"station_id":"ce4bh512rcd13ifvqe3g","pricing_plan_id":"cebpf4jnsgd1na2vs0mg"},{"bike_id":"0060ef0a-d094-4613-ae05-1181b0cde060","system_id":"levelo_inurba_marseille","lat":43.25491,"lon":5.37647,"is_reserved":false,"is_disabled":false,"rental_uris":{"android":"levelo://app?vid=0060ef0a-d094-4613-ae05-1181b0cde060","ios":"levelo://app?vid=0060ef0a-d094-4613-ae05-1181b0cde060"},"vehicle_type_id":"4","last_reported":1747757574,"current_range_meters":21600,"station_id":"ce4bhh12rcd13ifvqff0","pricing_plan_id":"cebpf4jnsgd1na2vs0mg"},{"bike_id":"3066ab39-c657-4d1a-b6d6-7310923f05b2","system_id":"levelo_inurba_marseille","lat":43.275043,"lon":5.424287,"is_reserved":false,"is_disabled":false,"rental_uris":{"android":"levelo://app?vid=3066ab39-c657-4d1a-b6d6-7310923f05b2","ios":"levelo://app?vid=3066ab39-c657-4d1a-b6d6-7310923f05b2"},"vehicle_type_id":"4","last_reported":1747757574,"current_range_meters":21600,"station_id":"ce4bhn92rcd13ifvqgrg","pricing_plan_id":"cebpf4jnsgd1na2vs0mg"},{"bike_id":"4e8967ef-6051-4894-8e58-a237ba1ffb49","system_id":"levelo_inurba_marseille","lat":43.31996,"lon":5.38153,"is_reserved":false,"is_disabled":false,"rental_uris":{"android":"levelo://app?vid=4e8967ef-6051-4894-8e58-a237ba1ffb49","ios":"levelo://app?vid=4e8967ef-6051-4894-8e58-a237ba1ffb49"},"vehicle_type_id":"4","last_reported":1747757574,"current_range_meters":21600,"station_id":"ce4bhr12rcd13ifvqhpg","pricing_plan_id":"cebpf4jnsgd1na2vs0mg"},{"bike_id":"fd89c48f-3c67-44dc-880f-39d276ad199a","system_id":"levelo_inurba_marseille","lat":43.33025,"lon":5.39049,"is_reserved":false,"is_disabled":false,"rental_uris":{"android":"levelo://app?vid=fd89c48f-3c67-44dc-880f-39d276ad199a","ios":"levelo://app?vid=fd89c48f-3c67-44dc-880f-39d276ad199a"},"vehicle_type_id":"4","last_reported":1747757574,"current_range_meters":21600,"station_id":"ce4bhr92rcd13ifvqhrg","pricing_plan_id":"cebpf4jnsgd1na2vs0mg"},{"bike_id":"6316c04a-957e-49bb-82b4-e2f88fa25309","system_id":"levelo_inurba_marseille","lat":43.29037,"lon":5.35925,"is_reserved":false,"is_disabled":false,"rental_uris":{"android":"levelo://app?vid=6316c04a-957e-49bb-82b4-e2f88fa25309","ios":"levelo://app?vid=6316c04a-957e-49bb-82b4-e2f88fa25309"},"vehicle_type_id":"4","last_reported":1747757574,"current_range_meters":22000,"station_id":"ce4bha92rcd13ifvqeg0","pricing_plan_id":"cebpf4jnsgd1na2vs0mg"},{"bike_id":"aed7e37d-689c-4b78-9c51-25567153a08a","system_id":"levelo_inurba_marseille","lat":43.26219,"lon":5.37459,"is_reserved":false,"is_disabled":false,"rental_uris":{"android":"levelo://app?vid=aed7e37d-689c-4b78-9c51-25567153a08a","ios":"levelo://app?vid=aed7e37d-689c-4b78-9c51-25567153a08a"},"vehicle_type_id":"4","last_reported":1747757574,"current_range_meters":22000,"station_id":"ce4bhgp2rcd13ifvqfc0","pricing_plan_id":"cebpf4jnsgd1na2vs0mg"},{"bike_id":"7fa4be75-d207-4b7d-86e6-882fd410f809","system_id":"levelo_inurba_marseille","lat":43.255,"lon":5.3765,"is_reserved":false,"is_disabled":false,"rental_uris":{"android":"levelo://app?vid=7fa4be75-d207-4b7d-86e6-882fd410f809","ios":"levelo://app?vid=7fa4be75-d207-4b7d-86e6-882fd410f809"},"vehicle_type_id":"4","last_reported":1747757574,"current_range_meters":22000,"station_id":"ce4bhh12rcd13ifvqff0","pricing_plan_id":"cebpf4jnsgd1na2vs0mg"},{"bike_id":"961d52e8-6ee8-4ceb-a690-58c92b378268","system_id":"levelo_inurba_marseille","lat":43.27974,"lon":5.41628,"is_reserved":false,"is_disabled":false,"rental_uris":{"android":"levelo://app?vid=961d52e8-6ee8-4ceb-a690-58c92b378268","ios":"levelo://app?vid=961d52e8-6ee8-4ceb-a690-58c92b378268"},"vehicle_type_id":"4","last_reported":1747757574,"current_range_meters":22000,"station_id":"ce4bho12rcd13ifvqh1g","pricing_plan_id":"cebpf4jnsgd1na2vs0mg"},{"bike_id":"ce579e2d-3bfe-46e2-8c45-a0eba325802c","system_id":"levelo_inurba_marseille","lat":43.26116,"lon":5.41467,"is_reserved":false,"is_disabled":false,"rental_uris":{"android":"levelo://app?vid=ce579e2d-3bfe-46e2-8c45-a0eba325802c","ios":"levelo://app?vid=ce579e2d-3bfe-46e2-8c45-a0eba325802c"},"vehicle_type_id":"4","last_reported":1747757574,"current_range_meters":22800,"station_id":"","pricing_plan_id":"cebpf4jnsgd1na2vs0mg"},{"bike_id":"1a8f8977-a11b-4e47-9a19-815966a0e293","system_id":"levelo_inurba_marseille","lat":43.29622,"lon":5.37708,"is_reserved":false,"is_disabled":false,"rental_uris":{"android":"levelo://app?vid=1a8f8977-a11b-4e47-9a19-815966a0e293","ios":"levelo://app?vid=1a8f8977-a11b-4e47-9a19-815966a0e293"},"vehicle_type_id":"4","last_reported":1747757574,"current_range_meters":22800,"station_id":"ce4bgi92rcd13ifvqb90","pricing_plan_id":"cebpf4jnsgd1na2vs0mg"},{"bike_id":"db95b6cc-9acc-4e26-8925-05aedcb5aaa3","system_id":"levelo_inurba_marseille","lat":43.2958,"lon":5.36743,"is_reserved":false,"is_disabled":false,"rental_uris":{"android":"levelo://app?vid=db95b6cc-9acc-4e26-8925-05aedcb5aaa3","ios":"levelo://app?vid=db95b6cc-9acc-4e26-8925-05aedcb5aaa3"},"vehicle_type_id":"4","last_reported":1747757574,"current_range_meters":22800,"station_id":"ce4bgph2rcd13ifvqc2g","pricing_plan_id":"cebpf4jnsgd1na2vs0mg"},{"bike_id":"3c8d63ec-abc6-4d44-9d09-b4e033cee24a","system_id":"levelo_inurba_marseille","lat":43.30324,"lon":5.40426,"is_reserved":false,"is_disabled":false,"rental_uris":{"android":"levelo://app?vid=3c8d63ec-abc6-4d44-9d09-b4e033cee24a","ios":"levelo://app?vid=3c8d63ec-abc6-4d44-9d09-b4e033cee24a"},"vehicle_type_id":"4","last_reported":1747757574,"current_range_meters":22800,"station_id":"ce4bh012rcd13ifvqd10","pricing_plan_id":"cebpf4jnsgd1na2vs0mg"},{"bike_id":"014c42e8-a165-41b7-87d0-0f1d080e6866","system_id":"levelo_inurba_marseille","lat":43.29874,"lon":5.39733,"is_reserved":false,"is_disabled":false,"rental_uris":{"android":"levelo://app?vid=014c42e8-a165-41b7-87d0-0f1d080e6866","ios":"levelo://app?vid=014c42e8-a165-41b7-87d0-0f1d080e6866"},"vehicle_type_id":"4","last_reported":1747757574,"current_range_meters":22800,"station_id":"ce4bh0h2rcd13ifvqd50","pricing_plan_id":"cebpf4jnsgd1na2vs0mg"},{"bike_id":"307db9d8-8e88-4c83-98e7-b36d1bc1b6fb","system_id":"levelo_inurba_marseille","lat":43.29031,"lon":5.38655,"is_reserved":false,"is_disabled":false,"rental_uris":{"android":"levelo://app?vid=307db9d8-8e88-4c83-98e7-b36d1bc1b6fb","ios":"levelo://app?vid=307db9d8-8e88-4c83-98e7-b36d1bc1b6fb"},"vehicle_type_id":"4","last_reported":1747757574,"current_range_meters":22800,"station_id":"ce4bh4p2rcd13ifvqe0g","pricing_plan_id":"cebpf4jnsgd1na2vs0mg"},{"bike_id":"c6ad0a7f-a071-40b0-9e00-500ce3260ca4","system_id":"levelo_inurba_marseille","lat":43.29022,"lon":5.38632,"is_reserved":false,"is_disabled":false,"rental_uris":{"android":"levelo://app?vid=c6ad0a7f-a071-40b0-9e00-500ce3260ca4","ios":"levelo://app?vid=c6ad0a7f-a071-40b0-9e00-500ce3260ca4"},"vehicle_type_id":"4","last_reported":1747757574,"current_range_meters":22800,"station_id":"ce4bh4p2rcd13ifvqe0g","pricing_plan_id":"cebpf4jnsgd1na2vs0mg"},{"bike_id":"b492f957-b6bf-4c4d-96a5-e13e5796d72e","system_id":"levelo_inurba_marseille","lat":43.255,"lon":5.376521,"is_reserved":false,"is_disabled":false,"rental_uris":{"android":"levelo://app?vid=b492f957-b6bf-4c4d-96a5-e13e5796d72e","ios":"levelo://app?vid=b492f957-b6bf-4c4d-96a5-e13e5796d72e"},"vehicle_type_id":"4","last_reported":1747757574,"current_range_meters":22800,"station_id":"ce4bhh12rcd13ifvqff0","pricing_plan_id":"cebpf4jnsgd1na2vs0mg"},{"bike_id":"605365fd-0976-4fcc-a42a-ee810d6ebd22","system_id":"levelo_inurba_marseille","lat":43.250946,"lon":5.395143,"is_reserved":false,"is_disabled":false,"rental_uris":{"android":"levelo://app?vid=605365fd-0976-4fcc-a42a-ee810d6ebd22","ios":"levelo://app?vid=605365fd-0976-4fcc-a42a-ee810d6ebd22"},"vehicle_type_id":"4","last_reported":1747757574,"current_range_meters":22800,"station_id":"ce4bhm12rcd13ifvqgkg","pricing_plan_id":"cebpf4jnsgd1na2vs0mg"},{"bike_id":"ce5a3931-bd80-42b3-8775-e214f7d8f0f3","system_id":"levelo_inurba_marseille","lat":43.29553,"lon":5.42302,"is_reserved":false,"is_disabled":false,"rental_uris":{"android":"levelo://app?vid=ce5a3931-bd80-42b3-8775-e214f7d8f0f3","ios":"levelo://app?vid=ce5a3931-bd80-42b3-8775-e214f7d8f0f3"},"vehicle_type_id":"4","last_reported":1747757574,"current_range_meters":22800,"station_id":"ce4bhph2rcd13ifvqhdg","pricing_plan_id":"cebpf4jnsgd1na2vs0mg"},{"bike_id":"3a48c182-8aa9-4817-97ec-3a2c2ae3fb96","system_id":"levelo_inurba_marseille","lat":43.299,"lon":5.4367,"is_reserved":false,"is_disabled":false,"rental_uris":{"android":"levelo://app?vid=3a48c182-8aa9-4817-97ec-3a2c2ae3fb96","ios":"levelo://app?vid=3a48c182-8aa9-4817-97ec-3a2c2ae3fb96"},"vehicle_type_id":"4","last_reported":1747757574,"current_range_meters":22800,"station_id":"ce4bhpp2rcd13ifvqhfg","pricing_plan_id":"cebpf4jnsgd1na2vs0mg"},{"bike_id":"fdd15e5b-71f5-4bd1-b8ce-7b90685e9d0a","system_id":"levelo_inurba_marseille","lat":43.29531,"lon":5.38557,"is_reserved":false,"is_disabled":false,"rental_uris":{"android":"levelo://app?vid=fdd15e5b-71f5-4bd1-b8ce-7b90685e9d0a","ios":"levelo://app?vid=fdd15e5b-71f5-4bd1-b8ce-7b90685e9d0a"},"vehicle_type_id":"4","last_reported":1747757574,"current_range_meters":23200,"station_id":"ce4bgih2rcd13ifvqba0","pricing_plan_id":"cebpf4jnsgd1na2vs0mg"},{"bike_id":"2c22357a-dfce-41b2-b016-478720286fa2","system_id":"levelo_inurba_marseille","lat":43.2926,"lon":5.40905,"is_reserved":false,"is_disabled":false,"rental_uris":{"android":"levelo://app?vid=2c22357a-dfce-41b2-b016-478720286fa2","ios":"levelo://app?vid=2c22357a-dfce-41b2-b016-478720286fa2"},"vehicle_type_id":"4","last_reported":1747757574,"current_range_meters":23200,"station_id":"ce4bh192rcd13ifvqdc0","pricing_plan_id":"cebpf4jnsgd1na2vs0mg"},{"bike_id":"6e915123-1f95-4ac7-99d7-963c0c072a00","system_id":"levelo_inurba_marseille","lat":43.29259,"lon":5.40902,"is_reserved":false,"is_disabled":false,"rental_uris":{"android":"levelo://app?vid=6e915123-1f95-4ac7-99d7-963c0c072a00","ios":"levelo://app?vid=6e915123-1f95-4ac7-99d7-963c0c072a00"},"vehicle_type_id":"4","last_reported":1747757574,"current_range_meters":23200,"station_id":"ce4bh192rcd13ifvqdc0","pricing_plan_id":"cebpf4jnsgd1na2vs0mg"},{"bike_id":"0b7bbd8d-b012-45e4-822f-b76ad8d095d4","system_id":"levelo_inurba_marseille","lat":43.2989,"lon":5.38915,"is_reserved":false,"is_disabled":false,"rental_uris":{"android":"levelo://app?vid=0b7bbd8d-b012-45e4-822f-b76ad8d095d4","ios":"levelo://app?vid=0b7bbd8d-b012-45e4-822f-b76ad8d095d4"},"vehicle_type_id":"4","last_reported":1747757574,"current_range_meters":23200,"station_id":"ce4bh392rcd13ifvqdl0","pricing_plan_id":"cebpf4jnsgd1na2vs0mg"},{"bike_id":"90cec7ec-d6d9-4619-a7ca-dedb272eaa01","system_id":"levelo_inurba_marseille","lat":43.28934,"lon":5.36638,"is_reserved":false,"is_disabled":false,"rental_uris":{"android":"levelo://app?vid=90cec7ec-d6d9-4619-a7ca-dedb272eaa01","ios":"levelo://app?vid=90cec7ec-d6d9-4619-a7ca-dedb272eaa01"},"vehicle_type_id":"4","last_reported":1747757574,"current_range_meters":23200,"station_id":"ce4bhap2rcd13ifvqek0","pricing_plan_id":"cebpf4jnsgd1na2vs0mg"},{"bike_id":"a0e821bc-6171-480b-aa78-d1b91a611bf1","system_id":"levelo_inurba_marseille","lat":43.26189,"lon":5.37455,"is_reserved":false,"is_disabled":false,"rental_uris":{"android":"levelo://app?vid=a0e821bc-6171-480b-aa78-d1b91a611bf1","ios":"levelo://app?vid=a0e821bc-6171-480b-aa78-d1b91a611bf1"},"vehicle_type_id":"4","last_reported":1747757574,"current_range_meters":23200,"station_id":"ce4bhgp2rcd13ifvqfc0","pricing_plan_id":"cebpf4jnsgd1na2vs0mg"},{"bike_id":"6a0c50dd-b394-49c7-ba0a-cdf92a64c811","system_id":"levelo_inurba_marseille","lat":43.25493,"lon":5.37652,"is_reserved":false,"is_disabled":false,"rental_uris":{"android":"levelo://app?vid=6a0c50dd-b394-49c7-ba0a-cdf92a64c811","ios":"levelo://app?vid=6a0c50dd-b394-49c7-ba0a-cdf92a64c811"},"vehicle_type_id":"4","last_reported":1747757574,"current_range_meters":23200,"station_id":"ce4bhh12rcd13ifvqff0","pricing_plan_id":"cebpf4jnsgd1na2vs0mg"},{"bike_id":"e6aab510-7412-4140-94d8-41cb296d7d21","system_id":"levelo_inurba_marseille","lat":43.2175,"lon":5.34605,"is_reserved":false,"is_disabled":false,"rental_uris":{"android":"levelo://app?vid=e6aab510-7412-4140-94d8-41cb296d7d21","ios":"levelo://app?vid=e6aab510-7412-4140-94d8-41cb296d7d21"},"vehicle_type_id":"4","last_reported":1747757574,"current_range_meters":24000,"station_id":"","pricing_plan_id":"cebpf4jnsgd1na2vs0mg"},{"bike_id":"34abc2b4-e5ec-4dca-ad0f-cdc53827507b","system_id":"levelo_inurba_marseille","lat":43.30874,"lon":5.39638,"is_reserved":false,"is_disabled":false,"rental_uris":{"android":"levelo://app?vid=34abc2b4-e5ec-4dca-ad0f-cdc53827507b","ios":"levelo://app?vid=34abc2b4-e5ec-4dca-ad0f-cdc53827507b"},"vehicle_type_id":"4","last_reported":1747757574,"current_range_meters":24000,"station_id":"ce4bh012rcd13ifvqcv0","pricing_plan_id":"cebpf4jnsgd1na2vs0mg"},{"bike_id":"334cb52f-4466-4eb8-b3e7-14acb974b80d","system_id":"levelo_inurba_marseille","lat":43.298705,"lon":5.397455,"is_reserved":false,"is_disabled":false,"rental_uris":{"android":"levelo://app?vid=334cb52f-4466-4eb8-b3e7-14acb974b80d","ios":"levelo://app?vid=334cb52f-4466-4eb8-b3e7-14acb974b80d"},"vehicle_type_id":"4","last_reported":1747757574,"current_range_meters":24000,"station_id":"ce4bh0h2rcd13ifvqd50","pricing_plan_id":"cebpf4jnsgd1na2vs0mg"},