{"last_updated":1715717359,"ttl":30,"version":"2.2","data":{"bikes":[{"bike_id":"87168baa-9a04-4d56-bbf8-6419b6726ee1","system_id":"levelo_inurba_marseille","lat":43.312239,"lon":5.368562,"is_reserved":false,"is_disabled":false,"rental_uris":{"android":"levelo://app?vid=87168baa-9a04-4d56-bbf8-6419b6726ee1","ios":"levelo://app?vid=87168baa-9a04-4d56-bbf8-6419b6726ee1"},"vehicle_type_id":"4","last_reported":1715717360,"current_range_meters":14000,"station_id":"ce4bgl92rcd13ifvqbq0","pricing_plan_id":"cebpf4jnsgd1na2vs0mg"},{"bike_id":"f0a2a879-2709-424d-98e9-10f8aa5ea90d","system_id":"levelo_inurba_marseille","lat":43.312239,"lon":5.368562,"is_reserved":false,"is_disabled":false,"rental_uris":{"android":"levelo://app?vid=f0a2a879-2709-424d-98e9-10f8aa5ea90d","ios":"levelo://app?vid=f0a2a879-2709-424d-98e9-10f8aa5ea90d"},"vehicle_type_id":"4","last_reported":1715717360,"current_range_meters":6000,"station_id":"ce4bgl92rcd13ifvqbq0","pricing_plan_id":"cebpf4jnsgd1na2vs0mg"},{"bike_id":"1a5ce7ea-ede7-4cb4-9420-ed3eb469ac64","system_id":"levelo_inurba_marseille","lat":43.312239,"lon":5.368562,"is_reserved":false,"is_disabled":false,"rental_uris":{"android":"levelo://app?vid=1a5ce7ea-ede7-4cb4-9420-ed3eb469ac64","ios":"levelo://app?vid=1a5ce7ea-ede7-4cb4-9420-ed3eb469ac64"},"vehicle_type_id":"4","last_reported":1715717360,"current_range_meters":20400,"station_id":"ce4bgl92rcd13ifvqbq0","pricing_plan_id":"cebpf4jnsgd1na2vs0mg"},{"bike_id":"c8cf49fd-e6d3-4318-9e1a-59aa685a4fb6","system_id":"levelo_inurba_marseille","lat":43.309702,"lon":5.368945,"is_reserved":false,"is_disabled":false,"rental_uris":{"android":"levelo://app?vid=c8cf49fd-e6d3-4318-9e1a-59aa685a4fb6","ios":"levelo://app?vid=c8cf49fd-e6d3-4318-9e1a-59aa685a4fb6"},"vehicle_type_id":"4","last_reported":1715717360,"current_range_meters":1200,"station_id":"","pricing_plan_id":"cebpf4jnsgd1na2vs0mg"},{"bike_id":"d79be80e-e971-4f4b-a9d9-f88523c0fa65","system_id":"levelo_inurba_marseille","lat":43.309076,"lon":5.368465,"is_reserved":false,"is_disabled":false,"rental_uris":{"android":"levelo://app?vid=d79be80e-e971-4f4b-a9d9-f88523c0fa65","ios":"levelo://app?vid=d79be80e-e971-4f4b-a9d9-f88523c0fa65"},"vehicle_type_id":"4","last_reported":1715717360,"current_range_meters":24000,"station_id":"ce4bgn92rcd13ifvqbvg","pricing_plan_id":"cebpf4jnsgd1na2vs0mg"},{"bike_id":"db4443ae-d0ca-40db-a0e4-48cc9ce84b98","system_id":"levelo_inurba_marseille","lat":43.309076,"lon":5.368465,"is_reserved":false,"is_disabled":false,"rental_uris":{"android":"levelo://app?vid=db4443ae-d0ca-40db-a0e4-48cc9ce84b98","ios":"levelo://app?vid=db4443ae-d0ca-40db-a0e4-48cc9ce84b98"},"vehicle_type_id":"4","last_reported":1715717360,"current_range_meters":31200,"station_id":"ce4bgn92rcd13ifvqbvg","pricing_plan_id":"cebpf4jnsgd1na2vs0mg"},{"bike_id":"e013b300-7dc0-4e67-9453-087a3f83985b","system_id":"levelo_inurba_marseille","lat":43.309076,"lon":5.368465,"is_reserved":false,"is_disabled":false,"rental_uris":{"android":"levelo://app?vid=e013b300-7dc0-4e67-9453-087a3f83985b","ios":"levelo://app?vid=e013b300-7dc0-4e67-9453-087a3f83985b"},"vehicle_type_id":"4","last_reported":1715717360,"current_range_meters":23600,"station_id":"ce4bgn92rcd13ifvqbvg","pricing_plan_id":"cebpf4jnsgd1na2vs0mg"},{"bike_id":"f37a2bf6-3d38-453f-b985-dcbdd659eb53","system_id":"levelo_inurba_marseille","lat":43.309076,"lon":5.368465,"is_reserved":false,"is_disabled":false,"rental_uris":{"android":"levelo://app?vid=f37a2bf6-3d38-453f-b985-dcbdd659eb53","ios":"levelo://app?vid=f37a2bf6-3d38-453f-b985-dcbdd659eb53"},"vehicle_type_id":"4","last_reported":1715717360,"current_range_meters":0,"station_id":"ce4bgn92rcd13ifvqbvg","pricing_plan_id":"cebpf4jnsgd1na2vs0mg"},{"bike_id":"9991a82c-0444-4090-bc3d-023514794e1f","system_id":"levelo_inurba_marseille","lat":43.309076,"lon":5.368465,"is_reserved":false,"is_disabled":false,"rental_uris":{"android":"levelo://app?vid=9991a82c-0444-4090-bc3d-023514794e1f","ios":"levelo://app?vid=9991a82c-0444-4090-bc3d-023514794e1f"},"vehicle_type_id":"4","last_reported":1715717360,"current_range_meters":29200,"station_id":"ce4bgn92rcd13ifvqbvg","pricing_plan_id":"cebpf4jnsgd1na2vs0mg"},{"bike_id":"2c5cf340-8110-4abb-b180-da05ebcfb3fb","system_id":"levelo_inurba_marseille","lat":43.309076,"lon":5.368465,"is_reserved":false,"is_disabled":false,"rental_uris":{"android":"levelo://app?vid=2c5cf340-8110-4abb-b180-da05ebcfb3fb","ios":"levelo://app?vid=2c5cf340-8110-4abb-b180-da05ebcfb3fb"},"vehicle_type_id":"4","last_reported":1715717360,"current_range_meters":21600,"station_id":"ce4bgn92rcd13ifvqbvg","pricing_plan_id":"cebpf4jnsgd1na2vs0mg"},{"bike_id":"4dd81921-e4b6-4b6d-8fdb-519e885c479c","system_id":"levelo_inurba_marseille","lat":43.309076,"lon":5.368465,"is_reserved":false,"is_disabled":false,"rental_uris":{"android":"levelo://app?vid=4dd81921-e4b6-4b6d-8fdb-519e885c479c","ios":"levelo://app?vid=4dd81921-e4b6-4b6d-8fdb-519e885c479c"},"vehicle_type_id":"4","last_reported":1715717360,"current_range_meters":9200,"station_id":"ce4bgn92rcd13ifvqbvg","pricing_plan_id":"cebpf4jnsgd1na2vs0mg"},{"bike_id":"2ef2cbc0-6568-484b-bd89-e3d72cca1c84","system_id":"levelo_inurba_marseille","lat":43.309042,"lon":5.368497,"is_reserved":false,"is_disabled":false,"rental_uris":{"android":"levelo://app?vid=2ef2cbc0-6568-484b-bd89-e3d72cca1c84","ios":"levelo://app?vid=2ef2cbc0-6568-484b-bd89-e3d72cca1c84"},"vehicle_type_id":"4","last_reported":1715717360,"current_range_meters":13200,"station_id":"ce4bgn92rcd13ifvqbvg","pricing_plan_id":"cebpf4jnsgd1na2vs0mg"},{"bike_id":"ee24d5c6-36b7-4804-8e1b-28ac00c5e744","system_id":"levelo_inurba_marseille","lat":43.309025,"lon":5.368556,"is_reserved":false,"is_disabled":false,"rental_uris":{"android":"levelo://app?vid=ee24d5c6-36b7-4804-8e1b-28ac00c5e744","ios":"levelo://app?vid=ee24d5c6-36b7-4804-8e1b-28ac00c5e744"},"vehicle_type_id":"4","last_reported":1715717360,"current_range_meters":9600,"station_id":"ce4bgn92rcd13ifvqbvg","pricing_plan_id":"cebpf4jnsgd1na2vs0mg"},{"bike_id":"49119149-748f-4691-967a-1a6367a88790","system_id":"levelo_inurba_marseille","lat":43.309076,"lon":5.368465,"is_reserved":false,"is_disabled":false,"rental_uris":{"android":"levelo://app?vid=49119149-748f-4691-967a-1a6367a88790","ios":"levelo://app?vid=49119149-748f-4691-967a-1a6367a88790"},"vehicle_type_id":"4","last_reported":1715717360,"current_range_meters":12800,"station_id":"ce4bgn92rcd13ifvqbvg","pricing_plan_id":"cebpf4jnsgd1na2vs0mg"},{"bike_id":"758e34dd-dca2-4475-a212-7764472bd62f","system_id":"levelo_inurba_marseille","lat":43.309,"lon":5.36851,"is_reserved":false,"is_disabled":false,"rental_uris":{"android":"levelo://app?vid=758e34dd-dca2-4475-a212-7764472bd62f","ios":"levelo://app?vid=758e34dd-dca2-4475-a212-7764472bd62f"},"vehicle_type_id":"4","last_reported":1715717360,"current_range_meters":3600,"station_id":"ce4bgn92rcd13ifvqbvg","pricing_plan_id":"cebpf4jnsgd1na2vs0mg"},{"bike_id":"a98cc8b6-d967-45e8-bd65-29df8703c4e8","system_id":"levelo_inurba_marseille","lat":43.309076,"lon":5.368465,"is_reserved":false,"is_disabled":false,"rental_uris":{"android":"levelo://app?vid=a98cc8b6-d967-45e8-bd65-29df8703c4e8","ios":"levelo://app?vid=a98cc8b6-d967-45e8-bd65-29df8703c4e8"},"vehicle_type_id":"4","last_reported":1715717360,"current_range_meters":17600,"station_id":"ce4bgn92rcd13ifvqbvg","pricing_plan_id":"cebpf4jnsgd1na2vs0mg"},{"bike_id":"786f74ce-e241-4849-873a-fcdf7864bd88","system_id":"levelo_inurba_marseille","lat":43.314811,"lon":5.373103,"is_reserved":false,"is_disabled":false,"rental_uris":{"android":"levelo://app?vid=786f74ce-e241-4849-873a-fcdf7864bd88","ios":"levelo://app?vid=786f74ce-e241-4849-873a-fcdf7864bd88"},"vehicle_type_id":"4","last_reported":1715717360,"current_range_meters":20800,"station_id":"ce4bgt12rcd13ifvqcd0","pricing_plan_id":"cebpf4jnsgd1na2vs0mg"},{"bike_id":"d8f204ae-0c53-4d8b-9302-225ee645a59b","system_id":"levelo_inurba_marseille","lat":43.314811,"lon":5.373103,"is_reserved":false,"is_disabled":false,"rental_uris":{"android":"levelo://app?vid=d8f204ae-0c53-4d8b-9302-225ee645a59b","ios":"levelo://app?vid=d8f204ae-0c53-4d8b-9302-225ee645a59b"},"vehicle_type_id":"4","last_reported":1715717360,"current_range_meters":23200,"station_id":"ce4bgt12rcd13ifvqcd0","pricing_plan_id":"cebpf4jnsgd1na2vs0mg"},{"bike_id":"9da7c32c-e7ea-4a63-9fce-3fa8128fcd4f","system_id":"levelo_inurba_marseille","lat":43.314811,"lon":5.373103,"is_reserved":false,"is_disabled":false,"rental_uris":{"android":"levelo://app?vid=9da7c32c-e7ea-4a63-9fce-3fa8128fcd4f","ios":"levelo://app?vid=9da7c32c-e7ea-4a63-9fce-3fa8128fcd4f"},"vehicle_type_id":"4","last_reported":1715717360,"current_range_meters":25200,"station_id":"ce4bgt12rcd13ifvqcd0","pricing_plan_id":"cebpf4jnsgd1na2vs0mg"},{"bike_id":"d8b60cf8-594a-41ec-af37-84ae47476918","system_id":"levelo_inurba_marseille","lat":43.314811,"lon":5.373103,"is_reserved":false,"is_disabled":false,"rental_uris":{"android":"levelo://app?vid=d8b60cf8-594a-41ec-af37-84ae47476918","ios":"levelo://app?vid=d8b60cf8-594a-41ec-af37-84ae47476918"},"vehicle_type_id":"4","last_reported":1715717360,"current_range_meters":6400,"station_id":"ce4bgt12rcd13ifvqcd0","pricing_plan_id":"cebpf4jnsgd1na2vs0mg"},{"bike_id":"d460936a-3170-4372-bec6-a1f85467a6b2","system_id":"levelo_inurba_marseille","lat":43.314811,"lon":5.373104,"is_reserved":false,"is_disabled":false,"rental_uris":{"android":"levelo://app?vid=d460936a-3170-4372-bec6-a1f85467a6b2","ios":"levelo://app?vid=d460936a-3170-4372-bec6-a1f85467a6b2"},"vehicle_type_id":"4","last_reported":1715717360,"current_range_meters":21600,"station_id":"ce4bgt12rcd13ifvqcd0","pricing_plan_id":"cebpf4jnsgd1na2vs0mg"},{"bike_id":"5d2a9254-747d-4a2c-ad59-a59ba4495260","system_id":"levelo_inurba_marseille","lat":43.314811,"lon":5.373103,"is_reserved":false,"is_disabled":false,"rental_uris":{"android":"levelo://app?vid=5d2a9254-747d-4a2c-ad59-a59ba4495260","ios":"levelo://app?vid=5d2a9254-747d-4a2c-ad59-a59ba4495260"},"vehicle_type_id":"4","last_reported":1715717360,"current_range_meters":8000,"station_id":"ce4bgt12rcd13ifvqcd0","pricing_plan_id":"cebpf4jnsgd1na2vs0mg"},{"bike_id":"0975c56d-2ef7-4353-a259-2cd7c754039e","system_id":"levelo_inurba_marseille","lat":43.314811,"lon":5.373104,"is_reserved":false,"is_disabled":false,"rental_uris":{"android":"levelo://app?vid=0975c56d-2ef7-4353-a259-2cd7c754039e","ios":"levelo://app?vid=0975c56d-2ef7-4353-a259-2cd7c754039e"},"vehicle_type_id":"4","last_reported":1715717360,"current_range_meters":25600,"station_id":"ce4bgt12rcd13ifvqcd0","pricing_plan_id":"cebpf4jnsgd1na2vs0mg"},{"bike_id":"1fabcf90-1199-49a5-9b60-e97f9a1520d3","system_id":"levelo_inurba_marseille","lat":43.314811,"lon":5.373104,"is_reserved":false,"is_disabled":false,"rental_uris":{"android":"levelo://app?vid=1fabcf90-1199-49a5-9b60-e97f9a1520d3","ios":"levelo://app?vid=1fabcf90-1199-49a5-9b60-e97f9a1520d3"},"vehicle_type_id":"4","last_reported":1715717360,"current_range_meters":11600,"station_id":"ce4bgt12rcd13ifvqcd0","pricing_plan_id":"cebpf4jnsgd1na2vs0mg"},{"bike_id":"51d9f976-b9ba-411b-bea2-77083ee50827","system_id":"levelo_inurba_marseille","lat":43.314811,"lon":5.373103,"is_reserved":false,"is_disabled":false,"rental_uris":{"android":"levelo://app?vid=51d9f976-b9ba-411b-bea2-77083ee50827","ios":"levelo://app?vid=51d9f976-b9ba-411b-bea2-77083ee50827"},"vehicle_type_id":"4","last_reported":1715717360,"current_range_meters":23200,"station_id":"ce4bgt12rcd13ifvqcd0","pricing_plan_id":"cebpf4jnsgd1na2vs0mg"},{"bike_id":"f1ced051-d4c0-4895-952f-7f216eec58e9","system_id":"levelo_inurba_marseille","lat":43.309039,"lon":5.371797,"is_reserved":false,"is_disabled":false,"rental_uris":{"android":"levelo://app?vid=f1ced051-d4c0-4895-952f-7f216eec58e9","ios":"levelo://app?vid=f1ced051-d4c0-4895-952f-7f216eec58e9"},"vehicle_type_id":"4","last_reported":1715717360,"current_range_meters":20000,"station_id":"ce4bguh2rcd13ifvqckg","pricing_plan_id":"cebpf4jnsgd1na2vs0mg"},{"bike_id":"6a1d34f8-12ec-498e-9fa9-a935b8ee73e0","system_id":"levelo_inurba_marseille","lat":43.309034,"lon":5.371783,"is_reserved":false,"is_disabled":false,"rental_uris":{"android":"levelo://app?vid=6a1d34f8-12ec-498e-9fa9-a935b8ee73e0","ios":"levelo://app?vid=6a1d34f8-12ec-498e-9fa9-a935b8ee73e0"},"vehicle_type_id":"4","last_reported":1715717360,"current_range_meters":28000,"station_id":"ce4bguh2rcd13ifvqckg","pricing_plan_id":"cebpf4jnsgd1na2vs0mg"},{"bike_id":"13cd2f1c-edd7-4429-838c-1d240343267e","system_id":"levelo_inurba_marseille","lat":43.309039,"lon":5.371797,"is_reserved":false,"is_disabled":false,"rental_uris":{"android":"levelo://app?vid=13cd2f1c-edd7-4429-838c-1d240343267e","ios":"levelo://app?vid=13cd2f1c-edd7-4429-838c-1d240343267e"},"vehicle_type_id":"4","last_reported":1715717360,"current_range_meters":12000,"station_id":"ce4bguh2rcd13ifvqckg","pricing_plan_id":"cebpf4jnsgd1na2vs0mg"},{"bike_id":"32e33dd1-728d-4cb4-94bf-c3f4e13916cb","system_id":"levelo_inurba_marseille","lat":43.30609,"lon":5.36541,"is_reserved":false,"is_disabled":false,"rental_uris":{"android":"levelo://app?vid=32e33dd1-728d-4cb4-94bf-c3f4e13916cb","ios":"levelo://app?vid=32e33dd1-728d-4cb4-94bf-c3f4e13916cb"},"vehicle_type_id":"4","last_reported":1715717360,"current_range_meters":8000,"station_id":"","pricing_plan_id":"cebpf4jnsgd1na2vs0mg"},{"bike_id":"cbc4db1e-6234-40ca-856b-310825cd5ddd","system_id":"levelo_inurba_marseille","lat":43.305408,"lon":5.367213,"is_reserved":false,"is_disabled":false,"rental_uris":{"android":"levelo://app?vid=cbc4db1e-6234-40ca-856b-310825cd5ddd","ios":"levelo://app?vid=cbc4db1e-6234-40ca-856b-310825cd5ddd"},"vehicle_type_id":"4","last_reported":1715717360,"current_range_meters":15600,"station_id":"ce4bgrp2rcd13ifvqc9g","pricing_plan_id":"cebpf4jnsgd1na2vs0mg"},{"bike_id":"b1169806-d65f-4f02-8499-293d2c0d623f","system_id":"levelo_inurba_marseille","lat":43.305989,"lon":5.37225,"is_reserved":false,"is_disabled":false,"rental_uris":{"android":"levelo://app?vid=b1169806-d65f-4f02-8499-293d2c0d623f","ios":"levelo://app?vid=b1169806-d65f-4f02-8499-293d2c0d623f"},"vehicle_type_id":"4","last_reported":1715717360,"current_range_meters":800,"station_id":"ce4bgqh2rcd13ifvqc4g","pricing_plan_id":"cebpf4jnsgd1na2vs0mg"},{"bike_id":"061b9420-f488-4816-850e-a7789ecdfbb4","system_id":"levelo_inurba_marseille","lat":43.305989,"lon":5.37225,"is_reserved":false,"is_disabled":false,"rental_uris":{"android":"levelo://app?vid=061b9420-f488-4816-850e-a7789ecdfbb4","ios":"levelo://app?vid=061b9420-f488-4816-850e-a7789ecdfbb4"},"vehicle_type_id":"4","last_reported":1715717360,"current_range_meters":20800,"station_id":"ce4bgqh2rcd13ifvqc4g","pricing_plan_id":"cebpf4jnsgd1na2vs0mg"},{"bike_id":"e0f4e979-812b-4121-98df-7999a69ac3fd","system_id":"levelo_inurba_marseille","lat":43.305989,"lon":5.37225,"is_reserved":false,"is_disabled":false,"rental_uris":{"android":"levelo://app?vid=e0f4e979-812b-4121-98df-7999a69ac3fd","ios":"levelo://app?vid=e0f4e979-812b-4121-98df-7999a69ac3fd"},"vehicle_type_id":"4","last_reported":1715717360,"current_range_meters":9600,"station_id":"ce4bgqh2rcd13ifvqc4g","pricing_plan_id":"cebpf4jnsgd1na2vs0mg"},{"bike_id":"2bf0ce09-1197-4e06-95fe-aa44299684ae","system_id":"levelo_inurba_marseille","lat":43.305989,"lon":5.37225,"is_reserved":false,"is_disabled":false,"rental_uris":{"android":"levelo://app?vid=2bf0ce09-1197-4e06-95fe-aa44299684ae","ios":"levelo://app?vid=2bf0ce09-1197-4e06-95fe-aa44299684ae"},"vehicle_type_id":"4","last_reported":1715717360,"current_range_meters":28800,"station_id":"ce4bgqh2rcd13ifvqc4g","pricing_plan_id":"cebpf4jnsgd1na2vs0mg"},{"bike_id":"973a0886-0905-4fb3-b4d1-e189571da9ba","system_id":"levelo_inurba_marseille","lat":43.305989,"lon":5.37225,"is_reserved":false,"is_disabled":false,"rental_uris":{"android":"levelo://app?vid=973a0886-0905-4fb3-b4d1-e189571da9ba","ios":"levelo://app?vid=973a0886-0905-4fb3-b4d1-e189571da9ba"},"vehicle_type_id":"4","last_reported":1715717360,"current_range_meters":32000,"station_id":"ce4bgqh2rcd13ifvqc4g","pricing_plan_id":"cebpf4jnsgd1na2vs0mg"},{"bike_id":"eaabc1d6-71c8-4e8a-8958-6bed192f65c3","system_id":"levelo_inurba_marseille","lat":43.305989,"lon":5.37225,"is_reserved":false,"is_disabled":false,"rental_uris":{"android":"levelo://app?vid=eaabc1d6-71c8-4e8a-8958-6bed192f65c3","ios":"levelo://app?vid=eaabc1d6-71c8-4e8a-8958-6bed192f65c3"},"vehicle_type_id":"4","last_reported":1715717360,"current_range_meters":8800,"station_id":"ce4bgqh2rcd13ifvqc4g","pricing_plan_id":"cebpf4jnsgd1na2vs0mg"},{"bike_id":"4a24704c-1fe8-4901-92a1-627ad3a79244","system_id":"levelo_inurba_marseille","lat":43.305989,"lon":5.37225,"is_reserved":false,"is_disabled":false,"rental_uris":{"android":"levelo://app?vid=4a24704c-1fe8-4901-92a1-627ad3a79244","ios":"levelo://app?vid=4a24704c-1fe8-4901-92a1-627ad3a79244"},"vehicle_type_id":"4","last_reported":1715717360,"current_range_meters":22400,"station_id":"ce4bgqh2rcd13ifvqc4g","pricing_plan_id":"cebpf4jnsgd1na2vs0mg"},{"bike_id":"ea383c2d-188f-4e67-8a92-9fdb0485741f","system_id":"levelo_inurba_marseille","lat":43.311131,"lon":5.377651,"is_reserved":false,"is_disabled":false,"rental_uris":{"android":"levelo://app?vid=ea383c2d-188f-4e67-8a92-9fdb0485741f","ios":"levelo://app?vid=ea383c2d-188f-4e67-8a92-9fdb0485741f"},"vehicle_type_id":"4","last_reported":1715717360,"current_range_meters":5200,"station_id":"ce4bgt92rcd13ifvqcg0","pricing_plan_id":"cebpf4jnsgd1na2vs0mg"},{"bike_id":"5e9bf5eb-9d0e-40a2-af25-029142e569b5","system_id":"levelo_inurba_marseille","lat":43.31115,"lon":5.377687,"is_reserved":false,"is_disabled":false,"rental_uris":{"android":"levelo://app?vid=5e9bf5eb-9d0e-40a2-af25-029142e569b5","ios":"levelo://app?vid=5e9bf5eb-9d0e-40a2-af25-029142e569b5"},"vehicle_type_id":"4","last_reported":1715717360,"current_range_meters":9600,"station_id":"ce4bgt92rcd13ifvqcg0","pricing_plan_id":"cebpf4jnsgd1na2vs0mg"},{"bike_id":"360563fd-7024-4aa6-ae51-420eaa019f72","system_id":"levelo_inurba_marseille","lat":43.311131,"lon":5.377651,"is_reserved":false,"is_disabled":false,"rental_uris":{"android":"levelo://app?vid=360563fd-7024-4aa6-ae51-420eaa019f72","ios":"levelo://app?vid=360563fd-7024-4aa6-ae51-420eaa019f72"},"vehicle_type_id":"4","last_reported":1715717360,"current_range_meters":6400,"station_id":"ce4bgt92rcd13ifvqcg0","pricing_plan_id":"cebpf4jnsgd1na2vs0mg"},{"bike_id":"ad4e5e13-d582-431e-aa0a-94957d0df57c","system_id":"levelo_inurba_marseille","lat":43.311131,"lon":5.377651,"is_reserved":false,"is_disabled":false,"rental_uris":{"android":"levelo://app?vid=ad4e5e13-d582-431e-aa0a-94957d0df57c","ios":"levelo://app?vid=ad4e5e13-d582-431e-aa0a-94957d0df57c"},"vehicle_type_id":"4","last_reported":1715717360,"current_range_meters":20800,"station_id":"ce4bgt92rcd13ifvqcg0","pricing_plan_id":"cebpf4jnsgd1na2vs0mg"},{"bike_id":"100b1eb3-cafc-4076-813a-6d2d59783299","system_id":"levelo_inurba_marseille","lat":43.307945,"lon":5.376487,"is_reserved":false,"is_disabled":false,"rental_uris":{"android":"levelo://app?vid=100b1eb3-cafc-4076-813a-6d2d59783299","ios":"levelo://app?vid=100b1eb3-cafc-4076-813a-6d2d59783299"},"vehicle_type_id":"4","last_reported":1715717360,"current_range_meters":9600,"station_id":"ce4bgv92rcd13ifvqcq0","pricing_plan_id":"cebpf4jnsgd1na2vs0mg"},{"bike_id":"7062221c-f03c-42ad-83ec-8e93fa9fa6ff","system_id":"levelo_inurba_marseille","lat":43.307945,"lon":5.376487,"is_reserved":false,"is_disabled":false,"rental_uris":{"android":"levelo://app?vid=7062221c-f03c-42ad-83ec-8e93fa9fa6ff","ios":"levelo://app?vid=7062221c-f03c-42ad-83ec-8e93fa9fa6ff"},"vehicle_type_id":"4","last_reported":1715717360,"current_range_meters":24800,"station_id":"ce4bgv92rcd13ifvqcq0","pricing_plan_id":"cebpf4jnsgd1na2vs0mg"},{"bike_id":"9b2395b7-9076-4186-8efd-f300fee5bb3c","system_id":"levelo_inurba_marseille","lat":43.307945,"lon":5.376487,"is_reserved":false,"is_disabled":false,"rental_uris":{"android":"levelo://app?vid=9b2395b7-9076-4186-8efd-f300fee5bb3c","ios":"levelo://app?vid=9b2395b7-9076-4186-8efd-f300fee5bb3c"},"vehicle_type_id":"4","last_reported":1715717360,"current_range_meters":22400,"station_id":"ce4bgv92rcd13ifvqcq0","pricing_plan_id":"cebpf4jnsgd1na2vs0mg"},{"bike_id":"0abd0800-819c-47f0-85b4-1cb0874a9a90","system_id":"levelo_inurba_marseille","lat":43.307945,"lon":5.376487,"is_reserved":false,"is_disabled":false,"rental_uris":{"android":"levelo://app?vid=0abd0800-819c-47f0-85b4-1cb0874a9a90","ios":"levelo://app?vid=0abd0800-819c-47f0-85b4-1cb0874a9a90"},"vehicle_type_id":"4","last_reported":1715717360,"current_range_meters":10000,"station_id":"ce4bgv92rcd13ifvqcq0","pricing_plan_id":"cebpf4jnsgd1na2vs0mg"},{"bike_id":"a8420d12-5ea1-4553-ba77-74153419b9a1","system_id":"levelo_inurba_marseille","lat":43.307945,"lon":5.376487,"is_reserved":false,"is_disabled":false,"rental_uris":{"android":"levelo://app?vid=a8420d12-5ea1-4553-ba77-74153419b9a1","ios":"levelo://app?vid=a8420d12-5ea1-4553-ba77-74153419b9a1"},"vehicle_type_id":"4","last_reported":1715717360,"current_range_meters":30800,"station_id":"ce4bgv92rcd13ifvqcq0","pricing_plan_id":"cebpf4jnsgd1na2vs0mg"},{"bike_id":"602d0528-bfd8-4cfd-b0cc-14ef04465319","system_id":"levelo_inurba_marseille","lat":43.305283,"lon":5.373214,"is_reserved":false,"is_disabled":false,"rental_uris":{"android":"levelo://app?vid=602d0528-bfd8-4cfd-b0cc-14ef04465319","ios":"levelo://app?vid=602d0528-bfd8-4cfd-b0cc-14ef04465319"},"vehicle_type_id":"4","last_reported":1715717360,"current_range_meters":0,"station_id":"","pricing_plan_id":"cebpf4jnsgd1na2vs0mg"},{"bike_id":"f34ca4af-6022-4b00-b0df-09dc8df3282c","system_id":"levelo_inurba_marseille","lat":43.314811,"lon":5.373104,"is_reserved":false,"is_disabled":false,"rental_uris":{"android":"levelo://app?vid=f34ca4af-6022-4b00-b0df-09dc8df3282c","ios":"levelo://app?vid=f34ca4af-6022-4b00-b0df-09dc8df3282c"},"vehicle_type_id":"4","last_reported":1715717360,"current_range_meters":28800,"station_id":"ce4bgt12rcd13ifvqcd0","pricing_plan_id":"cebpf4jnsgd1na2vs0mg"},{"bike_id":"a4b68111-f029-44f5-a2ec-ce879c7e7226","system_id":"levelo_inurba_marseille","lat":43.303046,"lon":5.368981,"is_reserved":false,"is_disabled":false,"rental_uris":{"android":"levelo://app?vid=a4b68111-f029-44f5-a2ec-ce879c7e7226","ios":"levelo://app?vid=a4b68111-f029-44f5-a2ec-ce879c7e7226"},"vehicle_type_id":"4","last_reported":1715717360,"current_range_meters":27200,"station_id":"ce4bgqh2rcd13ifvqc5g","pricing_plan_id":"cebpf4jnsgd1na2vs0mg"},{"bike_id":"6c0e783c-6ce0-4185-90f4-f800a81a0d3a","system_id":"levelo_inurba_marseille","lat":43.301939,"lon":5.366286,"is_reserved":false,"is_disabled":false,"rental_uris":{"android":"levelo://app?vid=6c0e783c-6ce0-4185-90f4-f800a81a0d3a","ios":"levelo://app?vid=6c0e783c-6ce0-4185-90f4-f800a81a0d3a"},"vehicle_type_id":"4","last_reported":1715717360,"current_range_meters":0,"station_id":"ce4bgrh2rcd13ifvqc8g","pricing_plan_id":"cebpf4jnsgd1na2vs0mg"},{"bike_id":"fd863180-5617-4054-812c-5ceba1bd1fe3","system_id":"levelo_inurba_marseille","lat":43.301939,"lon":5.366286,"is_reserved":false,"is_disabled":false,"rental_uris":{"android":"levelo://app?vid=fd863180-5617-4054-812c-5ceba1bd1fe3","ios":"levelo://app?vid=fd863180-5617-4054-812c-5ceba1bd1fe3"},"vehicle_type_id":"4","last_reported":1715717360,"current_range_meters":30400,"station_id":"ce4bgrh2rcd13ifvqc8g","pricing_plan_id":"cebpf4jnsgd1na2vs0mg"},{"bike_id":"e2123dda-1396-48b5-91e4-2283ae405613","system_id":"levelo_inurba_marseille","lat":43.301939,"lon":5.366286,"is_reserved":false,"is_disabled":false,"rental_uris":{"android":"levelo://app?vid=e2123dda-1396-48b5-91e4-2283ae405613","ios":"levelo://app?vid=e2123dda-1396-48b5-91e4-2283ae405613"},"vehicle_type_id":"4","last_reported":1715717360,"current_range_meters":22400,"station_id":"ce4bgrh2rcd13ifvqc8g","pricing_plan_id":"cebpf4jnsgd1na2vs0mg"},{"bike_id":"db3edbd8-2439-4323-ae04-8b9598decbf4","system_id":"levelo_inurba_marseille","lat":43.308012,"lon":5.381511,"is_reserved":false,"is_disabled":false,"rental_uris":{"android":"levelo://app?vid=db3edbd8-2439-4323-ae04-8b9598decbf4","ios":"levelo://app?vid=db3edbd8-2439-4323-ae04-8b9598decbf4"},"vehicle_type_id":"4","last_reported":1715717360,"current_range_meters":8400,"station_id":"ce4bgt12rcd13ifvqce0","pricing_plan_id":"cebpf4jnsgd1na2vs0mg"},{"bike_id":"a37cdda5-216b-490e-9d2b-eead123fc9e0","system_id":"levelo_inurba_marseille","lat":43.315289,"lon":5.380349,"is_reserved":false,"is_disabled":false,"rental_uris":{"android":"levelo://app?vid=a37cdda5-216b-490e-9d2b-eead123fc9e0","ios":"levelo://app?vid=a37cdda5-216b-490e-9d2b-eead123fc9e0"},"vehicle_type_id":"4","last_reported":1715717360,"current_range_meters":0,"station_id":"ce4bhsp2rcd13ifvqi50","pricing_plan_id":"cebpf4jnsgd1na2vs0mg"},{"bike_id":"73362265-8cd7-46c0-9778-253729a30ca2","system_id":"levelo_inurba_marseille","lat":43.308012,"lon":5.381511,"is_reserved":false,"is_disabled":false,"rental_uris":{"android":"levelo://app?vid=73362265-8cd7-46c0-9778-253729a30ca2","ios":"levelo://app?vid=73362265-8cd7-46c0-9778-253729a30ca2"},"vehicle_type_id":"4","last_reported":1715717360,"current_range_meters":20400,"station_id":"ce4bgt12rcd13ifvqce0","pricing_plan_id":"cebpf4jnsgd1na2vs0mg"},{"bike_id":"4548041c-a467-426f-8046-67aeb0a63ac7","system_id":"levelo_inurba_marseille","lat":43.308012,"lon":5.381511,"is_reserved":false,"is_disabled":false,"rental_uris":{"android":"levelo://app?vid=4548041c-a467-426f-8046-67aeb0a63ac7","ios":"levelo://app?vid=4548041c-a467-426f-8046-67aeb0a63ac7"},"vehicle_type_id":"4","last_reported":1715717360,"current_range_meters":31200,"station_id":"ce4bgt12rcd13ifvqce0","pricing_plan_id":"cebpf4jnsgd1na2vs0mg"},{"bike_id":"53a64435-07f4-4124-ae28-b86356f325be","system_id":"levelo_inurba_marseille","lat":43.308012,"lon":5.381511,"is_reserved":false,"is_disabled":false,"rental_uris":{"android":"levelo://app?vid=53a64435-07f4-4124-ae28-b86356f325be","ios":"levelo://app?vid=53a64435-07f4-4124-ae28-b86356f325be"},"vehicle_type_id":"4","last_reported":1715717360,"current_range_meters":31200,"station_id":"ce4bgt12rcd13ifvqce0","pricing_plan_id":"cebpf4jnsgd1na2vs0mg"},{"bike_id":"23148be7-1e9a-414e-83a6-f34f4678ae80","system_id":"levelo_inurba_marseille","lat":43.308012,"lon":5.381511,"is_reserved":false,"is_disabled":false,"rental_uris":{"android":"levelo://app?vid=23148be7-1e9a-414e-83a6-f34f4678ae80","ios":"levelo://app?vid=23148be7-1e9a-414e-83a6-f34f4678ae80"},"vehicle_type_id":"4","last_reported":1715717360,"current_range_meters":2800,"station_id":"ce4bgt12rcd13ifvqce0","pricing_plan_id":"cebpf4jnsgd1na2vs0mg"},{"bike_id":"d677e702-8adc-4c8e-b75b-0ab94b025ae3","system_id":"levelo_inurba_marseille","lat":43.308012,"lon":5.381511,"is_reserved":false,"is_disabled":false,"rental_uris":{"android":"levelo://app?vid=d677e702-8adc-4c8e-b75b-0ab94b025ae3","ios":"levelo://app?vid=d677e702-8adc-4c8e-b75b-0ab94b025ae3"},"vehicle_type_id":"4","last_reported":1715717360,"current_range_meters":22000,"station_id":"ce4bgt12rcd13ifvqce0","pricing_plan_id":"cebpf4jnsgd1na2vs0mg"},{"bike_id":"14e06141-84dd-45ea-8a77-16b22c4977ac","system_id":"levelo_inurba_marseille","lat":43.308012,"lon":5.381511,"is_reserved":false,"is_disabled":false,"rental_uris":{"android":"levelo://app?vid=14e06141-84dd-45ea-8a77-16b22c4977ac","ios":"levelo://app?vid=14e06141-84dd-45ea-8a77-16b22c4977ac"},"vehicle_type_id":"4","last_reported":1715717360,"current_range_meters":13200,"station_id":"ce4bgt12rcd13ifvqce0","pricing_plan_id":"cebpf4jnsgd1na2vs0mg"},{"bike_id":"05da66d0-04e2-41c5-92ad-d17a6586827a","system_id":"levelo_inurba_marseille","lat":43.308012,"lon":5.381511,"is_reserved":false,"is_disabled":false,"rental_uris":{"android":"levelo://app?vid=05da66d0-04e2-41c5-92ad-d17a6586827a","ios":"levelo://app?vid=05da66d0-04e2-41c5-92ad-d17a6586827a"},"vehicle_type_id":"4","last_reported":1715717360,"current_range_meters":0,"station_id":"ce4bgt12rcd13ifvqce0","pricing_plan_id":"cebpf4jnsgd1na2vs0mg"},{"bike_id":"d37b04bb-d0dc-47f0-867e-e7b931d2bed6","system_id":"levelo_inurba_marseille","lat":43.304606,"lon":5.379026,"is_reserved":false,"is_disabled":false,"rental_uris":{"android":"levelo://app?vid=d37b04bb-d0dc-47f0-867e-e7b931d2bed6","ios":"levelo://app?vid=d37b04bb-d0dc-47f0-867e-e7b931d2bed6"},"vehicle_type_id":"4","last_reported":1715717360,"current_range_meters":29200,"station_id":"ce4bgup2rcd13ifvqcn0","pricing_plan_id":"cebpf4jnsgd1na2vs0mg"},{"bike_id":"f8daff4e-c20f-46fa-aa17-decc56db5c77","system_id":"levelo_inurba_marseille","lat":43.324692,"lon":5.365519,"is_reserved":false,"is_disabled":false,"rental_uris":{"android":"levelo://app?vid=f8daff4e-c20f-46fa-aa17-decc56db5c77","ios":"levelo://app?vid=f8daff4e-c20f-46fa-aa17-decc56db5c77"},"vehicle_type_id":"4","last_reported":1715717360,"current_range_meters":3600,"station_id":"ce4bhs12rcd13ifvqhvg","pricing_plan_id":"cebpf4jnsgd1na2vs0mg"},{"bike_id":"b3305284-c927-4299-8648-9512a466e418","system_id":"levelo_inurba_marseille","lat":43.324771,"lon":5.36557,"is_reserved":false,"is_disabled":false,"rental_uris":{"android":"levelo://app?vid=b3305284-c927-4299-8648-9512a466e418","ios":"levelo://app?vid=b3305284-c927-4299-8648-9512a466e418"},"vehicle_type_id":"4","last_reported":1715717360,"current_range_meters":9200,"station_id":"ce4bhs12rcd13ifvqhvg","pricing_plan_id":"cebpf4jnsgd1na2vs0mg"},{"bike_id":"26bd8217-5511-4bf1-a4d4-7323f3ee6d22","system_id":"levelo_inurba_marseille","lat":43.32474,"lon":5.36561,"is_reserved":false,"is_disabled":false,"rental_uris":{"android":"levelo://app?vid=26bd8217-5511-4bf1-a4d4-7323f3ee6d22","ios":"levelo://app?vid=26bd8217-5511-4bf1-a4d4-7323f3ee6d22"},"vehicle_type_id":"4","last_reported":1715717360,"current_range_meters":22800,"station_id":"ce4bhs12rcd13ifvqhvg","pricing_plan_id":"cebpf4jnsgd1na2vs0mg"},{"bike_id":"de363a9b-b8dd-4f25-97c4-05ca23eea0b0","system_id":"levelo_inurba_marseille","lat":43.324783,"lon":5.365597,"is_reserved":false,"is_disabled":false,"rental_uris":{"android":"levelo://app?vid=de363a9b-b8dd-4f25-97c4-05ca23eea0b0","ios":"levelo://app?vid=de363a9b-b8dd-4f25-97c4-05ca23eea0b0"},"vehicle_type_id":"4","last_reported":1715717360,"current_range_meters":17600,"station_id":"ce4bhs12rcd13ifvqhvg","pricing_plan_id":"cebpf4jnsgd1na2vs0mg"},{"bike_id":"fbb6cef2-0251-45ac-be4c-6827acb26d5a","system_id":"levelo_inurba_marseille","lat":43.324799,"lon":5.36575,"is_reserved":false,"is_disabled":false,"rental_uris":{"android":"levelo://app?vid=fbb6cef2-0251-45ac-be4c-6827acb26d5a","ios":"levelo://app?vid=fbb6cef2-0251-45ac-be4c-6827acb26d5a"},"vehicle_type_id":"4","last_reported":1715717360,"current_range_meters":4000,"station_id":"ce4bhs12rcd13ifvqhvg","pricing_plan_id":"cebpf4jnsgd1na2vs0mg"},{"bike_id":"6f14d4b8-d745-4acc-afa4-80fb43413763","system_id":"levelo_inurba_marseille","lat":43.32481,"lon":5.36558,"is_reserved":false,"is_disabled":false,"rental_uris":{"android":"levelo://app?vid=6f14d4b8-d745-4acc-afa4-80fb43413763","ios":"levelo://app?vid=6f14d4b8-d745-4acc-afa4-80fb43413763"},"vehicle_type_id":"4","last_reported":1715717360,"current_range_meters":4000,"station_id":"ce4bhs12rcd13ifvqhvg","pricing_plan_id":"cebpf4jnsgd1na2vs0mg"},{"bike_id":"d4a18592-1898-44ad-a2df-d97add309de2","system_id":"levelo_inurba_marseille","lat":43.32483,"lon":5.36578,"is_reserved":false,"is_disabled":false,"rental_uris":{"android":"levelo://app?vid=d4a18592-1898-44ad-a2df-d97add309de2","ios":"levelo://app?vid=d4a18592-1898-44ad-a2df-d97add309de2"},"vehicle_type_id":"4","last_reported":1715717360,"current_range_meters":15600,"station_id":"ce4bhs12rcd13ifvqhvg","pricing_plan_id":"cebpf4jnsgd1na2vs0mg"},{"bike_id":"29c9570f-fcf3-488e-89d8-23e99063b819","system_id":"levelo_inurba_marseille","lat":43.324862,"lon":5.365625,"is_reserved":false,"is_disabled":false,"rental_uris":{"android":"levelo://app?vid=29c9570f-fcf3-488e-89d8-23e99063b819","ios":"levelo://app?vid=29c9570f-fcf3-488e-89d8-23e99063b819"},"vehicle_type_id":"4","last_reported":1715717360,"current_range_meters":3200,"station_id":"ce4bhs12rcd13ifvqhvg","pricing_plan_id":"cebpf4jnsgd1na2vs0mg"},{"bike_id":"fc836051-5de0-46f8-a792-c6a0deea6ceb","system_id":"levelo_inurba_marseille","lat":43.324865,"lon":5.365613,"is_reserved":false,"is_disabled":false,"rental_uris":{"android":"levelo://app?vid=fc836051-5de0-46f8-a792-c6a0deea6ceb","ios":"levelo://app?vid=fc836051-5de0-46f8-a792-c6a0deea6ceb"},"vehicle_type_id":"4","last_reported":1715717360,"current_range_meters":6800,"station_id":"ce4bhs12rcd13ifvqhvg","pricing_plan_id":"cebpf4jnsgd1na2vs0mg"},{"bike_id":"792b36fb-fddd-4c78-bafb-f57cf2d604fe","system_id":"levelo_inurba_marseille","lat":43.32489,"lon":5.36566,"is_reserved":false,"is_disabled":false,"rental_uris":{"android":"levelo://app?vid=792b36fb-fddd-4c78-bafb-f57cf2d604fe","ios":"levelo://app?vid=792b36fb-fddd-4c78-bafb-f57cf2d604fe"},"vehicle_type_id":"4","last_reported":1715717360,"current_range_meters":10800,"station_id":"ce4bhs12rcd13ifvqhvg","pricing_plan_id":"cebpf4jnsgd1na2vs0mg"},{"bike_id":"8d096ad2-ca6c-471a-8999-f12667167a4a","system_id":"levelo_inurba_marseille","lat":43.32491,"lon":5.36567,"is_reserved":false,"is_disabled":false,"rental_uris":{"android":"levelo://app?vid=8d096ad2-ca6c-471a-8999-f12667167a4a","ios":"levelo://app?vid=8d096ad2-ca6c-471a-8999-f12667167a4a"},"vehicle_type_id":"4","last_reported":1715717360,"current_range_meters":14000,"station_id":"ce4bhs12rcd13ifvqhvg","pricing_plan_id":"cebpf4jnsgd1na2vs0mg"},{"bike_id":"8a4c057b-7fbb-4f73-a083-f1243d2c8945","system_id":"levelo_inurba_marseille","lat":43.32494,"lon":5.36578,"is_reserved":false,"is_disabled":false,"rental_uris":{"android":"levelo://app?vid=8a4c057b-7fbb-4f73-a083-f1243d2c8945","ios":"levelo://app?vid=8a4c057b-7fbb-4f73-a083-f1243d2c8945"},"vehicle_type_id":"4","last_reported":1715717360,"current_range_meters":22000,"station_id":"ce4bhs12rcd13ifvqhvg","pricing_plan_id":"cebpf4jnsgd1na2vs0mg"},{"bike_id":"3a23cce6-1013-478d-89dd-bc4b1989e7ae","system_id":"levelo_inurba_marseille","lat":43.31068,"lon":5.38352,"is_reserved":false,"is_disabled":false,"rental_uris":{"android":"levelo://app?vid=3a23cce6-1013-478d-89dd-bc4b1989e7ae","ios":"levelo://app?vid=3a23cce6-1013-478d-89dd-bc4b1989e7ae"},"vehicle_type_id":"4","last_reported":1715717360,"current_range_meters":19600,"station_id":"ce4bgv92rcd13ifvqcr0","pricing_plan_id":"cebpf4jnsgd1na2vs0mg"},{"bike_id":"1b99ba07-a9e6-4b52-9387-0a0cdde8bbad","system_id":"levelo_inurba_marseille","lat":43.31068,"lon":5.38352,"is_reserved":false,"is_disabled":false,"rental_uris":{"android":"levelo://app?vid=1b99ba07-a9e6-4b52-9387-0a0cdde8bbad","ios":"levelo://app?vid=1b99ba07-a9e6-4b52-9387-0a0cdde8bbad"},"vehicle_type_id":"4","last_reported":1715717360,"current_range_meters":21200,"station_id":"ce4bgv92rcd13ifvqcr0","pricing_plan_id":"cebpf4jnsgd1na2vs0mg"},{"bike_id":"f49f2bbd-16a5-408f-9194-feed226f5622","system_id":"levelo_inurba_marseille","lat":43.310731,"lon":5.383539,"is_reserved":false,"is_disabled":false,"rental_uris":{"android":"levelo://app?vid=f49f2bbd-16a5-408f-9194-feed226f5622","ios":"levelo://app?vid=f49f2bbd-16a5-408f-9194-feed226f5622"},"vehicle_type_id":"4","last_reported":1715717360,"current_range_meters":17600,"station_id":"ce4bgv92rcd13ifvqcr0","pricing_plan_id":"cebpf4jnsgd1na2vs0mg"},{"bike_id":"df26335f-367c-4c1d-b398-b4cc8ace7e24","system_id":"levelo_inurba_marseille","lat":43.310767,"lon":5.38356,"is_reserved":false,"is_disabled":false,"rental_uris":{"android":"levelo://app?vid=df26335f-367c-4c1d-b398-b4cc8ace7e24","ios":"levelo://app?vid=df26335f-367c-4c1d-b398-b4cc8ace7e24"},"vehicle_type_id":"4","last_reported":1715717360,"current_range_meters":2400,"station_id":"ce4bgv92rcd13ifvqcr0","pricing_plan_id":"cebpf4jnsgd1na2vs0mg"},{"bike_id":"26fb6b3e-70db-45bc-bdfd-91132de9c041","system_id":"levelo_inurba_marseille","lat":43.310638,"lon":5.383532,"is_reserved":false,"is_disabled":false,"rental_uris":{"android":"levelo://app?vid=26fb6b3e-70db-45bc-bdfd-91132de9c041","ios":"levelo://app?vid=26fb6b3e-70db-45bc-bdfd-91132de9c041"},"vehicle_type_id":"4","last_reported":1715717360,"current_range_meters":22800,"station_id":"ce4bgv92rcd13ifvqcr0","pricing_plan_id":"cebpf4jnsgd1na2vs0mg"},{"bike_id":"aaa4a1f9-a30f-4c3f-94ad-38ec6cecbc4d","system_id":"levelo_inurba_marseille","lat":43.31076,"lon":5.38359,"is_reserved":false,"is_disabled":false,"rental_uris":{"android":"levelo://app?vid=aaa4a1f9-a30f-4c3f-94ad-38ec6cecbc4d","ios":"levelo://app?vid=aaa4a1f9-a30f-4c3f-94ad-38ec6cecbc4d"},"vehicle_type_id":"4","last_reported":1715717360,"current_range_meters":5600,"station_id":"ce4bgv92rcd13ifvqcr0","pricing_plan_id":"cebpf4jnsgd1na2vs0mg"},{"bike_id":"34ce25e4-e4e7-4bdd-a1f7-c83ebddb10c1","system_id":"levelo_inurba_marseille","lat":43.310722,"lon":5.383592,"is_reserved":false,"is_disabled":false,"rental_uris":{"android":"levelo://app?vid=34ce25e4-e4e7-4bdd-a1f7-c83ebddb10c1","ios":"levelo://app?vid=34ce25e4-e4e7-4bdd-a1f7-c83ebddb10c1"},"vehicle_type_id":"4","last_reported":1715717360,"current_range_meters":26000,"station_id":"ce4bgv92rcd13ifvqcr0","pricing_plan_id":"cebpf4jnsgd1na2vs0mg"},{"bike_id":"4be734c1-8161-4ccb-9602-ba3c9ae0dd89","system_id":"levelo_inurba_marseille","lat":43.31072,"lon":5.3836,"is_reserved":false,"is_disabled":false,"rental_uris":{"android":"levelo://app?vid=4be734c1-8161-4ccb-9602-ba3c9ae0dd89","ios":"levelo://app?vid=4be734c1-8161-4ccb-9602-ba3c9ae0dd89"},"vehicle_type_id":"4","last_reported":1715717360,"current_range_meters":28000,"station_id":"ce4bgv92rcd13ifvqcr0","pricing_plan_id":"cebpf4jnsgd1na2vs0mg"},{"bike_id":"502b746f-3353-452d-b691-13d6388973c7","system_id":"levelo_inurba_marseille","lat":43.310713,"lon":5.383601,"is_reserved":false,"is_disabled":false,"rental_uris":{"android":"levelo://app?vid=502b746f-3353-452d-b691-13d6388973c7","ios":"levelo://app?vid=502b746f-3353-452d-b691-13d6388973c7"},"vehicle_type_id":"4","last_reported":1715717360,"current_range_meters":10000,"station_id":"ce4bgv92rcd13ifvqcr0","pricing_plan_id":"cebpf4jnsgd1na2vs0mg"},{"bike_id":"609026c2-8426-427e-a9c9-7fca32d844c4","system_id":"levelo_inurba_marseille","lat":43.31073,"lon":5.38361,"is_reserved":false,"is_disabled":false,"rental_uris":{"android":"levelo://app?vid=609026c2-8426-427e-a9c9-7fca32d844c4","ios":"levelo://app?vid=609026c2-8426-427e-a9c9-7fca32d844c4"},"vehicle_type_id":"4","last_reported":1715717360,"current_range_meters":28000,"station_id":"ce4bgv92rcd13ifvqcr0","pricing_plan_id":"cebpf4jnsgd1na2vs0mg"},{"bike_id":"d6b69f8e-fdb8-48d2-9222-b3e4add2b47b","system_id":"levelo_inurba_marseille","lat":43.31077,"lon":5.38368,"is_reserved":false,"is_disabled":false,"rental_uris":{"android":"levelo://app?vid=d6b69f8e-fdb8-48d2-9222-b3e4add2b47b","ios":"levelo://app?vid=d6b69f8e-fdb8-48d2-9222-b3e4add2b47b"},"vehicle_type_id":"4","last_reported":1715717360,"current_range_meters":16800,"station_id":"ce4bgv92rcd13ifvqcr0","pricing_plan_id":"cebpf4jnsgd1na2vs0mg"},{"bike_id":"a7ca4237-9ccb-421e-b935-823a569ee764","system_id":"levelo_inurba_marseille","lat":43.302784,"lon":5.377158,"is_reserved":false,"is_disabled":false,"rental_uris":{"android":"levelo://app?vid=a7ca4237-9ccb-421e-b935-823a569ee764","ios":"levelo://app?vid=a7ca4237-9ccb-421e-b935-823a569ee764"},"vehicle_type_id":"4","last_reported":1715717360,"current_range_meters":4800,"station_id":"ce4bguh2rcd13ifvqcj0","pricing_plan_id":"cebpf4jnsgd1na2vs0mg"},{"bike_id":"2eaa78b5-b7e4-4f80-833d-40ce8ae62d39","system_id":"levelo_inurba_marseille","lat":43.310747,"lon":5.383677,"is_reserved":false,"is_disabled":false,"rental_uris":{"android":"levelo://app?vid=2eaa78b5-b7e4-4f80-833d-40ce8ae62d39","ios":"levelo://app?vid=2eaa78b5-b7e4-4f80-833d-40ce8ae62d39"},"vehicle_type_id":"4","last_reported":1715717360,"current_range_meters":2000,"station_id":"ce4bgv92rcd13ifvqcr0","pricing_plan_id":"cebpf4jnsgd1na2vs0mg"},{"bike_id":"e8efcd67-2ab4-4fd0-a872-a0a8d15b6dde","system_id":"levelo_inurba_marseille","lat":43.31074,"lon":5.38371,"is_reserved":false,"is_disabled":false,"rental_uris":{"android":"levelo://app?vid=e8efcd67-2ab4-4fd0-a872-a0a8d15b6dde","ios":"levelo://app?vid=e8efcd67-2ab4-4fd0-a872-a0a8d15b6dde"},"vehicle_type_id":"4","last_reported":1715717360,"current_range_meters":10000,"station_id":"ce4bgv92rcd13ifvqcr0","pricing_plan_id":"cebpf4jnsgd1na2vs0mg"},{"bike_id":"61f072c6-0481-4a5d-9cbe-5e7d1a2e5d17","system_id":"levelo_inurba_marseille","lat":43.30143,"lon":5.37413,"is_reserved":false,"is_disabled":false,"rental_uris":{"android":"levelo://app?vid=61f072c6-0481-4a5d-9cbe-5e7d1a2e5d17","ios":"levelo://app?vid=61f072c6-0481-4a5d-9cbe-5e7d1a2e5d17"},"vehicle_type_id":"4","last_reported":1715717360,"current_range_meters":0,"station_id":"ce4bgs92rcd13ifvqcc0","pricing_plan_id":"cebpf4jnsgd1na2vs0mg"},{"bike_id":"7c9964ee-3146-428f-9f07-e4e7befd1917","system_id":"levelo_inurba_marseille","lat":43.31998,"lon":5.38148,"is_reserved":false,"is_disabled":false,"rental_uris":{"android":"levelo://app?vid=7c9964ee-3146-428f-9f07-e4e7befd1917","ios":"levelo://app?vid=7c9964ee-3146-428f-9f07-e4e7befd1917"},"vehicle_type_id":"4","last_reported":1715717360,"current_range_meters":6800,"station_id":"ce4bhr12rcd13ifvqhpg","pricing_plan_id":"cebpf4jnsgd1na2vs0mg"},{"bike_id":"322dc9f5-1c77-411f-93f9-2f0dd2188f06","system_id":"levelo_inurba_marseille","lat":43.31997,"lon":5.38151,"is_reserved":false,"is_disabled":false,"rental_uris":{"android":"levelo://app?vid=322dc9f5-1c77-411f-93f9-2f0dd2188f06","ios":"levelo://app?vid=322dc9f5-1c77-411f-93f9-2f0dd2188f06"},"vehicle_type_id":"4","last_reported":1715717360,"current_range_meters":20800,"station_id":"ce4bhr12rcd13ifvqhpg","pricing_plan_id":"cebpf4jnsgd1na2vs0mg"},{"bike_id":"10517439-e3e8-49d0-8671-d22d71d42dda","system_id":"levelo_inurba_marseille","lat":43.319935,"lon":5.381699,"is_reserved":false,"is_disabled":false,"rental_uris":{"android":"levelo://app?vid=10517439-e3e8-49d0-8671-d22d71d42dda","ios":"levelo://app?vid=10517439-e3e8-49d0-8671-d22d71d42dda"},"vehicle_type_id":"4","last_reported":1715717360,"current_range_meters":20000,"station_id":"ce4bhr12rcd13ifvqhpg","pricing_plan_id":"cebpf4jnsgd1na2vs0mg"},{"bike_id":"ca2bdec8-ff54-4fb3-944c-6c2b3e39bc96","system_id":"levelo_inurba_marseille","lat":43.319935,"lon":5.381699,"is_reserved":false,"is_disabled":false,"rental_uris":{"android":"levelo://app?vid=ca2bdec8-ff54-4fb3-944c-6c2b3e39bc96","ios":"levelo://app?vid=ca2bdec8-ff54-4fb3-944c-6c2b3e39bc96"},"vehicle_type_id":"4","last_reported":1715717360,"current_range_meters":4000,"station_id":"ce4bhr12rcd13ifvqhpg","pricing_plan_id":"cebpf4jnsgd1na2vs0mg"},{"bike_id":"66a09170-8eaf-4953-a2af-69761a306be8","system_id":"levelo_inurba_marseille","lat":43.32002,"lon":5.38168,"is_reserved":false,"is_disabled":false,"rental_uris":{"android":"levelo://app?vid=66a09170-8eaf-4953-a2af-69761a306be8","ios":"levelo://app?vid=66a09170-8eaf-4953-a2af-69761a306be8"},"vehicle_type_id":"4","last_reported":1715717360,"current_range_meters":5200,"station_id":"ce4bhr12rcd13ifvqhpg","pricing_plan_id":"cebpf4jnsgd1na2vs0mg"},{"bike_id":"33e2f2da-9257-4d7d-b658-422b3d69f54e","system_id":"levelo_inurba_marseille","lat":43.313571,"lon":5.384829,"is_reserved":false,"is_disabled":false,"rental_uris":{"android":"levelo://app?vid=33e2f2da-9257-4d7d-b658-422b3d69f54e","ios":"levelo://app?vid=33e2f2da-9257-4d7d-b658-422b3d69f54e"},"vehicle_type_id":"4","last_reported":1715717360,"current_range_meters":11600,"station_id":"ce4bgt92rcd13ifvqcf0","pricing_plan_id":"cebpf4jnsgd1na2vs0mg"},{"bike_id":"55242f21-4cbb-4274-8ecf-627563edc326","system_id":"levelo_inurba_marseille","lat":43.313634,"lon":5.385077,"is_reserved":false,"is_disabled":false,"rental_uris":{"android":"levelo://app?vid=55242f21-4cbb-4274-8ecf-627563edc326","ios":"levelo://app?vid=55242f21-4cbb-4274-8ecf-627563edc326"},"vehicle_type_id":"4","last_reported":1715717360,"current_range_meters":0,"station_id":"ce4bgt92rcd13ifvqcf0","pricing_plan_id":"cebpf4jnsgd1na2vs0mg"},{"bike_id":"dad5520f-c74b-4384-9604-3fef096c6ef1","system_id":"levelo_inurba_marseille","lat":43.299724,"lon":5.371829,"is_reserved":false,"is_disabled":false,"rental_uris":{"android":"levelo://app?vid=dad5520f-c74b-4384-9604-3fef096c6ef1","ios":"levelo://app?vid=dad5520f-c74b-4384-9604-3fef096c6ef1"},"vehicle_type_id":"4","last_reported":1715717360,"current_range_meters":5600,"station_id":"ce4bgr92rcd13ifvqc7g","pricing_plan_id":"cebpf4jnsgd1na2vs0mg"},{"bike_id":"bb465212-92bd-42b7-886a-e3fa9bbc5fff","system_id":"levelo_inurba_marseille","lat":43.299222,"lon":5.365554,"is_reserved":false,"is_disabled":false,"rental_uris":{"android":"levelo://app?vid=bb465212-92bd-42b7-886a-e3fa9bbc5fff","ios":"levelo://app?vid=bb465212-92bd-42b7-886a-e3fa9bbc5fff"},"vehicle_type_id":"4","last_reported":1715717360,"current_range_meters":2800,"station_id":"ce4bgm92rcd13ifvqbr0","pricing_plan_id":"cebpf4jnsgd1na2vs0mg"},{"bike_id":"1eb8dcae-3127-4e6c-a419-698accc12214","system_id":"levelo_inurba_marseille","lat":43.299222,"lon":5.365554,"is_reserved":false,"is_disabled":false,"rental_uris":{"android":"levelo://app?vid=1eb8dcae-3127-4e6c-a419-698accc12214","ios":"levelo://app?vid=1eb8dcae-3127-4e6c-a419-698accc12214"},"vehicle_type_id":"4","last_reported":1715717360,"current_range_meters":30000,"station_id":"ce4bgm92rcd13ifvqbr0","pricing_plan_id":"cebpf4jnsgd1na2vs0mg"},{"bike_id":"7f18c4c8-5f8b-4aac-b00a-508fa1da9bee","system_id":"levelo_inurba_marseille","lat":43.299222,"lon":5.365554,"is_reserved":false,"is_disabled":false,"rental_uris":{"android":"levelo://app?vid=7f18c4c8-5f8b-4aac-b00a-508fa1da9bee","ios":"levelo://app?vid=7f18c4c8-5f8b-4aac-b00a-508fa1da9bee"},"vehicle_type_id":"4","last_reported":1715717360,"current_range_meters":22800,"station_id":"ce4bgm92rcd13ifvqbr0","pricing_plan_id":"cebpf4jnsgd1na2vs0mg"},{"bike_id":"b22bc25e-2601-4133-bbc4-f1c0578e9ae6","system_id":"levelo_inurba_marseille","lat":43.2985,"lon":5.36285,"is_reserved":false,"is_disabled":false,"rental_uris":{"android":"levelo://app?vid=b22bc25e-2601-4133-bbc4-f1c0578e9ae6","ios":"levelo://app?vid=b22bc25e-2601-4133-bbc4-f1c0578e9ae6"},"vehicle_type_id":"4","last_reported":1715717360,"current_range_meters":8400,"station_id":"ce4bgpp2rcd13ifvqc3g","pricing_plan_id":"cebpf4jnsgd1na2vs0mg"},{"bike_id":"041f7548-31e1-4ca9-9c06-87d6d0db1327","system_id":"levelo_inurba_marseille","lat":43.305364,"lon":5.384119,"is_reserved":false,"is_disabled":false,"rental_uris":{"android":"levelo://app?vid=041f7548-31e1-4ca9-9c06-87d6d0db1327","ios":"levelo://app?vid=041f7548-31e1-4ca9-9c06-87d6d0db1327"},"vehicle_type_id":"4","last_reported":1715717360,"current_range_meters":29200,"station_id":"ce4bgg92rcd13ifvqb30","pricing_plan_id":"cebpf4jnsgd1na2vs0mg"},{"bike_id":"ac146229-2946-43c3-b872-3c0d78ba965a","system_id":"levelo_inurba_marseille","lat":43.305364,"lon":5.384119,"is_reserved":false,"is_disabled":false,"rental_uris":{"android":"levelo://app?vid=ac146229-2946-43c3-b872-3c0d78ba965a","ios":"levelo://app?vid=ac146229-2946-43c3-b872-3c0d78ba965a"},"vehicle_type_id":"4","last_reported":1715717360,"current_range_meters":16800,"station_id":"ce4bgg92rcd13ifvqb30","pricing_plan_id":"cebpf4jnsgd1na2vs0mg"},{"bike_id":"2f001db5-b6cf-4fd4-a9d1-3f2bec4ddff5","system_id":"levelo_inurba_marseille","lat":43.31178,"lon":5.38713,"is_reserved":false,"is_disabled":false,"rental_uris":{"android":"levelo://app?vid=2f001db5-b6cf-4fd4-a9d1-3f2bec4ddff5","ios":"levelo://app?vid=2f001db5-b6cf-4fd4-a9d1-3f2bec4ddff5"},"vehicle_type_id":"4","last_reported":1715717360,"current_range_meters":0,"station_id":"ce4bgv12rcd13ifvqcp0","pricing_plan_id":"cebpf4jnsgd1na2vs0mg"},{"bike_id":"177e959e-f79e-4405-bc5a-58b35914399c","system_id":"levelo_inurba_marseille","lat":43.311776,"lon":5.38713,"is_reserved":false,"is_disabled":false,"rental_uris":{"android":"levelo://app?vid=177e959e-f79e-4405-bc5a-58b35914399c","ios":"levelo://app?vid=177e959e-f79e-4405-bc5a-58b35914399c"},"vehicle_type_id":"4","last_reported":1715717360,"current_range_meters":20800,"station_id":"ce4bgv12rcd13ifvqcp0","pricing_plan_id":"cebpf4jnsgd1na2vs0mg"},{"bike_id":"09ede002-171b-4ccb-a0e9-cdc69f12186e","system_id":"levelo_inurba_marseille","lat":43.311722,"lon":5.387247,"is_reserved":false,"is_disabled":false,"rental_uris":{"android":"levelo://app?vid=09ede002-171b-4ccb-a0e9-cdc69f12186e","ios":"levelo://app?vid=09ede002-171b-4ccb-a0e9-cdc69f12186e"},"vehicle_type_id":"4","last_reported":1715717360,"current_range_meters":26400,"station_id":"ce4bgv12rcd13ifvqcp0","pricing_plan_id":"cebpf4jnsgd1na2vs0mg"},{"bike_id":"04218321-6caf-45e2-9091-539354288483","system_id":"levelo_inurba_marseille","lat":43.311722,"lon":5.387247,"is_reserved":false,"is_disabled":false,"rental_uris":{"android":"levelo://app?vid=04218321-6caf-45e2-9091-539354288483","ios":"levelo://app?vid=04218321-6caf-45e2-9091-539354288483"},"vehicle_type_id":"4","last_reported":1715717360,"current_range_meters":18400,"station_id":"ce4bgv12rcd13ifvqcp0","pricing_plan_id":"cebpf4jnsgd1na2vs0mg"},{"bike_id":"01e16d34-9bb3-4a97-b364-4f6fba9e1642","system_id":"levelo_inurba_marseille","lat":43.297794,"lon":5.370888,"is_reserved":false,"is_disabled":false,"rental_uris":{"android":"levelo://app?vid=01e16d34-9bb3-4a97-b364-4f6fba9e1642","ios":"levelo://app?vid=01e16d34-9bb3-4a97-b364-4f6fba9e1642"},"vehicle_type_id":"4","last_reported":1715717360,"current_range_meters":13600,"station_id":"ce4bgop2rcd13ifvqc1g","pricing_plan_id":"cebpf4jnsgd1na2vs0mg"},{"bike_id":"9a9e350b-c8ef-462f-92cb-4e94496ae3c7","system_id":"levelo_inurba_marseille","lat":43.297794,"lon":5.370888,"is_reserved":false,"is_disabled":false,"rental_uris":{"android":"levelo://app?vid=9a9e350b-c8ef-462f-92cb-4e94496ae3c7","ios":"levelo://app?vid=9a9e350b-c8ef-462f-92cb-4e94496ae3c7"},"vehicle_type_id":"4","last_reported":1715717360,"current_range_meters":5200,"station_id":"ce4bgop2rcd13ifvqc1g","pricing_plan_id":"cebpf4jnsgd1na2vs0mg"},{"bike_id":"3e9807a8-3858-408b-8e73-4bb509743aea","system_id":"levelo_inurba_marseille","lat":43.297794,"lon":5.370888,"is_reserved":false,"is_disabled":false,"rental_uris":{"android":"levelo://app?vid=3e9807a8-3858-408b-8e73-4bb509743aea","ios":"levelo://app?vid=3e9807a8-3858-408b-8e73-4bb509743aea"},"vehicle_type_id":"4","last_reported":1715717360,"current_range_meters":0,"station_id":"ce4bgop2rcd13ifvqc1g","pricing_plan_id":"cebpf4jnsgd1na2vs0mg"},{"bike_id":"db715c03-a3bc-478f-a7b4-7af75630c45c","system_id":"levelo_inurba_marseille","lat":43.322872,"lon":5.382756,"is_reserved":false,"is_disabled":false,"rental_uris":{"android":"levelo://app?vid=db715c03-a3bc-478f-a7b4-7af75630c45c","ios":"levelo://app?vid=db715c03-a3bc-478f-a7b4-7af75630c45c"},"vehicle_type_id":"4","last_reported":1715717360,"current_range_meters":0,"station_id":"ce4bhr12rcd13ifvqhqg","pricing_plan_id":"cebpf4jnsgd1na2vs0mg"},{"bike_id":"f0b9496e-45b3-4f8c-861e-22986c8402cd","system_id":"levelo_inurba_marseille","lat":43.297794,"lon":5.370888,"is_reserved":false,"is_disabled":false,"rental_uris":{"android":"levelo://app?vid=f0b9496e-45b3-4f8c-861e-22986c8402cd","ios":"levelo://app?vid=f0b9496e-45b3-4f8c-861e-22986c8402cd"},"vehicle_type_id":"4","last_reported":1715717360,"current_range_meters":5600,"station_id":"ce4bgop2rcd13ifvqc1g","pricing_plan_id":"cebpf4jnsgd1na2vs0mg"},{"bike_id":"e0c0350c-2fd9-45ce-8734-dbfb0ce320df","system_id":"levelo_inurba_marseille","lat":43.322872,"lon":5.382756,"is_reserved":false,"is_disabled":false,"rental_uris":{"android":"levelo://app?vid=e0c0350c-2fd9-45ce-8734-dbfb0ce320df","ios":"levelo://app?vid=e0c0350c-2fd9-45ce-8734-dbfb0ce320df"},"vehicle_type_id":"4","last_reported":1715717360,"current_range_meters":12800,"station_id":"ce4bhr12rcd13ifvqhqg","pricing_plan_id":"cebpf4jnsgd1na2vs0mg"},{"bike_id":"d91e0fb7-214c-4ee6-abdc-3908842fa705","system_id":"levelo_inurba_marseille","lat":43.322872,"lon":5.382756,"is_reserved":false,"is_disabled":false,"rental_uris":{"android":"levelo://app?vid=d91e0fb7-214c-4ee6-abdc-3908842fa705","ios":"levelo://app?vid=d91e0fb7-214c-4ee6-abdc-3908842fa705"},"vehicle_type_id":"4","last_reported":1715717360,"current_range_meters":32000,"station_id":"ce4bhr12rcd13ifvqhqg","pricing_plan_id":"cebpf4jnsgd1na2vs0mg"},{"bike_id":"f4bcaac7-0b24-41b4-8d07-a878eab53800","system_id":"levelo_inurba_marseille","lat":43.322872,"lon":5.382756,"is_reserved":false,"is_disabled":false,"rental_uris":{"android":"levelo://app?vid=f4bcaac7-0b24-41b4-8d07-a878eab53800","ios":"levelo://app?vid=f4bcaac7-0b24-41b4-8d07-a878eab53800"},"vehicle_type_id":"4","last_reported":1715717360,"current_range_meters":18400,"station_id":"ce4bhr12rcd13ifvqhqg","pricing_plan_id":"cebpf4jnsgd1na2vs0mg"},{"bike_id":"2f385012-e130-4082-b673-459681c4efc9","system_id":"levelo_inurba_marseille","lat":43.322872,"lon":5.382756,"is_reserved":false,"is_disabled":false,"rental_uris":{"android":"levelo://app?vid=2f385012-e130-4082-b673-459681c4efc9","ios":"levelo://app?vid=2f385012-e130-4082-b673-459681c4efc9"},"vehicle_type_id":"4","last_reported":1715717360,"current_range_meters":21600,"station_id":"ce4bhr12rcd13ifvqhqg","pricing_plan_id":"cebpf4jnsgd1na2vs0mg"},{"bike_id":"b9ca0ff6-e5ff-4ad4-9abd-930936c7034e","system_id":"levelo_inurba_marseille","lat":43.322872,"lon":5.382756,"is_reserved":false,"is_disabled":false,"rental_uris":{"android":"levelo://app?vid=b9ca0ff6-e5ff-4ad4-9abd-930936c7034e","ios":"levelo://app?vid=b9ca0ff6-e5ff-4ad4-9abd-930936c7034e"},"vehicle_type_id":"4","last_reported":1715717360,"current_range_meters":10400,"station_id":"ce4bhr12rcd13ifvqhqg","pricing_plan_id":"cebpf4jnsgd1na2vs0mg"},{"bike_id":"67a0c948-7317-4464-924c-526d4ce2b24c","system_id":"levelo_inurba_marseille","lat":43.322872,"lon":5.382756,"is_reserved":false,"is_disabled":false,"rental_uris":{"android":"levelo://app?vid=67a0c948-7317-4464-924c-526d4ce2b24c","ios":"levelo://app?vid=67a0c948-7317-4464-924c-526d4ce2b24c"},"vehicle_type_id":"4","last_reported":1715717360,"current_range_meters":12800,"station_id":"ce4bhr12rcd13ifvqhqg","pricing_plan_id":"cebpf4jnsgd1na2vs0mg"},{"bike_id":"c25bcbea-5413-48de-8c8b-8a82fea12b9c","system_id":"levelo_inurba_marseille","lat":43.297163,"lon":5.365866,"is_reserved":false,"is_disabled":false,"rental_uris":{"android":"levelo://app?vid=c25bcbea-5413-48de-8c8b-8a82fea12b9c","ios":"levelo://app?vid=c25bcbea-5413-48de-8c8b-8a82fea12b9c"},"vehicle_type_id":"4","last_reported":1715717360,"current_range_meters":12800,"station_id":"ce4bgn12rcd13ifvqbt0","pricing_plan_id":"cebpf4jnsgd1na2vs0mg"},{"bike_id":"29cc725d-4faf-46bd-a890-0684afd1aa17","system_id":"levelo_inurba_marseille","lat":43.297163,"lon":5.365866,"is_reserved":false,"is_disabled":false,"rental_uris":{"android":"levelo://app?vid=29cc725d-4faf-46bd-a890-0684afd1aa17","ios":"levelo://app?vid=29cc725d-4faf-46bd-a890-0684afd1aa17"},"vehicle_type_id":"4","last_reported":1715717360,"current_range_meters":7600,"station_id":"ce4bgn12rcd13ifvqbt0","pricing_plan_id":"cebpf4jnsgd1na2vs0mg"},{"bike_id":"eb32690f-9b92-49bd-8d6e-871767db58ea","system_id":"levelo_inurba_marseille","lat":43.297163,"lon":5.365866,"is_reserved":false,"is_disabled":false,"rental_uris":{"android":"levelo://app?vid=eb32690f-9b92-49bd-8d6e-871767db58ea","ios":"levelo://app?vid=eb32690f-9b92-49bd-8d6e-871767db58ea"},"vehicle_type_id":"4","last_reported":1715717360,"current_range_meters":30400,"station_id":"ce4bgn12rcd13ifvqbt0","pricing_plan_id":"cebpf4jnsgd1na2vs0mg"},{"bike_id":"e45c076d-3384-4e77-8108-1f3156f2c917","system_id":"levelo_inurba_marseille","lat":43.297163,"lon":5.365866,"is_reserved":false,"is_disabled":false,"rental_uris":{"android":"levelo://app?vid=e45c076d-3384-4e77-8108-1f3156f2c917","ios":"levelo://app?vid=e45c076d-3384-4e77-8108-1f3156f2c917"},"vehicle_type_id":"4","last_reported":1715717360,"current_range_meters":3600,"station_id":"ce4bgn12rcd13ifvqbt0","pricing_plan_id":"cebpf4jnsgd1na2vs0mg"},{"bike_id":"4e3c5e3f-bb0f-45c5-a338-f12bc493077a","system_id":"levelo_inurba_marseille","lat":43.297163,"lon":5.365866,"is_reserved":false,"is_disabled":false,"rental_uris":{"android":"levelo://app?vid=4e3c5e3f-bb0f-45c5-a338-f12bc493077a","ios":"levelo://app?vid=4e3c5e3f-bb0f-45c5-a338-f12bc493077a"},"vehicle_type_id":"4","last_reported":1715717360,"current_range_meters":6800,"station_id":"ce4bgn12rcd13ifvqbt0","pricing_plan_id":"cebpf4jnsgd1na2vs0mg"},{"bike_id":"d70e29f3-9757-4b17-a228-3dd0ca943895","system_id":"levelo_inurba_marseille","lat":43.297163,"lon":5.365866,"is_reserved":false,"is_disabled":false,"rental_uris":{"android":"levelo://app?vid=d70e29f3-9757-4b17-a228-3dd0ca943895","ios":"levelo://app?vid=d70e29f3-9757-4b17-a228-3dd0ca943895"},"vehicle_type_id":"4","last_reported":1715717360,"current_range_meters":29600,"station_id":"ce4bgn12rcd13ifvqbt0","pricing_plan_id":"cebpf4jnsgd1na2vs0mg"},{"bike_id":"07f0d640-5e43-42b0-a2f3-7911e41afb15","system_id":"levelo_inurba_marseille","lat":43.297163,"lon":5.365866,"is_reserved":false,"is_disabled":false,"rental_uris":{"android":"levelo://app?vid=07f0d640-5e43-42b0-a2f3-7911e41afb15","ios":"levelo://app?vid=07f0d640-5e43-42b0-a2f3-7911e41afb15"},"vehicle_type_id":"4","last_reported":1715717360,"current_range_meters":22400,"station_id":"ce4bgn12rcd13ifvqbt0","pricing_plan_id":"cebpf4jnsgd1na2vs0mg"},{"bike_id":"54287409-c09b-46a4-a1d0-9de32e647536","system_id":"levelo_inurba_marseille","lat":43.3002,"lon":5.38099,"is_reserved":false,"is_disabled":false,"rental_uris":{"android":"levelo://app?vid=54287409-c09b-46a4-a1d0-9de32e647536","ios":"levelo://app?vid=54287409-c09b-46a4-a1d0-9de32e647536"},"vehicle_type_id":"4","last_reported":1715717360,"current_range_meters":21200,"station_id":"","pricing_plan_id":"cebpf4jnsgd1na2vs0mg"},{"bike_id":"990055a2-b25d-4646-b20d-2dad0a1fca3b","system_id":"levelo_inurba_marseille","lat":43.2968,"lon":5.37291,"is_reserved":false,"is_disabled":false,"rental_uris":{"android":"levelo://app?vid=990055a2-b25d-4646-b20d-2dad0a1fca3b","ios":"levelo://app?vid=990055a2-b25d-4646-b20d-2dad0a1fca3b"},"vehicle_type_id":"4","last_reported":1715717360,"current_range_meters":14000,"station_id":"ce4bgk12rcd13ifvqbj0","pricing_plan_id":"cebpf4jnsgd1na2vs0mg"},{"bike_id":"a1cd3996-1bc3-4bd8-8d12-be8423e3841b","system_id":"levelo_inurba_marseille","lat":43.2968,"lon":5.37291,"is_reserved":false,"is_disabled":false,"rental_uris":{"android":"levelo://app?vid=a1cd3996-1bc3-4bd8-8d12-be8423e3841b","ios":"levelo://app?vid=a1cd3996-1bc3-4bd8-8d12-be8423e3841b"},"vehicle_type_id":"4","last_reported":1715717360,"current_range_meters":22800,"station_id":"ce4bgk12rcd13ifvqbj0","pricing_plan_id":"cebpf4jnsgd1na2vs0mg"},{"bike_id":"81198e6e-2e57-4fe1-86b5-adfd867675ad","system_id":"levelo_inurba_marseille","lat":43.29573,"lon":5.367355,"is_reserved":false,"is_disabled":false,"rental_uris":{"android":"levelo://app?vid=81198e6e-2e57-4fe1-86b5-adfd867675ad","ios":"levelo://app?vid=81198e6e-2e57-4fe1-86b5-adfd867675ad"},"vehicle_type_id":"4","last_reported":1715717360,"current_range_meters":7600,"station_id":"ce4bgph2rcd13ifvqc2g","pricing_plan_id":"cebpf4jnsgd1na2vs0mg"},{"bike_id":"cc532351-c6c3-4236-828e-c12bb8d8da73","system_id":"levelo_inurba_marseille","lat":43.296131,"lon":5.370791,"is_reserved":false,"is_disabled":false,"rental_uris":{"android":"levelo://app?vid=cc532351-c6c3-4236-828e-c12bb8d8da73","ios":"levelo://app?vid=cc532351-c6c3-4236-828e-c12bb8d8da73"},"vehicle_type_id":"4","last_reported":1715717360,"current_range_meters":4800,"station_id":"ce4bgnh2rcd13ifvqc0g","pricing_plan_id":"cebpf4jnsgd1na2vs0mg"},{"bike_id":"dd76bcdd-0b8c-4356-a6ba-26ad1592b2c9","system_id":"levelo_inurba_marseille","lat":43.296129,"lon":5.370777,"is_reserved":false,"is_disabled":false,"rental_uris":{"android":"levelo://app?vid=dd76bcdd-0b8c-4356-a6ba-26ad1592b2c9","ios":"levelo://app?vid=dd76bcdd-0b8c-4356-a6ba-26ad1592b2c9"},"vehicle_type_id":"4","last_reported":1715717360,"current_range_meters":25200,"station_id":"ce4bgnh2rcd13ifvqc0g","pricing_plan_id":"cebpf4jnsgd1na2vs0mg"},{"bike_id":"a63f996a-5793-4cc0-856d-9b402cf69791","system_id":"levelo_inurba_marseille","lat":43.296131,"lon":5.370791,"is_reserved":false,"is_disabled":false,"rental_uris":{"android":"levelo://app?vid=a63f996a-5793-4cc0-856d-9b402cf69791","ios":"levelo://app?vid=a63f996a-5793-4cc0-856d-9b402cf69791"},"vehicle_type_id":"4","last_reported":1715717360,"current_range_meters":24800,"station_id":"ce4bgnh2rcd13ifvqc0g","pricing_plan_id":"cebpf4jnsgd1na2vs0mg"},{"bike_id":"37221cea-424d-4ee6-8f23-0b5477d4131e","system_id":"levelo_inurba_marseille","lat":43.296131,"lon":5.370791,"is_reserved":false,"is_disabled":false,"rental_uris":{"android":"levelo://app?vid=37221cea-424d-4ee6-8f23-0b5477d4131e","ios":"levelo://app?vid=37221cea-424d-4ee6-8f23-0b5477d4131e"},"vehicle_type_id":"4","last_reported":1715717360,"current_range_meters":26000,"station_id":"ce4bgnh2rcd13ifvqc0g","pricing_plan_id":"cebpf4jnsgd1na2vs0mg"},{"bike_id":"cdecc9ab-3e94-4eee-9152-334fd6e66dcb","system_id":"levelo_inurba_marseille","lat":43.29573,"lon":5.367355,"is_reserved":false,"is_disabled":false,"rental_uris":{"android":"levelo://app?vid=cdecc9ab-3e94-4eee-9152-334fd6e66dcb","ios":"levelo://app?vid=cdecc9ab-3e94-4eee-9152-334fd6e66dcb"},"vehicle_type_id":"4","last_reported":1715717360,"current_range_meters":5600,"station_id":"ce4bgph2rcd13ifvqc2g","pricing_plan_id":"cebpf4jnsgd1na2vs0mg"},{"bike_id":"c2929806-cbb9-40b4-9438-21bdda28a02c","system_id":"levelo_inurba_marseille","lat":43.29573,"lon":5.367355,"is_reserved":false,"is_disabled":false,"rental_uris":{"android":"levelo://app?vid=c2929806-cbb9-40b4-9438-21bdda28a02c","ios":"levelo://app?vid=c2929806-cbb9-40b4-9438-21bdda28a02c"},"vehicle_type_id":"4","last_reported":1715717360,"current_range_meters":26800,"station_id":"ce4bgph2rcd13ifvqc2g","pricing_plan_id":"cebpf4jnsgd1na2vs0mg"},{"bike_id":"50605c54-1e04-4b8a-aa3a-581167cf024b","system_id":"levelo_inurba_marseille","lat":43.299028,"lon":5.381509,"is_reserved":false,"is_disabled":false,"rental_uris":{"android":"levelo://app?vid=50605c54-1e04-4b8a-aa3a-581167cf024b","ios":"levelo://app?vid=50605c54-1e04-4b8a-aa3a-581167cf024b"},"vehicle_type_id":"4","last_reported":1715717360,"current_range_meters":0,"station_id":"ce4bgj12rcd13ifvqbc0","pricing_plan_id":"cebpf4jnsgd1na2vs0mg"},{"bike_id":"e4342ff4-4630-4a37-9e1e-6309debabeb6","system_id":"levelo_inurba_marseille","lat":43.296921,"lon":5.376579,"is_reserved":false,"is_disabled":false,"rental_uris":{"android":"levelo://app?vid=e4342ff4-4630-4a37-9e1e-6309debabeb6","ios":"levelo://app?vid=e4342ff4-4630-4a37-9e1e-6309debabeb6"},"vehicle_type_id":"4","last_reported":1715717360,"current_range_meters":11600,"station_id":"ce4bgkh2rcd13ifvqbl0","pricing_plan_id":"cebpf4jnsgd1na2vs0mg"},{"bike_id":"c4fb91c1-fd28-405a-a860-c51f7205f26f","system_id":"levelo_inurba_marseille","lat":43.296921,"lon":5.376579,"is_reserved":false,"is_disabled":false,"rental_uris":{"android":"levelo://app?vid=c4fb91c1-fd28-405a-a860-c51f7205f26f","ios":"levelo://app?vid=c4fb91c1-fd28-405a-a860-c51f7205f26f"},"vehicle_type_id":"4","last_reported":1715717360,"current_range_meters":25200,"station_id":"ce4bgkh2rcd13ifvqbl0","pricing_plan_id":"cebpf4jnsgd1na2vs0mg"},{"bike_id":"1aee550a-bfe9-443a-8836-bdf2fe67b3ba","system_id":"levelo_inurba_marseille","lat":43.29909,"lon":5.38149,"is_reserved":false,"is_disabled":false,"rental_uris":{"android":"levelo://app?vid=1aee550a-bfe9-443a-8836-bdf2fe67b3ba","ios":"levelo://app?vid=1aee550a-bfe9-443a-8836-bdf2fe67b3ba"},"vehicle_type_id":"4","last_reported":1715717360,"current_range_meters":18000,"station_id":"ce4bgj12rcd13ifvqbc0","pricing_plan_id":"cebpf4jnsgd1na2vs0mg"},{"bike_id":"5112ef8c-f97e-44a9-87ef-ea3f091e185a","system_id":"levelo_inurba_marseille","lat":43.29911,"lon":5.38153,"is_reserved":false,"is_disabled":false,"rental_uris":{"android":"levelo://app?vid=5112ef8c-f97e-44a9-87ef-ea3f091e185a","ios":"levelo://app?vid=5112ef8c-f97e-44a9-87ef-ea3f091e185a"},"vehicle_type_id":"4","last_reported":1715717360,"current_range_meters":12000,"station_id":"ce4bgj12rcd13ifvqbc0","pricing_plan_id":"cebpf4jnsgd1na2vs0mg"},{"bike_id":"7f13ee3f-b56b-4131-bc2b-ac1c15134dff","system_id":"levelo_inurba_marseille","lat":43.29906,"lon":5.38147,"is_reserved":false,"is_disabled":false,"rental_uris":{"android":"levelo://app?vid=7f13ee3f-b56b-4131-bc2b-ac1c15134dff","ios":"levelo://app?vid=7f13ee3f-b56b-4131-bc2b-ac1c15134dff"},"vehicle_type_id":"4","last_reported":1715717360,"current_range_meters":0,"station_id":"ce4bgj12rcd13ifvqbc0","pricing_plan_id":"cebpf4jnsgd1na2vs0mg"},{"bike_id":"0190a6bc-8145-4c92-bf15-66bc240ee241","system_id":"levelo_inurba_marseille","lat":43.296935,"lon":5.376544,"is_reserved":false,"is_disabled":false,"rental_uris":{"android":"levelo://app?vid=0190a6bc-8145-4c92-bf15-66bc240ee241","ios":"levelo://app?vid=0190a6bc-8145-4c92-bf15-66bc240ee241"},"vehicle_type_id":"4","last_reported":1715717360,"current_range_meters":2000,"station_id":"ce4bgkh2rcd13ifvqbl0","pricing_plan_id":"cebpf4jnsgd1na2vs0mg"},{"bike_id":"73c6919c-4008-44ad-99d1-e2b032fc8836","system_id":"levelo_inurba_marseille","lat":43.309589,"lon":5.390258,"is_reserved":false,"is_disabled":false,"rental_uris":{"android":"levelo://app?vid=73c6919c-4008-44ad-99d1-e2b032fc8836","ios":"levelo://app?vid=73c6919c-4008-44ad-99d1-e2b032fc8836"},"vehicle_type_id":"4","last_reported":1715717360,"current_range_meters":5600,"station_id":"ce4bgup2rcd13ifvqco0","pricing_plan_id":"cebpf4jnsgd1na2vs0mg"},{"bike_id":"eb248ebd-7078-4781-959b-d271048004bb","system_id":"levelo_inurba_marseille","lat":43.309589,"lon":5.390258,"is_reserved":false,"is_disabled":false,"rental_uris":{"android":"levelo://app?vid=eb248ebd-7078-4781-959b-d271048004bb","ios":"levelo://app?vid=eb248ebd-7078-4781-959b-d271048004bb"},"vehicle_type_id":"4","last_reported":1715717360,"current_range_meters":20400,"station_id":"ce4bgup2rcd13ifvqco0","pricing_plan_id":"cebpf4jnsgd1na2vs0mg"},{"bike_id":"9f92934e-359e-4ec3-a2ce-e7425242753a","system_id":"levelo_inurba_marseille","lat":43.317557,"lon":5.390173,"is_reserved":false,"is_disabled":false,"rental_uris":{"android":"levelo://app?vid=9f92934e-359e-4ec3-a2ce-e7425242753a","ios":"levelo://app?vid=9f92934e-359e-4ec3-a2ce-e7425242753a"},"vehicle_type_id":"4","last_reported":1715717360,"current_range_meters":31200,"station_id":"ce4bhqp2rcd13ifvqhng","pricing_plan_id":"cebpf4jnsgd1na2vs0mg"},{"bike_id":"585ab414-65bb-46a8-8588-d7e966926b60","system_id":"levelo_inurba_marseille","lat":43.317557,"lon":5.390173,"is_reserved":false,"is_disabled":false,"rental_uris":{"android":"levelo://app?vid=585ab414-65bb-46a8-8588-d7e966926b60","ios":"levelo://app?vid=585ab414-65bb-46a8-8588-d7e966926b60"},"vehicle_type_id":"4","last_reported":1715717360,"current_range_meters":28000,"station_id":"ce4bhqp2rcd13ifvqhng","pricing_plan_id":"cebpf4jnsgd1na2vs0mg"},{"bike_id":"a7f7ea1c-2b20-49ec-8d3c-29d10357b155","system_id":"levelo_inurba_marseille","lat":43.317557,"lon":5.390173,"is_reserved":false,"is_disabled":false,"rental_uris":{"android":"levelo://app?vid=a7f7ea1c-2b20-49ec-8d3c-29d10357b155","ios":"levelo://app?vid=a7f7ea1c-2b20-49ec-8d3c-29d10357b155"},"vehicle_type_id":"4","last_reported":1715717360,"current_range_meters":21600,"station_id":"ce4bhqp2rcd13ifvqhng","pricing_plan_id":"cebpf4jnsgd1na2vs0mg"},{"bike_id":"3fca99d0-3b12-4a35-9226-2099fb230415","system_id":"levelo_inurba_marseille","lat":43.317557,"lon":5.390173,"is_reserved":false,"is_disabled":false,"rental_uris":{"android":"levelo://app?vid=3fca99d0-3b12-4a35-9226-2099fb230415","ios":"levelo://app?vid=3fca99d0-3b12-4a35-9226-2099fb230415"},"vehicle_type_id":"4","last_reported":1715717360,"current_range_meters":16400,"station_id":"ce4bhqp2rcd13ifvqhng","pricing_plan_id":"cebpf4jnsgd1na2vs0mg"},{"bike_id":"2e3e3723-e59a-4fac-9056-2f8e028989a6","system_id":"levelo_inurba_marseille","lat":43.317557,"lon":5.390173,"is_reserved":false,"is_disabled":false,"rental_uris":{"android":"levelo://app?vid=2e3e3723-e59a-4fac-9056-2f8e028989a6","ios":"levelo://app?vid=2e3e3723-e59a-4fac-9056-2f8e028989a6"},"vehicle_type_id":"4","last_reported":1715717360,"current_range_meters":25600,"station_id":"ce4bhqp2rcd13ifvqhng","pricing_plan_id":"cebpf4jnsgd1na2vs0mg"},{"bike_id":"c5d87719-624c-4088-9cc1-ac290b3aaebd","system_id":"levelo_inurba_marseille","lat":43.317557,"lon":5.390173,"is_reserved":false,"is_disabled":false,"rental_uris":{"android":"levelo://app?vid=c5d87719-624c-4088-9cc1-ac290b3aaebd","ios":"levelo://app?vid=c5d87719-624c-4088-9cc1-ac290b3aaebd"},"vehicle_type_id":"4","last_reported":1715717360,"current_range_meters":31600,"station_id":"ce4bhqp2rcd13ifvqhng","pricing_plan_id":"cebpf4jnsgd1na2vs0mg"},{"bike_id":"2efdd286-5466-44fe-97f9-683c4bf6f31d","system_id":"levelo_inurba_marseille","lat":43.317557,"lon":5.390173,"is_reserved":false,"is_disabled":false,"rental_uris":{"android":"levelo://app?vid=2efdd286-5466-44fe-97f9-683c4bf6f31d","ios":"levelo://app?vid=2efdd286-5466-44fe-97f9-683c4bf6f31d"},"vehicle_type_id":"4","last_reported":1715717360,"current_range_meters":12400,"station_id":"ce4bhqp2rcd13ifvqhng","pricing_plan_id":"cebpf4jnsgd1na2vs0mg"},{"bike_id":"5bd247f9-c9c0-4830-a82f-4dad46257c4f","system_id":"levelo_inurba_marseille","lat":43.304353,"lon":5.388881,"is_reserved":false,"is_disabled":false,"rental_uris":{"android":"levelo://app?vid=5bd247f9-c9c0-4830-a82f-4dad46257c4f","ios":"levelo://app?vid=5bd247f9-c9c0-4830-a82f-4dad46257c4f"},"vehicle_type_id":"4","last_reported":1715717360,"current_range_meters":19600,"station_id":"ce4bgk12rcd13ifvqbi0","pricing_plan_id":"cebpf4jnsgd1na2vs0mg"},{"bike_id":"8955f168-fbde-4ed2-a88c-c5ef2d9a4cd3","system_id":"levelo_inurba_marseille","lat":43.30434,"lon":5.38891,"is_reserved":false,"is_disabled":false,"rental_uris":{"android":"levelo://app?vid=8955f168-fbde-4ed2-a88c-c5ef2d9a4cd3","ios":"levelo://app?vid=8955f168-fbde-4ed2-a88c-c5ef2d9a4cd3"},"vehicle_type_id":"4","last_reported":1715717360,"current_range_meters":0,"station_id":"ce4bgk12rcd13ifvqbi0","pricing_plan_id":"cebpf4jnsgd1na2vs0mg"},{"bike_id":"3cc3d3b3-9549-4ccd-b1b2-387dfadd8e82","system_id":"levelo_inurba_marseille","lat":43.304274,"lon":5.388873,"is_reserved":false,"is_disabled":false,"rental_uris":{"android":"levelo://app?vid=3cc3d3b3-9549-4ccd-b1b2-387dfadd8e82","ios":"levelo://app?vid=3cc3d3b3-9549-4ccd-b1b2-387dfadd8e82"},"vehicle_type_id":"4","last_reported":1715717360,"current_range_meters":23600,"station_id":"ce4bgk12rcd13ifvqbi0","pricing_plan_id":"cebpf4jnsgd1na2vs0mg"},{"bike_id":"7457285b-3b5a-4f2a-9381-efe119363e9a","system_id":"levelo_inurba_marseille","lat":43.304267,"lon":5.388898,"is_reserved":false,"is_disabled":false,"rental_uris":{"android":"levelo://app?vid=7457285b-3b5a-4f2a-9381-efe119363e9a","ios":"levelo://app?vid=7457285b-3b5a-4f2a-9381-efe119363e9a"},"vehicle_type_id":"4","last_reported":1715717360,"current_range_meters":22000,"station_id":"ce4bgk12rcd13ifvqbi0","pricing_plan_id":"cebpf4jnsgd1na2vs0mg"},{"bike_id":"3d182202-6d31-4918-8926-774f9fccad19","system_id":"levelo_inurba_marseille","lat":43.30434,"lon":5.38896,"is_reserved":false,"is_disabled":false,"rental_uris":{"android":"levelo://app?vid=3d182202-6d31-4918-8926-774f9fccad19","ios":"levelo://app?vid=3d182202-6d31-4918-8926-774f9fccad19"},"vehicle_type_id":"4","last_reported":1715717360,"current_range_meters":8000,"station_id":"ce4bgk12rcd13ifvqbi0","pricing_plan_id":"cebpf4jnsgd1na2vs0mg"},{"bike_id":"d2c98bd5-9741-49f7-b922-d0453e711900","system_id":"levelo_inurba_marseille","lat":43.296263,"lon":5.377094,"is_reserved":false,"is_disabled":false,"rental_uris":{"android":"levelo://app?vid=d2c98bd5-9741-49f7-b922-d0453e711900","ios":"levelo://app?vid=d2c98bd5-9741-49f7-b922-d0453e711900"},"vehicle_type_id":"4","last_reported":1715717360,"current_range_meters":18400,"station_id":"ce4bgi92rcd13ifvqb90","pricing_plan_id":"cebpf4jnsgd1na2vs0mg"},{"bike_id":"34f4ad93-b6ab-4fee-a266-e13395fbd4fc","system_id":"levelo_inurba_marseille","lat":43.296277,"lon":5.377108,"is_reserved":false,"is_disabled":false,"rental_uris":{"android":"levelo://app?vid=34f4ad93-b6ab-4fee-a266-e13395fbd4fc","ios":"levelo://app?vid=34f4ad93-b6ab-4fee-a266-e13395fbd4fc"},"vehicle_type_id":"4","last_reported":1715717360,"current_range_meters":24400,"station_id":"ce4bgi92rcd13ifvqb90","pricing_plan_id":"cebpf4jnsgd1na2vs0mg"},{"bike_id":"0b543ce5-f8e1-473e-84e3-f4e85578d187","system_id":"levelo_inurba_marseille","lat":43.296277,"lon":5.377108,"is_reserved":false,"is_disabled":false,"rental_uris":{"android":"levelo://app?vid=0b543ce5-f8e1-473e-84e3-f4e85578d187","ios":"levelo://app?vid=0b543ce5-f8e1-473e-84e3-f4e85578d187"},"vehicle_type_id":"4","last_reported":1715717360,"current_range_meters":10000,"station_id":"ce4bgi92rcd13ifvqb90","pricing_plan_id":"cebpf4jnsgd1na2vs0mg"},{"bike_id":"395358b1-dbde-4af9-8d5c-b97d76694da1","system_id":"levelo_inurba_marseille","lat":43.299707,"lon":5.384859,"is_reserved":false,"is_disabled":false,"rental_uris":{"android":"levelo://app?vid=395358b1-dbde-4af9-8d5c-b97d76694da1","ios":"levelo://app?vid=395358b1-dbde-4af9-8d5c-b97d76694da1"},"vehicle_type_id":"4","last_reported":1715717360,"current_range_meters":24400,"station_id":"ce4bgj92rcd13ifvqbd0","pricing_plan_id":"cebpf4jnsgd1na2vs0mg"},{"bike_id":"a4d2cc0a-f3ff-450a-9b6e-9b13071a6b88","system_id":"levelo_inurba_marseille","lat":43.296277,"lon":5.377108,"is_reserved":false,"is_disabled":false,"rental_uris":{"android":"levelo://app?vid=a4d2cc0a-f3ff-450a-9b6e-9b13071a6b88","ios":"levelo://app?vid=a4d2cc0a-f3ff-450a-9b6e-9b13071a6b88"},"vehicle_type_id":"4","last_reported":1715717360,"current_range_meters":1600,"station_id":"ce4bgi92rcd13ifvqb90","pricing_plan_id":"cebpf4jnsgd1na2vs0mg"},{"bike_id":"982532b3-e9f8-4485-b470-405bbb2067e0","system_id":"levelo_inurba_marseille","lat":43.299707,"lon":5.384859,"is_reserved":false,"is_disabled":false,"rental_uris":{"android":"levelo://app?vid=982532b3-e9f8-4485-b470-405bbb2067e0","ios":"levelo://app?vid=982532b3-e9f8-4485-b470-405bbb2067e0"},"vehicle_type_id":"4","last_reported":1715717360,"current_range_meters":26000,"station_id":"ce4bgj92rcd13ifvqbd0","pricing_plan_id":"cebpf4jnsgd1na2vs0mg"},{"bike_id":"6d546a66-f572-4c56-bd0c-2035c3c484d8","system_id":"levelo_inurba_marseille","lat":43.29975,"lon":5.38498,"is_reserved":false,"is_disabled":false,"rental_uris":{"android":"levelo://app?vid=6d546a66-f572-4c56-bd0c-2035c3c484d8","ios":"levelo://app?vid=6d546a66-f572-4c56-bd0c-2035c3c484d8"},"vehicle_type_id":"4","last_reported":1715717360,"current_range_meters":16800,"station_id":"ce4bgj92rcd13ifvqbd0","pricing_plan_id":"cebpf4jnsgd1na2vs0mg"},{"bike_id":"e99a661a-87b0-4001-8d8a-1cbb933c2a9a","system_id":"levelo_inurba_marseille","lat":43.299717,"lon":5.384845,"is_reserved":false,"is_disabled":false,"rental_uris":{"android":"levelo://app?vid=e99a661a-87b0-4001-8d8a-1cbb933c2a9a","ios":"levelo://app?vid=e99a661a-87b0-4001-8d8a-1cbb933c2a9a"},"vehicle_type_id":"4","last_reported":1715717360,"current_range_meters":19600,"station_id":"ce4bgj92rcd13ifvqbd0","pricing_plan_id":"cebpf4jnsgd1na2vs0mg"},{"bike_id":"5266ae84-e6f5-4f6f-91f6-cdb8d4570538","system_id":"levelo_inurba_marseille","lat":43.29969,"lon":5.38503,"is_reserved":false,"is_disabled":false,"rental_uris":{"android":"levelo://app?vid=5266ae84-e6f5-4f6f-91f6-cdb8d4570538","ios":"levelo://app?vid=5266ae84-e6f5-4f6f-91f6-cdb8d4570538"},"vehicle_type_id":"4","last_reported":1715717360,"current_range_meters":25600,"station_id":"ce4bgj92rcd13ifvqbd0","pricing_plan_id":"cebpf4jnsgd1na2vs0mg"},{"bike_id":"28973a7f-c62b-42c1-ac3d-64a360a0f5d3","system_id":"levelo_inurba_marseille","lat":43.295279,"lon":5.375048,"is_reserved":false,"is_disabled":false,"rental_uris":{"android":"levelo://app?vid=28973a7f-c62b-42c1-ac3d-64a360a0f5d3","ios":"levelo://app?vid=28973a7f-c62b-42c1-ac3d-64a360a0f5d3"},"vehicle_type_id":"4","last_reported":1715717360,"current_range_meters":0,"station_id":"ce4bgkp2rcd13ifvqbmg","pricing_plan_id":"cebpf4jnsgd1na2vs0mg"},{"bike_id":"f9498fb6-1070-4173-b91a-92854ab4dfae","system_id":"levelo_inurba_marseille","lat":43.295279,"lon":5.375048,"is_reserved":false,"is_disabled":false,"rental_uris":{"android":"levelo://app?vid=f9498fb6-1070-4173-b91a-92854ab4dfae","ios":"levelo://app?vid=f9498fb6-1070-4173-b91a-92854ab4dfae"},"vehicle_type_id":"4","last_reported":1715717360,"current_range_meters":24400,"station_id":"ce4bgkp2rcd13ifvqbmg","pricing_plan_id":"cebpf4jnsgd1na2vs0mg"},{"bike_id":"f027fa8c-b71c-43c5-a901-f2f05f342bdd","system_id":"levelo_inurba_marseille","lat":43.32363,"lon":5.38882,"is_reserved":false,"is_disabled":false,"rental_uris":{"android":"levelo://app?vid=f027fa8c-b71c-43c5-a901-f2f05f342bdd","ios":"levelo://app?vid=f027fa8c-b71c-43c5-a901-f2f05f342bdd"},"vehicle_type_id":"4","last_reported":1715717360,"current_range_meters":1200,"station_id":"ce4bhqp2rcd13ifvqhog","pricing_plan_id":"cebpf4jnsgd1na2vs0mg"},{"bike_id":"150f9ad8-d5fa-45ae-a613-ec1b7f216e33","system_id":"levelo_inurba_marseille","lat":43.32365,"lon":5.388886,"is_reserved":false,"is_disabled":false,"rental_uris":{"android":"levelo://app?vid=150f9ad8-d5fa-45ae-a613-ec1b7f216e33","ios":"levelo://app?vid=150f9ad8-d5fa-45ae-a613-ec1b7f216e33"},"vehicle_type_id":"4","last_reported":1715717360,"current_range_meters":7600,"station_id":"ce4bhqp2rcd13ifvqhog","pricing_plan_id":"cebpf4jnsgd1na2vs0mg"},{"bike_id":"c457b344-55ea-4f60-9419-16977d65cd5c","system_id":"levelo_inurba_marseille","lat":43.32367,"lon":5.388836,"is_reserved":false,"is_disabled":false,"rental_uris":{"android":"levelo://app?vid=c457b344-55ea-4f60-9419-16977d65cd5c","ios":"levelo://app?vid=c457b344-55ea-4f60-9419-16977d65cd5c"},"vehicle_type_id":"4","last_reported":1715717360,"current_range_meters":17200,"station_id":"ce4bhqp2rcd13ifvqhog","pricing_plan_id":"cebpf4jnsgd1na2vs0mg"},{"bike_id":"c0a12801-a229-461f-b8cb-7ffc627d2291","system_id":"levelo_inurba_marseille","lat":43.32368,"lon":5.38887,"is_reserved":false,"is_disabled":false,"rental_uris":{"android":"levelo://app?vid=c0a12801-a229-461f-b8cb-7ffc627d2291","ios":"levelo://app?vid=c0a12801-a229-461f-b8cb-7ffc627d2291"},"vehicle_type_id":"4","last_reported":1715717360,"current_range_meters":0,"station_id":"ce4bhqp2rcd13ifvqhog","pricing_plan_id":"cebpf4jnsgd1na2vs0mg"},{"bike_id":"b3326f62-e5a2-47c4-bbfa-b50e6d18cde7","system_id":"levelo_inurba_marseille","lat":43.29602,"lon":5.381084,"is_reserved":false,"is_disabled":false,"rental_uris":{"android":"levelo://app?vid=b3326f62-e5a2-47c4-bbfa-b50e6d18cde7","ios":"levelo://app?vid=b3326f62-e5a2-47c4-bbfa-b50e6d18cde7"},"vehicle_type_id":"4","last_reported":1715717360,"current_range_meters":16800,"station_id":"ce4bgl12rcd13ifvqbo0","pricing_plan_id":"cebpf4jnsgd1na2vs0mg"},{"bike_id":"607cd347-a368-4807-b9eb-439af33070a1","system_id":"levelo_inurba_marseille","lat":43.295909,"lon":5.381057,"is_reserved":false,"is_disabled":false,"rental_uris":{"android":"levelo://app?vid=607cd347-a368-4807-b9eb-439af33070a1","ios":"levelo://app?vid=607cd347-a368-4807-b9eb-439af33070a1"},"vehicle_type_id":"4","last_reported":1715717360,"current_range_meters":11600,"station_id":"ce4bgl12rcd13ifvqbo0","pricing_plan_id":"cebpf4jnsgd1na2vs0mg"},{"bike_id":"7fad38a3-1539-4e0f-a055-50b22bcb0d77","system_id":"levelo_inurba_marseille","lat":43.293249,"lon":5.371578,"is_reserved":false,"is_disabled":false,"rental_uris":{"android":"levelo://app?vid=7fad38a3-1539-4e0f-a055-50b22bcb0d77","ios":"levelo://app?vid=7fad38a3-1539-4e0f-a055-50b22bcb0d77"},"vehicle_type_id":"4","last_reported":1715717360,"current_range_meters":0,"station_id":"ce4bgh92rcd13ifvqb40","pricing_plan_id":"cebpf4jnsgd1na2vs0mg"},{"bike_id":"9d4be17d-40a6-46e7-842a-b3af24202994","system_id":"levelo_inurba_marseille","lat":43.292749,"lon":5.368402,"is_reserved":false,"is_disabled":false,"rental_uris":{"android":"levelo://app?vid=9d4be17d-40a6-46e7-842a-b3af24202994","ios":"levelo://app?vid=9d4be17d-40a6-46e7-842a-b3af24202994"},"vehicle_type_id":"4","last_reported":1715717360,"current_range_meters":18000,"station_id":"ce4bhbp2rcd13ifvqesg","pricing_plan_id":"cebpf4jnsgd1na2vs0mg"},{"bike_id":"cd7f30f4-6048-4b91-9cc3-5e27a3394947","system_id":"levelo_inurba_marseille","lat":43.305994,"lon":5.393687,"is_reserved":false,"is_disabled":false,"rental_uris":{"android":"levelo://app?vid=cd7f30f4-6048-4b91-9cc3-5e27a3394947","ios":"levelo://app?vid=cd7f30f4-6048-4b91-9cc3-5e27a3394947"},"vehicle_type_id":"4","last_reported":1715717360,"current_range_meters":24000,"station_id":"ce4bh0p2rcd13ifvqd80","pricing_plan_id":"cebpf4jnsgd1na2vs0mg"},{"bike_id":"3c7b7483-e45b-446b-8358-66aacfa44fbd","system_id":"levelo_inurba_marseille","lat":43.305994,"lon":5.393687,"is_reserved":false,"is_disabled":false,"rental_uris":{"android":"levelo://app?vid=3c7b7483-e45b-446b-8358-66aacfa44fbd","ios":"levelo://app?vid=3c7b7483-e45b-446b-8358-66aacfa44fbd"},"vehicle_type_id":"4","last_reported":1715717360,"current_range_meters":16000,"station_id":"ce4bh0p2rcd13ifvqd80","pricing_plan_id":"cebpf4jnsgd1na2vs0mg"},{"bike_id":"f2b97561-5d0c-4116-80b7-c1968d238ab5","system_id":"levelo_inurba_marseille","lat":43.293009,"lon":5.374584,"is_reserved":false,"is_disabled":false,"rental_uris":{"android":"levelo://app?vid=f2b97561-5d0c-4116-80b7-c1968d238ab5","ios":"levelo://app?vid=f2b97561-5d0c-4116-80b7-c1968d238ab5"},"vehicle_type_id":"4","last_reported":1715717360,"current_range_meters":8800,"station_id":"ce4bgi12rcd13ifvqb70","pricing_plan_id":"cebpf4jnsgd1na2vs0mg"},{"bike_id":"885faa68-ba63-496e-aade-acbea86a957c","system_id":"levelo_inurba_marseille","lat":43.305994,"lon":5.393687,"is_reserved":false,"is_disabled":false,"rental_uris":{"android":"levelo://app?vid=885faa68-ba63-496e-aade-acbea86a957c","ios":"levelo://app?vid=885faa68-ba63-496e-aade-acbea86a957c"},"vehicle_type_id":"4","last_reported":1715717360,"current_range_meters":6000,"station_id":"ce4bh0p2rcd13ifvqd80","pricing_plan_id":"cebpf4jnsgd1na2vs0mg"},{"bike_id":"d5d74bc6-0800-4dab-9453-9e62b97cbc35","system_id":"levelo_inurba_marseille","lat":43.302992,"lon":5.392136,"is_reserved":false,"is_disabled":false,"rental_uris":{"android":"levelo://app?vid=d5d74bc6-0800-4dab-9453-9e62b97cbc35","ios":"levelo://app?vid=d5d74bc6-0800-4dab-9453-9e62b97cbc35"},"vehicle_type_id":"4","last_reported":1715717360,"current_range_meters":0,"station_id":"ce4bgkh2rcd13ifvqbk0","pricing_plan_id":"cebpf4jnsgd1na2vs0mg"},{"bike_id":"3d03c70f-50ad-49d6-a56b-f9f2ec1d4d73","system_id":"levelo_inurba_marseille","lat":43.302992,"lon":5.392136,"is_reserved":false,"is_disabled":false,"rental_uris":{"android":"levelo://app?vid=3d03c70f-50ad-49d6-a56b-f9f2ec1d4d73","ios":"levelo://app?vid=3d03c70f-50ad-49d6-a56b-f9f2ec1d4d73"},"vehicle_type_id":"4","last_reported":1715717360,"current_range_meters":11200,"station_id":"ce4bgkh2rcd13ifvqbk0","pricing_plan_id":"cebpf4jnsgd1na2vs0mg"},{"bike_id":"816f130b-fe3d-43d6-b75b-2587af691e43","system_id":"levelo_inurba_marseille","lat":43.302992,"lon":5.392136,"is_reserved":false,"is_disabled":false,"rental_uris":{"android":"levelo://app?vid=816f130b-fe3d-43d6-b75b-2587af691e43","ios":"levelo://app?vid=816f130b-fe3d-43d6-b75b-2587af691e43"},"vehicle_type_id":"4","last_reported":1715717360,"current_range_meters":3200,"station_id":"ce4bgkh2rcd13ifvqbk0","pricing_plan_id":"cebpf4jnsgd1na2vs0mg"},{"bike_id":"65f9794e-ebaf-4057-a8d9-58439bbce9c2","system_id":"levelo_inurba_marseille","lat":43.313291,"lon":5.396838,"is_reserved":false,"is_disabled":false,"rental_uris":{"android":"levelo://app?vid=65f9794e-ebaf-4057-a8d9-58439bbce9c2","ios":"levelo://app?vid=65f9794e-ebaf-4057-a8d9-58439bbce9c2"},"vehicle_type_id":"4","last_reported":1715717360,"current_range_meters":22400,"station_id":"ce4bgvp2rcd13ifvqcu0","pricing_plan_id":"cebpf4jnsgd1na2vs0mg"},{"bike_id":"91266183-f089-41f9-b680-9b6f42362c41","system_id":"levelo_inurba_marseille","lat":43.293653,"lon":5.378497,"is_reserved":false,"is_disabled":false,"rental_uris":{"android":"levelo://app?vid=91266183-f089-41f9-b680-9b6f42362c41","ios":"levelo://app?vid=91266183-f089-41f9-b680-9b6f42362c41"},"vehicle_type_id":"4","last_reported":1715717360,"current_range_meters":11600,"station_id":"","pricing_plan_id":"cebpf4jnsgd1na2vs0mg"},{"bike_id":"3599b515-2911-4c39-9ac8-0d2799490de3","system_id":"levelo_inurba_marseille","lat":43.2936,"lon":5.37835,"is_reserved":false,"is_disabled":false,"rental_uris":{"android":"levelo://app?vid=3599b515-2911-4c39-9ac8-0d2799490de3","ios":"levelo://app?vid=3599b515-2911-4c39-9ac8-0d2799490de3"},"vehicle_type_id":"4","last_reported":1715717360,"current_range_meters":3600,"station_id":"ce4bgjh2rcd13ifvqbf0","pricing_plan_id":"cebpf4jnsgd1na2vs0mg"},{"bike_id":"6a149f53-7922-43e6-85ac-1308801f7e65","system_id":"levelo_inurba_marseille","lat":43.300958,"lon":5.390702,"is_reserved":false,"is_disabled":false,"rental_uris":{"android":"levelo://app?vid=6a149f53-7922-43e6-85ac-1308801f7e65","ios":"levelo://app?vid=6a149f53-7922-43e6-85ac-1308801f7e65"},"vehicle_type_id":"4","last_reported":1715717360,"current_range_meters":21200,"station_id":"ce4bh192rcd13ifvqdb0","pricing_plan_id":"cebpf4jnsgd1na2vs0mg"},{"bike_id":"03e1d0bf-4287-43f8-b847-e9731c0d028d","system_id":"levelo_inurba_marseille","lat":43.292311,"lon":5.360731,"is_reserved":false,"is_disabled":false,"rental_uris":{"android":"levelo://app?vid=03e1d0bf-4287-43f8-b847-e9731c0d028d","ios":"levelo://app?vid=03e1d0bf-4287-43f8-b847-e9731c0d028d"},"vehicle_type_id":"4","last_reported":1715717360,"current_range_meters":26000,"station_id":"ce4bhbh2rcd13ifvqeqg","pricing_plan_id":"cebpf4jnsgd1na2vs0mg"},{"bike_id":"a06a7122-349e-408d-bb7d-029445989a04","system_id":"levelo_inurba_marseille","lat":43.292311,"lon":5.360731,"is_reserved":false,"is_disabled":false,"rental_uris":{"android":"levelo://app?vid=a06a7122-349e-408d-bb7d-029445989a04","ios":"levelo://app?vid=a06a7122-349e-408d-bb7d-029445989a04"},"vehicle_type_id":"4","last_reported":1715717360,"current_range_meters":31200,"station_id":"ce4bhbh2rcd13ifvqeqg","pricing_plan_id":"cebpf4jnsgd1na2vs0mg"},{"bike_id":"ccfb1427-032a-4dfb-a010-7845c270664b","system_id":"levelo_inurba_marseille","lat":43.300951,"lon":5.390796,"is_reserved":false,"is_disabled":false,"rental_uris":{"android":"levelo://app?vid=ccfb1427-032a-4dfb-a010-7845c270664b","ios":"levelo://app?vid=ccfb1427-032a-4dfb-a010-7845c270664b"},"vehicle_type_id":"4","last_reported":1715717360,"current_range_meters":22000,"station_id":"ce4bh192rcd13ifvqdb0","pricing_plan_id":"cebpf4jnsgd1na2vs0mg"},{"bike_id":"e8b2a29c-4237-4e8a-abc5-a587ece72d04","system_id":"levelo_inurba_marseille","lat":43.292311,"lon":5.360731,"is_reserved":false,"is_disabled":false,"rental_uris":{"android":"levelo://app?vid=e8b2a29c-4237-4e8a-abc5-a587ece72d04","ios":"levelo://app?vid=e8b2a29c-4237-4e8a-abc5-a587ece72d04"},"vehicle_type_id":"4","last_reported":1715717360,"current_range_meters":14800,"station_id":"ce4bhbh2rcd13ifvqeqg","pricing_plan_id":"cebpf4jnsgd1na2vs0mg"},{"bike_id":"aceb89fc-a2ed-4cf6-9b67-677aa51eed63","system_id":"levelo_inurba_marseille","lat":43.2936,"lon":5.37835,"is_reserved":false,"is_disabled":false,"rental_uris":{"android":"levelo://app?vid=aceb89fc-a2ed-4cf6-9b67-677aa51eed63","ios":"levelo://app?vid=aceb89fc-a2ed-4cf6-9b67-677aa51eed63"},"vehicle_type_id":"4","last_reported":1715717360,"current_range_meters":17600,"station_id":"ce4bgjh2rcd13ifvqbf0","pricing_plan_id":"cebpf4jnsgd1na2vs0mg"},{"bike_id":"7509cfdb-0684-442d-8487-d5a57d237e54","system_id":"levelo_inurba_marseille","lat":43.296263,"lon":5.377094,"is_reserved":false,"is_disabled":false,"rental_uris":{"android":"levelo://app?vid=7509cfdb-0684-442d-8487-d5a57d237e54","ios":"levelo://app?vid=7509cfdb-0684-442d-8487-d5a57d237e54"},"vehicle_type_id":"4","last_reported":1715717360,"current_range_meters":800,"station_id":"ce4bgi92rcd13ifvqb90","pricing_plan_id":"cebpf4jnsgd1na2vs0mg"},{"bike_id":"ab2c5cee-8cbf-4552-b6f1-546d4fc49c51","system_id":"levelo_inurba_marseille","lat":43.30085,"lon":5.390856,"is_reserved":false,"is_disabled":false,"rental_uris":{"android":"levelo://app?vid=ab2c5cee-8cbf-4552-b6f1-546d4fc49c51","ios":"levelo://app?vid=ab2c5cee-8cbf-4552-b6f1-546d4fc49c51"},"vehicle_type_id":"4","last_reported":1715717360,"current_range_meters":22800,"station_id":"ce4bh192rcd13ifvqdb0","pricing_plan_id":"cebpf4jnsgd1na2vs0mg"},{"bike_id":"71ec95c9-60e8-4fcb-90e5-ed9bfeb0186b","system_id":"levelo_inurba_marseille","lat":43.30085,"lon":5.390856,"is_reserved":false,"is_disabled":false,"rental_uris":{"android":"levelo://app?vid=71ec95c9-60e8-4fcb-90e5-ed9bfeb0186b","ios":"levelo://app?vid=71ec95c9-60e8-4fcb-90e5-ed9bfeb0186b"},"vehicle_type_id":"4","last_reported":1715717360,"current_range_meters":16000,"station_id":"ce4bh192rcd13ifvqdb0","pricing_plan_id":"cebpf4jnsgd1na2vs0mg"},{"bike_id":"81f9a407-10fa-4c79-a596-7beace868967","system_id":"levelo_inurba_marseille","lat":43.298764,"lon":5.388973,"is_reserved":false,"is_disabled":false,"rental_uris":{"android":"levelo://app?vid=81f9a407-10fa-4c79-a596-7beace868967","ios":"levelo://app?vid=81f9a407-10fa-4c79-a596-7beace868967"},"vehicle_type_id":"4","last_reported":1715717360,"current_range_meters":9200,"station_id":"ce4bh392rcd13ifvqdl0","pricing_plan_id":"cebpf4jnsgd1na2vs0mg"},{"bike_id":"44251bf3-e5b7-47ac-b00f-f25b79baee76","system_id":"levelo_inurba_marseille","lat":43.298764,"lon":5.388973,"is_reserved":false,"is_disabled":false,"rental_uris":{"android":"levelo://app?vid=44251bf3-e5b7-47ac-b00f-f25b79baee76","ios":"levelo://app?vid=44251bf3-e5b7-47ac-b00f-f25b79baee76"},"vehicle_type_id":"4","last_reported":1715717360,"current_range_meters":22000,"station_id":"ce4bh392rcd13ifvqdl0","pricing_plan_id":"cebpf4jnsgd1na2vs0mg"},{"bike_id":"85c37b32-96b5-43fd-9e18-4761d77cef49","system_id":"levelo_inurba_marseille","lat":43.29882,"lon":5.38907,"is_reserved":false,"is_disabled":false,"rental_uris":{"android":"levelo://app?vid=85c37b32-96b5-43fd-9e18-4761d77cef49","ios":"levelo://app?vid=85c37b32-96b5-43fd-9e18-4761d77cef49"},"vehicle_type_id":"4","last_reported":1715717360,"current_range_meters":4800,"station_id":"ce4bh392rcd13ifvqdl0","pricing_plan_id":"cebpf4jnsgd1na2vs0mg"},{"bike_id":"e146427e-a4db-4420-8010-6f9e2af137a1","system_id":"levelo_inurba_marseille","lat":43.298764,"lon":5.388973,"is_reserved":false,"is_disabled":false,"rental_uris":{"android":"levelo://app?vid=e146427e-a4db-4420-8010-6f9e2af137a1","ios":"levelo://app?vid=e146427e-a4db-4420-8010-6f9e2af137a1"},"vehicle_type_id":"4","last_reported":1715717360,"current_range_meters":27600,"station_id":"ce4bh392rcd13ifvqdl0","pricing_plan_id":"cebpf4jnsgd1na2vs0mg"},{"bike_id":"a089b001-ed14-42d7-bbb5-9174e7ef922d","system_id":"levelo_inurba_marseille","lat":43.298764,"lon":5.388973,"is_reserved":false,"is_disabled":false,"rental_uris":{"android":"levelo://app?vid=a089b001-ed14-42d7-bbb5-9174e7ef922d","ios":"levelo://app?vid=a089b001-ed14-42d7-bbb5-9174e7ef922d"},"vehicle_type_id":"4","last_reported":1715717360,"current_range_meters":28000,"station_id":"ce4bh392rcd13ifvqdl0","pricing_plan_id":"cebpf4jnsgd1na2vs0mg"},{"bike_id":"4a820070-ce0a-43a2-a13a-63b08b257ed8","system_id":"levelo_inurba_marseille","lat":43.291671,"lon":5.371575,"is_reserved":false,"is_disabled":false,"rental_uris":{"android":"levelo://app?vid=4a820070-ce0a-43a2-a13a-63b08b257ed8","ios":"levelo://app?vid=4a820070-ce0a-43a2-a13a-63b08b257ed8"},"vehicle_type_id":"4","last_reported":1715717360,"current_range_meters":28400,"station_id":"ce4bha92rcd13ifvqeh0","pricing_plan_id":"cebpf4jnsgd1na2vs0mg"},{"bike_id":"1a834e7c-d7d8-4ac3-955e-214844adaa98","system_id":"levelo_inurba_marseille","lat":43.298764,"lon":5.388973,"is_reserved":false,"is_disabled":false,"rental_uris":{"android":"levelo://app?vid=1a834e7c-d7d8-4ac3-955e-214844adaa98","ios":"levelo://app?vid=1a834e7c-d7d8-4ac3-955e-214844adaa98"},"vehicle_type_id":"4","last_reported":1715717360,"current_range_meters":18400,"station_id":"ce4bh392rcd13ifvqdl0","pricing_plan_id":"cebpf4jnsgd1na2vs0mg"},{"bike_id":"d7f6a436-358a-4556-9564-e9e45c775855","system_id":"levelo_inurba_marseille","lat":43.298764,"lon":5.388973,"is_reserved":false,"is_disabled":false,"rental_uris":{"android":"levelo://app?vid=d7f6a436-358a-4556-9564-e9e45c775855","ios":"levelo://app?vid=d7f6a436-358a-4556-9564-e9e45c775855"},"vehicle_type_id":"4","last_reported":1715717360,"current_range_meters":25600,"station_id":"ce4bh392rcd13ifvqdl0","pricing_plan_id":"cebpf4jnsgd1na2vs0mg"},{"bike_id":"43de9c84-ac8e-43c4-b14f-a955fcec89c4","system_id":"levelo_inurba_marseille","lat":43.298764,"lon":5.388973,"is_reserved":false,"is_disabled":false,"rental_uris":{"android":"levelo://app?vid=43de9c84-ac8e-43c4-b14f-a955fcec89c4","ios":"levelo://app?vid=43de9c84-ac8e-43c4-b14f-a955fcec89c4"},"vehicle_type_id":"4","last_reported":1715717360,"current_range_meters":16000,"station_id":"ce4bh392rcd13ifvqdl0","pricing_plan_id":"cebpf4jnsgd1na2vs0mg"},{"bike_id":"98bedc5e-9503-4c11-be6a-a6a49f078221","system_id":"levelo_inurba_marseille","lat":43.298764,"lon":5.388973,"is_reserved":false,"is_disabled":false,"rental_uris":{"android":"levelo://app?vid=98bedc5e-9503-4c11-be6a-a6a49f078221","ios":"levelo://app?vid=98bedc5e-9503-4c11-be6a-a6a49f078221"},"vehicle_type_id":"4","last_reported":1715717360,"current_range_meters":21600,"station_id":"ce4bh392rcd13ifvqdl0","pricing_plan_id":"cebpf4jnsgd1na2vs0mg"},{"bike_id":"33ccd7eb-98f2-4559-9b54-5ac6961df37f","system_id":"levelo_inurba_marseille","lat":43.298764,"lon":5.388973,"is_reserved":false,"is_disabled":false,"rental_uris":{"android":"levelo://app?vid=33ccd7eb-98f2-4559-9b54-5ac6961df37f","ios":"levelo://app?vid=33ccd7eb-98f2-4559-9b54-5ac6961df37f"},"vehicle_type_id":"4","last_reported":1715717360,"current_range_meters":4800,"station_id":"ce4bh392rcd13ifvqdl0","pricing_plan_id":"cebpf4jnsgd1na2vs0mg"},{"bike_id":"8142a8f9-c51c-45ba-b777-95273e76af3a","system_id":"levelo_inurba_marseille","lat":43.298764,"lon":5.388973,"is_reserved":false,"is_disabled":false,"rental_uris":{"android":"levelo://app?vid=8142a8f9-c51c-45ba-b777-95273e76af3a","ios":"levelo://app?vid=8142a8f9-c51c-45ba-b777-95273e76af3a"},"vehicle_type_id":"4","last_reported":1715717360,"current_range_meters":28000,"station_id":"ce4bh392rcd13ifvqdl0","pricing_plan_id":"cebpf4jnsgd1na2vs0mg"},{"bike_id":"bfd9f069-a09d-4336-a15d-89e75e554072","system_id":"levelo_inurba_marseille","lat":43.298764,"lon":5.388973,"is_reserved":false,"is_disabled":false,"rental_uris":{"android":"levelo://app?vid=bfd9f069-a09d-4336-a15d-89e75e554072","ios":"levelo://app?vid=bfd9f069-a09d-4336-a15d-89e75e554072"},"vehicle_type_id":"4","last_reported":1715717360,"current_range_meters":31200,"station_id":"ce4bh392rcd13ifvqdl0","pricing_plan_id":"cebpf4jnsgd1na2vs0mg"},{"bike_id":"49a86ca8-9fd8-440c-bfa7-6f6892b197a1","system_id":"levelo_inurba_marseille","lat":43.298764,"lon":5.388973,"is_reserved":false,"is_disabled":false,"rental_uris":{"android":"levelo://app?vid=49a86ca8-9fd8-440c-bfa7-6f6892b197a1","ios":"levelo://app?vid=49a86ca8-9fd8-440c-bfa7-6f6892b197a1"},"vehicle_type_id":"4","last_reported":1715717360,"current_range_meters":28000,"station_id":"ce4bh392rcd13ifvqdl0","pricing_plan_id":"cebpf4jnsgd1na2vs0mg"},{"bike_id":"c9ea2217-d72f-4fa2-80e0-d47d259d6726","system_id":"levelo_inurba_marseille","lat":43.291671,"lon":5.371575,"is_reserved":false,"is_disabled":false,"rental_uris":{"android":"levelo://app?vid=c9ea2217-d72f-4fa2-80e0-d47d259d6726","ios":"levelo://app?vid=c9ea2217-d72f-4fa2-80e0-d47d259d6726"},"vehicle_type_id":"4","last_reported":1715717360,"current_range_meters":31200,"station_id":"ce4bha92rcd13ifvqeh0","pricing_plan_id":"cebpf4jnsgd1na2vs0mg"},{"bike_id":"208701e0-eb2a-44d5-80a2-143614055bfd","system_id":"levelo_inurba_marseille","lat":43.298764,"lon":5.388973,"is_reserved":false,"is_disabled":false,"rental_uris":{"android":"levelo://app?vid=208701e0-eb2a-44d5-80a2-143614055bfd","ios":"levelo://app?vid=208701e0-eb2a-44d5-80a2-143614055bfd"},"vehicle_type_id":"4","last_reported":1715717360,"current_range_meters":2400,"station_id":"ce4bh392rcd13ifvqdl0","pricing_plan_id":"cebpf4jnsgd1na2vs0mg"},{"bike_id":"33b457dd-e088-4195-a329-66cde22d7223","system_id":"levelo_inurba_marseille","lat":43.291671,"lon":5.371575,"is_reserved":false,"is_disabled":false,"rental_uris":{"android":"levelo://app?vid=33b457dd-e088-4195-a329-66cde22d7223","ios":"levelo://app?vid=33b457dd-e088-4195-a329-66cde22d7223"},"vehicle_type_id":"4","last_reported":1715717360,"current_range_meters":12000,"station_id":"ce4bha92rcd13ifvqeh0","pricing_plan_id":"cebpf4jnsgd1na2vs0mg"},{"bike_id":"d309a8ae-fd36-4c8e-86f3-139dbd7cd8b0","system_id":"levelo_inurba_marseille","lat":43.298764,"lon":5.388973,"is_reserved":false,"is_disabled":false,"rental_uris":{"android":"levelo://app?vid=d309a8ae-fd36-4c8e-86f3-139dbd7cd8b0","ios":"levelo://app?vid=d309a8ae-fd36-4c8e-86f3-139dbd7cd8b0"},"vehicle_type_id":"4","last_reported":1715717360,"current_range_meters":31200,"station_id":"ce4bh392rcd13ifvqdl0","pricing_plan_id":"cebpf4jnsgd1na2vs0mg"},{"bike_id":"151a9640-be59-44db-aba0-c7a1e8c75c80","system_id":"levelo_inurba_marseille","lat":43.309047,"lon":5.396551,"is_reserved":false,"is_disabled":false,"rental_uris":{"android":"levelo://app?vid=151a9640-be59-44db-aba0-c7a1e8c75c80","ios":"levelo://app?vid=151a9640-be59-44db-aba0-c7a1e8c75c80"},"vehicle_type_id":"4","last_reported":1715717360,"current_range_meters":800,"station_id":"ce4bh012rcd13ifvqcv0","pricing_plan_id":"cebpf4jnsgd1na2vs0mg"},{"bike_id":"d1158a09-c755-4eae-880c-de11861665a4","system_id":"levelo_inurba_marseille","lat":43.30895,"lon":5.39633,"is_reserved":false,"is_disabled":false,"rental_uris":{"android":"levelo://app?vid=d1158a09-c755-4eae-880c-de11861665a4","ios":"levelo://app?vid=d1158a09-c755-4eae-880c-de11861665a4"},"vehicle_type_id":"4","last_reported":1715717360,"current_range_meters":1200,"station_id":"ce4bh012rcd13ifvqcv0","pricing_plan_id":"cebpf4jnsgd1na2vs0mg"},{"bike_id":"4ad047ab-17f2-4d41-987d-9e2060b8cf04","system_id":"levelo_inurba_marseille","lat":43.309047,"lon":5.396551,"is_reserved":false,"is_disabled":false,"rental_uris":{"android":"levelo://app?vid=4ad047ab-17f2-4d41-987d-9e2060b8cf04","ios":"levelo://app?vid=4ad047ab-17f2-4d41-987d-9e2060b8cf04"},"vehicle_type_id":"4","last_reported":1715717360,"current_range_meters":32000,"station_id":"ce4bh012rcd13ifvqcv0","pricing_plan_id":"cebpf4jnsgd1na2vs0mg"},{"bike_id":"067bed49-6216-47eb-9027-216f5a872383","system_id":"levelo_inurba_marseille","lat":43.313291,"lon":5.396838,"is_reserved":false,"is_disabled":false,"rental_uris":{"android":"levelo://app?vid=067bed49-6216-47eb-9027-216f5a872383","ios":"levelo://app?vid=067bed49-6216-47eb-9027-216f5a872383"},"vehicle_type_id":"4","last_reported":1715717360,"current_range_meters":28000,"station_id":"ce4bgvp2rcd13ifvqcu0","pricing_plan_id":"cebpf4jnsgd1na2vs0mg"},{"bike_id":"e4a3c8d0-1000-4b04-a7ca-54318466863c","system_id":"levelo_inurba_marseille","lat":43.31329,"lon":5.39687,"is_reserved":false,"is_disabled":false,"rental_uris":{"android":"levelo://app?vid=e4a3c8d0-1000-4b04-a7ca-54318466863c","ios":"levelo://app?vid=e4a3c8d0-1000-4b04-a7ca-54318466863c"},"vehicle_type_id":"4","last_reported":1715717360,"current_range_meters":3600,"station_id":"ce4bgvp2rcd13ifvqcu0","pricing_plan_id":"cebpf4jnsgd1na2vs0mg"},{"bike_id":"5b97e6db-7eea-4e98-8562-b6bd4ca74594","system_id":"levelo_inurba_marseille","lat":43.291994,"lon":5.357886,"is_reserved":false,"is_disabled":false,"rental_uris":{"android":"levelo://app?vid=5b97e6db-7eea-4e98-8562-b6bd4ca74594","ios":"levelo://app?vid=5b97e6db-7eea-4e98-8562-b6bd4ca74594"},"vehicle_type_id":"4","last_reported":1715717360,"current_range_meters":20400,"station_id":"ce4bhb12rcd13ifvqel0","pricing_plan_id":"cebpf4jnsgd1na2vs0mg"},