{"last_updated":1768421454,"ttl":60,"version":"2.2","data":{"bikes":[{"bike_id":"7e09f6aa-6a01-490d-a5d4-56de9c0277ad","system_id":"levelo_inurba_marseille","lat":43.28522,"lon":5.44091,"is_reserved":false,"is_disabled":false,"rental_uris":{"android":"levelo://app?vid=7e09f6aa-6a01-490d-a5d4-56de9c0277ad","ios":"levelo://app?vid=7e09f6aa-6a01-490d-a5d4-56de9c0277ad"},"vehicle_type_id":"4","last_reported":1768421455,"current_range_meters":2800,"station_id":"st_d3j3df2ikq2c7380ej80","pricing_plan_id":"cebpf4jnsgd1na2vs0mg"},{"bike_id":"90e5238c-8c54-4de3-9450-a5cfa04a5974","system_id":"levelo_inurba_marseille","lat":43.30934,"lon":5.40146,"is_reserved":false,"is_disabled":false,"rental_uris":{"android":"levelo://app?vid=90e5238c-8c54-4de3-9450-a5cfa04a5974","ios":"levelo://app?vid=90e5238c-8c54-4de3-9450-a5cfa04a5974"},"vehicle_type_id":"4","last_reported":1768421455,"current_range_meters":2800,"station_id":"ce4bgvp2rcd13ifvqct0","pricing_plan_id":"cebpf4jnsgd1na2vs0mg"},{"bike_id":"4da4b9b5-8e34-4a21-a7eb-76e6a1792527","system_id":"levelo_inurba_marseille","lat":43.28233,"lon":5.4304,"is_reserved":false,"is_disabled":false,"rental_uris":{"android":"levelo://app?vid=4da4b9b5-8e34-4a21-a7eb-76e6a1792527","ios":"levelo://app?vid=4da4b9b5-8e34-4a21-a7eb-76e6a1792527"},"vehicle_type_id":"4","last_reported":1768421455,"current_range_meters":2800,"station_id":"","pricing_plan_id":"cebpf4jnsgd1na2vs0mg"},{"bike_id":"3047ef37-d384-4a07-8cfd-b9f483119217","system_id":"levelo_inurba_marseille","lat":43.30684,"lon":5.40627,"is_reserved":false,"is_disabled":false,"rental_uris":{"android":"levelo://app?vid=3047ef37-d384-4a07-8cfd-b9f483119217","ios":"levelo://app?vid=3047ef37-d384-4a07-8cfd-b9f483119217"},"vehicle_type_id":"4","last_reported":1768421455,"current_range_meters":2800,"station_id":"","pricing_plan_id":"cebpf4jnsgd1na2vs0mg"},{"bike_id":"7c969669-50db-4552-b574-0619ffa44efd","system_id":"levelo_inurba_marseille","lat":43.25005,"lon":5.3893,"is_reserved":false,"is_disabled":false,"rental_uris":{"android":"levelo://app?vid=7c969669-50db-4552-b574-0619ffa44efd","ios":"levelo://app?vid=7c969669-50db-4552-b574-0619ffa44efd"},"vehicle_type_id":"4","last_reported":1768421455,"current_range_meters":2800,"station_id":"ce4bhgp2rcd13ifvqfd0","pricing_plan_id":"cebpf4jnsgd1na2vs0mg"},{"bike_id":"23a3eada-dea7-4044-b22b-1e0f7c60e76c","system_id":"levelo_inurba_marseille","lat":43.29515,"lon":5.39197,"is_reserved":false,"is_disabled":true,"rental_uris":{"android":"levelo://app?vid=23a3eada-dea7-4044-b22b-1e0f7c60e76c","ios":"levelo://app?vid=23a3eada-dea7-4044-b22b-1e0f7c60e76c"},"vehicle_type_id":"4","last_reported":1768421455,"current_range_meters":2800,"station_id":"","pricing_plan_id":"cebpf4jnsgd1na2vs0mg"},{"bike_id":"b8ab46a7-cc15-459a-956b-68d8d5ad27fd","system_id":"levelo_inurba_marseille","lat":43.29613,"lon":5.38092,"is_reserved":false,"is_disabled":false,"rental_uris":{"android":"levelo://app?vid=b8ab46a7-cc15-459a-956b-68d8d5ad27fd","ios":"levelo://app?vid=b8ab46a7-cc15-459a-956b-68d8d5ad27fd"},"vehicle_type_id":"4","last_reported":1768421455,"current_range_meters":2800,"station_id":"ce4bgl12rcd13ifvqbo0","pricing_plan_id":"cebpf4jnsgd1na2vs0mg"},{"bike_id":"ff28faa0-8783-4c97-9c47-36d61ced7d6d","system_id":"levelo_inurba_marseille","lat":43.29432,"lon":5.39753,"is_reserved":false,"is_disabled":false,"rental_uris":{"android":"levelo://app?vid=ff28faa0-8783-4c97-9c47-36d61ced7d6d","ios":"levelo://app?vid=ff28faa0-8783-4c97-9c47-36d61ced7d6d"},"vehicle_type_id":"4","last_reported":1768421455,"current_range_meters":2800,"station_id":"ce4bh3h2rcd13ifvqdo0","pricing_plan_id":"cebpf4jnsgd1na2vs0mg"},{"bike_id":"4210b5e1-14c0-4350-9f09-b328efe96417","system_id":"levelo_inurba_marseille","lat":43.3017,"lon":5.37114,"is_reserved":false,"is_disabled":false,"rental_uris":{"android":"levelo://app?vid=4210b5e1-14c0-4350-9f09-b328efe96417","ios":"levelo://app?vid=4210b5e1-14c0-4350-9f09-b328efe96417"},"vehicle_type_id":"4","last_reported":1768421455,"current_range_meters":3200,"station_id":"","pricing_plan_id":"cebpf4jnsgd1na2vs0mg"},{"bike_id":"18e7aed4-7cab-4e5f-b147-5c98f8a1e192","system_id":"levelo_inurba_marseille","lat":43.32333,"lon":5.36745,"is_reserved":false,"is_disabled":false,"rental_uris":{"android":"levelo://app?vid=18e7aed4-7cab-4e5f-b147-5c98f8a1e192","ios":"levelo://app?vid=18e7aed4-7cab-4e5f-b147-5c98f8a1e192"},"vehicle_type_id":"4","last_reported":1768421455,"current_range_meters":3200,"station_id":"ce4bhsh2rcd13ifvqi2g","pricing_plan_id":"cebpf4jnsgd1na2vs0mg"},{"bike_id":"662e6f11-ec3e-469d-8366-6d0b88c241e0","system_id":"levelo_inurba_marseille","lat":43.28999,"lon":5.35603,"is_reserved":false,"is_disabled":false,"rental_uris":{"android":"levelo://app?vid=662e6f11-ec3e-469d-8366-6d0b88c241e0","ios":"levelo://app?vid=662e6f11-ec3e-469d-8366-6d0b88c241e0"},"vehicle_type_id":"4","last_reported":1768421455,"current_range_meters":3200,"station_id":"ce4bhb92rcd13ifvqen0","pricing_plan_id":"cebpf4jnsgd1na2vs0mg"},{"bike_id":"f386e451-0ff7-4c2a-a6cd-27139c57272a","system_id":"levelo_inurba_marseille","lat":43.28534,"lon":5.441,"is_reserved":false,"is_disabled":false,"rental_uris":{"android":"levelo://app?vid=f386e451-0ff7-4c2a-a6cd-27139c57272a","ios":"levelo://app?vid=f386e451-0ff7-4c2a-a6cd-27139c57272a"},"vehicle_type_id":"4","last_reported":1768421455,"current_range_meters":3200,"station_id":"st_d3j3df2ikq2c7380ej80","pricing_plan_id":"cebpf4jnsgd1na2vs0mg"},{"bike_id":"7dd1d8e7-5022-463f-b173-f03ecce952da","system_id":"levelo_inurba_marseille","lat":43.21753,"lon":5.346,"is_reserved":false,"is_disabled":false,"rental_uris":{"android":"levelo://app?vid=7dd1d8e7-5022-463f-b173-f03ecce952da","ios":"levelo://app?vid=7dd1d8e7-5022-463f-b173-f03ecce952da"},"vehicle_type_id":"4","last_reported":1768421455,"current_range_meters":3200,"station_id":"st_cvj6r9ubvosntc0bgbag","pricing_plan_id":"cebpf4jnsgd1na2vs0mg"},{"bike_id":"2a4902eb-7636-4f73-bfa8-746f36026232","system_id":"levelo_inurba_marseille","lat":43.27591,"lon":5.38431,"is_reserved":false,"is_disabled":false,"rental_uris":{"android":"levelo://app?vid=2a4902eb-7636-4f73-bfa8-746f36026232","ios":"levelo://app?vid=2a4902eb-7636-4f73-bfa8-746f36026232"},"vehicle_type_id":"4","last_reported":1768421455,"current_range_meters":3200,"station_id":"ce4bhh92rcd13ifvqfi0","pricing_plan_id":"cebpf4jnsgd1na2vs0mg"},{"bike_id":"558052e6-097f-426d-8153-2bfb24e2750b","system_id":"levelo_inurba_marseille","lat":43.25506,"lon":5.37656,"is_reserved":false,"is_disabled":false,"rental_uris":{"android":"levelo://app?vid=558052e6-097f-426d-8153-2bfb24e2750b","ios":"levelo://app?vid=558052e6-097f-426d-8153-2bfb24e2750b"},"vehicle_type_id":"4","last_reported":1768421455,"current_range_meters":3200,"station_id":"ce4bhh12rcd13ifvqff0","pricing_plan_id":"cebpf4jnsgd1na2vs0mg"},{"bike_id":"291127fb-d9b3-43d4-ba32-f86b40f38e8f","system_id":"levelo_inurba_marseille","lat":43.295197,"lon":5.390357,"is_reserved":false,"is_disabled":false,"rental_uris":{"android":"levelo://app?vid=291127fb-d9b3-43d4-ba32-f86b40f38e8f","ios":"levelo://app?vid=291127fb-d9b3-43d4-ba32-f86b40f38e8f"},"vehicle_type_id":"4","last_reported":1768421455,"current_range_meters":3200,"station_id":"ce4bh3p2rcd13ifvqdp0","pricing_plan_id":"cebpf4jnsgd1na2vs0mg"},{"bike_id":"d0bcc854-5efc-451b-8158-e470c5f37f52","system_id":"levelo_inurba_marseille","lat":43.282391,"lon":5.378985,"is_reserved":false,"is_disabled":false,"rental_uris":{"android":"levelo://app?vid=d0bcc854-5efc-451b-8158-e470c5f37f52","ios":"levelo://app?vid=d0bcc854-5efc-451b-8158-e470c5f37f52"},"vehicle_type_id":"4","last_reported":1768421455,"current_range_meters":3200,"station_id":"ce4bha12rcd13ifvqee0","pricing_plan_id":"cebpf4jnsgd1na2vs0mg"},{"bike_id":"a31c8f9e-9708-4ea2-9e5d-05e3441bc85f","system_id":"levelo_inurba_marseille","lat":43.284793,"lon":5.48385,"is_reserved":false,"is_disabled":false,"rental_uris":{"android":"levelo://app?vid=a31c8f9e-9708-4ea2-9e5d-05e3441bc85f","ios":"levelo://app?vid=a31c8f9e-9708-4ea2-9e5d-05e3441bc85f"},"vehicle_type_id":"4","last_reported":1768421455,"current_range_meters":3200,"station_id":"","pricing_plan_id":"cebpf4jnsgd1na2vs0mg"},{"bike_id":"db446451-0502-4bf3-97a5-f79d027c07c3","system_id":"levelo_inurba_marseille","lat":43.26959,"lon":5.39871,"is_reserved":false,"is_disabled":false,"rental_uris":{"android":"levelo://app?vid=db446451-0502-4bf3-97a5-f79d027c07c3","ios":"levelo://app?vid=db446451-0502-4bf3-97a5-f79d027c07c3"},"vehicle_type_id":"4","last_reported":1768421455,"current_range_meters":3200,"station_id":"","pricing_plan_id":"cebpf4jnsgd1na2vs0mg"},{"bike_id":"8b05a2e8-45ae-42cc-b5c8-d88863d780c4","system_id":"levelo_inurba_marseille","lat":43.28271,"lon":5.35075,"is_reserved":false,"is_disabled":false,"rental_uris":{"android":"levelo://app?vid=8b05a2e8-45ae-42cc-b5c8-d88863d780c4","ios":"levelo://app?vid=8b05a2e8-45ae-42cc-b5c8-d88863d780c4"},"vehicle_type_id":"4","last_reported":1768421455,"current_range_meters":3600,"station_id":"ce4bhbp2rcd13ifvqerg","pricing_plan_id":"cebpf4jnsgd1na2vs0mg"},{"bike_id":"0ab483f6-2c64-4f01-82ac-b52f13aaff16","system_id":"levelo_inurba_marseille","lat":43.33011,"lon":5.39019,"is_reserved":false,"is_disabled":false,"rental_uris":{"android":"levelo://app?vid=0ab483f6-2c64-4f01-82ac-b52f13aaff16","ios":"levelo://app?vid=0ab483f6-2c64-4f01-82ac-b52f13aaff16"},"vehicle_type_id":"4","last_reported":1768421455,"current_range_meters":3600,"station_id":"ce4bhr92rcd13ifvqhrg","pricing_plan_id":"cebpf4jnsgd1na2vs0mg"},{"bike_id":"988898f4-9f2f-4c83-8935-c2cdd80dcda2","system_id":"levelo_inurba_marseille","lat":43.299,"lon":5.37463,"is_reserved":false,"is_disabled":false,"rental_uris":{"android":"levelo://app?vid=988898f4-9f2f-4c83-8935-c2cdd80dcda2","ios":"levelo://app?vid=988898f4-9f2f-4c83-8935-c2cdd80dcda2"},"vehicle_type_id":"4","last_reported":1768421455,"current_range_meters":3600,"station_id":"ce4bgjh2rcd13ifvqbg0","pricing_plan_id":"cebpf4jnsgd1na2vs0mg"},{"bike_id":"0018a145-5229-40b3-8721-56b2cedfd3d6","system_id":"levelo_inurba_marseille","lat":43.27956,"lon":5.39938,"is_reserved":false,"is_disabled":false,"rental_uris":{"android":"levelo://app?vid=0018a145-5229-40b3-8721-56b2cedfd3d6","ios":"levelo://app?vid=0018a145-5229-40b3-8721-56b2cedfd3d6"},"vehicle_type_id":"4","last_reported":1768421455,"current_range_meters":3600,"station_id":"","pricing_plan_id":"cebpf4jnsgd1na2vs0mg"},{"bike_id":"f3eefd84-65d4-4ce5-a621-e7e7d135fbf1","system_id":"levelo_inurba_marseille","lat":43.30797,"lon":5.3816,"is_reserved":false,"is_disabled":false,"rental_uris":{"android":"levelo://app?vid=f3eefd84-65d4-4ce5-a621-e7e7d135fbf1","ios":"levelo://app?vid=f3eefd84-65d4-4ce5-a621-e7e7d135fbf1"},"vehicle_type_id":"4","last_reported":1768421455,"current_range_meters":3600,"station_id":"ce4bgt12rcd13ifvqce0","pricing_plan_id":"cebpf4jnsgd1na2vs0mg"},{"bike_id":"d3ee0296-c8be-4189-a096-4b01ce1b3f31","system_id":"levelo_inurba_marseille","lat":43.23966,"lon":5.36642,"is_reserved":false,"is_disabled":false,"rental_uris":{"android":"levelo://app?vid=d3ee0296-c8be-4189-a096-4b01ce1b3f31","ios":"levelo://app?vid=d3ee0296-c8be-4189-a096-4b01ce1b3f31"},"vehicle_type_id":"4","last_reported":1768421455,"current_range_meters":3600,"station_id":"ce4bhi12rcd13ifvqfp0","pricing_plan_id":"cebpf4jnsgd1na2vs0mg"},{"bike_id":"ea7f32b6-7877-46fd-82b1-7ebc9194a1fd","system_id":"levelo_inurba_marseille","lat":43.21745,"lon":5.34602,"is_reserved":false,"is_disabled":false,"rental_uris":{"android":"levelo://app?vid=ea7f32b6-7877-46fd-82b1-7ebc9194a1fd","ios":"levelo://app?vid=ea7f32b6-7877-46fd-82b1-7ebc9194a1fd"},"vehicle_type_id":"4","last_reported":1768421455,"current_range_meters":3600,"station_id":"","pricing_plan_id":"cebpf4jnsgd1na2vs0mg"},{"bike_id":"936570bf-e455-479b-ab9d-421b36b3f09d","system_id":"levelo_inurba_marseille","lat":43.23193,"lon":5.35555,"is_reserved":false,"is_disabled":false,"rental_uris":{"android":"levelo://app?vid=936570bf-e455-479b-ab9d-421b36b3f09d","ios":"levelo://app?vid=936570bf-e455-479b-ab9d-421b36b3f09d"},"vehicle_type_id":"4","last_reported":1768421455,"current_range_meters":3600,"station_id":"ce4bhu92rcd13ifvqi70","pricing_plan_id":"cebpf4jnsgd1na2vs0mg"},{"bike_id":"2d40e6f1-44fd-40a0-9a93-8476dc686620","system_id":"levelo_inurba_marseille","lat":43.289121,"lon":5.384152,"is_reserved":false,"is_disabled":false,"rental_uris":{"android":"levelo://app?vid=2d40e6f1-44fd-40a0-9a93-8476dc686620","ios":"levelo://app?vid=2d40e6f1-44fd-40a0-9a93-8476dc686620"},"vehicle_type_id":"4","last_reported":1768421455,"current_range_meters":4000,"station_id":"ce4bh612rcd13ifvqe6g","pricing_plan_id":"cebpf4jnsgd1na2vs0mg"},{"bike_id":"1cada60d-67ba-40f7-97c1-1a320d055880","system_id":"levelo_inurba_marseille","lat":43.27809,"lon":5.40736,"is_reserved":false,"is_disabled":false,"rental_uris":{"android":"levelo://app?vid=1cada60d-67ba-40f7-97c1-1a320d055880","ios":"levelo://app?vid=1cada60d-67ba-40f7-97c1-1a320d055880"},"vehicle_type_id":"4","last_reported":1768421455,"current_range_meters":4000,"station_id":"ce4bhnh2rcd13ifvqgtg","pricing_plan_id":"cebpf4jnsgd1na2vs0mg"},{"bike_id":"5d461127-0d9d-4718-9666-e3feb9c391b3","system_id":"levelo_inurba_marseille","lat":43.28531,"lon":5.44112,"is_reserved":false,"is_disabled":false,"rental_uris":{"android":"levelo://app?vid=5d461127-0d9d-4718-9666-e3feb9c391b3","ios":"levelo://app?vid=5d461127-0d9d-4718-9666-e3feb9c391b3"},"vehicle_type_id":"4","last_reported":1768421455,"current_range_meters":4000,"station_id":"st_d3j3df2ikq2c7380ej80","pricing_plan_id":"cebpf4jnsgd1na2vs0mg"},{"bike_id":"30a6883e-591f-41ac-9b6f-5a334a5992f1","system_id":"levelo_inurba_marseille","lat":43.29266,"lon":5.3844,"is_reserved":false,"is_disabled":false,"rental_uris":{"android":"levelo://app?vid=30a6883e-591f-41ac-9b6f-5a334a5992f1","ios":"levelo://app?vid=30a6883e-591f-41ac-9b6f-5a334a5992f1"},"vehicle_type_id":"4","last_reported":1768421455,"current_range_meters":4000,"station_id":"ce4bh692rcd13ifvqea0","pricing_plan_id":"cebpf4jnsgd1na2vs0mg"},{"bike_id":"0e90d51b-5071-4a42-a270-6759fe02b547","system_id":"levelo_inurba_marseille","lat":43.23195,"lon":5.39971,"is_reserved":false,"is_disabled":false,"rental_uris":{"android":"levelo://app?vid=0e90d51b-5071-4a42-a270-6759fe02b547","ios":"levelo://app?vid=0e90d51b-5071-4a42-a270-6759fe02b547"},"vehicle_type_id":"4","last_reported":1768421455,"current_range_meters":4000,"station_id":"ce4bhn12rcd13ifvqgqg","pricing_plan_id":"cebpf4jnsgd1na2vs0mg"},{"bike_id":"3404bccf-9c80-4b8a-a317-bfba72ba953d","system_id":"levelo_inurba_marseille","lat":43.30305,"lon":5.40074,"is_reserved":false,"is_disabled":false,"rental_uris":{"android":"levelo://app?vid=3404bccf-9c80-4b8a-a317-bfba72ba953d","ios":"levelo://app?vid=3404bccf-9c80-4b8a-a317-bfba72ba953d"},"vehicle_type_id":"4","last_reported":1768421455,"current_range_meters":4000,"station_id":"ce4bgvh2rcd13ifvqcs0","pricing_plan_id":"cebpf4jnsgd1na2vs0mg"},{"bike_id":"da6cbef4-7c46-40d0-96e9-33832ad88539","system_id":"levelo_inurba_marseille","lat":43.29522,"lon":5.39041,"is_reserved":false,"is_disabled":false,"rental_uris":{"android":"levelo://app?vid=da6cbef4-7c46-40d0-96e9-33832ad88539","ios":"levelo://app?vid=da6cbef4-7c46-40d0-96e9-33832ad88539"},"vehicle_type_id":"4","last_reported":1768421455,"current_range_meters":4000,"station_id":"ce4bh3p2rcd13ifvqdp0","pricing_plan_id":"cebpf4jnsgd1na2vs0mg"},{"bike_id":"0c051b49-c337-496f-95f2-306c76414e4b","system_id":"levelo_inurba_marseille","lat":43.27991,"lon":5.41659,"is_reserved":false,"is_disabled":false,"rental_uris":{"android":"levelo://app?vid=0c051b49-c337-496f-95f2-306c76414e4b","ios":"levelo://app?vid=0c051b49-c337-496f-95f2-306c76414e4b"},"vehicle_type_id":"4","last_reported":1768421455,"current_range_meters":4000,"station_id":"ce4bho12rcd13ifvqh1g","pricing_plan_id":"cebpf4jnsgd1na2vs0mg"},{"bike_id":"fbb57768-1033-4e36-b99c-cc792276c5e6","system_id":"levelo_inurba_marseille","lat":43.2465,"lon":5.38895,"is_reserved":false,"is_disabled":false,"rental_uris":{"android":"levelo://app?vid=fbb57768-1033-4e36-b99c-cc792276c5e6","ios":"levelo://app?vid=fbb57768-1033-4e36-b99c-cc792276c5e6"},"vehicle_type_id":"4","last_reported":1768421455,"current_range_meters":4000,"station_id":"ce4bhg12rcd13ifvqf60","pricing_plan_id":"cebpf4jnsgd1na2vs0mg"},{"bike_id":"27f242f3-3ae7-4945-8a79-3968179ff814","system_id":"levelo_inurba_marseille","lat":43.32458,"lon":5.36587,"is_reserved":false,"is_disabled":false,"rental_uris":{"android":"levelo://app?vid=27f242f3-3ae7-4945-8a79-3968179ff814","ios":"levelo://app?vid=27f242f3-3ae7-4945-8a79-3968179ff814"},"vehicle_type_id":"4","last_reported":1768421455,"current_range_meters":4000,"station_id":"ce4bhs12rcd13ifvqhvg","pricing_plan_id":"cebpf4jnsgd1na2vs0mg"},{"bike_id":"6503cd1b-cfa0-45b9-b042-db76bbd0a2e1","system_id":"levelo_inurba_marseille","lat":43.28663,"lon":5.36329,"is_reserved":false,"is_disabled":false,"rental_uris":{"android":"levelo://app?vid=6503cd1b-cfa0-45b9-b042-db76bbd0a2e1","ios":"levelo://app?vid=6503cd1b-cfa0-45b9-b042-db76bbd0a2e1"},"vehicle_type_id":"4","last_reported":1768421455,"current_range_meters":4000,"station_id":"ce4bhah2rcd13ifvqej0","pricing_plan_id":"cebpf4jnsgd1na2vs0mg"},{"bike_id":"5359c5bb-7a7b-4fc7-8935-274e566c3b74","system_id":"levelo_inurba_marseille","lat":43.31356,"lon":5.38491,"is_reserved":false,"is_disabled":false,"rental_uris":{"android":"levelo://app?vid=5359c5bb-7a7b-4fc7-8935-274e566c3b74","ios":"levelo://app?vid=5359c5bb-7a7b-4fc7-8935-274e566c3b74"},"vehicle_type_id":"4","last_reported":1768421455,"current_range_meters":4000,"station_id":"ce4bgt92rcd13ifvqcf0","pricing_plan_id":"cebpf4jnsgd1na2vs0mg"},{"bike_id":"fb72dab8-cb7e-43f2-b759-6e3731421600","system_id":"levelo_inurba_marseille","lat":43.29042,"lon":5.39976,"is_reserved":false,"is_disabled":false,"rental_uris":{"android":"levelo://app?vid=fb72dab8-cb7e-43f2-b759-6e3731421600","ios":"levelo://app?vid=fb72dab8-cb7e-43f2-b759-6e3731421600"},"vehicle_type_id":"4","last_reported":1768421455,"current_range_meters":4000,"station_id":"ce4bh392rcd13ifvqdm0","pricing_plan_id":"cebpf4jnsgd1na2vs0mg"},{"bike_id":"81dc6096-3df8-4d56-9d00-0a8704382a47","system_id":"levelo_inurba_marseille","lat":43.25575,"lon":5.37317,"is_reserved":false,"is_disabled":false,"rental_uris":{"android":"levelo://app?vid=81dc6096-3df8-4d56-9d00-0a8704382a47","ios":"levelo://app?vid=81dc6096-3df8-4d56-9d00-0a8704382a47"},"vehicle_type_id":"4","last_reported":1768421455,"current_range_meters":4400,"station_id":"ce4bhh12rcd13ifvqff0","pricing_plan_id":"cebpf4jnsgd1na2vs0mg"},{"bike_id":"6a1321b3-46b0-4005-a7bd-4f0aae427ac5","system_id":"levelo_inurba_marseille","lat":43.2549,"lon":5.3764,"is_reserved":false,"is_disabled":false,"rental_uris":{"android":"levelo://app?vid=6a1321b3-46b0-4005-a7bd-4f0aae427ac5","ios":"levelo://app?vid=6a1321b3-46b0-4005-a7bd-4f0aae427ac5"},"vehicle_type_id":"4","last_reported":1768421455,"current_range_meters":4400,"station_id":"ce4bhh12rcd13ifvqff0","pricing_plan_id":"cebpf4jnsgd1na2vs0mg"},{"bike_id":"e1824dd6-bb04-4c9c-aca7-9f917cae1f5e","system_id":"levelo_inurba_marseille","lat":43.269424,"lon":5.38608,"is_reserved":false,"is_disabled":false,"rental_uris":{"android":"levelo://app?vid=e1824dd6-bb04-4c9c-aca7-9f917cae1f5e","ios":"levelo://app?vid=e1824dd6-bb04-4c9c-aca7-9f917cae1f5e"},"vehicle_type_id":"4","last_reported":1768421455,"current_range_meters":4400,"station_id":"ce4bhh92rcd13ifvqfh0","pricing_plan_id":"cebpf4jnsgd1na2vs0mg"},{"bike_id":"99aeb77f-a4b2-44bc-bd79-289bfcc5734a","system_id":"levelo_inurba_marseille","lat":43.29265,"lon":5.40903,"is_reserved":false,"is_disabled":false,"rental_uris":{"android":"levelo://app?vid=99aeb77f-a4b2-44bc-bd79-289bfcc5734a","ios":"levelo://app?vid=99aeb77f-a4b2-44bc-bd79-289bfcc5734a"},"vehicle_type_id":"4","last_reported":1768421455,"current_range_meters":4400,"station_id":"ce4bh192rcd13ifvqdc0","pricing_plan_id":"cebpf4jnsgd1na2vs0mg"},{"bike_id":"ecf8cb8a-a92c-4fef-b938-1a1e2d6ebde6","system_id":"levelo_inurba_marseille","lat":43.29501,"lon":5.43314,"is_reserved":false,"is_disabled":false,"rental_uris":{"android":"levelo://app?vid=ecf8cb8a-a92c-4fef-b938-1a1e2d6ebde6","ios":"levelo://app?vid=ecf8cb8a-a92c-4fef-b938-1a1e2d6ebde6"},"vehicle_type_id":"4","last_reported":1768421455,"current_range_meters":4400,"station_id":"st_d3j5ugp08ojc73fj9d10","pricing_plan_id":"cebpf4jnsgd1na2vs0mg"},{"bike_id":"538132f1-a7e8-42ab-81f7-d609cde77aa6","system_id":"levelo_inurba_marseille","lat":43.33244,"lon":5.35858,"is_reserved":false,"is_disabled":false,"rental_uris":{"android":"levelo://app?vid=538132f1-a7e8-42ab-81f7-d609cde77aa6","ios":"levelo://app?vid=538132f1-a7e8-42ab-81f7-d609cde77aa6"},"vehicle_type_id":"4","last_reported":1768421455,"current_range_meters":4400,"station_id":"","pricing_plan_id":"cebpf4jnsgd1na2vs0mg"},{"bike_id":"d10c3e03-17c1-4a18-84d3-e167ce7531e2","system_id":"levelo_inurba_marseille","lat":43.32355,"lon":5.36734,"is_reserved":false,"is_disabled":false,"rental_uris":{"android":"levelo://app?vid=d10c3e03-17c1-4a18-84d3-e167ce7531e2","ios":"levelo://app?vid=d10c3e03-17c1-4a18-84d3-e167ce7531e2"},"vehicle_type_id":"4","last_reported":1768421455,"current_range_meters":4400,"station_id":"ce4bhsh2rcd13ifvqi2g","pricing_plan_id":"cebpf4jnsgd1na2vs0mg"},{"bike_id":"5be54625-368f-43e8-bc18-2b3d9424289c","system_id":"levelo_inurba_marseille","lat":43.27568,"lon":5.38437,"is_reserved":false,"is_disabled":false,"rental_uris":{"android":"levelo://app?vid=5be54625-368f-43e8-bc18-2b3d9424289c","ios":"levelo://app?vid=5be54625-368f-43e8-bc18-2b3d9424289c"},"vehicle_type_id":"4","last_reported":1768421455,"current_range_meters":4400,"station_id":"ce4bhh92rcd13ifvqfi0","pricing_plan_id":"cebpf4jnsgd1na2vs0mg"},{"bike_id":"12b01a91-f62d-4b10-aaf5-a2f39cd66b09","system_id":"levelo_inurba_marseille","lat":43.25344,"lon":5.42175,"is_reserved":false,"is_disabled":false,"rental_uris":{"android":"levelo://app?vid=12b01a91-f62d-4b10-aaf5-a2f39cd66b09","ios":"levelo://app?vid=12b01a91-f62d-4b10-aaf5-a2f39cd66b09"},"vehicle_type_id":"4","last_reported":1768421455,"current_range_meters":4800,"station_id":"st_d2m65c5bi1j21697t3ng","pricing_plan_id":"cebpf4jnsgd1na2vs0mg"},{"bike_id":"b5b04f01-16df-4339-a950-0c9ef8d26e30","system_id":"levelo_inurba_marseille","lat":43.30921,"lon":5.40153,"is_reserved":false,"is_disabled":false,"rental_uris":{"android":"levelo://app?vid=b5b04f01-16df-4339-a950-0c9ef8d26e30","ios":"levelo://app?vid=b5b04f01-16df-4339-a950-0c9ef8d26e30"},"vehicle_type_id":"4","last_reported":1768421455,"current_range_meters":4800,"station_id":"ce4bgvp2rcd13ifvqct0","pricing_plan_id":"cebpf4jnsgd1na2vs0mg"},{"bike_id":"6d5b743f-0d0d-4728-9aac-92cae33bf20c","system_id":"levelo_inurba_marseille","lat":43.25575,"lon":5.38224,"is_reserved":false,"is_disabled":false,"rental_uris":{"android":"levelo://app?vid=6d5b743f-0d0d-4728-9aac-92cae33bf20c","ios":"levelo://app?vid=6d5b743f-0d0d-4728-9aac-92cae33bf20c"},"vehicle_type_id":"4","last_reported":1768421455,"current_range_meters":4800,"station_id":"ce4bhih2rcd13ifvqfs0","pricing_plan_id":"cebpf4jnsgd1na2vs0mg"},{"bike_id":"68a0804d-6796-46aa-9ade-a76afcc1601b","system_id":"levelo_inurba_marseille","lat":43.28553,"lon":5.38389,"is_reserved":false,"is_disabled":false,"rental_uris":{"android":"levelo://app?vid=68a0804d-6796-46aa-9ade-a76afcc1601b","ios":"levelo://app?vid=68a0804d-6796-46aa-9ade-a76afcc1601b"},"vehicle_type_id":"4","last_reported":1768421455,"current_range_meters":4800,"station_id":"","pricing_plan_id":"cebpf4jnsgd1na2vs0mg"},{"bike_id":"4a921c3e-b076-4d8e-b486-d84abf8a81a5","system_id":"levelo_inurba_marseille","lat":43.301252,"lon":5.431097,"is_reserved":false,"is_disabled":false,"rental_uris":{"android":"levelo://app?vid=4a921c3e-b076-4d8e-b486-d84abf8a81a5","ios":"levelo://app?vid=4a921c3e-b076-4d8e-b486-d84abf8a81a5"},"vehicle_type_id":"4","last_reported":1768421455,"current_range_meters":4800,"station_id":"st_d3js3co5814s73ftftug","pricing_plan_id":"cebpf4jnsgd1na2vs0mg"},{"bike_id":"a0f9b52c-bbb7-4f7a-b55f-b65905b6c8ef","system_id":"levelo_inurba_marseille","lat":43.24956,"lon":5.4049,"is_reserved":false,"is_disabled":false,"rental_uris":{"android":"levelo://app?vid=a0f9b52c-bbb7-4f7a-b55f-b65905b6c8ef","ios":"levelo://app?vid=a0f9b52c-bbb7-4f7a-b55f-b65905b6c8ef"},"vehicle_type_id":"4","last_reported":1768421455,"current_range_meters":4800,"station_id":"st_d2ngiaodas8pm72gd1h0","pricing_plan_id":"cebpf4jnsgd1na2vs0mg"},{"bike_id":"0fc190e9-b1ca-4830-804f-6df5163742c8","system_id":"levelo_inurba_marseille","lat":43.32469,"lon":5.36547,"is_reserved":false,"is_disabled":false,"rental_uris":{"android":"levelo://app?vid=0fc190e9-b1ca-4830-804f-6df5163742c8","ios":"levelo://app?vid=0fc190e9-b1ca-4830-804f-6df5163742c8"},"vehicle_type_id":"4","last_reported":1768421455,"current_range_meters":4800,"station_id":"ce4bhs12rcd13ifvqhvg","pricing_plan_id":"cebpf4jnsgd1na2vs0mg"},{"bike_id":"ee0826a0-d691-4bf1-9eb8-9ed46fc12966","system_id":"levelo_inurba_marseille","lat":43.270752,"lon":5.42286,"is_reserved":false,"is_disabled":false,"rental_uris":{"android":"levelo://app?vid=ee0826a0-d691-4bf1-9eb8-9ed46fc12966","ios":"levelo://app?vid=ee0826a0-d691-4bf1-9eb8-9ed46fc12966"},"vehicle_type_id":"4","last_reported":1768421455,"current_range_meters":4800,"station_id":"ce4bhk92rcd13ifvqgb0","pricing_plan_id":"cebpf4jnsgd1na2vs0mg"},{"bike_id":"4f011a11-bcc6-477e-b8a4-e9b5b75b57ee","system_id":"levelo_inurba_marseille","lat":43.30207,"lon":5.39458,"is_reserved":false,"is_disabled":false,"rental_uris":{"android":"levelo://app?vid=4f011a11-bcc6-477e-b8a4-e9b5b75b57ee","ios":"levelo://app?vid=4f011a11-bcc6-477e-b8a4-e9b5b75b57ee"},"vehicle_type_id":"4","last_reported":1768421455,"current_range_meters":4800,"station_id":"ce4bh0p2rcd13ifvqd70","pricing_plan_id":"cebpf4jnsgd1na2vs0mg"},{"bike_id":"1f526bbd-5429-4c08-9e88-6d485c2ad115","system_id":"levelo_inurba_marseille","lat":43.31069,"lon":5.38348,"is_reserved":false,"is_disabled":false,"rental_uris":{"android":"levelo://app?vid=1f526bbd-5429-4c08-9e88-6d485c2ad115","ios":"levelo://app?vid=1f526bbd-5429-4c08-9e88-6d485c2ad115"},"vehicle_type_id":"4","last_reported":1768421455,"current_range_meters":4800,"station_id":"ce4bgv92rcd13ifvqcr0","pricing_plan_id":"cebpf4jnsgd1na2vs0mg"},{"bike_id":"50a1bbb2-b220-4347-b220-21a6c3b0d057","system_id":"levelo_inurba_marseille","lat":43.258246,"lon":5.394408,"is_reserved":false,"is_disabled":false,"rental_uris":{"android":"levelo://app?vid=50a1bbb2-b220-4347-b220-21a6c3b0d057","ios":"levelo://app?vid=50a1bbb2-b220-4347-b220-21a6c3b0d057"},"vehicle_type_id":"4","last_reported":1768421455,"current_range_meters":4800,"station_id":"","pricing_plan_id":"cebpf4jnsgd1na2vs0mg"},{"bike_id":"67c67945-91bb-4bb5-b2e1-22bf6d48bee4","system_id":"levelo_inurba_marseille","lat":43.31323,"lon":5.39699,"is_reserved":false,"is_disabled":false,"rental_uris":{"android":"levelo://app?vid=67c67945-91bb-4bb5-b2e1-22bf6d48bee4","ios":"levelo://app?vid=67c67945-91bb-4bb5-b2e1-22bf6d48bee4"},"vehicle_type_id":"4","last_reported":1768421455,"current_range_meters":4800,"station_id":"ce4bgvp2rcd13ifvqcu0","pricing_plan_id":"cebpf4jnsgd1na2vs0mg"},{"bike_id":"6009104c-31f9-43b2-a50d-d12419701de2","system_id":"levelo_inurba_marseille","lat":43.27054,"lon":5.38305,"is_reserved":false,"is_disabled":false,"rental_uris":{"android":"levelo://app?vid=6009104c-31f9-43b2-a50d-d12419701de2","ios":"levelo://app?vid=6009104c-31f9-43b2-a50d-d12419701de2"},"vehicle_type_id":"4","last_reported":1768421455,"current_range_meters":4800,"station_id":"st_d3n2fo6cfp8s73cte1j0","pricing_plan_id":"cebpf4jnsgd1na2vs0mg"},{"bike_id":"c1311aca-1ce2-473e-abe0-47f3ca5889c4","system_id":"levelo_inurba_marseille","lat":43.29769,"lon":5.4278,"is_reserved":false,"is_disabled":false,"rental_uris":{"android":"levelo://app?vid=c1311aca-1ce2-473e-abe0-47f3ca5889c4","ios":"levelo://app?vid=c1311aca-1ce2-473e-abe0-47f3ca5889c4"},"vehicle_type_id":"4","last_reported":1768421455,"current_range_meters":4800,"station_id":"st_d3md5207bmas73dh9klg","pricing_plan_id":"cebpf4jnsgd1na2vs0mg"},{"bike_id":"92ef97f0-a6d5-4923-8aea-b3163d11496d","system_id":"levelo_inurba_marseille","lat":43.29034,"lon":5.39954,"is_reserved":false,"is_disabled":false,"rental_uris":{"android":"levelo://app?vid=92ef97f0-a6d5-4923-8aea-b3163d11496d","ios":"levelo://app?vid=92ef97f0-a6d5-4923-8aea-b3163d11496d"},"vehicle_type_id":"4","last_reported":1768421455,"current_range_meters":5600,"station_id":"ce4bh392rcd13ifvqdm0","pricing_plan_id":"cebpf4jnsgd1na2vs0mg"},{"bike_id":"1679d81c-b62a-4c2c-a5ce-37e98140bc45","system_id":"levelo_inurba_marseille","lat":43.26199,"lon":5.37461,"is_reserved":false,"is_disabled":false,"rental_uris":{"android":"levelo://app?vid=1679d81c-b62a-4c2c-a5ce-37e98140bc45","ios":"levelo://app?vid=1679d81c-b62a-4c2c-a5ce-37e98140bc45"},"vehicle_type_id":"4","last_reported":1768421455,"current_range_meters":5600,"station_id":"ce4bhgp2rcd13ifvqfc0","pricing_plan_id":"cebpf4jnsgd1na2vs0mg"},{"bike_id":"7fb92e6f-a424-4ffc-abb2-da7fcf05d915","system_id":"levelo_inurba_marseille","lat":43.2781,"lon":5.40725,"is_reserved":false,"is_disabled":false,"rental_uris":{"android":"levelo://app?vid=7fb92e6f-a424-4ffc-abb2-da7fcf05d915","ios":"levelo://app?vid=7fb92e6f-a424-4ffc-abb2-da7fcf05d915"},"vehicle_type_id":"4","last_reported":1768421455,"current_range_meters":5600,"station_id":"ce4bhnh2rcd13ifvqgtg","pricing_plan_id":"cebpf4jnsgd1na2vs0mg"},{"bike_id":"2ee0fab5-7040-4975-9414-0b1e23a72b5b","system_id":"levelo_inurba_marseille","lat":43.323497,"lon":5.36743,"is_reserved":false,"is_disabled":false,"rental_uris":{"android":"levelo://app?vid=2ee0fab5-7040-4975-9414-0b1e23a72b5b","ios":"levelo://app?vid=2ee0fab5-7040-4975-9414-0b1e23a72b5b"},"vehicle_type_id":"4","last_reported":1768421455,"current_range_meters":5600,"station_id":"ce4bhsh2rcd13ifvqi2g","pricing_plan_id":"cebpf4jnsgd1na2vs0mg"},{"bike_id":"ff1e20fa-84b0-41c9-9d49-6081e242e43e","system_id":"levelo_inurba_marseille","lat":43.24807,"lon":5.37452,"is_reserved":false,"is_disabled":false,"rental_uris":{"android":"levelo://app?vid=ff1e20fa-84b0-41c9-9d49-6081e242e43e","ios":"levelo://app?vid=ff1e20fa-84b0-41c9-9d49-6081e242e43e"},"vehicle_type_id":"4","last_reported":1768421455,"current_range_meters":5600,"station_id":"ce4bhgh2rcd13ifvqfb0","pricing_plan_id":"cebpf4jnsgd1na2vs0mg"},{"bike_id":"2dcbaafa-dc26-4d5a-9923-60da74220ab7","system_id":"levelo_inurba_marseille","lat":43.263705,"lon":5.410836,"is_reserved":false,"is_disabled":false,"rental_uris":{"android":"levelo://app?vid=2dcbaafa-dc26-4d5a-9923-60da74220ab7","ios":"levelo://app?vid=2dcbaafa-dc26-4d5a-9923-60da74220ab7"},"vehicle_type_id":"4","last_reported":1768421455,"current_range_meters":5600,"station_id":"","pricing_plan_id":"cebpf4jnsgd1na2vs0mg"},{"bike_id":"dc322333-4210-467d-8d9e-d322d0c44168","system_id":"levelo_inurba_marseille","lat":43.24999,"lon":5.38925,"is_reserved":false,"is_disabled":false,"rental_uris":{"android":"levelo://app?vid=dc322333-4210-467d-8d9e-d322d0c44168","ios":"levelo://app?vid=dc322333-4210-467d-8d9e-d322d0c44168"},"vehicle_type_id":"4","last_reported":1768421455,"current_range_meters":5600,"station_id":"ce4bhgp2rcd13ifvqfd0","pricing_plan_id":"cebpf4jnsgd1na2vs0mg"},{"bike_id":"2663c4b7-8968-4f97-b018-c26b8a7be62f","system_id":"levelo_inurba_marseille","lat":43.27375,"lon":5.36267,"is_reserved":false,"is_disabled":false,"rental_uris":{"android":"levelo://app?vid=2663c4b7-8968-4f97-b018-c26b8a7be62f","ios":"levelo://app?vid=2663c4b7-8968-4f97-b018-c26b8a7be62f"},"vehicle_type_id":"4","last_reported":1768421455,"current_range_meters":5600,"station_id":"ce4bhbh2rcd13ifvqeo0","pricing_plan_id":"cebpf4jnsgd1na2vs0mg"},{"bike_id":"9148e495-684a-4dd6-a190-4fcfead1094f","system_id":"levelo_inurba_marseille","lat":43.29167,"lon":5.3715,"is_reserved":false,"is_disabled":false,"rental_uris":{"android":"levelo://app?vid=9148e495-684a-4dd6-a190-4fcfead1094f","ios":"levelo://app?vid=9148e495-684a-4dd6-a190-4fcfead1094f"},"vehicle_type_id":"4","last_reported":1768421455,"current_range_meters":5600,"station_id":"ce4bha92rcd13ifvqeh0","pricing_plan_id":"cebpf4jnsgd1na2vs0mg"},{"bike_id":"b7d0b5e4-2242-4c21-8af1-9ebebe7ab55f","system_id":"levelo_inurba_marseille","lat":43.29029,"lon":5.3864,"is_reserved":false,"is_disabled":false,"rental_uris":{"android":"levelo://app?vid=b7d0b5e4-2242-4c21-8af1-9ebebe7ab55f","ios":"levelo://app?vid=b7d0b5e4-2242-4c21-8af1-9ebebe7ab55f"},"vehicle_type_id":"4","last_reported":1768421455,"current_range_meters":5600,"station_id":"","pricing_plan_id":"cebpf4jnsgd1na2vs0mg"},{"bike_id":"323bdf5a-fc85-45ab-8b18-361a392bbea5","system_id":"levelo_inurba_marseille","lat":43.2996,"lon":5.37929,"is_reserved":false,"is_disabled":false,"rental_uris":{"android":"levelo://app?vid=323bdf5a-fc85-45ab-8b18-361a392bbea5","ios":"levelo://app?vid=323bdf5a-fc85-45ab-8b18-361a392bbea5"},"vehicle_type_id":"4","last_reported":1768421455,"current_range_meters":5600,"station_id":"","pricing_plan_id":"cebpf4jnsgd1na2vs0mg"},{"bike_id":"217bd7c8-17b6-47d2-974c-0c95d327eb81","system_id":"levelo_inurba_marseille","lat":43.24955,"lon":5.40504,"is_reserved":false,"is_disabled":false,"rental_uris":{"android":"levelo://app?vid=217bd7c8-17b6-47d2-974c-0c95d327eb81","ios":"levelo://app?vid=217bd7c8-17b6-47d2-974c-0c95d327eb81"},"vehicle_type_id":"4","last_reported":1768421455,"current_range_meters":5600,"station_id":"st_d2ngiaodas8pm72gd1h0","pricing_plan_id":"cebpf4jnsgd1na2vs0mg"},{"bike_id":"6deaf9ec-cdca-4da9-b6d4-d42077446537","system_id":"levelo_inurba_marseille","lat":43.30956,"lon":5.39029,"is_reserved":false,"is_disabled":false,"rental_uris":{"android":"levelo://app?vid=6deaf9ec-cdca-4da9-b6d4-d42077446537","ios":"levelo://app?vid=6deaf9ec-cdca-4da9-b6d4-d42077446537"},"vehicle_type_id":"4","last_reported":1768421455,"current_range_meters":5600,"station_id":"ce4bgup2rcd13ifvqco0","pricing_plan_id":"cebpf4jnsgd1na2vs0mg"},{"bike_id":"0496460c-cd9f-43fd-8720-c5e183ef0a0e","system_id":"levelo_inurba_marseille","lat":43.23792,"lon":5.36638,"is_reserved":false,"is_disabled":false,"rental_uris":{"android":"levelo://app?vid=0496460c-cd9f-43fd-8720-c5e183ef0a0e","ios":"levelo://app?vid=0496460c-cd9f-43fd-8720-c5e183ef0a0e"},"vehicle_type_id":"4","last_reported":1768421455,"current_range_meters":5600,"station_id":"st_d3nk18o9ro0c73en2l3g","pricing_plan_id":"cebpf4jnsgd1na2vs0mg"},{"bike_id":"a0b3c393-788e-427a-ba12-453c908bd9de","system_id":"levelo_inurba_marseille","lat":43.22929,"lon":5.35375,"is_reserved":false,"is_disabled":false,"rental_uris":{"android":"levelo://app?vid=a0b3c393-788e-427a-ba12-453c908bd9de","ios":"levelo://app?vid=a0b3c393-788e-427a-ba12-453c908bd9de"},"vehicle_type_id":"4","last_reported":1768421455,"current_range_meters":5600,"station_id":"cpo3532slgdg3j2ikp40","pricing_plan_id":"cebpf4jnsgd1na2vs0mg"},{"bike_id":"a2c3fda5-fb1e-4329-88c2-2e7960229574","system_id":"levelo_inurba_marseille","lat":43.31203,"lon":5.40305,"is_reserved":false,"is_disabled":false,"rental_uris":{"android":"levelo://app?vid=a2c3fda5-fb1e-4329-88c2-2e7960229574","ios":"levelo://app?vid=a2c3fda5-fb1e-4329-88c2-2e7960229574"},"vehicle_type_id":"4","last_reported":1768421455,"current_range_meters":5600,"station_id":"","pricing_plan_id":"cebpf4jnsgd1na2vs0mg"},{"bike_id":"0f5f4915-35b7-4639-ab63-f51a53ac94b7","system_id":"levelo_inurba_marseille","lat":43.302,"lon":5.39314,"is_reserved":false,"is_disabled":false,"rental_uris":{"android":"levelo://app?vid=0f5f4915-35b7-4639-ab63-f51a53ac94b7","ios":"levelo://app?vid=0f5f4915-35b7-4639-ab63-f51a53ac94b7"},"vehicle_type_id":"4","last_reported":1768421455,"current_range_meters":5600,"station_id":"","pricing_plan_id":"cebpf4jnsgd1na2vs0mg"},{"bike_id":"2469529a-4c4f-45b7-b2ce-c4433e05b931","system_id":"levelo_inurba_marseille","lat":43.28481,"lon":5.48392,"is_reserved":false,"is_disabled":false,"rental_uris":{"android":"levelo://app?vid=2469529a-4c4f-45b7-b2ce-c4433e05b931","ios":"levelo://app?vid=2469529a-4c4f-45b7-b2ce-c4433e05b931"},"vehicle_type_id":"4","last_reported":1768421455,"current_range_meters":5600,"station_id":"st_d3svhcjqgbts73a3dn0g","pricing_plan_id":"cebpf4jnsgd1na2vs0mg"},{"bike_id":"b0591438-4f8b-458b-95d3-396e832bb098","system_id":"levelo_inurba_marseille","lat":43.22559,"lon":5.41629,"is_reserved":false,"is_disabled":false,"rental_uris":{"android":"levelo://app?vid=b0591438-4f8b-458b-95d3-396e832bb098","ios":"levelo://app?vid=b0591438-4f8b-458b-95d3-396e832bb098"},"vehicle_type_id":"4","last_reported":1768421455,"current_range_meters":5600,"station_id":"st_d2o4gvlbi1j2169b742g","pricing_plan_id":"cebpf4jnsgd1na2vs0mg"},{"bike_id":"edfaa63e-7871-49bf-bd58-3bdd5d63f4d7","system_id":"levelo_inurba_marseille","lat":43.26567,"lon":5.40327,"is_reserved":false,"is_disabled":false,"rental_uris":{"android":"levelo://app?vid=edfaa63e-7871-49bf-bd58-3bdd5d63f4d7","ios":"levelo://app?vid=edfaa63e-7871-49bf-bd58-3bdd5d63f4d7"},"vehicle_type_id":"4","last_reported":1768421455,"current_range_meters":5600,"station_id":"ce4bhmp2rcd13ifvqgng","pricing_plan_id":"cebpf4jnsgd1na2vs0mg"},{"bike_id":"d169c4ba-2a03-4d6d-8762-0ba9df3953bf","system_id":"levelo_inurba_marseille","lat":43.21187,"lon":5.35071,"is_reserved":false,"is_disabled":false,"rental_uris":{"android":"levelo://app?vid=d169c4ba-2a03-4d6d-8762-0ba9df3953bf","ios":"levelo://app?vid=d169c4ba-2a03-4d6d-8762-0ba9df3953bf"},"vehicle_type_id":"4","last_reported":1768421455,"current_range_meters":5600,"station_id":"st_cvj6sg6p6f1abm77japg","pricing_plan_id":"cebpf4jnsgd1na2vs0mg"},{"bike_id":"4cbe6817-41d5-4295-ac68-5094fd4e61f7","system_id":"levelo_inurba_marseille","lat":43.278369,"lon":5.392116,"is_reserved":false,"is_disabled":false,"rental_uris":{"android":"levelo://app?vid=4cbe6817-41d5-4295-ac68-5094fd4e61f7","ios":"levelo://app?vid=4cbe6817-41d5-4295-ac68-5094fd4e61f7"},"vehicle_type_id":"4","last_reported":1768421455,"current_range_meters":5600,"station_id":"ce4bhjp2rcd13ifvqga0","pricing_plan_id":"cebpf4jnsgd1na2vs0mg"},{"bike_id":"9e33ec20-b640-421c-9755-4eda0d33997f","system_id":"levelo_inurba_marseille","lat":43.29943,"lon":5.37608,"is_reserved":false,"is_disabled":false,"rental_uris":{"android":"levelo://app?vid=9e33ec20-b640-421c-9755-4eda0d33997f","ios":"levelo://app?vid=9e33ec20-b640-421c-9755-4eda0d33997f"},"vehicle_type_id":"4","last_reported":1768421455,"current_range_meters":5600,"station_id":"","pricing_plan_id":"cebpf4jnsgd1na2vs0mg"},{"bike_id":"80270136-cc67-4544-a56b-a048fa078834","system_id":"levelo_inurba_marseille","lat":43.30189,"lon":5.36601,"is_reserved":false,"is_disabled":false,"rental_uris":{"android":"levelo://app?vid=80270136-cc67-4544-a56b-a048fa078834","ios":"levelo://app?vid=80270136-cc67-4544-a56b-a048fa078834"},"vehicle_type_id":"4","last_reported":1768421455,"current_range_meters":6000,"station_id":"ce4bgrh2rcd13ifvqc8g","pricing_plan_id":"cebpf4jnsgd1na2vs0mg"},{"bike_id":"6cf3ea51-354d-4297-9118-d9a60321a31f","system_id":"levelo_inurba_marseille","lat":43.286123,"lon":5.398777,"is_reserved":false,"is_disabled":false,"rental_uris":{"android":"levelo://app?vid=6cf3ea51-354d-4297-9118-d9a60321a31f","ios":"levelo://app?vid=6cf3ea51-354d-4297-9118-d9a60321a31f"},"vehicle_type_id":"4","last_reported":1768421455,"current_range_meters":6000,"station_id":"st_d4a7ka997mjs738ck50g","pricing_plan_id":"cebpf4jnsgd1na2vs0mg"},{"bike_id":"8b02a200-1d1b-433b-929d-ae0dd3c70aa8","system_id":"levelo_inurba_marseille","lat":43.25336,"lon":5.42165,"is_reserved":false,"is_disabled":false,"rental_uris":{"android":"levelo://app?vid=8b02a200-1d1b-433b-929d-ae0dd3c70aa8","ios":"levelo://app?vid=8b02a200-1d1b-433b-929d-ae0dd3c70aa8"},"vehicle_type_id":"4","last_reported":1768421455,"current_range_meters":6000,"station_id":"st_d2m65c5bi1j21697t3ng","pricing_plan_id":"cebpf4jnsgd1na2vs0mg"},{"bike_id":"2be4d80e-6efd-412b-9ef7-d05dabc904a6","system_id":"levelo_inurba_marseille","lat":43.31278,"lon":5.4017,"is_reserved":false,"is_disabled":false,"rental_uris":{"android":"levelo://app?vid=2be4d80e-6efd-412b-9ef7-d05dabc904a6","ios":"levelo://app?vid=2be4d80e-6efd-412b-9ef7-d05dabc904a6"},"vehicle_type_id":"4","last_reported":1768421455,"current_range_meters":6000,"station_id":"ce4bh092rcd13ifvqd30","pricing_plan_id":"cebpf4jnsgd1na2vs0mg"},{"bike_id":"d8e03ef6-0c5e-49db-943c-98c26bf654da","system_id":"levelo_inurba_marseille","lat":43.29953,"lon":5.37434,"is_reserved":false,"is_disabled":false,"rental_uris":{"android":"levelo://app?vid=d8e03ef6-0c5e-49db-943c-98c26bf654da","ios":"levelo://app?vid=d8e03ef6-0c5e-49db-943c-98c26bf654da"},"vehicle_type_id":"4","last_reported":1768421455,"current_range_meters":6000,"station_id":"ce4bgjh2rcd13ifvqbg0","pricing_plan_id":"cebpf4jnsgd1na2vs0mg"},{"bike_id":"e2d40e73-301d-450b-9130-f2a6937b37dc","system_id":"levelo_inurba_marseille","lat":43.30302,"lon":5.39209,"is_reserved":false,"is_disabled":false,"rental_uris":{"android":"levelo://app?vid=e2d40e73-301d-450b-9130-f2a6937b37dc","ios":"levelo://app?vid=e2d40e73-301d-450b-9130-f2a6937b37dc"},"vehicle_type_id":"4","last_reported":1768421455,"current_range_meters":6000,"station_id":"ce4bgkh2rcd13ifvqbk0","pricing_plan_id":"cebpf4jnsgd1na2vs0mg"},{"bike_id":"f90b66d8-7ec0-4b35-997a-ab70de47e1d5","system_id":"levelo_inurba_marseille","lat":43.32465,"lon":5.36572,"is_reserved":false,"is_disabled":false,"rental_uris":{"android":"levelo://app?vid=f90b66d8-7ec0-4b35-997a-ab70de47e1d5","ios":"levelo://app?vid=f90b66d8-7ec0-4b35-997a-ab70de47e1d5"},"vehicle_type_id":"4","last_reported":1768421455,"current_range_meters":6000,"station_id":"ce4bhs12rcd13ifvqhvg","pricing_plan_id":"cebpf4jnsgd1na2vs0mg"},{"bike_id":"cb91171a-b433-4d62-9e48-7aa16e13fdf7","system_id":"levelo_inurba_marseille","lat":43.29758,"lon":5.42763,"is_reserved":false,"is_disabled":false,"rental_uris":{"android":"levelo://app?vid=cb91171a-b433-4d62-9e48-7aa16e13fdf7","ios":"levelo://app?vid=cb91171a-b433-4d62-9e48-7aa16e13fdf7"},"vehicle_type_id":"4","last_reported":1768421455,"current_range_meters":6000,"station_id":"st_d3md5207bmas73dh9klg","pricing_plan_id":"cebpf4jnsgd1na2vs0mg"},{"bike_id":"f680f50c-74ae-434a-9907-5a62e8f7d3ec","system_id":"levelo_inurba_marseille","lat":43.30542,"lon":5.36694,"is_reserved":false,"is_disabled":false,"rental_uris":{"android":"levelo://app?vid=f680f50c-74ae-434a-9907-5a62e8f7d3ec","ios":"levelo://app?vid=f680f50c-74ae-434a-9907-5a62e8f7d3ec"},"vehicle_type_id":"4","last_reported":1768421455,"current_range_meters":6000,"station_id":"ce4bgrp2rcd13ifvqc9g","pricing_plan_id":"cebpf4jnsgd1na2vs0mg"},{"bike_id":"a258d6a0-0142-4e86-a592-485a374769bd","system_id":"levelo_inurba_marseille","lat":43.29547,"lon":5.38554,"is_reserved":false,"is_disabled":false,"rental_uris":{"android":"levelo://app?vid=a258d6a0-0142-4e86-a592-485a374769bd","ios":"levelo://app?vid=a258d6a0-0142-4e86-a592-485a374769bd"},"vehicle_type_id":"4","last_reported":1768421455,"current_range_meters":6000,"station_id":"ce4bgih2rcd13ifvqba0","pricing_plan_id":"cebpf4jnsgd1na2vs0mg"},{"bike_id":"e56cccc5-d92b-44ab-827a-05b0fbec68b3","system_id":"levelo_inurba_marseille","lat":43.29437,"lon":5.39749,"is_reserved":false,"is_disabled":false,"rental_uris":{"android":"levelo://app?vid=e56cccc5-d92b-44ab-827a-05b0fbec68b3","ios":"levelo://app?vid=e56cccc5-d92b-44ab-827a-05b0fbec68b3"},"vehicle_type_id":"4","last_reported":1768421455,"current_range_meters":6000,"station_id":"ce4bh3h2rcd13ifvqdo0","pricing_plan_id":"cebpf4jnsgd1na2vs0mg"},{"bike_id":"ed72a0b6-ae7f-4a71-b921-5641b757c6dd","system_id":"levelo_inurba_marseille","lat":43.29291,"lon":5.37461,"is_reserved":false,"is_disabled":false,"rental_uris":{"android":"levelo://app?vid=ed72a0b6-ae7f-4a71-b921-5641b757c6dd","ios":"levelo://app?vid=ed72a0b6-ae7f-4a71-b921-5641b757c6dd"},"vehicle_type_id":"4","last_reported":1768421455,"current_range_meters":6000,"station_id":"ce4bgi12rcd13ifvqb70","pricing_plan_id":"cebpf4jnsgd1na2vs0mg"},{"bike_id":"99e09e4c-4502-4829-ba5b-8e0123e41d14","system_id":"levelo_inurba_marseille","lat":43.319973,"lon":5.381607,"is_reserved":false,"is_disabled":false,"rental_uris":{"android":"levelo://app?vid=99e09e4c-4502-4829-ba5b-8e0123e41d14","ios":"levelo://app?vid=99e09e4c-4502-4829-ba5b-8e0123e41d14"},"vehicle_type_id":"4","last_reported":1768421455,"current_range_meters":6000,"station_id":"ce4bhr12rcd13ifvqhpg","pricing_plan_id":"cebpf4jnsgd1na2vs0mg"},{"bike_id":"611cbb73-54c4-4011-a401-b601214ce58b","system_id":"levelo_inurba_marseille","lat":43.25583,"lon":5.3824,"is_reserved":false,"is_disabled":false,"rental_uris":{"android":"levelo://app?vid=611cbb73-54c4-4011-a401-b601214ce58b","ios":"levelo://app?vid=611cbb73-54c4-4011-a401-b601214ce58b"},"vehicle_type_id":"4","last_reported":1768421455,"current_range_meters":6000,"station_id":"ce4bhih2rcd13ifvqfs0","pricing_plan_id":"cebpf4jnsgd1na2vs0mg"},{"bike_id":"1ffb9e1e-839b-466c-bee6-b14226c93722","system_id":"levelo_inurba_marseille","lat":43.29183,"lon":5.37153,"is_reserved":false,"is_disabled":false,"rental_uris":{"android":"levelo://app?vid=1ffb9e1e-839b-466c-bee6-b14226c93722","ios":"levelo://app?vid=1ffb9e1e-839b-466c-bee6-b14226c93722"},"vehicle_type_id":"4","last_reported":1768421455,"current_range_meters":6000,"station_id":"ce4bha92rcd13ifvqeh0","pricing_plan_id":"cebpf4jnsgd1na2vs0mg"},{"bike_id":"5d7ebc84-6cbc-444a-98cd-1089c41e4417","system_id":"levelo_inurba_marseille","lat":43.284724,"lon":5.384229,"is_reserved":false,"is_disabled":false,"rental_uris":{"android":"levelo://app?vid=5d7ebc84-6cbc-444a-98cd-1089c41e4417","ios":"levelo://app?vid=5d7ebc84-6cbc-444a-98cd-1089c41e4417"},"vehicle_type_id":"4","last_reported":1768421455,"current_range_meters":6400,"station_id":"ce4bh512rcd13ifvqe3g","pricing_plan_id":"cebpf4jnsgd1na2vs0mg"},{"bike_id":"5406af2b-09be-41cc-95b3-93372c70a543","system_id":"levelo_inurba_marseille","lat":43.286741,"lon":5.386683,"is_reserved":false,"is_disabled":false,"rental_uris":{"android":"levelo://app?vid=5406af2b-09be-41cc-95b3-93372c70a543","ios":"levelo://app?vid=5406af2b-09be-41cc-95b3-93372c70a543"},"vehicle_type_id":"4","last_reported":1768421455,"current_range_meters":6400,"station_id":"ce4bh492rcd13ifvqdug","pricing_plan_id":"cebpf4jnsgd1na2vs0mg"},{"bike_id":"c6e9de66-6afd-4a9f-9bd8-25d46ddbfedb","system_id":"levelo_inurba_marseille","lat":43.28996,"lon":5.35596,"is_reserved":false,"is_disabled":false,"rental_uris":{"android":"levelo://app?vid=c6e9de66-6afd-4a9f-9bd8-25d46ddbfedb","ios":"levelo://app?vid=c6e9de66-6afd-4a9f-9bd8-25d46ddbfedb"},"vehicle_type_id":"4","last_reported":1768421455,"current_range_meters":6400,"station_id":"ce4bhb92rcd13ifvqen0","pricing_plan_id":"cebpf4jnsgd1na2vs0mg"},{"bike_id":"2b8cac29-3b87-42b5-ae6f-5e604ece2311","system_id":"levelo_inurba_marseille","lat":43.28577,"lon":5.39501,"is_reserved":false,"is_disabled":false,"rental_uris":{"android":"levelo://app?vid=2b8cac29-3b87-42b5-ae6f-5e604ece2311","ios":"levelo://app?vid=2b8cac29-3b87-42b5-ae6f-5e604ece2311"},"vehicle_type_id":"4","last_reported":1768421455,"current_range_meters":6400,"station_id":"ce4bh292rcd13ifvqdg0","pricing_plan_id":"cebpf4jnsgd1na2vs0mg"},{"bike_id":"cfb63e50-a409-4cab-8013-6bb57bfec7c6","system_id":"levelo_inurba_marseille","lat":43.29031,"lon":5.38635,"is_reserved":false,"is_disabled":false,"rental_uris":{"android":"levelo://app?vid=cfb63e50-a409-4cab-8013-6bb57bfec7c6","ios":"levelo://app?vid=cfb63e50-a409-4cab-8013-6bb57bfec7c6"},"vehicle_type_id":"4","last_reported":1768421455,"current_range_meters":6400,"station_id":"ce4bh4p2rcd13ifvqe0g","pricing_plan_id":"cebpf4jnsgd1na2vs0mg"},{"bike_id":"1c368511-4dc5-413e-9320-5c9141f9acf7","system_id":"levelo_inurba_marseille","lat":43.26418,"lon":5.39871,"is_reserved":false,"is_disabled":true,"rental_uris":{"android":"levelo://app?vid=1c368511-4dc5-413e-9320-5c9141f9acf7","ios":"levelo://app?vid=1c368511-4dc5-413e-9320-5c9141f9acf7"},"vehicle_type_id":"4","last_reported":1768421455,"current_range_meters":6400,"station_id":"","pricing_plan_id":"cebpf4jnsgd1na2vs0mg"},{"bike_id":"3b8c8a0b-4403-4774-ac15-61e3b8ca695c","system_id":"levelo_inurba_marseille","lat":43.279999,"lon":5.400082,"is_reserved":false,"is_disabled":false,"rental_uris":{"android":"levelo://app?vid=3b8c8a0b-4403-4774-ac15-61e3b8ca695c","ios":"levelo://app?vid=3b8c8a0b-4403-4774-ac15-61e3b8ca695c"},"vehicle_type_id":"4","last_reported":1768421455,"current_range_meters":6400,"station_id":"ce4bho92rcd13ifvqh4g","pricing_plan_id":"cebpf4jnsgd1na2vs0mg"},{"bike_id":"326fd45d-11eb-4826-92b5-835d5b4d7fbd","system_id":"levelo_inurba_marseille","lat":43.300324,"lon":5.388794,"is_reserved":false,"is_disabled":false,"rental_uris":{"android":"levelo://app?vid=326fd45d-11eb-4826-92b5-835d5b4d7fbd","ios":"levelo://app?vid=326fd45d-11eb-4826-92b5-835d5b4d7fbd"},"vehicle_type_id":"4","last_reported":1768421455,"current_range_meters":6400,"station_id":"","pricing_plan_id":"cebpf4jnsgd1na2vs0mg"},{"bike_id":"6f06e6b3-a869-4347-9525-e6cdc60f369a","system_id":"levelo_inurba_marseille","lat":43.30216,"lon":5.3947,"is_reserved":false,"is_disabled":false,"rental_uris":{"android":"levelo://app?vid=6f06e6b3-a869-4347-9525-e6cdc60f369a","ios":"levelo://app?vid=6f06e6b3-a869-4347-9525-e6cdc60f369a"},"vehicle_type_id":"4","last_reported":1768421455,"current_range_meters":6400,"station_id":"ce4bh0p2rcd13ifvqd70","pricing_plan_id":"cebpf4jnsgd1na2vs0mg"},{"bike_id":"50547617-0bbd-44b0-aa6e-7b2c204ea77d","system_id":"levelo_inurba_marseille","lat":43.29268,"lon":5.37617,"is_reserved":false,"is_disabled":false,"rental_uris":{"android":"levelo://app?vid=50547617-0bbd-44b0-aa6e-7b2c204ea77d","ios":"levelo://app?vid=50547617-0bbd-44b0-aa6e-7b2c204ea77d"},"vehicle_type_id":"4","last_reported":1768421455,"current_range_meters":6400,"station_id":"ce4bgi12rcd13ifvqb80","pricing_plan_id":"cebpf4jnsgd1na2vs0mg"},{"bike_id":"dbd86f85-5b5f-4ae9-8c1d-698ae30b47da","system_id":"levelo_inurba_marseille","lat":43.29685,"lon":5.36617,"is_reserved":false,"is_disabled":false,"rental_uris":{"android":"levelo://app?vid=dbd86f85-5b5f-4ae9-8c1d-698ae30b47da","ios":"levelo://app?vid=dbd86f85-5b5f-4ae9-8c1d-698ae30b47da"},"vehicle_type_id":"4","last_reported":1768421455,"current_range_meters":6400,"station_id":"ce4bgn12rcd13ifvqbt0","pricing_plan_id":"cebpf4jnsgd1na2vs0mg"},{"bike_id":"c584537b-62c7-4948-a162-60dcd0d33c4c","system_id":"levelo_inurba_marseille","lat":43.32344,"lon":5.36763,"is_reserved":false,"is_disabled":false,"rental_uris":{"android":"levelo://app?vid=c584537b-62c7-4948-a162-60dcd0d33c4c","ios":"levelo://app?vid=c584537b-62c7-4948-a162-60dcd0d33c4c"},"vehicle_type_id":"4","last_reported":1768421455,"current_range_meters":6400,"station_id":"ce4bhsh2rcd13ifvqi2g","pricing_plan_id":"cebpf4jnsgd1na2vs0mg"},{"bike_id":"1af8d0b1-f94c-4483-941c-f23e281dd486","system_id":"levelo_inurba_marseille","lat":43.29537,"lon":5.39019,"is_reserved":false,"is_disabled":false,"rental_uris":{"android":"levelo://app?vid=1af8d0b1-f94c-4483-941c-f23e281dd486","ios":"levelo://app?vid=1af8d0b1-f94c-4483-941c-f23e281dd486"},"vehicle_type_id":"4","last_reported":1768421455,"current_range_meters":6400,"station_id":"ce4bh3p2rcd13ifvqdp0","pricing_plan_id":"cebpf4jnsgd1na2vs0mg"},{"bike_id":"40b5fdc1-1af0-403e-ab5a-562fff036fc0","system_id":"levelo_inurba_marseille","lat":43.30911,"lon":5.36844,"is_reserved":false,"is_disabled":false,"rental_uris":{"android":"levelo://app?vid=40b5fdc1-1af0-403e-ab5a-562fff036fc0","ios":"levelo://app?vid=40b5fdc1-1af0-403e-ab5a-562fff036fc0"},"vehicle_type_id":"4","last_reported":1768421455,"current_range_meters":6400,"station_id":"ce4bgn92rcd13ifvqbvg","pricing_plan_id":"cebpf4jnsgd1na2vs0mg"},{"bike_id":"a6f7909c-a26a-4d0c-8ed1-db8945d687a2","system_id":"levelo_inurba_marseille","lat":43.2619,"lon":5.37446,"is_reserved":false,"is_disabled":false,"rental_uris":{"android":"levelo://app?vid=a6f7909c-a26a-4d0c-8ed1-db8945d687a2","ios":"levelo://app?vid=a6f7909c-a26a-4d0c-8ed1-db8945d687a2"},"vehicle_type_id":"4","last_reported":1768421455,"current_range_meters":6400,"station_id":"ce4bhgp2rcd13ifvqfc0","pricing_plan_id":"cebpf4jnsgd1na2vs0mg"},{"bike_id":"04bcbfab-9e44-45f1-8209-86090582b832","system_id":"levelo_inurba_marseille","lat":43.27994,"lon":5.40004,"is_reserved":false,"is_disabled":false,"rental_uris":{"android":"levelo://app?vid=04bcbfab-9e44-45f1-8209-86090582b832","ios":"levelo://app?vid=04bcbfab-9e44-45f1-8209-86090582b832"},"vehicle_type_id":"4","last_reported":1768421455,"current_range_meters":6400,"station_id":"ce4bho92rcd13ifvqh4g","pricing_plan_id":"cebpf4jnsgd1na2vs0mg"},{"bike_id":"c2e2cf7b-f452-4452-98fb-1edf19685bbb","system_id":"levelo_inurba_marseille","lat":43.29055,"lon":5.37151,"is_reserved":false,"is_disabled":false,"rental_uris":{"android":"levelo://app?vid=c2e2cf7b-f452-4452-98fb-1edf19685bbb","ios":"levelo://app?vid=c2e2cf7b-f452-4452-98fb-1edf19685bbb"},"vehicle_type_id":"4","last_reported":1768421455,"current_range_meters":6400,"station_id":"ce4bh5p2rcd13ifvqe4g","pricing_plan_id":"cebpf4jnsgd1na2vs0mg"},{"bike_id":"2dfb6b27-1a9d-4365-8ea3-5579df8f7297","system_id":"levelo_inurba_marseille","lat":43.25009,"lon":5.38941,"is_reserved":false,"is_disabled":false,"rental_uris":{"android":"levelo://app?vid=2dfb6b27-1a9d-4365-8ea3-5579df8f7297","ios":"levelo://app?vid=2dfb6b27-1a9d-4365-8ea3-5579df8f7297"},"vehicle_type_id":"4","last_reported":1768421455,"current_range_meters":6400,"station_id":"ce4bhgp2rcd13ifvqfd0","pricing_plan_id":"cebpf4jnsgd1na2vs0mg"},{"bike_id":"f04f4335-e06f-412d-a464-1723aa4c86a4","system_id":"levelo_inurba_marseille","lat":43.29798,"lon":5.44065,"is_reserved":false,"is_disabled":true,"rental_uris":{"android":"levelo://app?vid=f04f4335-e06f-412d-a464-1723aa4c86a4","ios":"levelo://app?vid=f04f4335-e06f-412d-a464-1723aa4c86a4"},"vehicle_type_id":"4","last_reported":1768421455,"current_range_meters":6400,"station_id":"st_d3jp68qikq2c7381ktn0","pricing_plan_id":"cebpf4jnsgd1na2vs0mg"},{"bike_id":"c75b139b-6977-457c-8fab-86c172554976","system_id":"levelo_inurba_marseille","lat":43.25103,"lon":5.40455,"is_reserved":false,"is_disabled":false,"rental_uris":{"android":"levelo://app?vid=c75b139b-6977-457c-8fab-86c172554976","ios":"levelo://app?vid=c75b139b-6977-457c-8fab-86c172554976"},"vehicle_type_id":"4","last_reported":1768421455,"current_range_meters":6800,"station_id":"","pricing_plan_id":"cebpf4jnsgd1na2vs0mg"},{"bike_id":"660f8d3d-996c-4d0c-a098-476ebc30f600","system_id":"levelo_inurba_marseille","lat":43.22562,"lon":5.41634,"is_reserved":false,"is_disabled":false,"rental_uris":{"android":"levelo://app?vid=660f8d3d-996c-4d0c-a098-476ebc30f600","ios":"levelo://app?vid=660f8d3d-996c-4d0c-a098-476ebc30f600"},"vehicle_type_id":"4","last_reported":1768421455,"current_range_meters":6800,"station_id":"st_d2o4gvlbi1j2169b742g","pricing_plan_id":"cebpf4jnsgd1na2vs0mg"},{"bike_id":"12ef29d4-08f0-41ff-ab71-dda1f2c22c5f","system_id":"levelo_inurba_marseille","lat":43.30112,"lon":5.39882,"is_reserved":false,"is_disabled":false,"rental_uris":{"android":"levelo://app?vid=12ef29d4-08f0-41ff-ab71-dda1f2c22c5f","ios":"levelo://app?vid=12ef29d4-08f0-41ff-ab71-dda1f2c22c5f"},"vehicle_type_id":"4","last_reported":1768421455,"current_range_meters":6800,"station_id":"ce4bh0h2rcd13ifvqd40","pricing_plan_id":"cebpf4jnsgd1na2vs0mg"},{"bike_id":"6a2cea38-a98b-4ded-ab60-20d113ce05e0","system_id":"levelo_inurba_marseille","lat":43.2551,"lon":5.37657,"is_reserved":false,"is_disabled":false,"rental_uris":{"android":"levelo://app?vid=6a2cea38-a98b-4ded-ab60-20d113ce05e0","ios":"levelo://app?vid=6a2cea38-a98b-4ded-ab60-20d113ce05e0"},"vehicle_type_id":"4","last_reported":1768421455,"current_range_meters":6800,"station_id":"ce4bhh12rcd13ifvqff0","pricing_plan_id":"cebpf4jnsgd1na2vs0mg"},{"bike_id":"dc80c252-d0f8-4b39-9a5a-d73e84fe0a50","system_id":"levelo_inurba_marseille","lat":43.31222,"lon":5.36871,"is_reserved":false,"is_disabled":false,"rental_uris":{"android":"levelo://app?vid=dc80c252-d0f8-4b39-9a5a-d73e84fe0a50","ios":"levelo://app?vid=dc80c252-d0f8-4b39-9a5a-d73e84fe0a50"},"vehicle_type_id":"4","last_reported":1768421455,"current_range_meters":6800,"station_id":"ce4bgl92rcd13ifvqbq0","pricing_plan_id":"cebpf4jnsgd1na2vs0mg"},{"bike_id":"86aaef4b-aac1-4248-ac79-0d9f37b8c62f","system_id":"levelo_inurba_marseille","lat":43.27317,"lon":5.41682,"is_reserved":false,"is_disabled":false,"rental_uris":{"android":"levelo://app?vid=86aaef4b-aac1-4248-ac79-0d9f37b8c62f","ios":"levelo://app?vid=86aaef4b-aac1-4248-ac79-0d9f37b8c62f"},"vehicle_type_id":"4","last_reported":1768421455,"current_range_meters":6800,"station_id":"","pricing_plan_id":"cebpf4jnsgd1na2vs0mg"},{"bike_id":"eeb31f1a-7037-473f-a218-2d48daf5c61c","system_id":"levelo_inurba_marseille","lat":43.241261,"lon":5.376989,"is_reserved":false,"is_disabled":false,"rental_uris":{"android":"levelo://app?vid=eeb31f1a-7037-473f-a218-2d48daf5c61c","ios":"levelo://app?vid=eeb31f1a-7037-473f-a218-2d48daf5c61c"},"vehicle_type_id":"4","last_reported":1768421455,"current_range_meters":6800,"station_id":"ce4bhnp2rcd13ifvqgvg","pricing_plan_id":"cebpf4jnsgd1na2vs0mg"},{"bike_id":"6ca8f5d9-f51d-41bf-90c6-7998c0e7f392","system_id":"levelo_inurba_marseille","lat":43.290307,"lon":5.386414,"is_reserved":false,"is_disabled":false,"rental_uris":{"android":"levelo://app?vid=6ca8f5d9-f51d-41bf-90c6-7998c0e7f392","ios":"levelo://app?vid=6ca8f5d9-f51d-41bf-90c6-7998c0e7f392"},"vehicle_type_id":"4","last_reported":1768421455,"current_range_meters":6800,"station_id":"ce4bho92rcd13ifvqh3g","pricing_plan_id":"cebpf4jnsgd1na2vs0mg"},{"bike_id":"8803a6e9-67a3-479e-b849-a893754260d5","system_id":"levelo_inurba_marseille","lat":43.22929,"lon":5.35376,"is_reserved":false,"is_disabled":false,"rental_uris":{"android":"levelo://app?vid=8803a6e9-67a3-479e-b849-a893754260d5","ios":"levelo://app?vid=8803a6e9-67a3-479e-b849-a893754260d5"},"vehicle_type_id":"4","last_reported":1768421455,"current_range_meters":6800,"station_id":"cpo3532slgdg3j2ikp40","pricing_plan_id":"cebpf4jnsgd1na2vs0mg"},{"bike_id":"1b47c68b-1a5a-44ee-9351-354c6e6aca45","system_id":"levelo_inurba_marseille","lat":43.28003,"lon":5.40008,"is_reserved":false,"is_disabled":false,"rental_uris":{"android":"levelo://app?vid=1b47c68b-1a5a-44ee-9351-354c6e6aca45","ios":"levelo://app?vid=1b47c68b-1a5a-44ee-9351-354c6e6aca45"},"vehicle_type_id":"4","last_reported":1768421455,"current_range_meters":6800,"station_id":"ce4bho92rcd13ifvqh4g","pricing_plan_id":"cebpf4jnsgd1na2vs0mg"},{"bike_id":"e7d502f9-ee09-4b2b-b4e9-231066f0a411","system_id":"levelo_inurba_marseille","lat":43.26942,"lon":5.40255,"is_reserved":false,"is_disabled":false,"rental_uris":{"android":"levelo://app?vid=e7d502f9-ee09-4b2b-b4e9-231066f0a411","ios":"levelo://app?vid=e7d502f9-ee09-4b2b-b4e9-231066f0a411"},"vehicle_type_id":"4","last_reported":1768421455,"current_range_meters":6800,"station_id":"cjm6bp8fraef2m0cb0m0","pricing_plan_id":"cebpf4jnsgd1na2vs0mg"},{"bike_id":"32a6fb2e-0d07-41f5-98d9-49c5a72b9745","system_id":"levelo_inurba_marseille","lat":43.25829,"lon":5.39344,"is_reserved":false,"is_disabled":false,"rental_uris":{"android":"levelo://app?vid=32a6fb2e-0d07-41f5-98d9-49c5a72b9745","ios":"levelo://app?vid=32a6fb2e-0d07-41f5-98d9-49c5a72b9745"},"vehicle_type_id":"4","last_reported":1768421455,"current_range_meters":6800,"station_id":"","pricing_plan_id":"cebpf4jnsgd1na2vs0mg"},{"bike_id":"9367415a-ef2a-4777-97ca-a4f559923b51","system_id":"levelo_inurba_marseille","lat":43.29276,"lon":5.40118,"is_reserved":false,"is_disabled":false,"rental_uris":{"android":"levelo://app?vid=9367415a-ef2a-4777-97ca-a4f559923b51","ios":"levelo://app?vid=9367415a-ef2a-4777-97ca-a4f559923b51"},"vehicle_type_id":"4","last_reported":1768421455,"current_range_meters":6800,"station_id":"ce4bh312rcd13ifvqdk0","pricing_plan_id":"cebpf4jnsgd1na2vs0mg"},{"bike_id":"a49ad644-46df-4821-bcb6-1e03d8cb65b6","system_id":"levelo_inurba_marseille","lat":43.29611,"lon":5.36784,"is_reserved":false,"is_disabled":false,"rental_uris":{"android":"levelo://app?vid=a49ad644-46df-4821-bcb6-1e03d8cb65b6","ios":"levelo://app?vid=a49ad644-46df-4821-bcb6-1e03d8cb65b6"},"vehicle_type_id":"4","last_reported":1768421455,"current_range_meters":6800,"station_id":"","pricing_plan_id":"cebpf4jnsgd1na2vs0mg"},{"bike_id":"ae1d99b1-82a1-460d-bd96-dc1d194fe893","system_id":"levelo_inurba_marseille","lat":43.29823,"lon":5.37648,"is_reserved":false,"is_disabled":false,"rental_uris":{"android":"levelo://app?vid=ae1d99b1-82a1-460d-bd96-dc1d194fe893","ios":"levelo://app?vid=ae1d99b1-82a1-460d-bd96-dc1d194fe893"},"vehicle_type_id":"4","last_reported":1768421455,"current_range_meters":6800,"station_id":"","pricing_plan_id":"cebpf4jnsgd1na2vs0mg"},{"bike_id":"091c8081-61de-43ac-bb2c-74077a5d4149","system_id":"levelo_inurba_marseille","lat":43.2257,"lon":5.41706,"is_reserved":false,"is_disabled":false,"rental_uris":{"android":"levelo://app?vid=091c8081-61de-43ac-bb2c-74077a5d4149","ios":"levelo://app?vid=091c8081-61de-43ac-bb2c-74077a5d4149"},"vehicle_type_id":"4","last_reported":1768421455,"current_range_meters":6800,"station_id":"","pricing_plan_id":"cebpf4jnsgd1na2vs0mg"},{"bike_id":"fddb64b5-fec5-4cb5-9080-d837ea04a1fc","system_id":"levelo_inurba_marseille","lat":43.29271,"lon":5.38446,"is_reserved":false,"is_disabled":false,"rental_uris":{"android":"levelo://app?vid=fddb64b5-fec5-4cb5-9080-d837ea04a1fc","ios":"levelo://app?vid=fddb64b5-fec5-4cb5-9080-d837ea04a1fc"},"vehicle_type_id":"4","last_reported":1768421455,"current_range_meters":6800,"station_id":"ce4bh692rcd13ifvqea0","pricing_plan_id":"cebpf4jnsgd1na2vs0mg"},{"bike_id":"e3711e41-0161-46aa-9164-7f9c4fb49d5a","system_id":"levelo_inurba_marseille","lat":43.21184,"lon":5.35071,"is_reserved":false,"is_disabled":false,"rental_uris":{"android":"levelo://app?vid=e3711e41-0161-46aa-9164-7f9c4fb49d5a","ios":"levelo://app?vid=e3711e41-0161-46aa-9164-7f9c4fb49d5a"},"vehicle_type_id":"4","last_reported":1768421455,"current_range_meters":6800,"station_id":"st_cvj6sg6p6f1abm77japg","pricing_plan_id":"cebpf4jnsgd1na2vs0mg"},{"bike_id":"037a0099-1ded-43c7-8e30-7e3e2a0dc4bc","system_id":"levelo_inurba_marseille","lat":43.24956,"lon":5.40503,"is_reserved":false,"is_disabled":false,"rental_uris":{"android":"levelo://app?vid=037a0099-1ded-43c7-8e30-7e3e2a0dc4bc","ios":"levelo://app?vid=037a0099-1ded-43c7-8e30-7e3e2a0dc4bc"},"vehicle_type_id":"4","last_reported":1768421455,"current_range_meters":6800,"station_id":"st_d2ngiaodas8pm72gd1h0","pricing_plan_id":"cebpf4jnsgd1na2vs0mg"},{"bike_id":"5d3f123c-3f55-4795-93ce-d87d4af2eb95","system_id":"levelo_inurba_marseille","lat":43.27061,"lon":5.42277,"is_reserved":false,"is_disabled":false,"rental_uris":{"android":"levelo://app?vid=5d3f123c-3f55-4795-93ce-d87d4af2eb95","ios":"levelo://app?vid=5d3f123c-3f55-4795-93ce-d87d4af2eb95"},"vehicle_type_id":"4","last_reported":1768421455,"current_range_meters":6800,"station_id":"ce4bhk92rcd13ifvqgb0","pricing_plan_id":"cebpf4jnsgd1na2vs0mg"},{"bike_id":"c4c5a3df-e90e-4579-88a2-9cc4ceac9cd9","system_id":"levelo_inurba_marseille","lat":43.30501,"lon":5.36702,"is_reserved":false,"is_disabled":false,"rental_uris":{"android":"levelo://app?vid=c4c5a3df-e90e-4579-88a2-9cc4ceac9cd9","ios":"levelo://app?vid=c4c5a3df-e90e-4579-88a2-9cc4ceac9cd9"},"vehicle_type_id":"4","last_reported":1768421455,"current_range_meters":7200,"station_id":"ce4bgrp2rcd13ifvqc9g","pricing_plan_id":"cebpf4jnsgd1na2vs0mg"},{"bike_id":"2f317efe-a01b-468a-9036-21dfc4cc3358","system_id":"levelo_inurba_marseille","lat":43.25821,"lon":5.39431,"is_reserved":false,"is_disabled":false,"rental_uris":{"android":"levelo://app?vid=2f317efe-a01b-468a-9036-21dfc4cc3358","ios":"levelo://app?vid=2f317efe-a01b-468a-9036-21dfc4cc3358"},"vehicle_type_id":"4","last_reported":1768421455,"current_range_meters":7200,"station_id":"ce4bhip2rcd13ifvqft0","pricing_plan_id":"cebpf4jnsgd1na2vs0mg"},{"bike_id":"7445f670-7827-4e99-80df-37c19e7cc9ec","system_id":"levelo_inurba_marseille","lat":43.32123,"lon":5.36775,"is_reserved":false,"is_disabled":false,"rental_uris":{"android":"levelo://app?vid=7445f670-7827-4e99-80df-37c19e7cc9ec","ios":"levelo://app?vid=7445f670-7827-4e99-80df-37c19e7cc9ec"},"vehicle_type_id":"4","last_reported":1768421455,"current_range_meters":7200,"station_id":"ce4bhrh2rcd13ifvqhug","pricing_plan_id":"cebpf4jnsgd1na2vs0mg"},{"bike_id":"7cccb604-f149-4e8e-9ee8-78300c58372e","system_id":"levelo_inurba_marseille","lat":43.23193,"lon":5.39985,"is_reserved":false,"is_disabled":false,"rental_uris":{"android":"levelo://app?vid=7cccb604-f149-4e8e-9ee8-78300c58372e","ios":"levelo://app?vid=7cccb604-f149-4e8e-9ee8-78300c58372e"},"vehicle_type_id":"4","last_reported":1768421455,"current_range_meters":7200,"station_id":"ce4bhn12rcd13ifvqgqg","pricing_plan_id":"cebpf4jnsgd1na2vs0mg"},{"bike_id":"06897417-f925-403b-9b53-83cb77fb311f","system_id":"levelo_inurba_marseille","lat":43.22948,"lon":5.3537,"is_reserved":false,"is_disabled":false,"rental_uris":{"android":"levelo://app?vid=06897417-f925-403b-9b53-83cb77fb311f","ios":"levelo://app?vid=06897417-f925-403b-9b53-83cb77fb311f"},"vehicle_type_id":"4","last_reported":1768421455,"current_range_meters":7200,"station_id":"cpo3532slgdg3j2ikp40","pricing_plan_id":"cebpf4jnsgd1na2vs0mg"},{"bike_id":"afbdfcc0-0cd6-4bdf-8994-51a5ba099612","system_id":"levelo_inurba_marseille","lat":43.29329,"lon":5.41159,"is_reserved":false,"is_disabled":false,"rental_uris":{"android":"levelo://app?vid=afbdfcc0-0cd6-4bdf-8994-51a5ba099612","ios":"levelo://app?vid=afbdfcc0-0cd6-4bdf-8994-51a5ba099612"},"vehicle_type_id":"4","last_reported":1768421455,"current_range_meters":7200,"station_id":"","pricing_plan_id":"cebpf4jnsgd1na2vs0mg"},{"bike_id":"c8c9f1e3-cfb9-4095-8d70-4c877ea7f0b9","system_id":"levelo_inurba_marseille","lat":43.3154,"lon":5.38461,"is_reserved":false,"is_disabled":false,"rental_uris":{"android":"levelo://app?vid=c8c9f1e3-cfb9-4095-8d70-4c877ea7f0b9","ios":"levelo://app?vid=c8c9f1e3-cfb9-4095-8d70-4c877ea7f0b9"},"vehicle_type_id":"4","last_reported":1768421455,"current_range_meters":7200,"station_id":"","pricing_plan_id":"cebpf4jnsgd1na2vs0mg"},{"bike_id":"52dc7a23-02b1-49ea-88fe-a1d65ef8f548","system_id":"levelo_inurba_marseille","lat":43.22937,"lon":5.3537,"is_reserved":false,"is_disabled":false,"rental_uris":{"android":"levelo://app?vid=52dc7a23-02b1-49ea-88fe-a1d65ef8f548","ios":"levelo://app?vid=52dc7a23-02b1-49ea-88fe-a1d65ef8f548"},"vehicle_type_id":"4","last_reported":1768421455,"current_range_meters":7200,"station_id":"cpo3532slgdg3j2ikp40","pricing_plan_id":"cebpf4jnsgd1na2vs0mg"},{"bike_id":"c9da304b-df64-469f-a8fe-783a041f993b","system_id":"levelo_inurba_marseille","lat":43.30551,"lon":5.36524,"is_reserved":false,"is_disabled":false,"rental_uris":{"android":"levelo://app?vid=c9da304b-df64-469f-a8fe-783a041f993b","ios":"levelo://app?vid=c9da304b-df64-469f-a8fe-783a041f993b"},"vehicle_type_id":"4","last_reported":1768421455,"current_range_meters":7200,"station_id":"ce4bgs12rcd13ifvqcag","pricing_plan_id":"cebpf4jnsgd1na2vs0mg"},{"bike_id":"5410fd45-b8b4-470d-9bd7-ad1acafbc363","system_id":"levelo_inurba_marseille","lat":43.28497,"lon":5.48404,"is_reserved":false,"is_disabled":false,"rental_uris":{"android":"levelo://app?vid=5410fd45-b8b4-470d-9bd7-ad1acafbc363","ios":"levelo://app?vid=5410fd45-b8b4-470d-9bd7-ad1acafbc363"},"vehicle_type_id":"4","last_reported":1768421455,"current_range_meters":7200,"station_id":"","pricing_plan_id":"cebpf4jnsgd1na2vs0mg"},{"bike_id":"34deb4c0-40b4-49bd-a067-06304b1e35b0","system_id":"levelo_inurba_marseille","lat":43.29264,"lon":5.3685,"is_reserved":false,"is_disabled":false,"rental_uris":{"android":"levelo://app?vid=34deb4c0-40b4-49bd-a067-06304b1e35b0","ios":"levelo://app?vid=34deb4c0-40b4-49bd-a067-06304b1e35b0"},"vehicle_type_id":"4","last_reported":1768421455,"current_range_meters":7200,"station_id":"ce4bhbp2rcd13ifvqesg","pricing_plan_id":"cebpf4jnsgd1na2vs0mg"},{"bike_id":"5a7b835a-1edf-4fb8-9d61-1d0640668731","system_id":"levelo_inurba_marseille","lat":43.27568,"lon":5.38422,"is_reserved":false,"is_disabled":false,"rental_uris":{"android":"levelo://app?vid=5a7b835a-1edf-4fb8-9d61-1d0640668731","ios":"levelo://app?vid=5a7b835a-1edf-4fb8-9d61-1d0640668731"},"vehicle_type_id":"4","last_reported":1768421455,"current_range_meters":7200,"station_id":"ce4bhh92rcd13ifvqfi0","pricing_plan_id":"cebpf4jnsgd1na2vs0mg"},{"bike_id":"b54d7711-f055-409c-950d-e2c8bc74d3bc","system_id":"levelo_inurba_marseille","lat":43.24793,"lon":5.37456,"is_reserved":false,"is_disabled":false,"rental_uris":{"android":"levelo://app?vid=b54d7711-f055-409c-950d-e2c8bc74d3bc","ios":"levelo://app?vid=b54d7711-f055-409c-950d-e2c8bc74d3bc"},"vehicle_type_id":"4","last_reported":1768421455,"current_range_meters":7200,"station_id":"ce4bhgh2rcd13ifvqfb0","pricing_plan_id":"cebpf4jnsgd1na2vs0mg"},{"bike_id":"74561a6d-08b8-40b2-a087-819e3a501b42","system_id":"levelo_inurba_marseille","lat":43.29608,"lon":5.38104,"is_reserved":false,"is_disabled":false,"rental_uris":{"android":"levelo://app?vid=74561a6d-08b8-40b2-a087-819e3a501b42","ios":"levelo://app?vid=74561a6d-08b8-40b2-a087-819e3a501b42"},"vehicle_type_id":"4","last_reported":1768421455,"current_range_meters":7200,"station_id":"ce4bgl12rcd13ifvqbo0","pricing_plan_id":"cebpf4jnsgd1na2vs0mg"},{"bike_id":"2972054a-6cc6-4eed-9d68-aeb343420e89","system_id":"levelo_inurba_marseille","lat":43.28706,"lon":5.37406,"is_reserved":false,"is_disabled":false,"rental_uris":{"android":"levelo://app?vid=2972054a-6cc6-4eed-9d68-aeb343420e89","ios":"levelo://app?vid=2972054a-6cc6-4eed-9d68-aeb343420e89"},"vehicle_type_id":"4","last_reported":1768421455,"current_range_meters":7200,"station_id":"ce4bh3p2rcd13ifvqdq0","pricing_plan_id":"cebpf4jnsgd1na2vs0mg"},{"bike_id":"55194f29-42dd-4454-96b2-a5d4401446b6","system_id":"levelo_inurba_marseille","lat":43.29938,"lon":5.42754,"is_reserved":false,"is_disabled":false,"rental_uris":{"android":"levelo://app?vid=55194f29-42dd-4454-96b2-a5d4401446b6","ios":"levelo://app?vid=55194f29-42dd-4454-96b2-a5d4401446b6"},"vehicle_type_id":"4","last_reported":1768421455,"current_range_meters":7200,"station_id":"","pricing_plan_id":"cebpf4jnsgd1na2vs0mg"},{"bike_id":"204ac4ab-e203-4329-9ff0-720626e1f908","system_id":"levelo_inurba_marseille","lat":43.27067,"lon":5.38311,"is_reserved":false,"is_disabled":true,"rental_uris":{"android":"levelo://app?vid=204ac4ab-e203-4329-9ff0-720626e1f908","ios":"levelo://app?vid=204ac4ab-e203-4329-9ff0-720626e1f908"},"vehicle_type_id":"4","last_reported":1768421455,"current_range_meters":7200,"station_id":"st_d3n2fo6cfp8s73cte1j0","pricing_plan_id":"cebpf4jnsgd1na2vs0mg"},{"bike_id":"4883c970-634b-4de4-9e21-df47a68eb757","system_id":"levelo_inurba_marseille","lat":43.284775,"lon":5.483923,"is_reserved":false,"is_disabled":false,"rental_uris":{"android":"levelo://app?vid=4883c970-634b-4de4-9e21-df47a68eb757","ios":"levelo://app?vid=4883c970-634b-4de4-9e21-df47a68eb757"},"vehicle_type_id":"4","last_reported":1768421455,"current_range_meters":7200,"station_id":"st_d3svhcjqgbts73a3dn0g","pricing_plan_id":"cebpf4jnsgd1na2vs0mg"},{"bike_id":"c2354b44-17c1-478f-94d4-6c400a3bd0b6","system_id":"levelo_inurba_marseille","lat":43.24175,"lon":5.36381,"is_reserved":false,"is_disabled":false,"rental_uris":{"android":"levelo://app?vid=c2354b44-17c1-478f-94d4-6c400a3bd0b6","ios":"levelo://app?vid=c2354b44-17c1-478f-94d4-6c400a3bd0b6"},"vehicle_type_id":"4","last_reported":1768421455,"current_range_meters":7200,"station_id":"cpo36qri1sfpv3e86is0","pricing_plan_id":"cebpf4jnsgd1na2vs0mg"},{"bike_id":"0e7f877c-657f-4ed6-b108-38dcfff66a80","system_id":"levelo_inurba_marseille","lat":43.26367,"lon":5.41077,"is_reserved":false,"is_disabled":false,"rental_uris":{"android":"levelo://app?vid=0e7f877c-657f-4ed6-b108-38dcfff66a80","ios":"levelo://app?vid=0e7f877c-657f-4ed6-b108-38dcfff66a80"},"vehicle_type_id":"4","last_reported":1768421455,"current_range_meters":7200,"station_id":"st_d4e5ca6na9uc73bfl5fg","pricing_plan_id":"cebpf4jnsgd1na2vs0mg"},{"bike_id":"0fac9386-5217-484c-8e69-737335be657c","system_id":"levelo_inurba_marseille","lat":43.30915,"lon":5.36853,"is_reserved":false,"is_disabled":false,"rental_uris":{"android":"levelo://app?vid=0fac9386-5217-484c-8e69-737335be657c","ios":"levelo://app?vid=0fac9386-5217-484c-8e69-737335be657c"},"vehicle_type_id":"4","last_reported":1768421455,"current_range_meters":7200,"station_id":"ce4bgn92rcd13ifvqbvg","pricing_plan_id":"cebpf4jnsgd1na2vs0mg"},{"bike_id":"03e9f015-73ba-4c3e-a345-a62206b593d1","system_id":"levelo_inurba_marseille","lat":43.32493,"lon":5.36558,"is_reserved":false,"is_disabled":false,"rental_uris":{"android":"levelo://app?vid=03e9f015-73ba-4c3e-a345-a62206b593d1","ios":"levelo://app?vid=03e9f015-73ba-4c3e-a345-a62206b593d1"},"vehicle_type_id":"4","last_reported":1768421455,"current_range_meters":8000,"station_id":"ce4bhs12rcd13ifvqhvg","pricing_plan_id":"cebpf4jnsgd1na2vs0mg"},{"bike_id":"634a5032-07c2-4ad0-b886-0e21c013fdce","system_id":"levelo_inurba_marseille","lat":43.25571,"lon":5.38226,"is_reserved":false,"is_disabled":false,"rental_uris":{"android":"levelo://app?vid=634a5032-07c2-4ad0-b886-0e21c013fdce","ios":"levelo://app?vid=634a5032-07c2-4ad0-b886-0e21c013fdce"},"vehicle_type_id":"4","last_reported":1768421455,"current_range_meters":8000,"station_id":"ce4bhih2rcd13ifvqfs0","pricing_plan_id":"cebpf4jnsgd1na2vs0mg"},{"bike_id":"51d690d5-8b8d-4383-a47a-b8a5e83da85a","system_id":"levelo_inurba_marseille","lat":43.28277,"lon":5.350761,"is_reserved":false,"is_disabled":false,"rental_uris":{"android":"levelo://app?vid=51d690d5-8b8d-4383-a47a-b8a5e83da85a","ios":"levelo://app?vid=51d690d5-8b8d-4383-a47a-b8a5e83da85a"},"vehicle_type_id":"4","last_reported":1768421455,"current_range_meters":8000,"station_id":"ce4bhbp2rcd13ifvqerg","pricing_plan_id":"cebpf4jnsgd1na2vs0mg"},{"bike_id":"2a682e48-4901-4884-af44-aaa6a8d2add6","system_id":"levelo_inurba_marseille","lat":43.24059,"lon":5.37764,"is_reserved":false,"is_disabled":false,"rental_uris":{"android":"levelo://app?vid=2a682e48-4901-4884-af44-aaa6a8d2add6","ios":"levelo://app?vid=2a682e48-4901-4884-af44-aaa6a8d2add6"},"vehicle_type_id":"4","last_reported":1768421455,"current_range_meters":8000,"station_id":"ce4bhnp2rcd13ifvqgvg","pricing_plan_id":"cebpf4jnsgd1na2vs0mg"},{"bike_id":"0b8f588c-5718-4485-a505-d9e9d4b9d64a","system_id":"levelo_inurba_marseille","lat":43.26573,"lon":5.40325,"is_reserved":false,"is_disabled":false,"rental_uris":{"android":"levelo://app?vid=0b8f588c-5718-4485-a505-d9e9d4b9d64a","ios":"levelo://app?vid=0b8f588c-5718-4485-a505-d9e9d4b9d64a"},"vehicle_type_id":"4","last_reported":1768421455,"current_range_meters":8000,"station_id":"ce4bhmp2rcd13ifvqgng","pricing_plan_id":"cebpf4jnsgd1na2vs0mg"},{"bike_id":"f1177697-24b8-4122-96be-92006a04ddc7","system_id":"levelo_inurba_marseille","lat":43.27823,"lon":5.40708,"is_reserved":false,"is_disabled":false,"rental_uris":{"android":"levelo://app?vid=f1177697-24b8-4122-96be-92006a04ddc7","ios":"levelo://app?vid=f1177697-24b8-4122-96be-92006a04ddc7"},"vehicle_type_id":"4","last_reported":1768421455,"current_range_meters":8000,"station_id":"ce4bhnh2rcd13ifvqgtg","pricing_plan_id":"cebpf4jnsgd1na2vs0mg"},{"bike_id":"e11889a7-dd00-4680-82ad-dc48c0a7f8b9","system_id":"levelo_inurba_marseille","lat":43.22933,"lon":5.35381,"is_reserved":false,"is_disabled":false,"rental_uris":{"android":"levelo://app?vid=e11889a7-dd00-4680-82ad-dc48c0a7f8b9","ios":"levelo://app?vid=e11889a7-dd00-4680-82ad-dc48c0a7f8b9"},"vehicle_type_id":"4","last_reported":1768421455,"current_range_meters":8000,"station_id":"cpo3532slgdg3j2ikp40","pricing_plan_id":"cebpf4jnsgd1na2vs0mg"},{"bike_id":"ab4c7e8d-c082-49f2-ad38-3b04b1436978","system_id":"levelo_inurba_marseille","lat":43.22573,"lon":5.41628,"is_reserved":false,"is_disabled":false,"rental_uris":{"android":"levelo://app?vid=ab4c7e8d-c082-49f2-ad38-3b04b1436978","ios":"levelo://app?vid=ab4c7e8d-c082-49f2-ad38-3b04b1436978"},"vehicle_type_id":"4","last_reported":1768421455,"current_range_meters":8000,"station_id":"st_d2o4gvlbi1j2169b742g","pricing_plan_id":"cebpf4jnsgd1na2vs0mg"},{"bike_id":"aac02660-451c-4466-97cc-03bd6873da26","system_id":"levelo_inurba_marseille","lat":43.24803,"lon":5.37456,"is_reserved":false,"is_disabled":false,"rental_uris":{"android":"levelo://app?vid=aac02660-451c-4466-97cc-03bd6873da26","ios":"levelo://app?vid=aac02660-451c-4466-97cc-03bd6873da26"},"vehicle_type_id":"4","last_reported":1768421455,"current_range_meters":8000,"station_id":"ce4bhgh2rcd13ifvqfb0","pricing_plan_id":"cebpf4jnsgd1na2vs0mg"},{"bike_id":"554c04e7-941a-4c22-b472-97e077e3a312","system_id":"levelo_inurba_marseille","lat":43.30135,"lon":5.40391,"is_reserved":false,"is_disabled":false,"rental_uris":{"android":"levelo://app?vid=554c04e7-941a-4c22-b472-97e077e3a312","ios":"levelo://app?vid=554c04e7-941a-4c22-b472-97e077e3a312"},"vehicle_type_id":"4","last_reported":1768421455,"current_range_meters":8000,"station_id":"","pricing_plan_id":"cebpf4jnsgd1na2vs0mg"},{"bike_id":"7420a463-05be-48d3-a089-82560d5ea99f","system_id":"levelo_inurba_marseille","lat":43.251132,"lon":5.403123,"is_reserved":false,"is_disabled":false,"rental_uris":{"android":"levelo://app?vid=7420a463-05be-48d3-a089-82560d5ea99f","ios":"levelo://app?vid=7420a463-05be-48d3-a089-82560d5ea99f"},"vehicle_type_id":"4","last_reported":1768421455,"current_range_meters":8000,"station_id":"ce4bhlh2rcd13ifvqgig","pricing_plan_id":"cebpf4jnsgd1na2vs0mg"},{"bike_id":"b16c0fde-3570-452f-a37a-d567538e6b84","system_id":"levelo_inurba_marseille","lat":43.29037,"lon":5.37546,"is_reserved":false,"is_disabled":false,"rental_uris":{"android":"levelo://app?vid=b16c0fde-3570-452f-a37a-d567538e6b84","ios":"levelo://app?vid=b16c0fde-3570-452f-a37a-d567538e6b84"},"vehicle_type_id":"4","last_reported":1768421455,"current_range_meters":8000,"station_id":"ce4bh692rcd13ifvqe90","pricing_plan_id":"cebpf4jnsgd1na2vs0mg"},{"bike_id":"4a0910bc-2cb8-4117-a88f-aa517b88b474","system_id":"levelo_inurba_marseille","lat":43.34415,"lon":5.39984,"is_reserved":false,"is_disabled":false,"rental_uris":{"android":"levelo://app?vid=4a0910bc-2cb8-4117-a88f-aa517b88b474","ios":"levelo://app?vid=4a0910bc-2cb8-4117-a88f-aa517b88b474"},"vehicle_type_id":"4","last_reported":1768421455,"current_range_meters":8000,"station_id":"","pricing_plan_id":"cebpf4jnsgd1na2vs0mg"},{"bike_id":"961fd59e-d441-42f0-a67c-7f68ed43d155","system_id":"levelo_inurba_marseille","lat":43.26021,"lon":5.4175,"is_reserved":false,"is_disabled":false,"rental_uris":{"android":"levelo://app?vid=961fd59e-d441-42f0-a67c-7f68ed43d155","ios":"levelo://app?vid=961fd59e-d441-42f0-a67c-7f68ed43d155"},"vehicle_type_id":"4","last_reported":1768421455,"current_range_meters":8000,"station_id":"","pricing_plan_id":"cebpf4jnsgd1na2vs0mg"},{"bike_id":"2111771e-6138-48b0-b4c5-4369d3b5c15a","system_id":"levelo_inurba_marseille","lat":43.28436,"lon":5.39183,"is_reserved":false,"is_disabled":false,"rental_uris":{"android":"levelo://app?vid=2111771e-6138-48b0-b4c5-4369d3b5c15a","ios":"levelo://app?vid=2111771e-6138-48b0-b4c5-4369d3b5c15a"},"vehicle_type_id":"4","last_reported":1768421455,"current_range_meters":8000,"station_id":"ce4bhoh2rcd13ifvqh5g","pricing_plan_id":"cebpf4jnsgd1na2vs0mg"},{"bike_id":"815c0b22-45a5-4b1e-95ee-7d2fbb32648f","system_id":"levelo_inurba_marseille","lat":43.29278,"lon":5.40138,"is_reserved":false,"is_disabled":false,"rental_uris":{"android":"levelo://app?vid=815c0b22-45a5-4b1e-95ee-7d2fbb32648f","ios":"levelo://app?vid=815c0b22-45a5-4b1e-95ee-7d2fbb32648f"},"vehicle_type_id":"4","last_reported":1768421455,"current_range_meters":8000,"station_id":"ce4bh312rcd13ifvqdk0","pricing_plan_id":"cebpf4jnsgd1na2vs0mg"},{"bike_id":"c98051db-5841-432c-a36b-9ad9148725d8","system_id":"levelo_inurba_marseille","lat":43.29906,"lon":5.43673,"is_reserved":false,"is_disabled":false,"rental_uris":{"android":"levelo://app?vid=c98051db-5841-432c-a36b-9ad9148725d8","ios":"levelo://app?vid=c98051db-5841-432c-a36b-9ad9148725d8"},"vehicle_type_id":"4","last_reported":1768421455,"current_range_meters":8000,"station_id":"ce4bhpp2rcd13ifvqhfg","pricing_plan_id":"cebpf4jnsgd1na2vs0mg"},{"bike_id":"774ca479-5bb9-49b9-8ea6-99c5cf896279","system_id":"levelo_inurba_marseille","lat":43.24646,"lon":5.43159,"is_reserved":false,"is_disabled":false,"rental_uris":{"android":"levelo://app?vid=774ca479-5bb9-49b9-8ea6-99c5cf896279","ios":"levelo://app?vid=774ca479-5bb9-49b9-8ea6-99c5cf896279"},"vehicle_type_id":"4","last_reported":1768421455,"current_range_meters":8000,"station_id":"st_d2m6c4gdas8pm72e190g","pricing_plan_id":"cebpf4jnsgd1na2vs0mg"},{"bike_id":"927979fa-3858-45ef-a6c2-d3fc1aa99933","system_id":"levelo_inurba_marseille","lat":43.29538,"lon":5.38546,"is_reserved":false,"is_disabled":false,"rental_uris":{"android":"levelo://app?vid=927979fa-3858-45ef-a6c2-d3fc1aa99933","ios":"levelo://app?vid=927979fa-3858-45ef-a6c2-d3fc1aa99933"},"vehicle_type_id":"4","last_reported":1768421455,"current_range_meters":8000,"station_id":"ce4bgih2rcd13ifvqba0","pricing_plan_id":"cebpf4jnsgd1na2vs0mg"},{"bike_id":"96056386-d9a6-4636-bb5c-976733254508","system_id":"levelo_inurba_marseille","lat":43.21192,"lon":5.35076,"is_reserved":false,"is_disabled":false,"rental_uris":{"android":"levelo://app?vid=96056386-d9a6-4636-bb5c-976733254508","ios":"levelo://app?vid=96056386-d9a6-4636-bb5c-976733254508"},"vehicle_type_id":"4","last_reported":1768421455,"current_range_meters":8000,"station_id":"","pricing_plan_id":"cebpf4jnsgd1na2vs0mg"},{"bike_id":"05699592-3d64-4542-8d10-f9f029380983","system_id":"levelo_inurba_marseille","lat":43.29262,"lon":5.38433,"is_reserved":false,"is_disabled":false,"rental_uris":{"android":"levelo://app?vid=05699592-3d64-4542-8d10-f9f029380983","ios":"levelo://app?vid=05699592-3d64-4542-8d10-f9f029380983"},"vehicle_type_id":"4","last_reported":1768421455,"current_range_meters":8000,"station_id":"ce4bh692rcd13ifvqea0","pricing_plan_id":"cebpf4jnsgd1na2vs0mg"},{"bike_id":"8990c8e7-efb9-4809-adf5-173eee2f703e","system_id":"levelo_inurba_marseille","lat":43.29266,"lon":5.38451,"is_reserved":false,"is_disabled":false,"rental_uris":{"android":"levelo://app?vid=8990c8e7-efb9-4809-adf5-173eee2f703e","ios":"levelo://app?vid=8990c8e7-efb9-4809-adf5-173eee2f703e"},"vehicle_type_id":"4","last_reported":1768421455,"current_range_meters":8000,"station_id":"ce4bh692rcd13ifvqea0","pricing_plan_id":"cebpf4jnsgd1na2vs0mg"},{"bike_id":"39991ed9-63ac-4208-af07-0c392532b42a","system_id":"levelo_inurba_marseille","lat":43.30309,"lon":5.40445,"is_reserved":false,"is_disabled":false,"rental_uris":{"android":"levelo://app?vid=39991ed9-63ac-4208-af07-0c392532b42a","ios":"levelo://app?vid=39991ed9-63ac-4208-af07-0c392532b42a"},"vehicle_type_id":"4","last_reported":1768421455,"current_range_meters":8000,"station_id":"ce4bh012rcd13ifvqd10","pricing_plan_id":"cebpf4jnsgd1na2vs0mg"},{"bike_id":"a1fa7ae1-5daf-4a6d-847a-31d32f1ae7fd","system_id":"levelo_inurba_marseille","lat":43.31716,"lon":5.42402,"is_reserved":false,"is_disabled":false,"rental_uris":{"android":"levelo://app?vid=a1fa7ae1-5daf-4a6d-847a-31d32f1ae7fd","ios":"levelo://app?vid=a1fa7ae1-5daf-4a6d-847a-31d32f1ae7fd"},"vehicle_type_id":"4","last_reported":1768421455,"current_range_meters":8400,"station_id":"ce4bhp92rcd13ifvqhbg","pricing_plan_id":"cebpf4jnsgd1na2vs0mg"},{"bike_id":"7b3f5c8f-56dc-4b83-b728-11a0fb2f042b","system_id":"levelo_inurba_marseille","lat":43.26565,"lon":5.40325,"is_reserved":false,"is_disabled":false,"rental_uris":{"android":"levelo://app?vid=7b3f5c8f-56dc-4b83-b728-11a0fb2f042b","ios":"levelo://app?vid=7b3f5c8f-56dc-4b83-b728-11a0fb2f042b"},"vehicle_type_id":"4","last_reported":1768421455,"current_range_meters":8400,"station_id":"ce4bhmp2rcd13ifvqgng","pricing_plan_id":"cebpf4jnsgd1na2vs0mg"},{"bike_id":"5ba4945e-cd85-4bdc-87d5-6bc29d2218f0","system_id":"levelo_inurba_marseille","lat":43.30647,"lon":5.40083,"is_reserved":false,"is_disabled":false,"rental_uris":{"android":"levelo://app?vid=5ba4945e-cd85-4bdc-87d5-6bc29d2218f0","ios":"levelo://app?vid=5ba4945e-cd85-4bdc-87d5-6bc29d2218f0"},"vehicle_type_id":"4","last_reported":1768421455,"current_range_meters":8400,"station_id":"ce4bh112rcd13ifvqda0","pricing_plan_id":"cebpf4jnsgd1na2vs0mg"},{"bike_id":"b3817e2e-cdb9-4c8a-ac4e-2553b766e5fa","system_id":"levelo_inurba_marseille","lat":43.27824,"lon":5.40719,"is_reserved":false,"is_disabled":false,"rental_uris":{"android":"levelo://app?vid=b3817e2e-cdb9-4c8a-ac4e-2553b766e5fa","ios":"levelo://app?vid=b3817e2e-cdb9-4c8a-ac4e-2553b766e5fa"},"vehicle_type_id":"4","last_reported":1768421455,"current_range_meters":8400,"station_id":"ce4bhnh2rcd13ifvqgtg","pricing_plan_id":"cebpf4jnsgd1na2vs0mg"},{"bike_id":"a91a986f-611b-4f2d-a755-d3c91591c10f","system_id":"levelo_inurba_marseille","lat":43.25168,"lon":5.40318,"is_reserved":false,"is_disabled":false,"rental_uris":{"android":"levelo://app?vid=a91a986f-611b-4f2d-a755-d3c91591c10f","ios":"levelo://app?vid=a91a986f-611b-4f2d-a755-d3c91591c10f"},"vehicle_type_id":"4","last_reported":1768421455,"current_range_meters":8400,"station_id":"","pricing_plan_id":"cebpf4jnsgd1na2vs0mg"},{"bike_id":"559315f3-33cc-497d-b33a-9c3fd30ad2cc","system_id":"levelo_inurba_marseille","lat":43.2927,"lon":5.38418,"is_reserved":false,"is_disabled":false,"rental_uris":{"android":"levelo://app?vid=559315f3-33cc-497d-b33a-9c3fd30ad2cc","ios":"levelo://app?vid=559315f3-33cc-497d-b33a-9c3fd30ad2cc"},"vehicle_type_id":"4","last_reported":1768421455,"current_range_meters":8400,"station_id":"ce4bh692rcd13ifvqea0","pricing_plan_id":"cebpf4jnsgd1na2vs0mg"},{"bike_id":"48e1370e-6b52-4ec1-971f-7c1a4445b804","system_id":"levelo_inurba_marseille","lat":43.25577,"lon":5.38236,"is_reserved":false,"is_disabled":false,"rental_uris":{"android":"levelo://app?vid=48e1370e-6b52-4ec1-971f-7c1a4445b804","ios":"levelo://app?vid=48e1370e-6b52-4ec1-971f-7c1a4445b804"},"vehicle_type_id":"4","last_reported":1768421455,"current_range_meters":8400,"station_id":"ce4bhih2rcd13ifvqfs0","pricing_plan_id":"cebpf4jnsgd1na2vs0mg"},{"bike_id":"94662b27-fd0d-4dcb-a6dd-4146d7e92691","system_id":"levelo_inurba_marseille","lat":43.27569,"lon":5.38412,"is_reserved":false,"is_disabled":false,"rental_uris":{"android":"levelo://app?vid=94662b27-fd0d-4dcb-a6dd-4146d7e92691","ios":"levelo://app?vid=94662b27-fd0d-4dcb-a6dd-4146d7e92691"},"vehicle_type_id":"4","last_reported":1768421455,"current_range_meters":8400,"station_id":"ce4bhh92rcd13ifvqfi0","pricing_plan_id":"cebpf4jnsgd1na2vs0mg"},{"bike_id":"0c2198c7-5e7d-4b33-8d58-cc496e9ac344","system_id":"levelo_inurba_marseille","lat":43.29084,"lon":5.37165,"is_reserved":false,"is_disabled":false,"rental_uris":{"android":"levelo://app?vid=0c2198c7-5e7d-4b33-8d58-cc496e9ac344","ios":"levelo://app?vid=0c2198c7-5e7d-4b33-8d58-cc496e9ac344"},"vehicle_type_id":"4","last_reported":1768421455,"current_range_meters":8400,"station_id":"ce4bh5p2rcd13ifvqe4g","pricing_plan_id":"cebpf4jnsgd1na2vs0mg"},{"bike_id":"3b326f81-b0c4-4b16-a9c9-f528a517d078","system_id":"levelo_inurba_marseille","lat":43.231942,"lon":5.355584,"is_reserved":false,"is_disabled":false,"rental_uris":{"android":"levelo://app?vid=3b326f81-b0c4-4b16-a9c9-f528a517d078","ios":"levelo://app?vid=3b326f81-b0c4-4b16-a9c9-f528a517d078"},"vehicle_type_id":"4","last_reported":1768421455,"current_range_meters":8400,"station_id":"ce4bhu92rcd13ifvqi70","pricing_plan_id":"cebpf4jnsgd1na2vs0mg"},{"bike_id":"ec7cfe69-ce17-4347-9607-bf42e20090ad","system_id":"levelo_inurba_marseille","lat":43.32301,"lon":5.36662,"is_reserved":false,"is_disabled":false,"rental_uris":{"android":"levelo://app?vid=ec7cfe69-ce17-4347-9607-bf42e20090ad","ios":"levelo://app?vid=ec7cfe69-ce17-4347-9607-bf42e20090ad"},"vehicle_type_id":"4","last_reported":1768421455,"current_range_meters":8400,"station_id":"","pricing_plan_id":"cebpf4jnsgd1na2vs0mg"},{"bike_id":"0c10e763-537e-4349-bed5-58c5048433a6","system_id":"levelo_inurba_marseille","lat":43.29008,"lon":5.35594,"is_reserved":false,"is_disabled":false,"rental_uris":{"android":"levelo://app?vid=0c10e763-537e-4349-bed5-58c5048433a6","ios":"levelo://app?vid=0c10e763-537e-4349-bed5-58c5048433a6"},"vehicle_type_id":"4","last_reported":1768421455,"current_range_meters":8400,"station_id":"ce4bhb92rcd13ifvqen0","pricing_plan_id":"cebpf4jnsgd1na2vs0mg"},{"bike_id":"83b24877-4fa1-4cbc-9729-5d9b1f26a09d","system_id":"levelo_inurba_marseille","lat":43.29652,"lon":5.39172,"is_reserved":false,"is_disabled":false,"rental_uris":{"android":"levelo://app?vid=83b24877-4fa1-4cbc-9729-5d9b1f26a09d","ios":"levelo://app?vid=83b24877-4fa1-4cbc-9729-5d9b1f26a09d"},"vehicle_type_id":"4","last_reported":1768421455,"current_range_meters":8400,"station_id":"","pricing_plan_id":"cebpf4jnsgd1na2vs0mg"},{"bike_id":"03bea929-ded9-4f0a-b535-3ced67ddbf39","system_id":"levelo_inurba_marseille","lat":43.24641,"lon":5.43147,"is_reserved":false,"is_disabled":false,"rental_uris":{"android":"levelo://app?vid=03bea929-ded9-4f0a-b535-3ced67ddbf39","ios":"levelo://app?vid=03bea929-ded9-4f0a-b535-3ced67ddbf39"},"vehicle_type_id":"4","last_reported":1768421455,"current_range_meters":8400,"station_id":"st_d2m6c4gdas8pm72e190g","pricing_plan_id":"cebpf4jnsgd1na2vs0mg"},{"bike_id":"ce705002-36e9-4a86-ba6d-0f075dbe99d7","system_id":"levelo_inurba_marseille","lat":43.29752,"lon":5.36263,"is_reserved":false,"is_disabled":false,"rental_uris":{"android":"levelo://app?vid=ce705002-36e9-4a86-ba6d-0f075dbe99d7","ios":"levelo://app?vid=ce705002-36e9-4a86-ba6d-0f075dbe99d7"},"vehicle_type_id":"4","last_reported":1768421455,"current_range_meters":8400,"station_id":"","pricing_plan_id":"cebpf4jnsgd1na2vs0mg"},{"bike_id":"f9fdbb48-1798-4538-9bda-de4b35ab0ad4","system_id":"levelo_inurba_marseille","lat":43.28135,"lon":5.38328,"is_reserved":false,"is_disabled":false,"rental_uris":{"android":"levelo://app?vid=f9fdbb48-1798-4538-9bda-de4b35ab0ad4","ios":"levelo://app?vid=f9fdbb48-1798-4538-9bda-de4b35ab0ad4"},"vehicle_type_id":"4","last_reported":1768421455,"current_range_meters":8400,"station_id":"","pricing_plan_id":"cebpf4jnsgd1na2vs0mg"},{"bike_id":"e005c971-c9a3-4805-9d7c-3b9e9d04b135","system_id":"levelo_inurba_marseille","lat":43.28001,"lon":5.4002,"is_reserved":false,"is_disabled":false,"rental_uris":{"android":"levelo://app?vid=e005c971-c9a3-4805-9d7c-3b9e9d04b135","ios":"levelo://app?vid=e005c971-c9a3-4805-9d7c-3b9e9d04b135"},"vehicle_type_id":"4","last_reported":1768421455,"current_range_meters":8400,"station_id":"ce4bho92rcd13ifvqh4g","pricing_plan_id":"cebpf4jnsgd1na2vs0mg"},{"bike_id":"a1440837-c95d-48e1-b791-84d300e0f7f8","system_id":"levelo_inurba_marseille","lat":43.28535,"lon":5.44098,"is_reserved":false,"is_disabled":false,"rental_uris":{"android":"levelo://app?vid=a1440837-c95d-48e1-b791-84d300e0f7f8","ios":"levelo://app?vid=a1440837-c95d-48e1-b791-84d300e0f7f8"},"vehicle_type_id":"4","last_reported":1768421455,"current_range_meters":8400,"station_id":"st_d3j3df2ikq2c7380ej80","pricing_plan_id":"cebpf4jnsgd1na2vs0mg"},{"bike_id":"699c6bb0-1655-47f0-86fb-78256d649744","system_id":"levelo_inurba_marseille","lat":43.278293,"lon":5.407198,"is_reserved":false,"is_disabled":false,"rental_uris":{"android":"levelo://app?vid=699c6bb0-1655-47f0-86fb-78256d649744","ios":"levelo://app?vid=699c6bb0-1655-47f0-86fb-78256d649744"},"vehicle_type_id":"4","last_reported":1768421455,"current_range_meters":8400,"station_id":"ce4bhnh2rcd13ifvqgtg","pricing_plan_id":"cebpf4jnsgd1na2vs0mg"},{"bike_id":"1d5e0a3c-bc2c-43f1-aeee-28047ebaf874","system_id":"levelo_inurba_marseille","lat":43.29281,"lon":5.36852,"is_reserved":false,"is_disabled":false,"rental_uris":{"android":"levelo://app?vid=1d5e0a3c-bc2c-43f1-aeee-28047ebaf874","ios":"levelo://app?vid=1d5e0a3c-bc2c-43f1-aeee-28047ebaf874"},"vehicle_type_id":"4","last_reported":1768421455,"current_range_meters":8400,"station_id":"ce4bhbp2rcd13ifvqesg","pricing_plan_id":"cebpf4jnsgd1na2vs0mg"},{"bike_id":"679badb2-9a2f-43f1-a335-b73e2a05fc3e","system_id":"levelo_inurba_marseille","lat":43.25588,"lon":5.38226,"is_reserved":false,"is_disabled":false,"rental_uris":{"android":"levelo://app?vid=679badb2-9a2f-43f1-a335-b73e2a05fc3e","ios":"levelo://app?vid=679badb2-9a2f-43f1-a335-b73e2a05fc3e"},"vehicle_type_id":"4","last_reported":1768421455,"current_range_meters":8400,"station_id":"ce4bhih2rcd13ifvqfs0","pricing_plan_id":"cebpf4jnsgd1na2vs0mg"},{"bike_id":"eb0ad9ed-8a5f-4adc-8ba2-7f829ef52aab","system_id":"levelo_inurba_marseille","lat":43.24801,"lon":5.37455,"is_reserved":false,"is_disabled":false,"rental_uris":{"android":"levelo://app?vid=eb0ad9ed-8a5f-4adc-8ba2-7f829ef52aab","ios":"levelo://app?vid=eb0ad9ed-8a5f-4adc-8ba2-7f829ef52aab"},"vehicle_type_id":"4","last_reported":1768421455,"current_range_meters":8400,"station_id":"ce4bhgh2rcd13ifvqfb0","pricing_plan_id":"cebpf4jnsgd1na2vs0mg"},{"bike_id":"10e580fb-3a4d-48aa-a18d-73ca6a776e6c","system_id":"levelo_inurba_marseille","lat":43.26862,"lon":5.40693,"is_reserved":false,"is_disabled":false,"rental_uris":{"android":"levelo://app?vid=10e580fb-3a4d-48aa-a18d-73ca6a776e6c","ios":"levelo://app?vid=10e580fb-3a4d-48aa-a18d-73ca6a776e6c"},"vehicle_type_id":"4","last_reported":1768421455,"current_range_meters":8400,"station_id":"","pricing_plan_id":"cebpf4jnsgd1na2vs0mg"},{"bike_id":"4810dca0-bad6-47b5-b7db-2f7125b3e022","system_id":"levelo_inurba_marseille","lat":43.21189,"lon":5.35077,"is_reserved":false,"is_disabled":false,"rental_uris":{"android":"levelo://app?vid=4810dca0-bad6-47b5-b7db-2f7125b3e022","ios":"levelo://app?vid=4810dca0-bad6-47b5-b7db-2f7125b3e022"},"vehicle_type_id":"4","last_reported":1768421455,"current_range_meters":8400,"station_id":"st_cvj6sg6p6f1abm77japg","pricing_plan_id":"cebpf4jnsgd1na2vs0mg"},{"bike_id":"54810d2d-dc06-43dd-a461-5362aa9ce7a0","system_id":"levelo_inurba_marseille","lat":43.27953,"lon":5.4104,"is_reserved":false,"is_disabled":false,"rental_uris":{"android":"levelo://app?vid=54810d2d-dc06-43dd-a461-5362aa9ce7a0","ios":"levelo://app?vid=54810d2d-dc06-43dd-a461-5362aa9ce7a0"},"vehicle_type_id":"4","last_reported":1768421455,"current_range_meters":8400,"station_id":"ce4bhnp2rcd13ifvqh0g","pricing_plan_id":"cebpf4jnsgd1na2vs0mg"},{"bike_id":"f26e9a9c-efcf-4817-ad70-c481de1d89b3","system_id":"levelo_inurba_marseille","lat":43.25569,"lon":5.38237,"is_reserved":false,"is_disabled":false,"rental_uris":{"android":"levelo://app?vid=f26e9a9c-efcf-4817-ad70-c481de1d89b3","ios":"levelo://app?vid=f26e9a9c-efcf-4817-ad70-c481de1d89b3"},"vehicle_type_id":"4","last_reported":1768421455,"current_range_meters":8800,"station_id":"ce4bhih2rcd13ifvqfs0","pricing_plan_id":"cebpf4jnsgd1na2vs0mg"},{"bike_id":"02bb1b8f-75fe-4780-8fc2-ee37e6f2a08c","system_id":"levelo_inurba_marseille","lat":43.31291,"lon":5.40159,"is_reserved":false,"is_disabled":false,"rental_uris":{"android":"levelo://app?vid=02bb1b8f-75fe-4780-8fc2-ee37e6f2a08c","ios":"levelo://app?vid=02bb1b8f-75fe-4780-8fc2-ee37e6f2a08c"},"vehicle_type_id":"4","last_reported":1768421455,"current_range_meters":8800,"station_id":"ce4bh092rcd13ifvqd30","pricing_plan_id":"cebpf4jnsgd1na2vs0mg"},{"bike_id":"2cf04024-654b-4f56-b8cf-21b3dca3b544","system_id":"levelo_inurba_marseille","lat":43.28228,"lon":5.39073,"is_reserved":false,"is_disabled":false,"rental_uris":{"android":"levelo://app?vid=2cf04024-654b-4f56-b8cf-21b3dca3b544","ios":"levelo://app?vid=2cf04024-654b-4f56-b8cf-21b3dca3b544"},"vehicle_type_id":"4","last_reported":1768421455,"current_range_meters":8800,"station_id":"ce4bhn92rcd13ifvqgsg","pricing_plan_id":"cebpf4jnsgd1na2vs0mg"},{"bike_id":"cc7a43c8-bfc9-4b3e-83c5-00b669c70e80","system_id":"levelo_inurba_marseille","lat":43.29568,"lon":5.3997,"is_reserved":false,"is_disabled":false,"rental_uris":{"android":"levelo://app?vid=cc7a43c8-bfc9-4b3e-83c5-00b669c70e80","ios":"levelo://app?vid=cc7a43c8-bfc9-4b3e-83c5-00b669c70e80"},"vehicle_type_id":"4","last_reported":1768421455,"current_range_meters":8800,"station_id":"ce4bh312rcd13ifvqdj0","pricing_plan_id":"cebpf4jnsgd1na2vs0mg"},{"bike_id":"2315190d-539e-4e83-a2fa-9f74c66b8350","system_id":"levelo_inurba_marseille","lat":43.25579,"lon":5.38246,"is_reserved":false,"is_disabled":false,"rental_uris":{"android":"levelo://app?vid=2315190d-539e-4e83-a2fa-9f74c66b8350","ios":"levelo://app?vid=2315190d-539e-4e83-a2fa-9f74c66b8350"},"vehicle_type_id":"4","last_reported":1768421455,"current_range_meters":8800,"station_id":"ce4bhih2rcd13ifvqfs0","pricing_plan_id":"cebpf4jnsgd1na2vs0mg"},{"bike_id":"d8b52035-9107-4203-ba3b-8ab85229defc","system_id":"levelo_inurba_marseille","lat":43.25627,"lon":5.40029,"is_reserved":false,"is_disabled":false,"rental_uris":{"android":"levelo://app?vid=d8b52035-9107-4203-ba3b-8ab85229defc","ios":"levelo://app?vid=d8b52035-9107-4203-ba3b-8ab85229defc"},"vehicle_type_id":"4","last_reported":1768421455,"current_range_meters":8800,"station_id":"","pricing_plan_id":"cebpf4jnsgd1na2vs0mg"},{"bike_id":"ad5dd703-9acd-4741-9054-424002db856a","system_id":"levelo_inurba_marseille","lat":43.292584,"lon":5.384368,"is_reserved":false,"is_disabled":false,"rental_uris":{"android":"levelo://app?vid=ad5dd703-9acd-4741-9054-424002db856a","ios":"levelo://app?vid=ad5dd703-9acd-4741-9054-424002db856a"},"vehicle_type_id":"4","last_reported":1768421455,"current_range_meters":8800,"station_id":"ce4bh692rcd13ifvqea0","pricing_plan_id":"cebpf4jnsgd1na2vs0mg"},{"bike_id":"5cfd03cf-24a1-4762-9fb7-26a053abe44f","system_id":"levelo_inurba_marseille","lat":43.25829,"lon":5.39421,"is_reserved":false,"is_disabled":false,"rental_uris":{"android":"levelo://app?vid=5cfd03cf-24a1-4762-9fb7-26a053abe44f","ios":"levelo://app?vid=5cfd03cf-24a1-4762-9fb7-26a053abe44f"},"vehicle_type_id":"4","last_reported":1768421455,"current_range_meters":8800,"station_id":"","pricing_plan_id":"cebpf4jnsgd1na2vs0mg"},{"bike_id":"c0a5d608-f773-426f-b5c6-179247e68c03","system_id":"levelo_inurba_marseille","lat":43.26687,"lon":5.38273,"is_reserved":false,"is_disabled":false,"rental_uris":{"android":"levelo://app?vid=c0a5d608-f773-426f-b5c6-179247e68c03","ios":"levelo://app?vid=c0a5d608-f773-426f-b5c6-179247e68c03"},"vehicle_type_id":"4","last_reported":1768421455,"current_range_meters":8800,"station_id":"ce4bhg92rcd13ifvqf90","pricing_plan_id":"cebpf4jnsgd1na2vs0mg"},{"bike_id":"03458de3-2aac-45d6-b0b1-99d79cbd4d77","system_id":"levelo_inurba_marseille","lat":43.30322,"lon":5.40434,"is_reserved":false,"is_disabled":false,"rental_uris":{"android":"levelo://app?vid=03458de3-2aac-45d6-b0b1-99d79cbd4d77","ios":"levelo://app?vid=03458de3-2aac-45d6-b0b1-99d79cbd4d77"},"vehicle_type_id":"4","last_reported":1768421455,"current_range_meters":8800,"station_id":"ce4bh012rcd13ifvqd10","pricing_plan_id":"cebpf4jnsgd1na2vs0mg"},{"bike_id":"20f54293-68b4-4c4a-92f2-607854a39d2b","system_id":"levelo_inurba_marseille","lat":43.30639,"lon":5.40099,"is_reserved":false,"is_disabled":false,"rental_uris":{"android":"levelo://app?vid=20f54293-68b4-4c4a-92f2-607854a39d2b","ios":"levelo://app?vid=20f54293-68b4-4c4a-92f2-607854a39d2b"},"vehicle_type_id":"4","last_reported":1768421455,"current_range_meters":8800,"station_id":"ce4bh112rcd13ifvqda0","pricing_plan_id":"cebpf4jnsgd1na2vs0mg"},{"bike_id":"76971c30-a8f6-4a00-b030-b14396b1d766","system_id":"levelo_inurba_marseille","lat":43.28476,"lon":5.38457,"is_reserved":false,"is_disabled":false,"rental_uris":{"android":"levelo://app?vid=76971c30-a8f6-4a00-b030-b14396b1d766","ios":"levelo://app?vid=76971c30-a8f6-4a00-b030-b14396b1d766"},"vehicle_type_id":"4","last_reported":1768421455,"current_range_meters":8800,"station_id":"ce4bh512rcd13ifvqe3g","pricing_plan_id":"cebpf4jnsgd1na2vs0mg"},{"bike_id":"5d4f1bf5-8aee-483f-86b6-560bd053cf76","system_id":"levelo_inurba_marseille","lat":43.29264,"lon":5.36854,"is_reserved":false,"is_disabled":false,"rental_uris":{"android":"levelo://app?vid=5d4f1bf5-8aee-483f-86b6-560bd053cf76","ios":"levelo://app?vid=5d4f1bf5-8aee-483f-86b6-560bd053cf76"},