{"last_updated":1727168964,"ttl":60,"version":"2.2","data":{"bikes":[{"bike_id":"65e48130-3ab9-4f64-889e-ef237ede2660","system_id":"levelo_inurba_marseille","lat":43.29798,"lon":5.38104,"is_reserved":false,"is_disabled":false,"rental_uris":{"android":"levelo://app?vid=65e48130-3ab9-4f64-889e-ef237ede2660","ios":"levelo://app?vid=65e48130-3ab9-4f64-889e-ef237ede2660"},"vehicle_type_id":"4","last_reported":1727168964,"current_range_meters":11200,"station_id":"ce4bgip2rcd13ifvqbb0","pricing_plan_id":"cebpf4jnsgd1na2vs0mg"},{"bike_id":"94974735-9e09-4ce4-8c77-f4714a151daf","system_id":"levelo_inurba_marseille","lat":43.22929,"lon":5.35373,"is_reserved":false,"is_disabled":false,"rental_uris":{"android":"levelo://app?vid=94974735-9e09-4ce4-8c77-f4714a151daf","ios":"levelo://app?vid=94974735-9e09-4ce4-8c77-f4714a151daf"},"vehicle_type_id":"4","last_reported":1727168964,"current_range_meters":37600,"station_id":"cpo3532slgdg3j2ikp40","pricing_plan_id":"cebpf4jnsgd1na2vs0mg"},{"bike_id":"a59c0712-c213-4701-8df9-ff7d9d92580a","system_id":"levelo_inurba_marseille","lat":43.29571,"lon":5.39981,"is_reserved":false,"is_disabled":false,"rental_uris":{"android":"levelo://app?vid=a59c0712-c213-4701-8df9-ff7d9d92580a","ios":"levelo://app?vid=a59c0712-c213-4701-8df9-ff7d9d92580a"},"vehicle_type_id":"4","last_reported":1727168964,"current_range_meters":32800,"station_id":"ce4bh312rcd13ifvqdj0","pricing_plan_id":"cebpf4jnsgd1na2vs0mg"},{"bike_id":"2200d9de-eab9-4f82-a98f-84d47f405602","system_id":"levelo_inurba_marseille","lat":43.30464,"lon":5.37902,"is_reserved":false,"is_disabled":false,"rental_uris":{"android":"levelo://app?vid=2200d9de-eab9-4f82-a98f-84d47f405602","ios":"levelo://app?vid=2200d9de-eab9-4f82-a98f-84d47f405602"},"vehicle_type_id":"4","last_reported":1727168964,"current_range_meters":38800,"station_id":"ce4bgup2rcd13ifvqcn0","pricing_plan_id":"cebpf4jnsgd1na2vs0mg"},{"bike_id":"fa8d4f50-b9e3-4c63-ad5d-ebb3725043c5","system_id":"levelo_inurba_marseille","lat":43.31356,"lon":5.36706,"is_reserved":false,"is_disabled":false,"rental_uris":{"android":"levelo://app?vid=fa8d4f50-b9e3-4c63-ad5d-ebb3725043c5","ios":"levelo://app?vid=fa8d4f50-b9e3-4c63-ad5d-ebb3725043c5"},"vehicle_type_id":"4","last_reported":1727168964,"current_range_meters":8800,"station_id":"ce4bgr92rcd13ifvqc6g","pricing_plan_id":"cebpf4jnsgd1na2vs0mg"},{"bike_id":"b20fb035-1c18-4b59-bedc-83ce4de58f59","system_id":"levelo_inurba_marseille","lat":43.29633,"lon":5.40604,"is_reserved":false,"is_disabled":false,"rental_uris":{"android":"levelo://app?vid=b20fb035-1c18-4b59-bedc-83ce4de58f59","ios":"levelo://app?vid=b20fb035-1c18-4b59-bedc-83ce4de58f59"},"vehicle_type_id":"4","last_reported":1727168964,"current_range_meters":38800,"station_id":"ce4bh0h2rcd13ifvqd60","pricing_plan_id":"cebpf4jnsgd1na2vs0mg"},{"bike_id":"5d3d257f-bb51-4bce-a465-c8d6a178e971","system_id":"levelo_inurba_marseille","lat":43.32667,"lon":5.4099,"is_reserved":false,"is_disabled":false,"rental_uris":{"android":"levelo://app?vid=5d3d257f-bb51-4bce-a465-c8d6a178e971","ios":"levelo://app?vid=5d3d257f-bb51-4bce-a465-c8d6a178e971"},"vehicle_type_id":"4","last_reported":1727168964,"current_range_meters":37600,"station_id":"ce4bhpp2rcd13ifvqhgg","pricing_plan_id":"cebpf4jnsgd1na2vs0mg"},{"bike_id":"c4d2810e-ccc9-44c1-aa8a-14cec2cd63f4","system_id":"levelo_inurba_marseille","lat":43.299082,"lon":5.381457,"is_reserved":false,"is_disabled":false,"rental_uris":{"android":"levelo://app?vid=c4d2810e-ccc9-44c1-aa8a-14cec2cd63f4","ios":"levelo://app?vid=c4d2810e-ccc9-44c1-aa8a-14cec2cd63f4"},"vehicle_type_id":"4","last_reported":1727168964,"current_range_meters":26000,"station_id":"ce4bgj12rcd13ifvqbc0","pricing_plan_id":"cebpf4jnsgd1na2vs0mg"},{"bike_id":"4e0525a1-1391-4e31-b0b0-9a5eeab088da","system_id":"levelo_inurba_marseille","lat":43.24072,"lon":5.37763,"is_reserved":false,"is_disabled":false,"rental_uris":{"android":"levelo://app?vid=4e0525a1-1391-4e31-b0b0-9a5eeab088da","ios":"levelo://app?vid=4e0525a1-1391-4e31-b0b0-9a5eeab088da"},"vehicle_type_id":"4","last_reported":1727168964,"current_range_meters":32400,"station_id":"ce4bhnp2rcd13ifvqgvg","pricing_plan_id":"cebpf4jnsgd1na2vs0mg"},{"bike_id":"b14d0afd-356c-4c20-b93f-06a170749a0f","system_id":"levelo_inurba_marseille","lat":43.337444,"lon":5.374475,"is_reserved":false,"is_disabled":false,"rental_uris":{"android":"levelo://app?vid=b14d0afd-356c-4c20-b93f-06a170749a0f","ios":"levelo://app?vid=b14d0afd-356c-4c20-b93f-06a170749a0f"},"vehicle_type_id":"4","last_reported":1727168964,"current_range_meters":36800,"station_id":"","pricing_plan_id":"cebpf4jnsgd1na2vs0mg"},{"bike_id":"22483460-0c6e-4ad6-a1a2-c76109a005d1","system_id":"levelo_inurba_marseille","lat":43.30353,"lon":5.41875,"is_reserved":false,"is_disabled":false,"rental_uris":{"android":"levelo://app?vid=22483460-0c6e-4ad6-a1a2-c76109a005d1","ios":"levelo://app?vid=22483460-0c6e-4ad6-a1a2-c76109a005d1"},"vehicle_type_id":"4","last_reported":1727168964,"current_range_meters":37600,"station_id":"ce4bhop2rcd13ifvqh7g","pricing_plan_id":"cebpf4jnsgd1na2vs0mg"},{"bike_id":"6753015a-dda8-410b-b085-4a17c88d9d1e","system_id":"levelo_inurba_marseille","lat":43.27493,"lon":5.42457,"is_reserved":false,"is_disabled":false,"rental_uris":{"android":"levelo://app?vid=6753015a-dda8-410b-b085-4a17c88d9d1e","ios":"levelo://app?vid=6753015a-dda8-410b-b085-4a17c88d9d1e"},"vehicle_type_id":"4","last_reported":1727168964,"current_range_meters":18800,"station_id":"ce4bhn92rcd13ifvqgrg","pricing_plan_id":"cebpf4jnsgd1na2vs0mg"},{"bike_id":"d14528bc-6f02-415a-b9e7-a6970825b782","system_id":"levelo_inurba_marseille","lat":43.29556,"lon":5.42284,"is_reserved":false,"is_disabled":false,"rental_uris":{"android":"levelo://app?vid=d14528bc-6f02-415a-b9e7-a6970825b782","ios":"levelo://app?vid=d14528bc-6f02-415a-b9e7-a6970825b782"},"vehicle_type_id":"4","last_reported":1727168964,"current_range_meters":36000,"station_id":"ce4bhph2rcd13ifvqhdg","pricing_plan_id":"cebpf4jnsgd1na2vs0mg"},{"bike_id":"cec702f9-6429-493f-a263-782f4419d3a6","system_id":"levelo_inurba_marseille","lat":43.25856,"lon":5.39905,"is_reserved":false,"is_disabled":false,"rental_uris":{"android":"levelo://app?vid=cec702f9-6429-493f-a263-782f4419d3a6","ios":"levelo://app?vid=cec702f9-6429-493f-a263-782f4419d3a6"},"vehicle_type_id":"4","last_reported":1727168964,"current_range_meters":29600,"station_id":"ce4bhl92rcd13ifvqghg","pricing_plan_id":"cebpf4jnsgd1na2vs0mg"},{"bike_id":"0d42b10a-3b15-482b-bbe9-82d3ea517263","system_id":"levelo_inurba_marseille","lat":43.25939,"lon":5.40904,"is_reserved":false,"is_disabled":false,"rental_uris":{"android":"levelo://app?vid=0d42b10a-3b15-482b-bbe9-82d3ea517263","ios":"levelo://app?vid=0d42b10a-3b15-482b-bbe9-82d3ea517263"},"vehicle_type_id":"4","last_reported":1727168964,"current_range_meters":29600,"station_id":"ce4bhm92rcd13ifvqglg","pricing_plan_id":"cebpf4jnsgd1na2vs0mg"},{"bike_id":"fe69611f-6ed0-4350-9cf0-f719ab4012ce","system_id":"levelo_inurba_marseille","lat":43.30286,"lon":5.37686,"is_reserved":false,"is_disabled":false,"rental_uris":{"android":"levelo://app?vid=fe69611f-6ed0-4350-9cf0-f719ab4012ce","ios":"levelo://app?vid=fe69611f-6ed0-4350-9cf0-f719ab4012ce"},"vehicle_type_id":"4","last_reported":1727168964,"current_range_meters":39200,"station_id":"ce4bguh2rcd13ifvqcj0","pricing_plan_id":"cebpf4jnsgd1na2vs0mg"},{"bike_id":"c7e32d76-ff4b-4f34-a25e-325dc56893b2","system_id":"levelo_inurba_marseille","lat":43.29045,"lon":5.35922,"is_reserved":false,"is_disabled":false,"rental_uris":{"android":"levelo://app?vid=c7e32d76-ff4b-4f34-a25e-325dc56893b2","ios":"levelo://app?vid=c7e32d76-ff4b-4f34-a25e-325dc56893b2"},"vehicle_type_id":"4","last_reported":1727168964,"current_range_meters":10000,"station_id":"ce4bha92rcd13ifvqeg0","pricing_plan_id":"cebpf4jnsgd1na2vs0mg"},{"bike_id":"825d3175-d357-4fdf-98bb-a41b87d41684","system_id":"levelo_inurba_marseille","lat":43.26943,"lon":5.38635,"is_reserved":false,"is_disabled":false,"rental_uris":{"android":"levelo://app?vid=825d3175-d357-4fdf-98bb-a41b87d41684","ios":"levelo://app?vid=825d3175-d357-4fdf-98bb-a41b87d41684"},"vehicle_type_id":"4","last_reported":1727168964,"current_range_meters":19600,"station_id":"ce4bhh92rcd13ifvqfh0","pricing_plan_id":"cebpf4jnsgd1na2vs0mg"},{"bike_id":"7737b815-6daf-41f0-8354-4b28ba75917f","system_id":"levelo_inurba_marseille","lat":43.30197,"lon":5.3983,"is_reserved":false,"is_disabled":false,"rental_uris":{"android":"levelo://app?vid=7737b815-6daf-41f0-8354-4b28ba75917f","ios":"levelo://app?vid=7737b815-6daf-41f0-8354-4b28ba75917f"},"vehicle_type_id":"4","last_reported":1727168964,"current_range_meters":24400,"station_id":"ce4bgvp2rcd13ifvqct0","pricing_plan_id":"cebpf4jnsgd1na2vs0mg"},{"bike_id":"6af05b22-7037-4454-861c-3b90a9d37c6e","system_id":"levelo_inurba_marseille","lat":43.23155,"lon":5.43705,"is_reserved":false,"is_disabled":false,"rental_uris":{"android":"levelo://app?vid=6af05b22-7037-4454-861c-3b90a9d37c6e","ios":"levelo://app?vid=6af05b22-7037-4454-861c-3b90a9d37c6e"},"vehicle_type_id":"4","last_reported":1727168964,"current_range_meters":20800,"station_id":"ce4bhmp2rcd13ifvqgog","pricing_plan_id":"cebpf4jnsgd1na2vs0mg"},{"bike_id":"f3bf5fdd-dd32-4c3c-a883-9d7f4cfe2e34","system_id":"levelo_inurba_marseille","lat":43.25937,"lon":5.40898,"is_reserved":false,"is_disabled":false,"rental_uris":{"android":"levelo://app?vid=f3bf5fdd-dd32-4c3c-a883-9d7f4cfe2e34","ios":"levelo://app?vid=f3bf5fdd-dd32-4c3c-a883-9d7f4cfe2e34"},"vehicle_type_id":"4","last_reported":1727168964,"current_range_meters":8000,"station_id":"ce4bhm92rcd13ifvqglg","pricing_plan_id":"cebpf4jnsgd1na2vs0mg"},{"bike_id":"a0d707e1-1962-44ea-871d-1343e49e7758","system_id":"levelo_inurba_marseille","lat":43.27492,"lon":5.42452,"is_reserved":false,"is_disabled":false,"rental_uris":{"android":"levelo://app?vid=a0d707e1-1962-44ea-871d-1343e49e7758","ios":"levelo://app?vid=a0d707e1-1962-44ea-871d-1343e49e7758"},"vehicle_type_id":"4","last_reported":1727168964,"current_range_meters":34000,"station_id":"ce4bhn92rcd13ifvqgrg","pricing_plan_id":"cebpf4jnsgd1na2vs0mg"},{"bike_id":"d4af3188-051f-4a7d-a203-31b3728fca1e","system_id":"levelo_inurba_marseille","lat":43.2707,"lon":5.42279,"is_reserved":false,"is_disabled":false,"rental_uris":{"android":"levelo://app?vid=d4af3188-051f-4a7d-a203-31b3728fca1e","ios":"levelo://app?vid=d4af3188-051f-4a7d-a203-31b3728fca1e"},"vehicle_type_id":"4","last_reported":1727168964,"current_range_meters":36800,"station_id":"ce4bhk92rcd13ifvqgb0","pricing_plan_id":"cebpf4jnsgd1na2vs0mg"},{"bike_id":"099eed42-4ad8-4340-8dbe-80cef86546dc","system_id":"levelo_inurba_marseille","lat":43.28432,"lon":5.39191,"is_reserved":false,"is_disabled":false,"rental_uris":{"android":"levelo://app?vid=099eed42-4ad8-4340-8dbe-80cef86546dc","ios":"levelo://app?vid=099eed42-4ad8-4340-8dbe-80cef86546dc"},"vehicle_type_id":"4","last_reported":1727168964,"current_range_meters":38800,"station_id":"ce4bhoh2rcd13ifvqh5g","pricing_plan_id":"cebpf4jnsgd1na2vs0mg"},{"bike_id":"18f2c934-7a91-4893-af21-04349f1f5c0a","system_id":"levelo_inurba_marseille","lat":43.25574,"lon":5.38237,"is_reserved":false,"is_disabled":false,"rental_uris":{"android":"levelo://app?vid=18f2c934-7a91-4893-af21-04349f1f5c0a","ios":"levelo://app?vid=18f2c934-7a91-4893-af21-04349f1f5c0a"},"vehicle_type_id":"4","last_reported":1727168964,"current_range_meters":38000,"station_id":"ce4bhih2rcd13ifvqfs0","pricing_plan_id":"cebpf4jnsgd1na2vs0mg"},{"bike_id":"3f24f136-6c9c-4467-9d42-992894b3dcb0","system_id":"levelo_inurba_marseille","lat":43.241845,"lon":5.397277,"is_reserved":false,"is_disabled":false,"rental_uris":{"android":"levelo://app?vid=3f24f136-6c9c-4467-9d42-992894b3dcb0","ios":"levelo://app?vid=3f24f136-6c9c-4467-9d42-992894b3dcb0"},"vehicle_type_id":"4","last_reported":1727168964,"current_range_meters":37600,"station_id":"ce4bhn12rcd13ifvqgpg","pricing_plan_id":"cebpf4jnsgd1na2vs0mg"},{"bike_id":"5453ff63-c479-4c4f-90a6-2244bf56c8f3","system_id":"levelo_inurba_marseille","lat":43.2707,"lon":5.42278,"is_reserved":false,"is_disabled":false,"rental_uris":{"android":"levelo://app?vid=5453ff63-c479-4c4f-90a6-2244bf56c8f3","ios":"levelo://app?vid=5453ff63-c479-4c4f-90a6-2244bf56c8f3"},"vehicle_type_id":"4","last_reported":1727168964,"current_range_meters":39200,"station_id":"ce4bhk92rcd13ifvqgb0","pricing_plan_id":"cebpf4jnsgd1na2vs0mg"},{"bike_id":"4b6cc228-d3e6-44a3-bee8-b0056aed30bf","system_id":"levelo_inurba_marseille","lat":43.23157,"lon":5.43701,"is_reserved":false,"is_disabled":false,"rental_uris":{"android":"levelo://app?vid=4b6cc228-d3e6-44a3-bee8-b0056aed30bf","ios":"levelo://app?vid=4b6cc228-d3e6-44a3-bee8-b0056aed30bf"},"vehicle_type_id":"4","last_reported":1727168964,"current_range_meters":33200,"station_id":"ce4bhmp2rcd13ifvqgog","pricing_plan_id":"cebpf4jnsgd1na2vs0mg"},{"bike_id":"c0bfbb99-b969-40cd-b8cc-4e5130fab7d0","system_id":"levelo_inurba_marseille","lat":43.3123,"lon":5.36884,"is_reserved":false,"is_disabled":false,"rental_uris":{"android":"levelo://app?vid=c0bfbb99-b969-40cd-b8cc-4e5130fab7d0","ios":"levelo://app?vid=c0bfbb99-b969-40cd-b8cc-4e5130fab7d0"},"vehicle_type_id":"4","last_reported":1727168964,"current_range_meters":38800,"station_id":"ce4bgl92rcd13ifvqbq0","pricing_plan_id":"cebpf4jnsgd1na2vs0mg"},{"bike_id":"ad216239-a1f3-4a37-b5aa-fa2a18ccaa61","system_id":"levelo_inurba_marseille","lat":43.25936,"lon":5.40908,"is_reserved":false,"is_disabled":false,"rental_uris":{"android":"levelo://app?vid=ad216239-a1f3-4a37-b5aa-fa2a18ccaa61","ios":"levelo://app?vid=ad216239-a1f3-4a37-b5aa-fa2a18ccaa61"},"vehicle_type_id":"4","last_reported":1727168964,"current_range_meters":26800,"station_id":"ce4bhm92rcd13ifvqglg","pricing_plan_id":"cebpf4jnsgd1na2vs0mg"},{"bike_id":"54d2e0ef-9edf-43cb-bbbf-85ed53e21a88","system_id":"levelo_inurba_marseille","lat":43.2594,"lon":5.40905,"is_reserved":false,"is_disabled":false,"rental_uris":{"android":"levelo://app?vid=54d2e0ef-9edf-43cb-bbbf-85ed53e21a88","ios":"levelo://app?vid=54d2e0ef-9edf-43cb-bbbf-85ed53e21a88"},"vehicle_type_id":"4","last_reported":1727168964,"current_range_meters":20000,"station_id":"ce4bhm92rcd13ifvqglg","pricing_plan_id":"cebpf4jnsgd1na2vs0mg"},{"bike_id":"7a8458d5-44ac-4f2e-abef-3f01eb31f7ca","system_id":"levelo_inurba_marseille","lat":43.337444,"lon":5.374475,"is_reserved":false,"is_disabled":false,"rental_uris":{"android":"levelo://app?vid=7a8458d5-44ac-4f2e-abef-3f01eb31f7ca","ios":"levelo://app?vid=7a8458d5-44ac-4f2e-abef-3f01eb31f7ca"},"vehicle_type_id":"4","last_reported":1727168964,"current_range_meters":22400,"station_id":"","pricing_plan_id":"cebpf4jnsgd1na2vs0mg"},{"bike_id":"44956eb9-ed26-423f-bf8f-af8c21f3017f","system_id":"levelo_inurba_marseille","lat":43.3054,"lon":5.36712,"is_reserved":false,"is_disabled":false,"rental_uris":{"android":"levelo://app?vid=44956eb9-ed26-423f-bf8f-af8c21f3017f","ios":"levelo://app?vid=44956eb9-ed26-423f-bf8f-af8c21f3017f"},"vehicle_type_id":"4","last_reported":1727168964,"current_range_meters":34800,"station_id":"ce4bgrp2rcd13ifvqc9g","pricing_plan_id":"cebpf4jnsgd1na2vs0mg"},{"bike_id":"ef1087a3-2aa8-49da-a1ea-c5c69068f32c","system_id":"levelo_inurba_marseille","lat":43.26687,"lon":5.38268,"is_reserved":false,"is_disabled":false,"rental_uris":{"android":"levelo://app?vid=ef1087a3-2aa8-49da-a1ea-c5c69068f32c","ios":"levelo://app?vid=ef1087a3-2aa8-49da-a1ea-c5c69068f32c"},"vehicle_type_id":"4","last_reported":1727168964,"current_range_meters":24800,"station_id":"ce4bhg92rcd13ifvqf90","pricing_plan_id":"cebpf4jnsgd1na2vs0mg"},{"bike_id":"c730d4a1-245e-4bfc-82e7-7dc3582cad96","system_id":"levelo_inurba_marseille","lat":43.30325,"lon":5.37394,"is_reserved":false,"is_disabled":false,"rental_uris":{"android":"levelo://app?vid=c730d4a1-245e-4bfc-82e7-7dc3582cad96","ios":"levelo://app?vid=c730d4a1-245e-4bfc-82e7-7dc3582cad96"},"vehicle_type_id":"4","last_reported":1727168964,"current_range_meters":2800,"station_id":"ce4bgt92rcd13ifvqcf0","pricing_plan_id":"cebpf4jnsgd1na2vs0mg"},{"bike_id":"ebf5c734-b1fe-4fcc-88dc-f9132da6918b","system_id":"levelo_inurba_marseille","lat":43.30469,"lon":5.37894,"is_reserved":false,"is_disabled":false,"rental_uris":{"android":"levelo://app?vid=ebf5c734-b1fe-4fcc-88dc-f9132da6918b","ios":"levelo://app?vid=ebf5c734-b1fe-4fcc-88dc-f9132da6918b"},"vehicle_type_id":"4","last_reported":1727168964,"current_range_meters":37600,"station_id":"ce4bgup2rcd13ifvqcn0","pricing_plan_id":"cebpf4jnsgd1na2vs0mg"},{"bike_id":"c87e9ddd-89d5-4893-a5d7-98bd2f9da634","system_id":"levelo_inurba_marseille","lat":43.2408,"lon":5.37756,"is_reserved":false,"is_disabled":false,"rental_uris":{"android":"levelo://app?vid=c87e9ddd-89d5-4893-a5d7-98bd2f9da634","ios":"levelo://app?vid=c87e9ddd-89d5-4893-a5d7-98bd2f9da634"},"vehicle_type_id":"4","last_reported":1727168964,"current_range_meters":16800,"station_id":"ce4bhnp2rcd13ifvqgvg","pricing_plan_id":"cebpf4jnsgd1na2vs0mg"},{"bike_id":"537149c0-3fee-4c5c-aa95-834fe2f0793e","system_id":"levelo_inurba_marseille","lat":43.32662,"lon":5.40987,"is_reserved":false,"is_disabled":false,"rental_uris":{"android":"levelo://app?vid=537149c0-3fee-4c5c-aa95-834fe2f0793e","ios":"levelo://app?vid=537149c0-3fee-4c5c-aa95-834fe2f0793e"},"vehicle_type_id":"4","last_reported":1727168964,"current_range_meters":39200,"station_id":"ce4bhpp2rcd13ifvqhgg","pricing_plan_id":"cebpf4jnsgd1na2vs0mg"},{"bike_id":"28cd582f-ae84-4c13-b81f-2de0e3d9729e","system_id":"levelo_inurba_marseille","lat":43.30455,"lon":5.37907,"is_reserved":false,"is_disabled":false,"rental_uris":{"android":"levelo://app?vid=28cd582f-ae84-4c13-b81f-2de0e3d9729e","ios":"levelo://app?vid=28cd582f-ae84-4c13-b81f-2de0e3d9729e"},"vehicle_type_id":"4","last_reported":1727168964,"current_range_meters":26800,"station_id":"ce4bgup2rcd13ifvqcn0","pricing_plan_id":"cebpf4jnsgd1na2vs0mg"},{"bike_id":"c8243bdf-7063-48e0-83f5-bba459ffe98b","system_id":"levelo_inurba_marseille","lat":43.24077,"lon":5.37754,"is_reserved":false,"is_disabled":false,"rental_uris":{"android":"levelo://app?vid=c8243bdf-7063-48e0-83f5-bba459ffe98b","ios":"levelo://app?vid=c8243bdf-7063-48e0-83f5-bba459ffe98b"},"vehicle_type_id":"4","last_reported":1727168964,"current_range_meters":37600,"station_id":"ce4bhnp2rcd13ifvqgvg","pricing_plan_id":"cebpf4jnsgd1na2vs0mg"},{"bike_id":"03409d1a-a416-4d64-af15-2f1fc04e5663","system_id":"levelo_inurba_marseille","lat":43.23148,"lon":5.43725,"is_reserved":false,"is_disabled":false,"rental_uris":{"android":"levelo://app?vid=03409d1a-a416-4d64-af15-2f1fc04e5663","ios":"levelo://app?vid=03409d1a-a416-4d64-af15-2f1fc04e5663"},"vehicle_type_id":"4","last_reported":1727168964,"current_range_meters":26000,"station_id":"ce4bhmp2rcd13ifvqgog","pricing_plan_id":"cebpf4jnsgd1na2vs0mg"},{"bike_id":"6979d0b4-a1f3-4e96-a880-9fd4f35bf761","system_id":"levelo_inurba_marseille","lat":43.30146,"lon":5.38085,"is_reserved":false,"is_disabled":false,"rental_uris":{"android":"levelo://app?vid=6979d0b4-a1f3-4e96-a880-9fd4f35bf761","ios":"levelo://app?vid=6979d0b4-a1f3-4e96-a880-9fd4f35bf761"},"vehicle_type_id":"4","last_reported":1727168964,"current_range_meters":38800,"station_id":"ce4bgjp2rcd13ifvqbh0","pricing_plan_id":"cebpf4jnsgd1na2vs0mg"},{"bike_id":"0187dbe4-866c-4031-9cbb-94cdd92f6a82","system_id":"levelo_inurba_marseille","lat":43.29604,"lon":5.377,"is_reserved":false,"is_disabled":false,"rental_uris":{"android":"levelo://app?vid=0187dbe4-866c-4031-9cbb-94cdd92f6a82","ios":"levelo://app?vid=0187dbe4-866c-4031-9cbb-94cdd92f6a82"},"vehicle_type_id":"4","last_reported":1727168964,"current_range_meters":5600,"station_id":"ce4bgi92rcd13ifvqb90","pricing_plan_id":"cebpf4jnsgd1na2vs0mg"},{"bike_id":"ca496ebf-a862-4105-b880-3f4d094dd894","system_id":"levelo_inurba_marseille","lat":43.30332,"lon":5.404379,"is_reserved":false,"is_disabled":false,"rental_uris":{"android":"levelo://app?vid=ca496ebf-a862-4105-b880-3f4d094dd894","ios":"levelo://app?vid=ca496ebf-a862-4105-b880-3f4d094dd894"},"vehicle_type_id":"4","last_reported":1727168964,"current_range_meters":28000,"station_id":"ce4bh012rcd13ifvqd10","pricing_plan_id":"cebpf4jnsgd1na2vs0mg"},{"bike_id":"9fadec36-32c2-40ce-86e3-222ef791ca3d","system_id":"levelo_inurba_marseille","lat":43.2984,"lon":5.36266,"is_reserved":false,"is_disabled":false,"rental_uris":{"android":"levelo://app?vid=9fadec36-32c2-40ce-86e3-222ef791ca3d","ios":"levelo://app?vid=9fadec36-32c2-40ce-86e3-222ef791ca3d"},"vehicle_type_id":"4","last_reported":1727168964,"current_range_meters":24800,"station_id":"ce4bgpp2rcd13ifvqc3g","pricing_plan_id":"cebpf4jnsgd1na2vs0mg"},{"bike_id":"c29db812-a2ba-4b10-8014-dfbcc2e5e72c","system_id":"levelo_inurba_marseille","lat":43.26019,"lon":5.37586,"is_reserved":false,"is_disabled":false,"rental_uris":{"android":"levelo://app?vid=c29db812-a2ba-4b10-8014-dfbcc2e5e72c","ios":"levelo://app?vid=c29db812-a2ba-4b10-8014-dfbcc2e5e72c"},"vehicle_type_id":"4","last_reported":1727168964,"current_range_meters":3600,"station_id":"ce4bhgh2rcd13ifvqfa0","pricing_plan_id":"cebpf4jnsgd1na2vs0mg"},{"bike_id":"6acc6fab-b5ef-443e-99ba-b8bbb33f88f6","system_id":"levelo_inurba_marseille","lat":43.27497,"lon":5.42446,"is_reserved":false,"is_disabled":false,"rental_uris":{"android":"levelo://app?vid=6acc6fab-b5ef-443e-99ba-b8bbb33f88f6","ios":"levelo://app?vid=6acc6fab-b5ef-443e-99ba-b8bbb33f88f6"},"vehicle_type_id":"4","last_reported":1727168964,"current_range_meters":25600,"station_id":"ce4bhn92rcd13ifvqgrg","pricing_plan_id":"cebpf4jnsgd1na2vs0mg"},{"bike_id":"3cbccf5e-927a-4192-a6a7-d056c365b8c1","system_id":"levelo_inurba_marseille","lat":43.305453,"lon":5.36538,"is_reserved":false,"is_disabled":false,"rental_uris":{"android":"levelo://app?vid=3cbccf5e-927a-4192-a6a7-d056c365b8c1","ios":"levelo://app?vid=3cbccf5e-927a-4192-a6a7-d056c365b8c1"},"vehicle_type_id":"4","last_reported":1727168964,"current_range_meters":39200,"station_id":"ce4bgs12rcd13ifvqcag","pricing_plan_id":"cebpf4jnsgd1na2vs0mg"},{"bike_id":"44a8a61c-997b-400e-8a2b-961413edaa1d","system_id":"levelo_inurba_marseille","lat":43.29844,"lon":5.36269,"is_reserved":false,"is_disabled":false,"rental_uris":{"android":"levelo://app?vid=44a8a61c-997b-400e-8a2b-961413edaa1d","ios":"levelo://app?vid=44a8a61c-997b-400e-8a2b-961413edaa1d"},"vehicle_type_id":"4","last_reported":1727168964,"current_range_meters":37600,"station_id":"ce4bgpp2rcd13ifvqc3g","pricing_plan_id":"cebpf4jnsgd1na2vs0mg"},{"bike_id":"2ca1d918-6de6-4e06-9578-8568d66b3eec","system_id":"levelo_inurba_marseille","lat":43.30469,"lon":5.37916,"is_reserved":false,"is_disabled":false,"rental_uris":{"android":"levelo://app?vid=2ca1d918-6de6-4e06-9578-8568d66b3eec","ios":"levelo://app?vid=2ca1d918-6de6-4e06-9578-8568d66b3eec"},"vehicle_type_id":"4","last_reported":1727168964,"current_range_meters":28400,"station_id":"ce4bgup2rcd13ifvqcn0","pricing_plan_id":"cebpf4jnsgd1na2vs0mg"},{"bike_id":"87da5202-59d4-4e9d-a627-50c812ca8ee2","system_id":"levelo_inurba_marseille","lat":43.25941,"lon":5.40905,"is_reserved":false,"is_disabled":false,"rental_uris":{"android":"levelo://app?vid=87da5202-59d4-4e9d-a627-50c812ca8ee2","ios":"levelo://app?vid=87da5202-59d4-4e9d-a627-50c812ca8ee2"},"vehicle_type_id":"4","last_reported":1727168964,"current_range_meters":29600,"station_id":"ce4bhm92rcd13ifvqglg","pricing_plan_id":"cebpf4jnsgd1na2vs0mg"},{"bike_id":"82485995-fe24-4e7e-8681-27eeb66115bf","system_id":"levelo_inurba_marseille","lat":43.32535,"lon":5.41444,"is_reserved":false,"is_disabled":false,"rental_uris":{"android":"levelo://app?vid=82485995-fe24-4e7e-8681-27eeb66115bf","ios":"levelo://app?vid=82485995-fe24-4e7e-8681-27eeb66115bf"},"vehicle_type_id":"4","last_reported":1727168964,"current_range_meters":16400,"station_id":"ce4bhq12rcd13ifvqhhg","pricing_plan_id":"cebpf4jnsgd1na2vs0mg"},{"bike_id":"cfb76313-aeda-42a6-aa7a-6136e23cfa03","system_id":"levelo_inurba_marseille","lat":43.312245,"lon":5.368773,"is_reserved":false,"is_disabled":false,"rental_uris":{"android":"levelo://app?vid=cfb76313-aeda-42a6-aa7a-6136e23cfa03","ios":"levelo://app?vid=cfb76313-aeda-42a6-aa7a-6136e23cfa03"},"vehicle_type_id":"4","last_reported":1727168964,"current_range_meters":32000,"station_id":"ce4bgl92rcd13ifvqbq0","pricing_plan_id":"cebpf4jnsgd1na2vs0mg"},{"bike_id":"904e9e25-556c-4fac-8a49-7593dc968b92","system_id":"levelo_inurba_marseille","lat":43.2815,"lon":5.42646,"is_reserved":false,"is_disabled":false,"rental_uris":{"android":"levelo://app?vid=904e9e25-556c-4fac-8a49-7593dc968b92","ios":"levelo://app?vid=904e9e25-556c-4fac-8a49-7593dc968b92"},"vehicle_type_id":"4","last_reported":1727168964,"current_range_meters":12000,"station_id":"ce4bhnh2rcd13ifvqgug","pricing_plan_id":"cebpf4jnsgd1na2vs0mg"},{"bike_id":"17462b39-60a1-49ba-9049-7cda24214878","system_id":"levelo_inurba_marseille","lat":43.30421,"lon":5.41278,"is_reserved":false,"is_disabled":false,"rental_uris":{"android":"levelo://app?vid=17462b39-60a1-49ba-9049-7cda24214878","ios":"levelo://app?vid=17462b39-60a1-49ba-9049-7cda24214878"},"vehicle_type_id":"4","last_reported":1727168964,"current_range_meters":19200,"station_id":"ce4bhop2rcd13ifvqh8g","pricing_plan_id":"cebpf4jnsgd1na2vs0mg"},{"bike_id":"c35ced23-7af7-4bee-aa1c-f7b5e7924ca7","system_id":"levelo_inurba_marseille","lat":43.29875,"lon":5.37573,"is_reserved":false,"is_disabled":false,"rental_uris":{"android":"levelo://app?vid=c35ced23-7af7-4bee-aa1c-f7b5e7924ca7","ios":"levelo://app?vid=c35ced23-7af7-4bee-aa1c-f7b5e7924ca7"},"vehicle_type_id":"4","last_reported":1727168964,"current_range_meters":30800,"station_id":"","pricing_plan_id":"cebpf4jnsgd1na2vs0mg"},{"bike_id":"b3c7a6c8-0037-4b85-b817-74830c3c0c4c","system_id":"levelo_inurba_marseille","lat":43.30468,"lon":5.37902,"is_reserved":false,"is_disabled":false,"rental_uris":{"android":"levelo://app?vid=b3c7a6c8-0037-4b85-b817-74830c3c0c4c","ios":"levelo://app?vid=b3c7a6c8-0037-4b85-b817-74830c3c0c4c"},"vehicle_type_id":"4","last_reported":1727168964,"current_range_meters":25600,"station_id":"ce4bgup2rcd13ifvqcn0","pricing_plan_id":"cebpf4jnsgd1na2vs0mg"},{"bike_id":"a57c0cca-328a-4f0a-b679-e1aacee7d643","system_id":"levelo_inurba_marseille","lat":43.27987,"lon":5.41666,"is_reserved":false,"is_disabled":false,"rental_uris":{"android":"levelo://app?vid=a57c0cca-328a-4f0a-b679-e1aacee7d643","ios":"levelo://app?vid=a57c0cca-328a-4f0a-b679-e1aacee7d643"},"vehicle_type_id":"4","last_reported":1727168964,"current_range_meters":10800,"station_id":"ce4bho12rcd13ifvqh1g","pricing_plan_id":"cebpf4jnsgd1na2vs0mg"},{"bike_id":"5dc245c5-3ca1-411a-b82c-dde4b1652042","system_id":"levelo_inurba_marseille","lat":43.24168,"lon":5.36392,"is_reserved":false,"is_disabled":false,"rental_uris":{"android":"levelo://app?vid=5dc245c5-3ca1-411a-b82c-dde4b1652042","ios":"levelo://app?vid=5dc245c5-3ca1-411a-b82c-dde4b1652042"},"vehicle_type_id":"4","last_reported":1727168964,"current_range_meters":28800,"station_id":"cpo36qri1sfpv3e86is0","pricing_plan_id":"cebpf4jnsgd1na2vs0mg"},{"bike_id":"a578be38-e360-4614-972e-bddd8629f052","system_id":"levelo_inurba_marseille","lat":43.337444,"lon":5.374475,"is_reserved":false,"is_disabled":false,"rental_uris":{"android":"levelo://app?vid=a578be38-e360-4614-972e-bddd8629f052","ios":"levelo://app?vid=a578be38-e360-4614-972e-bddd8629f052"},"vehicle_type_id":"4","last_reported":1727168964,"current_range_meters":19600,"station_id":"","pricing_plan_id":"cebpf4jnsgd1na2vs0mg"},{"bike_id":"c00cbaf3-673a-41dc-aefd-e91c0d90b257","system_id":"levelo_inurba_marseille","lat":43.23063,"lon":5.35493,"is_reserved":false,"is_disabled":false,"rental_uris":{"android":"levelo://app?vid=c00cbaf3-673a-41dc-aefd-e91c0d90b257","ios":"levelo://app?vid=c00cbaf3-673a-41dc-aefd-e91c0d90b257"},"vehicle_type_id":"4","last_reported":1727168964,"current_range_meters":28800,"station_id":"cpo3342slgdg3j2ifvpg","pricing_plan_id":"cebpf4jnsgd1na2vs0mg"},{"bike_id":"58da2eb5-b9c0-403e-8a66-0a99e6a0a28e","system_id":"levelo_inurba_marseille","lat":43.31218,"lon":5.36872,"is_reserved":false,"is_disabled":false,"rental_uris":{"android":"levelo://app?vid=58da2eb5-b9c0-403e-8a66-0a99e6a0a28e","ios":"levelo://app?vid=58da2eb5-b9c0-403e-8a66-0a99e6a0a28e"},"vehicle_type_id":"4","last_reported":1727168964,"current_range_meters":30000,"station_id":"ce4bgl92rcd13ifvqbq0","pricing_plan_id":"cebpf4jnsgd1na2vs0mg"},{"bike_id":"0f12c31e-0d27-4e0e-b943-7307aee6ed46","system_id":"levelo_inurba_marseille","lat":43.29512,"lon":5.39402,"is_reserved":false,"is_disabled":false,"rental_uris":{"android":"levelo://app?vid=0f12c31e-0d27-4e0e-b943-7307aee6ed46","ios":"levelo://app?vid=0f12c31e-0d27-4e0e-b943-7307aee6ed46"},"vehicle_type_id":"4","last_reported":1727168964,"current_range_meters":22800,"station_id":"ce4bh292rcd13ifvqdf0","pricing_plan_id":"cebpf4jnsgd1na2vs0mg"},{"bike_id":"1cf9c6ad-a18e-4581-966a-e4580ac983e8","system_id":"levelo_inurba_marseille","lat":43.30159,"lon":5.38076,"is_reserved":false,"is_disabled":false,"rental_uris":{"android":"levelo://app?vid=1cf9c6ad-a18e-4581-966a-e4580ac983e8","ios":"levelo://app?vid=1cf9c6ad-a18e-4581-966a-e4580ac983e8"},"vehicle_type_id":"4","last_reported":1727168964,"current_range_meters":36800,"station_id":"ce4bgjp2rcd13ifvqbh0","pricing_plan_id":"cebpf4jnsgd1na2vs0mg"},{"bike_id":"2949db4c-f00a-4d16-8682-8390a0fc974e","system_id":"levelo_inurba_marseille","lat":43.30563,"lon":5.36546,"is_reserved":false,"is_disabled":false,"rental_uris":{"android":"levelo://app?vid=2949db4c-f00a-4d16-8682-8390a0fc974e","ios":"levelo://app?vid=2949db4c-f00a-4d16-8682-8390a0fc974e"},"vehicle_type_id":"4","last_reported":1727168964,"current_range_meters":30800,"station_id":"ce4bgs12rcd13ifvqcag","pricing_plan_id":"cebpf4jnsgd1na2vs0mg"},{"bike_id":"25bd7405-be80-4a77-a761-8a1efed52652","system_id":"levelo_inurba_marseille","lat":43.29904,"lon":5.43669,"is_reserved":false,"is_disabled":false,"rental_uris":{"android":"levelo://app?vid=25bd7405-be80-4a77-a761-8a1efed52652","ios":"levelo://app?vid=25bd7405-be80-4a77-a761-8a1efed52652"},"vehicle_type_id":"4","last_reported":1727168964,"current_range_meters":6000,"station_id":"ce4bhpp2rcd13ifvqhfg","pricing_plan_id":"cebpf4jnsgd1na2vs0mg"},{"bike_id":"96086254-c636-4e5b-8975-25742631d3ee","system_id":"levelo_inurba_marseille","lat":43.23154,"lon":5.4371,"is_reserved":false,"is_disabled":false,"rental_uris":{"android":"levelo://app?vid=96086254-c636-4e5b-8975-25742631d3ee","ios":"levelo://app?vid=96086254-c636-4e5b-8975-25742631d3ee"},"vehicle_type_id":"4","last_reported":1727168964,"current_range_meters":18000,"station_id":"ce4bhmp2rcd13ifvqgog","pricing_plan_id":"cebpf4jnsgd1na2vs0mg"},{"bike_id":"23e670ee-166c-4a60-9e22-5e7c1c281979","system_id":"levelo_inurba_marseille","lat":43.30474,"lon":5.37902,"is_reserved":false,"is_disabled":false,"rental_uris":{"android":"levelo://app?vid=23e670ee-166c-4a60-9e22-5e7c1c281979","ios":"levelo://app?vid=23e670ee-166c-4a60-9e22-5e7c1c281979"},"vehicle_type_id":"4","last_reported":1727168964,"current_range_meters":10800,"station_id":"ce4bgup2rcd13ifvqcn0","pricing_plan_id":"cebpf4jnsgd1na2vs0mg"},{"bike_id":"afdc107b-0db2-4713-927e-a4b8b2e8cf04","system_id":"levelo_inurba_marseille","lat":43.29616,"lon":5.37723,"is_reserved":false,"is_disabled":false,"rental_uris":{"android":"levelo://app?vid=afdc107b-0db2-4713-927e-a4b8b2e8cf04","ios":"levelo://app?vid=afdc107b-0db2-4713-927e-a4b8b2e8cf04"},"vehicle_type_id":"4","last_reported":1727168964,"current_range_meters":16800,"station_id":"ce4bgi92rcd13ifvqb90","pricing_plan_id":"cebpf4jnsgd1na2vs0mg"},{"bike_id":"633f2106-a60c-40e6-8cfb-64f986a9b453","system_id":"levelo_inurba_marseille","lat":43.30905,"lon":5.36854,"is_reserved":false,"is_disabled":false,"rental_uris":{"android":"levelo://app?vid=633f2106-a60c-40e6-8cfb-64f986a9b453","ios":"levelo://app?vid=633f2106-a60c-40e6-8cfb-64f986a9b453"},"vehicle_type_id":"4","last_reported":1727168964,"current_range_meters":32400,"station_id":"ce4bgn92rcd13ifvqbvg","pricing_plan_id":"cebpf4jnsgd1na2vs0mg"},{"bike_id":"6c70bfc0-7dcf-4862-b6e9-628ce3ae38c4","system_id":"levelo_inurba_marseille","lat":43.30469,"lon":5.37909,"is_reserved":false,"is_disabled":false,"rental_uris":{"android":"levelo://app?vid=6c70bfc0-7dcf-4862-b6e9-628ce3ae38c4","ios":"levelo://app?vid=6c70bfc0-7dcf-4862-b6e9-628ce3ae38c4"},"vehicle_type_id":"4","last_reported":1727168964,"current_range_meters":31200,"station_id":"ce4bgup2rcd13ifvqcn0","pricing_plan_id":"cebpf4jnsgd1na2vs0mg"},{"bike_id":"3ebbc334-72f3-4c60-ba69-cbcb04d5cc62","system_id":"levelo_inurba_marseille","lat":43.30146,"lon":5.37421,"is_reserved":false,"is_disabled":false,"rental_uris":{"android":"levelo://app?vid=3ebbc334-72f3-4c60-ba69-cbcb04d5cc62","ios":"levelo://app?vid=3ebbc334-72f3-4c60-ba69-cbcb04d5cc62"},"vehicle_type_id":"4","last_reported":1727168964,"current_range_meters":24800,"station_id":"ce4bgs92rcd13ifvqcc0","pricing_plan_id":"cebpf4jnsgd1na2vs0mg"},{"bike_id":"a0853dfb-4882-4f23-941e-e30f4d930b80","system_id":"levelo_inurba_marseille","lat":43.25936,"lon":5.40913,"is_reserved":false,"is_disabled":false,"rental_uris":{"android":"levelo://app?vid=a0853dfb-4882-4f23-941e-e30f4d930b80","ios":"levelo://app?vid=a0853dfb-4882-4f23-941e-e30f4d930b80"},"vehicle_type_id":"4","last_reported":1727168964,"current_range_meters":16800,"station_id":"ce4bhm92rcd13ifvqglg","pricing_plan_id":"cebpf4jnsgd1na2vs0mg"},{"bike_id":"54415e01-fae4-450e-9ed3-58ca570c67a9","system_id":"levelo_inurba_marseille","lat":43.30479,"lon":5.37888,"is_reserved":false,"is_disabled":false,"rental_uris":{"android":"levelo://app?vid=54415e01-fae4-450e-9ed3-58ca570c67a9","ios":"levelo://app?vid=54415e01-fae4-450e-9ed3-58ca570c67a9"},"vehicle_type_id":"4","last_reported":1727168964,"current_range_meters":34000,"station_id":"ce4bgup2rcd13ifvqcn0","pricing_plan_id":"cebpf4jnsgd1na2vs0mg"},{"bike_id":"1da69dba-953c-4d21-af9a-699bd6b421bd","system_id":"levelo_inurba_marseille","lat":43.3135,"lon":5.36718,"is_reserved":false,"is_disabled":false,"rental_uris":{"android":"levelo://app?vid=1da69dba-953c-4d21-af9a-699bd6b421bd","ios":"levelo://app?vid=1da69dba-953c-4d21-af9a-699bd6b421bd"},"vehicle_type_id":"4","last_reported":1727168964,"current_range_meters":38000,"station_id":"ce4bgr92rcd13ifvqc6g","pricing_plan_id":"cebpf4jnsgd1na2vs0mg"},{"bike_id":"f5d95463-6c1b-40f4-8bc3-99197167d4ed","system_id":"levelo_inurba_marseille","lat":43.24176,"lon":5.39744,"is_reserved":false,"is_disabled":false,"rental_uris":{"android":"levelo://app?vid=f5d95463-6c1b-40f4-8bc3-99197167d4ed","ios":"levelo://app?vid=f5d95463-6c1b-40f4-8bc3-99197167d4ed"},"vehicle_type_id":"4","last_reported":1727168964,"current_range_meters":24800,"station_id":"ce4bhn12rcd13ifvqgpg","pricing_plan_id":"cebpf4jnsgd1na2vs0mg"},{"bike_id":"929a92e2-2c06-4bee-bf0d-0fb22e0837a1","system_id":"levelo_inurba_marseille","lat":43.273195,"lon":5.39079,"is_reserved":false,"is_disabled":false,"rental_uris":{"android":"levelo://app?vid=929a92e2-2c06-4bee-bf0d-0fb22e0837a1","ios":"levelo://app?vid=929a92e2-2c06-4bee-bf0d-0fb22e0837a1"},"vehicle_type_id":"4","last_reported":1727168964,"current_range_meters":26800,"station_id":"ce4bhgp2rcd13ifvqfe0","pricing_plan_id":"cebpf4jnsgd1na2vs0mg"},{"bike_id":"11792274-c4e1-4dcb-b2a1-424fa6a64f5a","system_id":"levelo_inurba_marseille","lat":43.25939,"lon":5.40907,"is_reserved":false,"is_disabled":false,"rental_uris":{"android":"levelo://app?vid=11792274-c4e1-4dcb-b2a1-424fa6a64f5a","ios":"levelo://app?vid=11792274-c4e1-4dcb-b2a1-424fa6a64f5a"},"vehicle_type_id":"4","last_reported":1727168964,"current_range_meters":16000,"station_id":"ce4bhm92rcd13ifvqglg","pricing_plan_id":"cebpf4jnsgd1na2vs0mg"},{"bike_id":"7f98372c-2068-4ec7-9feb-ca8dbe204d33","system_id":"levelo_inurba_marseille","lat":43.2799,"lon":5.40013,"is_reserved":false,"is_disabled":false,"rental_uris":{"android":"levelo://app?vid=7f98372c-2068-4ec7-9feb-ca8dbe204d33","ios":"levelo://app?vid=7f98372c-2068-4ec7-9feb-ca8dbe204d33"},"vehicle_type_id":"4","last_reported":1727168964,"current_range_meters":36800,"station_id":"ce4bho92rcd13ifvqh4g","pricing_plan_id":"cebpf4jnsgd1na2vs0mg"},{"bike_id":"18763c19-edf4-43f4-a09b-588756fbcdcb","system_id":"levelo_inurba_marseille","lat":43.30458,"lon":5.37902,"is_reserved":false,"is_disabled":false,"rental_uris":{"android":"levelo://app?vid=18763c19-edf4-43f4-a09b-588756fbcdcb","ios":"levelo://app?vid=18763c19-edf4-43f4-a09b-588756fbcdcb"},"vehicle_type_id":"4","last_reported":1727168964,"current_range_meters":30000,"station_id":"ce4bgup2rcd13ifvqcn0","pricing_plan_id":"cebpf4jnsgd1na2vs0mg"},{"bike_id":"a1ebdcf9-15bd-4a01-8f22-48e3cb939b3c","system_id":"levelo_inurba_marseille","lat":43.2866,"lon":5.36344,"is_reserved":false,"is_disabled":false,"rental_uris":{"android":"levelo://app?vid=a1ebdcf9-15bd-4a01-8f22-48e3cb939b3c","ios":"levelo://app?vid=a1ebdcf9-15bd-4a01-8f22-48e3cb939b3c"},"vehicle_type_id":"4","last_reported":1727168964,"current_range_meters":2800,"station_id":"ce4bhah2rcd13ifvqej0","pricing_plan_id":"cebpf4jnsgd1na2vs0mg"},{"bike_id":"01328d1a-46e2-4abc-b12b-32bf41357606","system_id":"levelo_inurba_marseille","lat":43.305447,"lon":5.367089,"is_reserved":false,"is_disabled":false,"rental_uris":{"android":"levelo://app?vid=01328d1a-46e2-4abc-b12b-32bf41357606","ios":"levelo://app?vid=01328d1a-46e2-4abc-b12b-32bf41357606"},"vehicle_type_id":"4","last_reported":1727168964,"current_range_meters":28000,"station_id":"ce4bgrp2rcd13ifvqc9g","pricing_plan_id":"cebpf4jnsgd1na2vs0mg"},{"bike_id":"ba97226a-4347-4279-9512-947498cdd6bc","system_id":"levelo_inurba_marseille","lat":43.24806,"lon":5.37457,"is_reserved":false,"is_disabled":false,"rental_uris":{"android":"levelo://app?vid=ba97226a-4347-4279-9512-947498cdd6bc","ios":"levelo://app?vid=ba97226a-4347-4279-9512-947498cdd6bc"},"vehicle_type_id":"4","last_reported":1727168964,"current_range_meters":27200,"station_id":"ce4bhgh2rcd13ifvqfb0","pricing_plan_id":"cebpf4jnsgd1na2vs0mg"},{"bike_id":"495c8f04-baa0-4d04-b6e9-fa5581cfae30","system_id":"levelo_inurba_marseille","lat":43.30155,"lon":5.38083,"is_reserved":false,"is_disabled":false,"rental_uris":{"android":"levelo://app?vid=495c8f04-baa0-4d04-b6e9-fa5581cfae30","ios":"levelo://app?vid=495c8f04-baa0-4d04-b6e9-fa5581cfae30"},"vehicle_type_id":"4","last_reported":1727168964,"current_range_meters":38800,"station_id":"ce4bgjp2rcd13ifvqbh0","pricing_plan_id":"cebpf4jnsgd1na2vs0mg"},{"bike_id":"37aa31e2-23a7-4d4d-aa1e-19037c5f0a74","system_id":"levelo_inurba_marseille","lat":43.28153,"lon":5.4265,"is_reserved":false,"is_disabled":false,"rental_uris":{"android":"levelo://app?vid=37aa31e2-23a7-4d4d-aa1e-19037c5f0a74","ios":"levelo://app?vid=37aa31e2-23a7-4d4d-aa1e-19037c5f0a74"},"vehicle_type_id":"4","last_reported":1727168964,"current_range_meters":38800,"station_id":"ce4bhnh2rcd13ifvqgug","pricing_plan_id":"cebpf4jnsgd1na2vs0mg"},{"bike_id":"84f0e2bf-ec77-43e1-ac6e-d2df4cdab65b","system_id":"levelo_inurba_marseille","lat":43.26681,"lon":5.38271,"is_reserved":false,"is_disabled":false,"rental_uris":{"android":"levelo://app?vid=84f0e2bf-ec77-43e1-ac6e-d2df4cdab65b","ios":"levelo://app?vid=84f0e2bf-ec77-43e1-ac6e-d2df4cdab65b"},"vehicle_type_id":"4","last_reported":1727168964,"current_range_meters":28400,"station_id":"ce4bhg92rcd13ifvqf90","pricing_plan_id":"cebpf4jnsgd1na2vs0mg"},{"bike_id":"f1956775-09fc-4f0f-8980-4d38962baf8e","system_id":"levelo_inurba_marseille","lat":43.29539,"lon":5.37503,"is_reserved":false,"is_disabled":false,"rental_uris":{"android":"levelo://app?vid=f1956775-09fc-4f0f-8980-4d38962baf8e","ios":"levelo://app?vid=f1956775-09fc-4f0f-8980-4d38962baf8e"},"vehicle_type_id":"4","last_reported":1727168964,"current_range_meters":35200,"station_id":"ce4bgkp2rcd13ifvqbmg","pricing_plan_id":"cebpf4jnsgd1na2vs0mg"},{"bike_id":"12c200ed-d35a-43ce-8d6e-751cae72363b","system_id":"levelo_inurba_marseille","lat":43.325411,"lon":5.414409,"is_reserved":false,"is_disabled":false,"rental_uris":{"android":"levelo://app?vid=12c200ed-d35a-43ce-8d6e-751cae72363b","ios":"levelo://app?vid=12c200ed-d35a-43ce-8d6e-751cae72363b"},"vehicle_type_id":"4","last_reported":1727168964,"current_range_meters":19200,"station_id":"ce4bhq12rcd13ifvqhhg","pricing_plan_id":"cebpf4jnsgd1na2vs0mg"},{"bike_id":"ebb7c5ad-05b9-41f0-aaae-a6f130ec014e","system_id":"levelo_inurba_marseille","lat":43.27495,"lon":5.4245,"is_reserved":false,"is_disabled":false,"rental_uris":{"android":"levelo://app?vid=ebb7c5ad-05b9-41f0-aaae-a6f130ec014e","ios":"levelo://app?vid=ebb7c5ad-05b9-41f0-aaae-a6f130ec014e"},"vehicle_type_id":"4","last_reported":1727168964,"current_range_meters":28800,"station_id":"ce4bhn92rcd13ifvqgrg","pricing_plan_id":"cebpf4jnsgd1na2vs0mg"},{"bike_id":"e9ecddf9-5c7c-4b1d-b61b-e6f2cb758e87","system_id":"levelo_inurba_marseille","lat":43.24083,"lon":5.37749,"is_reserved":false,"is_disabled":false,"rental_uris":{"android":"levelo://app?vid=e9ecddf9-5c7c-4b1d-b61b-e6f2cb758e87","ios":"levelo://app?vid=e9ecddf9-5c7c-4b1d-b61b-e6f2cb758e87"},"vehicle_type_id":"4","last_reported":1727168964,"current_range_meters":30000,"station_id":"ce4bhnp2rcd13ifvqgvg","pricing_plan_id":"cebpf4jnsgd1na2vs0mg"},{"bike_id":"17fc004c-d719-463f-a207-34c05472e531","system_id":"levelo_inurba_marseille","lat":43.27206,"lon":5.39192,"is_reserved":false,"is_disabled":false,"rental_uris":{"android":"levelo://app?vid=17fc004c-d719-463f-a207-34c05472e531","ios":"levelo://app?vid=17fc004c-d719-463f-a207-34c05472e531"},"vehicle_type_id":"4","last_reported":1727168964,"current_range_meters":3200,"station_id":"ce4bhhp2rcd13ifvqfm0","pricing_plan_id":"cebpf4jnsgd1na2vs0mg"},{"bike_id":"664c1492-4c06-4350-b400-91571a357f51","system_id":"levelo_inurba_marseille","lat":43.29839,"lon":5.36261,"is_reserved":false,"is_disabled":false,"rental_uris":{"android":"levelo://app?vid=664c1492-4c06-4350-b400-91571a357f51","ios":"levelo://app?vid=664c1492-4c06-4350-b400-91571a357f51"},"vehicle_type_id":"4","last_reported":1727168964,"current_range_meters":38400,"station_id":"ce4bgpp2rcd13ifvqc3g","pricing_plan_id":"cebpf4jnsgd1na2vs0mg"},{"bike_id":"2bf8e532-bd7d-4d47-b211-a8ddb3761dcc","system_id":"levelo_inurba_marseille","lat":43.32536,"lon":5.41437,"is_reserved":false,"is_disabled":false,"rental_uris":{"android":"levelo://app?vid=2bf8e532-bd7d-4d47-b211-a8ddb3761dcc","ios":"levelo://app?vid=2bf8e532-bd7d-4d47-b211-a8ddb3761dcc"},"vehicle_type_id":"4","last_reported":1727168964,"current_range_meters":26000,"station_id":"ce4bhq12rcd13ifvqhhg","pricing_plan_id":"cebpf4jnsgd1na2vs0mg"},{"bike_id":"7188cc5d-7fd6-4e78-8d4e-521d4d1d865a","system_id":"levelo_inurba_marseille","lat":43.30328,"lon":5.36899,"is_reserved":false,"is_disabled":false,"rental_uris":{"android":"levelo://app?vid=7188cc5d-7fd6-4e78-8d4e-521d4d1d865a","ios":"levelo://app?vid=7188cc5d-7fd6-4e78-8d4e-521d4d1d865a"},"vehicle_type_id":"4","last_reported":1727168964,"current_range_meters":38400,"station_id":"ce4bgqh2rcd13ifvqc5g","pricing_plan_id":"cebpf4jnsgd1na2vs0mg"},{"bike_id":"7fd0dda8-1cda-49fe-8f22-143af3ca4b76","system_id":"levelo_inurba_marseille","lat":43.27492,"lon":5.42456,"is_reserved":false,"is_disabled":false,"rental_uris":{"android":"levelo://app?vid=7fd0dda8-1cda-49fe-8f22-143af3ca4b76","ios":"levelo://app?vid=7fd0dda8-1cda-49fe-8f22-143af3ca4b76"},"vehicle_type_id":"4","last_reported":1727168964,"current_range_meters":25200,"station_id":"ce4bhn92rcd13ifvqgrg","pricing_plan_id":"cebpf4jnsgd1na2vs0mg"},{"bike_id":"445ab112-1d78-470c-83c0-bb9f52ccf0ad","system_id":"levelo_inurba_marseille","lat":43.24073,"lon":5.37764,"is_reserved":false,"is_disabled":false,"rental_uris":{"android":"levelo://app?vid=445ab112-1d78-470c-83c0-bb9f52ccf0ad","ios":"levelo://app?vid=445ab112-1d78-470c-83c0-bb9f52ccf0ad"},"vehicle_type_id":"4","last_reported":1727168964,"current_range_meters":4000,"station_id":"ce4bhnp2rcd13ifvqgvg","pricing_plan_id":"cebpf4jnsgd1na2vs0mg"},{"bike_id":"b3d0d2bc-1bb7-48d0-99e1-5eb8c65fa48f","system_id":"levelo_inurba_marseille","lat":43.28726,"lon":5.36076,"is_reserved":false,"is_disabled":false,"rental_uris":{"android":"levelo://app?vid=b3d0d2bc-1bb7-48d0-99e1-5eb8c65fa48f","ios":"levelo://app?vid=b3d0d2bc-1bb7-48d0-99e1-5eb8c65fa48f"},"vehicle_type_id":"4","last_reported":1727168964,"current_range_meters":24800,"station_id":"cki0cbj6b192h4jlfktg","pricing_plan_id":"cebpf4jnsgd1na2vs0mg"},{"bike_id":"215aa121-54a7-4a19-a1be-428183585b05","system_id":"levelo_inurba_marseille","lat":43.27993,"lon":5.41663,"is_reserved":false,"is_disabled":false,"rental_uris":{"android":"levelo://app?vid=215aa121-54a7-4a19-a1be-428183585b05","ios":"levelo://app?vid=215aa121-54a7-4a19-a1be-428183585b05"},"vehicle_type_id":"4","last_reported":1727168964,"current_range_meters":26800,"station_id":"ce4bho12rcd13ifvqh1g","pricing_plan_id":"cebpf4jnsgd1na2vs0mg"},{"bike_id":"845cab90-09e5-4c7d-9c58-6a45fab9630f","system_id":"levelo_inurba_marseille","lat":43.29557,"lon":5.42283,"is_reserved":false,"is_disabled":false,"rental_uris":{"android":"levelo://app?vid=845cab90-09e5-4c7d-9c58-6a45fab9630f","ios":"levelo://app?vid=845cab90-09e5-4c7d-9c58-6a45fab9630f"},"vehicle_type_id":"4","last_reported":1727168964,"current_range_meters":24000,"station_id":"ce4bhph2rcd13ifvqhdg","pricing_plan_id":"cebpf4jnsgd1na2vs0mg"},{"bike_id":"34f1443c-42b3-4d10-90dd-d9bd602f9b7c","system_id":"levelo_inurba_marseille","lat":43.27678,"lon":5.38873,"is_reserved":false,"is_disabled":false,"rental_uris":{"android":"levelo://app?vid=34f1443c-42b3-4d10-90dd-d9bd602f9b7c","ios":"levelo://app?vid=34f1443c-42b3-4d10-90dd-d9bd602f9b7c"},"vehicle_type_id":"4","last_reported":1727168964,"current_range_meters":29600,"station_id":"ce4bhi12rcd13ifvqfo0","pricing_plan_id":"cebpf4jnsgd1na2vs0mg"},{"bike_id":"aba66e9c-0967-4175-a8e1-2d17c031de2d","system_id":"levelo_inurba_marseille","lat":43.27494,"lon":5.42457,"is_reserved":false,"is_disabled":false,"rental_uris":{"android":"levelo://app?vid=aba66e9c-0967-4175-a8e1-2d17c031de2d","ios":"levelo://app?vid=aba66e9c-0967-4175-a8e1-2d17c031de2d"},"vehicle_type_id":"4","last_reported":1727168964,"current_range_meters":30000,"station_id":"ce4bhn92rcd13ifvqgrg","pricing_plan_id":"cebpf4jnsgd1na2vs0mg"},{"bike_id":"7a907bd8-a31c-44f5-ae26-4d359cad6743","system_id":"levelo_inurba_marseille","lat":43.23061,"lon":5.35489,"is_reserved":false,"is_disabled":false,"rental_uris":{"android":"levelo://app?vid=7a907bd8-a31c-44f5-ae26-4d359cad6743","ios":"levelo://app?vid=7a907bd8-a31c-44f5-ae26-4d359cad6743"},"vehicle_type_id":"4","last_reported":1727168964,"current_range_meters":9200,"station_id":"cpo3342slgdg3j2ifvpg","pricing_plan_id":"cebpf4jnsgd1na2vs0mg"},{"bike_id":"dfad1a85-65f2-4785-8c03-033d2d1b91ec","system_id":"levelo_inurba_marseille","lat":43.24076,"lon":5.37751,"is_reserved":false,"is_disabled":false,"rental_uris":{"android":"levelo://app?vid=dfad1a85-65f2-4785-8c03-033d2d1b91ec","ios":"levelo://app?vid=dfad1a85-65f2-4785-8c03-033d2d1b91ec"},"vehicle_type_id":"4","last_reported":1727168964,"current_range_meters":7200,"station_id":"ce4bhnp2rcd13ifvqgvg","pricing_plan_id":"cebpf4jnsgd1na2vs0mg"},{"bike_id":"629d79b3-a190-4325-947b-810e3c3ab6b7","system_id":"levelo_inurba_marseille","lat":43.33611,"lon":5.4103,"is_reserved":false,"is_disabled":false,"rental_uris":{"android":"levelo://app?vid=629d79b3-a190-4325-947b-810e3c3ab6b7","ios":"levelo://app?vid=629d79b3-a190-4325-947b-810e3c3ab6b7"},"vehicle_type_id":"4","last_reported":1727168964,"current_range_meters":39200,"station_id":"ce4bhqh2rcd13ifvqhmg","pricing_plan_id":"cebpf4jnsgd1na2vs0mg"},{"bike_id":"2b7db324-20fb-4bb4-ad57-e632fa7d71b1","system_id":"levelo_inurba_marseille","lat":43.29196,"lon":5.35791,"is_reserved":false,"is_disabled":false,"rental_uris":{"android":"levelo://app?vid=2b7db324-20fb-4bb4-ad57-e632fa7d71b1","ios":"levelo://app?vid=2b7db324-20fb-4bb4-ad57-e632fa7d71b1"},"vehicle_type_id":"4","last_reported":1727168964,"current_range_meters":24800,"station_id":"ce4bhb12rcd13ifvqel0","pricing_plan_id":"cebpf4jnsgd1na2vs0mg"},{"bike_id":"2314f52e-05eb-44e0-bc1e-d24e62a78304","system_id":"levelo_inurba_marseille","lat":43.29013,"lon":5.35619,"is_reserved":false,"is_disabled":false,"rental_uris":{"android":"levelo://app?vid=2314f52e-05eb-44e0-bc1e-d24e62a78304","ios":"levelo://app?vid=2314f52e-05eb-44e0-bc1e-d24e62a78304"},"vehicle_type_id":"4","last_reported":1727168964,"current_range_meters":20400,"station_id":"ce4bhb92rcd13ifvqen0","pricing_plan_id":"cebpf4jnsgd1na2vs0mg"},{"bike_id":"83bc0566-453a-4515-a85c-87740a2c4c4d","system_id":"levelo_inurba_marseille","lat":43.30187,"lon":5.36619,"is_reserved":false,"is_disabled":false,"rental_uris":{"android":"levelo://app?vid=83bc0566-453a-4515-a85c-87740a2c4c4d","ios":"levelo://app?vid=83bc0566-453a-4515-a85c-87740a2c4c4d"},"vehicle_type_id":"4","last_reported":1727168964,"current_range_meters":13600,"station_id":"ce4bgrh2rcd13ifvqc8g","pricing_plan_id":"cebpf4jnsgd1na2vs0mg"},{"bike_id":"ee8d00e1-e139-4433-9d15-cf6c0efd7d69","system_id":"levelo_inurba_marseille","lat":43.31358,"lon":5.36705,"is_reserved":false,"is_disabled":false,"rental_uris":{"android":"levelo://app?vid=ee8d00e1-e139-4433-9d15-cf6c0efd7d69","ios":"levelo://app?vid=ee8d00e1-e139-4433-9d15-cf6c0efd7d69"},"vehicle_type_id":"4","last_reported":1727168964,"current_range_meters":34800,"station_id":"ce4bgr92rcd13ifvqc6g","pricing_plan_id":"cebpf4jnsgd1na2vs0mg"},{"bike_id":"7c7c6e99-9bf7-44fb-8f81-0b936f3c0223","system_id":"levelo_inurba_marseille","lat":43.33604,"lon":5.41029,"is_reserved":false,"is_disabled":false,"rental_uris":{"android":"levelo://app?vid=7c7c6e99-9bf7-44fb-8f81-0b936f3c0223","ios":"levelo://app?vid=7c7c6e99-9bf7-44fb-8f81-0b936f3c0223"},"vehicle_type_id":"4","last_reported":1727168964,"current_range_meters":24800,"station_id":"ce4bhqh2rcd13ifvqhmg","pricing_plan_id":"cebpf4jnsgd1na2vs0mg"},{"bike_id":"f803a271-824d-45e7-9066-e11e22aff573","system_id":"levelo_inurba_marseille","lat":43.3253,"lon":5.4145,"is_reserved":false,"is_disabled":false,"rental_uris":{"android":"levelo://app?vid=f803a271-824d-45e7-9066-e11e22aff573","ios":"levelo://app?vid=f803a271-824d-45e7-9066-e11e22aff573"},"vehicle_type_id":"4","last_reported":1727168964,"current_range_meters":35200,"station_id":"ce4bhq12rcd13ifvqhhg","pricing_plan_id":"cebpf4jnsgd1na2vs0mg"},{"bike_id":"479cedb4-7111-4695-96f6-fad4b3b13674","system_id":"levelo_inurba_marseille","lat":43.26947,"lon":5.38642,"is_reserved":false,"is_disabled":false,"rental_uris":{"android":"levelo://app?vid=479cedb4-7111-4695-96f6-fad4b3b13674","ios":"levelo://app?vid=479cedb4-7111-4695-96f6-fad4b3b13674"},"vehicle_type_id":"4","last_reported":1727168964,"current_range_meters":37600,"station_id":"ce4bhh92rcd13ifvqfh0","pricing_plan_id":"cebpf4jnsgd1na2vs0mg"},{"bike_id":"a70b7b26-e90f-484e-be42-ebb09ed1769a","system_id":"levelo_inurba_marseille","lat":43.30476,"lon":5.379011,"is_reserved":false,"is_disabled":false,"rental_uris":{"android":"levelo://app?vid=a70b7b26-e90f-484e-be42-ebb09ed1769a","ios":"levelo://app?vid=a70b7b26-e90f-484e-be42-ebb09ed1769a"},"vehicle_type_id":"4","last_reported":1727168964,"current_range_meters":38800,"station_id":"ce4bgup2rcd13ifvqcn0","pricing_plan_id":"cebpf4jnsgd1na2vs0mg"},{"bike_id":"8b3ee265-2b1b-4607-ba76-ee1613478d3b","system_id":"levelo_inurba_marseille","lat":43.26058,"lon":5.39399,"is_reserved":false,"is_disabled":false,"rental_uris":{"android":"levelo://app?vid=8b3ee265-2b1b-4607-ba76-ee1613478d3b","ios":"levelo://app?vid=8b3ee265-2b1b-4607-ba76-ee1613478d3b"},"vehicle_type_id":"4","last_reported":1727168964,"current_range_meters":28000,"station_id":"ce4bhh92rcd13ifvqfj0","pricing_plan_id":"cebpf4jnsgd1na2vs0mg"},{"bike_id":"9f92bf8f-7756-4ffd-ac07-bf9236417f30","system_id":"levelo_inurba_marseille","lat":43.30913,"lon":5.36861,"is_reserved":false,"is_disabled":false,"rental_uris":{"android":"levelo://app?vid=9f92bf8f-7756-4ffd-ac07-bf9236417f30","ios":"levelo://app?vid=9f92bf8f-7756-4ffd-ac07-bf9236417f30"},"vehicle_type_id":"4","last_reported":1727168964,"current_range_meters":38800,"station_id":"ce4bgn92rcd13ifvqbvg","pricing_plan_id":"cebpf4jnsgd1na2vs0mg"},{"bike_id":"fcf56a0f-a238-42a5-a294-36e6ef0a84ce","system_id":"levelo_inurba_marseille","lat":43.2904,"lon":5.3756,"is_reserved":false,"is_disabled":false,"rental_uris":{"android":"levelo://app?vid=fcf56a0f-a238-42a5-a294-36e6ef0a84ce","ios":"levelo://app?vid=fcf56a0f-a238-42a5-a294-36e6ef0a84ce"},"vehicle_type_id":"4","last_reported":1727168964,"current_range_meters":29600,"station_id":"ce4bh692rcd13ifvqe90","pricing_plan_id":"cebpf4jnsgd1na2vs0mg"},{"bike_id":"ebec7cd5-5fed-46ce-abdb-3cd659f607ac","system_id":"levelo_inurba_marseille","lat":43.2955,"lon":5.42283,"is_reserved":false,"is_disabled":false,"rental_uris":{"android":"levelo://app?vid=ebec7cd5-5fed-46ce-abdb-3cd659f607ac","ios":"levelo://app?vid=ebec7cd5-5fed-46ce-abdb-3cd659f607ac"},"vehicle_type_id":"4","last_reported":1727168964,"current_range_meters":38400,"station_id":"ce4bhph2rcd13ifvqhdg","pricing_plan_id":"cebpf4jnsgd1na2vs0mg"},{"bike_id":"b5af9471-c330-47bc-a947-31ad5f428844","system_id":"levelo_inurba_marseille","lat":43.24169,"lon":5.36397,"is_reserved":false,"is_disabled":false,"rental_uris":{"android":"levelo://app?vid=b5af9471-c330-47bc-a947-31ad5f428844","ios":"levelo://app?vid=b5af9471-c330-47bc-a947-31ad5f428844"},"vehicle_type_id":"4","last_reported":1727168964,"current_range_meters":30400,"station_id":"cpo36qri1sfpv3e86is0","pricing_plan_id":"cebpf4jnsgd1na2vs0mg"},{"bike_id":"6305d0e4-bcec-4fe2-8641-56af4845ff40","system_id":"levelo_inurba_marseille","lat":43.30549,"lon":5.3671,"is_reserved":false,"is_disabled":false,"rental_uris":{"android":"levelo://app?vid=6305d0e4-bcec-4fe2-8641-56af4845ff40","ios":"levelo://app?vid=6305d0e4-bcec-4fe2-8641-56af4845ff40"},"vehicle_type_id":"4","last_reported":1727168964,"current_range_meters":38800,"station_id":"ce4bgrp2rcd13ifvqc9g","pricing_plan_id":"cebpf4jnsgd1na2vs0mg"},{"bike_id":"34bc586d-9136-40e1-b2ca-cb9b1b720a73","system_id":"levelo_inurba_marseille","lat":43.31345,"lon":5.36725,"is_reserved":false,"is_disabled":false,"rental_uris":{"android":"levelo://app?vid=34bc586d-9136-40e1-b2ca-cb9b1b720a73","ios":"levelo://app?vid=34bc586d-9136-40e1-b2ca-cb9b1b720a73"},"vehicle_type_id":"4","last_reported":1727168964,"current_range_meters":32400,"station_id":"ce4bgr92rcd13ifvqc6g","pricing_plan_id":"cebpf4jnsgd1na2vs0mg"},{"bike_id":"6d6065cc-15d1-48a2-aa33-8bac2101b02a","system_id":"levelo_inurba_marseille","lat":43.22928,"lon":5.35377,"is_reserved":false,"is_disabled":false,"rental_uris":{"android":"levelo://app?vid=6d6065cc-15d1-48a2-aa33-8bac2101b02a","ios":"levelo://app?vid=6d6065cc-15d1-48a2-aa33-8bac2101b02a"},"vehicle_type_id":"4","last_reported":1727168964,"current_range_meters":27600,"station_id":"cpo3532slgdg3j2ikp40","pricing_plan_id":"cebpf4jnsgd1na2vs0mg"},{"bike_id":"09db2183-b1d3-473b-aba6-b7133ce3cf60","system_id":"levelo_inurba_marseille","lat":43.30313,"lon":5.36888,"is_reserved":false,"is_disabled":false,"rental_uris":{"android":"levelo://app?vid=09db2183-b1d3-473b-aba6-b7133ce3cf60","ios":"levelo://app?vid=09db2183-b1d3-473b-aba6-b7133ce3cf60"},"vehicle_type_id":"4","last_reported":1727168964,"current_range_meters":34000,"station_id":"ce4bgqh2rcd13ifvqc5g","pricing_plan_id":"cebpf4jnsgd1na2vs0mg"},{"bike_id":"df5b38d2-64cb-4df0-856f-ea9bd22c082c","system_id":"levelo_inurba_marseille","lat":43.23191,"lon":5.35552,"is_reserved":false,"is_disabled":false,"rental_uris":{"android":"levelo://app?vid=df5b38d2-64cb-4df0-856f-ea9bd22c082c","ios":"levelo://app?vid=df5b38d2-64cb-4df0-856f-ea9bd22c082c"},"vehicle_type_id":"4","last_reported":1727168964,"current_range_meters":12800,"station_id":"ce4bhu92rcd13ifvqi70","pricing_plan_id":"cebpf4jnsgd1na2vs0mg"},{"bike_id":"70119b44-b26d-4368-a2f3-1d37bf2e4779","system_id":"levelo_inurba_marseille","lat":43.3253,"lon":5.41445,"is_reserved":false,"is_disabled":false,"rental_uris":{"android":"levelo://app?vid=70119b44-b26d-4368-a2f3-1d37bf2e4779","ios":"levelo://app?vid=70119b44-b26d-4368-a2f3-1d37bf2e4779"},"vehicle_type_id":"4","last_reported":1727168964,"current_range_meters":32000,"station_id":"ce4bhq12rcd13ifvqhhg","pricing_plan_id":"cebpf4jnsgd1na2vs0mg"},{"bike_id":"bbc82b62-0f7f-40fd-a1a8-f4995cff4541","system_id":"levelo_inurba_marseille","lat":43.31722,"lon":5.4371,"is_reserved":false,"is_disabled":false,"rental_uris":{"android":"levelo://app?vid=bbc82b62-0f7f-40fd-a1a8-f4995cff4541","ios":"levelo://app?vid=bbc82b62-0f7f-40fd-a1a8-f4995cff4541"},"vehicle_type_id":"4","last_reported":1727168964,"current_range_meters":9600,"station_id":"ce4bhp92rcd13ifvqhcg","pricing_plan_id":"cebpf4jnsgd1na2vs0mg"},{"bike_id":"78142927-babe-413e-afa4-d9dfdfe7b7b0","system_id":"levelo_inurba_marseille","lat":43.27493,"lon":5.42456,"is_reserved":false,"is_disabled":false,"rental_uris":{"android":"levelo://app?vid=78142927-babe-413e-afa4-d9dfdfe7b7b0","ios":"levelo://app?vid=78142927-babe-413e-afa4-d9dfdfe7b7b0"},"vehicle_type_id":"4","last_reported":1727168964,"current_range_meters":12800,"station_id":"ce4bhn92rcd13ifvqgrg","pricing_plan_id":"cebpf4jnsgd1na2vs0mg"},{"bike_id":"527688a1-7e84-40ab-adc4-f149209d2753","system_id":"levelo_inurba_marseille","lat":43.25819,"lon":5.3944,"is_reserved":false,"is_disabled":false,"rental_uris":{"android":"levelo://app?vid=527688a1-7e84-40ab-adc4-f149209d2753","ios":"levelo://app?vid=527688a1-7e84-40ab-adc4-f149209d2753"},"vehicle_type_id":"4","last_reported":1727168964,"current_range_meters":12400,"station_id":"ce4bhip2rcd13ifvqft0","pricing_plan_id":"cebpf4jnsgd1na2vs0mg"},{"bike_id":"17b1cd1a-7803-4ca9-91f3-73c4fa44f09e","system_id":"levelo_inurba_marseille","lat":43.29556,"lon":5.42287,"is_reserved":false,"is_disabled":false,"rental_uris":{"android":"levelo://app?vid=17b1cd1a-7803-4ca9-91f3-73c4fa44f09e","ios":"levelo://app?vid=17b1cd1a-7803-4ca9-91f3-73c4fa44f09e"},"vehicle_type_id":"4","last_reported":1727168964,"current_range_meters":9200,"station_id":"ce4bhph2rcd13ifvqhdg","pricing_plan_id":"cebpf4jnsgd1na2vs0mg"},{"bike_id":"e6da2803-6430-4972-8379-6de7a432dfb0","system_id":"levelo_inurba_marseille","lat":43.24075,"lon":5.37761,"is_reserved":false,"is_disabled":false,"rental_uris":{"android":"levelo://app?vid=e6da2803-6430-4972-8379-6de7a432dfb0","ios":"levelo://app?vid=e6da2803-6430-4972-8379-6de7a432dfb0"},"vehicle_type_id":"4","last_reported":1727168964,"current_range_meters":11200,"station_id":"ce4bhnp2rcd13ifvqgvg","pricing_plan_id":"cebpf4jnsgd1na2vs0mg"},{"bike_id":"e2f8ae08-b2f7-4285-9a70-454a277cc3e5","system_id":"levelo_inurba_marseille","lat":43.30557,"lon":5.36546,"is_reserved":false,"is_disabled":false,"rental_uris":{"android":"levelo://app?vid=e2f8ae08-b2f7-4285-9a70-454a277cc3e5","ios":"levelo://app?vid=e2f8ae08-b2f7-4285-9a70-454a277cc3e5"},"vehicle_type_id":"4","last_reported":1727168964,"current_range_meters":38800,"station_id":"ce4bgs12rcd13ifvqcag","pricing_plan_id":"cebpf4jnsgd1na2vs0mg"},{"bike_id":"1d6eac1b-39c8-4d1a-a442-e972c007bc3b","system_id":"levelo_inurba_marseille","lat":43.30911,"lon":5.36854,"is_reserved":false,"is_disabled":false,"rental_uris":{"android":"levelo://app?vid=1d6eac1b-39c8-4d1a-a442-e972c007bc3b","ios":"levelo://app?vid=1d6eac1b-39c8-4d1a-a442-e972c007bc3b"},"vehicle_type_id":"4","last_reported":1727168964,"current_range_meters":35600,"station_id":"ce4bgn92rcd13ifvqbvg","pricing_plan_id":"cebpf4jnsgd1na2vs0mg"},{"bike_id":"da90f922-8def-4049-9a08-7c8629c4447c","system_id":"levelo_inurba_marseille","lat":43.30479,"lon":5.379,"is_reserved":false,"is_disabled":false,"rental_uris":{"android":"levelo://app?vid=da90f922-8def-4049-9a08-7c8629c4447c","ios":"levelo://app?vid=da90f922-8def-4049-9a08-7c8629c4447c"},"vehicle_type_id":"4","last_reported":1727168964,"current_range_meters":30800,"station_id":"ce4bgup2rcd13ifvqcn0","pricing_plan_id":"cebpf4jnsgd1na2vs0mg"},{"bike_id":"16ff342a-c034-43e0-b79a-2ce4206071de","system_id":"levelo_inurba_marseille","lat":43.29006,"lon":5.35619,"is_reserved":false,"is_disabled":false,"rental_uris":{"android":"levelo://app?vid=16ff342a-c034-43e0-b79a-2ce4206071de","ios":"levelo://app?vid=16ff342a-c034-43e0-b79a-2ce4206071de"},"vehicle_type_id":"4","last_reported":1727168964,"current_range_meters":38400,"station_id":"ce4bhb92rcd13ifvqen0","pricing_plan_id":"cebpf4jnsgd1na2vs0mg"},{"bike_id":"6e68e2ff-c4f4-4350-826e-15821e323d4e","system_id":"levelo_inurba_marseille","lat":43.29516,"lon":5.39401,"is_reserved":false,"is_disabled":false,"rental_uris":{"android":"levelo://app?vid=6e68e2ff-c4f4-4350-826e-15821e323d4e","ios":"levelo://app?vid=6e68e2ff-c4f4-4350-826e-15821e323d4e"},"vehicle_type_id":"4","last_reported":1727168964,"current_range_meters":24400,"station_id":"ce4bh292rcd13ifvqdf0","pricing_plan_id":"cebpf4jnsgd1na2vs0mg"},{"bike_id":"b6eee498-fb15-4e3b-9eef-2538446e40a3","system_id":"levelo_inurba_marseille","lat":43.30553,"lon":5.36712,"is_reserved":false,"is_disabled":false,"rental_uris":{"android":"levelo://app?vid=b6eee498-fb15-4e3b-9eef-2538446e40a3","ios":"levelo://app?vid=b6eee498-fb15-4e3b-9eef-2538446e40a3"},"vehicle_type_id":"4","last_reported":1727168964,"current_range_meters":21600,"station_id":"ce4bgrp2rcd13ifvqc9g","pricing_plan_id":"cebpf4jnsgd1na2vs0mg"},{"bike_id":"1e87ddc1-9a31-4166-8e8e-aaed60939391","system_id":"levelo_inurba_marseille","lat":43.25939,"lon":5.40905,"is_reserved":false,"is_disabled":false,"rental_uris":{"android":"levelo://app?vid=1e87ddc1-9a31-4166-8e8e-aaed60939391","ios":"levelo://app?vid=1e87ddc1-9a31-4166-8e8e-aaed60939391"},"vehicle_type_id":"4","last_reported":1727168964,"current_range_meters":24400,"station_id":"ce4bhm92rcd13ifvqglg","pricing_plan_id":"cebpf4jnsgd1na2vs0mg"},{"bike_id":"dfff631e-ab7c-48ad-bde2-b2e42266e7d6","system_id":"levelo_inurba_marseille","lat":43.24081,"lon":5.37752,"is_reserved":false,"is_disabled":false,"rental_uris":{"android":"levelo://app?vid=dfff631e-ab7c-48ad-bde2-b2e42266e7d6","ios":"levelo://app?vid=dfff631e-ab7c-48ad-bde2-b2e42266e7d6"},"vehicle_type_id":"4","last_reported":1727168964,"current_range_meters":2800,"station_id":"ce4bhnp2rcd13ifvqgvg","pricing_plan_id":"cebpf4jnsgd1na2vs0mg"},{"bike_id":"ca061407-f6cc-48f8-8b57-a3a80cb7d17a","system_id":"levelo_inurba_marseille","lat":43.295536,"lon":5.422917,"is_reserved":false,"is_disabled":false,"rental_uris":{"android":"levelo://app?vid=ca061407-f6cc-48f8-8b57-a3a80cb7d17a","ios":"levelo://app?vid=ca061407-f6cc-48f8-8b57-a3a80cb7d17a"},"vehicle_type_id":"4","last_reported":1727168964,"current_range_meters":32000,"station_id":"ce4bhph2rcd13ifvqheg","pricing_plan_id":"cebpf4jnsgd1na2vs0mg"},{"bike_id":"f5b1128c-7029-4130-89ca-a009ee88473a","system_id":"levelo_inurba_marseille","lat":43.24672,"lon":5.3816,"is_reserved":false,"is_disabled":false,"rental_uris":{"android":"levelo://app?vid=f5b1128c-7029-4130-89ca-a009ee88473a","ios":"levelo://app?vid=f5b1128c-7029-4130-89ca-a009ee88473a"},"vehicle_type_id":"4","last_reported":1727168964,"current_range_meters":9200,"station_id":"ce4bhih2rcd13ifvqfr0","pricing_plan_id":"cebpf4jnsgd1na2vs0mg"},{"bike_id":"74371e4c-2218-4397-9345-b9f878db7dd5","system_id":"levelo_inurba_marseille","lat":43.337444,"lon":5.374475,"is_reserved":false,"is_disabled":false,"rental_uris":{"android":"levelo://app?vid=74371e4c-2218-4397-9345-b9f878db7dd5","ios":"levelo://app?vid=74371e4c-2218-4397-9345-b9f878db7dd5"},"vehicle_type_id":"4","last_reported":1727168964,"current_range_meters":38000,"station_id":"","pricing_plan_id":"cebpf4jnsgd1na2vs0mg"},{"bike_id":"3073410f-7845-4cda-8ebb-ea5392e49bcf","system_id":"levelo_inurba_marseille","lat":43.29844,"lon":5.36267,"is_reserved":false,"is_disabled":false,"rental_uris":{"android":"levelo://app?vid=3073410f-7845-4cda-8ebb-ea5392e49bcf","ios":"levelo://app?vid=3073410f-7845-4cda-8ebb-ea5392e49bcf"},"vehicle_type_id":"4","last_reported":1727168964,"current_range_meters":29600,"station_id":"ce4bgpp2rcd13ifvqc3g","pricing_plan_id":"cebpf4jnsgd1na2vs0mg"},{"bike_id":"220c92c5-b10a-42a3-aae9-b14b566e440b","system_id":"levelo_inurba_marseille","lat":43.296009,"lon":5.381042,"is_reserved":false,"is_disabled":false,"rental_uris":{"android":"levelo://app?vid=220c92c5-b10a-42a3-aae9-b14b566e440b","ios":"levelo://app?vid=220c92c5-b10a-42a3-aae9-b14b566e440b"},"vehicle_type_id":"4","last_reported":1727168964,"current_range_meters":14800,"station_id":"ce4bgl12rcd13ifvqbo0","pricing_plan_id":"cebpf4jnsgd1na2vs0mg"},{"bike_id":"d7061bf7-70a8-4464-83b2-06c09fde3e4e","system_id":"levelo_inurba_marseille","lat":43.30927,"lon":5.40145,"is_reserved":false,"is_disabled":false,"rental_uris":{"android":"levelo://app?vid=d7061bf7-70a8-4464-83b2-06c09fde3e4e","ios":"levelo://app?vid=d7061bf7-70a8-4464-83b2-06c09fde3e4e"},"vehicle_type_id":"4","last_reported":1727168964,"current_range_meters":36800,"station_id":"ce4bgvp2rcd13ifvqct0","pricing_plan_id":"cebpf4jnsgd1na2vs0mg"},{"bike_id":"124543fe-b791-4047-97dc-3b38ba1277b8","system_id":"levelo_inurba_marseille","lat":43.27069,"lon":5.42275,"is_reserved":false,"is_disabled":false,"rental_uris":{"android":"levelo://app?vid=124543fe-b791-4047-97dc-3b38ba1277b8","ios":"levelo://app?vid=124543fe-b791-4047-97dc-3b38ba1277b8"},"vehicle_type_id":"4","last_reported":1727168964,"current_range_meters":25200,"station_id":"ce4bhk92rcd13ifvqgb0","pricing_plan_id":"cebpf4jnsgd1na2vs0mg"},{"bike_id":"70dcefbd-4b07-404e-b4c6-04f06b54c398","system_id":"levelo_inurba_marseille","lat":43.30145,"lon":5.37423,"is_reserved":false,"is_disabled":false,"rental_uris":{"android":"levelo://app?vid=70dcefbd-4b07-404e-b4c6-04f06b54c398","ios":"levelo://app?vid=70dcefbd-4b07-404e-b4c6-04f06b54c398"},"vehicle_type_id":"4","last_reported":1727168964,"current_range_meters":38800,"station_id":"ce4bgs92rcd13ifvqcc0","pricing_plan_id":"cebpf4jnsgd1na2vs0mg"},{"bike_id":"b1f73128-5271-43d8-af34-94e10e3b804a","system_id":"levelo_inurba_marseille","lat":43.33023,"lon":5.39042,"is_reserved":false,"is_disabled":false,"rental_uris":{"android":"levelo://app?vid=b1f73128-5271-43d8-af34-94e10e3b804a","ios":"levelo://app?vid=b1f73128-5271-43d8-af34-94e10e3b804a"},"vehicle_type_id":"4","last_reported":1727168964,"current_range_meters":30400,"station_id":"ce4bhr92rcd13ifvqhrg","pricing_plan_id":"cebpf4jnsgd1na2vs0mg"},{"bike_id":"8a98e2ce-aee1-4d77-8b6d-16aec9fb6e85","system_id":"levelo_inurba_marseille","lat":43.30601,"lon":5.37226,"is_reserved":false,"is_disabled":false,"rental_uris":{"android":"levelo://app?vid=8a98e2ce-aee1-4d77-8b6d-16aec9fb6e85","ios":"levelo://app?vid=8a98e2ce-aee1-4d77-8b6d-16aec9fb6e85"},"vehicle_type_id":"4","last_reported":1727168964,"current_range_meters":30800,"station_id":"ce4bgqh2rcd13ifvqc4g","pricing_plan_id":"cebpf4jnsgd1na2vs0mg"},{"bike_id":"d1d47486-1c37-4693-89cd-19a90e5cdde0","system_id":"levelo_inurba_marseille","lat":43.26198,"lon":5.37923,"is_reserved":false,"is_disabled":false,"rental_uris":{"android":"levelo://app?vid=d1d47486-1c37-4693-89cd-19a90e5cdde0","ios":"levelo://app?vid=d1d47486-1c37-4693-89cd-19a90e5cdde0"},"vehicle_type_id":"4","last_reported":1727168964,"current_range_meters":38800,"station_id":"ce4bhjp2rcd13ifvqg90","pricing_plan_id":"cebpf4jnsgd1na2vs0mg"},{"bike_id":"b1b3d74b-d2d3-494a-b10b-fa7dc90714b4","system_id":"levelo_inurba_marseille","lat":43.27826,"lon":5.39211,"is_reserved":false,"is_disabled":false,"rental_uris":{"android":"levelo://app?vid=b1b3d74b-d2d3-494a-b10b-fa7dc90714b4","ios":"levelo://app?vid=b1b3d74b-d2d3-494a-b10b-fa7dc90714b4"},"vehicle_type_id":"4","last_reported":1727168964,"current_range_meters":29600,"station_id":"ce4bhjp2rcd13ifvqga0","pricing_plan_id":"cebpf4jnsgd1na2vs0mg"},{"bike_id":"afa093e5-7bb5-44f0-9e79-efa67d676153","system_id":"levelo_inurba_marseille","lat":43.29568,"lon":5.37517,"is_reserved":false,"is_disabled":false,"rental_uris":{"android":"levelo://app?vid=afa093e5-7bb5-44f0-9e79-efa67d676153","ios":"levelo://app?vid=afa093e5-7bb5-44f0-9e79-efa67d676153"},"vehicle_type_id":"4","last_reported":1727168964,"current_range_meters":22800,"station_id":"ce4bgh92rcd13ifvqb50","pricing_plan_id":"cebpf4jnsgd1na2vs0mg"},{"bike_id":"cc70b102-8f1e-47ca-9d1a-7a1c0e2853d8","system_id":"levelo_inurba_marseille","lat":43.26948,"lon":5.38639,"is_reserved":false,"is_disabled":false,"rental_uris":{"android":"levelo://app?vid=cc70b102-8f1e-47ca-9d1a-7a1c0e2853d8","ios":"levelo://app?vid=cc70b102-8f1e-47ca-9d1a-7a1c0e2853d8"},"vehicle_type_id":"4","last_reported":1727168964,"current_range_meters":38800,"station_id":"ce4bhh92rcd13ifvqfh0","pricing_plan_id":"cebpf4jnsgd1na2vs0mg"},{"bike_id":"3680decd-f938-4953-8d92-c8985f6ed7a0","system_id":"levelo_inurba_marseille","lat":43.29026,"lon":5.38652,"is_reserved":false,"is_disabled":false,"rental_uris":{"android":"levelo://app?vid=3680decd-f938-4953-8d92-c8985f6ed7a0","ios":"levelo://app?vid=3680decd-f938-4953-8d92-c8985f6ed7a0"},"vehicle_type_id":"4","last_reported":1727168964,"current_range_meters":9200,"station_id":"ce4bh4p2rcd13ifvqe0g","pricing_plan_id":"cebpf4jnsgd1na2vs0mg"},{"bike_id":"4b770073-7726-4e78-b34f-a257261dc7d3","system_id":"levelo_inurba_marseille","lat":43.29557,"lon":5.42281,"is_reserved":false,"is_disabled":false,"rental_uris":{"android":"levelo://app?vid=4b770073-7726-4e78-b34f-a257261dc7d3","ios":"levelo://app?vid=4b770073-7726-4e78-b34f-a257261dc7d3"},"vehicle_type_id":"4","last_reported":1727168964,"current_range_meters":28800,"station_id":"ce4bhph2rcd13ifvqhdg","pricing_plan_id":"cebpf4jnsgd1na2vs0mg"},{"bike_id":"d8652924-2187-42bf-848a-1f35c66a4826","system_id":"levelo_inurba_marseille","lat":43.24071,"lon":5.37764,"is_reserved":false,"is_disabled":false,"rental_uris":{"android":"levelo://app?vid=d8652924-2187-42bf-848a-1f35c66a4826","ios":"levelo://app?vid=d8652924-2187-42bf-848a-1f35c66a4826"},"vehicle_type_id":"4","last_reported":1727168964,"current_range_meters":16000,"station_id":"ce4bhnp2rcd13ifvqgvg","pricing_plan_id":"cebpf4jnsgd1na2vs0mg"},{"bike_id":"c03f7e69-3662-4d8b-a2f2-4c8f803c1ea8","system_id":"levelo_inurba_marseille","lat":43.32536,"lon":5.41441,"is_reserved":false,"is_disabled":false,"rental_uris":{"android":"levelo://app?vid=c03f7e69-3662-4d8b-a2f2-4c8f803c1ea8","ios":"levelo://app?vid=c03f7e69-3662-4d8b-a2f2-4c8f803c1ea8"},"vehicle_type_id":"4","last_reported":1727168964,"current_range_meters":19600,"station_id":"ce4bhq12rcd13ifvqhhg","pricing_plan_id":"cebpf4jnsgd1na2vs0mg"},{"bike_id":"efcab10f-f8b5-4015-93f2-6e1654482c73","system_id":"levelo_inurba_marseille","lat":43.24076,"lon":5.37766,"is_reserved":false,"is_disabled":false,"rental_uris":{"android":"levelo://app?vid=efcab10f-f8b5-4015-93f2-6e1654482c73","ios":"levelo://app?vid=efcab10f-f8b5-4015-93f2-6e1654482c73"},"vehicle_type_id":"4","last_reported":1727168964,"current_range_meters":33600,"station_id":"ce4bhnp2rcd13ifvqgvg","pricing_plan_id":"cebpf4jnsgd1na2vs0mg"},{"bike_id":"49d80325-faab-4d79-8ece-643304efb99e","system_id":"levelo_inurba_marseille","lat":43.26682,"lon":5.38267,"is_reserved":false,"is_disabled":false,"rental_uris":{"android":"levelo://app?vid=49d80325-faab-4d79-8ece-643304efb99e","ios":"levelo://app?vid=49d80325-faab-4d79-8ece-643304efb99e"},"vehicle_type_id":"4","last_reported":1727168964,"current_range_meters":36800,"station_id":"ce4bhg92rcd13ifvqf90","pricing_plan_id":"cebpf4jnsgd1na2vs0mg"},{"bike_id":"eec8e056-0724-419c-be9e-645bfeeb8e97","system_id":"levelo_inurba_marseille","lat":43.25002,"lon":5.38925,"is_reserved":false,"is_disabled":false,"rental_uris":{"android":"levelo://app?vid=eec8e056-0724-419c-be9e-645bfeeb8e97","ios":"levelo://app?vid=eec8e056-0724-419c-be9e-645bfeeb8e97"},"vehicle_type_id":"4","last_reported":1727168964,"current_range_meters":38800,"station_id":"ce4bhgp2rcd13ifvqfd0","pricing_plan_id":"cebpf4jnsgd1na2vs0mg"},{"bike_id":"bf0c9f63-b1f6-450a-9d2b-b3c71670d0b5","system_id":"levelo_inurba_marseille","lat":43.33612,"lon":5.4103,"is_reserved":false,"is_disabled":false,"rental_uris":{"android":"levelo://app?vid=bf0c9f63-b1f6-450a-9d2b-b3c71670d0b5","ios":"levelo://app?vid=bf0c9f63-b1f6-450a-9d2b-b3c71670d0b5"},"vehicle_type_id":"4","last_reported":1727168964,"current_range_meters":24400,"station_id":"ce4bhqh2rcd13ifvqhmg","pricing_plan_id":"cebpf4jnsgd1na2vs0mg"},{"bike_id":"e59b0fcb-9ec1-4e05-a6bd-12eb54ed61ec","system_id":"levelo_inurba_marseille","lat":43.2668,"lon":5.38263,"is_reserved":false,"is_disabled":false,"rental_uris":{"android":"levelo://app?vid=e59b0fcb-9ec1-4e05-a6bd-12eb54ed61ec","ios":"levelo://app?vid=e59b0fcb-9ec1-4e05-a6bd-12eb54ed61ec"},"vehicle_type_id":"4","last_reported":1727168964,"current_range_meters":35600,"station_id":"ce4bhg92rcd13ifvqf90","pricing_plan_id":"cebpf4jnsgd1na2vs0mg"},{"bike_id":"2c567e6d-9516-43a8-a805-6a796053112e","system_id":"levelo_inurba_marseille","lat":43.32484,"lon":5.3657,"is_reserved":false,"is_disabled":false,"rental_uris":{"android":"levelo://app?vid=2c567e6d-9516-43a8-a805-6a796053112e","ios":"levelo://app?vid=2c567e6d-9516-43a8-a805-6a796053112e"},"vehicle_type_id":"4","last_reported":1727168964,"current_range_meters":39200,"station_id":"ce4bhs12rcd13ifvqhvg","pricing_plan_id":"cebpf4jnsgd1na2vs0mg"},{"bike_id":"315e4f87-8bed-4d55-8ff9-8f6d9844f328","system_id":"levelo_inurba_marseille","lat":43.29572,"lon":5.39974,"is_reserved":false,"is_disabled":false,"rental_uris":{"android":"levelo://app?vid=315e4f87-8bed-4d55-8ff9-8f6d9844f328","ios":"levelo://app?vid=315e4f87-8bed-4d55-8ff9-8f6d9844f328"},"vehicle_type_id":"4","last_reported":1727168964,"current_range_meters":32800,"station_id":"ce4bh312rcd13ifvqdj0","pricing_plan_id":"cebpf4jnsgd1na2vs0mg"},{"bike_id":"3741c135-6583-410d-87b9-b4310a4bf662","system_id":"levelo_inurba_marseille","lat":43.26678,"lon":5.38281,"is_reserved":false,"is_disabled":false,"rental_uris":{"android":"levelo://app?vid=3741c135-6583-410d-87b9-b4310a4bf662","ios":"levelo://app?vid=3741c135-6583-410d-87b9-b4310a4bf662"},"vehicle_type_id":"4","last_reported":1727168964,"current_range_meters":39200,"station_id":"ce4bhg92rcd13ifvqf90","pricing_plan_id":"cebpf4jnsgd1na2vs0mg"},{"bike_id":"cb037699-9180-4cca-9257-9699aba3381e","system_id":"levelo_inurba_marseille","lat":43.24995,"lon":5.3892,"is_reserved":false,"is_disabled":false,"rental_uris":{"android":"levelo://app?vid=cb037699-9180-4cca-9257-9699aba3381e","ios":"levelo://app?vid=cb037699-9180-4cca-9257-9699aba3381e"},"vehicle_type_id":"4","last_reported":1727168964,"current_range_meters":36400,"station_id":"ce4bhgp2rcd13ifvqfd0","pricing_plan_id":"cebpf4jnsgd1na2vs0mg"},{"bike_id":"17701005-77c3-4e4f-a0b4-b2ece630517d","system_id":"levelo_inurba_marseille","lat":43.23955,"lon":5.36632,"is_reserved":false,"is_disabled":false,"rental_uris":{"android":"levelo://app?vid=17701005-77c3-4e4f-a0b4-b2ece630517d","ios":"levelo://app?vid=17701005-77c3-4e4f-a0b4-b2ece630517d"},"vehicle_type_id":"4","last_reported":1727168964,"current_range_meters":38800,"station_id":"ce4bhi12rcd13ifvqfp0","pricing_plan_id":"cebpf4jnsgd1na2vs0mg"},{"bike_id":"31011894-d2e4-45f9-aba5-a183a2da548a","system_id":"levelo_inurba_marseille","lat":43.29028,"lon":5.37564,"is_reserved":false,"is_disabled":false,"rental_uris":{"android":"levelo://app?vid=31011894-d2e4-45f9-aba5-a183a2da548a","ios":"levelo://app?vid=31011894-d2e4-45f9-aba5-a183a2da548a"},"vehicle_type_id":"4","last_reported":1727168964,"current_range_meters":5600,"station_id":"ce4bh692rcd13ifvqe90","pricing_plan_id":"cebpf4jnsgd1na2vs0mg"},{"bike_id":"e5ecb953-43b6-40e6-9f73-99c952f50042","system_id":"levelo_inurba_marseille","lat":43.23154,"lon":5.43714,"is_reserved":false,"is_disabled":false,"rental_uris":{"android":"levelo://app?vid=e5ecb953-43b6-40e6-9f73-99c952f50042","ios":"levelo://app?vid=e5ecb953-43b6-40e6-9f73-99c952f50042"},"vehicle_type_id":"4","last_reported":1727168964,"current_range_meters":24800,"station_id":"ce4bhmp2rcd13ifvqgog","pricing_plan_id":"cebpf4jnsgd1na2vs0mg"},{"bike_id":"fe57e638-2e32-4de9-a694-726eae663078","system_id":"levelo_inurba_marseille","lat":43.30553,"lon":5.36533,"is_reserved":false,"is_disabled":false,"rental_uris":{"android":"levelo://app?vid=fe57e638-2e32-4de9-a694-726eae663078","ios":"levelo://app?vid=fe57e638-2e32-4de9-a694-726eae663078"},"vehicle_type_id":"4","last_reported":1727168964,"current_range_meters":29600,"station_id":"ce4bgs12rcd13ifvqcag","pricing_plan_id":"cebpf4jnsgd1na2vs0mg"},{"bike_id":"4467e1df-1fcc-4a31-b002-2126025738da","system_id":"levelo_inurba_marseille","lat":43.25934,"lon":5.40914,"is_reserved":false,"is_disabled":false,"rental_uris":{"android":"levelo://app?vid=4467e1df-1fcc-4a31-b002-2126025738da","ios":"levelo://app?vid=4467e1df-1fcc-4a31-b002-2126025738da"},"vehicle_type_id":"4","last_reported":1727168964,"current_range_meters":10000,"station_id":"ce4bhm92rcd13ifvqglg","pricing_plan_id":"cebpf4jnsgd1na2vs0mg"},{"bike_id":"5f0bbf15-234c-4d10-8d49-5e13abf3af54","system_id":"levelo_inurba_marseille","lat":43.26944,"lon":5.40246,"is_reserved":false,"is_disabled":false,"rental_uris":{"android":"levelo://app?vid=5f0bbf15-234c-4d10-8d49-5e13abf3af54","ios":"levelo://app?vid=5f0bbf15-234c-4d10-8d49-5e13abf3af54"},"vehicle_type_id":"4","last_reported":1727168964,"current_range_meters":37600,"station_id":"cjm6bp8fraef2m0cb0m0","pricing_plan_id":"cebpf4jnsgd1na2vs0mg"},{"bike_id":"25227fb7-c119-4c45-9066-9ebf9ee31c1c","system_id":"levelo_inurba_marseille","lat":43.305734,"lon":5.401241,"is_reserved":false,"is_disabled":false,"rental_uris":{"android":"levelo://app?vid=25227fb7-c119-4c45-9066-9ebf9ee31c1c","ios":"levelo://app?vid=25227fb7-c119-4c45-9066-9ebf9ee31c1c"},"vehicle_type_id":"4","last_reported":1727168964,"current_range_meters":20000,"station_id":"ce4bgt92rcd13ifvqcf0","pricing_plan_id":"cebpf4jnsgd1na2vs0mg"},{"bike_id":"cdb389dd-3664-4477-91da-d69d97c2a4b8","system_id":"levelo_inurba_marseille","lat":43.27485,"lon":5.42466,"is_reserved":false,"is_disabled":false,"rental_uris":{"android":"levelo://app?vid=cdb389dd-3664-4477-91da-d69d97c2a4b8","ios":"levelo://app?vid=cdb389dd-3664-4477-91da-d69d97c2a4b8"},"vehicle_type_id":"4","last_reported":1727168964,"current_range_meters":28000,"station_id":"ce4bhn92rcd13ifvqgrg","pricing_plan_id":"cebpf4jnsgd1na2vs0mg"},{"bike_id":"0509c4d9-177a-4f92-acd7-49e34954736d","system_id":"levelo_inurba_marseille","lat":43.3376,"lon":5.37473,"is_reserved":false,"is_disabled":false,"rental_uris":{"android":"levelo://app?vid=0509c4d9-177a-4f92-acd7-49e34954736d","ios":"levelo://app?vid=0509c4d9-177a-4f92-acd7-49e34954736d"},"vehicle_type_id":"4","last_reported":1727168964,"current_range_meters":13600,"station_id":"","pricing_plan_id":"cebpf4jnsgd1na2vs0mg"},{"bike_id":"01e3177f-2980-42c0-bc79-421123d82f75","system_id":"levelo_inurba_marseille","lat":43.25938,"lon":5.40911,"is_reserved":false,"is_disabled":false,"rental_uris":{"android":"levelo://app?vid=01e3177f-2980-42c0-bc79-421123d82f75","ios":"levelo://app?vid=01e3177f-2980-42c0-bc79-421123d82f75"},"vehicle_type_id":"4","last_reported":1727168964,"current_range_meters":9600,"station_id":"ce4bhm92rcd13ifvqglg","pricing_plan_id":"cebpf4jnsgd1na2vs0mg"},{"bike_id":"92b74cc3-3fa3-4aaf-9a70-e6607fd8e4bf","system_id":"levelo_inurba_marseille","lat":43.299781,"lon":5.371943,"is_reserved":false,"is_disabled":false,"rental_uris":{"android":"levelo://app?vid=92b74cc3-3fa3-4aaf-9a70-e6607fd8e4bf","ios":"levelo://app?vid=92b74cc3-3fa3-4aaf-9a70-e6607fd8e4bf"},"vehicle_type_id":"4","last_reported":1727168964,"current_range_meters":8400,"station_id":"ce4bgr92rcd13ifvqc7g","pricing_plan_id":"cebpf4jnsgd1na2vs0mg"},{"bike_id":"ef462b40-5abb-456e-ae03-2b347f34b8dc","system_id":"levelo_inurba_marseille","lat":43.30476,"lon":5.37907,"is_reserved":false,"is_disabled":false,"rental_uris":{"android":"levelo://app?vid=ef462b40-5abb-456e-ae03-2b347f34b8dc","ios":"levelo://app?vid=ef462b40-5abb-456e-ae03-2b347f34b8dc"},"vehicle_type_id":"4","last_reported":1727168964,"current_range_meters":24000,"station_id":"ce4bgup2rcd13ifvqcn0","pricing_plan_id":"cebpf4jnsgd1na2vs0mg"},{"bike_id":"0b6fcc1c-ebca-44a9-8cf8-259cbd6d4c98","system_id":"levelo_inurba_marseille","lat":43.2408,"lon":5.37762,"is_reserved":false,"is_disabled":false,"rental_uris":{"android":"levelo://app?vid=0b6fcc1c-ebca-44a9-8cf8-259cbd6d4c98","ios":"levelo://app?vid=0b6fcc1c-ebca-44a9-8cf8-259cbd6d4c98"},"vehicle_type_id":"4","last_reported":1727168964,"current_range_meters":24000,"station_id":"ce4bhnp2rcd13ifvqgvg","pricing_plan_id":"cebpf4jnsgd1na2vs0mg"},{"bike_id":"87bc3c3a-5b0d-4d32-b107-ce17692bf59d","system_id":"levelo_inurba_marseille","lat":43.231526,"lon":5.437038,"is_reserved":false,"is_disabled":false,"rental_uris":{"android":"levelo://app?vid=87bc3c3a-5b0d-4d32-b107-ce17692bf59d","ios":"levelo://app?vid=87bc3c3a-5b0d-4d32-b107-ce17692bf59d"},"vehicle_type_id":"4","last_reported":1727168964,"current_range_meters":6000,"station_id":"ce4bhmp2rcd13ifvqgog","pricing_plan_id":"cebpf4jnsgd1na2vs0mg"},{"bike_id":"e4d59d3e-56b9-4f74-a94e-fdb28940568f","system_id":"levelo_inurba_marseille","lat":43.30135,"lon":5.37418,"is_reserved":false,"is_disabled":false,"rental_uris":{"android":"levelo://app?vid=e4d59d3e-56b9-4f74-a94e-fdb28940568f","ios":"levelo://app?vid=e4d59d3e-56b9-4f74-a94e-fdb28940568f"},"vehicle_type_id":"4","last_reported":1727168964,"current_range_meters":25600,"station_id":"ce4bgs92rcd13ifvqcc0","pricing_plan_id":"cebpf4jnsgd1na2vs0mg"},{"bike_id":"42866db9-ee43-4990-9231-81959007784d","system_id":"levelo_inurba_marseille","lat":43.29009,"lon":5.35623,"is_reserved":false,"is_disabled":false,"rental_uris":{"android":"levelo://app?vid=42866db9-ee43-4990-9231-81959007784d","ios":"levelo://app?vid=42866db9-ee43-4990-9231-81959007784d"},"vehicle_type_id":"4","last_reported":1727168964,"current_range_meters":30400,"station_id":"ce4bhb92rcd13ifvqen0","pricing_plan_id":"cebpf4jnsgd1na2vs0mg"},{"bike_id":"7ad22588-4081-4428-be25-4573ea5926e3","system_id":"levelo_inurba_marseille","lat":43.30908,"lon":5.36857,"is_reserved":false,"is_disabled":false,"rental_uris":{"android":"levelo://app?vid=7ad22588-4081-4428-be25-4573ea5926e3","ios":"levelo://app?vid=7ad22588-4081-4428-be25-4573ea5926e3"},"vehicle_type_id":"4","last_reported":1727168964,"current_range_meters":29600,"station_id":"ce4bgn92rcd13ifvqbvg","pricing_plan_id":"cebpf4jnsgd1na2vs0mg"},{"bike_id":"a0c97515-3c94-4a97-8379-f7b7767cc614","system_id":"levelo_inurba_marseille","lat":43.24078,"lon":5.37757,"is_reserved":false,"is_disabled":false,"rental_uris":{"android":"levelo://app?vid=a0c97515-3c94-4a97-8379-f7b7767cc614","ios":"levelo://app?vid=a0c97515-3c94-4a97-8379-f7b7767cc614"},"vehicle_type_id":"4","last_reported":1727168964,"current_range_meters":25600,"station_id":"ce4bhnp2rcd13ifvqgvg","pricing_plan_id":"cebpf4jnsgd1na2vs0mg"},{"bike_id":"14c7487d-93a4-46cf-b880-3e36dcf4a89c","system_id":"levelo_inurba_marseille","lat":43.31327,"lon":5.39698,"is_reserved":false,"is_disabled":false,"rental_uris":{"android":"levelo://app?vid=14c7487d-93a4-46cf-b880-3e36dcf4a89c","ios":"levelo://app?vid=14c7487d-93a4-46cf-b880-3e36dcf4a89c"},"vehicle_type_id":"4","last_reported":1727168964,"current_range_meters":26000,"station_id":"ce4bgvp2rcd13ifvqcu0","pricing_plan_id":"cebpf4jnsgd1na2vs0mg"},{"bike_id":"674055bd-c5e5-45c3-9df3-9ac9937bb517","system_id":"levelo_inurba_marseille","lat":43.264955,"lon":5.395418,"is_reserved":false,"is_disabled":false,"rental_uris":{"android":"levelo://app?vid=674055bd-c5e5-45c3-9df3-9ac9937bb517","ios":"levelo://app?vid=674055bd-c5e5-45c3-9df3-9ac9937bb517"},"vehicle_type_id":"4","last_reported":1727168964,"current_range_meters":20800,"station_id":"ce4bhi12rcd13ifvqfq0","pricing_plan_id":"cebpf4jnsgd1na2vs0mg"},{"bike_id":"fce4c3c1-622f-4010-980f-7950b369c25e","system_id":"levelo_inurba_marseille","lat":43.30463,"lon":5.37918,"is_reserved":false,"is_disabled":false,"rental_uris":{"android":"levelo://app?vid=fce4c3c1-622f-4010-980f-7950b369c25e","ios":"levelo://app?vid=fce4c3c1-622f-4010-980f-7950b369c25e"},"vehicle_type_id":"4","last_reported":1727168964,"current_range_meters":37600,"station_id":"ce4bgup2rcd13ifvqcn0","pricing_plan_id":"cebpf4jnsgd1na2vs0mg"},{"bike_id":"dde37c46-a508-466b-8733-5293af20f3c3","system_id":"levelo_inurba_marseille","lat":43.33717,"lon":5.3918,"is_reserved":false,"is_disabled":false,"rental_uris":{"android":"levelo://app?vid=dde37c46-a508-466b-8733-5293af20f3c3","ios":"levelo://app?vid=dde37c46-a508-466b-8733-5293af20f3c3"},"vehicle_type_id":"4","last_reported":1727168964,"current_range_meters":39200,"station_id":"ce4bhr92rcd13ifvqhsg","pricing_plan_id":"cebpf4jnsgd1na2vs0mg"},{"bike_id":"4d248d67-7876-4d4b-a4d0-58c880f6e169","system_id":"levelo_inurba_marseille","lat":43.3014,"lon":5.37424,"is_reserved":false,"is_disabled":false,"rental_uris":{"android":"levelo://app?vid=4d248d67-7876-4d4b-a4d0-58c880f6e169","ios":"levelo://app?vid=4d248d67-7876-4d4b-a4d0-58c880f6e169"},"vehicle_type_id":"4","last_reported":1727168964,"current_range_meters":37600,"station_id":"ce4bgs92rcd13ifvqcc0","pricing_plan_id":"cebpf4jnsgd1na2vs0mg"},{"bike_id":"ebabd93c-8308-4f8a-93ac-d572213397f7","system_id":"levelo_inurba_marseille","lat":43.27484,"lon":5.42465,"is_reserved":false,"is_disabled":false,"rental_uris":{"android":"levelo://app?vid=ebabd93c-8308-4f8a-93ac-d572213397f7","ios":"levelo://app?vid=ebabd93c-8308-4f8a-93ac-d572213397f7"},"vehicle_type_id":"4","last_reported":1727168964,"current_range_meters":3600,"station_id":"ce4bhn92rcd13ifvqgrg","pricing_plan_id":"cebpf4jnsgd1na2vs0mg"},{"bike_id":"313886ea-d7e6-4f46-88c2-d20fced15e63","system_id":"levelo_inurba_marseille","lat":43.27492,"lon":5.42453,"is_reserved":false,"is_disabled":false,"rental_uris":{"android":"levelo://app?vid=313886ea-d7e6-4f46-88c2-d20fced15e63","ios":"levelo://app?vid=313886ea-d7e6-4f46-88c2-d20fced15e63"},"vehicle_type_id":"4","last_reported":1727168964,"current_range_meters":8400,"station_id":"ce4bhn92rcd13ifvqgrg","pricing_plan_id":"cebpf4jnsgd1na2vs0mg"},{"bike_id":"dffb8fcb-ee90-43b7-bb43-dcd0ee40c449","system_id":"levelo_inurba_marseille","lat":43.27206,"lon":5.39181,"is_reserved":false,"is_disabled":false,"rental_uris":{"android":"levelo://app?vid=dffb8fcb-ee90-43b7-bb43-dcd0ee40c449","ios":"levelo://app?vid=dffb8fcb-ee90-43b7-bb43-dcd0ee40c449"},"vehicle_type_id":"4","last_reported":1727168964,"current_range_meters":38000,"station_id":"ce4bhhp2rcd13ifvqfm0","pricing_plan_id":"cebpf4jnsgd1na2vs0mg"},{"bike_id":"4a4bfd88-bdfc-4802-b3a8-e798e4274727","system_id":"levelo_inurba_marseille","lat":43.32288,"lon":5.38269,"is_reserved":false,"is_disabled":false,"rental_uris":{"android":"levelo://app?vid=4a4bfd88-bdfc-4802-b3a8-e798e4274727","ios":"levelo://app?vid=4a4bfd88-bdfc-4802-b3a8-e798e4274727"},"vehicle_type_id":"4","last_reported":1727168964,"current_range_meters":34000,"station_id":"ce4bhr12rcd13ifvqhqg","pricing_plan_id":"cebpf4jnsgd1na2vs0mg"},{"bike_id":"fe9291c0-c1e0-47d3-902d-7bd90e99bf30","system_id":"levelo_inurba_marseille","lat":43.25935,"lon":5.40912,"is_reserved":false,"is_disabled":false,"rental_uris":{"android":"levelo://app?vid=fe9291c0-c1e0-47d3-902d-7bd90e99bf30","ios":"levelo://app?vid=fe9291c0-c1e0-47d3-902d-7bd90e99bf30"},"vehicle_type_id":"4","last_reported":1727168964,"current_range_meters":36400,"station_id":"ce4bhm92rcd13ifvqglg","pricing_plan_id":"cebpf4jnsgd1na2vs0mg"},{"bike_id":"7f0ce6ce-1b42-4de2-a8f3-521ee6b4fd86","system_id":"levelo_inurba_marseille","lat":43.29934,"lon":5.36553,"is_reserved":false,"is_disabled":false,"rental_uris":{"android":"levelo://app?vid=7f0ce6ce-1b42-4de2-a8f3-521ee6b4fd86","ios":"levelo://app?vid=7f0ce6ce-1b42-4de2-a8f3-521ee6b4fd86"},"vehicle_type_id":"4","last_reported":1727168964,"current_range_meters":26000,"station_id":"ce4bgm92rcd13ifvqbr0","pricing_plan_id":"cebpf4jnsgd1na2vs0mg"},{"bike_id":"e883bbc8-dc82-4b98-9264-d1429d2000f5","system_id":"levelo_inurba_marseille","lat":43.30476,"lon":5.37903,"is_reserved":false,"is_disabled":false,"rental_uris":{"android":"levelo://app?vid=e883bbc8-dc82-4b98-9264-d1429d2000f5","ios":"levelo://app?vid=e883bbc8-dc82-4b98-9264-d1429d2000f5"},"vehicle_type_id":"4","last_reported":1727168964,"current_range_meters":38800,"station_id":"ce4bgup2rcd13ifvqcn0","pricing_plan_id":"cebpf4jnsgd1na2vs0mg"},{"bike_id":"9c75b277-d77c-47ef-b296-0ede1844480d","system_id":"levelo_inurba_marseille","lat":43.23965,"lon":5.36631,"is_reserved":false,"is_disabled":false,"rental_uris":{"android":"levelo://app?vid=9c75b277-d77c-47ef-b296-0ede1844480d","ios":"levelo://app?vid=9c75b277-d77c-47ef-b296-0ede1844480d"},"vehicle_type_id":"4","last_reported":1727168964,"current_range_meters":33200,"station_id":"ce4bhi12rcd13ifvqfp0","pricing_plan_id":"cebpf4jnsgd1na2vs0mg"},{"bike_id":"6961525f-f931-4ed5-b742-9a9fed8b746e","system_id":"levelo_inurba_marseille","lat":43.25938,"lon":5.40896,"is_reserved":false,"is_disabled":false,"rental_uris":{"android":"levelo://app?vid=6961525f-f931-4ed5-b742-9a9fed8b746e","ios":"levelo://app?vid=6961525f-f931-4ed5-b742-9a9fed8b746e"},"vehicle_type_id":"4","last_reported":1727168964,"current_range_meters":23200,"station_id":"ce4bhm92rcd13ifvqglg","pricing_plan_id":"cebpf4jnsgd1na2vs0mg"},{"bike_id":"1c7e4786-9ca9-4f60-a6d4-ec885e073639","system_id":"levelo_inurba_marseille","lat":43.27481,"lon":5.42454,"is_reserved":false,"is_disabled":false,"rental_uris":{"android":"levelo://app?vid=1c7e4786-9ca9-4f60-a6d4-ec885e073639","ios":"levelo://app?vid=1c7e4786-9ca9-4f60-a6d4-ec885e073639"},"vehicle_type_id":"4","last_reported":1727168964,"current_range_meters":39200,"station_id":"ce4bhn92rcd13ifvqgrg","pricing_plan_id":"cebpf4jnsgd1na2vs0mg"},{"bike_id":"1e890691-54ce-4d02-8e0c-8fa33fd77705","system_id":"levelo_inurba_marseille","lat":43.296962,"lon":5.377018,"is_reserved":false,"is_disabled":false,"rental_uris":{"android":"levelo://app?vid=1e890691-54ce-4d02-8e0c-8fa33fd77705","ios":"levelo://app?vid=1e890691-54ce-4d02-8e0c-8fa33fd77705"},"vehicle_type_id":"4","last_reported":1727168964,"current_range_meters":10800,"station_id":"ce4bgkh2rcd13ifvqbl0","pricing_plan_id":"cebpf4jnsgd1na2vs0mg"},{"bike_id":"c0af0ff4-ab9b-4b16-9341-cda71b508efb","system_id":"levelo_inurba_marseille","lat":43.30179,"lon":5.3807,"is_reserved":false,"is_disabled":false,"rental_uris":{"android":"levelo://app?vid=c0af0ff4-ab9b-4b16-9341-cda71b508efb","ios":"levelo://app?vid=c0af0ff4-ab9b-4b16-9341-cda71b508efb"},"vehicle_type_id":"4","last_reported":1727168964,"current_range_meters":24400,"station_id":"ce4bgjp2rcd13ifvqbh0","pricing_plan_id":"cebpf4jnsgd1na2vs0mg"},{"bike_id":"dbd33b64-19e1-4449-9362-cfdfec5c7d6b","system_id":"levelo_inurba_marseille","lat":43.31225,"lon":5.36892,"is_reserved":false,"is_disabled":false,"rental_uris":{"android":"levelo://app?vid=dbd33b64-19e1-4449-9362-cfdfec5c7d6b","ios":"levelo://app?vid=dbd33b64-19e1-4449-9362-cfdfec5c7d6b"},"vehicle_type_id":"4","last_reported":1727168964,"current_range_meters":32400,"station_id":"ce4bgl92rcd13ifvqbq0","pricing_plan_id":"cebpf4jnsgd1na2vs0mg"},{"bike_id":"7a5e54d3-cb96-476c-8b83-730cce3955d0","system_id":"levelo_inurba_marseille","lat":43.31353,"lon":5.36704,"is_reserved":false,"is_disabled":false,"rental_uris":{"android":"levelo://app?vid=7a5e54d3-cb96-476c-8b83-730cce3955d0","ios":"levelo://app?vid=7a5e54d3-cb96-476c-8b83-730cce3955d0"},"vehicle_type_id":"4","last_reported":1727168964,"current_range_meters":25200,"station_id":"ce4bgr92rcd13ifvqc6g","pricing_plan_id":"cebpf4jnsgd1na2vs0mg"},{"bike_id":"0a63d8a5-7266-48af-833c-64516b763cd6","system_id":"levelo_inurba_marseille","lat":43.24084,"lon":5.37749,"is_reserved":false,"is_disabled":false,"rental_uris":{"android":"levelo://app?vid=0a63d8a5-7266-48af-833c-64516b763cd6","ios":"levelo://app?vid=0a63d8a5-7266-48af-833c-64516b763cd6"},"vehicle_type_id":"4","last_reported":1727168964,"current_range_meters":32000,"station_id":"ce4bhnp2rcd13ifvqgvg","pricing_plan_id":"cebpf4jnsgd1na2vs0mg"},{"bike_id":"f57a687d-6e59-440f-a32c-db5cd432a50f","system_id":"levelo_inurba_marseille","lat":43.2707,"lon":5.4228,"is_reserved":false,"is_disabled":false,"rental_uris":{"android":"levelo://app?vid=f57a687d-6e59-440f-a32c-db5cd432a50f","ios":"levelo://app?vid=f57a687d-6e59-440f-a32c-db5cd432a50f"},"vehicle_type_id":"4","last_reported":1727168964,"current_range_meters":15200,"station_id":"ce4bhk92rcd13ifvqgb0","pricing_plan_id":"cebpf4jnsgd1na2vs0mg"},{"bike_id":"56285e67-63d3-4063-b442-cd8aa6107626","system_id":"levelo_inurba_marseille","lat":43.29783,"lon":5.38105,"is_reserved":false,"is_disabled":false,"rental_uris":{"android":"levelo://app?vid=56285e67-63d3-4063-b442-cd8aa6107626","ios":"levelo://app?vid=56285e67-63d3-4063-b442-cd8aa6107626"},"vehicle_type_id":"4","last_reported":1727168964,"current_range_meters":3200,"station_id":"ce4bgip2rcd13ifvqbb0","pricing_plan_id":"cebpf4jnsgd1na2vs0mg"},{"bike_id":"e8033bc9-7f8c-43a9-94d0-446a78b4cf1d","system_id":"levelo_inurba_marseille","lat":43.30474,"lon":5.37905,"is_reserved":false,"is_disabled":false,"rental_uris":{"android":"levelo://app?vid=e8033bc9-7f8c-43a9-94d0-446a78b4cf1d","ios":"levelo://app?vid=e8033bc9-7f8c-43a9-94d0-446a78b4cf1d"},"vehicle_type_id":"4","last_reported":1727168964,"current_range_meters":34800,"station_id":"ce4bgup2rcd13ifvqcn0","pricing_plan_id":"cebpf4jnsgd1na2vs0mg"},{"bike_id":"527f8512-3393-48f9-8f7c-a7d320ece1f5","system_id":"levelo_inurba_marseille","lat":43.33612,"lon":5.41022,"is_reserved":false,"is_disabled":false,"rental_uris":{"android":"levelo://app?vid=527f8512-3393-48f9-8f7c-a7d320ece1f5","ios":"levelo://app?vid=527f8512-3393-48f9-8f7c-a7d320ece1f5"},"vehicle_type_id":"4","last_reported":1727168964,"current_range_meters":39200,"station_id":"ce4bhqh2rcd13ifvqhmg","pricing_plan_id":"cebpf4jnsgd1na2vs0mg"},{"bike_id":"ede37da0-431f-462e-af97-45c71435ab2a","system_id":"levelo_inurba_marseille","lat":43.24177,"lon":5.39726,"is_reserved":false,"is_disabled":false,"rental_uris":{"android":"levelo://app?vid=ede37da0-431f-462e-af97-45c71435ab2a","ios":"levelo://app?vid=ede37da0-431f-462e-af97-45c71435ab2a"},"vehicle_type_id":"4","last_reported":1727168964,"current_range_meters":27200,"station_id":"ce4bhn12rcd13ifvqgpg","pricing_plan_id":"cebpf4jnsgd1na2vs0mg"},{"bike_id":"3c5abc47-ec0e-4fb1-9d63-a70ffbf47084","system_id":"levelo_inurba_marseille","lat":43.26684,"lon":5.38264,"is_reserved":false,"is_disabled":false,"rental_uris":{"android":"levelo://app?vid=3c5abc47-ec0e-4fb1-9d63-a70ffbf47084","ios":"levelo://app?vid=3c5abc47-ec0e-4fb1-9d63-a70ffbf47084"},"vehicle_type_id":"4","last_reported":1727168964,"current_range_meters":15200,"station_id":"ce4bhg92rcd13ifvqf90","pricing_plan_id":"cebpf4jnsgd1na2vs0mg"},{"bike_id":"937d5a36-a6f0-4637-96eb-181234fdbaad","system_id":"levelo_inurba_marseille","lat":43.30253,"lon":5.40066,"is_reserved":false,"is_disabled":false,"rental_uris":{"android":"levelo://app?vid=937d5a36-a6f0-4637-96eb-181234fdbaad","ios":"levelo://app?vid=937d5a36-a6f0-4637-96eb-181234fdbaad"},"vehicle_type_id":"4","last_reported":1727168964,"current_range_meters":28400,"station_id":"ce4bgvh2rcd13ifvqcs0","pricing_plan_id":"cebpf4jnsgd1na2vs0mg"},{"bike_id":"98c4a4a5-8953-421a-a310-b6bb89238ed6","system_id":"levelo_inurba_marseille","lat":43.327183,"lon":5.407913,"is_reserved":false,"is_disabled":false,"rental_uris":{"android":"levelo://app?vid=98c4a4a5-8953-421a-a310-b6bb89238ed6","ios":"levelo://app?vid=98c4a4a5-8953-421a-a310-b6bb89238ed6"},"vehicle_type_id":"4","last_reported":1727168964,"current_range_meters":33600,"station_id":"ce4bhpp2rcd13ifvqhgg","pricing_plan_id":"cebpf4jnsgd1na2vs0mg"},{"bike_id":"71fe9dd5-6eed-434e-abc0-108f9ba18246","system_id":"levelo_inurba_marseille","lat":43.32529,"lon":5.41451,"is_reserved":false,"is_disabled":false,"rental_uris":{"android":"levelo://app?vid=71fe9dd5-6eed-434e-abc0-108f9ba18246","ios":"levelo://app?vid=71fe9dd5-6eed-434e-abc0-108f9ba18246"},"vehicle_type_id":"4","last_reported":1727168964,"current_range_meters":39200,"station_id":"ce4bhq12rcd13ifvqhhg","pricing_plan_id":"cebpf4jnsgd1na2vs0mg"},{"bike_id":"d54ab0a4-bb5d-4d91-95fe-c4e2488e2779","system_id":"levelo_inurba_marseille","lat":43.282654,"lon":5.402392,"is_reserved":false,"is_disabled":false,"rental_uris":{"android":"levelo://app?vid=d54ab0a4-bb5d-4d91-95fe-c4e2488e2779","ios":"levelo://app?vid=d54ab0a4-bb5d-4d91-95fe-c4e2488e2779"},"vehicle_type_id":"4","last_reported":1727168964,"current_range_meters":4000,"station_id":"","pricing_plan_id":"cebpf4jnsgd1na2vs0mg"},{"bike_id":"04293799-8e53-4363-b953-358a0ebf0647","system_id":"levelo_inurba_marseille","lat":43.2938,"lon":5.37848,"is_reserved":false,"is_disabled":false,"rental_uris":{"android":"levelo://app?vid=04293799-8e53-4363-b953-358a0ebf0647","ios":"levelo://app?vid=04293799-8e53-4363-b953-358a0ebf0647"},"vehicle_type_id":"4","last_reported":1727168964,"current_range_meters":24800,"station_id":"ce4bgjh2rcd13ifvqbf0","pricing_plan_id":"cebpf4jnsgd1na2vs0mg"},{"bike_id":"0716664a-9969-45af-b937-5ca658b0d99e","system_id":"levelo_inurba_marseille","lat":43.30271,"lon":5.37718,"is_reserved":false,"is_disabled":false,"rental_uris":{"android":"levelo://app?vid=0716664a-9969-45af-b937-5ca658b0d99e","ios":"levelo://app?vid=0716664a-9969-45af-b937-5ca658b0d99e"},"vehicle_type_id":"4","last_reported":1727168964,"current_range_meters":22000,"station_id":"ce4bguh2rcd13ifvqcj0","pricing_plan_id":"cebpf4jnsgd1na2vs0mg"},{"bike_id":"6c1a0788-5ce8-43cb-8a92-deb020775856","system_id":"levelo_inurba_marseille","lat":43.30565,"lon":5.36702,"is_reserved":false,"is_disabled":false,"rental_uris":{"android":"levelo://app?vid=6c1a0788-5ce8-43cb-8a92-deb020775856","ios":"levelo://app?vid=6c1a0788-5ce8-43cb-8a92-deb020775856"},"vehicle_type_id":"4","last_reported":1727168964,"current_range_meters":17600,"station_id":"ce4bgrp2rcd13ifvqc9g","pricing_plan_id":"cebpf4jnsgd1na2vs0mg"},{"bike_id":"f19a187b-a827-4347-aa0a-56faf5fe56f4","system_id":"levelo_inurba_marseille","lat":43.2408,"lon":5.37743,"is_reserved":false,"is_disabled":false,"rental_uris":{"android":"levelo://app?vid=f19a187b-a827-4347-aa0a-56faf5fe56f4","ios":"levelo://app?vid=f19a187b-a827-4347-aa0a-56faf5fe56f4"},"vehicle_type_id":"4","last_reported":1727168964,"current_range_meters":26000,"station_id":"ce4bhnp2rcd13ifvqgvg","pricing_plan_id":"cebpf4jnsgd1na2vs0mg"},{"bike_id":"69761971-2323-45be-98e5-7912d6a588b0","system_id":"levelo_inurba_marseille","lat":43.30311,"lon":5.36901,"is_reserved":false,"is_disabled":false,"rental_uris":{"android":"levelo://app?vid=69761971-2323-45be-98e5-7912d6a588b0","ios":"levelo://app?vid=69761971-2323-45be-98e5-7912d6a588b0"},"vehicle_type_id":"4","last_reported":1727168964,"current_range_meters":38800,"station_id":"ce4bgqh2rcd13ifvqc5g","pricing_plan_id":"cebpf4jnsgd1na2vs0mg"},{"bike_id":"36a0fd46-93b1-40f5-88cc-a93c28e81a11","system_id":"levelo_inurba_marseille","lat":43.29562,"lon":5.42289,"is_reserved":false,"is_disabled":false,"rental_uris":{"android":"levelo://app?vid=36a0fd46-93b1-40f5-88cc-a93c28e81a11","ios":"levelo://app?vid=36a0fd46-93b1-40f5-88cc-a93c28e81a11"},"vehicle_type_id":"4","last_reported":1727168964,"current_range_meters":38000,"station_id":"ce4bhph2rcd13ifvqhdg","pricing_plan_id":"cebpf4jnsgd1na2vs0mg"},{"bike_id":"80395c44-8614-4479-ac23-2002c7f68794","system_id":"levelo_inurba_marseille","lat":43.30301,"lon":5.36877,"is_reserved":false,"is_disabled":false,"rental_uris":{"android":"levelo://app?vid=80395c44-8614-4479-ac23-2002c7f68794","ios":"levelo://app?vid=80395c44-8614-4479-ac23-2002c7f68794"},"vehicle_type_id":"4","last_reported":1727168964,"current_range_meters":6000,"station_id":"ce4bgqh2rcd13ifvqc5g","pricing_plan_id":"cebpf4jnsgd1na2vs0mg"},{"bike_id":"fea2d42f-808a-45a2-b6ae-4fdab1ec44b6","system_id":"levelo_inurba_marseille","lat":43.30463,"lon":5.37904,"is_reserved":false,"is_disabled":false,"rental_uris":{"android":"levelo://app?vid=fea2d42f-808a-45a2-b6ae-4fdab1ec44b6","ios":"levelo://app?vid=fea2d42f-808a-45a2-b6ae-4fdab1ec44b6"},"vehicle_type_id":"4","last_reported":1727168964,"current_range_meters":5600,"station_id":"ce4bgup2rcd13ifvqcn0","pricing_plan_id":"cebpf4jnsgd1na2vs0mg"},