{"last_updated":1749892193,"ttl":60,"version":"2.2","data":{"bikes":[{"bike_id":"b31f0139-170f-4194-984f-4386218a1e9d","system_id":"levelo_inurba_marseille","lat":43.33771,"lon":5.37424,"is_reserved":false,"is_disabled":true,"rental_uris":{"android":"levelo://app?vid=b31f0139-170f-4194-984f-4386218a1e9d","ios":"levelo://app?vid=b31f0139-170f-4194-984f-4386218a1e9d"},"vehicle_type_id":"4","last_reported":1749892193,"current_range_meters":0,"station_id":"","pricing_plan_id":"cebpf4jnsgd1na2vs0mg"},{"bike_id":"1acfb620-cad7-48c0-8901-d7a5b74a5b65","system_id":"levelo_inurba_marseille","lat":43.33751,"lon":5.37456,"is_reserved":false,"is_disabled":true,"rental_uris":{"android":"levelo://app?vid=1acfb620-cad7-48c0-8901-d7a5b74a5b65","ios":"levelo://app?vid=1acfb620-cad7-48c0-8901-d7a5b74a5b65"},"vehicle_type_id":"4","last_reported":1749892193,"current_range_meters":0,"station_id":"","pricing_plan_id":"cebpf4jnsgd1na2vs0mg"},{"bike_id":"9fcd9c2e-8610-4d87-a883-a5baec28d1dc","system_id":"levelo_inurba_marseille","lat":43.26197,"lon":5.37937,"is_reserved":false,"is_disabled":true,"rental_uris":{"android":"levelo://app?vid=9fcd9c2e-8610-4d87-a883-a5baec28d1dc","ios":"levelo://app?vid=9fcd9c2e-8610-4d87-a883-a5baec28d1dc"},"vehicle_type_id":"4","last_reported":1749892193,"current_range_meters":0,"station_id":"","pricing_plan_id":"cebpf4jnsgd1na2vs0mg"},{"bike_id":"bf89d78c-eb96-40d5-beb0-f402ef102cc1","system_id":"levelo_inurba_marseille","lat":43.337444,"lon":5.374475,"is_reserved":false,"is_disabled":true,"rental_uris":{"android":"levelo://app?vid=bf89d78c-eb96-40d5-beb0-f402ef102cc1","ios":"levelo://app?vid=bf89d78c-eb96-40d5-beb0-f402ef102cc1"},"vehicle_type_id":"4","last_reported":1749892193,"current_range_meters":0,"station_id":"","pricing_plan_id":"cebpf4jnsgd1na2vs0mg"},{"bike_id":"5077581b-cebb-46fc-ba69-4fa8272d4810","system_id":"levelo_inurba_marseille","lat":43.21364,"lon":5.35527,"is_reserved":false,"is_disabled":true,"rental_uris":{"android":"levelo://app?vid=5077581b-cebb-46fc-ba69-4fa8272d4810","ios":"levelo://app?vid=5077581b-cebb-46fc-ba69-4fa8272d4810"},"vehicle_type_id":"4","last_reported":1749892193,"current_range_meters":0,"station_id":"","pricing_plan_id":"cebpf4jnsgd1na2vs0mg"},{"bike_id":"492f4bbd-1190-4ef2-b66a-479ffe91b09b","system_id":"levelo_inurba_marseille","lat":43.337444,"lon":5.374475,"is_reserved":false,"is_disabled":true,"rental_uris":{"android":"levelo://app?vid=492f4bbd-1190-4ef2-b66a-479ffe91b09b","ios":"levelo://app?vid=492f4bbd-1190-4ef2-b66a-479ffe91b09b"},"vehicle_type_id":"4","last_reported":1749892193,"current_range_meters":0,"station_id":"","pricing_plan_id":"cebpf4jnsgd1na2vs0mg"},{"bike_id":"a9b6bf99-4070-4437-bb20-72962ae30b90","system_id":"levelo_inurba_marseille","lat":43.27455,"lon":5.36386,"is_reserved":false,"is_disabled":true,"rental_uris":{"android":"levelo://app?vid=a9b6bf99-4070-4437-bb20-72962ae30b90","ios":"levelo://app?vid=a9b6bf99-4070-4437-bb20-72962ae30b90"},"vehicle_type_id":"4","last_reported":1749892193,"current_range_meters":0,"station_id":"","pricing_plan_id":"cebpf4jnsgd1na2vs0mg"},{"bike_id":"925b830a-4ff6-4a8d-a7aa-4f9ea420d4ed","system_id":"levelo_inurba_marseille","lat":43.29806,"lon":5.38089,"is_reserved":false,"is_disabled":true,"rental_uris":{"android":"levelo://app?vid=925b830a-4ff6-4a8d-a7aa-4f9ea420d4ed","ios":"levelo://app?vid=925b830a-4ff6-4a8d-a7aa-4f9ea420d4ed"},"vehicle_type_id":"4","last_reported":1749892193,"current_range_meters":0,"station_id":"ce4bgip2rcd13ifvqbb0","pricing_plan_id":"cebpf4jnsgd1na2vs0mg"},{"bike_id":"facad708-ac2e-4647-8c52-a1e2e89ee9aa","system_id":"levelo_inurba_marseille","lat":43.30652,"lon":5.40114,"is_reserved":false,"is_disabled":true,"rental_uris":{"android":"levelo://app?vid=facad708-ac2e-4647-8c52-a1e2e89ee9aa","ios":"levelo://app?vid=facad708-ac2e-4647-8c52-a1e2e89ee9aa"},"vehicle_type_id":"4","last_reported":1749892193,"current_range_meters":0,"station_id":"ce4bh112rcd13ifvqda0","pricing_plan_id":"cebpf4jnsgd1na2vs0mg"},{"bike_id":"3ec75ed9-fdba-4ccd-9a0d-10d4d2ba1810","system_id":"levelo_inurba_marseille","lat":43.24395,"lon":5.3706,"is_reserved":false,"is_disabled":true,"rental_uris":{"android":"levelo://app?vid=3ec75ed9-fdba-4ccd-9a0d-10d4d2ba1810","ios":"levelo://app?vid=3ec75ed9-fdba-4ccd-9a0d-10d4d2ba1810"},"vehicle_type_id":"4","last_reported":1749892193,"current_range_meters":0,"station_id":"ce4bhhh2rcd13ifvqfk0","pricing_plan_id":"cebpf4jnsgd1na2vs0mg"},{"bike_id":"7aad3b8c-9abe-46bd-8f80-1c2ebdf02d29","system_id":"levelo_inurba_marseille","lat":43.24178,"lon":5.39729,"is_reserved":false,"is_disabled":true,"rental_uris":{"android":"levelo://app?vid=7aad3b8c-9abe-46bd-8f80-1c2ebdf02d29","ios":"levelo://app?vid=7aad3b8c-9abe-46bd-8f80-1c2ebdf02d29"},"vehicle_type_id":"4","last_reported":1749892193,"current_range_meters":0,"station_id":"ce4bhn12rcd13ifvqgpg","pricing_plan_id":"cebpf4jnsgd1na2vs0mg"},{"bike_id":"3ebcb526-9195-4257-ae10-ca7e45e1829a","system_id":"levelo_inurba_marseille","lat":43.23178,"lon":5.39992,"is_reserved":false,"is_disabled":true,"rental_uris":{"android":"levelo://app?vid=3ebcb526-9195-4257-ae10-ca7e45e1829a","ios":"levelo://app?vid=3ebcb526-9195-4257-ae10-ca7e45e1829a"},"vehicle_type_id":"4","last_reported":1749892193,"current_range_meters":0,"station_id":"ce4bhn12rcd13ifvqgqg","pricing_plan_id":"cebpf4jnsgd1na2vs0mg"},{"bike_id":"442be05d-b25d-4a8f-8f0c-2b10cb7b3826","system_id":"levelo_inurba_marseille","lat":43.30421,"lon":5.41293,"is_reserved":false,"is_disabled":true,"rental_uris":{"android":"levelo://app?vid=442be05d-b25d-4a8f-8f0c-2b10cb7b3826","ios":"levelo://app?vid=442be05d-b25d-4a8f-8f0c-2b10cb7b3826"},"vehicle_type_id":"4","last_reported":1749892193,"current_range_meters":0,"station_id":"ce4bhop2rcd13ifvqh8g","pricing_plan_id":"cebpf4jnsgd1na2vs0mg"},{"bike_id":"bbb02913-c6bc-48cc-9429-24d0d9829817","system_id":"levelo_inurba_marseille","lat":43.32335,"lon":5.40616,"is_reserved":false,"is_disabled":true,"rental_uris":{"android":"levelo://app?vid=bbb02913-c6bc-48cc-9429-24d0d9829817","ios":"levelo://app?vid=bbb02913-c6bc-48cc-9429-24d0d9829817"},"vehicle_type_id":"4","last_reported":1749892193,"current_range_meters":0,"station_id":"ce4bhq92rcd13ifvqhjg","pricing_plan_id":"cebpf4jnsgd1na2vs0mg"},{"bike_id":"fc8c1022-c309-48d2-9db0-846e97358b35","system_id":"levelo_inurba_marseille","lat":43.30308,"lon":5.36906,"is_reserved":false,"is_disabled":true,"rental_uris":{"android":"levelo://app?vid=fc8c1022-c309-48d2-9db0-846e97358b35","ios":"levelo://app?vid=fc8c1022-c309-48d2-9db0-846e97358b35"},"vehicle_type_id":"4","last_reported":1749892193,"current_range_meters":400,"station_id":"ce4bgqh2rcd13ifvqc5g","pricing_plan_id":"cebpf4jnsgd1na2vs0mg"},{"bike_id":"9536af28-1cef-45aa-8a7c-e6c284630e77","system_id":"levelo_inurba_marseille","lat":43.29004,"lon":5.35607,"is_reserved":false,"is_disabled":true,"rental_uris":{"android":"levelo://app?vid=9536af28-1cef-45aa-8a7c-e6c284630e77","ios":"levelo://app?vid=9536af28-1cef-45aa-8a7c-e6c284630e77"},"vehicle_type_id":"4","last_reported":1749892193,"current_range_meters":800,"station_id":"ce4bhb92rcd13ifvqen0","pricing_plan_id":"cebpf4jnsgd1na2vs0mg"},{"bike_id":"fe909eec-57cb-4f6d-9797-191bc789bd7d","system_id":"levelo_inurba_marseille","lat":43.31231,"lon":5.36848,"is_reserved":false,"is_disabled":true,"rental_uris":{"android":"levelo://app?vid=fe909eec-57cb-4f6d-9797-191bc789bd7d","ios":"levelo://app?vid=fe909eec-57cb-4f6d-9797-191bc789bd7d"},"vehicle_type_id":"4","last_reported":1749892193,"current_range_meters":1200,"station_id":"ce4bgl92rcd13ifvqbq0","pricing_plan_id":"cebpf4jnsgd1na2vs0mg"},{"bike_id":"8a0be2f6-e37e-4707-9331-e999a5f575f8","system_id":"levelo_inurba_marseille","lat":43.261879,"lon":5.374478,"is_reserved":false,"is_disabled":true,"rental_uris":{"android":"levelo://app?vid=8a0be2f6-e37e-4707-9331-e999a5f575f8","ios":"levelo://app?vid=8a0be2f6-e37e-4707-9331-e999a5f575f8"},"vehicle_type_id":"4","last_reported":1749892193,"current_range_meters":2000,"station_id":"ce4bhgp2rcd13ifvqfc0","pricing_plan_id":"cebpf4jnsgd1na2vs0mg"},{"bike_id":"8d60347d-541c-40fb-90ca-203bf6bd520a","system_id":"levelo_inurba_marseille","lat":43.27114,"lon":5.36388,"is_reserved":false,"is_disabled":false,"rental_uris":{"android":"levelo://app?vid=8d60347d-541c-40fb-90ca-203bf6bd520a","ios":"levelo://app?vid=8d60347d-541c-40fb-90ca-203bf6bd520a"},"vehicle_type_id":"4","last_reported":1749892193,"current_range_meters":3200,"station_id":"","pricing_plan_id":"cebpf4jnsgd1na2vs0mg"},{"bike_id":"a991f01e-a76b-4e02-a71d-664b42aa663c","system_id":"levelo_inurba_marseille","lat":43.32974,"lon":5.38987,"is_reserved":false,"is_disabled":false,"rental_uris":{"android":"levelo://app?vid=a991f01e-a76b-4e02-a71d-664b42aa663c","ios":"levelo://app?vid=a991f01e-a76b-4e02-a71d-664b42aa663c"},"vehicle_type_id":"4","last_reported":1749892193,"current_range_meters":3600,"station_id":"ce4bhr92rcd13ifvqhrg","pricing_plan_id":"cebpf4jnsgd1na2vs0mg"},{"bike_id":"71d13df3-56f1-48e0-948b-2275785c1073","system_id":"levelo_inurba_marseille","lat":43.24013,"lon":5.36229,"is_reserved":false,"is_disabled":false,"rental_uris":{"android":"levelo://app?vid=71d13df3-56f1-48e0-948b-2275785c1073","ios":"levelo://app?vid=71d13df3-56f1-48e0-948b-2275785c1073"},"vehicle_type_id":"4","last_reported":1749892193,"current_range_meters":4000,"station_id":"","pricing_plan_id":"cebpf4jnsgd1na2vs0mg"},{"bike_id":"0476bd61-3fe7-405c-9622-2b838f88aa84","system_id":"levelo_inurba_marseille","lat":43.30965,"lon":5.40572,"is_reserved":false,"is_disabled":false,"rental_uris":{"android":"levelo://app?vid=0476bd61-3fe7-405c-9622-2b838f88aa84","ios":"levelo://app?vid=0476bd61-3fe7-405c-9622-2b838f88aa84"},"vehicle_type_id":"4","last_reported":1749892193,"current_range_meters":4000,"station_id":"","pricing_plan_id":"cebpf4jnsgd1na2vs0mg"},{"bike_id":"97421c04-2630-4fc1-9da9-b17d88602c5f","system_id":"levelo_inurba_marseille","lat":43.337682,"lon":5.374519,"is_reserved":false,"is_disabled":false,"rental_uris":{"android":"levelo://app?vid=97421c04-2630-4fc1-9da9-b17d88602c5f","ios":"levelo://app?vid=97421c04-2630-4fc1-9da9-b17d88602c5f"},"vehicle_type_id":"4","last_reported":1749892193,"current_range_meters":4800,"station_id":"","pricing_plan_id":"cebpf4jnsgd1na2vs0mg"},{"bike_id":"eaf3bee9-1291-4a7c-9028-7525ef58058e","system_id":"levelo_inurba_marseille","lat":43.294566,"lon":5.40157,"is_reserved":false,"is_disabled":false,"rental_uris":{"android":"levelo://app?vid=eaf3bee9-1291-4a7c-9028-7525ef58058e","ios":"levelo://app?vid=eaf3bee9-1291-4a7c-9028-7525ef58058e"},"vehicle_type_id":"4","last_reported":1749892193,"current_range_meters":4800,"station_id":"ce4bho92rcd13ifvqh4g","pricing_plan_id":"cebpf4jnsgd1na2vs0mg"},{"bike_id":"e177c1b1-0107-46d2-99a2-fb65ed78930d","system_id":"levelo_inurba_marseille","lat":43.296615,"lon":5.374518,"is_reserved":false,"is_disabled":false,"rental_uris":{"android":"levelo://app?vid=e177c1b1-0107-46d2-99a2-fb65ed78930d","ios":"levelo://app?vid=e177c1b1-0107-46d2-99a2-fb65ed78930d"},"vehicle_type_id":"4","last_reported":1749892193,"current_range_meters":5600,"station_id":"ce4bgpp2rcd13ifvqc3g","pricing_plan_id":"cebpf4jnsgd1na2vs0mg"},{"bike_id":"4376a810-01b7-4519-b127-4c75eb92ca0c","system_id":"levelo_inurba_marseille","lat":43.24808,"lon":5.37458,"is_reserved":false,"is_disabled":false,"rental_uris":{"android":"levelo://app?vid=4376a810-01b7-4519-b127-4c75eb92ca0c","ios":"levelo://app?vid=4376a810-01b7-4519-b127-4c75eb92ca0c"},"vehicle_type_id":"4","last_reported":1749892193,"current_range_meters":5600,"station_id":"ce4bhgh2rcd13ifvqfb0","pricing_plan_id":"cebpf4jnsgd1na2vs0mg"},{"bike_id":"d9be8431-1098-4c2d-b533-c5666589794d","system_id":"levelo_inurba_marseille","lat":43.30407,"lon":5.41277,"is_reserved":false,"is_disabled":false,"rental_uris":{"android":"levelo://app?vid=d9be8431-1098-4c2d-b533-c5666589794d","ios":"levelo://app?vid=d9be8431-1098-4c2d-b533-c5666589794d"},"vehicle_type_id":"4","last_reported":1749892193,"current_range_meters":5600,"station_id":"ce4bhop2rcd13ifvqh8g","pricing_plan_id":"cebpf4jnsgd1na2vs0mg"},{"bike_id":"1915255f-ff05-448b-bd5c-bcd55b7449d7","system_id":"levelo_inurba_marseille","lat":43.28779,"lon":5.37337,"is_reserved":false,"is_disabled":false,"rental_uris":{"android":"levelo://app?vid=1915255f-ff05-448b-bd5c-bcd55b7449d7","ios":"levelo://app?vid=1915255f-ff05-448b-bd5c-bcd55b7449d7"},"vehicle_type_id":"4","last_reported":1749892193,"current_range_meters":6000,"station_id":"","pricing_plan_id":"cebpf4jnsgd1na2vs0mg"},{"bike_id":"b5a794d1-e81a-43e8-8947-b9d42f01cfae","system_id":"levelo_inurba_marseille","lat":43.31069,"lon":5.38349,"is_reserved":false,"is_disabled":false,"rental_uris":{"android":"levelo://app?vid=b5a794d1-e81a-43e8-8947-b9d42f01cfae","ios":"levelo://app?vid=b5a794d1-e81a-43e8-8947-b9d42f01cfae"},"vehicle_type_id":"4","last_reported":1749892193,"current_range_meters":6000,"station_id":"ce4bgv92rcd13ifvqcr0","pricing_plan_id":"cebpf4jnsgd1na2vs0mg"},{"bike_id":"1c0ac6d9-2856-42f7-82a1-4b37f7811426","system_id":"levelo_inurba_marseille","lat":43.28261,"lon":5.35065,"is_reserved":false,"is_disabled":false,"rental_uris":{"android":"levelo://app?vid=1c0ac6d9-2856-42f7-82a1-4b37f7811426","ios":"levelo://app?vid=1c0ac6d9-2856-42f7-82a1-4b37f7811426"},"vehicle_type_id":"4","last_reported":1749892193,"current_range_meters":6000,"station_id":"ce4bhbp2rcd13ifvqerg","pricing_plan_id":"cebpf4jnsgd1na2vs0mg"},{"bike_id":"dcbe019d-fce5-4823-bd9c-3cd7caf33513","system_id":"levelo_inurba_marseille","lat":43.21744,"lon":5.34603,"is_reserved":false,"is_disabled":false,"rental_uris":{"android":"levelo://app?vid=dcbe019d-fce5-4823-bd9c-3cd7caf33513","ios":"levelo://app?vid=dcbe019d-fce5-4823-bd9c-3cd7caf33513"},"vehicle_type_id":"4","last_reported":1749892193,"current_range_meters":6000,"station_id":"st_cvj6r9ubvosntc0bgbag","pricing_plan_id":"cebpf4jnsgd1na2vs0mg"},{"bike_id":"c3c8d1d2-df2e-42e6-9553-8dbc46575110","system_id":"levelo_inurba_marseille","lat":43.30434,"lon":5.38886,"is_reserved":false,"is_disabled":false,"rental_uris":{"android":"levelo://app?vid=c3c8d1d2-df2e-42e6-9553-8dbc46575110","ios":"levelo://app?vid=c3c8d1d2-df2e-42e6-9553-8dbc46575110"},"vehicle_type_id":"4","last_reported":1749892193,"current_range_meters":6400,"station_id":"ce4bgk12rcd13ifvqbi0","pricing_plan_id":"cebpf4jnsgd1na2vs0mg"},{"bike_id":"2aaf2205-7518-413f-b8a5-97f1c1695d4c","system_id":"levelo_inurba_marseille","lat":43.2315,"lon":5.4371,"is_reserved":false,"is_disabled":false,"rental_uris":{"android":"levelo://app?vid=2aaf2205-7518-413f-b8a5-97f1c1695d4c","ios":"levelo://app?vid=2aaf2205-7518-413f-b8a5-97f1c1695d4c"},"vehicle_type_id":"4","last_reported":1749892193,"current_range_meters":6800,"station_id":"ce4bhmp2rcd13ifvqgog","pricing_plan_id":"cebpf4jnsgd1na2vs0mg"},{"bike_id":"3a11c5a8-e636-4a8e-97c5-5f95a0b7cfbb","system_id":"levelo_inurba_marseille","lat":43.33773,"lon":5.39207,"is_reserved":false,"is_disabled":false,"rental_uris":{"android":"levelo://app?vid=3a11c5a8-e636-4a8e-97c5-5f95a0b7cfbb","ios":"levelo://app?vid=3a11c5a8-e636-4a8e-97c5-5f95a0b7cfbb"},"vehicle_type_id":"4","last_reported":1749892193,"current_range_meters":7200,"station_id":"","pricing_plan_id":"cebpf4jnsgd1na2vs0mg"},{"bike_id":"05d48a39-7517-4063-b93d-80be4e472241","system_id":"levelo_inurba_marseille","lat":43.31629,"lon":5.40503,"is_reserved":false,"is_disabled":false,"rental_uris":{"android":"levelo://app?vid=05d48a39-7517-4063-b93d-80be4e472241","ios":"levelo://app?vid=05d48a39-7517-4063-b93d-80be4e472241"},"vehicle_type_id":"4","last_reported":1749892193,"current_range_meters":7200,"station_id":"","pricing_plan_id":"cebpf4jnsgd1na2vs0mg"},{"bike_id":"e49fb349-10f0-4406-ac8a-76de68b428f5","system_id":"levelo_inurba_marseille","lat":43.29397,"lon":5.39364,"is_reserved":false,"is_disabled":false,"rental_uris":{"android":"levelo://app?vid=e49fb349-10f0-4406-ac8a-76de68b428f5","ios":"levelo://app?vid=e49fb349-10f0-4406-ac8a-76de68b428f5"},"vehicle_type_id":"4","last_reported":1749892193,"current_range_meters":7200,"station_id":"","pricing_plan_id":"cebpf4jnsgd1na2vs0mg"},{"bike_id":"81fe9a8b-dfb7-4bfd-8858-cd6439868da2","system_id":"levelo_inurba_marseille","lat":43.30793,"lon":5.376468,"is_reserved":false,"is_disabled":false,"rental_uris":{"android":"levelo://app?vid=81fe9a8b-dfb7-4bfd-8858-cd6439868da2","ios":"levelo://app?vid=81fe9a8b-dfb7-4bfd-8858-cd6439868da2"},"vehicle_type_id":"4","last_reported":1749892193,"current_range_meters":7200,"station_id":"ce4bgv92rcd13ifvqcq0","pricing_plan_id":"cebpf4jnsgd1na2vs0mg"},{"bike_id":"1a02737e-1ddf-475d-9950-54127761b49d","system_id":"levelo_inurba_marseille","lat":43.29573,"lon":5.42317,"is_reserved":false,"is_disabled":false,"rental_uris":{"android":"levelo://app?vid=1a02737e-1ddf-475d-9950-54127761b49d","ios":"levelo://app?vid=1a02737e-1ddf-475d-9950-54127761b49d"},"vehicle_type_id":"4","last_reported":1749892193,"current_range_meters":7200,"station_id":"ce4bhph2rcd13ifvqhdg","pricing_plan_id":"cebpf4jnsgd1na2vs0mg"},{"bike_id":"26e2572d-2d9b-4252-a754-e30587914fc4","system_id":"levelo_inurba_marseille","lat":43.2319,"lon":5.35557,"is_reserved":false,"is_disabled":false,"rental_uris":{"android":"levelo://app?vid=26e2572d-2d9b-4252-a754-e30587914fc4","ios":"levelo://app?vid=26e2572d-2d9b-4252-a754-e30587914fc4"},"vehicle_type_id":"4","last_reported":1749892193,"current_range_meters":7200,"station_id":"ce4bhu92rcd13ifvqi70","pricing_plan_id":"cebpf4jnsgd1na2vs0mg"},{"bike_id":"b2a60f2e-4440-404f-922b-4f622b972eec","system_id":"levelo_inurba_marseille","lat":43.29787,"lon":5.39053,"is_reserved":false,"is_disabled":false,"rental_uris":{"android":"levelo://app?vid=b2a60f2e-4440-404f-922b-4f622b972eec","ios":"levelo://app?vid=b2a60f2e-4440-404f-922b-4f622b972eec"},"vehicle_type_id":"4","last_reported":1749892193,"current_range_meters":8000,"station_id":"","pricing_plan_id":"cebpf4jnsgd1na2vs0mg"},{"bike_id":"53399d4e-48ae-4bd6-a771-ca52f3904fdf","system_id":"levelo_inurba_marseille","lat":43.30942,"lon":5.40169,"is_reserved":false,"is_disabled":false,"rental_uris":{"android":"levelo://app?vid=53399d4e-48ae-4bd6-a771-ca52f3904fdf","ios":"levelo://app?vid=53399d4e-48ae-4bd6-a771-ca52f3904fdf"},"vehicle_type_id":"4","last_reported":1749892193,"current_range_meters":8000,"station_id":"ce4bgvp2rcd13ifvqct0","pricing_plan_id":"cebpf4jnsgd1na2vs0mg"},{"bike_id":"7a8e251c-eb93-45f7-bacb-e4b0e83e5bab","system_id":"levelo_inurba_marseille","lat":43.32357,"lon":5.36758,"is_reserved":false,"is_disabled":false,"rental_uris":{"android":"levelo://app?vid=7a8e251c-eb93-45f7-bacb-e4b0e83e5bab","ios":"levelo://app?vid=7a8e251c-eb93-45f7-bacb-e4b0e83e5bab"},"vehicle_type_id":"4","last_reported":1749892193,"current_range_meters":8000,"station_id":"ce4bhsh2rcd13ifvqi2g","pricing_plan_id":"cebpf4jnsgd1na2vs0mg"},{"bike_id":"8119ec8e-45e7-4d9b-ba58-8e998f3f2947","system_id":"levelo_inurba_marseille","lat":43.24164,"lon":5.36391,"is_reserved":false,"is_disabled":false,"rental_uris":{"android":"levelo://app?vid=8119ec8e-45e7-4d9b-ba58-8e998f3f2947","ios":"levelo://app?vid=8119ec8e-45e7-4d9b-ba58-8e998f3f2947"},"vehicle_type_id":"4","last_reported":1749892193,"current_range_meters":8000,"station_id":"cpo36qri1sfpv3e86is0","pricing_plan_id":"cebpf4jnsgd1na2vs0mg"},{"bike_id":"346f3f80-6b15-4406-b905-bb78596f5bac","system_id":"levelo_inurba_marseille","lat":43.32307,"lon":5.36682,"is_reserved":false,"is_disabled":false,"rental_uris":{"android":"levelo://app?vid=346f3f80-6b15-4406-b905-bb78596f5bac","ios":"levelo://app?vid=346f3f80-6b15-4406-b905-bb78596f5bac"},"vehicle_type_id":"4","last_reported":1749892193,"current_range_meters":8400,"station_id":"","pricing_plan_id":"cebpf4jnsgd1na2vs0mg"},{"bike_id":"bab3c3d7-1c05-4f9f-aca9-6d707a90022b","system_id":"levelo_inurba_marseille","lat":43.31205,"lon":5.36847,"is_reserved":false,"is_disabled":false,"rental_uris":{"android":"levelo://app?vid=bab3c3d7-1c05-4f9f-aca9-6d707a90022b","ios":"levelo://app?vid=bab3c3d7-1c05-4f9f-aca9-6d707a90022b"},"vehicle_type_id":"4","last_reported":1749892193,"current_range_meters":8400,"station_id":"ce4bgl92rcd13ifvqbq0","pricing_plan_id":"cebpf4jnsgd1na2vs0mg"},{"bike_id":"c442643e-f549-44f2-a0e1-e26b05b6edec","system_id":"levelo_inurba_marseille","lat":43.31119,"lon":5.377625,"is_reserved":false,"is_disabled":false,"rental_uris":{"android":"levelo://app?vid=c442643e-f549-44f2-a0e1-e26b05b6edec","ios":"levelo://app?vid=c442643e-f549-44f2-a0e1-e26b05b6edec"},"vehicle_type_id":"4","last_reported":1749892193,"current_range_meters":8400,"station_id":"ce4bgt92rcd13ifvqcg0","pricing_plan_id":"cebpf4jnsgd1na2vs0mg"},{"bike_id":"8e3fb325-f117-48bf-8c3e-9b779b43fae9","system_id":"levelo_inurba_marseille","lat":43.30926,"lon":5.40157,"is_reserved":false,"is_disabled":false,"rental_uris":{"android":"levelo://app?vid=8e3fb325-f117-48bf-8c3e-9b779b43fae9","ios":"levelo://app?vid=8e3fb325-f117-48bf-8c3e-9b779b43fae9"},"vehicle_type_id":"4","last_reported":1749892193,"current_range_meters":8400,"station_id":"ce4bgvp2rcd13ifvqct0","pricing_plan_id":"cebpf4jnsgd1na2vs0mg"},{"bike_id":"4a5c1d5b-e33e-40cb-a0f5-fdf7ce0e3cb0","system_id":"levelo_inurba_marseille","lat":43.27424,"lon":5.3941,"is_reserved":false,"is_disabled":false,"rental_uris":{"android":"levelo://app?vid=4a5c1d5b-e33e-40cb-a0f5-fdf7ce0e3cb0","ios":"levelo://app?vid=4a5c1d5b-e33e-40cb-a0f5-fdf7ce0e3cb0"},"vehicle_type_id":"4","last_reported":1749892193,"current_range_meters":8400,"station_id":"ce4bhdp2rcd13ifvqf20","pricing_plan_id":"cebpf4jnsgd1na2vs0mg"},{"bike_id":"99f9aed6-c8c9-4a53-9979-6c490ee0d3f8","system_id":"levelo_inurba_marseille","lat":43.30464,"lon":5.37907,"is_reserved":false,"is_disabled":false,"rental_uris":{"android":"levelo://app?vid=99f9aed6-c8c9-4a53-9979-6c490ee0d3f8","ios":"levelo://app?vid=99f9aed6-c8c9-4a53-9979-6c490ee0d3f8"},"vehicle_type_id":"4","last_reported":1749892193,"current_range_meters":8800,"station_id":"ce4bgup2rcd13ifvqcn0","pricing_plan_id":"cebpf4jnsgd1na2vs0mg"},{"bike_id":"8634d6ea-1b0c-4e70-8d3e-7723913fd995","system_id":"levelo_inurba_marseille","lat":43.25498,"lon":5.37654,"is_reserved":false,"is_disabled":false,"rental_uris":{"android":"levelo://app?vid=8634d6ea-1b0c-4e70-8d3e-7723913fd995","ios":"levelo://app?vid=8634d6ea-1b0c-4e70-8d3e-7723913fd995"},"vehicle_type_id":"4","last_reported":1749892193,"current_range_meters":8800,"station_id":"ce4bhh12rcd13ifvqff0","pricing_plan_id":"cebpf4jnsgd1na2vs0mg"},{"bike_id":"8d819a86-6511-4910-a5fa-c35d22869085","system_id":"levelo_inurba_marseille","lat":43.241658,"lon":5.363936,"is_reserved":false,"is_disabled":false,"rental_uris":{"android":"levelo://app?vid=8d819a86-6511-4910-a5fa-c35d22869085","ios":"levelo://app?vid=8d819a86-6511-4910-a5fa-c35d22869085"},"vehicle_type_id":"4","last_reported":1749892193,"current_range_meters":8800,"station_id":"cpo36qri1sfpv3e86is0","pricing_plan_id":"cebpf4jnsgd1na2vs0mg"},{"bike_id":"62813162-aab6-47f7-ae4e-5f8a0b392519","system_id":"levelo_inurba_marseille","lat":43.24737,"lon":5.41167,"is_reserved":false,"is_disabled":false,"rental_uris":{"android":"levelo://app?vid=62813162-aab6-47f7-ae4e-5f8a0b392519","ios":"levelo://app?vid=62813162-aab6-47f7-ae4e-5f8a0b392519"},"vehicle_type_id":"4","last_reported":1749892193,"current_range_meters":9200,"station_id":"","pricing_plan_id":"cebpf4jnsgd1na2vs0mg"},{"bike_id":"6facbc0d-f1b5-4dc3-86d4-5c1204834925","system_id":"levelo_inurba_marseille","lat":43.28048,"lon":5.34791,"is_reserved":false,"is_disabled":false,"rental_uris":{"android":"levelo://app?vid=6facbc0d-f1b5-4dc3-86d4-5c1204834925","ios":"levelo://app?vid=6facbc0d-f1b5-4dc3-86d4-5c1204834925"},"vehicle_type_id":"4","last_reported":1749892193,"current_range_meters":9200,"station_id":"","pricing_plan_id":"cebpf4jnsgd1na2vs0mg"},{"bike_id":"c1320862-b0e1-4489-9eb7-31625be93d71","system_id":"levelo_inurba_marseille","lat":43.31488,"lon":5.37303,"is_reserved":false,"is_disabled":false,"rental_uris":{"android":"levelo://app?vid=c1320862-b0e1-4489-9eb7-31625be93d71","ios":"levelo://app?vid=c1320862-b0e1-4489-9eb7-31625be93d71"},"vehicle_type_id":"4","last_reported":1749892193,"current_range_meters":9200,"station_id":"ce4bgt12rcd13ifvqcd0","pricing_plan_id":"cebpf4jnsgd1na2vs0mg"},{"bike_id":"45df05f7-fb08-4dfe-96a6-c5e658c570db","system_id":"levelo_inurba_marseille","lat":43.30945,"lon":5.40152,"is_reserved":false,"is_disabled":false,"rental_uris":{"android":"levelo://app?vid=45df05f7-fb08-4dfe-96a6-c5e658c570db","ios":"levelo://app?vid=45df05f7-fb08-4dfe-96a6-c5e658c570db"},"vehicle_type_id":"4","last_reported":1749892193,"current_range_meters":9200,"station_id":"ce4bgvp2rcd13ifvqct0","pricing_plan_id":"cebpf4jnsgd1na2vs0mg"},{"bike_id":"01d73d53-36ca-49d8-bdea-4a1067e544c3","system_id":"levelo_inurba_marseille","lat":43.31327,"lon":5.396856,"is_reserved":false,"is_disabled":false,"rental_uris":{"android":"levelo://app?vid=01d73d53-36ca-49d8-bdea-4a1067e544c3","ios":"levelo://app?vid=01d73d53-36ca-49d8-bdea-4a1067e544c3"},"vehicle_type_id":"4","last_reported":1749892193,"current_range_meters":9200,"station_id":"ce4bgvp2rcd13ifvqcu0","pricing_plan_id":"cebpf4jnsgd1na2vs0mg"},{"bike_id":"b5dd8b42-cf70-4fe0-b100-df9c12d7f33e","system_id":"levelo_inurba_marseille","lat":43.27368,"lon":5.36258,"is_reserved":false,"is_disabled":false,"rental_uris":{"android":"levelo://app?vid=b5dd8b42-cf70-4fe0-b100-df9c12d7f33e","ios":"levelo://app?vid=b5dd8b42-cf70-4fe0-b100-df9c12d7f33e"},"vehicle_type_id":"4","last_reported":1749892193,"current_range_meters":9200,"station_id":"ce4bhbh2rcd13ifvqeo0","pricing_plan_id":"cebpf4jnsgd1na2vs0mg"},{"bike_id":"4b543e03-70dc-45aa-9b58-e60a94500b7e","system_id":"levelo_inurba_marseille","lat":43.29447,"lon":5.37561,"is_reserved":false,"is_disabled":false,"rental_uris":{"android":"levelo://app?vid=4b543e03-70dc-45aa-9b58-e60a94500b7e","ios":"levelo://app?vid=4b543e03-70dc-45aa-9b58-e60a94500b7e"},"vehicle_type_id":"4","last_reported":1749892193,"current_range_meters":9600,"station_id":"","pricing_plan_id":"cebpf4jnsgd1na2vs0mg"},{"bike_id":"8c629756-a9dc-4618-8dde-191c9aeb9d5d","system_id":"levelo_inurba_marseille","lat":43.28266,"lon":5.35065,"is_reserved":false,"is_disabled":false,"rental_uris":{"android":"levelo://app?vid=8c629756-a9dc-4618-8dde-191c9aeb9d5d","ios":"levelo://app?vid=8c629756-a9dc-4618-8dde-191c9aeb9d5d"},"vehicle_type_id":"4","last_reported":1749892193,"current_range_meters":9600,"station_id":"ce4bhbp2rcd13ifvqerg","pricing_plan_id":"cebpf4jnsgd1na2vs0mg"},{"bike_id":"7a37726e-be8a-4bdd-848c-4f5b3cae5103","system_id":"levelo_inurba_marseille","lat":43.24539,"lon":5.39521,"is_reserved":false,"is_disabled":false,"rental_uris":{"android":"levelo://app?vid=7a37726e-be8a-4bdd-848c-4f5b3cae5103","ios":"levelo://app?vid=7a37726e-be8a-4bdd-848c-4f5b3cae5103"},"vehicle_type_id":"4","last_reported":1749892193,"current_range_meters":9600,"station_id":"ce4bhlp2rcd13ifvqgjg","pricing_plan_id":"cebpf4jnsgd1na2vs0mg"},{"bike_id":"5b1f31de-5df7-424e-9413-53d633cb423a","system_id":"levelo_inurba_marseille","lat":43.23149,"lon":5.43723,"is_reserved":false,"is_disabled":false,"rental_uris":{"android":"levelo://app?vid=5b1f31de-5df7-424e-9413-53d633cb423a","ios":"levelo://app?vid=5b1f31de-5df7-424e-9413-53d633cb423a"},"vehicle_type_id":"4","last_reported":1749892193,"current_range_meters":9600,"station_id":"ce4bhmp2rcd13ifvqgog","pricing_plan_id":"cebpf4jnsgd1na2vs0mg"},{"bike_id":"326cc913-bdbc-48c2-9a88-414846f09512","system_id":"levelo_inurba_marseille","lat":43.3235,"lon":5.36749,"is_reserved":false,"is_disabled":false,"rental_uris":{"android":"levelo://app?vid=326cc913-bdbc-48c2-9a88-414846f09512","ios":"levelo://app?vid=326cc913-bdbc-48c2-9a88-414846f09512"},"vehicle_type_id":"4","last_reported":1749892193,"current_range_meters":9600,"station_id":"ce4bhsh2rcd13ifvqi2g","pricing_plan_id":"cebpf4jnsgd1na2vs0mg"},{"bike_id":"928e59e6-77f0-4000-a52d-b34fc20aa3c4","system_id":"levelo_inurba_marseille","lat":43.29841,"lon":5.36275,"is_reserved":false,"is_disabled":false,"rental_uris":{"android":"levelo://app?vid=928e59e6-77f0-4000-a52d-b34fc20aa3c4","ios":"levelo://app?vid=928e59e6-77f0-4000-a52d-b34fc20aa3c4"},"vehicle_type_id":"4","last_reported":1749892193,"current_range_meters":10000,"station_id":"ce4bgpp2rcd13ifvqc3g","pricing_plan_id":"cebpf4jnsgd1na2vs0mg"},{"bike_id":"6ef69d11-a136-4d99-90e1-755476fb40e2","system_id":"levelo_inurba_marseille","lat":43.28273,"lon":5.3507,"is_reserved":false,"is_disabled":false,"rental_uris":{"android":"levelo://app?vid=6ef69d11-a136-4d99-90e1-755476fb40e2","ios":"levelo://app?vid=6ef69d11-a136-4d99-90e1-755476fb40e2"},"vehicle_type_id":"4","last_reported":1749892193,"current_range_meters":10000,"station_id":"ce4bhbp2rcd13ifvqerg","pricing_plan_id":"cebpf4jnsgd1na2vs0mg"},{"bike_id":"cf2eecfd-68cb-44cc-943a-6e29380a8e5e","system_id":"levelo_inurba_marseille","lat":43.29501,"lon":5.38694,"is_reserved":false,"is_disabled":false,"rental_uris":{"android":"levelo://app?vid=cf2eecfd-68cb-44cc-943a-6e29380a8e5e","ios":"levelo://app?vid=cf2eecfd-68cb-44cc-943a-6e29380a8e5e"},"vehicle_type_id":"4","last_reported":1749892193,"current_range_meters":10800,"station_id":"","pricing_plan_id":"cebpf4jnsgd1na2vs0mg"},{"bike_id":"87c270dc-4fcf-4263-8f57-a07ca944f869","system_id":"levelo_inurba_marseille","lat":43.31242,"lon":5.39487,"is_reserved":false,"is_disabled":false,"rental_uris":{"android":"levelo://app?vid=87c270dc-4fcf-4263-8f57-a07ca944f869","ios":"levelo://app?vid=87c270dc-4fcf-4263-8f57-a07ca944f869"},"vehicle_type_id":"4","last_reported":1749892193,"current_range_meters":10800,"station_id":"","pricing_plan_id":"cebpf4jnsgd1na2vs0mg"},{"bike_id":"8206dbe7-d39a-4f23-9de3-4605e19050fc","system_id":"levelo_inurba_marseille","lat":43.31227,"lon":5.36865,"is_reserved":false,"is_disabled":false,"rental_uris":{"android":"levelo://app?vid=8206dbe7-d39a-4f23-9de3-4605e19050fc","ios":"levelo://app?vid=8206dbe7-d39a-4f23-9de3-4605e19050fc"},"vehicle_type_id":"4","last_reported":1749892193,"current_range_meters":10800,"station_id":"ce4bgl92rcd13ifvqbq0","pricing_plan_id":"cebpf4jnsgd1na2vs0mg"},{"bike_id":"0649a92e-cf93-4895-8b79-01b2ffe4a994","system_id":"levelo_inurba_marseille","lat":43.29715,"lon":5.37699,"is_reserved":false,"is_disabled":false,"rental_uris":{"android":"levelo://app?vid=0649a92e-cf93-4895-8b79-01b2ffe4a994","ios":"levelo://app?vid=0649a92e-cf93-4895-8b79-01b2ffe4a994"},"vehicle_type_id":"4","last_reported":1749892193,"current_range_meters":11200,"station_id":"ce4bgkh2rcd13ifvqbl0","pricing_plan_id":"cebpf4jnsgd1na2vs0mg"},{"bike_id":"79d8670f-ef9a-448d-ae14-06b25ea9d59c","system_id":"levelo_inurba_marseille","lat":43.30519,"lon":5.36535,"is_reserved":false,"is_disabled":false,"rental_uris":{"android":"levelo://app?vid=79d8670f-ef9a-448d-ae14-06b25ea9d59c","ios":"levelo://app?vid=79d8670f-ef9a-448d-ae14-06b25ea9d59c"},"vehicle_type_id":"4","last_reported":1749892193,"current_range_meters":11200,"station_id":"ce4bgs12rcd13ifvqcag","pricing_plan_id":"cebpf4jnsgd1na2vs0mg"},{"bike_id":"2ab31527-f915-4286-b3a0-0beafd2cdd50","system_id":"levelo_inurba_marseille","lat":43.30004,"lon":5.36992,"is_reserved":false,"is_disabled":false,"rental_uris":{"android":"levelo://app?vid=2ab31527-f915-4286-b3a0-0beafd2cdd50","ios":"levelo://app?vid=2ab31527-f915-4286-b3a0-0beafd2cdd50"},"vehicle_type_id":"4","last_reported":1749892193,"current_range_meters":11600,"station_id":"","pricing_plan_id":"cebpf4jnsgd1na2vs0mg"},{"bike_id":"8c57efe1-9700-4869-9a85-3d01ad93e9bc","system_id":"levelo_inurba_marseille","lat":43.31495,"lon":5.37293,"is_reserved":false,"is_disabled":false,"rental_uris":{"android":"levelo://app?vid=8c57efe1-9700-4869-9a85-3d01ad93e9bc","ios":"levelo://app?vid=8c57efe1-9700-4869-9a85-3d01ad93e9bc"},"vehicle_type_id":"4","last_reported":1749892193,"current_range_meters":11600,"station_id":"ce4bgt12rcd13ifvqcd0","pricing_plan_id":"cebpf4jnsgd1na2vs0mg"},{"bike_id":"c668246c-155b-4b55-902a-e132d711d30b","system_id":"levelo_inurba_marseille","lat":43.24545,"lon":5.3952,"is_reserved":false,"is_disabled":false,"rental_uris":{"android":"levelo://app?vid=c668246c-155b-4b55-902a-e132d711d30b","ios":"levelo://app?vid=c668246c-155b-4b55-902a-e132d711d30b"},"vehicle_type_id":"4","last_reported":1749892193,"current_range_meters":11600,"station_id":"ce4bhlp2rcd13ifvqgjg","pricing_plan_id":"cebpf4jnsgd1na2vs0mg"},{"bike_id":"0afcb599-3d9f-4bc3-a6eb-ed35bcfdac84","system_id":"levelo_inurba_marseille","lat":43.23188,"lon":5.35551,"is_reserved":false,"is_disabled":false,"rental_uris":{"android":"levelo://app?vid=0afcb599-3d9f-4bc3-a6eb-ed35bcfdac84","ios":"levelo://app?vid=0afcb599-3d9f-4bc3-a6eb-ed35bcfdac84"},"vehicle_type_id":"4","last_reported":1749892193,"current_range_meters":11600,"station_id":"ce4bhu92rcd13ifvqi70","pricing_plan_id":"cebpf4jnsgd1na2vs0mg"},{"bike_id":"23bfc705-acbc-484d-9e6a-f0778cfea6f5","system_id":"levelo_inurba_marseille","lat":43.34265,"lon":5.385754,"is_reserved":false,"is_disabled":false,"rental_uris":{"android":"levelo://app?vid=23bfc705-acbc-484d-9e6a-f0778cfea6f5","ios":"levelo://app?vid=23bfc705-acbc-484d-9e6a-f0778cfea6f5"},"vehicle_type_id":"4","last_reported":1749892193,"current_range_meters":12000,"station_id":"","pricing_plan_id":"cebpf4jnsgd1na2vs0mg"},{"bike_id":"aba49e60-1ad7-45de-95e3-dddcfff94f91","system_id":"levelo_inurba_marseille","lat":43.26545,"lon":5.37994,"is_reserved":false,"is_disabled":false,"rental_uris":{"android":"levelo://app?vid=aba49e60-1ad7-45de-95e3-dddcfff94f91","ios":"levelo://app?vid=aba49e60-1ad7-45de-95e3-dddcfff94f91"},"vehicle_type_id":"4","last_reported":1749892193,"current_range_meters":12000,"station_id":"","pricing_plan_id":"cebpf4jnsgd1na2vs0mg"},{"bike_id":"7735772a-7d0b-4197-9827-c53faa24efe1","system_id":"levelo_inurba_marseille","lat":43.31686,"lon":5.40469,"is_reserved":false,"is_disabled":false,"rental_uris":{"android":"levelo://app?vid=7735772a-7d0b-4197-9827-c53faa24efe1","ios":"levelo://app?vid=7735772a-7d0b-4197-9827-c53faa24efe1"},"vehicle_type_id":"4","last_reported":1749892193,"current_range_meters":12000,"station_id":"ce4bh012rcd13ifvqd00","pricing_plan_id":"cebpf4jnsgd1na2vs0mg"},{"bike_id":"21e8d7c5-f005-4a94-a57d-3aa39ecfb625","system_id":"levelo_inurba_marseille","lat":43.27371,"lon":5.36258,"is_reserved":false,"is_disabled":false,"rental_uris":{"android":"levelo://app?vid=21e8d7c5-f005-4a94-a57d-3aa39ecfb625","ios":"levelo://app?vid=21e8d7c5-f005-4a94-a57d-3aa39ecfb625"},"vehicle_type_id":"4","last_reported":1749892193,"current_range_meters":12000,"station_id":"ce4bhbh2rcd13ifvqeo0","pricing_plan_id":"cebpf4jnsgd1na2vs0mg"},{"bike_id":"191524f3-267f-4467-9ea7-6cd874a9eea3","system_id":"levelo_inurba_marseille","lat":43.30408,"lon":5.41283,"is_reserved":false,"is_disabled":false,"rental_uris":{"android":"levelo://app?vid=191524f3-267f-4467-9ea7-6cd874a9eea3","ios":"levelo://app?vid=191524f3-267f-4467-9ea7-6cd874a9eea3"},"vehicle_type_id":"4","last_reported":1749892193,"current_range_meters":12000,"station_id":"ce4bhop2rcd13ifvqh8g","pricing_plan_id":"cebpf4jnsgd1na2vs0mg"},{"bike_id":"55b07c82-469c-46f6-863b-3a22be845322","system_id":"levelo_inurba_marseille","lat":43.337444,"lon":5.374475,"is_reserved":false,"is_disabled":false,"rental_uris":{"android":"levelo://app?vid=55b07c82-469c-46f6-863b-3a22be845322","ios":"levelo://app?vid=55b07c82-469c-46f6-863b-3a22be845322"},"vehicle_type_id":"4","last_reported":1749892193,"current_range_meters":12400,"station_id":"ce4bgvp2rcd13ifvqcu0","pricing_plan_id":"cebpf4jnsgd1na2vs0mg"},{"bike_id":"e6c1e479-1f65-4943-8dba-d8d0e03f3cca","system_id":"levelo_inurba_marseille","lat":43.2826,"lon":5.35062,"is_reserved":false,"is_disabled":false,"rental_uris":{"android":"levelo://app?vid=e6c1e479-1f65-4943-8dba-d8d0e03f3cca","ios":"levelo://app?vid=e6c1e479-1f65-4943-8dba-d8d0e03f3cca"},"vehicle_type_id":"4","last_reported":1749892193,"current_range_meters":12400,"station_id":"ce4bhbp2rcd13ifvqerg","pricing_plan_id":"cebpf4jnsgd1na2vs0mg"},{"bike_id":"9606f265-3c1a-4b0c-9b31-0ec9969ea88a","system_id":"levelo_inurba_marseille","lat":43.265558,"lon":5.372852,"is_reserved":false,"is_disabled":false,"rental_uris":{"android":"levelo://app?vid=9606f265-3c1a-4b0c-9b31-0ec9969ea88a","ios":"levelo://app?vid=9606f265-3c1a-4b0c-9b31-0ec9969ea88a"},"vehicle_type_id":"4","last_reported":1749892193,"current_range_meters":12400,"station_id":"ce4bhg12rcd13ifvqf70","pricing_plan_id":"cebpf4jnsgd1na2vs0mg"},{"bike_id":"0bd356a4-46ef-4af6-8ac2-85cabb6005eb","system_id":"levelo_inurba_marseille","lat":43.30423,"lon":5.41268,"is_reserved":false,"is_disabled":false,"rental_uris":{"android":"levelo://app?vid=0bd356a4-46ef-4af6-8ac2-85cabb6005eb","ios":"levelo://app?vid=0bd356a4-46ef-4af6-8ac2-85cabb6005eb"},"vehicle_type_id":"4","last_reported":1749892193,"current_range_meters":12400,"station_id":"ce4bhop2rcd13ifvqh8g","pricing_plan_id":"cebpf4jnsgd1na2vs0mg"},{"bike_id":"f3ec16b2-8afd-4ecb-8d58-15a6a90ff603","system_id":"levelo_inurba_marseille","lat":43.3235,"lon":5.36738,"is_reserved":false,"is_disabled":false,"rental_uris":{"android":"levelo://app?vid=f3ec16b2-8afd-4ecb-8d58-15a6a90ff603","ios":"levelo://app?vid=f3ec16b2-8afd-4ecb-8d58-15a6a90ff603"},"vehicle_type_id":"4","last_reported":1749892193,"current_range_meters":12800,"station_id":"ce4bhsh2rcd13ifvqi2g","pricing_plan_id":"cebpf4jnsgd1na2vs0mg"},{"bike_id":"8e8899f0-4aff-43f9-9f62-ce6bf69d0612","system_id":"levelo_inurba_marseille","lat":43.31187,"lon":5.40175,"is_reserved":false,"is_disabled":false,"rental_uris":{"android":"levelo://app?vid=8e8899f0-4aff-43f9-9f62-ce6bf69d0612","ios":"levelo://app?vid=8e8899f0-4aff-43f9-9f62-ce6bf69d0612"},"vehicle_type_id":"4","last_reported":1749892193,"current_range_meters":13600,"station_id":"","pricing_plan_id":"cebpf4jnsgd1na2vs0mg"},{"bike_id":"4a5f6379-ff3a-49dc-b361-bc1a2e456432","system_id":"levelo_inurba_marseille","lat":43.30528,"lon":5.36526,"is_reserved":false,"is_disabled":false,"rental_uris":{"android":"levelo://app?vid=4a5f6379-ff3a-49dc-b361-bc1a2e456432","ios":"levelo://app?vid=4a5f6379-ff3a-49dc-b361-bc1a2e456432"},"vehicle_type_id":"4","last_reported":1749892193,"current_range_meters":13600,"station_id":"ce4bgs12rcd13ifvqcag","pricing_plan_id":"cebpf4jnsgd1na2vs0mg"},{"bike_id":"bde03825-129b-4ed6-bfec-eecb4648db5a","system_id":"levelo_inurba_marseille","lat":43.31327,"lon":5.39698,"is_reserved":false,"is_disabled":false,"rental_uris":{"android":"levelo://app?vid=bde03825-129b-4ed6-bfec-eecb4648db5a","ios":"levelo://app?vid=bde03825-129b-4ed6-bfec-eecb4648db5a"},"vehicle_type_id":"4","last_reported":1749892193,"current_range_meters":13600,"station_id":"ce4bgvp2rcd13ifvqcu0","pricing_plan_id":"cebpf4jnsgd1na2vs0mg"},{"bike_id":"f2404481-86a2-4ce2-81b9-adf96a84b46d","system_id":"levelo_inurba_marseille","lat":43.25079,"lon":5.39521,"is_reserved":false,"is_disabled":false,"rental_uris":{"android":"levelo://app?vid=f2404481-86a2-4ce2-81b9-adf96a84b46d","ios":"levelo://app?vid=f2404481-86a2-4ce2-81b9-adf96a84b46d"},"vehicle_type_id":"4","last_reported":1749892193,"current_range_meters":13600,"station_id":"ce4bhm12rcd13ifvqgkg","pricing_plan_id":"cebpf4jnsgd1na2vs0mg"},{"bike_id":"96e759f6-f461-43d8-8995-34350965e758","system_id":"levelo_inurba_marseille","lat":43.31225,"lon":5.36843,"is_reserved":false,"is_disabled":false,"rental_uris":{"android":"levelo://app?vid=96e759f6-f461-43d8-8995-34350965e758","ios":"levelo://app?vid=96e759f6-f461-43d8-8995-34350965e758"},"vehicle_type_id":"4","last_reported":1749892193,"current_range_meters":14000,"station_id":"ce4bgl92rcd13ifvqbq0","pricing_plan_id":"cebpf4jnsgd1na2vs0mg"},{"bike_id":"6f66d109-ee2e-4707-9172-4dcd3d407a7d","system_id":"levelo_inurba_marseille","lat":43.31492,"lon":5.37308,"is_reserved":false,"is_disabled":false,"rental_uris":{"android":"levelo://app?vid=6f66d109-ee2e-4707-9172-4dcd3d407a7d","ios":"levelo://app?vid=6f66d109-ee2e-4707-9172-4dcd3d407a7d"},"vehicle_type_id":"4","last_reported":1749892193,"current_range_meters":14000,"station_id":"ce4bgt12rcd13ifvqcd0","pricing_plan_id":"cebpf4jnsgd1na2vs0mg"},{"bike_id":"5a9fad7a-f8af-452b-9053-2bd41ff90e82","system_id":"levelo_inurba_marseille","lat":43.28267,"lon":5.35064,"is_reserved":false,"is_disabled":false,"rental_uris":{"android":"levelo://app?vid=5a9fad7a-f8af-452b-9053-2bd41ff90e82","ios":"levelo://app?vid=5a9fad7a-f8af-452b-9053-2bd41ff90e82"},"vehicle_type_id":"4","last_reported":1749892193,"current_range_meters":14000,"station_id":"ce4bhbp2rcd13ifvqerg","pricing_plan_id":"cebpf4jnsgd1na2vs0mg"},{"bike_id":"f1802e14-9bed-4079-8aae-6f37640f0550","system_id":"levelo_inurba_marseille","lat":43.24802,"lon":5.37455,"is_reserved":false,"is_disabled":false,"rental_uris":{"android":"levelo://app?vid=f1802e14-9bed-4079-8aae-6f37640f0550","ios":"levelo://app?vid=f1802e14-9bed-4079-8aae-6f37640f0550"},"vehicle_type_id":"4","last_reported":1749892193,"current_range_meters":14000,"station_id":"ce4bhgh2rcd13ifvqfb0","pricing_plan_id":"cebpf4jnsgd1na2vs0mg"},{"bike_id":"75ac12dd-4ac9-4201-b6cf-0f9194fc4534","system_id":"levelo_inurba_marseille","lat":43.25078,"lon":5.39507,"is_reserved":false,"is_disabled":false,"rental_uris":{"android":"levelo://app?vid=75ac12dd-4ac9-4201-b6cf-0f9194fc4534","ios":"levelo://app?vid=75ac12dd-4ac9-4201-b6cf-0f9194fc4534"},"vehicle_type_id":"4","last_reported":1749892193,"current_range_meters":14000,"station_id":"ce4bhm12rcd13ifvqgkg","pricing_plan_id":"cebpf4jnsgd1na2vs0mg"},{"bike_id":"c9711454-3d20-44d7-9f9f-02509d5327e4","system_id":"levelo_inurba_marseille","lat":43.23154,"lon":5.43706,"is_reserved":false,"is_disabled":false,"rental_uris":{"android":"levelo://app?vid=c9711454-3d20-44d7-9f9f-02509d5327e4","ios":"levelo://app?vid=c9711454-3d20-44d7-9f9f-02509d5327e4"},"vehicle_type_id":"4","last_reported":1749892193,"current_range_meters":14000,"station_id":"ce4bhmp2rcd13ifvqgog","pricing_plan_id":"cebpf4jnsgd1na2vs0mg"},{"bike_id":"725f3454-84a4-4068-9049-76d824234001","system_id":"levelo_inurba_marseille","lat":43.3081,"lon":5.38126,"is_reserved":false,"is_disabled":false,"rental_uris":{"android":"levelo://app?vid=725f3454-84a4-4068-9049-76d824234001","ios":"levelo://app?vid=725f3454-84a4-4068-9049-76d824234001"},"vehicle_type_id":"4","last_reported":1749892193,"current_range_meters":14400,"station_id":"ce4bgt12rcd13ifvqce0","pricing_plan_id":"cebpf4jnsgd1na2vs0mg"},{"bike_id":"e58b59d3-8e46-4ae6-b2f3-aced5ca5f6af","system_id":"levelo_inurba_marseille","lat":43.27369,"lon":5.36251,"is_reserved":false,"is_disabled":false,"rental_uris":{"android":"levelo://app?vid=e58b59d3-8e46-4ae6-b2f3-aced5ca5f6af","ios":"levelo://app?vid=e58b59d3-8e46-4ae6-b2f3-aced5ca5f6af"},"vehicle_type_id":"4","last_reported":1749892193,"current_range_meters":14400,"station_id":"ce4bhbh2rcd13ifvqeo0","pricing_plan_id":"cebpf4jnsgd1na2vs0mg"},{"bike_id":"300f466f-ffc6-4394-acd1-1a4d925af8be","system_id":"levelo_inurba_marseille","lat":43.21736,"lon":5.34601,"is_reserved":false,"is_disabled":false,"rental_uris":{"android":"levelo://app?vid=300f466f-ffc6-4394-acd1-1a4d925af8be","ios":"levelo://app?vid=300f466f-ffc6-4394-acd1-1a4d925af8be"},"vehicle_type_id":"4","last_reported":1749892193,"current_range_meters":14400,"station_id":"st_cvj6r9ubvosntc0bgbag","pricing_plan_id":"cebpf4jnsgd1na2vs0mg"},{"bike_id":"819d3120-884f-4863-ba38-f4d30dbff88d","system_id":"levelo_inurba_marseille","lat":43.30425,"lon":5.41287,"is_reserved":false,"is_disabled":false,"rental_uris":{"android":"levelo://app?vid=819d3120-884f-4863-ba38-f4d30dbff88d","ios":"levelo://app?vid=819d3120-884f-4863-ba38-f4d30dbff88d"},"vehicle_type_id":"4","last_reported":1749892193,"current_range_meters":14800,"station_id":"ce4bhop2rcd13ifvqh8g","pricing_plan_id":"cebpf4jnsgd1na2vs0mg"},{"bike_id":"2cf8fef9-3c36-4c67-a8de-84e157d87623","system_id":"levelo_inurba_marseille","lat":43.320435,"lon":5.4153,"is_reserved":false,"is_disabled":false,"rental_uris":{"android":"levelo://app?vid=2cf8fef9-3c36-4c67-a8de-84e157d87623","ios":"levelo://app?vid=2cf8fef9-3c36-4c67-a8de-84e157d87623"},"vehicle_type_id":"4","last_reported":1749892193,"current_range_meters":14800,"station_id":"ce4bhq92rcd13ifvqhkg","pricing_plan_id":"cebpf4jnsgd1na2vs0mg"},{"bike_id":"76501bb7-59ce-429d-99b6-2a55fe9c9679","system_id":"levelo_inurba_marseille","lat":43.24168,"lon":5.36391,"is_reserved":false,"is_disabled":false,"rental_uris":{"android":"levelo://app?vid=76501bb7-59ce-429d-99b6-2a55fe9c9679","ios":"levelo://app?vid=76501bb7-59ce-429d-99b6-2a55fe9c9679"},"vehicle_type_id":"4","last_reported":1749892193,"current_range_meters":14800,"station_id":"cpo36qri1sfpv3e86is0","pricing_plan_id":"cebpf4jnsgd1na2vs0mg"},{"bike_id":"e34e670b-4318-4b23-852e-c8168f51e05d","system_id":"levelo_inurba_marseille","lat":43.28264,"lon":5.3506,"is_reserved":false,"is_disabled":false,"rental_uris":{"android":"levelo://app?vid=e34e670b-4318-4b23-852e-c8168f51e05d","ios":"levelo://app?vid=e34e670b-4318-4b23-852e-c8168f51e05d"},"vehicle_type_id":"4","last_reported":1749892193,"current_range_meters":15200,"station_id":"ce4bhbp2rcd13ifvqerg","pricing_plan_id":"cebpf4jnsgd1na2vs0mg"},{"bike_id":"d220462c-df82-43a0-ad36-1fbfa929cb06","system_id":"levelo_inurba_marseille","lat":43.28266,"lon":5.35073,"is_reserved":false,"is_disabled":false,"rental_uris":{"android":"levelo://app?vid=d220462c-df82-43a0-ad36-1fbfa929cb06","ios":"levelo://app?vid=d220462c-df82-43a0-ad36-1fbfa929cb06"},"vehicle_type_id":"4","last_reported":1749892193,"current_range_meters":15200,"station_id":"ce4bhbp2rcd13ifvqerg","pricing_plan_id":"cebpf4jnsgd1na2vs0mg"},{"bike_id":"5d2a31ee-68f2-4bf3-90dd-5916471bbad6","system_id":"levelo_inurba_marseille","lat":43.26215,"lon":5.37439,"is_reserved":false,"is_disabled":false,"rental_uris":{"android":"levelo://app?vid=5d2a31ee-68f2-4bf3-90dd-5916471bbad6","ios":"levelo://app?vid=5d2a31ee-68f2-4bf3-90dd-5916471bbad6"},"vehicle_type_id":"4","last_reported":1749892193,"current_range_meters":15200,"station_id":"ce4bhgp2rcd13ifvqfc0","pricing_plan_id":"cebpf4jnsgd1na2vs0mg"},{"bike_id":"c3eec97b-9234-4fbe-b919-6448e406ffbe","system_id":"levelo_inurba_marseille","lat":43.25829,"lon":5.39422,"is_reserved":false,"is_disabled":false,"rental_uris":{"android":"levelo://app?vid=c3eec97b-9234-4fbe-b919-6448e406ffbe","ios":"levelo://app?vid=c3eec97b-9234-4fbe-b919-6448e406ffbe"},"vehicle_type_id":"4","last_reported":1749892193,"current_range_meters":15200,"station_id":"ce4bhip2rcd13ifvqft0","pricing_plan_id":"cebpf4jnsgd1na2vs0mg"},{"bike_id":"7bbea268-7e10-4726-af89-c73005574248","system_id":"levelo_inurba_marseille","lat":43.30377,"lon":5.42489,"is_reserved":false,"is_disabled":false,"rental_uris":{"android":"levelo://app?vid=7bbea268-7e10-4726-af89-c73005574248","ios":"levelo://app?vid=7bbea268-7e10-4726-af89-c73005574248"},"vehicle_type_id":"4","last_reported":1749892193,"current_range_meters":15200,"station_id":"ce4bhoh2rcd13ifvqh6g","pricing_plan_id":"cebpf4jnsgd1na2vs0mg"},{"bike_id":"ccb9975b-34a8-47da-b755-e17344ae18d3","system_id":"levelo_inurba_marseille","lat":43.23191,"lon":5.35549,"is_reserved":false,"is_disabled":false,"rental_uris":{"android":"levelo://app?vid=ccb9975b-34a8-47da-b755-e17344ae18d3","ios":"levelo://app?vid=ccb9975b-34a8-47da-b755-e17344ae18d3"},"vehicle_type_id":"4","last_reported":1749892193,"current_range_meters":15200,"station_id":"ce4bhu92rcd13ifvqi70","pricing_plan_id":"cebpf4jnsgd1na2vs0mg"},{"bike_id":"efd9c384-daa9-4013-b288-e4e1f794d48f","system_id":"levelo_inurba_marseille","lat":43.30028,"lon":5.40116,"is_reserved":false,"is_disabled":false,"rental_uris":{"android":"levelo://app?vid=efd9c384-daa9-4013-b288-e4e1f794d48f","ios":"levelo://app?vid=efd9c384-daa9-4013-b288-e4e1f794d48f"},"vehicle_type_id":"4","last_reported":1749892193,"current_range_meters":16000,"station_id":"","pricing_plan_id":"cebpf4jnsgd1na2vs0mg"},{"bike_id":"65eaccc7-66b1-4ca3-be94-1aec405d13fa","system_id":"levelo_inurba_marseille","lat":43.2903,"lon":5.39997,"is_reserved":false,"is_disabled":false,"rental_uris":{"android":"levelo://app?vid=65eaccc7-66b1-4ca3-be94-1aec405d13fa","ios":"levelo://app?vid=65eaccc7-66b1-4ca3-be94-1aec405d13fa"},"vehicle_type_id":"4","last_reported":1749892193,"current_range_meters":16000,"station_id":"ce4bh392rcd13ifvqdm0","pricing_plan_id":"cebpf4jnsgd1na2vs0mg"},{"bike_id":"90270e8e-0c91-4291-88ba-f11987aefa5a","system_id":"levelo_inurba_marseille","lat":43.28612,"lon":5.35104,"is_reserved":false,"is_disabled":false,"rental_uris":{"android":"levelo://app?vid=90270e8e-0c91-4291-88ba-f11987aefa5a","ios":"levelo://app?vid=90270e8e-0c91-4291-88ba-f11987aefa5a"},"vehicle_type_id":"4","last_reported":1749892193,"current_range_meters":16000,"station_id":"ce4bhch2rcd13ifvqeug","pricing_plan_id":"cebpf4jnsgd1na2vs0mg"},{"bike_id":"d5591103-c52b-4603-9ad7-735af8decc27","system_id":"levelo_inurba_marseille","lat":43.26194,"lon":5.37446,"is_reserved":false,"is_disabled":false,"rental_uris":{"android":"levelo://app?vid=d5591103-c52b-4603-9ad7-735af8decc27","ios":"levelo://app?vid=d5591103-c52b-4603-9ad7-735af8decc27"},"vehicle_type_id":"4","last_reported":1749892193,"current_range_meters":16000,"station_id":"ce4bhgp2rcd13ifvqfc0","pricing_plan_id":"cebpf4jnsgd1na2vs0mg"},{"bike_id":"bd081d41-5eed-4495-82ed-9e27cd112239","system_id":"levelo_inurba_marseille","lat":43.249488,"lon":5.396613,"is_reserved":false,"is_disabled":false,"rental_uris":{"android":"levelo://app?vid=bd081d41-5eed-4495-82ed-9e27cd112239","ios":"levelo://app?vid=bd081d41-5eed-4495-82ed-9e27cd112239"},"vehicle_type_id":"4","last_reported":1749892193,"current_range_meters":16400,"station_id":"","pricing_plan_id":"cebpf4jnsgd1na2vs0mg"},{"bike_id":"db14b11c-37ad-4f20-bf0d-55c0e6759255","system_id":"levelo_inurba_marseille","lat":43.280363,"lon":5.369487,"is_reserved":false,"is_disabled":false,"rental_uris":{"android":"levelo://app?vid=db14b11c-37ad-4f20-bf0d-55c0e6759255","ios":"levelo://app?vid=db14b11c-37ad-4f20-bf0d-55c0e6759255"},"vehicle_type_id":"4","last_reported":1749892193,"current_range_meters":16400,"station_id":"ce4bha12rcd13ifvqef0","pricing_plan_id":"cebpf4jnsgd1na2vs0mg"},{"bike_id":"2438c2e4-0e0a-4db1-8c91-12828706207c","system_id":"levelo_inurba_marseille","lat":43.254974,"lon":5.376498,"is_reserved":false,"is_disabled":false,"rental_uris":{"android":"levelo://app?vid=2438c2e4-0e0a-4db1-8c91-12828706207c","ios":"levelo://app?vid=2438c2e4-0e0a-4db1-8c91-12828706207c"},"vehicle_type_id":"4","last_reported":1749892193,"current_range_meters":16400,"station_id":"ce4bhh12rcd13ifvqff0","pricing_plan_id":"cebpf4jnsgd1na2vs0mg"},{"bike_id":"843bc366-abe4-4c98-989b-2991b83feacb","system_id":"levelo_inurba_marseille","lat":43.2606,"lon":5.39405,"is_reserved":false,"is_disabled":false,"rental_uris":{"android":"levelo://app?vid=843bc366-abe4-4c98-989b-2991b83feacb","ios":"levelo://app?vid=843bc366-abe4-4c98-989b-2991b83feacb"},"vehicle_type_id":"4","last_reported":1749892193,"current_range_meters":16400,"station_id":"ce4bhh92rcd13ifvqfj0","pricing_plan_id":"cebpf4jnsgd1na2vs0mg"},{"bike_id":"108df224-a9a1-40dd-bfd9-874deb063612","system_id":"levelo_inurba_marseille","lat":43.25091,"lon":5.39513,"is_reserved":false,"is_disabled":false,"rental_uris":{"android":"levelo://app?vid=108df224-a9a1-40dd-bfd9-874deb063612","ios":"levelo://app?vid=108df224-a9a1-40dd-bfd9-874deb063612"},"vehicle_type_id":"4","last_reported":1749892193,"current_range_meters":16400,"station_id":"ce4bhm12rcd13ifvqgkg","pricing_plan_id":"cebpf4jnsgd1na2vs0mg"},{"bike_id":"6d2caa00-2639-4175-9633-780a21a94f4a","system_id":"levelo_inurba_marseille","lat":43.33016,"lon":5.39034,"is_reserved":false,"is_disabled":false,"rental_uris":{"android":"levelo://app?vid=6d2caa00-2639-4175-9633-780a21a94f4a","ios":"levelo://app?vid=6d2caa00-2639-4175-9633-780a21a94f4a"},"vehicle_type_id":"4","last_reported":1749892193,"current_range_meters":16400,"station_id":"ce4bhr92rcd13ifvqhrg","pricing_plan_id":"cebpf4jnsgd1na2vs0mg"},{"bike_id":"a8283606-6fdf-49b2-991a-62bc6fc9988a","system_id":"levelo_inurba_marseille","lat":43.22497,"lon":5.34787,"is_reserved":false,"is_disabled":false,"rental_uris":{"android":"levelo://app?vid=a8283606-6fdf-49b2-991a-62bc6fc9988a","ios":"levelo://app?vid=a8283606-6fdf-49b2-991a-62bc6fc9988a"},"vehicle_type_id":"4","last_reported":1749892193,"current_range_meters":16800,"station_id":"","pricing_plan_id":"cebpf4jnsgd1na2vs0mg"},{"bike_id":"58cd0331-8288-4239-aa85-d394c5116406","system_id":"levelo_inurba_marseille","lat":43.31486,"lon":5.37303,"is_reserved":false,"is_disabled":false,"rental_uris":{"android":"levelo://app?vid=58cd0331-8288-4239-aa85-d394c5116406","ios":"levelo://app?vid=58cd0331-8288-4239-aa85-d394c5116406"},"vehicle_type_id":"4","last_reported":1749892193,"current_range_meters":16800,"station_id":"ce4bgt12rcd13ifvqcd0","pricing_plan_id":"cebpf4jnsgd1na2vs0mg"},{"bike_id":"6b7fc9d7-28ff-4959-9fe0-d25309462ef8","system_id":"levelo_inurba_marseille","lat":43.25107,"lon":5.39502,"is_reserved":false,"is_disabled":false,"rental_uris":{"android":"levelo://app?vid=6b7fc9d7-28ff-4959-9fe0-d25309462ef8","ios":"levelo://app?vid=6b7fc9d7-28ff-4959-9fe0-d25309462ef8"},"vehicle_type_id":"4","last_reported":1749892193,"current_range_meters":16800,"station_id":"ce4bhm12rcd13ifvqgkg","pricing_plan_id":"cebpf4jnsgd1na2vs0mg"},{"bike_id":"c2e2b911-bb55-484c-b6b4-e25161084cb2","system_id":"levelo_inurba_marseille","lat":43.24066,"lon":5.37767,"is_reserved":false,"is_disabled":false,"rental_uris":{"android":"levelo://app?vid=c2e2b911-bb55-484c-b6b4-e25161084cb2","ios":"levelo://app?vid=c2e2b911-bb55-484c-b6b4-e25161084cb2"},"vehicle_type_id":"4","last_reported":1749892193,"current_range_meters":16800,"station_id":"ce4bhnp2rcd13ifvqgvg","pricing_plan_id":"cebpf4jnsgd1na2vs0mg"},{"bike_id":"7cd58f80-1a13-48bf-9b27-0c54daaa78b6","system_id":"levelo_inurba_marseille","lat":43.32353,"lon":5.36728,"is_reserved":false,"is_disabled":false,"rental_uris":{"android":"levelo://app?vid=7cd58f80-1a13-48bf-9b27-0c54daaa78b6","ios":"levelo://app?vid=7cd58f80-1a13-48bf-9b27-0c54daaa78b6"},"vehicle_type_id":"4","last_reported":1749892193,"current_range_meters":16800,"station_id":"ce4bhsh2rcd13ifvqi2g","pricing_plan_id":"cebpf4jnsgd1na2vs0mg"},{"bike_id":"3ba53083-f560-4fb5-b3cc-01a71156c6ba","system_id":"levelo_inurba_marseille","lat":43.23192,"lon":5.3556,"is_reserved":false,"is_disabled":false,"rental_uris":{"android":"levelo://app?vid=3ba53083-f560-4fb5-b3cc-01a71156c6ba","ios":"levelo://app?vid=3ba53083-f560-4fb5-b3cc-01a71156c6ba"},"vehicle_type_id":"4","last_reported":1749892193,"current_range_meters":16800,"station_id":"ce4bhu92rcd13ifvqi70","pricing_plan_id":"cebpf4jnsgd1na2vs0mg"},{"bike_id":"33c88bcc-413d-4d54-bd30-5a2b999a43c0","system_id":"levelo_inurba_marseille","lat":43.21196,"lon":5.35075,"is_reserved":false,"is_disabled":false,"rental_uris":{"android":"levelo://app?vid=33c88bcc-413d-4d54-bd30-5a2b999a43c0","ios":"levelo://app?vid=33c88bcc-413d-4d54-bd30-5a2b999a43c0"},"vehicle_type_id":"4","last_reported":1749892193,"current_range_meters":16800,"station_id":"st_cvj6sg6p6f1abm77japg","pricing_plan_id":"cebpf4jnsgd1na2vs0mg"},{"bike_id":"7240a984-bb6d-4c3b-ab8d-aef55ac0bce8","system_id":"levelo_inurba_marseille","lat":43.212,"lon":5.35067,"is_reserved":false,"is_disabled":false,"rental_uris":{"android":"levelo://app?vid=7240a984-bb6d-4c3b-ab8d-aef55ac0bce8","ios":"levelo://app?vid=7240a984-bb6d-4c3b-ab8d-aef55ac0bce8"},"vehicle_type_id":"4","last_reported":1749892193,"current_range_meters":16800,"station_id":"st_cvj6sg6p6f1abm77japg","pricing_plan_id":"cebpf4jnsgd1na2vs0mg"},{"bike_id":"c82f75f2-635c-40da-9f67-77d82cb74c97","system_id":"levelo_inurba_marseille","lat":43.21189,"lon":5.35066,"is_reserved":false,"is_disabled":false,"rental_uris":{"android":"levelo://app?vid=c82f75f2-635c-40da-9f67-77d82cb74c97","ios":"levelo://app?vid=c82f75f2-635c-40da-9f67-77d82cb74c97"},"vehicle_type_id":"4","last_reported":1749892193,"current_range_meters":16800,"station_id":"st_cvj6sg6p6f1abm77japg","pricing_plan_id":"cebpf4jnsgd1na2vs0mg"},{"bike_id":"4acc43a9-efed-4475-8e4e-b0e495d420fe","system_id":"levelo_inurba_marseille","lat":43.31512,"lon":5.37296,"is_reserved":false,"is_disabled":false,"rental_uris":{"android":"levelo://app?vid=4acc43a9-efed-4475-8e4e-b0e495d420fe","ios":"levelo://app?vid=4acc43a9-efed-4475-8e4e-b0e495d420fe"},"vehicle_type_id":"4","last_reported":1749892193,"current_range_meters":17200,"station_id":"ce4bgt12rcd13ifvqcd0","pricing_plan_id":"cebpf4jnsgd1na2vs0mg"},{"bike_id":"e551f3d0-f855-4356-b88c-55f01f83c2d7","system_id":"levelo_inurba_marseille","lat":43.2828,"lon":5.35072,"is_reserved":false,"is_disabled":false,"rental_uris":{"android":"levelo://app?vid=e551f3d0-f855-4356-b88c-55f01f83c2d7","ios":"levelo://app?vid=e551f3d0-f855-4356-b88c-55f01f83c2d7"},"vehicle_type_id":"4","last_reported":1749892193,"current_range_meters":17200,"station_id":"ce4bhbp2rcd13ifvqerg","pricing_plan_id":"cebpf4jnsgd1na2vs0mg"},{"bike_id":"22f6257f-d33d-41ab-ba14-1fc301898d96","system_id":"levelo_inurba_marseille","lat":43.27426,"lon":5.39419,"is_reserved":false,"is_disabled":false,"rental_uris":{"android":"levelo://app?vid=22f6257f-d33d-41ab-ba14-1fc301898d96","ios":"levelo://app?vid=22f6257f-d33d-41ab-ba14-1fc301898d96"},"vehicle_type_id":"4","last_reported":1749892193,"current_range_meters":17200,"station_id":"ce4bhdp2rcd13ifvqf20","pricing_plan_id":"cebpf4jnsgd1na2vs0mg"},{"bike_id":"a123e9fa-df7d-41fb-b2d5-2e4e345456f9","system_id":"levelo_inurba_marseille","lat":43.25301,"lon":5.37474,"is_reserved":false,"is_disabled":false,"rental_uris":{"android":"levelo://app?vid=a123e9fa-df7d-41fb-b2d5-2e4e345456f9","ios":"levelo://app?vid=a123e9fa-df7d-41fb-b2d5-2e4e345456f9"},"vehicle_type_id":"4","last_reported":1749892193,"current_range_meters":17600,"station_id":"","pricing_plan_id":"cebpf4jnsgd1na2vs0mg"},{"bike_id":"435d50da-e6aa-4747-928b-07b1cb4138cf","system_id":"levelo_inurba_marseille","lat":43.25581,"lon":5.38209,"is_reserved":false,"is_disabled":false,"rental_uris":{"android":"levelo://app?vid=435d50da-e6aa-4747-928b-07b1cb4138cf","ios":"levelo://app?vid=435d50da-e6aa-4747-928b-07b1cb4138cf"},"vehicle_type_id":"4","last_reported":1749892193,"current_range_meters":17600,"station_id":"ce4bhih2rcd13ifvqfs0","pricing_plan_id":"cebpf4jnsgd1na2vs0mg"},{"bike_id":"4004f47a-c1eb-43fe-a235-0efb68813d4c","system_id":"levelo_inurba_marseille","lat":43.24391,"lon":5.37066,"is_reserved":false,"is_disabled":false,"rental_uris":{"android":"levelo://app?vid=4004f47a-c1eb-43fe-a235-0efb68813d4c","ios":"levelo://app?vid=4004f47a-c1eb-43fe-a235-0efb68813d4c"},"vehicle_type_id":"4","last_reported":1749892193,"current_range_meters":18000,"station_id":"ce4bhhh2rcd13ifvqfk0","pricing_plan_id":"cebpf4jnsgd1na2vs0mg"},{"bike_id":"821ffeb7-504e-49a3-aa5e-ded90c45f20e","system_id":"levelo_inurba_marseille","lat":43.30391,"lon":5.41278,"is_reserved":false,"is_disabled":false,"rental_uris":{"android":"levelo://app?vid=821ffeb7-504e-49a3-aa5e-ded90c45f20e","ios":"levelo://app?vid=821ffeb7-504e-49a3-aa5e-ded90c45f20e"},"vehicle_type_id":"4","last_reported":1749892193,"current_range_meters":18000,"station_id":"ce4bhop2rcd13ifvqh8g","pricing_plan_id":"cebpf4jnsgd1na2vs0mg"},{"bike_id":"a300b931-d0d8-415a-80cd-9f6e76c9476f","system_id":"levelo_inurba_marseille","lat":43.3147,"lon":5.37291,"is_reserved":false,"is_disabled":false,"rental_uris":{"android":"levelo://app?vid=a300b931-d0d8-415a-80cd-9f6e76c9476f","ios":"levelo://app?vid=a300b931-d0d8-415a-80cd-9f6e76c9476f"},"vehicle_type_id":"4","last_reported":1749892193,"current_range_meters":18800,"station_id":"ce4bgt12rcd13ifvqcd0","pricing_plan_id":"cebpf4jnsgd1na2vs0mg"},{"bike_id":"40c6f181-cf47-487d-9433-9f1f5d1127a6","system_id":"levelo_inurba_marseille","lat":43.29038,"lon":5.39962,"is_reserved":false,"is_disabled":false,"rental_uris":{"android":"levelo://app?vid=40c6f181-cf47-487d-9433-9f1f5d1127a6","ios":"levelo://app?vid=40c6f181-cf47-487d-9433-9f1f5d1127a6"},"vehicle_type_id":"4","last_reported":1749892193,"current_range_meters":18800,"station_id":"ce4bh392rcd13ifvqdm0","pricing_plan_id":"cebpf4jnsgd1na2vs0mg"},{"bike_id":"c7f146e1-46a7-4b07-a925-3ee88d8c7708","system_id":"levelo_inurba_marseille","lat":43.29267,"lon":5.38439,"is_reserved":false,"is_disabled":false,"rental_uris":{"android":"levelo://app?vid=c7f146e1-46a7-4b07-a925-3ee88d8c7708","ios":"levelo://app?vid=c7f146e1-46a7-4b07-a925-3ee88d8c7708"},"vehicle_type_id":"4","last_reported":1749892193,"current_range_meters":18800,"station_id":"ce4bh692rcd13ifvqea0","pricing_plan_id":"cebpf4jnsgd1na2vs0mg"},{"bike_id":"f148e223-23a1-4eba-9dd8-74998b9e9c6b","system_id":"levelo_inurba_marseille","lat":43.25089,"lon":5.39503,"is_reserved":false,"is_disabled":false,"rental_uris":{"android":"levelo://app?vid=f148e223-23a1-4eba-9dd8-74998b9e9c6b","ios":"levelo://app?vid=f148e223-23a1-4eba-9dd8-74998b9e9c6b"},"vehicle_type_id":"4","last_reported":1749892193,"current_range_meters":18800,"station_id":"ce4bhm12rcd13ifvqgkg","pricing_plan_id":"cebpf4jnsgd1na2vs0mg"},{"bike_id":"467d05a9-392d-4a40-958b-8dea44948f48","system_id":"levelo_inurba_marseille","lat":43.24178,"lon":5.39732,"is_reserved":false,"is_disabled":false,"rental_uris":{"android":"levelo://app?vid=467d05a9-392d-4a40-958b-8dea44948f48","ios":"levelo://app?vid=467d05a9-392d-4a40-958b-8dea44948f48"},"vehicle_type_id":"4","last_reported":1749892193,"current_range_meters":18800,"station_id":"ce4bhn12rcd13ifvqgpg","pricing_plan_id":"cebpf4jnsgd1na2vs0mg"},{"bike_id":"d9b5145e-0110-459c-b195-88d413502a99","system_id":"levelo_inurba_marseille","lat":43.28066,"lon":5.39649,"is_reserved":false,"is_disabled":false,"rental_uris":{"android":"levelo://app?vid=d9b5145e-0110-459c-b195-88d413502a99","ios":"levelo://app?vid=d9b5145e-0110-459c-b195-88d413502a99"},"vehicle_type_id":"4","last_reported":1749892193,"current_range_meters":18800,"station_id":"ce4bho12rcd13ifvqh2g","pricing_plan_id":"cebpf4jnsgd1na2vs0mg"},{"bike_id":"5499f783-0e7b-4679-9be8-7d35193a5b1d","system_id":"levelo_inurba_marseille","lat":43.298922,"lon":5.436698,"is_reserved":false,"is_disabled":false,"rental_uris":{"android":"levelo://app?vid=5499f783-0e7b-4679-9be8-7d35193a5b1d","ios":"levelo://app?vid=5499f783-0e7b-4679-9be8-7d35193a5b1d"},"vehicle_type_id":"4","last_reported":1749892193,"current_range_meters":18800,"station_id":"ce4bhpp2rcd13ifvqhfg","pricing_plan_id":"cebpf4jnsgd1na2vs0mg"},{"bike_id":"0e74a242-1a0e-4c83-b590-e40e1552f872","system_id":"levelo_inurba_marseille","lat":43.24161,"lon":5.36389,"is_reserved":false,"is_disabled":false,"rental_uris":{"android":"levelo://app?vid=0e74a242-1a0e-4c83-b590-e40e1552f872","ios":"levelo://app?vid=0e74a242-1a0e-4c83-b590-e40e1552f872"},"vehicle_type_id":"4","last_reported":1749892193,"current_range_meters":18800,"station_id":"cpo36qri1sfpv3e86is0","pricing_plan_id":"cebpf4jnsgd1na2vs0mg"},{"bike_id":"54cc18c1-c213-440f-8d06-ac195717f842","system_id":"levelo_inurba_marseille","lat":43.276165,"lon":5.361065,"is_reserved":false,"is_disabled":false,"rental_uris":{"android":"levelo://app?vid=54cc18c1-c213-440f-8d06-ac195717f842","ios":"levelo://app?vid=54cc18c1-c213-440f-8d06-ac195717f842"},"vehicle_type_id":"4","last_reported":1749892193,"current_range_meters":19200,"station_id":"ce4bgj92rcd13ifvqbe0","pricing_plan_id":"cebpf4jnsgd1na2vs0mg"},{"bike_id":"69d6e4ee-d9a5-4816-821e-e3f3f14671be","system_id":"levelo_inurba_marseille","lat":43.30151,"lon":5.38088,"is_reserved":false,"is_disabled":false,"rental_uris":{"android":"levelo://app?vid=69d6e4ee-d9a5-4816-821e-e3f3f14671be","ios":"levelo://app?vid=69d6e4ee-d9a5-4816-821e-e3f3f14671be"},"vehicle_type_id":"4","last_reported":1749892193,"current_range_meters":19200,"station_id":"ce4bgjp2rcd13ifvqbh0","pricing_plan_id":"cebpf4jnsgd1na2vs0mg"},{"bike_id":"70bc32d3-05c7-40b4-a228-372a5915d059","system_id":"levelo_inurba_marseille","lat":43.24799,"lon":5.37456,"is_reserved":false,"is_disabled":false,"rental_uris":{"android":"levelo://app?vid=70bc32d3-05c7-40b4-a228-372a5915d059","ios":"levelo://app?vid=70bc32d3-05c7-40b4-a228-372a5915d059"},"vehicle_type_id":"4","last_reported":1749892193,"current_range_meters":19200,"station_id":"ce4bhgh2rcd13ifvqfb0","pricing_plan_id":"cebpf4jnsgd1na2vs0mg"},{"bike_id":"90f49018-8b41-408d-b86a-41368d4f9c83","system_id":"levelo_inurba_marseille","lat":43.32364,"lon":5.38876,"is_reserved":false,"is_disabled":false,"rental_uris":{"android":"levelo://app?vid=90f49018-8b41-408d-b86a-41368d4f9c83","ios":"levelo://app?vid=90f49018-8b41-408d-b86a-41368d4f9c83"},"vehicle_type_id":"4","last_reported":1749892193,"current_range_meters":19200,"station_id":"ce4bhqp2rcd13ifvqhog","pricing_plan_id":"cebpf4jnsgd1na2vs0mg"},{"bike_id":"f2f5d492-6239-4740-9f7c-96c5de070fdd","system_id":"levelo_inurba_marseille","lat":43.3088,"lon":5.39634,"is_reserved":false,"is_disabled":false,"rental_uris":{"android":"levelo://app?vid=f2f5d492-6239-4740-9f7c-96c5de070fdd","ios":"levelo://app?vid=f2f5d492-6239-4740-9f7c-96c5de070fdd"},"vehicle_type_id":"4","last_reported":1749892193,"current_range_meters":19600,"station_id":"ce4bh012rcd13ifvqcv0","pricing_plan_id":"cebpf4jnsgd1na2vs0mg"},{"bike_id":"0b214f94-475b-4c56-b001-15dc0687c937","system_id":"levelo_inurba_marseille","lat":43.28264,"lon":5.35062,"is_reserved":false,"is_disabled":false,"rental_uris":{"android":"levelo://app?vid=0b214f94-475b-4c56-b001-15dc0687c937","ios":"levelo://app?vid=0b214f94-475b-4c56-b001-15dc0687c937"},"vehicle_type_id":"4","last_reported":1749892193,"current_range_meters":19600,"station_id":"ce4bhbp2rcd13ifvqerg","pricing_plan_id":"cebpf4jnsgd1na2vs0mg"},{"bike_id":"8ff63f9c-ca66-454c-8703-220248465e28","system_id":"levelo_inurba_marseille","lat":43.24077,"lon":5.3776,"is_reserved":false,"is_disabled":false,"rental_uris":{"android":"levelo://app?vid=8ff63f9c-ca66-454c-8703-220248465e28","ios":"levelo://app?vid=8ff63f9c-ca66-454c-8703-220248465e28"},"vehicle_type_id":"4","last_reported":1749892193,"current_range_meters":19600,"station_id":"ce4bhnp2rcd13ifvqgvg","pricing_plan_id":"cebpf4jnsgd1na2vs0mg"},{"bike_id":"af54e57f-f161-4317-9bd4-1d43f8702955","system_id":"levelo_inurba_marseille","lat":43.23196,"lon":5.35539,"is_reserved":false,"is_disabled":false,"rental_uris":{"android":"levelo://app?vid=af54e57f-f161-4317-9bd4-1d43f8702955","ios":"levelo://app?vid=af54e57f-f161-4317-9bd4-1d43f8702955"},"vehicle_type_id":"4","last_reported":1749892193,"current_range_meters":19600,"station_id":"ce4bhu92rcd13ifvqi70","pricing_plan_id":"cebpf4jnsgd1na2vs0mg"},{"bike_id":"7f5d4663-8b18-491f-bd80-7adcd7835be4","system_id":"levelo_inurba_marseille","lat":43.306071,"lon":5.372257,"is_reserved":false,"is_disabled":false,"rental_uris":{"android":"levelo://app?vid=7f5d4663-8b18-491f-bd80-7adcd7835be4","ios":"levelo://app?vid=7f5d4663-8b18-491f-bd80-7adcd7835be4"},"vehicle_type_id":"4","last_reported":1749892193,"current_range_meters":20000,"station_id":"ce4bgqh2rcd13ifvqc4g","pricing_plan_id":"cebpf4jnsgd1na2vs0mg"},{"bike_id":"2b69be58-9b76-41e2-971f-55df5a8e0c2a","system_id":"levelo_inurba_marseille","lat":43.30883,"lon":5.39657,"is_reserved":false,"is_disabled":false,"rental_uris":{"android":"levelo://app?vid=2b69be58-9b76-41e2-971f-55df5a8e0c2a","ios":"levelo://app?vid=2b69be58-9b76-41e2-971f-55df5a8e0c2a"},"vehicle_type_id":"4","last_reported":1749892193,"current_range_meters":20000,"station_id":"ce4bh012rcd13ifvqcv0","pricing_plan_id":"cebpf4jnsgd1na2vs0mg"},{"bike_id":"d7a2454d-a8fd-43e0-ac52-8d8f71504b51","system_id":"levelo_inurba_marseille","lat":43.26555,"lon":5.37282,"is_reserved":false,"is_disabled":false,"rental_uris":{"android":"levelo://app?vid=d7a2454d-a8fd-43e0-ac52-8d8f71504b51","ios":"levelo://app?vid=d7a2454d-a8fd-43e0-ac52-8d8f71504b51"},"vehicle_type_id":"4","last_reported":1749892193,"current_range_meters":20000,"station_id":"ce4bhg12rcd13ifvqf70","pricing_plan_id":"cebpf4jnsgd1na2vs0mg"},{"bike_id":"e08cdb1f-1999-45a2-8234-3fd1b5d328f0","system_id":"levelo_inurba_marseille","lat":43.32111,"lon":5.36767,"is_reserved":false,"is_disabled":false,"rental_uris":{"android":"levelo://app?vid=e08cdb1f-1999-45a2-8234-3fd1b5d328f0","ios":"levelo://app?vid=e08cdb1f-1999-45a2-8234-3fd1b5d328f0"},"vehicle_type_id":"4","last_reported":1749892193,"current_range_meters":20000,"station_id":"ce4bhrh2rcd13ifvqhug","pricing_plan_id":"cebpf4jnsgd1na2vs0mg"},{"bike_id":"a495102f-cbc7-4649-87d4-a1bf879de360","system_id":"levelo_inurba_marseille","lat":43.23215,"lon":5.35565,"is_reserved":false,"is_disabled":false,"rental_uris":{"android":"levelo://app?vid=a495102f-cbc7-4649-87d4-a1bf879de360","ios":"levelo://app?vid=a495102f-cbc7-4649-87d4-a1bf879de360"},"vehicle_type_id":"4","last_reported":1749892193,"current_range_meters":20000,"station_id":"ce4bhu92rcd13ifvqi70","pricing_plan_id":"cebpf4jnsgd1na2vs0mg"},{"bike_id":"67d4735d-a812-4e55-90bc-5641f4e35931","system_id":"levelo_inurba_marseille","lat":43.21197,"lon":5.35074,"is_reserved":false,"is_disabled":false,"rental_uris":{"android":"levelo://app?vid=67d4735d-a812-4e55-90bc-5641f4e35931","ios":"levelo://app?vid=67d4735d-a812-4e55-90bc-5641f4e35931"},"vehicle_type_id":"4","last_reported":1749892193,"current_range_meters":20000,"station_id":"st_cvj6sg6p6f1abm77japg","pricing_plan_id":"cebpf4jnsgd1na2vs0mg"},{"bike_id":"47e605d0-1d48-48a6-b440-ef768579fb19","system_id":"levelo_inurba_marseille","lat":43.29567,"lon":5.37519,"is_reserved":false,"is_disabled":false,"rental_uris":{"android":"levelo://app?vid=47e605d0-1d48-48a6-b440-ef768579fb19","ios":"levelo://app?vid=47e605d0-1d48-48a6-b440-ef768579fb19"},"vehicle_type_id":"4","last_reported":1749892193,"current_range_meters":20400,"station_id":"ce4bgh92rcd13ifvqb50","pricing_plan_id":"cebpf4jnsgd1na2vs0mg"},{"bike_id":"bc25de08-2285-4567-acd3-66360f0debf1","system_id":"levelo_inurba_marseille","lat":43.29616,"lon":5.37158,"is_reserved":false,"is_disabled":false,"rental_uris":{"android":"levelo://app?vid=bc25de08-2285-4567-acd3-66360f0debf1","ios":"levelo://app?vid=bc25de08-2285-4567-acd3-66360f0debf1"},"vehicle_type_id":"4","last_reported":1749892193,"current_range_meters":20400,"station_id":"ce4bgnh2rcd13ifvqc0g","pricing_plan_id":"cebpf4jnsgd1na2vs0mg"},{"bike_id":"39599ce5-8952-4063-be63-c453184bc9c6","system_id":"levelo_inurba_marseille","lat":43.30528,"lon":5.36538,"is_reserved":false,"is_disabled":false,"rental_uris":{"android":"levelo://app?vid=39599ce5-8952-4063-be63-c453184bc9c6","ios":"levelo://app?vid=39599ce5-8952-4063-be63-c453184bc9c6"},"vehicle_type_id":"4","last_reported":1749892193,"current_range_meters":20400,"station_id":"ce4bgs12rcd13ifvqcag","pricing_plan_id":"cebpf4jnsgd1na2vs0mg"},{"bike_id":"7f42ce6c-f270-4d39-9eb0-cefb20b6026e","system_id":"levelo_inurba_marseille","lat":43.31351,"lon":5.38505,"is_reserved":false,"is_disabled":false,"rental_uris":{"android":"levelo://app?vid=7f42ce6c-f270-4d39-9eb0-cefb20b6026e","ios":"levelo://app?vid=7f42ce6c-f270-4d39-9eb0-cefb20b6026e"},"vehicle_type_id":"4","last_reported":1749892193,"current_range_meters":20400,"station_id":"ce4bgt92rcd13ifvqcf0","pricing_plan_id":"cebpf4jnsgd1na2vs0mg"},{"bike_id":"c6d88bc4-48ca-44b6-a454-21dadcc32988","system_id":"levelo_inurba_marseille","lat":43.26558,"lon":5.37281,"is_reserved":false,"is_disabled":false,"rental_uris":{"android":"levelo://app?vid=c6d88bc4-48ca-44b6-a454-21dadcc32988","ios":"levelo://app?vid=c6d88bc4-48ca-44b6-a454-21dadcc32988"},"vehicle_type_id":"4","last_reported":1749892193,"current_range_meters":20400,"station_id":"ce4bhg12rcd13ifvqf70","pricing_plan_id":"cebpf4jnsgd1na2vs0mg"},{"bike_id":"87f704a9-a05e-4b4f-9e7d-0ec38abcf885","system_id":"levelo_inurba_marseille","lat":43.24389,"lon":5.37061,"is_reserved":false,"is_disabled":false,"rental_uris":{"android":"levelo://app?vid=87f704a9-a05e-4b4f-9e7d-0ec38abcf885","ios":"levelo://app?vid=87f704a9-a05e-4b4f-9e7d-0ec38abcf885"},"vehicle_type_id":"4","last_reported":1749892193,"current_range_meters":20400,"station_id":"ce4bhhh2rcd13ifvqfk0","pricing_plan_id":"cebpf4jnsgd1na2vs0mg"},{"bike_id":"3756175f-8acc-4440-9626-971b3f103339","system_id":"levelo_inurba_marseille","lat":43.2418,"lon":5.39715,"is_reserved":false,"is_disabled":false,"rental_uris":{"android":"levelo://app?vid=3756175f-8acc-4440-9626-971b3f103339","ios":"levelo://app?vid=3756175f-8acc-4440-9626-971b3f103339"},"vehicle_type_id":"4","last_reported":1749892193,"current_range_meters":20400,"station_id":"ce4bhn12rcd13ifvqgpg","pricing_plan_id":"cebpf4jnsgd1na2vs0mg"},{"bike_id":"4582225b-17f7-41b0-a48d-4286322feddb","system_id":"levelo_inurba_marseille","lat":43.23192,"lon":5.35559,"is_reserved":false,"is_disabled":false,"rental_uris":{"android":"levelo://app?vid=4582225b-17f7-41b0-a48d-4286322feddb","ios":"levelo://app?vid=4582225b-17f7-41b0-a48d-4286322feddb"},"vehicle_type_id":"4","last_reported":1749892193,"current_range_meters":20400,"station_id":"ce4bhu92rcd13ifvqi70","pricing_plan_id":"cebpf4jnsgd1na2vs0mg"},{"bike_id":"15cdcc5d-fc73-4f86-b199-d1795f435fa4","system_id":"levelo_inurba_marseille","lat":43.21195,"lon":5.35074,"is_reserved":false,"is_disabled":false,"rental_uris":{"android":"levelo://app?vid=15cdcc5d-fc73-4f86-b199-d1795f435fa4","ios":"levelo://app?vid=15cdcc5d-fc73-4f86-b199-d1795f435fa4"},"vehicle_type_id":"4","last_reported":1749892193,"current_range_meters":20400,"station_id":"st_cvj6sg6p6f1abm77japg","pricing_plan_id":"cebpf4jnsgd1na2vs0mg"},{"bike_id":"8f81662c-8bf4-478f-95ee-bf9d213798f4","system_id":"levelo_inurba_marseille","lat":43.28965,"lon":5.3823,"is_reserved":false,"is_disabled":false,"rental_uris":{"android":"levelo://app?vid=8f81662c-8bf4-478f-95ee-bf9d213798f4","ios":"levelo://app?vid=8f81662c-8bf4-478f-95ee-bf9d213798f4"},"vehicle_type_id":"4","last_reported":1749892193,"current_range_meters":20800,"station_id":"","pricing_plan_id":"cebpf4jnsgd1na2vs0mg"},{"bike_id":"99e24852-98c0-4053-801c-515dce9e7878","system_id":"levelo_inurba_marseille","lat":43.2173,"lon":5.34616,"is_reserved":false,"is_disabled":false,"rental_uris":{"android":"levelo://app?vid=99e24852-98c0-4053-801c-515dce9e7878","ios":"levelo://app?vid=99e24852-98c0-4053-801c-515dce9e7878"},"vehicle_type_id":"4","last_reported":1749892193,"current_range_meters":20800,"station_id":"st_cvj6r9ubvosntc0bgbag","pricing_plan_id":"cebpf4jnsgd1na2vs0mg"},{"bike_id":"5ea73c6f-b19a-4e74-ab4e-97c83c4504b2","system_id":"levelo_inurba_marseille","lat":43.276166,"lon":5.361049,"is_reserved":false,"is_disabled":false,"rental_uris":{"android":"levelo://app?vid=5ea73c6f-b19a-4e74-ab4e-97c83c4504b2","ios":"levelo://app?vid=5ea73c6f-b19a-4e74-ab4e-97c83c4504b2"},"vehicle_type_id":"4","last_reported":1749892193,"current_range_meters":21600,"station_id":"ce4bgj92rcd13ifvqbe0","pricing_plan_id":"cebpf4jnsgd1na2vs0mg"},{"bike_id":"0cf53d06-3d95-47d5-ba09-563a8f1a282c","system_id":"levelo_inurba_marseille","lat":43.30554,"lon":5.365567,"is_reserved":false,"is_disabled":false,"rental_uris":{"android":"levelo://app?vid=0cf53d06-3d95-47d5-ba09-563a8f1a282c","ios":"levelo://app?vid=0cf53d06-3d95-47d5-ba09-563a8f1a282c"},"vehicle_type_id":"4","last_reported":1749892193,"current_range_meters":21600,"station_id":"ce4bgs12rcd13ifvqcag","pricing_plan_id":"cebpf4jnsgd1na2vs0mg"},{"bike_id":"4f2889fe-f5fb-4f71-bad5-a803b273376d","system_id":"levelo_inurba_marseille","lat":43.314832,"lon":5.373146,"is_reserved":false,"is_disabled":false,"rental_uris":{"android":"levelo://app?vid=4f2889fe-f5fb-4f71-bad5-a803b273376d","ios":"levelo://app?vid=4f2889fe-f5fb-4f71-bad5-a803b273376d"},"vehicle_type_id":"4","last_reported":1749892193,"current_range_meters":21600,"station_id":"ce4bgt12rcd13ifvqcd0","pricing_plan_id":"cebpf4jnsgd1na2vs0mg"},{"bike_id":"a85153fd-dbc4-45b7-b15d-dbf24a363586","system_id":"levelo_inurba_marseille","lat":43.31308,"lon":5.39675,"is_reserved":false,"is_disabled":false,"rental_uris":{"android":"levelo://app?vid=a85153fd-dbc4-45b7-b15d-dbf24a363586","ios":"levelo://app?vid=a85153fd-dbc4-45b7-b15d-dbf24a363586"},"vehicle_type_id":"4","last_reported":1749892193,"current_range_meters":21600,"station_id":"ce4bgvp2rcd13ifvqcu0","pricing_plan_id":"cebpf4jnsgd1na2vs0mg"},{"bike_id":"28e49348-3075-4fd6-abdc-caec930434b1","system_id":"levelo_inurba_marseille","lat":43.30661,"lon":5.40091,"is_reserved":false,"is_disabled":false,"rental_uris":{"android":"levelo://app?vid=28e49348-3075-4fd6-abdc-caec930434b1","ios":"levelo://app?vid=28e49348-3075-4fd6-abdc-caec930434b1"},"vehicle_type_id":"4","last_reported":1749892193,"current_range_meters":21600,"station_id":"ce4bh112rcd13ifvqda0","pricing_plan_id":"cebpf4jnsgd1na2vs0mg"},{"bike_id":"9caa0e17-0760-4813-b33d-41f1304106e9","system_id":"levelo_inurba_marseille","lat":43.28273,"lon":5.35068,"is_reserved":false,"is_disabled":false,"rental_uris":{"android":"levelo://app?vid=9caa0e17-0760-4813-b33d-41f1304106e9","ios":"levelo://app?vid=9caa0e17-0760-4813-b33d-41f1304106e9"},"vehicle_type_id":"4","last_reported":1749892193,"current_range_meters":21600,"station_id":"ce4bhbp2rcd13ifvqerg","pricing_plan_id":"cebpf4jnsgd1na2vs0mg"},{"bike_id":"2eada1e3-537e-48d7-9731-1a98403598f1","system_id":"levelo_inurba_marseille","lat":43.28623,"lon":5.35097,"is_reserved":false,"is_disabled":false,"rental_uris":{"android":"levelo://app?vid=2eada1e3-537e-48d7-9731-1a98403598f1","ios":"levelo://app?vid=2eada1e3-537e-48d7-9731-1a98403598f1"},"vehicle_type_id":"4","last_reported":1749892193,"current_range_meters":21600,"station_id":"ce4bhch2rcd13ifvqeug","pricing_plan_id":"cebpf4jnsgd1na2vs0mg"},{"bike_id":"38656ff5-aa8c-4c2e-b677-0a1a781c2984","system_id":"levelo_inurba_marseille","lat":43.25137,"lon":5.40323,"is_reserved":false,"is_disabled":false,"rental_uris":{"android":"levelo://app?vid=38656ff5-aa8c-4c2e-b677-0a1a781c2984","ios":"levelo://app?vid=38656ff5-aa8c-4c2e-b677-0a1a781c2984"},"vehicle_type_id":"4","last_reported":1749892193,"current_range_meters":21600,"station_id":"ce4bhlh2rcd13ifvqgig","pricing_plan_id":"cebpf4jnsgd1na2vs0mg"},{"bike_id":"15fba564-bbf7-44c2-855a-08cbeb38bb99","system_id":"levelo_inurba_marseille","lat":43.21743,"lon":5.34601,"is_reserved":false,"is_disabled":false,"rental_uris":{"android":"levelo://app?vid=15fba564-bbf7-44c2-855a-08cbeb38bb99","ios":"levelo://app?vid=15fba564-bbf7-44c2-855a-08cbeb38bb99"},"vehicle_type_id":"4","last_reported":1749892193,"current_range_meters":21600,"station_id":"st_cvj6r9ubvosntc0bgbag","pricing_plan_id":"cebpf4jnsgd1na2vs0mg"},{"bike_id":"f4960cb7-92f3-48e4-a1cc-a2b8a605a4b3","system_id":"levelo_inurba_marseille","lat":43.337689,"lon":5.374271,"is_reserved":false,"is_disabled":false,"rental_uris":{"android":"levelo://app?vid=f4960cb7-92f3-48e4-a1cc-a2b8a605a4b3","ios":"levelo://app?vid=f4960cb7-92f3-48e4-a1cc-a2b8a605a4b3"},"vehicle_type_id":"4","last_reported":1749892193,"current_range_meters":22000,"station_id":"","pricing_plan_id":"cebpf4jnsgd1na2vs0mg"},{"bike_id":"8ddd3fef-32ec-4d27-9d4c-952e90ad4668","system_id":"levelo_inurba_marseille","lat":43.31482,"lon":5.37301,"is_reserved":false,"is_disabled":false,"rental_uris":{"android":"levelo://app?vid=8ddd3fef-32ec-4d27-9d4c-952e90ad4668","ios":"levelo://app?vid=8ddd3fef-32ec-4d27-9d4c-952e90ad4668"},"vehicle_type_id":"4","last_reported":1749892193,"current_range_meters":22000,"station_id":"ce4bgt12rcd13ifvqcd0","pricing_plan_id":"cebpf4jnsgd1na2vs0mg"},{"bike_id":"2440c1fe-c54a-42b2-bf9c-58e383b237c6","system_id":"levelo_inurba_marseille","lat":43.28414,"lon":5.34977,"is_reserved":false,"is_disabled":false,"rental_uris":{"android":"levelo://app?vid=2440c1fe-c54a-42b2-bf9c-58e383b237c6","ios":"levelo://app?vid=2440c1fe-c54a-42b2-bf9c-58e383b237c6"},"vehicle_type_id":"4","last_reported":1749892193,"current_range_meters":22000,"station_id":"ce4bhbh2rcd13ifvqepg","pricing_plan_id":"cebpf4jnsgd1na2vs0mg"},{"bike_id":"f8716533-dda2-484c-a9d1-88df8a0e9594","system_id":"levelo_inurba_marseille","lat":43.27204,"lon":5.39187,"is_reserved":false,"is_disabled":false,"rental_uris":{"android":"levelo://app?vid=f8716533-dda2-484c-a9d1-88df8a0e9594","ios":"levelo://app?vid=f8716533-dda2-484c-a9d1-88df8a0e9594"},"vehicle_type_id":"4","last_reported":1749892193,"current_range_meters":22000,"station_id":"ce4bhhp2rcd13ifvqfm0","pricing_plan_id":"cebpf4jnsgd1na2vs0mg"},{"bike_id":"7acaddbc-a812-4d92-a957-4a8a94324790","system_id":"levelo_inurba_marseille","lat":43.23148,"lon":5.43706,"is_reserved":false,"is_disabled":false,"rental_uris":{"android":"levelo://app?vid=7acaddbc-a812-4d92-a957-4a8a94324790","ios":"levelo://app?vid=7acaddbc-a812-4d92-a957-4a8a94324790"},"vehicle_type_id":"4","last_reported":1749892193,"current_range_meters":22000,"station_id":"ce4bhmp2rcd13ifvqgog","pricing_plan_id":"cebpf4jnsgd1na2vs0mg"},{"bike_id":"d56ceff6-1b25-4021-a295-8865c2523890","system_id":"levelo_inurba_marseille","lat":43.24167,"lon":5.3639,"is_reserved":false,"is_disabled":false,"rental_uris":{"android":"levelo://app?vid=d56ceff6-1b25-4021-a295-8865c2523890","ios":"levelo://app?vid=d56ceff6-1b25-4021-a295-8865c2523890"},"vehicle_type_id":"4","last_reported":1749892193,"current_range_meters":22000,"station_id":"cpo36qri1sfpv3e86is0","pricing_plan_id":"cebpf4jnsgd1na2vs0mg"},{"bike_id":"38e08ec6-738b-4a04-a092-dec10c6891d3","system_id":"levelo_inurba_marseille","lat":43.26861,"lon":5.40684,"is_reserved":false,"is_disabled":false,"rental_uris":{"android":"levelo://app?vid=38e08ec6-738b-4a04-a092-dec10c6891d3","ios":"levelo://app?vid=38e08ec6-738b-4a04-a092-dec10c6891d3"},"vehicle_type_id":"4","last_reported":1749892193,"current_range_meters":22400,"station_id":"","pricing_plan_id":"cebpf4jnsgd1na2vs0mg"},{"bike_id":"4bc91397-d580-42f1-87dc-2ff693312dc2","system_id":"levelo_inurba_marseille","lat":43.29609,"lon":5.37722,"is_reserved":false,"is_disabled":false,"rental_uris":{"android":"levelo://app?vid=4bc91397-d580-42f1-87dc-2ff693312dc2","ios":"levelo://app?vid=4bc91397-d580-42f1-87dc-2ff693312dc2"},"vehicle_type_id":"4","last_reported":1749892193,"current_range_meters":22400,"station_id":"ce4bgi92rcd13ifvqb90","pricing_plan_id":"cebpf4jnsgd1na2vs0mg"},{"bike_id":"007ee846-6342-4694-b446-31f6688aa999","system_id":"levelo_inurba_marseille","lat":43.29619,"lon":5.37159,"is_reserved":false,"is_disabled":false,"rental_uris":{"android":"levelo://app?vid=007ee846-6342-4694-b446-31f6688aa999","ios":"levelo://app?vid=007ee846-6342-4694-b446-31f6688aa999"},"vehicle_type_id":"4","last_reported":1749892193,"current_range_meters":22400,"station_id":"ce4bgnh2rcd13ifvqc0g","pricing_plan_id":"cebpf4jnsgd1na2vs0mg"},{"bike_id":"3b66bea7-5ddd-4467-9171-9508969ac4da","system_id":"levelo_inurba_marseille","lat":43.30307,"lon":5.36895,"is_reserved":false,"is_disabled":false,"rental_uris":{"android":"levelo://app?vid=3b66bea7-5ddd-4467-9171-9508969ac4da","ios":"levelo://app?vid=3b66bea7-5ddd-4467-9171-9508969ac4da"},"vehicle_type_id":"4","last_reported":1749892193,"current_range_meters":22400,"station_id":"ce4bgqh2rcd13ifvqc5g","pricing_plan_id":"cebpf4jnsgd1na2vs0mg"},{"bike_id":"bbb13d1e-868a-49b4-8192-9ae3ba677a63","system_id":"levelo_inurba_marseille","lat":43.31478,"lon":5.37301,"is_reserved":false,"is_disabled":false,"rental_uris":{"android":"levelo://app?vid=bbb13d1e-868a-49b4-8192-9ae3ba677a63","ios":"levelo://app?vid=bbb13d1e-868a-49b4-8192-9ae3ba677a63"},"vehicle_type_id":"4","last_reported":1749892193,"current_range_meters":22400,"station_id":"ce4bgt12rcd13ifvqcd0","pricing_plan_id":"cebpf4jnsgd1na2vs0mg"},{"bike_id":"06ab3df1-260b-4e9d-b5ff-17e7561f68f2","system_id":"levelo_inurba_marseille","lat":43.28666,"lon":5.38676,"is_reserved":false,"is_disabled":false,"rental_uris":{"android":"levelo://app?vid=06ab3df1-260b-4e9d-b5ff-17e7561f68f2","ios":"levelo://app?vid=06ab3df1-260b-4e9d-b5ff-17e7561f68f2"},"vehicle_type_id":"4","last_reported":1749892193,"current_range_meters":22400,"station_id":"ce4bh492rcd13ifvqdug","pricing_plan_id":"cebpf4jnsgd1na2vs0mg"},{"bike_id":"9845097f-2a3e-4a2f-b32d-ee589a38d9e8","system_id":"levelo_inurba_marseille","lat":43.25492,"lon":5.37648,"is_reserved":false,"is_disabled":false,"rental_uris":{"android":"levelo://app?vid=9845097f-2a3e-4a2f-b32d-ee589a38d9e8","ios":"levelo://app?vid=9845097f-2a3e-4a2f-b32d-ee589a38d9e8"},"vehicle_type_id":"4","last_reported":1749892193,"current_range_meters":22400,"station_id":"ce4bhh12rcd13ifvqff0","pricing_plan_id":"cebpf4jnsgd1na2vs0mg"},{"bike_id":"0df946ce-0473-443b-a4c6-3b4881c8b15c","system_id":"levelo_inurba_marseille","lat":43.25492,"lon":5.37648,"is_reserved":false,"is_disabled":false,"rental_uris":{"android":"levelo://app?vid=0df946ce-0473-443b-a4c6-3b4881c8b15c","ios":"levelo://app?vid=0df946ce-0473-443b-a4c6-3b4881c8b15c"},"vehicle_type_id":"4","last_reported":1749892193,"current_range_meters":22400,"station_id":"ce4bhh12rcd13ifvqff0","pricing_plan_id":"cebpf4jnsgd1na2vs0mg"},{"bike_id":"f17da9df-7bff-4360-a17d-d442abbf58e5","system_id":"levelo_inurba_marseille","lat":43.26063,"lon":5.39398,"is_reserved":false,"is_disabled":false,"rental_uris":{"android":"levelo://app?vid=f17da9df-7bff-4360-a17d-d442abbf58e5","ios":"levelo://app?vid=f17da9df-7bff-4360-a17d-d442abbf58e5"},"vehicle_type_id":"4","last_reported":1749892193,"current_range_meters":22400,"station_id":"ce4bhh92rcd13ifvqfj0","pricing_plan_id":"cebpf4jnsgd1na2vs0mg"},{"bike_id":"c728fdaf-627b-4df1-b238-cbfc3c8874d6","system_id":"levelo_inurba_marseille","lat":43.25823,"lon":5.39426,"is_reserved":false,"is_disabled":false,"rental_uris":{"android":"levelo://app?vid=c728fdaf-627b-4df1-b238-cbfc3c8874d6","ios":"levelo://app?vid=c728fdaf-627b-4df1-b238-cbfc3c8874d6"},"vehicle_type_id":"4","last_reported":1749892193,"current_range_meters":22400,"station_id":"ce4bhip2rcd13ifvqft0","pricing_plan_id":"cebpf4jnsgd1na2vs0mg"},{"bike_id":"c0512557-9347-4198-b579-d4df5183dde3","system_id":"levelo_inurba_marseille","lat":43.29551,"lon":5.42277,"is_reserved":false,"is_disabled":false,"rental_uris":{"android":"levelo://app?vid=c0512557-9347-4198-b579-d4df5183dde3","ios":"levelo://app?vid=c0512557-9347-4198-b579-d4df5183dde3"},"vehicle_type_id":"4","last_reported":1749892193,"current_range_meters":22400,"station_id":"ce4bhph2rcd13ifvqhdg","pricing_plan_id":"cebpf4jnsgd1na2vs0mg"},{"bike_id":"405f3222-d59e-4941-9cc7-131e4def9f19","system_id":"levelo_inurba_marseille","lat":43.32478,"lon":5.36551,"is_reserved":false,"is_disabled":false,"rental_uris":{"android":"levelo://app?vid=405f3222-d59e-4941-9cc7-131e4def9f19","ios":"levelo://app?vid=405f3222-d59e-4941-9cc7-131e4def9f19"},"vehicle_type_id":"4","last_reported":1749892193,"current_range_meters":22400,"station_id":"ce4bhs12rcd13ifvqhvg","pricing_plan_id":"cebpf4jnsgd1na2vs0mg"},{"bike_id":"17043d26-5309-4754-9027-da3b76d0abdb","system_id":"levelo_inurba_marseille","lat":43.29802,"lon":5.38095,"is_reserved":false,"is_disabled":false,"rental_uris":{"android":"levelo://app?vid=17043d26-5309-4754-9027-da3b76d0abdb","ios":"levelo://app?vid=17043d26-5309-4754-9027-da3b76d0abdb"},"vehicle_type_id":"4","last_reported":1749892193,"current_range_meters":22800,"station_id":"ce4bgip2rcd13ifvqbb0","pricing_plan_id":"cebpf4jnsgd1na2vs0mg"},{"bike_id":"90c3415d-5433-43ad-9ad6-39dfccdaa48f","system_id":"levelo_inurba_marseille","lat":43.29621,"lon":5.37152,"is_reserved":false,"is_disabled":false,"rental_uris":{"android":"levelo://app?vid=90c3415d-5433-43ad-9ad6-39dfccdaa48f","ios":"levelo://app?vid=90c3415d-5433-43ad-9ad6-39dfccdaa48f"},"vehicle_type_id":"4","last_reported":1749892193,"current_range_meters":22800,"station_id":"ce4bgnh2rcd13ifvqc0g","pricing_plan_id":"cebpf4jnsgd1na2vs0mg"},{"bike_id":"f04adbb2-3477-4009-94fc-89317f262c76","system_id":"levelo_inurba_marseille","lat":43.29622,"lon":5.37152,"is_reserved":false,"is_disabled":false,"rental_uris":{"android":"levelo://app?vid=f04adbb2-3477-4009-94fc-89317f262c76","ios":"levelo://app?vid=f04adbb2-3477-4009-94fc-89317f262c76"},"vehicle_type_id":"4","last_reported":1749892193,"current_range_meters":22800,"station_id":"ce4bgnh2rcd13ifvqc0g","pricing_plan_id":"cebpf4jnsgd1na2vs0mg"},{"bike_id":"ec70dbc6-b542-47fd-b9d6-96a882c33edb","system_id":"levelo_inurba_marseille","lat":43.31336,"lon":5.39704,"is_reserved":false,"is_disabled":false,"rental_uris":{"android":"levelo://app?vid=ec70dbc6-b542-47fd-b9d6-96a882c33edb","ios":"levelo://app?vid=ec70dbc6-b542-47fd-b9d6-96a882c33edb"},"vehicle_type_id":"4","last_reported":1749892193,"current_range_meters":22800,"station_id":"ce4bgvp2rcd13ifvqcu0","pricing_plan_id":"cebpf4jnsgd1na2vs0mg"},{"bike_id":"2f66ee4b-715e-4a37-8b4b-8e1c5092ecd4","system_id":"levelo_inurba_marseille","lat":43.25498,"lon":5.37652,"is_reserved":false,"is_disabled":false,"rental_uris":{"android":"levelo://app?vid=2f66ee4b-715e-4a37-8b4b-8e1c5092ecd4","ios":"levelo://app?vid=2f66ee4b-715e-4a37-8b4b-8e1c5092ecd4"},"vehicle_type_id":"4","last_reported":1749892193,"current_range_meters":22800,"station_id":"ce4bhh12rcd13ifvqff0","pricing_plan_id":"cebpf4jnsgd1na2vs0mg"},{"bike_id":"edd67f18-5a93-435c-b0a9-c6e05c483e31","system_id":"levelo_inurba_marseille","lat":43.27056,"lon":5.40257,"is_reserved":false,"is_disabled":false,"rental_uris":{"android":"levelo://app?vid=edd67f18-5a93-435c-b0a9-c6e05c483e31","ios":"levelo://app?vid=edd67f18-5a93-435c-b0a9-c6e05c483e31"},"vehicle_type_id":"4","last_reported":1749892193,"current_range_meters":22800,"station_id":"ce4bhk92rcd13ifvqgc0","pricing_plan_id":"cebpf4jnsgd1na2vs0mg"},{"bike_id":"713f94e3-c67e-4836-bdd5-cfe7bb1b1281","system_id":"levelo_inurba_marseille","lat":43.2256,"lon":5.34785,"is_reserved":false,"is_disabled":false,"rental_uris":{"android":"levelo://app?vid=713f94e3-c67e-4836-bdd5-cfe7bb1b1281","ios":"levelo://app?vid=713f94e3-c67e-4836-bdd5-cfe7bb1b1281"},"vehicle_type_id":"4","last_reported":1749892193,"current_range_meters":23200,"station_id":"","pricing_plan_id":"cebpf4jnsgd1na2vs0mg"},{"bike_id":"89fe23ef-48c4-486c-9248-cbf070bfa4f3","system_id":"levelo_inurba_marseille","lat":43.24389,"lon":5.37062,"is_reserved":false,"is_disabled":false,"rental_uris":{"android":"levelo://app?vid=89fe23ef-48c4-486c-9248-cbf070bfa4f3","ios":"levelo://app?vid=89fe23ef-48c4-486c-9248-cbf070bfa4f3"},"vehicle_type_id":"4","last_reported":1749892193,"current_range_meters":23200,"station_id":"ce4bhhh2rcd13ifvqfk0","pricing_plan_id":"cebpf4jnsgd1na2vs0mg"},{"bike_id":"c957a38c-1a89-49b9-9b9e-da45a4de23f0","system_id":"levelo_inurba_marseille","lat":43.24178,"lon":5.39721,"is_reserved":false,"is_disabled":false,"rental_uris":{"android":"levelo://app?vid=c957a38c-1a89-49b9-9b9e-da45a4de23f0","ios":"levelo://app?vid=c957a38c-1a89-49b9-9b9e-da45a4de23f0"},"vehicle_type_id":"4","last_reported":1749892193,"current_range_meters":23200,"station_id":"ce4bhn12rcd13ifvqgpg","pricing_plan_id":"cebpf4jnsgd1na2vs0mg"},{"bike_id":"537ab8f6-dcd6-49c8-9381-629266306583","system_id":"levelo_inurba_marseille","lat":43.22934,"lon":5.35369,"is_reserved":false,"is_disabled":false,"rental_uris":{"android":"levelo://app?vid=537ab8f6-dcd6-49c8-9381-629266306583","ios":"levelo://app?vid=537ab8f6-dcd6-49c8-9381-629266306583"},"vehicle_type_id":"4","last_reported":1749892193,"current_range_meters":23200,"station_id":"cpo3532slgdg3j2ikp40","pricing_plan_id":"cebpf4jnsgd1na2vs0mg"},{"bike_id":"c0f92f14-d9f0-4bd0-8b21-0b969bcd325a","system_id":"levelo_inurba_marseille","lat":43.21744,"lon":5.34602,"is_reserved":false,"is_disabled":false,"rental_uris":{"android":"levelo://app?vid=c0f92f14-d9f0-4bd0-8b21-0b969bcd325a","ios":"levelo://app?vid=c0f92f14-d9f0-4bd0-8b21-0b969bcd325a"},"vehicle_type_id":"4","last_reported":1749892193,"current_range_meters":23200,"station_id":"st_cvj6r9ubvosntc0bgbag","pricing_plan_id":"cebpf4jnsgd1na2vs0mg"},{"bike_id":"7fbb8cf5-f563-4c4a-90cf-1a5ac10b01c4","system_id":"levelo_inurba_marseille","lat":43.21201,"lon":5.35068,"is_reserved":false,"is_disabled":false,"rental_uris":{"android":"levelo://app?vid=7fbb8cf5-f563-4c4a-90cf-1a5ac10b01c4","ios":"levelo://app?vid=7fbb8cf5-f563-4c4a-90cf-1a5ac10b01c4"},"vehicle_type_id":"4","last_reported":1749892193,"current_range_meters":23200,"station_id":"st_cvj6sg6p6f1abm77japg","pricing_plan_id":"cebpf4jnsgd1na2vs0mg"},{"bike_id":"e925ed2b-babc-4cf9-b75b-bac898fd5635","system_id":"levelo_inurba_marseille","lat":43.21173,"lon":5.35069,"is_reserved":false,"is_disabled":false,"rental_uris":{"android":"levelo://app?vid=e925ed2b-babc-4cf9-b75b-bac898fd5635","ios":"levelo://app?vid=e925ed2b-babc-4cf9-b75b-bac898fd5635"},"vehicle_type_id":"4","last_reported":1749892193,"current_range_meters":23200,"station_id":"st_cvj6sg6p6f1abm77japg","pricing_plan_id":"cebpf4jnsgd1na2vs0mg"},{"bike_id":"9684e87a-c63e-4f03-9da1-30cc603b22bb","system_id":"levelo_inurba_marseille","lat":43.28216,"lon":5.35012,"is_reserved":false,"is_disabled":false,"rental_uris":{"android":"levelo://app?vid=9684e87a-c63e-4f03-9da1-30cc603b22bb","ios":"levelo://app?vid=9684e87a-c63e-4f03-9da1-30cc603b22bb"},"vehicle_type_id":"4","last_reported":1749892193,"current_range_meters":24000,"station_id":"ce4bhbp2rcd13ifvqerg","pricing_plan_id":"cebpf4jnsgd1na2vs0mg"},{"bike_id":"143f5cfb-ef87-4402-81f4-db5ac8d8d7e3","system_id":"levelo_inurba_marseille","lat":43.26208,"lon":5.37442,"is_reserved":false,"is_disabled":false,"rental_uris":{"android":"levelo://app?vid=143f5cfb-ef87-4402-81f4-db5ac8d8d7e3","ios":"levelo://app?vid=143f5cfb-ef87-4402-81f4-db5ac8d8d7e3"},"vehicle_type_id":"4","last_reported":1749892193,"current_range_meters":24000,"station_id":"ce4bhgp2rcd13ifvqfc0","pricing_plan_id":"cebpf4jnsgd1na2vs0mg"},{"bike_id":"f2a513ec-6cd5-4dd3-af7a-3d2b176b4ea1","system_id":"levelo_inurba_marseille","lat":43.25497,"lon":5.37657,"is_reserved":false,"is_disabled":false,"rental_uris":{"android":"levelo://app?vid=f2a513ec-6cd5-4dd3-af7a-3d2b176b4ea1","ios":"levelo://app?vid=f2a513ec-6cd5-4dd3-af7a-3d2b176b4ea1"},"vehicle_type_id":"4","last_reported":1749892193,"current_range_meters":24000,"station_id":"ce4bhh12rcd13ifvqff0","pricing_plan_id":"cebpf4jnsgd1na2vs0mg"},{"bike_id":"079be79b-57d8-463a-abcf-4496cbe52dc6","system_id":"levelo_inurba_marseille","lat":43.26059,"lon":5.39395,"is_reserved":false,"is_disabled":false,"rental_uris":{"android":"levelo://app?vid=079be79b-57d8-463a-abcf-4496cbe52dc6","ios":"levelo://app?vid=079be79b-57d8-463a-abcf-4496cbe52dc6"},"vehicle_type_id":"4","last_reported":1749892193,"current_range_meters":24000,"station_id":"ce4bhh92rcd13ifvqfj0","pricing_plan_id":"cebpf4jnsgd1na2vs0mg"},{"bike_id":"2d2ba5c3-f904-43ca-9c7a-d1d1db331cfd","system_id":"levelo_inurba_marseille","lat":43.24178,"lon":5.3973,"is_reserved":false,"is_disabled":false,"rental_uris":{"android":"levelo://app?vid=2d2ba5c3-f904-43ca-9c7a-d1d1db331cfd","ios":"levelo://app?vid=2d2ba5c3-f904-43ca-9c7a-d1d1db331cfd"},"vehicle_type_id":"4","last_reported":1749892193,"current_range_meters":24000,"station_id":"ce4bhn12rcd13ifvqgpg","pricing_plan_id":"cebpf4jnsgd1na2vs0mg"},{"bike_id":"e7a1a1f9-3c5e-4086-9199-ef0b9051345f","system_id":"levelo_inurba_marseille","lat":43.30524,"lon":5.36504,"is_reserved":false,"is_disabled":false,"rental_uris":{"android":"levelo://app?vid=e7a1a1f9-3c5e-4086-9199-ef0b9051345f","ios":"levelo://app?vid=e7a1a1f9-3c5e-4086-9199-ef0b9051345f"},"vehicle_type_id":"4","last_reported":1749892193,"current_range_meters":24400,"station_id":"","pricing_plan_id":"cebpf4jnsgd1na2vs0mg"},{"bike_id":"b88e08a0-5e03-40d8-b352-590e0c3d84a6","system_id":"levelo_inurba_marseille","lat":43.31515,"lon":5.37343,"is_reserved":false,"is_disabled":false,"rental_uris":{"android":"levelo://app?vid=b88e08a0-5e03-40d8-b352-590e0c3d84a6","ios":"levelo://app?vid=b88e08a0-5e03-40d8-b352-590e0c3d84a6"},"vehicle_type_id":"4","last_reported":1749892193,"current_range_meters":24400,"station_id":"ce4bgt12rcd13ifvqcd0","pricing_plan_id":"cebpf4jnsgd1na2vs0mg"},{"bike_id":"a0407acb-cec1-4a9c-b48a-6e70c26f6d88","system_id":"levelo_inurba_marseille","lat":43.27376,"lon":5.36255,"is_reserved":false,"is_disabled":false,"rental_uris":{"android":"levelo://app?vid=a0407acb-cec1-4a9c-b48a-6e70c26f6d88","ios":"levelo://app?vid=a0407acb-cec1-4a9c-b48a-6e70c26f6d88"},"vehicle_type_id":"4","last_reported":1749892193,"current_range_meters":24400,"station_id":"ce4bhbh2rcd13ifvqeo0","pricing_plan_id":"cebpf4jnsgd1na2vs0mg"},{"bike_id":"f5b7ccdb-9258-4139-a56f-827a09bb638f","system_id":"levelo_inurba_marseille","lat":43.29217,"lon":5.36065,"is_reserved":false,"is_disabled":false,"rental_uris":{"android":"levelo://app?vid=f5b7ccdb-9258-4139-a56f-827a09bb638f","ios":"levelo://app?vid=f5b7ccdb-9258-4139-a56f-827a09bb638f"},"vehicle_type_id":"4","last_reported":1749892193,"current_range_meters":24400,"station_id":"ce4bhbh2rcd13ifvqeqg","pricing_plan_id":"cebpf4jnsgd1na2vs0mg"},{"bike_id":"4652ad04-9a05-4348-a2e4-816ca6642614","system_id":"levelo_inurba_marseille","lat":43.26948,"lon":5.38632,"is_reserved":false,"is_disabled":false,"rental_uris":{"android":"levelo://app?vid=4652ad04-9a05-4348-a2e4-816ca6642614","ios":"levelo://app?vid=4652ad04-9a05-4348-a2e4-816ca6642614"},"vehicle_type_id":"4","last_reported":1749892193,"current_range_meters":24400,"station_id":"ce4bhh92rcd13ifvqfh0","pricing_plan_id":"cebpf4jnsgd1na2vs0mg"},{"bike_id":"ac4d4ace-99d0-4386-ba2d-5539374d4d22","system_id":"levelo_inurba_marseille","lat":43.27056,"lon":5.40255,"is_reserved":false,"is_disabled":false,"rental_uris":{"android":"levelo://app?vid=ac4d4ace-99d0-4386-ba2d-5539374d4d22","ios":"levelo://app?vid=ac4d4ace-99d0-4386-ba2d-5539374d4d22"},"vehicle_type_id":"4","last_reported":1749892193,"current_range_meters":24400,"station_id":"ce4bhk92rcd13ifvqgc0","pricing_plan_id":"cebpf4jnsgd1na2vs0mg"},{"bike_id":"af13718d-4759-4369-a65d-64c1c567ca8e","system_id":"levelo_inurba_marseille","lat":43.24177,"lon":5.39726,"is_reserved":false,"is_disabled":false,"rental_uris":{"android":"levelo://app?vid=af13718d-4759-4369-a65d-64c1c567ca8e","ios":"levelo://app?vid=af13718d-4759-4369-a65d-64c1c567ca8e"},"vehicle_type_id":"4","last_reported":1749892193,"current_range_meters":24400,"station_id":"ce4bhn12rcd13ifvqgpg","pricing_plan_id":"cebpf4jnsgd1na2vs0mg"},{"bike_id":"b23667de-8511-4483-9951-431c9fbaf319","system_id":"levelo_inurba_marseille","lat":43.24177,"lon":5.39725,"is_reserved":false,"is_disabled":false,"rental_uris":{"android":"levelo://app?vid=b23667de-8511-4483-9951-431c9fbaf319","ios":"levelo://app?vid=b23667de-8511-4483-9951-431c9fbaf319"},"vehicle_type_id":"4","last_reported":1749892193,"current_range_meters":24400,"station_id":"ce4bhn12rcd13ifvqgpg","pricing_plan_id":"cebpf4jnsgd1na2vs0mg"},{"bike_id":"7ac7ba8c-5c3f-40dd-b3fb-3b9ba75ea5bd","system_id":"levelo_inurba_marseille","lat":43.29717,"lon":5.37686,"is_reserved":false,"is_disabled":false,"rental_uris":{"android":"levelo://app?vid=7ac7ba8c-5c3f-40dd-b3fb-3b9ba75ea5bd","ios":"levelo://app?vid=7ac7ba8c-5c3f-40dd-b3fb-3b9ba75ea5bd"},"vehicle_type_id":"4","last_reported":1749892193,"current_range_meters":24800,"station_id":"ce4bgkh2rcd13ifvqbl0","pricing_plan_id":"cebpf4jnsgd1na2vs0mg"},{"bike_id":"edf6ff05-7734-4478-8855-561206c56ac7","system_id":"levelo_inurba_marseille","lat":43.30599,"lon":5.37223,"is_reserved":false,"is_disabled":false,"rental_uris":{"android":"levelo://app?vid=edf6ff05-7734-4478-8855-561206c56ac7","ios":"levelo://app?vid=edf6ff05-7734-4478-8855-561206c56ac7"},"vehicle_type_id":"4","last_reported":1749892193,"current_range_meters":24800,"station_id":"ce4bgqh2rcd13ifvqc4g","pricing_plan_id":"cebpf4jnsgd1na2vs0mg"},{"bike_id":"84c00e9b-f4fb-4454-b797-634c2ed85ed5","system_id":"levelo_inurba_marseille","lat":43.3148,"lon":5.37305,"is_reserved":false,"is_disabled":false,"rental_uris":{"android":"levelo://app?vid=84c00e9b-f4fb-4454-b797-634c2ed85ed5","ios":"levelo://app?vid=84c00e9b-f4fb-4454-b797-634c2ed85ed5"},"vehicle_type_id":"4","last_reported":1749892193,"current_range_meters":24800,"station_id":"ce4bgt12rcd13ifvqcd0","pricing_plan_id":"cebpf4jnsgd1na2vs0mg"},