{"last_updated":1737160949,"ttl":60,"version":"2.2","data":{"bikes":[{"bike_id":"8fbe4456-55f6-4d89-9300-3e543a10bd96","system_id":"levelo_inurba_marseille","lat":43.29253,"lon":5.40897,"is_reserved":false,"is_disabled":false,"rental_uris":{"android":"levelo://app?vid=8fbe4456-55f6-4d89-9300-3e543a10bd96","ios":"levelo://app?vid=8fbe4456-55f6-4d89-9300-3e543a10bd96"},"vehicle_type_id":"4","last_reported":1737160949,"current_range_meters":38800,"station_id":"ce4bh192rcd13ifvqdc0","pricing_plan_id":"cebpf4jnsgd1na2vs0mg"},{"bike_id":"0f881e68-539f-46b7-ac38-4fc68735aa91","system_id":"levelo_inurba_marseille","lat":43.2866,"lon":5.3636,"is_reserved":false,"is_disabled":false,"rental_uris":{"android":"levelo://app?vid=0f881e68-539f-46b7-ac38-4fc68735aa91","ios":"levelo://app?vid=0f881e68-539f-46b7-ac38-4fc68735aa91"},"vehicle_type_id":"4","last_reported":1737160949,"current_range_meters":39200,"station_id":"ce4bhah2rcd13ifvqej0","pricing_plan_id":"cebpf4jnsgd1na2vs0mg"},{"bike_id":"5ff80261-e61c-4726-997b-72526469f9ee","system_id":"levelo_inurba_marseille","lat":43.2406,"lon":5.37767,"is_reserved":false,"is_disabled":false,"rental_uris":{"android":"levelo://app?vid=5ff80261-e61c-4726-997b-72526469f9ee","ios":"levelo://app?vid=5ff80261-e61c-4726-997b-72526469f9ee"},"vehicle_type_id":"4","last_reported":1737160949,"current_range_meters":38000,"station_id":"ce4bhnp2rcd13ifvqgvg","pricing_plan_id":"cebpf4jnsgd1na2vs0mg"},{"bike_id":"83423ef3-b993-424a-99e2-60978295cc1a","system_id":"levelo_inurba_marseille","lat":43.27991,"lon":5.41657,"is_reserved":false,"is_disabled":false,"rental_uris":{"android":"levelo://app?vid=83423ef3-b993-424a-99e2-60978295cc1a","ios":"levelo://app?vid=83423ef3-b993-424a-99e2-60978295cc1a"},"vehicle_type_id":"4","last_reported":1737160949,"current_range_meters":11600,"station_id":"ce4bho12rcd13ifvqh1g","pricing_plan_id":"cebpf4jnsgd1na2vs0mg"},{"bike_id":"e84b691f-df6c-4038-8188-902ca43a09e5","system_id":"levelo_inurba_marseille","lat":43.30639,"lon":5.40049,"is_reserved":false,"is_disabled":false,"rental_uris":{"android":"levelo://app?vid=e84b691f-df6c-4038-8188-902ca43a09e5","ios":"levelo://app?vid=e84b691f-df6c-4038-8188-902ca43a09e5"},"vehicle_type_id":"4","last_reported":1737160949,"current_range_meters":39200,"station_id":"ce4bh112rcd13ifvqda0","pricing_plan_id":"cebpf4jnsgd1na2vs0mg"},{"bike_id":"ffba9e4f-6eab-475c-a02b-053418152215","system_id":"levelo_inurba_marseille","lat":43.25497,"lon":5.37651,"is_reserved":false,"is_disabled":false,"rental_uris":{"android":"levelo://app?vid=ffba9e4f-6eab-475c-a02b-053418152215","ios":"levelo://app?vid=ffba9e4f-6eab-475c-a02b-053418152215"},"vehicle_type_id":"4","last_reported":1737160949,"current_range_meters":36400,"station_id":"ce4bhh12rcd13ifvqff0","pricing_plan_id":"cebpf4jnsgd1na2vs0mg"},{"bike_id":"b3cba4ee-4550-47d5-b440-5d744bbdbb65","system_id":"levelo_inurba_marseille","lat":43.29625,"lon":5.40625,"is_reserved":false,"is_disabled":false,"rental_uris":{"android":"levelo://app?vid=b3cba4ee-4550-47d5-b440-5d744bbdbb65","ios":"levelo://app?vid=b3cba4ee-4550-47d5-b440-5d744bbdbb65"},"vehicle_type_id":"4","last_reported":1737160949,"current_range_meters":38400,"station_id":"ce4bh0h2rcd13ifvqd60","pricing_plan_id":"cebpf4jnsgd1na2vs0mg"},{"bike_id":"12dd2448-1029-4b7c-89ec-d387df87cf8f","system_id":"levelo_inurba_marseille","lat":43.30803,"lon":5.3815,"is_reserved":false,"is_disabled":false,"rental_uris":{"android":"levelo://app?vid=12dd2448-1029-4b7c-89ec-d387df87cf8f","ios":"levelo://app?vid=12dd2448-1029-4b7c-89ec-d387df87cf8f"},"vehicle_type_id":"4","last_reported":1737160949,"current_range_meters":38400,"station_id":"ce4bgt12rcd13ifvqce0","pricing_plan_id":"cebpf4jnsgd1na2vs0mg"},{"bike_id":"c86b28e8-8d5a-470d-9cf2-27fc2f94c6b2","system_id":"levelo_inurba_marseille","lat":43.28107,"lon":5.37865,"is_reserved":false,"is_disabled":false,"rental_uris":{"android":"levelo://app?vid=c86b28e8-8d5a-470d-9cf2-27fc2f94c6b2","ios":"levelo://app?vid=c86b28e8-8d5a-470d-9cf2-27fc2f94c6b2"},"vehicle_type_id":"4","last_reported":1737160949,"current_range_meters":17600,"station_id":"ce4bha12rcd13ifvqee0","pricing_plan_id":"cebpf4jnsgd1na2vs0mg"},{"bike_id":"b5f69fe0-a4a5-4828-bcfc-720b5636daf0","system_id":"levelo_inurba_marseille","lat":43.23957,"lon":5.36654,"is_reserved":false,"is_disabled":false,"rental_uris":{"android":"levelo://app?vid=b5f69fe0-a4a5-4828-bcfc-720b5636daf0","ios":"levelo://app?vid=b5f69fe0-a4a5-4828-bcfc-720b5636daf0"},"vehicle_type_id":"4","last_reported":1737160949,"current_range_meters":10800,"station_id":"ce4bhi12rcd13ifvqfp0","pricing_plan_id":"cebpf4jnsgd1na2vs0mg"},{"bike_id":"aea0287f-4f91-4afc-9a41-49d56054a64b","system_id":"levelo_inurba_marseille","lat":43.31685,"lon":5.40468,"is_reserved":false,"is_disabled":false,"rental_uris":{"android":"levelo://app?vid=aea0287f-4f91-4afc-9a41-49d56054a64b","ios":"levelo://app?vid=aea0287f-4f91-4afc-9a41-49d56054a64b"},"vehicle_type_id":"4","last_reported":1737160949,"current_range_meters":16400,"station_id":"ce4bh012rcd13ifvqd00","pricing_plan_id":"cebpf4jnsgd1na2vs0mg"},{"bike_id":"5ff1c1c1-92c2-43f7-8f5e-7f9a3f2cf9a0","system_id":"levelo_inurba_marseille","lat":43.24163,"lon":5.39724,"is_reserved":false,"is_disabled":false,"rental_uris":{"android":"levelo://app?vid=5ff1c1c1-92c2-43f7-8f5e-7f9a3f2cf9a0","ios":"levelo://app?vid=5ff1c1c1-92c2-43f7-8f5e-7f9a3f2cf9a0"},"vehicle_type_id":"4","last_reported":1737160949,"current_range_meters":38800,"station_id":"ce4bhn12rcd13ifvqgpg","pricing_plan_id":"cebpf4jnsgd1na2vs0mg"},{"bike_id":"da0080f8-7d77-4266-9654-4ff013a18db1","system_id":"levelo_inurba_marseille","lat":43.31165,"lon":5.38721,"is_reserved":false,"is_disabled":false,"rental_uris":{"android":"levelo://app?vid=da0080f8-7d77-4266-9654-4ff013a18db1","ios":"levelo://app?vid=da0080f8-7d77-4266-9654-4ff013a18db1"},"vehicle_type_id":"4","last_reported":1737160949,"current_range_meters":30000,"station_id":"ce4bgv12rcd13ifvqcp0","pricing_plan_id":"cebpf4jnsgd1na2vs0mg"},{"bike_id":"01605beb-4537-4676-a338-55111b0cf0a7","system_id":"levelo_inurba_marseille","lat":43.287,"lon":5.37382,"is_reserved":false,"is_disabled":false,"rental_uris":{"android":"levelo://app?vid=01605beb-4537-4676-a338-55111b0cf0a7","ios":"levelo://app?vid=01605beb-4537-4676-a338-55111b0cf0a7"},"vehicle_type_id":"4","last_reported":1737160949,"current_range_meters":8400,"station_id":"ce4bh3p2rcd13ifvqdq0","pricing_plan_id":"cebpf4jnsgd1na2vs0mg"},{"bike_id":"cb6963df-37b4-4275-82ef-a9f24a9af5cb","system_id":"levelo_inurba_marseille","lat":43.30296,"lon":5.3921,"is_reserved":false,"is_disabled":false,"rental_uris":{"android":"levelo://app?vid=cb6963df-37b4-4275-82ef-a9f24a9af5cb","ios":"levelo://app?vid=cb6963df-37b4-4275-82ef-a9f24a9af5cb"},"vehicle_type_id":"4","last_reported":1737160949,"current_range_meters":21600,"station_id":"ce4bgkh2rcd13ifvqbk0","pricing_plan_id":"cebpf4jnsgd1na2vs0mg"},{"bike_id":"f57aec44-1728-458c-a50e-548d613a9de7","system_id":"levelo_inurba_marseille","lat":43.31332,"lon":5.39716,"is_reserved":false,"is_disabled":false,"rental_uris":{"android":"levelo://app?vid=f57aec44-1728-458c-a50e-548d613a9de7","ios":"levelo://app?vid=f57aec44-1728-458c-a50e-548d613a9de7"},"vehicle_type_id":"4","last_reported":1737160949,"current_range_meters":38400,"station_id":"ce4bgvp2rcd13ifvqcu0","pricing_plan_id":"cebpf4jnsgd1na2vs0mg"},{"bike_id":"a5dcdfc0-546b-4a35-a983-5f8da8f6014c","system_id":"levelo_inurba_marseille","lat":43.30934,"lon":5.40145,"is_reserved":false,"is_disabled":false,"rental_uris":{"android":"levelo://app?vid=a5dcdfc0-546b-4a35-a983-5f8da8f6014c","ios":"levelo://app?vid=a5dcdfc0-546b-4a35-a983-5f8da8f6014c"},"vehicle_type_id":"4","last_reported":1737160949,"current_range_meters":38800,"station_id":"ce4bgvp2rcd13ifvqct0","pricing_plan_id":"cebpf4jnsgd1na2vs0mg"},{"bike_id":"32c048c3-e81a-4a29-a33e-90248ec2bdf0","system_id":"levelo_inurba_marseille","lat":43.31366,"lon":5.385,"is_reserved":false,"is_disabled":false,"rental_uris":{"android":"levelo://app?vid=32c048c3-e81a-4a29-a33e-90248ec2bdf0","ios":"levelo://app?vid=32c048c3-e81a-4a29-a33e-90248ec2bdf0"},"vehicle_type_id":"4","last_reported":1737160949,"current_range_meters":38000,"station_id":"ce4bgt92rcd13ifvqcf0","pricing_plan_id":"cebpf4jnsgd1na2vs0mg"},{"bike_id":"d8876122-ff1e-42bb-a9ac-c66c39d72467","system_id":"levelo_inurba_marseille","lat":43.243903,"lon":5.370485,"is_reserved":false,"is_disabled":false,"rental_uris":{"android":"levelo://app?vid=d8876122-ff1e-42bb-a9ac-c66c39d72467","ios":"levelo://app?vid=d8876122-ff1e-42bb-a9ac-c66c39d72467"},"vehicle_type_id":"4","last_reported":1737160949,"current_range_meters":28400,"station_id":"ce4bhhh2rcd13ifvqfk0","pricing_plan_id":"cebpf4jnsgd1na2vs0mg"},{"bike_id":"29cb8a32-e9f9-4658-bd20-77050ade4ff3","system_id":"levelo_inurba_marseille","lat":43.30877,"lon":5.39634,"is_reserved":false,"is_disabled":false,"rental_uris":{"android":"levelo://app?vid=29cb8a32-e9f9-4658-bd20-77050ade4ff3","ios":"levelo://app?vid=29cb8a32-e9f9-4658-bd20-77050ade4ff3"},"vehicle_type_id":"4","last_reported":1737160949,"current_range_meters":28800,"station_id":"ce4bh012rcd13ifvqcv0","pricing_plan_id":"cebpf4jnsgd1na2vs0mg"},{"bike_id":"c22b1f21-8fa9-43f7-b474-851f04d9cabe","system_id":"levelo_inurba_marseille","lat":43.27814,"lon":5.39227,"is_reserved":false,"is_disabled":false,"rental_uris":{"android":"levelo://app?vid=c22b1f21-8fa9-43f7-b474-851f04d9cabe","ios":"levelo://app?vid=c22b1f21-8fa9-43f7-b474-851f04d9cabe"},"vehicle_type_id":"4","last_reported":1737160949,"current_range_meters":24000,"station_id":"ce4bhjp2rcd13ifvqga0","pricing_plan_id":"cebpf4jnsgd1na2vs0mg"},{"bike_id":"b8fec1c1-401a-47ca-bedf-01b3cfadb88f","system_id":"levelo_inurba_marseille","lat":43.31281,"lon":5.40166,"is_reserved":false,"is_disabled":false,"rental_uris":{"android":"levelo://app?vid=b8fec1c1-401a-47ca-bedf-01b3cfadb88f","ios":"levelo://app?vid=b8fec1c1-401a-47ca-bedf-01b3cfadb88f"},"vehicle_type_id":"4","last_reported":1737160949,"current_range_meters":35200,"station_id":"ce4bh092rcd13ifvqd30","pricing_plan_id":"cebpf4jnsgd1na2vs0mg"},{"bike_id":"453b4a42-026b-40d5-9f5c-2f1a04698821","system_id":"levelo_inurba_marseille","lat":43.31273,"lon":5.40163,"is_reserved":false,"is_disabled":false,"rental_uris":{"android":"levelo://app?vid=453b4a42-026b-40d5-9f5c-2f1a04698821","ios":"levelo://app?vid=453b4a42-026b-40d5-9f5c-2f1a04698821"},"vehicle_type_id":"4","last_reported":1737160949,"current_range_meters":39200,"station_id":"ce4bh092rcd13ifvqd30","pricing_plan_id":"cebpf4jnsgd1na2vs0mg"},{"bike_id":"e61e1f5e-4a92-48d3-a7ca-c12197871b5f","system_id":"levelo_inurba_marseille","lat":43.31225,"lon":5.36899,"is_reserved":false,"is_disabled":false,"rental_uris":{"android":"levelo://app?vid=e61e1f5e-4a92-48d3-a7ca-c12197871b5f","ios":"levelo://app?vid=e61e1f5e-4a92-48d3-a7ca-c12197871b5f"},"vehicle_type_id":"4","last_reported":1737160949,"current_range_meters":39200,"station_id":"ce4bgl92rcd13ifvqbq0","pricing_plan_id":"cebpf4jnsgd1na2vs0mg"},{"bike_id":"afff1649-59f3-4475-b17f-4286047a72cf","system_id":"levelo_inurba_marseille","lat":43.30929,"lon":5.40123,"is_reserved":false,"is_disabled":false,"rental_uris":{"android":"levelo://app?vid=afff1649-59f3-4475-b17f-4286047a72cf","ios":"levelo://app?vid=afff1649-59f3-4475-b17f-4286047a72cf"},"vehicle_type_id":"4","last_reported":1737160949,"current_range_meters":20800,"station_id":"ce4bgvp2rcd13ifvqct0","pricing_plan_id":"cebpf4jnsgd1na2vs0mg"},{"bike_id":"40d0191c-e810-4a36-a422-bc4c430d36d5","system_id":"levelo_inurba_marseille","lat":43.28151,"lon":5.42656,"is_reserved":false,"is_disabled":false,"rental_uris":{"android":"levelo://app?vid=40d0191c-e810-4a36-a422-bc4c430d36d5","ios":"levelo://app?vid=40d0191c-e810-4a36-a422-bc4c430d36d5"},"vehicle_type_id":"4","last_reported":1737160949,"current_range_meters":20400,"station_id":"ce4bhnh2rcd13ifvqgug","pricing_plan_id":"cebpf4jnsgd1na2vs0mg"},{"bike_id":"ea820ade-d81d-428e-82b9-7f165f7e8e75","system_id":"levelo_inurba_marseille","lat":43.318394,"lon":5.373994,"is_reserved":false,"is_disabled":false,"rental_uris":{"android":"levelo://app?vid=ea820ade-d81d-428e-82b9-7f165f7e8e75","ios":"levelo://app?vid=ea820ade-d81d-428e-82b9-7f165f7e8e75"},"vehicle_type_id":"4","last_reported":1737160949,"current_range_meters":24800,"station_id":"","pricing_plan_id":"cebpf4jnsgd1na2vs0mg"},{"bike_id":"ff4b68f1-ba61-49bc-bc42-1ee83da4c2ee","system_id":"levelo_inurba_marseille","lat":43.30885,"lon":5.39646,"is_reserved":false,"is_disabled":false,"rental_uris":{"android":"levelo://app?vid=ff4b68f1-ba61-49bc-bc42-1ee83da4c2ee","ios":"levelo://app?vid=ff4b68f1-ba61-49bc-bc42-1ee83da4c2ee"},"vehicle_type_id":"4","last_reported":1737160949,"current_range_meters":37600,"station_id":"ce4bh012rcd13ifvqcv0","pricing_plan_id":"cebpf4jnsgd1na2vs0mg"},{"bike_id":"84020291-e3ee-488e-a74c-f035fe041e83","system_id":"levelo_inurba_marseille","lat":43.26937,"lon":5.40254,"is_reserved":false,"is_disabled":false,"rental_uris":{"android":"levelo://app?vid=84020291-e3ee-488e-a74c-f035fe041e83","ios":"levelo://app?vid=84020291-e3ee-488e-a74c-f035fe041e83"},"vehicle_type_id":"4","last_reported":1737160949,"current_range_meters":20400,"station_id":"cjm6bp8fraef2m0cb0m0","pricing_plan_id":"cebpf4jnsgd1na2vs0mg"},{"bike_id":"15c9bac7-063b-4008-8233-689b3351f329","system_id":"levelo_inurba_marseille","lat":43.24808,"lon":5.37457,"is_reserved":false,"is_disabled":false,"rental_uris":{"android":"levelo://app?vid=15c9bac7-063b-4008-8233-689b3351f329","ios":"levelo://app?vid=15c9bac7-063b-4008-8233-689b3351f329"},"vehicle_type_id":"4","last_reported":1737160949,"current_range_meters":38800,"station_id":"ce4bhgh2rcd13ifvqfb0","pricing_plan_id":"cebpf4jnsgd1na2vs0mg"},{"bike_id":"8c854656-dcbb-4282-96d8-4a8ea876f913","system_id":"levelo_inurba_marseille","lat":43.30321,"lon":5.40406,"is_reserved":false,"is_disabled":false,"rental_uris":{"android":"levelo://app?vid=8c854656-dcbb-4282-96d8-4a8ea876f913","ios":"levelo://app?vid=8c854656-dcbb-4282-96d8-4a8ea876f913"},"vehicle_type_id":"4","last_reported":1737160949,"current_range_meters":33600,"station_id":"ce4bh012rcd13ifvqd10","pricing_plan_id":"cebpf4jnsgd1na2vs0mg"},{"bike_id":"d8fbafb8-c367-43a8-89ce-c028dba221aa","system_id":"levelo_inurba_marseille","lat":43.29248,"lon":5.40902,"is_reserved":false,"is_disabled":false,"rental_uris":{"android":"levelo://app?vid=d8fbafb8-c367-43a8-89ce-c028dba221aa","ios":"levelo://app?vid=d8fbafb8-c367-43a8-89ce-c028dba221aa"},"vehicle_type_id":"4","last_reported":1737160949,"current_range_meters":38800,"station_id":"ce4bh192rcd13ifvqdc0","pricing_plan_id":"cebpf4jnsgd1na2vs0mg"},{"bike_id":"996cc7ad-31ae-48de-8584-bf53e40d5297","system_id":"levelo_inurba_marseille","lat":43.28103,"lon":5.37854,"is_reserved":false,"is_disabled":false,"rental_uris":{"android":"levelo://app?vid=996cc7ad-31ae-48de-8584-bf53e40d5297","ios":"levelo://app?vid=996cc7ad-31ae-48de-8584-bf53e40d5297"},"vehicle_type_id":"4","last_reported":1737160949,"current_range_meters":2800,"station_id":"ce4bha12rcd13ifvqee0","pricing_plan_id":"cebpf4jnsgd1na2vs0mg"},{"bike_id":"b672b566-ae6e-4181-a2cb-0155be334a04","system_id":"levelo_inurba_marseille","lat":43.28936,"lon":5.3663,"is_reserved":false,"is_disabled":true,"rental_uris":{"android":"levelo://app?vid=b672b566-ae6e-4181-a2cb-0155be334a04","ios":"levelo://app?vid=b672b566-ae6e-4181-a2cb-0155be334a04"},"vehicle_type_id":"4","last_reported":1737160949,"current_range_meters":16800,"station_id":"ce4bhap2rcd13ifvqek0","pricing_plan_id":"cebpf4jnsgd1na2vs0mg"},{"bike_id":"264e5736-5f1f-488b-9894-7a93e48763e1","system_id":"levelo_inurba_marseille","lat":43.28462,"lon":5.3588,"is_reserved":false,"is_disabled":false,"rental_uris":{"android":"levelo://app?vid=264e5736-5f1f-488b-9894-7a93e48763e1","ios":"levelo://app?vid=264e5736-5f1f-488b-9894-7a93e48763e1"},"vehicle_type_id":"4","last_reported":1737160949,"current_range_meters":15200,"station_id":"ce4bhah2rcd13ifvqei0","pricing_plan_id":"cebpf4jnsgd1na2vs0mg"},{"bike_id":"fd32118a-1e10-4bd3-9c96-03160537b3f3","system_id":"levelo_inurba_marseille","lat":43.28729,"lon":5.36081,"is_reserved":false,"is_disabled":false,"rental_uris":{"android":"levelo://app?vid=fd32118a-1e10-4bd3-9c96-03160537b3f3","ios":"levelo://app?vid=fd32118a-1e10-4bd3-9c96-03160537b3f3"},"vehicle_type_id":"4","last_reported":1737160949,"current_range_meters":25200,"station_id":"cki0cbj6b192h4jlfktg","pricing_plan_id":"cebpf4jnsgd1na2vs0mg"},{"bike_id":"66ec8711-3dbc-48f7-b091-25773ac6b77c","system_id":"levelo_inurba_marseille","lat":43.28192,"lon":5.44246,"is_reserved":false,"is_disabled":true,"rental_uris":{"android":"levelo://app?vid=66ec8711-3dbc-48f7-b091-25773ac6b77c","ios":"levelo://app?vid=66ec8711-3dbc-48f7-b091-25773ac6b77c"},"vehicle_type_id":"4","last_reported":1737160949,"current_range_meters":0,"station_id":"","pricing_plan_id":"cebpf4jnsgd1na2vs0mg"},{"bike_id":"65823022-9928-4d86-a833-bdff07e2c3ee","system_id":"levelo_inurba_marseille","lat":43.2987,"lon":5.38886,"is_reserved":false,"is_disabled":false,"rental_uris":{"android":"levelo://app?vid=65823022-9928-4d86-a833-bdff07e2c3ee","ios":"levelo://app?vid=65823022-9928-4d86-a833-bdff07e2c3ee"},"vehicle_type_id":"4","last_reported":1737160949,"current_range_meters":30400,"station_id":"ce4bh392rcd13ifvqdl0","pricing_plan_id":"cebpf4jnsgd1na2vs0mg"},{"bike_id":"0450fc1d-4dae-452a-b90d-2a2c5c153732","system_id":"levelo_inurba_marseille","lat":43.24083,"lon":5.37744,"is_reserved":false,"is_disabled":false,"rental_uris":{"android":"levelo://app?vid=0450fc1d-4dae-452a-b90d-2a2c5c153732","ios":"levelo://app?vid=0450fc1d-4dae-452a-b90d-2a2c5c153732"},"vehicle_type_id":"4","last_reported":1737160949,"current_range_meters":37600,"station_id":"ce4bhnp2rcd13ifvqgvg","pricing_plan_id":"cebpf4jnsgd1na2vs0mg"},{"bike_id":"5e143f2e-5809-48e3-af3c-832b93623f81","system_id":"levelo_inurba_marseille","lat":43.29796,"lon":5.40417,"is_reserved":false,"is_disabled":false,"rental_uris":{"android":"levelo://app?vid=5e143f2e-5809-48e3-af3c-832b93623f81","ios":"levelo://app?vid=5e143f2e-5809-48e3-af3c-832b93623f81"},"vehicle_type_id":"4","last_reported":1737160949,"current_range_meters":37600,"station_id":"ce4bh112rcd13ifvqd90","pricing_plan_id":"cebpf4jnsgd1na2vs0mg"},{"bike_id":"3bd0eb40-f291-4cb5-b2b1-61d9f8b0867e","system_id":"levelo_inurba_marseille","lat":43.24074,"lon":5.37756,"is_reserved":false,"is_disabled":false,"rental_uris":{"android":"levelo://app?vid=3bd0eb40-f291-4cb5-b2b1-61d9f8b0867e","ios":"levelo://app?vid=3bd0eb40-f291-4cb5-b2b1-61d9f8b0867e"},"vehicle_type_id":"4","last_reported":1737160949,"current_range_meters":30400,"station_id":"ce4bhnp2rcd13ifvqgvg","pricing_plan_id":"cebpf4jnsgd1na2vs0mg"},{"bike_id":"88b6469a-6daf-463c-a86f-49207d545e46","system_id":"levelo_inurba_marseille","lat":43.29048,"lon":5.37149,"is_reserved":false,"is_disabled":false,"rental_uris":{"android":"levelo://app?vid=88b6469a-6daf-463c-a86f-49207d545e46","ios":"levelo://app?vid=88b6469a-6daf-463c-a86f-49207d545e46"},"vehicle_type_id":"4","last_reported":1737160949,"current_range_meters":39200,"station_id":"ce4bh5p2rcd13ifvqe4g","pricing_plan_id":"cebpf4jnsgd1na2vs0mg"},{"bike_id":"1868f7b4-612c-46e0-9d9b-0eb6db9a167e","system_id":"levelo_inurba_marseille","lat":43.30098,"lon":5.39071,"is_reserved":false,"is_disabled":false,"rental_uris":{"android":"levelo://app?vid=1868f7b4-612c-46e0-9d9b-0eb6db9a167e","ios":"levelo://app?vid=1868f7b4-612c-46e0-9d9b-0eb6db9a167e"},"vehicle_type_id":"4","last_reported":1737160949,"current_range_meters":17600,"station_id":"ce4bh192rcd13ifvqdb0","pricing_plan_id":"cebpf4jnsgd1na2vs0mg"},{"bike_id":"b6727c2a-0037-431b-96be-59029d8169fa","system_id":"levelo_inurba_marseille","lat":43.31177,"lon":5.36894,"is_reserved":false,"is_disabled":false,"rental_uris":{"android":"levelo://app?vid=b6727c2a-0037-431b-96be-59029d8169fa","ios":"levelo://app?vid=b6727c2a-0037-431b-96be-59029d8169fa"},"vehicle_type_id":"4","last_reported":1737160949,"current_range_meters":28400,"station_id":"","pricing_plan_id":"cebpf4jnsgd1na2vs0mg"},{"bike_id":"0ce2ff96-cf7c-44da-8785-cacc89ceb5f3","system_id":"levelo_inurba_marseille","lat":43.27552,"lon":5.38452,"is_reserved":false,"is_disabled":false,"rental_uris":{"android":"levelo://app?vid=0ce2ff96-cf7c-44da-8785-cacc89ceb5f3","ios":"levelo://app?vid=0ce2ff96-cf7c-44da-8785-cacc89ceb5f3"},"vehicle_type_id":"4","last_reported":1737160949,"current_range_meters":38800,"station_id":"ce4bhh92rcd13ifvqfi0","pricing_plan_id":"cebpf4jnsgd1na2vs0mg"},{"bike_id":"fae596ec-c4c8-4303-a419-c17ca93b0494","system_id":"levelo_inurba_marseille","lat":43.28264,"lon":5.35085,"is_reserved":false,"is_disabled":false,"rental_uris":{"android":"levelo://app?vid=fae596ec-c4c8-4303-a419-c17ca93b0494","ios":"levelo://app?vid=fae596ec-c4c8-4303-a419-c17ca93b0494"},"vehicle_type_id":"4","last_reported":1737160949,"current_range_meters":16800,"station_id":"ce4bhbp2rcd13ifvqerg","pricing_plan_id":"cebpf4jnsgd1na2vs0mg"},{"bike_id":"4db02bf0-6e87-4f69-8331-383a454d338f","system_id":"levelo_inurba_marseille","lat":43.2512,"lon":5.40314,"is_reserved":false,"is_disabled":false,"rental_uris":{"android":"levelo://app?vid=4db02bf0-6e87-4f69-8331-383a454d338f","ios":"levelo://app?vid=4db02bf0-6e87-4f69-8331-383a454d338f"},"vehicle_type_id":"4","last_reported":1737160949,"current_range_meters":19200,"station_id":"ce4bhlh2rcd13ifvqgig","pricing_plan_id":"cebpf4jnsgd1na2vs0mg"},{"bike_id":"8a976244-dead-4ea1-8752-b392d9189278","system_id":"levelo_inurba_marseille","lat":43.2895,"lon":5.36405,"is_reserved":false,"is_disabled":false,"rental_uris":{"android":"levelo://app?vid=8a976244-dead-4ea1-8752-b392d9189278","ios":"levelo://app?vid=8a976244-dead-4ea1-8752-b392d9189278"},"vehicle_type_id":"4","last_reported":1737160949,"current_range_meters":36800,"station_id":"ce4bhc92rcd13ifvqetg","pricing_plan_id":"cebpf4jnsgd1na2vs0mg"},{"bike_id":"404c84e1-2412-41f4-a3e3-c0c5dcae08ab","system_id":"levelo_inurba_marseille","lat":43.29006,"lon":5.35622,"is_reserved":false,"is_disabled":false,"rental_uris":{"android":"levelo://app?vid=404c84e1-2412-41f4-a3e3-c0c5dcae08ab","ios":"levelo://app?vid=404c84e1-2412-41f4-a3e3-c0c5dcae08ab"},"vehicle_type_id":"4","last_reported":1737160949,"current_range_meters":26000,"station_id":"ce4bhb92rcd13ifvqen0","pricing_plan_id":"cebpf4jnsgd1na2vs0mg"},{"bike_id":"7290a960-a5a5-4813-ae34-1769183e58f7","system_id":"levelo_inurba_marseille","lat":43.30645,"lon":5.40066,"is_reserved":false,"is_disabled":false,"rental_uris":{"android":"levelo://app?vid=7290a960-a5a5-4813-ae34-1769183e58f7","ios":"levelo://app?vid=7290a960-a5a5-4813-ae34-1769183e58f7"},"vehicle_type_id":"4","last_reported":1737160949,"current_range_meters":9200,"station_id":"ce4bh112rcd13ifvqda0","pricing_plan_id":"cebpf4jnsgd1na2vs0mg"},{"bike_id":"d538085c-342a-4314-81c7-b4e115511ca7","system_id":"levelo_inurba_marseille","lat":43.30331,"lon":5.40443,"is_reserved":false,"is_disabled":false,"rental_uris":{"android":"levelo://app?vid=d538085c-342a-4314-81c7-b4e115511ca7","ios":"levelo://app?vid=d538085c-342a-4314-81c7-b4e115511ca7"},"vehicle_type_id":"4","last_reported":1737160949,"current_range_meters":31200,"station_id":"ce4bh012rcd13ifvqd10","pricing_plan_id":"cebpf4jnsgd1na2vs0mg"},{"bike_id":"2ee0ccc1-a9e0-4e15-a20f-a75b9ce52b18","system_id":"levelo_inurba_marseille","lat":43.28466,"lon":5.35886,"is_reserved":false,"is_disabled":false,"rental_uris":{"android":"levelo://app?vid=2ee0ccc1-a9e0-4e15-a20f-a75b9ce52b18","ios":"levelo://app?vid=2ee0ccc1-a9e0-4e15-a20f-a75b9ce52b18"},"vehicle_type_id":"4","last_reported":1737160949,"current_range_meters":38800,"station_id":"ce4bhah2rcd13ifvqei0","pricing_plan_id":"cebpf4jnsgd1na2vs0mg"},{"bike_id":"06cbc3c2-e2d5-43e1-b11b-e14f02e91dcf","system_id":"levelo_inurba_marseille","lat":43.29007,"lon":5.35613,"is_reserved":false,"is_disabled":false,"rental_uris":{"android":"levelo://app?vid=06cbc3c2-e2d5-43e1-b11b-e14f02e91dcf","ios":"levelo://app?vid=06cbc3c2-e2d5-43e1-b11b-e14f02e91dcf"},"vehicle_type_id":"4","last_reported":1737160949,"current_range_meters":36800,"station_id":"ce4bhb92rcd13ifvqen0","pricing_plan_id":"cebpf4jnsgd1na2vs0mg"},{"bike_id":"ddd0f931-cbac-4c6f-a954-99f4c395d4da","system_id":"levelo_inurba_marseille","lat":43.27991,"lon":5.3878,"is_reserved":false,"is_disabled":false,"rental_uris":{"android":"levelo://app?vid=ddd0f931-cbac-4c6f-a954-99f4c395d4da","ios":"levelo://app?vid=ddd0f931-cbac-4c6f-a954-99f4c395d4da"},"vehicle_type_id":"4","last_reported":1737160949,"current_range_meters":36800,"station_id":"ce4bhg12rcd13ifvqf80","pricing_plan_id":"cebpf4jnsgd1na2vs0mg"},{"bike_id":"e44d3b46-7a6c-48a1-bfde-c63c43f92cf0","system_id":"levelo_inurba_marseille","lat":43.28622,"lon":5.35119,"is_reserved":false,"is_disabled":false,"rental_uris":{"android":"levelo://app?vid=e44d3b46-7a6c-48a1-bfde-c63c43f92cf0","ios":"levelo://app?vid=e44d3b46-7a6c-48a1-bfde-c63c43f92cf0"},"vehicle_type_id":"4","last_reported":1737160949,"current_range_meters":31200,"station_id":"ce4bhch2rcd13ifvqeug","pricing_plan_id":"cebpf4jnsgd1na2vs0mg"},{"bike_id":"25332f52-1e5b-488b-9e27-b2b6a2102903","system_id":"levelo_inurba_marseille","lat":43.28937,"lon":5.36638,"is_reserved":false,"is_disabled":false,"rental_uris":{"android":"levelo://app?vid=25332f52-1e5b-488b-9e27-b2b6a2102903","ios":"levelo://app?vid=25332f52-1e5b-488b-9e27-b2b6a2102903"},"vehicle_type_id":"4","last_reported":1737160949,"current_range_meters":39200,"station_id":"ce4bhap2rcd13ifvqek0","pricing_plan_id":"cebpf4jnsgd1na2vs0mg"},{"bike_id":"034764a4-57b8-404a-9faa-15d67a8b57f9","system_id":"levelo_inurba_marseille","lat":43.28073,"lon":5.39647,"is_reserved":false,"is_disabled":false,"rental_uris":{"android":"levelo://app?vid=034764a4-57b8-404a-9faa-15d67a8b57f9","ios":"levelo://app?vid=034764a4-57b8-404a-9faa-15d67a8b57f9"},"vehicle_type_id":"4","last_reported":1737160949,"current_range_meters":8400,"station_id":"ce4bho12rcd13ifvqh2g","pricing_plan_id":"cebpf4jnsgd1na2vs0mg"},{"bike_id":"0dc6f470-e107-4a62-9e24-59aa7a910dcd","system_id":"levelo_inurba_marseille","lat":43.30932,"lon":5.40171,"is_reserved":false,"is_disabled":false,"rental_uris":{"android":"levelo://app?vid=0dc6f470-e107-4a62-9e24-59aa7a910dcd","ios":"levelo://app?vid=0dc6f470-e107-4a62-9e24-59aa7a910dcd"},"vehicle_type_id":"4","last_reported":1737160949,"current_range_meters":34000,"station_id":"ce4bgvp2rcd13ifvqct0","pricing_plan_id":"cebpf4jnsgd1na2vs0mg"},{"bike_id":"a8e68905-4196-41cc-90d8-ce6a1fbe0294","system_id":"levelo_inurba_marseille","lat":43.27888,"lon":5.37999,"is_reserved":false,"is_disabled":false,"rental_uris":{"android":"levelo://app?vid=a8e68905-4196-41cc-90d8-ce6a1fbe0294","ios":"levelo://app?vid=a8e68905-4196-41cc-90d8-ce6a1fbe0294"},"vehicle_type_id":"4","last_reported":1737160949,"current_range_meters":4400,"station_id":"ce4bhf92rcd13ifvqf50","pricing_plan_id":"cebpf4jnsgd1na2vs0mg"},{"bike_id":"50dff923-6637-4623-b3c6-12a3cea221cd","system_id":"levelo_inurba_marseille","lat":43.28459,"lon":5.35885,"is_reserved":false,"is_disabled":false,"rental_uris":{"android":"levelo://app?vid=50dff923-6637-4623-b3c6-12a3cea221cd","ios":"levelo://app?vid=50dff923-6637-4623-b3c6-12a3cea221cd"},"vehicle_type_id":"4","last_reported":1737160949,"current_range_meters":38800,"station_id":"ce4bhah2rcd13ifvqei0","pricing_plan_id":"cebpf4jnsgd1na2vs0mg"},{"bike_id":"8926b51e-df5d-4d8d-9a11-c3df764a0fbf","system_id":"levelo_inurba_marseille","lat":43.30789,"lon":5.37633,"is_reserved":false,"is_disabled":false,"rental_uris":{"android":"levelo://app?vid=8926b51e-df5d-4d8d-9a11-c3df764a0fbf","ios":"levelo://app?vid=8926b51e-df5d-4d8d-9a11-c3df764a0fbf"},"vehicle_type_id":"4","last_reported":1737160949,"current_range_meters":32000,"station_id":"ce4bgv92rcd13ifvqcq0","pricing_plan_id":"cebpf4jnsgd1na2vs0mg"},{"bike_id":"e1eea23d-75a8-456c-b1ac-bde77546b9f8","system_id":"levelo_inurba_marseille","lat":43.28435,"lon":5.39198,"is_reserved":false,"is_disabled":false,"rental_uris":{"android":"levelo://app?vid=e1eea23d-75a8-456c-b1ac-bde77546b9f8","ios":"levelo://app?vid=e1eea23d-75a8-456c-b1ac-bde77546b9f8"},"vehicle_type_id":"4","last_reported":1737160949,"current_range_meters":37600,"station_id":"ce4bhoh2rcd13ifvqh5g","pricing_plan_id":"cebpf4jnsgd1na2vs0mg"},{"bike_id":"c6b2298b-e3ea-4ff5-9aea-4dedd2e2a126","system_id":"levelo_inurba_marseille","lat":43.29513,"lon":5.39036,"is_reserved":false,"is_disabled":true,"rental_uris":{"android":"levelo://app?vid=c6b2298b-e3ea-4ff5-9aea-4dedd2e2a126","ios":"levelo://app?vid=c6b2298b-e3ea-4ff5-9aea-4dedd2e2a126"},"vehicle_type_id":"4","last_reported":1737160949,"current_range_meters":30400,"station_id":"ce4bh3p2rcd13ifvqdp0","pricing_plan_id":"cebpf4jnsgd1na2vs0mg"},{"bike_id":"6802b89c-8da4-4173-a497-131430ef9a30","system_id":"levelo_inurba_marseille","lat":43.29763,"lon":5.38096,"is_reserved":false,"is_disabled":false,"rental_uris":{"android":"levelo://app?vid=6802b89c-8da4-4173-a497-131430ef9a30","ios":"levelo://app?vid=6802b89c-8da4-4173-a497-131430ef9a30"},"vehicle_type_id":"4","last_reported":1737160949,"current_range_meters":5600,"station_id":"ce4bgip2rcd13ifvqbb0","pricing_plan_id":"cebpf4jnsgd1na2vs0mg"},{"bike_id":"a9034fc7-3db7-4c0a-ab50-0facf2df5a9b","system_id":"levelo_inurba_marseille","lat":43.28349,"lon":5.38106,"is_reserved":false,"is_disabled":false,"rental_uris":{"android":"levelo://app?vid=a9034fc7-3db7-4c0a-ab50-0facf2df5a9b","ios":"levelo://app?vid=a9034fc7-3db7-4c0a-ab50-0facf2df5a9b"},"vehicle_type_id":"4","last_reported":1737160949,"current_range_meters":34000,"station_id":"ce4bh412rcd13ifvqdr0","pricing_plan_id":"cebpf4jnsgd1na2vs0mg"},{"bike_id":"c73975e6-ce75-4567-b1ed-6f701549cfcd","system_id":"levelo_inurba_marseille","lat":43.25867,"lon":5.39897,"is_reserved":false,"is_disabled":false,"rental_uris":{"android":"levelo://app?vid=c73975e6-ce75-4567-b1ed-6f701549cfcd","ios":"levelo://app?vid=c73975e6-ce75-4567-b1ed-6f701549cfcd"},"vehicle_type_id":"4","last_reported":1737160949,"current_range_meters":28400,"station_id":"ce4bhl92rcd13ifvqghg","pricing_plan_id":"cebpf4jnsgd1na2vs0mg"},{"bike_id":"e174d81a-f0d8-4ee0-a732-d6081a625def","system_id":"levelo_inurba_marseille","lat":43.270415,"lon":5.40707,"is_reserved":false,"is_disabled":false,"rental_uris":{"android":"levelo://app?vid=e174d81a-f0d8-4ee0-a732-d6081a625def","ios":"levelo://app?vid=e174d81a-f0d8-4ee0-a732-d6081a625def"},"vehicle_type_id":"4","last_reported":1737160949,"current_range_meters":31200,"station_id":"ce4bhl12rcd13ifvqgf0","pricing_plan_id":"cebpf4jnsgd1na2vs0mg"},{"bike_id":"6ea4d259-06b8-4e0f-9494-4eae2040b46d","system_id":"levelo_inurba_marseille","lat":43.24206,"lon":5.39734,"is_reserved":false,"is_disabled":false,"rental_uris":{"android":"levelo://app?vid=6ea4d259-06b8-4e0f-9494-4eae2040b46d","ios":"levelo://app?vid=6ea4d259-06b8-4e0f-9494-4eae2040b46d"},"vehicle_type_id":"4","last_reported":1737160949,"current_range_meters":26800,"station_id":"ce4bhn12rcd13ifvqgpg","pricing_plan_id":"cebpf4jnsgd1na2vs0mg"},{"bike_id":"89dc6e27-7cee-4c18-ae4a-3d1b5455e568","system_id":"levelo_inurba_marseille","lat":43.29188,"lon":5.39323,"is_reserved":false,"is_disabled":false,"rental_uris":{"android":"levelo://app?vid=89dc6e27-7cee-4c18-ae4a-3d1b5455e568","ios":"levelo://app?vid=89dc6e27-7cee-4c18-ae4a-3d1b5455e568"},"vehicle_type_id":"4","last_reported":1737160949,"current_range_meters":38800,"station_id":"ce4bh192rcd13ifvqdd0","pricing_plan_id":"cebpf4jnsgd1na2vs0mg"},{"bike_id":"b148288c-2873-49ad-b940-1e1b71e69393","system_id":"levelo_inurba_marseille","lat":43.23152,"lon":5.43722,"is_reserved":false,"is_disabled":false,"rental_uris":{"android":"levelo://app?vid=b148288c-2873-49ad-b940-1e1b71e69393","ios":"levelo://app?vid=b148288c-2873-49ad-b940-1e1b71e69393"},"vehicle_type_id":"4","last_reported":1737160949,"current_range_meters":8800,"station_id":"ce4bhmp2rcd13ifvqgog","pricing_plan_id":"cebpf4jnsgd1na2vs0mg"},{"bike_id":"0aacbbb4-b4df-4112-9f3e-9c8b0c3a36b2","system_id":"levelo_inurba_marseille","lat":43.24377,"lon":5.3707,"is_reserved":false,"is_disabled":false,"rental_uris":{"android":"levelo://app?vid=0aacbbb4-b4df-4112-9f3e-9c8b0c3a36b2","ios":"levelo://app?vid=0aacbbb4-b4df-4112-9f3e-9c8b0c3a36b2"},"vehicle_type_id":"4","last_reported":1737160949,"current_range_meters":38800,"station_id":"ce4bhhh2rcd13ifvqfk0","pricing_plan_id":"cebpf4jnsgd1na2vs0mg"},{"bike_id":"4195a369-a7ca-4062-b0c4-11dcec0d9a33","system_id":"levelo_inurba_marseille","lat":43.30294,"lon":5.39178,"is_reserved":false,"is_disabled":true,"rental_uris":{"android":"levelo://app?vid=4195a369-a7ca-4062-b0c4-11dcec0d9a33","ios":"levelo://app?vid=4195a369-a7ca-4062-b0c4-11dcec0d9a33"},"vehicle_type_id":"4","last_reported":1737160949,"current_range_meters":38000,"station_id":"ce4bgkh2rcd13ifvqbk0","pricing_plan_id":"cebpf4jnsgd1na2vs0mg"},{"bike_id":"1c47bd0b-03b1-499e-b800-21ee976a9516","system_id":"levelo_inurba_marseille","lat":43.25874,"lon":5.39914,"is_reserved":false,"is_disabled":false,"rental_uris":{"android":"levelo://app?vid=1c47bd0b-03b1-499e-b800-21ee976a9516","ios":"levelo://app?vid=1c47bd0b-03b1-499e-b800-21ee976a9516"},"vehicle_type_id":"4","last_reported":1737160949,"current_range_meters":32000,"station_id":"ce4bhl92rcd13ifvqghg","pricing_plan_id":"cebpf4jnsgd1na2vs0mg"},{"bike_id":"891d5aa4-b1b0-4e0c-90ac-49e97bf9c382","system_id":"levelo_inurba_marseille","lat":43.23181,"lon":5.40009,"is_reserved":false,"is_disabled":false,"rental_uris":{"android":"levelo://app?vid=891d5aa4-b1b0-4e0c-90ac-49e97bf9c382","ios":"levelo://app?vid=891d5aa4-b1b0-4e0c-90ac-49e97bf9c382"},"vehicle_type_id":"4","last_reported":1737160949,"current_range_meters":31200,"station_id":"ce4bhn12rcd13ifvqgqg","pricing_plan_id":"cebpf4jnsgd1na2vs0mg"},{"bike_id":"3c430b0a-58b7-4200-a2ff-c223f0800b85","system_id":"levelo_inurba_marseille","lat":43.29624,"lon":5.37714,"is_reserved":false,"is_disabled":false,"rental_uris":{"android":"levelo://app?vid=3c430b0a-58b7-4200-a2ff-c223f0800b85","ios":"levelo://app?vid=3c430b0a-58b7-4200-a2ff-c223f0800b85"},"vehicle_type_id":"4","last_reported":1737160949,"current_range_meters":28000,"station_id":"ce4bgi92rcd13ifvqb90","pricing_plan_id":"cebpf4jnsgd1na2vs0mg"},{"bike_id":"77762a9c-0185-4cbd-94a7-6ad9ec8b319e","system_id":"levelo_inurba_marseille","lat":43.29045,"lon":5.35906,"is_reserved":false,"is_disabled":false,"rental_uris":{"android":"levelo://app?vid=77762a9c-0185-4cbd-94a7-6ad9ec8b319e","ios":"levelo://app?vid=77762a9c-0185-4cbd-94a7-6ad9ec8b319e"},"vehicle_type_id":"4","last_reported":1737160949,"current_range_meters":30000,"station_id":"ce4bha92rcd13ifvqeg0","pricing_plan_id":"cebpf4jnsgd1na2vs0mg"},{"bike_id":"357eaeda-fef2-41f2-9ad0-621ae2cc5c09","system_id":"levelo_inurba_marseille","lat":43.33768,"lon":5.37496,"is_reserved":false,"is_disabled":false,"rental_uris":{"android":"levelo://app?vid=357eaeda-fef2-41f2-9ad0-621ae2cc5c09","ios":"levelo://app?vid=357eaeda-fef2-41f2-9ad0-621ae2cc5c09"},"vehicle_type_id":"4","last_reported":1737160949,"current_range_meters":33600,"station_id":"","pricing_plan_id":"cebpf4jnsgd1na2vs0mg"},{"bike_id":"863581bf-4740-457c-9a9b-0e3dac23703c","system_id":"levelo_inurba_marseille","lat":43.31082,"lon":5.38354,"is_reserved":false,"is_disabled":false,"rental_uris":{"android":"levelo://app?vid=863581bf-4740-457c-9a9b-0e3dac23703c","ios":"levelo://app?vid=863581bf-4740-457c-9a9b-0e3dac23703c"},"vehicle_type_id":"4","last_reported":1737160949,"current_range_meters":16000,"station_id":"ce4bgv92rcd13ifvqcr0","pricing_plan_id":"cebpf4jnsgd1na2vs0mg"},{"bike_id":"965180f8-1362-4aa2-b1a9-a6f654197703","system_id":"levelo_inurba_marseille","lat":43.23181,"lon":5.39986,"is_reserved":false,"is_disabled":false,"rental_uris":{"android":"levelo://app?vid=965180f8-1362-4aa2-b1a9-a6f654197703","ios":"levelo://app?vid=965180f8-1362-4aa2-b1a9-a6f654197703"},"vehicle_type_id":"4","last_reported":1737160949,"current_range_meters":39200,"station_id":"ce4bhn12rcd13ifvqgqg","pricing_plan_id":"cebpf4jnsgd1na2vs0mg"},{"bike_id":"b034b553-114b-4cfc-829d-01c5c89561f4","system_id":"levelo_inurba_marseille","lat":43.27594,"lon":5.42348,"is_reserved":false,"is_disabled":false,"rental_uris":{"android":"levelo://app?vid=b034b553-114b-4cfc-829d-01c5c89561f4","ios":"levelo://app?vid=b034b553-114b-4cfc-829d-01c5c89561f4"},"vehicle_type_id":"4","last_reported":1737160949,"current_range_meters":9200,"station_id":"","pricing_plan_id":"cebpf4jnsgd1na2vs0mg"},{"bike_id":"c16af295-34ba-47e2-83f5-588ec70db48a","system_id":"levelo_inurba_marseille","lat":43.29046,"lon":5.39957,"is_reserved":false,"is_disabled":false,"rental_uris":{"android":"levelo://app?vid=c16af295-34ba-47e2-83f5-588ec70db48a","ios":"levelo://app?vid=c16af295-34ba-47e2-83f5-588ec70db48a"},"vehicle_type_id":"4","last_reported":1737160949,"current_range_meters":31200,"station_id":"ce4bh392rcd13ifvqdm0","pricing_plan_id":"cebpf4jnsgd1na2vs0mg"},{"bike_id":"312b622b-01c5-426d-8513-fedfcbcce3bf","system_id":"levelo_inurba_marseille","lat":43.30809,"lon":5.43516,"is_reserved":false,"is_disabled":false,"rental_uris":{"android":"levelo://app?vid=312b622b-01c5-426d-8513-fedfcbcce3bf","ios":"levelo://app?vid=312b622b-01c5-426d-8513-fedfcbcce3bf"},"vehicle_type_id":"4","last_reported":1737160949,"current_range_meters":24000,"station_id":"ce4bhph2rcd13ifvqheg","pricing_plan_id":"cebpf4jnsgd1na2vs0mg"},{"bike_id":"a90ae30c-66aa-49bc-8d81-67c17854523b","system_id":"levelo_inurba_marseille","lat":43.28457,"lon":5.35887,"is_reserved":false,"is_disabled":false,"rental_uris":{"android":"levelo://app?vid=a90ae30c-66aa-49bc-8d81-67c17854523b","ios":"levelo://app?vid=a90ae30c-66aa-49bc-8d81-67c17854523b"},"vehicle_type_id":"4","last_reported":1737160949,"current_range_meters":36800,"station_id":"ce4bhah2rcd13ifvqei0","pricing_plan_id":"cebpf4jnsgd1na2vs0mg"},{"bike_id":"01e1c8b1-a097-42f4-9d00-9a160ca3dd88","system_id":"levelo_inurba_marseille","lat":43.27421,"lon":5.39367,"is_reserved":false,"is_disabled":false,"rental_uris":{"android":"levelo://app?vid=01e1c8b1-a097-42f4-9d00-9a160ca3dd88","ios":"levelo://app?vid=01e1c8b1-a097-42f4-9d00-9a160ca3dd88"},"vehicle_type_id":"4","last_reported":1737160949,"current_range_meters":35600,"station_id":"ce4bhdp2rcd13ifvqf20","pricing_plan_id":"cebpf4jnsgd1na2vs0mg"},{"bike_id":"7975a0c2-37ee-487f-804f-1164e539cf9a","system_id":"levelo_inurba_marseille","lat":43.24661,"lon":5.3817,"is_reserved":false,"is_disabled":false,"rental_uris":{"android":"levelo://app?vid=7975a0c2-37ee-487f-804f-1164e539cf9a","ios":"levelo://app?vid=7975a0c2-37ee-487f-804f-1164e539cf9a"},"vehicle_type_id":"4","last_reported":1737160949,"current_range_meters":38800,"station_id":"ce4bhih2rcd13ifvqfr0","pricing_plan_id":"cebpf4jnsgd1na2vs0mg"},{"bike_id":"b3672519-b36f-4954-8d8e-69d0bbe73a14","system_id":"levelo_inurba_marseille","lat":43.25574,"lon":5.38232,"is_reserved":false,"is_disabled":false,"rental_uris":{"android":"levelo://app?vid=b3672519-b36f-4954-8d8e-69d0bbe73a14","ios":"levelo://app?vid=b3672519-b36f-4954-8d8e-69d0bbe73a14"},"vehicle_type_id":"4","last_reported":1737160949,"current_range_meters":33200,"station_id":"ce4bhih2rcd13ifvqfs0","pricing_plan_id":"cebpf4jnsgd1na2vs0mg"},{"bike_id":"503cdc04-d4e5-49c8-a5cb-4bfd40417ea9","system_id":"levelo_inurba_marseille","lat":43.311715,"lon":5.386975,"is_reserved":false,"is_disabled":false,"rental_uris":{"android":"levelo://app?vid=503cdc04-d4e5-49c8-a5cb-4bfd40417ea9","ios":"levelo://app?vid=503cdc04-d4e5-49c8-a5cb-4bfd40417ea9"},"vehicle_type_id":"4","last_reported":1737160949,"current_range_meters":33200,"station_id":"ce4bgv12rcd13ifvqcp0","pricing_plan_id":"cebpf4jnsgd1na2vs0mg"},{"bike_id":"01a07bd9-36a1-4c19-a88b-7c9e3a6ee490","system_id":"levelo_inurba_marseille","lat":43.2511,"lon":5.39516,"is_reserved":false,"is_disabled":false,"rental_uris":{"android":"levelo://app?vid=01a07bd9-36a1-4c19-a88b-7c9e3a6ee490","ios":"levelo://app?vid=01a07bd9-36a1-4c19-a88b-7c9e3a6ee490"},"vehicle_type_id":"4","last_reported":1737160949,"current_range_meters":38000,"station_id":"ce4bhm12rcd13ifvqgkg","pricing_plan_id":"cebpf4jnsgd1na2vs0mg"},{"bike_id":"95da5a54-3fd9-4b97-9ba1-7549c9e11348","system_id":"levelo_inurba_marseille","lat":43.29573,"lon":5.3996,"is_reserved":false,"is_disabled":false,"rental_uris":{"android":"levelo://app?vid=95da5a54-3fd9-4b97-9ba1-7549c9e11348","ios":"levelo://app?vid=95da5a54-3fd9-4b97-9ba1-7549c9e11348"},"vehicle_type_id":"4","last_reported":1737160949,"current_range_meters":39200,"station_id":"ce4bh312rcd13ifvqdj0","pricing_plan_id":"cebpf4jnsgd1na2vs0mg"},{"bike_id":"d615d74e-143c-44d0-9a61-fef9d499e25b","system_id":"levelo_inurba_marseille","lat":43.260398,"lon":5.375462,"is_reserved":false,"is_disabled":false,"rental_uris":{"android":"levelo://app?vid=d615d74e-143c-44d0-9a61-fef9d499e25b","ios":"levelo://app?vid=d615d74e-143c-44d0-9a61-fef9d499e25b"},"vehicle_type_id":"4","last_reported":1737160949,"current_range_meters":39200,"station_id":"ce4bhgh2rcd13ifvqfa0","pricing_plan_id":"cebpf4jnsgd1na2vs0mg"},{"bike_id":"4ffb2fd7-5f5b-4f82-8ddf-9fe95e000c38","system_id":"levelo_inurba_marseille","lat":43.25393,"lon":5.41645,"is_reserved":false,"is_disabled":true,"rental_uris":{"android":"levelo://app?vid=4ffb2fd7-5f5b-4f82-8ddf-9fe95e000c38","ios":"levelo://app?vid=4ffb2fd7-5f5b-4f82-8ddf-9fe95e000c38"},"vehicle_type_id":"4","last_reported":1737160949,"current_range_meters":400,"station_id":"","pricing_plan_id":"cebpf4jnsgd1na2vs0mg"},{"bike_id":"9be957d2-26d1-49a4-9f85-b06ee3432064","system_id":"levelo_inurba_marseille","lat":43.33737,"lon":5.39182,"is_reserved":false,"is_disabled":false,"rental_uris":{"android":"levelo://app?vid=9be957d2-26d1-49a4-9f85-b06ee3432064","ios":"levelo://app?vid=9be957d2-26d1-49a4-9f85-b06ee3432064"},"vehicle_type_id":"4","last_reported":1737160949,"current_range_meters":28400,"station_id":"ce4bhr92rcd13ifvqhsg","pricing_plan_id":"cebpf4jnsgd1na2vs0mg"},{"bike_id":"0e431ba6-2ca8-4886-8c92-261db676533e","system_id":"levelo_inurba_marseille","lat":43.2846,"lon":5.35904,"is_reserved":false,"is_disabled":false,"rental_uris":{"android":"levelo://app?vid=0e431ba6-2ca8-4886-8c92-261db676533e","ios":"levelo://app?vid=0e431ba6-2ca8-4886-8c92-261db676533e"},"vehicle_type_id":"4","last_reported":1737160949,"current_range_meters":30800,"station_id":"ce4bhah2rcd13ifvqei0","pricing_plan_id":"cebpf4jnsgd1na2vs0mg"},{"bike_id":"b5f3995a-9345-451c-99e0-64f72b77d9a5","system_id":"levelo_inurba_marseille","lat":43.29181,"lon":5.37124,"is_reserved":false,"is_disabled":true,"rental_uris":{"android":"levelo://app?vid=b5f3995a-9345-451c-99e0-64f72b77d9a5","ios":"levelo://app?vid=b5f3995a-9345-451c-99e0-64f72b77d9a5"},"vehicle_type_id":"4","last_reported":1737160949,"current_range_meters":0,"station_id":"ce4bha92rcd13ifvqeh0","pricing_plan_id":"cebpf4jnsgd1na2vs0mg"},{"bike_id":"9d571973-919f-4d9a-8263-16469bc08d16","system_id":"levelo_inurba_marseille","lat":43.31274,"lon":5.38364,"is_reserved":false,"is_disabled":false,"rental_uris":{"android":"levelo://app?vid=9d571973-919f-4d9a-8263-16469bc08d16","ios":"levelo://app?vid=9d571973-919f-4d9a-8263-16469bc08d16"},"vehicle_type_id":"4","last_reported":1737160949,"current_range_meters":18000,"station_id":"","pricing_plan_id":"cebpf4jnsgd1na2vs0mg"},{"bike_id":"93eaaa03-9c47-4080-88a3-408e4b6ee6c4","system_id":"levelo_inurba_marseille","lat":43.30895,"lon":5.37215,"is_reserved":false,"is_disabled":true,"rental_uris":{"android":"levelo://app?vid=93eaaa03-9c47-4080-88a3-408e4b6ee6c4","ios":"levelo://app?vid=93eaaa03-9c47-4080-88a3-408e4b6ee6c4"},"vehicle_type_id":"4","last_reported":1737160949,"current_range_meters":400,"station_id":"ce4bguh2rcd13ifvqckg","pricing_plan_id":"cebpf4jnsgd1na2vs0mg"},{"bike_id":"fd153fd4-8c71-4200-95f4-e02852c298c7","system_id":"levelo_inurba_marseille","lat":43.25084,"lon":5.39513,"is_reserved":false,"is_disabled":false,"rental_uris":{"android":"levelo://app?vid=fd153fd4-8c71-4200-95f4-e02852c298c7","ios":"levelo://app?vid=fd153fd4-8c71-4200-95f4-e02852c298c7"},"vehicle_type_id":"4","last_reported":1737160949,"current_range_meters":38400,"station_id":"ce4bhm12rcd13ifvqgkg","pricing_plan_id":"cebpf4jnsgd1na2vs0mg"},{"bike_id":"bdd103a3-1000-427a-86a5-dc091d61902e","system_id":"levelo_inurba_marseille","lat":43.24179,"lon":5.39724,"is_reserved":false,"is_disabled":false,"rental_uris":{"android":"levelo://app?vid=bdd103a3-1000-427a-86a5-dc091d61902e","ios":"levelo://app?vid=bdd103a3-1000-427a-86a5-dc091d61902e"},"vehicle_type_id":"4","last_reported":1737160949,"current_range_meters":19600,"station_id":"ce4bhn12rcd13ifvqgpg","pricing_plan_id":"cebpf4jnsgd1na2vs0mg"},{"bike_id":"a8cadae5-86ce-44a1-afff-878cc34ffe0b","system_id":"levelo_inurba_marseille","lat":43.24684,"lon":5.38147,"is_reserved":false,"is_disabled":false,"rental_uris":{"android":"levelo://app?vid=a8cadae5-86ce-44a1-afff-878cc34ffe0b","ios":"levelo://app?vid=a8cadae5-86ce-44a1-afff-878cc34ffe0b"},"vehicle_type_id":"4","last_reported":1737160949,"current_range_meters":8400,"station_id":"ce4bhih2rcd13ifvqfr0","pricing_plan_id":"cebpf4jnsgd1na2vs0mg"},{"bike_id":"2b06177c-21a4-4000-9872-a16383eb7f13","system_id":"levelo_inurba_marseille","lat":43.29814,"lon":5.40406,"is_reserved":false,"is_disabled":false,"rental_uris":{"android":"levelo://app?vid=2b06177c-21a4-4000-9872-a16383eb7f13","ios":"levelo://app?vid=2b06177c-21a4-4000-9872-a16383eb7f13"},"vehicle_type_id":"4","last_reported":1737160949,"current_range_meters":38400,"station_id":"ce4bh112rcd13ifvqd90","pricing_plan_id":"cebpf4jnsgd1na2vs0mg"},{"bike_id":"2ed2c465-7afc-4456-bb98-74121b1a973f","system_id":"levelo_inurba_marseille","lat":43.31163,"lon":5.38705,"is_reserved":false,"is_disabled":false,"rental_uris":{"android":"levelo://app?vid=2ed2c465-7afc-4456-bb98-74121b1a973f","ios":"levelo://app?vid=2ed2c465-7afc-4456-bb98-74121b1a973f"},"vehicle_type_id":"4","last_reported":1737160949,"current_range_meters":38800,"station_id":"ce4bgv12rcd13ifvqcp0","pricing_plan_id":"cebpf4jnsgd1na2vs0mg"},{"bike_id":"07cd4979-849b-4814-ab04-156a61b5820b","system_id":"levelo_inurba_marseille","lat":43.30548,"lon":5.36558,"is_reserved":false,"is_disabled":false,"rental_uris":{"android":"levelo://app?vid=07cd4979-849b-4814-ab04-156a61b5820b","ios":"levelo://app?vid=07cd4979-849b-4814-ab04-156a61b5820b"},"vehicle_type_id":"4","last_reported":1737160949,"current_range_meters":20800,"station_id":"ce4bgs12rcd13ifvqcag","pricing_plan_id":"cebpf4jnsgd1na2vs0mg"},{"bike_id":"de1f8d9a-961d-41a2-ac6e-036d6954faf1","system_id":"levelo_inurba_marseille","lat":43.33034,"lon":5.39043,"is_reserved":false,"is_disabled":false,"rental_uris":{"android":"levelo://app?vid=de1f8d9a-961d-41a2-ac6e-036d6954faf1","ios":"levelo://app?vid=de1f8d9a-961d-41a2-ac6e-036d6954faf1"},"vehicle_type_id":"4","last_reported":1737160949,"current_range_meters":30000,"station_id":"ce4bhr92rcd13ifvqhrg","pricing_plan_id":"cebpf4jnsgd1na2vs0mg"},{"bike_id":"e0253450-c7b5-4733-9baa-fb060c3eef88","system_id":"levelo_inurba_marseille","lat":43.24649,"lon":5.3889,"is_reserved":false,"is_disabled":false,"rental_uris":{"android":"levelo://app?vid=e0253450-c7b5-4733-9baa-fb060c3eef88","ios":"levelo://app?vid=e0253450-c7b5-4733-9baa-fb060c3eef88"},"vehicle_type_id":"4","last_reported":1737160949,"current_range_meters":16400,"station_id":"ce4bhg12rcd13ifvqf60","pricing_plan_id":"cebpf4jnsgd1na2vs0mg"},{"bike_id":"25e9df16-6d5a-400f-84c6-e3dd0cb3b64c","system_id":"levelo_inurba_marseille","lat":43.28929,"lon":5.3663,"is_reserved":false,"is_disabled":false,"rental_uris":{"android":"levelo://app?vid=25e9df16-6d5a-400f-84c6-e3dd0cb3b64c","ios":"levelo://app?vid=25e9df16-6d5a-400f-84c6-e3dd0cb3b64c"},"vehicle_type_id":"4","last_reported":1737160949,"current_range_meters":6800,"station_id":"ce4bhap2rcd13ifvqek0","pricing_plan_id":"cebpf4jnsgd1na2vs0mg"},{"bike_id":"6e2d34e8-0cfc-462e-a352-d0455c7f78af","system_id":"levelo_inurba_marseille","lat":43.29253,"lon":5.40922,"is_reserved":false,"is_disabled":false,"rental_uris":{"android":"levelo://app?vid=6e2d34e8-0cfc-462e-a352-d0455c7f78af","ios":"levelo://app?vid=6e2d34e8-0cfc-462e-a352-d0455c7f78af"},"vehicle_type_id":"4","last_reported":1737160949,"current_range_meters":37600,"station_id":"ce4bh192rcd13ifvqdc0","pricing_plan_id":"cebpf4jnsgd1na2vs0mg"},{"bike_id":"2101a568-921f-4929-92b6-d4db4c4e5776","system_id":"levelo_inurba_marseille","lat":43.29007,"lon":5.35616,"is_reserved":false,"is_disabled":false,"rental_uris":{"android":"levelo://app?vid=2101a568-921f-4929-92b6-d4db4c4e5776","ios":"levelo://app?vid=2101a568-921f-4929-92b6-d4db4c4e5776"},"vehicle_type_id":"4","last_reported":1737160949,"current_range_meters":38000,"station_id":"ce4bhb92rcd13ifvqen0","pricing_plan_id":"cebpf4jnsgd1na2vs0mg"},{"bike_id":"72ee35ea-34ee-4b89-a819-27a2e564f7ec","system_id":"levelo_inurba_marseille","lat":43.25824,"lon":5.39417,"is_reserved":false,"is_disabled":false,"rental_uris":{"android":"levelo://app?vid=72ee35ea-34ee-4b89-a819-27a2e564f7ec","ios":"levelo://app?vid=72ee35ea-34ee-4b89-a819-27a2e564f7ec"},"vehicle_type_id":"4","last_reported":1737160949,"current_range_meters":14400,"station_id":"ce4bhip2rcd13ifvqft0","pricing_plan_id":"cebpf4jnsgd1na2vs0mg"},{"bike_id":"fae143cc-e0b7-42e0-ac41-6327643321d0","system_id":"levelo_inurba_marseille","lat":43.25831,"lon":5.39419,"is_reserved":false,"is_disabled":false,"rental_uris":{"android":"levelo://app?vid=fae143cc-e0b7-42e0-ac41-6327643321d0","ios":"levelo://app?vid=fae143cc-e0b7-42e0-ac41-6327643321d0"},"vehicle_type_id":"4","last_reported":1737160949,"current_range_meters":34800,"station_id":"ce4bhip2rcd13ifvqft0","pricing_plan_id":"cebpf4jnsgd1na2vs0mg"},{"bike_id":"06ba7cdd-0114-43e0-b37e-17f50586e28b","system_id":"levelo_inurba_marseille","lat":43.30876,"lon":5.3964,"is_reserved":false,"is_disabled":false,"rental_uris":{"android":"levelo://app?vid=06ba7cdd-0114-43e0-b37e-17f50586e28b","ios":"levelo://app?vid=06ba7cdd-0114-43e0-b37e-17f50586e28b"},"vehicle_type_id":"4","last_reported":1737160949,"current_range_meters":24800,"station_id":"ce4bh012rcd13ifvqcv0","pricing_plan_id":"cebpf4jnsgd1na2vs0mg"},{"bike_id":"3b86c408-dab3-4c6f-80eb-a86687ef0e80","system_id":"levelo_inurba_marseille","lat":43.30794,"lon":5.37665,"is_reserved":false,"is_disabled":false,"rental_uris":{"android":"levelo://app?vid=3b86c408-dab3-4c6f-80eb-a86687ef0e80","ios":"levelo://app?vid=3b86c408-dab3-4c6f-80eb-a86687ef0e80"},"vehicle_type_id":"4","last_reported":1737160949,"current_range_meters":16000,"station_id":"ce4bgv92rcd13ifvqcq0","pricing_plan_id":"cebpf4jnsgd1na2vs0mg"},{"bike_id":"bbbb65ee-7bd9-45c8-9ae6-33a5e1e600b8","system_id":"levelo_inurba_marseille","lat":43.28617,"lon":5.35113,"is_reserved":false,"is_disabled":false,"rental_uris":{"android":"levelo://app?vid=bbbb65ee-7bd9-45c8-9ae6-33a5e1e600b8","ios":"levelo://app?vid=bbbb65ee-7bd9-45c8-9ae6-33a5e1e600b8"},"vehicle_type_id":"4","last_reported":1737160949,"current_range_meters":16800,"station_id":"ce4bhch2rcd13ifvqeug","pricing_plan_id":"cebpf4jnsgd1na2vs0mg"},{"bike_id":"20ff09b8-a222-445d-b049-232d89fb3e88","system_id":"levelo_inurba_marseille","lat":43.30931,"lon":5.40207,"is_reserved":false,"is_disabled":false,"rental_uris":{"android":"levelo://app?vid=20ff09b8-a222-445d-b049-232d89fb3e88","ios":"levelo://app?vid=20ff09b8-a222-445d-b049-232d89fb3e88"},"vehicle_type_id":"4","last_reported":1737160949,"current_range_meters":33200,"station_id":"ce4bgvp2rcd13ifvqct0","pricing_plan_id":"cebpf4jnsgd1na2vs0mg"},{"bike_id":"f4a4a406-b0a5-42fc-9236-32e93ac6f6b2","system_id":"levelo_inurba_marseille","lat":43.23154,"lon":5.437,"is_reserved":false,"is_disabled":true,"rental_uris":{"android":"levelo://app?vid=f4a4a406-b0a5-42fc-9236-32e93ac6f6b2","ios":"levelo://app?vid=f4a4a406-b0a5-42fc-9236-32e93ac6f6b2"},"vehicle_type_id":"4","last_reported":1737160949,"current_range_meters":31200,"station_id":"ce4bhmp2rcd13ifvqgog","pricing_plan_id":"cebpf4jnsgd1na2vs0mg"},{"bike_id":"e41ae004-35f3-4a84-9470-334d3f185da1","system_id":"levelo_inurba_marseille","lat":43.31488,"lon":5.37315,"is_reserved":false,"is_disabled":false,"rental_uris":{"android":"levelo://app?vid=e41ae004-35f3-4a84-9470-334d3f185da1","ios":"levelo://app?vid=e41ae004-35f3-4a84-9470-334d3f185da1"},"vehicle_type_id":"4","last_reported":1737160949,"current_range_meters":39200,"station_id":"ce4bgt12rcd13ifvqcd0","pricing_plan_id":"cebpf4jnsgd1na2vs0mg"},{"bike_id":"db42d0a5-5cd3-4627-9aa4-85dd51072fea","system_id":"levelo_inurba_marseille","lat":43.27211,"lon":5.39182,"is_reserved":false,"is_disabled":false,"rental_uris":{"android":"levelo://app?vid=db42d0a5-5cd3-4627-9aa4-85dd51072fea","ios":"levelo://app?vid=db42d0a5-5cd3-4627-9aa4-85dd51072fea"},"vehicle_type_id":"4","last_reported":1737160949,"current_range_meters":18000,"station_id":"ce4bhhp2rcd13ifvqfm0","pricing_plan_id":"cebpf4jnsgd1na2vs0mg"},{"bike_id":"4d7dc323-6666-4be9-a627-f2c5a8c93a8b","system_id":"levelo_inurba_marseille","lat":43.30592,"lon":5.39354,"is_reserved":false,"is_disabled":false,"rental_uris":{"android":"levelo://app?vid=4d7dc323-6666-4be9-a627-f2c5a8c93a8b","ios":"levelo://app?vid=4d7dc323-6666-4be9-a627-f2c5a8c93a8b"},"vehicle_type_id":"4","last_reported":1737160949,"current_range_meters":10000,"station_id":"ce4bh0p2rcd13ifvqd80","pricing_plan_id":"cebpf4jnsgd1na2vs0mg"},{"bike_id":"0f8a6241-7b84-426e-9fe5-e45583d860b3","system_id":"levelo_inurba_marseille","lat":43.31895,"lon":5.40737,"is_reserved":false,"is_disabled":false,"rental_uris":{"android":"levelo://app?vid=0f8a6241-7b84-426e-9fe5-e45583d860b3","ios":"levelo://app?vid=0f8a6241-7b84-426e-9fe5-e45583d860b3"},"vehicle_type_id":"4","last_reported":1737160949,"current_range_meters":38000,"station_id":"ce4bhq12rcd13ifvqhig","pricing_plan_id":"cebpf4jnsgd1na2vs0mg"},{"bike_id":"11cc40fc-2886-40cc-8b38-432bf44a4683","system_id":"levelo_inurba_marseille","lat":43.30449,"lon":5.38912,"is_reserved":false,"is_disabled":false,"rental_uris":{"android":"levelo://app?vid=11cc40fc-2886-40cc-8b38-432bf44a4683","ios":"levelo://app?vid=11cc40fc-2886-40cc-8b38-432bf44a4683"},"vehicle_type_id":"4","last_reported":1737160949,"current_range_meters":38400,"station_id":"ce4bgk12rcd13ifvqbi0","pricing_plan_id":"cebpf4jnsgd1na2vs0mg"},{"bike_id":"908a3229-e651-4c42-8314-ecef54f2d2a9","system_id":"levelo_inurba_marseille","lat":43.31168,"lon":5.38682,"is_reserved":false,"is_disabled":false,"rental_uris":{"android":"levelo://app?vid=908a3229-e651-4c42-8314-ecef54f2d2a9","ios":"levelo://app?vid=908a3229-e651-4c42-8314-ecef54f2d2a9"},"vehicle_type_id":"4","last_reported":1737160949,"current_range_meters":19200,"station_id":"ce4bgv12rcd13ifvqcp0","pricing_plan_id":"cebpf4jnsgd1na2vs0mg"},{"bike_id":"f2b9871f-1186-41e6-8a60-001205f747a7","system_id":"levelo_inurba_marseille","lat":43.24661,"lon":5.38172,"is_reserved":false,"is_disabled":false,"rental_uris":{"android":"levelo://app?vid=f2b9871f-1186-41e6-8a60-001205f747a7","ios":"levelo://app?vid=f2b9871f-1186-41e6-8a60-001205f747a7"},"vehicle_type_id":"4","last_reported":1737160949,"current_range_meters":9600,"station_id":"ce4bhih2rcd13ifvqfr0","pricing_plan_id":"cebpf4jnsgd1na2vs0mg"},{"bike_id":"67c549d5-ce81-408a-a146-d43915340e7f","system_id":"levelo_inurba_marseille","lat":43.33728,"lon":5.3918,"is_reserved":false,"is_disabled":false,"rental_uris":{"android":"levelo://app?vid=67c549d5-ce81-408a-a146-d43915340e7f","ios":"levelo://app?vid=67c549d5-ce81-408a-a146-d43915340e7f"},"vehicle_type_id":"4","last_reported":1737160949,"current_range_meters":38800,"station_id":"ce4bhr92rcd13ifvqhsg","pricing_plan_id":"cebpf4jnsgd1na2vs0mg"},{"bike_id":"fa546e5c-a68a-4a86-a5bb-1d856af38d7e","system_id":"levelo_inurba_marseille","lat":43.23615,"lon":5.43607,"is_reserved":false,"is_disabled":true,"rental_uris":{"android":"levelo://app?vid=fa546e5c-a68a-4a86-a5bb-1d856af38d7e","ios":"levelo://app?vid=fa546e5c-a68a-4a86-a5bb-1d856af38d7e"},"vehicle_type_id":"4","last_reported":1737160949,"current_range_meters":0,"station_id":"","pricing_plan_id":"cebpf4jnsgd1na2vs0mg"},{"bike_id":"34b4297c-3aa9-49ec-8c3e-4dc835fa76e0","system_id":"levelo_inurba_marseille","lat":43.313316,"lon":5.396974,"is_reserved":false,"is_disabled":false,"rental_uris":{"android":"levelo://app?vid=34b4297c-3aa9-49ec-8c3e-4dc835fa76e0","ios":"levelo://app?vid=34b4297c-3aa9-49ec-8c3e-4dc835fa76e0"},"vehicle_type_id":"4","last_reported":1737160949,"current_range_meters":30800,"station_id":"ce4bgvp2rcd13ifvqcu0","pricing_plan_id":"cebpf4jnsgd1na2vs0mg"},{"bike_id":"4fc0c57c-9434-4284-b3f6-df22c1d51df1","system_id":"levelo_inurba_marseille","lat":43.24812,"lon":5.37474,"is_reserved":false,"is_disabled":false,"rental_uris":{"android":"levelo://app?vid=4fc0c57c-9434-4284-b3f6-df22c1d51df1","ios":"levelo://app?vid=4fc0c57c-9434-4284-b3f6-df22c1d51df1"},"vehicle_type_id":"4","last_reported":1737160949,"current_range_meters":33600,"station_id":"ce4bhgh2rcd13ifvqfb0","pricing_plan_id":"cebpf4jnsgd1na2vs0mg"},{"bike_id":"9e637052-b4f4-45d4-b25c-d5db2b7373ff","system_id":"levelo_inurba_marseille","lat":43.26065,"lon":5.39394,"is_reserved":false,"is_disabled":false,"rental_uris":{"android":"levelo://app?vid=9e637052-b4f4-45d4-b25c-d5db2b7373ff","ios":"levelo://app?vid=9e637052-b4f4-45d4-b25c-d5db2b7373ff"},"vehicle_type_id":"4","last_reported":1737160949,"current_range_meters":24400,"station_id":"ce4bhh92rcd13ifvqfj0","pricing_plan_id":"cebpf4jnsgd1na2vs0mg"},{"bike_id":"f7d7974d-3656-4ef0-b182-9cc31261d5cf","system_id":"levelo_inurba_marseille","lat":43.301447,"lon":5.398743,"is_reserved":false,"is_disabled":false,"rental_uris":{"android":"levelo://app?vid=f7d7974d-3656-4ef0-b182-9cc31261d5cf","ios":"levelo://app?vid=f7d7974d-3656-4ef0-b182-9cc31261d5cf"},"vehicle_type_id":"4","last_reported":1737160949,"current_range_meters":39200,"station_id":"ce4bh0h2rcd13ifvqd40","pricing_plan_id":"cebpf4jnsgd1na2vs0mg"},{"bike_id":"48389a4d-3522-4d2d-a678-108033b697ac","system_id":"levelo_inurba_marseille","lat":43.27911,"lon":5.38011,"is_reserved":false,"is_disabled":false,"rental_uris":{"android":"levelo://app?vid=48389a4d-3522-4d2d-a678-108033b697ac","ios":"levelo://app?vid=48389a4d-3522-4d2d-a678-108033b697ac"},"vehicle_type_id":"4","last_reported":1737160949,"current_range_meters":9600,"station_id":"ce4bhf92rcd13ifvqf50","pricing_plan_id":"cebpf4jnsgd1na2vs0mg"},{"bike_id":"34709e64-d1c8-4538-88a5-33805792c0a5","system_id":"levelo_inurba_marseille","lat":43.25837,"lon":5.39438,"is_reserved":false,"is_disabled":false,"rental_uris":{"android":"levelo://app?vid=34709e64-d1c8-4538-88a5-33805792c0a5","ios":"levelo://app?vid=34709e64-d1c8-4538-88a5-33805792c0a5"},"vehicle_type_id":"4","last_reported":1737160949,"current_range_meters":37600,"station_id":"ce4bhip2rcd13ifvqft0","pricing_plan_id":"cebpf4jnsgd1na2vs0mg"},{"bike_id":"d4c5158e-511e-4c0e-af6f-6a3bbf5cc0e5","system_id":"levelo_inurba_marseille","lat":43.27109,"lon":5.42242,"is_reserved":false,"is_disabled":true,"rental_uris":{"android":"levelo://app?vid=d4c5158e-511e-4c0e-af6f-6a3bbf5cc0e5","ios":"levelo://app?vid=d4c5158e-511e-4c0e-af6f-6a3bbf5cc0e5"},"vehicle_type_id":"4","last_reported":1737160949,"current_range_meters":0,"station_id":"ce4bhk92rcd13ifvqgb0","pricing_plan_id":"cebpf4jnsgd1na2vs0mg"},{"bike_id":"e5847a5e-b9c7-44be-bc7e-8bd5712b3208","system_id":"levelo_inurba_marseille","lat":43.29448,"lon":5.39746,"is_reserved":false,"is_disabled":false,"rental_uris":{"android":"levelo://app?vid=e5847a5e-b9c7-44be-bc7e-8bd5712b3208","ios":"levelo://app?vid=e5847a5e-b9c7-44be-bc7e-8bd5712b3208"},"vehicle_type_id":"4","last_reported":1737160949,"current_range_meters":38800,"station_id":"ce4bh3h2rcd13ifvqdo0","pricing_plan_id":"cebpf4jnsgd1na2vs0mg"},{"bike_id":"ec7a3cae-2d4f-4c1b-a818-5bc6fa0dbf9a","system_id":"levelo_inurba_marseille","lat":43.31241,"lon":5.36953,"is_reserved":false,"is_disabled":false,"rental_uris":{"android":"levelo://app?vid=ec7a3cae-2d4f-4c1b-a818-5bc6fa0dbf9a","ios":"levelo://app?vid=ec7a3cae-2d4f-4c1b-a818-5bc6fa0dbf9a"},"vehicle_type_id":"4","last_reported":1737160949,"current_range_meters":39200,"station_id":"ce4bgl92rcd13ifvqbq0","pricing_plan_id":"cebpf4jnsgd1na2vs0mg"},{"bike_id":"37feb261-44b2-4b27-b3ae-078664007b08","system_id":"levelo_inurba_marseille","lat":43.32465,"lon":5.36577,"is_reserved":false,"is_disabled":false,"rental_uris":{"android":"levelo://app?vid=37feb261-44b2-4b27-b3ae-078664007b08","ios":"levelo://app?vid=37feb261-44b2-4b27-b3ae-078664007b08"},"vehicle_type_id":"4","last_reported":1737160949,"current_range_meters":8000,"station_id":"ce4bhs12rcd13ifvqhvg","pricing_plan_id":"cebpf4jnsgd1na2vs0mg"},{"bike_id":"4fde6ab5-286c-4c38-abd8-f85fbb4e25ac","system_id":"levelo_inurba_marseille","lat":43.28701,"lon":5.39974,"is_reserved":false,"is_disabled":false,"rental_uris":{"android":"levelo://app?vid=4fde6ab5-286c-4c38-abd8-f85fbb4e25ac","ios":"levelo://app?vid=4fde6ab5-286c-4c38-abd8-f85fbb4e25ac"},"vehicle_type_id":"4","last_reported":1737160949,"current_range_meters":35200,"station_id":"ce4bho92rcd13ifvqh3g","pricing_plan_id":"cebpf4jnsgd1na2vs0mg"},{"bike_id":"f8aad85d-54d6-4ca2-81ac-46c1a831eb57","system_id":"levelo_inurba_marseille","lat":43.28082,"lon":5.39645,"is_reserved":false,"is_disabled":false,"rental_uris":{"android":"levelo://app?vid=f8aad85d-54d6-4ca2-81ac-46c1a831eb57","ios":"levelo://app?vid=f8aad85d-54d6-4ca2-81ac-46c1a831eb57"},"vehicle_type_id":"4","last_reported":1737160949,"current_range_meters":36000,"station_id":"ce4bho12rcd13ifvqh2g","pricing_plan_id":"cebpf4jnsgd1na2vs0mg"},{"bike_id":"6c78eede-12bd-44fe-bdd5-15bdcf3e3cdc","system_id":"levelo_inurba_marseille","lat":43.28358,"lon":5.38657,"is_reserved":false,"is_disabled":false,"rental_uris":{"android":"levelo://app?vid=6c78eede-12bd-44fe-bdd5-15bdcf3e3cdc","ios":"levelo://app?vid=6c78eede-12bd-44fe-bdd5-15bdcf3e3cdc"},"vehicle_type_id":"4","last_reported":1737160949,"current_range_meters":38000,"station_id":"ce4bh492rcd13ifvqdvg","pricing_plan_id":"cebpf4jnsgd1na2vs0mg"},{"bike_id":"15d0e428-92a2-4ce5-9dfa-de49af04e1a0","system_id":"levelo_inurba_marseille","lat":43.28697,"lon":5.374,"is_reserved":false,"is_disabled":false,"rental_uris":{"android":"levelo://app?vid=15d0e428-92a2-4ce5-9dfa-de49af04e1a0","ios":"levelo://app?vid=15d0e428-92a2-4ce5-9dfa-de49af04e1a0"},"vehicle_type_id":"4","last_reported":1737160949,"current_range_meters":28000,"station_id":"ce4bh3p2rcd13ifvqdq0","pricing_plan_id":"cebpf4jnsgd1na2vs0mg"},{"bike_id":"56b8e9bc-f750-4815-bc98-9098414d16db","system_id":"levelo_inurba_marseille","lat":43.23207,"lon":5.35549,"is_reserved":false,"is_disabled":true,"rental_uris":{"android":"levelo://app?vid=56b8e9bc-f750-4815-bc98-9098414d16db","ios":"levelo://app?vid=56b8e9bc-f750-4815-bc98-9098414d16db"},"vehicle_type_id":"4","last_reported":1737160949,"current_range_meters":0,"station_id":"ce4bhu92rcd13ifvqi70","pricing_plan_id":"cebpf4jnsgd1na2vs0mg"},{"bike_id":"0e91b70c-1e42-4d65-a90a-72cbd40954b0","system_id":"levelo_inurba_marseille","lat":43.31879,"lon":5.37457,"is_reserved":false,"is_disabled":false,"rental_uris":{"android":"levelo://app?vid=0e91b70c-1e42-4d65-a90a-72cbd40954b0","ios":"levelo://app?vid=0e91b70c-1e42-4d65-a90a-72cbd40954b0"},"vehicle_type_id":"4","last_reported":1737160949,"current_range_meters":13600,"station_id":"","pricing_plan_id":"cebpf4jnsgd1na2vs0mg"},{"bike_id":"a4fcc6fc-d624-482e-bc29-ec0a0a3eb429","system_id":"levelo_inurba_marseille","lat":43.30317,"lon":5.40448,"is_reserved":false,"is_disabled":false,"rental_uris":{"android":"levelo://app?vid=a4fcc6fc-d624-482e-bc29-ec0a0a3eb429","ios":"levelo://app?vid=a4fcc6fc-d624-482e-bc29-ec0a0a3eb429"},"vehicle_type_id":"4","last_reported":1737160949,"current_range_meters":22800,"station_id":"ce4bh012rcd13ifvqd10","pricing_plan_id":"cebpf4jnsgd1na2vs0mg"},{"bike_id":"4916c5da-e318-4472-84cf-aee3a54ce3c4","system_id":"levelo_inurba_marseille","lat":43.24648,"lon":5.43528,"is_reserved":false,"is_disabled":true,"rental_uris":{"android":"levelo://app?vid=4916c5da-e318-4472-84cf-aee3a54ce3c4","ios":"levelo://app?vid=4916c5da-e318-4472-84cf-aee3a54ce3c4"},"vehicle_type_id":"4","last_reported":1737160949,"current_range_meters":0,"station_id":"","pricing_plan_id":"cebpf4jnsgd1na2vs0mg"},{"bike_id":"6bf0a3f7-b8a8-4251-baf4-c5cb702e1a94","system_id":"levelo_inurba_marseille","lat":43.29028,"lon":5.38645,"is_reserved":false,"is_disabled":false,"rental_uris":{"android":"levelo://app?vid=6bf0a3f7-b8a8-4251-baf4-c5cb702e1a94","ios":"levelo://app?vid=6bf0a3f7-b8a8-4251-baf4-c5cb702e1a94"},"vehicle_type_id":"4","last_reported":1737160949,"current_range_meters":38000,"station_id":"ce4bh4p2rcd13ifvqe0g","pricing_plan_id":"cebpf4jnsgd1na2vs0mg"},{"bike_id":"03dd5e55-62ae-4427-a444-f4d5425e5e7a","system_id":"levelo_inurba_marseille","lat":43.30789,"lon":5.3765,"is_reserved":false,"is_disabled":false,"rental_uris":{"android":"levelo://app?vid=03dd5e55-62ae-4427-a444-f4d5425e5e7a","ios":"levelo://app?vid=03dd5e55-62ae-4427-a444-f4d5425e5e7a"},"vehicle_type_id":"4","last_reported":1737160949,"current_range_meters":38800,"station_id":"ce4bgv92rcd13ifvqcq0","pricing_plan_id":"cebpf4jnsgd1na2vs0mg"},{"bike_id":"c60c9972-38a7-49b0-9555-c0f589822982","system_id":"levelo_inurba_marseille","lat":43.34142,"lon":5.40901,"is_reserved":false,"is_disabled":false,"rental_uris":{"android":"levelo://app?vid=c60c9972-38a7-49b0-9555-c0f589822982","ios":"levelo://app?vid=c60c9972-38a7-49b0-9555-c0f589822982"},"vehicle_type_id":"4","last_reported":1737160949,"current_range_meters":9200,"station_id":"ce4bhqh2rcd13ifvqhlg","pricing_plan_id":"cebpf4jnsgd1na2vs0mg"},{"bike_id":"1b0abdf0-ebc9-477b-9a5c-20d604bc88e3","system_id":"levelo_inurba_marseille","lat":43.25082,"lon":5.39518,"is_reserved":false,"is_disabled":false,"rental_uris":{"android":"levelo://app?vid=1b0abdf0-ebc9-477b-9a5c-20d604bc88e3","ios":"levelo://app?vid=1b0abdf0-ebc9-477b-9a5c-20d604bc88e3"},"vehicle_type_id":"4","last_reported":1737160949,"current_range_meters":38800,"station_id":"ce4bhm12rcd13ifvqgkg","pricing_plan_id":"cebpf4jnsgd1na2vs0mg"},{"bike_id":"424dca1e-8779-4b6f-842e-21c8a559ff8d","system_id":"levelo_inurba_marseille","lat":43.28722,"lon":5.36076,"is_reserved":false,"is_disabled":false,"rental_uris":{"android":"levelo://app?vid=424dca1e-8779-4b6f-842e-21c8a559ff8d","ios":"levelo://app?vid=424dca1e-8779-4b6f-842e-21c8a559ff8d"},"vehicle_type_id":"4","last_reported":1737160949,"current_range_meters":36800,"station_id":"cki0cbj6b192h4jlfktg","pricing_plan_id":"cebpf4jnsgd1na2vs0mg"},{"bike_id":"b987a07f-a5e3-45e2-9549-2a61720f39ae","system_id":"levelo_inurba_marseille","lat":43.28703,"lon":5.3741,"is_reserved":false,"is_disabled":false,"rental_uris":{"android":"levelo://app?vid=b987a07f-a5e3-45e2-9549-2a61720f39ae","ios":"levelo://app?vid=b987a07f-a5e3-45e2-9549-2a61720f39ae"},"vehicle_type_id":"4","last_reported":1737160949,"current_range_meters":36800,"station_id":"ce4bh3p2rcd13ifvqdq0","pricing_plan_id":"cebpf4jnsgd1na2vs0mg"},{"bike_id":"6058ae9f-7230-4dc1-8303-9dfef7b41dd4","system_id":"levelo_inurba_marseille","lat":43.30292,"lon":5.39197,"is_reserved":false,"is_disabled":false,"rental_uris":{"android":"levelo://app?vid=6058ae9f-7230-4dc1-8303-9dfef7b41dd4","ios":"levelo://app?vid=6058ae9f-7230-4dc1-8303-9dfef7b41dd4"},"vehicle_type_id":"4","last_reported":1737160949,"current_range_meters":13600,"station_id":"ce4bgkh2rcd13ifvqbk0","pricing_plan_id":"cebpf4jnsgd1na2vs0mg"},{"bike_id":"57cb6125-13ef-4b3f-8c04-c66200689843","system_id":"levelo_inurba_marseille","lat":43.30871,"lon":5.39635,"is_reserved":false,"is_disabled":false,"rental_uris":{"android":"levelo://app?vid=57cb6125-13ef-4b3f-8c04-c66200689843","ios":"levelo://app?vid=57cb6125-13ef-4b3f-8c04-c66200689843"},"vehicle_type_id":"4","last_reported":1737160949,"current_range_meters":38800,"station_id":"ce4bh012rcd13ifvqcv0","pricing_plan_id":"cebpf4jnsgd1na2vs0mg"},{"bike_id":"86c7bcd5-50d0-4563-893c-49e1cfe89779","system_id":"levelo_inurba_marseille","lat":43.29729,"lon":5.37678,"is_reserved":false,"is_disabled":false,"rental_uris":{"android":"levelo://app?vid=86c7bcd5-50d0-4563-893c-49e1cfe89779","ios":"levelo://app?vid=86c7bcd5-50d0-4563-893c-49e1cfe89779"},"vehicle_type_id":"4","last_reported":1737160949,"current_range_meters":19600,"station_id":"ce4bgkh2rcd13ifvqbl0","pricing_plan_id":"cebpf4jnsgd1na2vs0mg"},{"bike_id":"22465212-93af-4e0b-b803-6ee82bba56d5","system_id":"levelo_inurba_marseille","lat":43.33763,"lon":5.37492,"is_reserved":false,"is_disabled":false,"rental_uris":{"android":"levelo://app?vid=22465212-93af-4e0b-b803-6ee82bba56d5","ios":"levelo://app?vid=22465212-93af-4e0b-b803-6ee82bba56d5"},"vehicle_type_id":"4","last_reported":1737160949,"current_range_meters":31200,"station_id":"","pricing_plan_id":"cebpf4jnsgd1na2vs0mg"},{"bike_id":"383804a9-bc85-4456-8f1f-230200312aa2","system_id":"levelo_inurba_marseille","lat":43.29028,"lon":5.3998,"is_reserved":false,"is_disabled":false,"rental_uris":{"android":"levelo://app?vid=383804a9-bc85-4456-8f1f-230200312aa2","ios":"levelo://app?vid=383804a9-bc85-4456-8f1f-230200312aa2"},"vehicle_type_id":"4","last_reported":1737160949,"current_range_meters":38800,"station_id":"ce4bh392rcd13ifvqdm0","pricing_plan_id":"cebpf4jnsgd1na2vs0mg"},{"bike_id":"979d7a5c-00ce-4dcf-a15c-0fc9c9e35c10","system_id":"levelo_inurba_marseille","lat":43.33783,"lon":5.37456,"is_reserved":false,"is_disabled":false,"rental_uris":{"android":"levelo://app?vid=979d7a5c-00ce-4dcf-a15c-0fc9c9e35c10","ios":"levelo://app?vid=979d7a5c-00ce-4dcf-a15c-0fc9c9e35c10"},"vehicle_type_id":"4","last_reported":1737160949,"current_range_meters":27600,"station_id":"","pricing_plan_id":"cebpf4jnsgd1na2vs0mg"},{"bike_id":"730df4ba-4772-4a0e-9e4a-bb6bde6caaeb","system_id":"levelo_inurba_marseille","lat":43.30119,"lon":5.3986,"is_reserved":false,"is_disabled":true,"rental_uris":{"android":"levelo://app?vid=730df4ba-4772-4a0e-9e4a-bb6bde6caaeb","ios":"levelo://app?vid=730df4ba-4772-4a0e-9e4a-bb6bde6caaeb"},"vehicle_type_id":"4","last_reported":1737160949,"current_range_meters":36800,"station_id":"ce4bh0h2rcd13ifvqd40","pricing_plan_id":"cebpf4jnsgd1na2vs0mg"},{"bike_id":"2669dc48-d52c-4df4-a185-3258641e3a0a","system_id":"levelo_inurba_marseille","lat":43.28,"lon":5.38774,"is_reserved":false,"is_disabled":true,"rental_uris":{"android":"levelo://app?vid=2669dc48-d52c-4df4-a185-3258641e3a0a","ios":"levelo://app?vid=2669dc48-d52c-4df4-a185-3258641e3a0a"},"vehicle_type_id":"4","last_reported":1737160949,"current_range_meters":2000,"station_id":"ce4bhg12rcd13ifvqf80","pricing_plan_id":"cebpf4jnsgd1na2vs0mg"},{"bike_id":"03767334-e544-4e23-ab55-8beb14b550b0","system_id":"levelo_inurba_marseille","lat":43.30935,"lon":5.40152,"is_reserved":false,"is_disabled":false,"rental_uris":{"android":"levelo://app?vid=03767334-e544-4e23-ab55-8beb14b550b0","ios":"levelo://app?vid=03767334-e544-4e23-ab55-8beb14b550b0"},"vehicle_type_id":"4","last_reported":1737160949,"current_range_meters":31200,"station_id":"ce4bgvp2rcd13ifvqct0","pricing_plan_id":"cebpf4jnsgd1na2vs0mg"},{"bike_id":"492bb2a4-bb26-45e4-9edc-d3f9691e28d1","system_id":"levelo_inurba_marseille","lat":43.31754,"lon":5.39014,"is_reserved":false,"is_disabled":false,"rental_uris":{"android":"levelo://app?vid=492bb2a4-bb26-45e4-9edc-d3f9691e28d1","ios":"levelo://app?vid=492bb2a4-bb26-45e4-9edc-d3f9691e28d1"},"vehicle_type_id":"4","last_reported":1737160949,"current_range_meters":38000,"station_id":"ce4bhqp2rcd13ifvqhng","pricing_plan_id":"cebpf4jnsgd1na2vs0mg"},{"bike_id":"e688ea11-af4f-46e3-8c6a-e92d823cd223","system_id":"levelo_inurba_marseille","lat":43.28344,"lon":5.38102,"is_reserved":false,"is_disabled":false,"rental_uris":{"android":"levelo://app?vid=e688ea11-af4f-46e3-8c6a-e92d823cd223","ios":"levelo://app?vid=e688ea11-af4f-46e3-8c6a-e92d823cd223"},"vehicle_type_id":"4","last_reported":1737160949,"current_range_meters":27600,"station_id":"ce4bh412rcd13ifvqdr0","pricing_plan_id":"cebpf4jnsgd1na2vs0mg"},{"bike_id":"2852113b-49ee-4cbf-9a16-ea68797906c2","system_id":"levelo_inurba_marseille","lat":43.33709,"lon":5.37472,"is_reserved":false,"is_disabled":false,"rental_uris":{"android":"levelo://app?vid=2852113b-49ee-4cbf-9a16-ea68797906c2","ios":"levelo://app?vid=2852113b-49ee-4cbf-9a16-ea68797906c2"},"vehicle_type_id":"4","last_reported":1737160949,"current_range_meters":37600,"station_id":"","pricing_plan_id":"cebpf4jnsgd1na2vs0mg"},{"bike_id":"1021b9e0-33c5-4e81-8f74-e65273974c58","system_id":"levelo_inurba_marseille","lat":43.28456,"lon":5.35882,"is_reserved":false,"is_disabled":false,"rental_uris":{"android":"levelo://app?vid=1021b9e0-33c5-4e81-8f74-e65273974c58","ios":"levelo://app?vid=1021b9e0-33c5-4e81-8f74-e65273974c58"},"vehicle_type_id":"4","last_reported":1737160949,"current_range_meters":36400,"station_id":"ce4bhah2rcd13ifvqei0","pricing_plan_id":"cebpf4jnsgd1na2vs0mg"},{"bike_id":"d3bcae62-6d5d-45f6-acfa-c8b6603a3285","system_id":"levelo_inurba_marseille","lat":43.31448,"lon":5.38949,"is_reserved":false,"is_disabled":false,"rental_uris":{"android":"levelo://app?vid=d3bcae62-6d5d-45f6-acfa-c8b6603a3285","ios":"levelo://app?vid=d3bcae62-6d5d-45f6-acfa-c8b6603a3285"},"vehicle_type_id":"4","last_reported":1737160949,"current_range_meters":28400,"station_id":"","pricing_plan_id":"cebpf4jnsgd1na2vs0mg"},{"bike_id":"b663f53e-1e42-4f0c-a05f-fde242cb0184","system_id":"levelo_inurba_marseille","lat":43.28583,"lon":5.35124,"is_reserved":false,"is_disabled":false,"rental_uris":{"android":"levelo://app?vid=b663f53e-1e42-4f0c-a05f-fde242cb0184","ios":"levelo://app?vid=b663f53e-1e42-4f0c-a05f-fde242cb0184"},"vehicle_type_id":"4","last_reported":1737160949,"current_range_meters":27200,"station_id":"ce4bhch2rcd13ifvqeug","pricing_plan_id":"cebpf4jnsgd1na2vs0mg"},{"bike_id":"642bb700-8dbb-42db-a943-18edeccd7c0a","system_id":"levelo_inurba_marseille","lat":43.27808,"lon":5.40717,"is_reserved":false,"is_disabled":false,"rental_uris":{"android":"levelo://app?vid=642bb700-8dbb-42db-a943-18edeccd7c0a","ios":"levelo://app?vid=642bb700-8dbb-42db-a943-18edeccd7c0a"},"vehicle_type_id":"4","last_reported":1737160949,"current_range_meters":38000,"station_id":"ce4bhnh2rcd13ifvqgtg","pricing_plan_id":"cebpf4jnsgd1na2vs0mg"},{"bike_id":"1db2e11f-620f-403f-b1b3-cd7ce8d8adee","system_id":"levelo_inurba_marseille","lat":43.28864,"lon":5.35893,"is_reserved":false,"is_disabled":false,"rental_uris":{"android":"levelo://app?vid=1db2e11f-620f-403f-b1b3-cd7ce8d8adee","ios":"levelo://app?vid=1db2e11f-620f-403f-b1b3-cd7ce8d8adee"},"vehicle_type_id":"4","last_reported":1737160949,"current_range_meters":15200,"station_id":"ce4bhb12rcd13ifvqem0","pricing_plan_id":"cebpf4jnsgd1na2vs0mg"},{"bike_id":"82eafdac-bd81-479d-a7b0-05db8ca76c26","system_id":"levelo_inurba_marseille","lat":43.25823,"lon":5.39422,"is_reserved":false,"is_disabled":true,"rental_uris":{"android":"levelo://app?vid=82eafdac-bd81-479d-a7b0-05db8ca76c26","ios":"levelo://app?vid=82eafdac-bd81-479d-a7b0-05db8ca76c26"},"vehicle_type_id":"4","last_reported":1737160949,"current_range_meters":1200,"station_id":"ce4bhip2rcd13ifvqft0","pricing_plan_id":"cebpf4jnsgd1na2vs0mg"},{"bike_id":"9d6af5c8-f333-416a-864a-1eeb803c1069","system_id":"levelo_inurba_marseille","lat":43.286913,"lon":5.386744,"is_reserved":false,"is_disabled":false,"rental_uris":{"android":"levelo://app?vid=9d6af5c8-f333-416a-864a-1eeb803c1069","ios":"levelo://app?vid=9d6af5c8-f333-416a-864a-1eeb803c1069"},"vehicle_type_id":"4","last_reported":1737160949,"current_range_meters":35600,"station_id":"ce4bh492rcd13ifvqdug","pricing_plan_id":"cebpf4jnsgd1na2vs0mg"},{"bike_id":"cefc250c-1baa-4a78-8fed-eb20c7fbb95c","system_id":"levelo_inurba_marseille","lat":43.23184,"lon":5.35572,"is_reserved":false,"is_disabled":false,"rental_uris":{"android":"levelo://app?vid=cefc250c-1baa-4a78-8fed-eb20c7fbb95c","ios":"levelo://app?vid=cefc250c-1baa-4a78-8fed-eb20c7fbb95c"},"vehicle_type_id":"4","last_reported":1737160949,"current_range_meters":38400,"station_id":"ce4bhu92rcd13ifvqi70","pricing_plan_id":"cebpf4jnsgd1na2vs0mg"},{"bike_id":"6a7366d7-ed8c-4629-bf0c-70c2abcda36d","system_id":"levelo_inurba_marseille","lat":43.23203,"lon":5.35557,"is_reserved":false,"is_disabled":false,"rental_uris":{"android":"levelo://app?vid=6a7366d7-ed8c-4629-bf0c-70c2abcda36d","ios":"levelo://app?vid=6a7366d7-ed8c-4629-bf0c-70c2abcda36d"},"vehicle_type_id":"4","last_reported":1737160949,"current_range_meters":38800,"station_id":"ce4bhu92rcd13ifvqi70","pricing_plan_id":"cebpf4jnsgd1na2vs0mg"},{"bike_id":"2bfb81d2-63b8-4cd2-b9a9-33760811e6c2","system_id":"levelo_inurba_marseille","lat":43.2465,"lon":5.38899,"is_reserved":false,"is_disabled":false,"rental_uris":{"android":"levelo://app?vid=2bfb81d2-63b8-4cd2-b9a9-33760811e6c2","ios":"levelo://app?vid=2bfb81d2-63b8-4cd2-b9a9-33760811e6c2"},"vehicle_type_id":"4","last_reported":1737160949,"current_range_meters":39200,"station_id":"ce4bhg12rcd13ifvqf60","pricing_plan_id":"cebpf4jnsgd1na2vs0mg"},{"bike_id":"4952567e-ae9a-453a-9c43-02e48bde0e3b","system_id":"levelo_inurba_marseille","lat":43.269418,"lon":5.402498,"is_reserved":false,"is_disabled":false,"rental_uris":{"android":"levelo://app?vid=4952567e-ae9a-453a-9c43-02e48bde0e3b","ios":"levelo://app?vid=4952567e-ae9a-453a-9c43-02e48bde0e3b"},"vehicle_type_id":"4","last_reported":1737160949,"current_range_meters":32000,"station_id":"cjm6bp8fraef2m0cb0m0","pricing_plan_id":"cebpf4jnsgd1na2vs0mg"},{"bike_id":"92815373-594e-473e-8a91-850f96a6d88f","system_id":"levelo_inurba_marseille","lat":43.31121,"lon":5.37771,"is_reserved":false,"is_disabled":false,"rental_uris":{"android":"levelo://app?vid=92815373-594e-473e-8a91-850f96a6d88f","ios":"levelo://app?vid=92815373-594e-473e-8a91-850f96a6d88f"},"vehicle_type_id":"4","last_reported":1737160949,"current_range_meters":28400,"station_id":"ce4bgt92rcd13ifvqcg0","pricing_plan_id":"cebpf4jnsgd1na2vs0mg"},{"bike_id":"c5e9582c-f791-48cb-b29f-91f8675f074e","system_id":"levelo_inurba_marseille","lat":43.31991,"lon":5.38158,"is_reserved":false,"is_disabled":false,"rental_uris":{"android":"levelo://app?vid=c5e9582c-f791-48cb-b29f-91f8675f074e","ios":"levelo://app?vid=c5e9582c-f791-48cb-b29f-91f8675f074e"},"vehicle_type_id":"4","last_reported":1737160949,"current_range_meters":38800,"station_id":"ce4bhr12rcd13ifvqhpg","pricing_plan_id":"cebpf4jnsgd1na2vs0mg"},{"bike_id":"35deb437-7ef2-4ee7-9ea5-27ce0001ca7b","system_id":"levelo_inurba_marseille","lat":43.26064,"lon":5.3939,"is_reserved":false,"is_disabled":false,"rental_uris":{"android":"levelo://app?vid=35deb437-7ef2-4ee7-9ea5-27ce0001ca7b","ios":"levelo://app?vid=35deb437-7ef2-4ee7-9ea5-27ce0001ca7b"},"vehicle_type_id":"4","last_reported":1737160949,"current_range_meters":38800,"station_id":"ce4bhh92rcd13ifvqfj0","pricing_plan_id":"cebpf4jnsgd1na2vs0mg"},{"bike_id":"8950ad97-12b3-4231-a25a-a92e6e418d6d","system_id":"levelo_inurba_marseille","lat":43.28609,"lon":5.37057,"is_reserved":false,"is_disabled":false,"rental_uris":{"android":"levelo://app?vid=8950ad97-12b3-4231-a25a-a92e6e418d6d","ios":"levelo://app?vid=8950ad97-12b3-4231-a25a-a92e6e418d6d"},"vehicle_type_id":"4","last_reported":1737160949,"current_range_meters":16800,"station_id":"ce4bht12rcd13ifvqi60","pricing_plan_id":"cebpf4jnsgd1na2vs0mg"},{"bike_id":"3f365e46-1820-41a8-b556-5a78950765a9","system_id":"levelo_inurba_marseille","lat":43.28377,"lon":5.38642,"is_reserved":false,"is_disabled":false,"rental_uris":{"android":"levelo://app?vid=3f365e46-1820-41a8-b556-5a78950765a9","ios":"levelo://app?vid=3f365e46-1820-41a8-b556-5a78950765a9"},"vehicle_type_id":"4","last_reported":1737160949,"current_range_meters":35600,"station_id":"ce4bh492rcd13ifvqdvg","pricing_plan_id":"cebpf4jnsgd1na2vs0mg"},{"bike_id":"f2390374-e060-4fe1-bcfa-cb2711193e58","system_id":"levelo_inurba_marseille","lat":43.2509,"lon":5.39522,"is_reserved":false,"is_disabled":false,"rental_uris":{"android":"levelo://app?vid=f2390374-e060-4fe1-bcfa-cb2711193e58","ios":"levelo://app?vid=f2390374-e060-4fe1-bcfa-cb2711193e58"},"vehicle_type_id":"4","last_reported":1737160949,"current_range_meters":12400,"station_id":"ce4bhm12rcd13ifvqgkg","pricing_plan_id":"cebpf4jnsgd1na2vs0mg"},{"bike_id":"12aeebdf-9e20-443e-a190-514b03e8d72a","system_id":"levelo_inurba_marseille","lat":43.30876,"lon":5.372,"is_reserved":false,"is_disabled":false,"rental_uris":{"android":"levelo://app?vid=12aeebdf-9e20-443e-a190-514b03e8d72a","ios":"levelo://app?vid=12aeebdf-9e20-443e-a190-514b03e8d72a"},"vehicle_type_id":"4","last_reported":1737160949,"current_range_meters":38000,"station_id":"ce4bguh2rcd13ifvqckg","pricing_plan_id":"cebpf4jnsgd1na2vs0mg"},{"bike_id":"3baee328-1960-43a9-a18f-d51a435b6348","system_id":"levelo_inurba_marseille","lat":43.27823,"lon":5.40715,"is_reserved":false,"is_disabled":false,"rental_uris":{"android":"levelo://app?vid=3baee328-1960-43a9-a18f-d51a435b6348","ios":"levelo://app?vid=3baee328-1960-43a9-a18f-d51a435b6348"},"vehicle_type_id":"4","last_reported":1737160949,"current_range_meters":32000,"station_id":"ce4bhnh2rcd13ifvqgtg","pricing_plan_id":"cebpf4jnsgd1na2vs0mg"},{"bike_id":"6a53c10f-d427-45e3-b9e9-bd57bd030155","system_id":"levelo_inurba_marseille","lat":43.29524,"lon":5.38545,"is_reserved":false,"is_disabled":false,"rental_uris":{"android":"levelo://app?vid=6a53c10f-d427-45e3-b9e9-bd57bd030155","ios":"levelo://app?vid=6a53c10f-d427-45e3-b9e9-bd57bd030155"},"vehicle_type_id":"4","last_reported":1737160949,"current_range_meters":27200,"station_id":"ce4bgih2rcd13ifvqba0","pricing_plan_id":"cebpf4jnsgd1na2vs0mg"},{"bike_id":"a8c1b154-f41c-4d41-9d3c-cf0101fd1f79","system_id":"levelo_inurba_marseille","lat":43.31311,"lon":5.39727,"is_reserved":false,"is_disabled":false,"rental_uris":{"android":"levelo://app?vid=a8c1b154-f41c-4d41-9d3c-cf0101fd1f79","ios":"levelo://app?vid=a8c1b154-f41c-4d41-9d3c-cf0101fd1f79"},"vehicle_type_id":"4","last_reported":1737160949,"current_range_meters":38400,"station_id":"ce4bgvp2rcd13ifvqcu0","pricing_plan_id":"cebpf4jnsgd1na2vs0mg"},{"bike_id":"fb0e3bf0-d49f-4b40-9e9c-373475dbd664","system_id":"levelo_inurba_marseille","lat":43.28107,"lon":5.37825,"is_reserved":false,"is_disabled":false,"rental_uris":{"android":"levelo://app?vid=fb0e3bf0-d49f-4b40-9e9c-373475dbd664","ios":"levelo://app?vid=fb0e3bf0-d49f-4b40-9e9c-373475dbd664"},"vehicle_type_id":"4","last_reported":1737160949,"current_range_meters":10800,"station_id":"ce4bha12rcd13ifvqee0","pricing_plan_id":"cebpf4jnsgd1na2vs0mg"},{"bike_id":"cd4a107c-2d72-46d4-9e07-4d6e3e144097","system_id":"levelo_inurba_marseille","lat":43.29554,"lon":5.42293,"is_reserved":false,"is_disabled":false,"rental_uris":{"android":"levelo://app?vid=cd4a107c-2d72-46d4-9e07-4d6e3e144097","ios":"levelo://app?vid=cd4a107c-2d72-46d4-9e07-4d6e3e144097"},"vehicle_type_id":"4","last_reported":1737160949,"current_range_meters":34800,"station_id":"ce4bhph2rcd13ifvqhdg","pricing_plan_id":"cebpf4jnsgd1na2vs0mg"},{"bike_id":"7ae468b0-0e73-4609-b947-3b7dfb1c3890","system_id":"levelo_inurba_marseille","lat":43.28402,"lon":5.37542,"is_reserved":false,"is_disabled":false,"rental_uris":{"android":"levelo://app?vid=7ae468b0-0e73-4609-b947-3b7dfb1c3890","ios":"levelo://app?vid=7ae468b0-0e73-4609-b947-3b7dfb1c3890"},"vehicle_type_id":"4","last_reported":1737160949,"current_range_meters":34000,"station_id":"ce4bh412rcd13ifvqds0","pricing_plan_id":"cebpf4jnsgd1na2vs0mg"},{"bike_id":"c4ab3838-1d61-4e29-a39f-fbac00aa12d4","system_id":"levelo_inurba_marseille","lat":43.31181,"lon":5.36867,"is_reserved":false,"is_disabled":false,"rental_uris":{"android":"levelo://app?vid=c4ab3838-1d61-4e29-a39f-fbac00aa12d4","ios":"levelo://app?vid=c4ab3838-1d61-4e29-a39f-fbac00aa12d4"},"vehicle_type_id":"4","last_reported":1737160949,"current_range_meters":38400,"station_id":"ce4bgl92rcd13ifvqbq0","pricing_plan_id":"cebpf4jnsgd1na2vs0mg"},{"bike_id":"b31ae004-8311-43e4-aa7b-f5d047da3a0f","system_id":"levelo_inurba_marseille","lat":43.30795,"lon":5.38161,"is_reserved":false,"is_disabled":false,"rental_uris":{"android":"levelo://app?vid=b31ae004-8311-43e4-aa7b-f5d047da3a0f","ios":"levelo://app?vid=b31ae004-8311-43e4-aa7b-f5d047da3a0f"},"vehicle_type_id":"4","last_reported":1737160949,"current_range_meters":13600,"station_id":"ce4bgt12rcd13ifvqce0","pricing_plan_id":"cebpf4jnsgd1na2vs0mg"},{"bike_id":"5c57fe6d-06d2-4b7f-85c0-30bc033b1464","system_id":"levelo_inurba_marseille","lat":43.29038,"lon":5.37565,"is_reserved":false,"is_disabled":false,"rental_uris":{"android":"levelo://app?vid=5c57fe6d-06d2-4b7f-85c0-30bc033b1464","ios":"levelo://app?vid=5c57fe6d-06d2-4b7f-85c0-30bc033b1464"},"vehicle_type_id":"4","last_reported":1737160949,"current_range_meters":37600,"station_id":"ce4bh692rcd13ifvqe90","pricing_plan_id":"cebpf4jnsgd1na2vs0mg"},{"bike_id":"76747a24-4788-4243-9add-0ea2e786fbe5","system_id":"levelo_inurba_marseille","lat":43.29026,"lon":5.38123,"is_reserved":false,"is_disabled":false,"rental_uris":{"android":"levelo://app?vid=76747a24-4788-4243-9add-0ea2e786fbe5","ios":"levelo://app?vid=76747a24-4788-4243-9add-0ea2e786fbe5"},"vehicle_type_id":"4","last_reported":1737160949,"current_range_meters":29600,"station_id":"ce4bh4p2rcd13ifvqe1g","pricing_plan_id":"cebpf4jnsgd1na2vs0mg"},{"bike_id":"29115170-c3f9-497a-8ac2-7733237abe9e","system_id":"levelo_inurba_marseille","lat":43.30786,"lon":5.37639,"is_reserved":false,"is_disabled":false,"rental_uris":{"android":"levelo://app?vid=29115170-c3f9-497a-8ac2-7733237abe9e","ios":"levelo://app?vid=29115170-c3f9-497a-8ac2-7733237abe9e"},"vehicle_type_id":"4","last_reported":1737160949,"current_range_meters":28000,"station_id":"ce4bgv92rcd13ifvqcq0","pricing_plan_id":"cebpf4jnsgd1na2vs0mg"},{"bike_id":"12e04a6f-569c-4425-a06c-48e55183da7e","system_id":"levelo_inurba_marseille","lat":43.31366,"lon":5.36721,"is_reserved":false,"is_disabled":false,"rental_uris":{"android":"levelo://app?vid=12e04a6f-569c-4425-a06c-48e55183da7e","ios":"levelo://app?vid=12e04a6f-569c-4425-a06c-48e55183da7e"},"vehicle_type_id":"4","last_reported":1737160949,"current_range_meters":7200,"station_id":"ce4bgr92rcd13ifvqc6g","pricing_plan_id":"cebpf4jnsgd1na2vs0mg"},{"bike_id":"246f2aa1-d855-40ee-b8e2-0e541013d632","system_id":"levelo_inurba_marseille","lat":43.27813,"lon":5.407101,"is_reserved":false,"is_disabled":false,"rental_uris":{"android":"levelo://app?vid=246f2aa1-d855-40ee-b8e2-0e541013d632","ios":"levelo://app?vid=246f2aa1-d855-40ee-b8e2-0e541013d632"},"vehicle_type_id":"4","last_reported":1737160949,"current_range_meters":3600,"station_id":"ce4bhnh2rcd13ifvqgtg","pricing_plan_id":"cebpf4jnsgd1na2vs0mg"},{"bike_id":"c248864c-e161-4718-8c42-20a1064043b4","system_id":"levelo_inurba_marseille","lat":43.28407,"lon":5.37522,"is_reserved":false,"is_disabled":false,"rental_uris":{"android":"levelo://app?vid=c248864c-e161-4718-8c42-20a1064043b4","ios":"levelo://app?vid=c248864c-e161-4718-8c42-20a1064043b4"},"vehicle_type_id":"4","last_reported":1737160949,"current_range_meters":24000,"station_id":"ce4bh412rcd13ifvqds0","pricing_plan_id":"cebpf4jnsgd1na2vs0mg"},{"bike_id":"1780b179-d5ca-43a3-9ba5-a4c0c738d0a2","system_id":"levelo_inurba_marseille","lat":43.28698,"lon":5.39986,"is_reserved":false,"is_disabled":false,"rental_uris":{"android":"levelo://app?vid=1780b179-d5ca-43a3-9ba5-a4c0c738d0a2","ios":"levelo://app?vid=1780b179-d5ca-43a3-9ba5-a4c0c738d0a2"},"vehicle_type_id":"4","last_reported":1737160949,"current_range_meters":38800,"station_id":"ce4bho92rcd13ifvqh3g","pricing_plan_id":"cebpf4jnsgd1na2vs0mg"},{"bike_id":"72ca0742-1df6-4026-87cc-098e9e8db1ab","system_id":"levelo_inurba_marseille","lat":43.23961,"lon":5.36639,"is_reserved":false,"is_disabled":false,"rental_uris":{"android":"levelo://app?vid=72ca0742-1df6-4026-87cc-098e9e8db1ab","ios":"levelo://app?vid=72ca0742-1df6-4026-87cc-098e9e8db1ab"},"vehicle_type_id":"4","last_reported":1737160949,"current_range_meters":26800,"station_id":"ce4bhi12rcd13ifvqfp0","pricing_plan_id":"cebpf4jnsgd1na2vs0mg"},{"bike_id":"1e2f115e-489f-4c45-b5ad-3280ad4c66fe","system_id":"levelo_inurba_marseille","lat":43.3172,"lon":5.43714,"is_reserved":false,"is_disabled":false,"rental_uris":{"android":"levelo://app?vid=1e2f115e-489f-4c45-b5ad-3280ad4c66fe","ios":"levelo://app?vid=1e2f115e-489f-4c45-b5ad-3280ad4c66fe"},"vehicle_type_id":"4","last_reported":1737160949,"current_range_meters":21600,"station_id":"ce4bhp92rcd13ifvqhcg","pricing_plan_id":"cebpf4jnsgd1na2vs0mg"},{"bike_id":"5d485980-329e-4a09-a753-0320f2defa4b","system_id":"levelo_inurba_marseille","lat":43.24062,"lon":5.3775,"is_reserved":false,"is_disabled":false,"rental_uris":{"android":"levelo://app?vid=5d485980-329e-4a09-a753-0320f2defa4b","ios":"levelo://app?vid=5d485980-329e-4a09-a753-0320f2defa4b"},"vehicle_type_id":"4","last_reported":1737160949,"current_range_meters":13600,"station_id":"ce4bhnp2rcd13ifvqgvg","pricing_plan_id":"cebpf4jnsgd1na2vs0mg"},{"bike_id":"99ee94b8-cdd4-4237-8287-de2fd426fc26","system_id":"levelo_inurba_marseille","lat":43.3026,"lon":5.40067,"is_reserved":false,"is_disabled":false,"rental_uris":{"android":"levelo://app?vid=99ee94b8-cdd4-4237-8287-de2fd426fc26","ios":"levelo://app?vid=99ee94b8-cdd4-4237-8287-de2fd426fc26"},"vehicle_type_id":"4","last_reported":1737160949,"current_range_meters":36400,"station_id":"ce4bgvh2rcd13ifvqcs0","pricing_plan_id":"cebpf4jnsgd1na2vs0mg"},{"bike_id":"5ed39e30-6df6-4cb7-b9e5-8eddd4f008ab","system_id":"levelo_inurba_marseille","lat":43.30356,"lon":5.39095,"is_reserved":false,"is_disabled":true,"rental_uris":{"android":"levelo://app?vid=5ed39e30-6df6-4cb7-b9e5-8eddd4f008ab","ios":"levelo://app?vid=5ed39e30-6df6-4cb7-b9e5-8eddd4f008ab"},"vehicle_type_id":"4","last_reported":1737160949,"current_range_meters":0,"station_id":"ce4bgkh2rcd13ifvqbk0","pricing_plan_id":"cebpf4jnsgd1na2vs0mg"},{"bike_id":"5f14310a-75fd-4a5b-a1bd-aaf290600cc6","system_id":"levelo_inurba_marseille","lat":43.25508,"lon":5.37658,"is_reserved":false,"is_disabled":false,"rental_uris":{"android":"levelo://app?vid=5f14310a-75fd-4a5b-a1bd-aaf290600cc6","ios":"levelo://app?vid=5f14310a-75fd-4a5b-a1bd-aaf290600cc6"},"vehicle_type_id":"4","last_reported":1737160949,"current_range_meters":32000,"station_id":"ce4bhh12rcd13ifvqff0","pricing_plan_id":"cebpf4jnsgd1na2vs0mg"},{"bike_id":"e27e74b2-2c71-43d5-8029-588d7007cb32","system_id":"levelo_inurba_marseille","lat":43.316969,"lon":5.377547,"is_reserved":false,"is_disabled":false,"rental_uris":{"android":"levelo://app?vid=e27e74b2-2c71-43d5-8029-588d7007cb32","ios":"levelo://app?vid=e27e74b2-2c71-43d5-8029-588d7007cb32"},"vehicle_type_id":"4","last_reported":1737160949,"current_range_meters":35600,"station_id":"ce4bgth2rcd13ifvqch0","pricing_plan_id":"cebpf4jnsgd1na2vs0mg"},{"bike_id":"7383474c-b45a-4438-837c-99d7ae866fe7","system_id":"levelo_inurba_marseille","lat":43.26057,"lon":5.39389,"is_reserved":false,"is_disabled":false,"rental_uris":{"android":"levelo://app?vid=7383474c-b45a-4438-837c-99d7ae866fe7","ios":"levelo://app?vid=7383474c-b45a-4438-837c-99d7ae866fe7"},"vehicle_type_id":"4","last_reported":1737160949,"current_range_meters":38800,"station_id":"ce4bhh92rcd13ifvqfj0","pricing_plan_id":"cebpf4jnsgd1na2vs0mg"},{"bike_id":"4b62f61e-9a6c-4324-9eb8-ea40df5b2b54","system_id":"levelo_inurba_marseille","lat":43.28461,"lon":5.35903,"is_reserved":false,"is_disabled":false,"rental_uris":{"android":"levelo://app?vid=4b62f61e-9a6c-4324-9eb8-ea40df5b2b54","ios":"levelo://app?vid=4b62f61e-9a6c-4324-9eb8-ea40df5b2b54"},"vehicle_type_id":"4","last_reported":1737160949,"current_range_meters":30400,"station_id":"ce4bhah2rcd13ifvqei0","pricing_plan_id":"cebpf4jnsgd1na2vs0mg"},{"bike_id":"0352da0f-67b9-4f9c-95b6-4b5452c943f6","system_id":"levelo_inurba_marseille","lat":43.27905,"lon":5.38019,"is_reserved":false,"is_disabled":false,"rental_uris":{"android":"levelo://app?vid=0352da0f-67b9-4f9c-95b6-4b5452c943f6","ios":"levelo://app?vid=0352da0f-67b9-4f9c-95b6-4b5452c943f6"},"vehicle_type_id":"4","last_reported":1737160949,"current_range_meters":30800,"station_id":"ce4bhf92rcd13ifvqf50","pricing_plan_id":"cebpf4jnsgd1na2vs0mg"},{"bike_id":"5da0f5f9-7d10-4e2d-9881-986b52d41f3b","system_id":"levelo_inurba_marseille","lat":43.28661,"lon":5.36338,"is_reserved":false,"is_disabled":false,"rental_uris":{"android":"levelo://app?vid=5da0f5f9-7d10-4e2d-9881-986b52d41f3b","ios":"levelo://app?vid=5da0f5f9-7d10-4e2d-9881-986b52d41f3b"},"vehicle_type_id":"4","last_reported":1737160949,"current_range_meters":35600,"station_id":"ce4bhah2rcd13ifvqej0","pricing_plan_id":"cebpf4jnsgd1na2vs0mg"},{"bike_id":"61b0c2f3-448f-49d3-8a4a-899110ba1116","system_id":"levelo_inurba_marseille","lat":43.32342,"lon":5.40625,"is_reserved":false,"is_disabled":false,"rental_uris":{"android":"levelo://app?vid=61b0c2f3-448f-49d3-8a4a-899110ba1116","ios":"levelo://app?vid=61b0c2f3-448f-49d3-8a4a-899110ba1116"},"vehicle_type_id":"4","last_reported":1737160949,"current_range_meters":34800,"station_id":"ce4bhq92rcd13ifvqhjg","pricing_plan_id":"cebpf4jnsgd1na2vs0mg"},{"bike_id":"35855600-b7a7-4a4d-b402-fa49f62670ff","system_id":"levelo_inurba_marseille","lat":43.31121,"lon":5.37758,"is_reserved":false,"is_disabled":false,"rental_uris":{"android":"levelo://app?vid=35855600-b7a7-4a4d-b402-fa49f62670ff","ios":"levelo://app?vid=35855600-b7a7-4a4d-b402-fa49f62670ff"},"vehicle_type_id":"4","last_reported":1737160949,"current_range_meters":39200,"station_id":"ce4bgt92rcd13ifvqcg0","pricing_plan_id":"cebpf4jnsgd1na2vs0mg"},{"bike_id":"dba66095-5e12-4fb6-9dcb-7e2c61ded5ec","system_id":"levelo_inurba_marseille","lat":43.24079,"lon":5.37753,"is_reserved":false,"is_disabled":false,"rental_uris":{"android":"levelo://app?vid=dba66095-5e12-4fb6-9dcb-7e2c61ded5ec","ios":"levelo://app?vid=dba66095-5e12-4fb6-9dcb-7e2c61ded5ec"},"vehicle_type_id":"4","last_reported":1737160949,"current_range_meters":38800,"station_id":"ce4bhnp2rcd13ifvqgvg","pricing_plan_id":"cebpf4jnsgd1na2vs0mg"},{"bike_id":"44bccd7b-e954-4fef-a58a-1bfa0b432213","system_id":"levelo_inurba_marseille","lat":43.28267,"lon":5.35092,"is_reserved":false,"is_disabled":false,"rental_uris":{"android":"levelo://app?vid=44bccd7b-e954-4fef-a58a-1bfa0b432213","ios":"levelo://app?vid=44bccd7b-e954-4fef-a58a-1bfa0b432213"},"vehicle_type_id":"4","last_reported":1737160949,"current_range_meters":34800,"station_id":"ce4bhbp2rcd13ifvqerg","pricing_plan_id":"cebpf4jnsgd1na2vs0mg"},{"bike_id":"230bef5b-3f3d-4ae2-901e-7cede6e0c8f2","system_id":"levelo_inurba_marseille","lat":43.30775,"lon":5.3767,"is_reserved":false,"is_disabled":false,"rental_uris":{"android":"levelo://app?vid=230bef5b-3f3d-4ae2-901e-7cede6e0c8f2","ios":"levelo://app?vid=230bef5b-3f3d-4ae2-901e-7cede6e0c8f2"},"vehicle_type_id":"4","last_reported":1737160949,"current_range_meters":22000,"station_id":"ce4bgv92rcd13ifvqcq0","pricing_plan_id":"cebpf4jnsgd1na2vs0mg"},{"bike_id":"ef74c085-e254-493f-8bad-ac87926b563d","system_id":"levelo_inurba_marseille","lat":43.292514,"lon":5.409155,"is_reserved":false,"is_disabled":false,"rental_uris":{"android":"levelo://app?vid=ef74c085-e254-493f-8bad-ac87926b563d","ios":"levelo://app?vid=ef74c085-e254-493f-8bad-ac87926b563d"},"vehicle_type_id":"4","last_reported":1737160949,"current_range_meters":38800,"station_id":"ce4bh192rcd13ifvqdc0","pricing_plan_id":"cebpf4jnsgd1na2vs0mg"},{"bike_id":"a3b707c7-6307-4e5f-a8e6-8113aef1245e","system_id":"levelo_inurba_marseille","lat":43.28425,"lon":5.37519,"is_reserved":false,"is_disabled":false,"rental_uris":{"android":"levelo://app?vid=a3b707c7-6307-4e5f-a8e6-8113aef1245e","ios":"levelo://app?vid=a3b707c7-6307-4e5f-a8e6-8113aef1245e"},"vehicle_type_id":"4","last_reported":1737160949,"current_range_meters":31200,"station_id":"ce4bh412rcd13ifvqds0","pricing_plan_id":"cebpf4jnsgd1na2vs0mg"},{"bike_id":"fe90f7a6-3920-456a-9451-50d213b7000f","system_id":"levelo_inurba_marseille","lat":43.28496,"lon":5.38461,"is_reserved":false,"is_disabled":true,"rental_uris":{"android":"levelo://app?vid=fe90f7a6-3920-456a-9451-50d213b7000f","ios":"levelo://app?vid=fe90f7a6-3920-456a-9451-50d213b7000f"},"vehicle_type_id":"4","last_reported":1737160949,"current_range_meters":0,"station_id":"ce4bh512rcd13ifvqe3g","pricing_plan_id":"cebpf4jnsgd1na2vs0mg"},{"bike_id":"3958b03d-b591-4d79-80a4-059614f22dc2","system_id":"levelo_inurba_marseille","lat":43.298901,"lon":5.436554,"is_reserved":false,"is_disabled":false,"rental_uris":{"android":"levelo://app?vid=3958b03d-b591-4d79-80a4-059614f22dc2","ios":"levelo://app?vid=3958b03d-b591-4d79-80a4-059614f22dc2"},"vehicle_type_id":"4","last_reported":1737160949,"current_range_meters":36800,"station_id":"ce4bhpp2rcd13ifvqhfg","pricing_plan_id":"cebpf4jnsgd1na2vs0mg"},{"bike_id":"fb05e96f-adbe-4233-8c5d-9c52422e20f1","system_id":"levelo_inurba_marseille","lat":43.2957,"lon":5.39958,"is_reserved":false,"is_disabled":false,"rental_uris":{"android":"levelo://app?vid=fb05e96f-adbe-4233-8c5d-9c52422e20f1","ios":"levelo://app?vid=fb05e96f-adbe-4233-8c5d-9c52422e20f1"},"vehicle_type_id":"4","last_reported":1737160949,"current_range_meters":8000,"station_id":"ce4bh312rcd13ifvqdj0","pricing_plan_id":"cebpf4jnsgd1na2vs0mg"},{"bike_id":"910d1690-8e74-46e9-a779-620892417947","system_id":"levelo_inurba_marseille","lat":43.27077,"lon":5.42273,"is_reserved":false,"is_disabled":false,"rental_uris":{"android":"levelo://app?vid=910d1690-8e74-46e9-a779-620892417947","ios":"levelo://app?vid=910d1690-8e74-46e9-a779-620892417947"},"vehicle_type_id":"4","last_reported":1737160949,"current_range_meters":35600,"station_id":"ce4bhk92rcd13ifvqgb0","pricing_plan_id":"cebpf4jnsgd1na2vs0mg"},{"bike_id":"0c423eec-d519-47e7-8855-4b34b85a2cc8","system_id":"levelo_inurba_marseille","lat":43.314868,"lon":5.373028,"is_reserved":false,"is_disabled":false,"rental_uris":{"android":"levelo://app?vid=0c423eec-d519-47e7-8855-4b34b85a2cc8","ios":"levelo://app?vid=0c423eec-d519-47e7-8855-4b34b85a2cc8"},"vehicle_type_id":"4","last_reported":1737160949,"current_range_meters":6800,"station_id":"ce4bgt12rcd13ifvqcd0","pricing_plan_id":"cebpf4jnsgd1na2vs0mg"},{"bike_id":"7252053a-5c68-45c3-bb6b-f5e7c6b31b2d","system_id":"levelo_inurba_marseille","lat":43.27617,"lon":5.36085,"is_reserved":false,"is_disabled":false,"rental_uris":{"android":"levelo://app?vid=7252053a-5c68-45c3-bb6b-f5e7c6b31b2d","ios":"levelo://app?vid=7252053a-5c68-45c3-bb6b-f5e7c6b31b2d"},"vehicle_type_id":"4","last_reported":1737160949,"current_range_meters":37600,"station_id":"ce4bgj92rcd13ifvqbe0","pricing_plan_id":"cebpf4jnsgd1na2vs0mg"},{"bike_id":"dbc84289-e424-421f-8922-80495ae94fa1","system_id":"levelo_inurba_marseille","lat":43.30602,"lon":5.39351,"is_reserved":false,"is_disabled":true,"rental_uris":{"android":"levelo://app?vid=dbc84289-e424-421f-8922-80495ae94fa1","ios":"levelo://app?vid=dbc84289-e424-421f-8922-80495ae94fa1"},"vehicle_type_id":"4","last_reported":1737160949,"current_range_meters":24400,"station_id":"ce4bh0p2rcd13ifvqd80","pricing_plan_id":"cebpf4jnsgd1na2vs0mg"},{"bike_id":"b548055c-3ad9-4256-ac6e-c854b5536332","system_id":"levelo_inurba_marseille","lat":43.30327,"lon":5.40444,"is_reserved":false,"is_disabled":false,"rental_uris":{"android":"levelo://app?vid=b548055c-3ad9-4256-ac6e-c854b5536332","ios":"levelo://app?vid=b548055c-3ad9-4256-ac6e-c854b5536332"},"vehicle_type_id":"4","last_reported":1737160949,"current_range_meters":24400,"station_id":"ce4bh012rcd13ifvqd10","pricing_plan_id":"cebpf4jnsgd1na2vs0mg"},{"bike_id":"a9a0e60f-8e94-490a-988c-5a9cfc45d626","system_id":"levelo_inurba_marseille","lat":43.24166,"lon":5.3639,"is_reserved":false,"is_disabled":false,"rental_uris":{"android":"levelo://app?vid=a9a0e60f-8e94-490a-988c-5a9cfc45d626","ios":"levelo://app?vid=a9a0e60f-8e94-490a-988c-5a9cfc45d626"},"vehicle_type_id":"4","last_reported":1737160949,"current_range_meters":13600,"station_id":"cpo36qri1sfpv3e86is0","pricing_plan_id":"cebpf4jnsgd1na2vs0mg"},