{"last_updated":1747830008,"ttl":60,"version":"2.2","data":{"bikes":[{"bike_id":"c0b9fd4f-e181-46ce-b0bf-f5119973334f","system_id":"levelo_inurba_marseille","lat":43.33771,"lon":5.37424,"is_reserved":false,"is_disabled":true,"rental_uris":{"android":"levelo://app?vid=c0b9fd4f-e181-46ce-b0bf-f5119973334f","ios":"levelo://app?vid=c0b9fd4f-e181-46ce-b0bf-f5119973334f"},"vehicle_type_id":"4","last_reported":1747830008,"current_range_meters":0,"station_id":"","pricing_plan_id":"cebpf4jnsgd1na2vs0mg"},{"bike_id":"1dec17c8-cbde-4354-8b6c-219f98c89710","system_id":"levelo_inurba_marseille","lat":43.291827,"lon":5.422652,"is_reserved":false,"is_disabled":true,"rental_uris":{"android":"levelo://app?vid=1dec17c8-cbde-4354-8b6c-219f98c89710","ios":"levelo://app?vid=1dec17c8-cbde-4354-8b6c-219f98c89710"},"vehicle_type_id":"4","last_reported":1747830008,"current_range_meters":0,"station_id":"","pricing_plan_id":"cebpf4jnsgd1na2vs0mg"},{"bike_id":"a9d09347-e851-44c4-a4d0-a135bb7192ce","system_id":"levelo_inurba_marseille","lat":43.225041,"lon":5.347894,"is_reserved":false,"is_disabled":true,"rental_uris":{"android":"levelo://app?vid=a9d09347-e851-44c4-a4d0-a135bb7192ce","ios":"levelo://app?vid=a9d09347-e851-44c4-a4d0-a135bb7192ce"},"vehicle_type_id":"4","last_reported":1747830008,"current_range_meters":0,"station_id":"","pricing_plan_id":"cebpf4jnsgd1na2vs0mg"},{"bike_id":"e9dd3aa4-b5e7-4480-926d-d7f537719bfa","system_id":"levelo_inurba_marseille","lat":43.230331,"lon":5.401847,"is_reserved":false,"is_disabled":true,"rental_uris":{"android":"levelo://app?vid=e9dd3aa4-b5e7-4480-926d-d7f537719bfa","ios":"levelo://app?vid=e9dd3aa4-b5e7-4480-926d-d7f537719bfa"},"vehicle_type_id":"4","last_reported":1747830008,"current_range_meters":0,"station_id":"","pricing_plan_id":"cebpf4jnsgd1na2vs0mg"},{"bike_id":"14603e41-b2dd-4757-a53c-2e366aa4f983","system_id":"levelo_inurba_marseille","lat":43.26993,"lon":5.42819,"is_reserved":false,"is_disabled":true,"rental_uris":{"android":"levelo://app?vid=14603e41-b2dd-4757-a53c-2e366aa4f983","ios":"levelo://app?vid=14603e41-b2dd-4757-a53c-2e366aa4f983"},"vehicle_type_id":"4","last_reported":1747830008,"current_range_meters":0,"station_id":"","pricing_plan_id":"cebpf4jnsgd1na2vs0mg"},{"bike_id":"830fa9fb-51fc-4b45-a130-30f4fbeaf1ac","system_id":"levelo_inurba_marseille","lat":43.31177,"lon":5.38703,"is_reserved":false,"is_disabled":true,"rental_uris":{"android":"levelo://app?vid=830fa9fb-51fc-4b45-a130-30f4fbeaf1ac","ios":"levelo://app?vid=830fa9fb-51fc-4b45-a130-30f4fbeaf1ac"},"vehicle_type_id":"4","last_reported":1747830008,"current_range_meters":0,"station_id":"ce4bgv12rcd13ifvqcp0","pricing_plan_id":"cebpf4jnsgd1na2vs0mg"},{"bike_id":"bb86c2fb-5174-4153-a5b9-40bdabd2da3e","system_id":"levelo_inurba_marseille","lat":43.30592,"lon":5.39355,"is_reserved":false,"is_disabled":true,"rental_uris":{"android":"levelo://app?vid=bb86c2fb-5174-4153-a5b9-40bdabd2da3e","ios":"levelo://app?vid=bb86c2fb-5174-4153-a5b9-40bdabd2da3e"},"vehicle_type_id":"4","last_reported":1747830008,"current_range_meters":0,"station_id":"ce4bh0p2rcd13ifvqd80","pricing_plan_id":"cebpf4jnsgd1na2vs0mg"},{"bike_id":"0326a549-5f15-41bc-a7bd-71dc5dbdd03b","system_id":"levelo_inurba_marseille","lat":43.29279,"lon":5.36842,"is_reserved":false,"is_disabled":true,"rental_uris":{"android":"levelo://app?vid=0326a549-5f15-41bc-a7bd-71dc5dbdd03b","ios":"levelo://app?vid=0326a549-5f15-41bc-a7bd-71dc5dbdd03b"},"vehicle_type_id":"4","last_reported":1747830008,"current_range_meters":0,"station_id":"ce4bhbp2rcd13ifvqesg","pricing_plan_id":"cebpf4jnsgd1na2vs0mg"},{"bike_id":"b409caf7-9481-4143-a90d-ff66c61be3e8","system_id":"levelo_inurba_marseille","lat":43.26211,"lon":5.37437,"is_reserved":false,"is_disabled":true,"rental_uris":{"android":"levelo://app?vid=b409caf7-9481-4143-a90d-ff66c61be3e8","ios":"levelo://app?vid=b409caf7-9481-4143-a90d-ff66c61be3e8"},"vehicle_type_id":"4","last_reported":1747830008,"current_range_meters":0,"station_id":"ce4bhgp2rcd13ifvqfc0","pricing_plan_id":"cebpf4jnsgd1na2vs0mg"},{"bike_id":"95a39b8b-3ced-4188-bd80-28c20ca6febf","system_id":"levelo_inurba_marseille","lat":43.23967,"lon":5.36632,"is_reserved":false,"is_disabled":true,"rental_uris":{"android":"levelo://app?vid=95a39b8b-3ced-4188-bd80-28c20ca6febf","ios":"levelo://app?vid=95a39b8b-3ced-4188-bd80-28c20ca6febf"},"vehicle_type_id":"4","last_reported":1747830008,"current_range_meters":0,"station_id":"ce4bhi12rcd13ifvqfp0","pricing_plan_id":"cebpf4jnsgd1na2vs0mg"},{"bike_id":"4c838c44-da1a-41f0-a099-927b86f9f689","system_id":"levelo_inurba_marseille","lat":43.23958,"lon":5.36647,"is_reserved":false,"is_disabled":true,"rental_uris":{"android":"levelo://app?vid=4c838c44-da1a-41f0-a099-927b86f9f689","ios":"levelo://app?vid=4c838c44-da1a-41f0-a099-927b86f9f689"},"vehicle_type_id":"4","last_reported":1747830008,"current_range_meters":0,"station_id":"ce4bhi12rcd13ifvqfp0","pricing_plan_id":"cebpf4jnsgd1na2vs0mg"},{"bike_id":"5afc3df1-e06d-4225-887f-a5ebdb8ffe64","system_id":"levelo_inurba_marseille","lat":43.25585,"lon":5.38247,"is_reserved":false,"is_disabled":true,"rental_uris":{"android":"levelo://app?vid=5afc3df1-e06d-4225-887f-a5ebdb8ffe64","ios":"levelo://app?vid=5afc3df1-e06d-4225-887f-a5ebdb8ffe64"},"vehicle_type_id":"4","last_reported":1747830008,"current_range_meters":0,"station_id":"ce4bhih2rcd13ifvqfs0","pricing_plan_id":"cebpf4jnsgd1na2vs0mg"},{"bike_id":"70df286a-43ae-4066-bba9-94b7a0f516bd","system_id":"levelo_inurba_marseille","lat":43.25113,"lon":5.40321,"is_reserved":false,"is_disabled":true,"rental_uris":{"android":"levelo://app?vid=70df286a-43ae-4066-bba9-94b7a0f516bd","ios":"levelo://app?vid=70df286a-43ae-4066-bba9-94b7a0f516bd"},"vehicle_type_id":"4","last_reported":1747830008,"current_range_meters":0,"station_id":"ce4bhlh2rcd13ifvqgig","pricing_plan_id":"cebpf4jnsgd1na2vs0mg"},{"bike_id":"2bdc3e2e-592d-4696-877b-38d9a83a4ef0","system_id":"levelo_inurba_marseille","lat":43.27503,"lon":5.4247,"is_reserved":false,"is_disabled":true,"rental_uris":{"android":"levelo://app?vid=2bdc3e2e-592d-4696-877b-38d9a83a4ef0","ios":"levelo://app?vid=2bdc3e2e-592d-4696-877b-38d9a83a4ef0"},"vehicle_type_id":"4","last_reported":1747830008,"current_range_meters":0,"station_id":"ce4bhn92rcd13ifvqgrg","pricing_plan_id":"cebpf4jnsgd1na2vs0mg"},{"bike_id":"d88b4d4c-2035-4d12-8442-150a73fc22c7","system_id":"levelo_inurba_marseille","lat":43.32659,"lon":5.4099,"is_reserved":false,"is_disabled":false,"rental_uris":{"android":"levelo://app?vid=d88b4d4c-2035-4d12-8442-150a73fc22c7","ios":"levelo://app?vid=d88b4d4c-2035-4d12-8442-150a73fc22c7"},"vehicle_type_id":"4","last_reported":1747830008,"current_range_meters":0,"station_id":"ce4bhpp2rcd13ifvqhgg","pricing_plan_id":"cebpf4jnsgd1na2vs0mg"},{"bike_id":"8dc2ce6e-fd52-4eac-81ab-537a1edf2cce","system_id":"levelo_inurba_marseille","lat":43.24168,"lon":5.36395,"is_reserved":false,"is_disabled":true,"rental_uris":{"android":"levelo://app?vid=8dc2ce6e-fd52-4eac-81ab-537a1edf2cce","ios":"levelo://app?vid=8dc2ce6e-fd52-4eac-81ab-537a1edf2cce"},"vehicle_type_id":"4","last_reported":1747830008,"current_range_meters":0,"station_id":"cpo36qri1sfpv3e86is0","pricing_plan_id":"cebpf4jnsgd1na2vs0mg"},{"bike_id":"8502ed73-13a6-495c-b25a-03bc850a6543","system_id":"levelo_inurba_marseille","lat":43.28992,"lon":5.37831,"is_reserved":false,"is_disabled":true,"rental_uris":{"android":"levelo://app?vid=8502ed73-13a6-495c-b25a-03bc850a6543","ios":"levelo://app?vid=8502ed73-13a6-495c-b25a-03bc850a6543"},"vehicle_type_id":"4","last_reported":1747830008,"current_range_meters":400,"station_id":"ce4bh9p2rcd13ifvqed0","pricing_plan_id":"cebpf4jnsgd1na2vs0mg"},{"bike_id":"43ecfee3-d9ac-4db2-a376-3eb8da4e7fd6","system_id":"levelo_inurba_marseille","lat":43.27506,"lon":5.42468,"is_reserved":false,"is_disabled":true,"rental_uris":{"android":"levelo://app?vid=43ecfee3-d9ac-4db2-a376-3eb8da4e7fd6","ios":"levelo://app?vid=43ecfee3-d9ac-4db2-a376-3eb8da4e7fd6"},"vehicle_type_id":"4","last_reported":1747830008,"current_range_meters":400,"station_id":"ce4bhn92rcd13ifvqgrg","pricing_plan_id":"cebpf4jnsgd1na2vs0mg"},{"bike_id":"774a53ed-27ae-48c0-adb7-a87d503ae808","system_id":"levelo_inurba_marseille","lat":43.27812,"lon":5.40715,"is_reserved":false,"is_disabled":true,"rental_uris":{"android":"levelo://app?vid=774a53ed-27ae-48c0-adb7-a87d503ae808","ios":"levelo://app?vid=774a53ed-27ae-48c0-adb7-a87d503ae808"},"vehicle_type_id":"4","last_reported":1747830008,"current_range_meters":400,"station_id":"ce4bhnh2rcd13ifvqgtg","pricing_plan_id":"cebpf4jnsgd1na2vs0mg"},{"bike_id":"20bee342-4a3f-4f34-940d-bb6cf00d52ae","system_id":"levelo_inurba_marseille","lat":43.26689,"lon":5.38564,"is_reserved":false,"is_disabled":true,"rental_uris":{"android":"levelo://app?vid=20bee342-4a3f-4f34-940d-bb6cf00d52ae","ios":"levelo://app?vid=20bee342-4a3f-4f34-940d-bb6cf00d52ae"},"vehicle_type_id":"4","last_reported":1747830008,"current_range_meters":800,"station_id":"","pricing_plan_id":"cebpf4jnsgd1na2vs0mg"},{"bike_id":"c8eda114-84fb-495d-a314-ffaa6e6dfcf1","system_id":"levelo_inurba_marseille","lat":43.30146,"lon":5.3808,"is_reserved":false,"is_disabled":true,"rental_uris":{"android":"levelo://app?vid=c8eda114-84fb-495d-a314-ffaa6e6dfcf1","ios":"levelo://app?vid=c8eda114-84fb-495d-a314-ffaa6e6dfcf1"},"vehicle_type_id":"4","last_reported":1747830008,"current_range_meters":800,"station_id":"ce4bgjp2rcd13ifvqbh0","pricing_plan_id":"cebpf4jnsgd1na2vs0mg"},{"bike_id":"5a81a2c0-371a-4796-8950-9b73f979899c","system_id":"levelo_inurba_marseille","lat":43.29521,"lon":5.39403,"is_reserved":false,"is_disabled":true,"rental_uris":{"android":"levelo://app?vid=5a81a2c0-371a-4796-8950-9b73f979899c","ios":"levelo://app?vid=5a81a2c0-371a-4796-8950-9b73f979899c"},"vehicle_type_id":"4","last_reported":1747830008,"current_range_meters":800,"station_id":"ce4bh292rcd13ifvqdf0","pricing_plan_id":"cebpf4jnsgd1na2vs0mg"},{"bike_id":"913a032a-86c6-428f-9515-77674bd1a36c","system_id":"levelo_inurba_marseille","lat":43.28067,"lon":5.37835,"is_reserved":false,"is_disabled":true,"rental_uris":{"android":"levelo://app?vid=913a032a-86c6-428f-9515-77674bd1a36c","ios":"levelo://app?vid=913a032a-86c6-428f-9515-77674bd1a36c"},"vehicle_type_id":"4","last_reported":1747830008,"current_range_meters":800,"station_id":"ce4bha12rcd13ifvqee0","pricing_plan_id":"cebpf4jnsgd1na2vs0mg"},{"bike_id":"d7d1c87c-79b8-427a-8889-48f5f205da41","system_id":"levelo_inurba_marseille","lat":43.28413,"lon":5.34991,"is_reserved":false,"is_disabled":true,"rental_uris":{"android":"levelo://app?vid=d7d1c87c-79b8-427a-8889-48f5f205da41","ios":"levelo://app?vid=d7d1c87c-79b8-427a-8889-48f5f205da41"},"vehicle_type_id":"4","last_reported":1747830008,"current_range_meters":800,"station_id":"ce4bhbh2rcd13ifvqepg","pricing_plan_id":"cebpf4jnsgd1na2vs0mg"},{"bike_id":"d4f56fee-b685-4196-8519-1760a0e2a4d4","system_id":"levelo_inurba_marseille","lat":43.25121,"lon":5.40362,"is_reserved":false,"is_disabled":true,"rental_uris":{"android":"levelo://app?vid=d4f56fee-b685-4196-8519-1760a0e2a4d4","ios":"levelo://app?vid=d4f56fee-b685-4196-8519-1760a0e2a4d4"},"vehicle_type_id":"4","last_reported":1747830008,"current_range_meters":800,"station_id":"ce4bhlh2rcd13ifvqgig","pricing_plan_id":"cebpf4jnsgd1na2vs0mg"},{"bike_id":"6bcc34d7-09e4-4ff7-a4a7-d9f371a4d296","system_id":"levelo_inurba_marseille","lat":43.24076,"lon":5.37759,"is_reserved":false,"is_disabled":true,"rental_uris":{"android":"levelo://app?vid=6bcc34d7-09e4-4ff7-a4a7-d9f371a4d296","ios":"levelo://app?vid=6bcc34d7-09e4-4ff7-a4a7-d9f371a4d296"},"vehicle_type_id":"4","last_reported":1747830008,"current_range_meters":800,"station_id":"ce4bhnp2rcd13ifvqgvg","pricing_plan_id":"cebpf4jnsgd1na2vs0mg"},{"bike_id":"1c741986-0876-4520-ac61-e47cc5d5b1d3","system_id":"levelo_inurba_marseille","lat":43.321058,"lon":5.367755,"is_reserved":false,"is_disabled":true,"rental_uris":{"android":"levelo://app?vid=1c741986-0876-4520-ac61-e47cc5d5b1d3","ios":"levelo://app?vid=1c741986-0876-4520-ac61-e47cc5d5b1d3"},"vehicle_type_id":"4","last_reported":1747830008,"current_range_meters":800,"station_id":"ce4bhrh2rcd13ifvqhug","pricing_plan_id":"cebpf4jnsgd1na2vs0mg"},{"bike_id":"06f61d0a-80e1-4ed2-9f20-f2a6e95a6399","system_id":"levelo_inurba_marseille","lat":43.33556,"lon":5.40981,"is_reserved":false,"is_disabled":true,"rental_uris":{"android":"levelo://app?vid=06f61d0a-80e1-4ed2-9f20-f2a6e95a6399","ios":"levelo://app?vid=06f61d0a-80e1-4ed2-9f20-f2a6e95a6399"},"vehicle_type_id":"4","last_reported":1747830008,"current_range_meters":1200,"station_id":"","pricing_plan_id":"cebpf4jnsgd1na2vs0mg"},{"bike_id":"cfdbf9ea-fe43-4734-b465-744a84c08df5","system_id":"levelo_inurba_marseille","lat":43.27935,"lon":5.3869,"is_reserved":false,"is_disabled":true,"rental_uris":{"android":"levelo://app?vid=cfdbf9ea-fe43-4734-b465-744a84c08df5","ios":"levelo://app?vid=cfdbf9ea-fe43-4734-b465-744a84c08df5"},"vehicle_type_id":"4","last_reported":1747830008,"current_range_meters":1200,"station_id":"","pricing_plan_id":"cebpf4jnsgd1na2vs0mg"},{"bike_id":"dc0ac1a9-b116-40b5-ae50-c0f2068cfb4c","system_id":"levelo_inurba_marseille","lat":43.29565,"lon":5.37521,"is_reserved":false,"is_disabled":true,"rental_uris":{"android":"levelo://app?vid=dc0ac1a9-b116-40b5-ae50-c0f2068cfb4c","ios":"levelo://app?vid=dc0ac1a9-b116-40b5-ae50-c0f2068cfb4c"},"vehicle_type_id":"4","last_reported":1747830008,"current_range_meters":1200,"station_id":"ce4bgh92rcd13ifvqb50","pricing_plan_id":"cebpf4jnsgd1na2vs0mg"},{"bike_id":"40a4968e-2f2c-465e-af64-d9e8edf492b8","system_id":"levelo_inurba_marseille","lat":43.29786,"lon":5.3811,"is_reserved":false,"is_disabled":true,"rental_uris":{"android":"levelo://app?vid=40a4968e-2f2c-465e-af64-d9e8edf492b8","ios":"levelo://app?vid=40a4968e-2f2c-465e-af64-d9e8edf492b8"},"vehicle_type_id":"4","last_reported":1747830008,"current_range_meters":1200,"station_id":"ce4bgip2rcd13ifvqbb0","pricing_plan_id":"cebpf4jnsgd1na2vs0mg"},{"bike_id":"92f14edd-135b-4474-8578-03003f2191c0","system_id":"levelo_inurba_marseille","lat":43.31179,"lon":5.38706,"is_reserved":false,"is_disabled":true,"rental_uris":{"android":"levelo://app?vid=92f14edd-135b-4474-8578-03003f2191c0","ios":"levelo://app?vid=92f14edd-135b-4474-8578-03003f2191c0"},"vehicle_type_id":"4","last_reported":1747830008,"current_range_meters":1200,"station_id":"ce4bgv12rcd13ifvqcp0","pricing_plan_id":"cebpf4jnsgd1na2vs0mg"},{"bike_id":"6c3c114f-76ac-470a-af88-3e1b4e0306b1","system_id":"levelo_inurba_marseille","lat":43.29063,"lon":5.37142,"is_reserved":false,"is_disabled":true,"rental_uris":{"android":"levelo://app?vid=6c3c114f-76ac-470a-af88-3e1b4e0306b1","ios":"levelo://app?vid=6c3c114f-76ac-470a-af88-3e1b4e0306b1"},"vehicle_type_id":"4","last_reported":1747830008,"current_range_meters":1200,"station_id":"ce4bh5p2rcd13ifvqe4g","pricing_plan_id":"cebpf4jnsgd1na2vs0mg"},{"bike_id":"1ead9af3-6d91-4b59-bf16-5175fea90742","system_id":"levelo_inurba_marseille","lat":43.27917,"lon":5.395777,"is_reserved":false,"is_disabled":true,"rental_uris":{"android":"levelo://app?vid=1ead9af3-6d91-4b59-bf16-5175fea90742","ios":"levelo://app?vid=1ead9af3-6d91-4b59-bf16-5175fea90742"},"vehicle_type_id":"4","last_reported":1747830008,"current_range_meters":1200,"station_id":"ce4bhf92rcd13ifvqf40","pricing_plan_id":"cebpf4jnsgd1na2vs0mg"},{"bike_id":"695ebcf6-9009-42b7-8b1e-40d49a04a4ea","system_id":"levelo_inurba_marseille","lat":43.26477,"lon":5.39548,"is_reserved":false,"is_disabled":true,"rental_uris":{"android":"levelo://app?vid=695ebcf6-9009-42b7-8b1e-40d49a04a4ea","ios":"levelo://app?vid=695ebcf6-9009-42b7-8b1e-40d49a04a4ea"},"vehicle_type_id":"4","last_reported":1747830008,"current_range_meters":1200,"station_id":"ce4bhi12rcd13ifvqfq0","pricing_plan_id":"cebpf4jnsgd1na2vs0mg"},{"bike_id":"55b0dc70-66af-41a3-b6a7-221498f05638","system_id":"levelo_inurba_marseille","lat":43.32731,"lon":5.40971,"is_reserved":false,"is_disabled":true,"rental_uris":{"android":"levelo://app?vid=55b0dc70-66af-41a3-b6a7-221498f05638","ios":"levelo://app?vid=55b0dc70-66af-41a3-b6a7-221498f05638"},"vehicle_type_id":"4","last_reported":1747830008,"current_range_meters":1600,"station_id":"","pricing_plan_id":"cebpf4jnsgd1na2vs0mg"},{"bike_id":"9cde4ad4-376d-472d-b113-ce1c7ef461a6","system_id":"levelo_inurba_marseille","lat":43.29619,"lon":5.37738,"is_reserved":false,"is_disabled":true,"rental_uris":{"android":"levelo://app?vid=9cde4ad4-376d-472d-b113-ce1c7ef461a6","ios":"levelo://app?vid=9cde4ad4-376d-472d-b113-ce1c7ef461a6"},"vehicle_type_id":"4","last_reported":1747830008,"current_range_meters":1600,"station_id":"ce4bgi92rcd13ifvqb90","pricing_plan_id":"cebpf4jnsgd1na2vs0mg"},{"bike_id":"a863f1eb-0058-4315-9365-275360febbd4","system_id":"levelo_inurba_marseille","lat":43.31363,"lon":5.36715,"is_reserved":false,"is_disabled":true,"rental_uris":{"android":"levelo://app?vid=a863f1eb-0058-4315-9365-275360febbd4","ios":"levelo://app?vid=a863f1eb-0058-4315-9365-275360febbd4"},"vehicle_type_id":"4","last_reported":1747830008,"current_range_meters":1600,"station_id":"ce4bgr92rcd13ifvqc6g","pricing_plan_id":"cebpf4jnsgd1na2vs0mg"},{"bike_id":"4515c9ef-f0fe-4384-9131-11b900063ef2","system_id":"levelo_inurba_marseille","lat":43.30957,"lon":5.39034,"is_reserved":false,"is_disabled":true,"rental_uris":{"android":"levelo://app?vid=4515c9ef-f0fe-4384-9131-11b900063ef2","ios":"levelo://app?vid=4515c9ef-f0fe-4384-9131-11b900063ef2"},"vehicle_type_id":"4","last_reported":1747830008,"current_range_meters":1600,"station_id":"ce4bgup2rcd13ifvqco0","pricing_plan_id":"cebpf4jnsgd1na2vs0mg"},{"bike_id":"33d3bbc7-12de-4e0f-8a1a-6ea61f51c09d","system_id":"levelo_inurba_marseille","lat":43.280327,"lon":5.369428,"is_reserved":false,"is_disabled":true,"rental_uris":{"android":"levelo://app?vid=33d3bbc7-12de-4e0f-8a1a-6ea61f51c09d","ios":"levelo://app?vid=33d3bbc7-12de-4e0f-8a1a-6ea61f51c09d"},"vehicle_type_id":"4","last_reported":1747830008,"current_range_meters":1600,"station_id":"ce4bha12rcd13ifvqef0","pricing_plan_id":"cebpf4jnsgd1na2vs0mg"},{"bike_id":"498ddebe-4f72-46d3-9cf3-766815f8f958","system_id":"levelo_inurba_marseille","lat":43.28618,"lon":5.35102,"is_reserved":false,"is_disabled":true,"rental_uris":{"android":"levelo://app?vid=498ddebe-4f72-46d3-9cf3-766815f8f958","ios":"levelo://app?vid=498ddebe-4f72-46d3-9cf3-766815f8f958"},"vehicle_type_id":"4","last_reported":1747830008,"current_range_meters":1600,"station_id":"ce4bhch2rcd13ifvqeug","pricing_plan_id":"cebpf4jnsgd1na2vs0mg"},{"bike_id":"5cd5363e-a0eb-4f2d-995b-65947b212101","system_id":"levelo_inurba_marseille","lat":43.26501,"lon":5.39534,"is_reserved":false,"is_disabled":true,"rental_uris":{"android":"levelo://app?vid=5cd5363e-a0eb-4f2d-995b-65947b212101","ios":"levelo://app?vid=5cd5363e-a0eb-4f2d-995b-65947b212101"},"vehicle_type_id":"4","last_reported":1747830008,"current_range_meters":1600,"station_id":"ce4bhi12rcd13ifvqfq0","pricing_plan_id":"cebpf4jnsgd1na2vs0mg"},{"bike_id":"9d26a8c1-5342-42dc-a47b-79fb936fb5e1","system_id":"levelo_inurba_marseille","lat":43.25111,"lon":5.4032,"is_reserved":false,"is_disabled":true,"rental_uris":{"android":"levelo://app?vid=9d26a8c1-5342-42dc-a47b-79fb936fb5e1","ios":"levelo://app?vid=9d26a8c1-5342-42dc-a47b-79fb936fb5e1"},"vehicle_type_id":"4","last_reported":1747830008,"current_range_meters":1600,"station_id":"ce4bhlh2rcd13ifvqgig","pricing_plan_id":"cebpf4jnsgd1na2vs0mg"},{"bike_id":"ba59102a-6c47-4600-bcb9-76e5920c2815","system_id":"levelo_inurba_marseille","lat":43.31347,"lon":5.37195,"is_reserved":false,"is_disabled":true,"rental_uris":{"android":"levelo://app?vid=ba59102a-6c47-4600-bcb9-76e5920c2815","ios":"levelo://app?vid=ba59102a-6c47-4600-bcb9-76e5920c2815"},"vehicle_type_id":"4","last_reported":1747830008,"current_range_meters":2000,"station_id":"","pricing_plan_id":"cebpf4jnsgd1na2vs0mg"},{"bike_id":"3855bfdc-99dc-4ec5-b6b1-aa67494cb3e4","system_id":"levelo_inurba_marseille","lat":43.31196,"lon":5.36849,"is_reserved":false,"is_disabled":true,"rental_uris":{"android":"levelo://app?vid=3855bfdc-99dc-4ec5-b6b1-aa67494cb3e4","ios":"levelo://app?vid=3855bfdc-99dc-4ec5-b6b1-aa67494cb3e4"},"vehicle_type_id":"4","last_reported":1747830008,"current_range_meters":2000,"station_id":"ce4bgl92rcd13ifvqbq0","pricing_plan_id":"cebpf4jnsgd1na2vs0mg"},{"bike_id":"87d0182a-c2ea-41ec-bf04-b6f42dfaf31f","system_id":"levelo_inurba_marseille","lat":43.30944,"lon":5.39057,"is_reserved":false,"is_disabled":true,"rental_uris":{"android":"levelo://app?vid=87d0182a-c2ea-41ec-bf04-b6f42dfaf31f","ios":"levelo://app?vid=87d0182a-c2ea-41ec-bf04-b6f42dfaf31f"},"vehicle_type_id":"4","last_reported":1747830008,"current_range_meters":2000,"station_id":"ce4bgup2rcd13ifvqco0","pricing_plan_id":"cebpf4jnsgd1na2vs0mg"},{"bike_id":"0fd11571-f389-483d-ac06-7f7f1b65bebe","system_id":"levelo_inurba_marseille","lat":43.3095,"lon":5.39031,"is_reserved":false,"is_disabled":true,"rental_uris":{"android":"levelo://app?vid=0fd11571-f389-483d-ac06-7f7f1b65bebe","ios":"levelo://app?vid=0fd11571-f389-483d-ac06-7f7f1b65bebe"},"vehicle_type_id":"4","last_reported":1747830008,"current_range_meters":2000,"station_id":"ce4bgup2rcd13ifvqco0","pricing_plan_id":"cebpf4jnsgd1na2vs0mg"},{"bike_id":"59b98e6d-957f-47bb-81db-3d5a83631592","system_id":"levelo_inurba_marseille","lat":43.29191,"lon":5.35803,"is_reserved":false,"is_disabled":true,"rental_uris":{"android":"levelo://app?vid=59b98e6d-957f-47bb-81db-3d5a83631592","ios":"levelo://app?vid=59b98e6d-957f-47bb-81db-3d5a83631592"},"vehicle_type_id":"4","last_reported":1747830008,"current_range_meters":2000,"station_id":"ce4bhb12rcd13ifvqel0","pricing_plan_id":"cebpf4jnsgd1na2vs0mg"},{"bike_id":"b38cf2cf-5836-4b73-81b9-05bd50d0f774","system_id":"levelo_inurba_marseille","lat":43.26559,"lon":5.37291,"is_reserved":false,"is_disabled":true,"rental_uris":{"android":"levelo://app?vid=b38cf2cf-5836-4b73-81b9-05bd50d0f774","ios":"levelo://app?vid=b38cf2cf-5836-4b73-81b9-05bd50d0f774"},"vehicle_type_id":"4","last_reported":1747830008,"current_range_meters":2000,"station_id":"ce4bhg12rcd13ifvqf70","pricing_plan_id":"cebpf4jnsgd1na2vs0mg"},{"bike_id":"28f76a41-c664-4ac0-8543-6fcb5b2eafc8","system_id":"levelo_inurba_marseille","lat":43.31992,"lon":5.38144,"is_reserved":false,"is_disabled":true,"rental_uris":{"android":"levelo://app?vid=28f76a41-c664-4ac0-8543-6fcb5b2eafc8","ios":"levelo://app?vid=28f76a41-c664-4ac0-8543-6fcb5b2eafc8"},"vehicle_type_id":"4","last_reported":1747830008,"current_range_meters":2000,"station_id":"ce4bhr12rcd13ifvqhpg","pricing_plan_id":"cebpf4jnsgd1na2vs0mg"},{"bike_id":"c0e29b78-5ef8-450c-9879-72f4a478f9e5","system_id":"levelo_inurba_marseille","lat":43.28539,"lon":5.3502,"is_reserved":false,"is_disabled":false,"rental_uris":{"android":"levelo://app?vid=c0e29b78-5ef8-450c-9879-72f4a478f9e5","ios":"levelo://app?vid=c0e29b78-5ef8-450c-9879-72f4a478f9e5"},"vehicle_type_id":"4","last_reported":1747830008,"current_range_meters":2800,"station_id":"","pricing_plan_id":"cebpf4jnsgd1na2vs0mg"},{"bike_id":"906fdcc8-4ce3-48c3-9c85-1c1875e60fe2","system_id":"levelo_inurba_marseille","lat":43.29197,"lon":5.35795,"is_reserved":false,"is_disabled":false,"rental_uris":{"android":"levelo://app?vid=906fdcc8-4ce3-48c3-9c85-1c1875e60fe2","ios":"levelo://app?vid=906fdcc8-4ce3-48c3-9c85-1c1875e60fe2"},"vehicle_type_id":"4","last_reported":1747830008,"current_range_meters":2800,"station_id":"ce4bhb12rcd13ifvqel0","pricing_plan_id":"cebpf4jnsgd1na2vs0mg"},{"bike_id":"aa2227bb-8933-4e06-b64b-46bdea23efd3","system_id":"levelo_inurba_marseille","lat":43.28427,"lon":5.34985,"is_reserved":false,"is_disabled":false,"rental_uris":{"android":"levelo://app?vid=aa2227bb-8933-4e06-b64b-46bdea23efd3","ios":"levelo://app?vid=aa2227bb-8933-4e06-b64b-46bdea23efd3"},"vehicle_type_id":"4","last_reported":1747830008,"current_range_meters":2800,"station_id":"ce4bhbh2rcd13ifvqepg","pricing_plan_id":"cebpf4jnsgd1na2vs0mg"},{"bike_id":"f7540ff6-00d4-4d2c-9035-f3afe42124a0","system_id":"levelo_inurba_marseille","lat":43.25086,"lon":5.39528,"is_reserved":false,"is_disabled":false,"rental_uris":{"android":"levelo://app?vid=f7540ff6-00d4-4d2c-9035-f3afe42124a0","ios":"levelo://app?vid=f7540ff6-00d4-4d2c-9035-f3afe42124a0"},"vehicle_type_id":"4","last_reported":1747830008,"current_range_meters":2800,"station_id":"ce4bhm12rcd13ifvqgkg","pricing_plan_id":"cebpf4jnsgd1na2vs0mg"},{"bike_id":"8f0f531d-6a65-4647-8a6f-baa3d982f42f","system_id":"levelo_inurba_marseille","lat":43.28133,"lon":5.42563,"is_reserved":false,"is_disabled":false,"rental_uris":{"android":"levelo://app?vid=8f0f531d-6a65-4647-8a6f-baa3d982f42f","ios":"levelo://app?vid=8f0f531d-6a65-4647-8a6f-baa3d982f42f"},"vehicle_type_id":"4","last_reported":1747830008,"current_range_meters":3200,"station_id":"","pricing_plan_id":"cebpf4jnsgd1na2vs0mg"},{"bike_id":"a5bcf3ab-5daa-4dec-898b-27b2e944e103","system_id":"levelo_inurba_marseille","lat":43.27291,"lon":5.41029,"is_reserved":false,"is_disabled":false,"rental_uris":{"android":"levelo://app?vid=a5bcf3ab-5daa-4dec-898b-27b2e944e103","ios":"levelo://app?vid=a5bcf3ab-5daa-4dec-898b-27b2e944e103"},"vehicle_type_id":"4","last_reported":1747830008,"current_range_meters":3200,"station_id":"","pricing_plan_id":"cebpf4jnsgd1na2vs0mg"},{"bike_id":"63e08bd3-2486-4ea1-b4ad-38808a0c2f21","system_id":"levelo_inurba_marseille","lat":43.2917,"lon":5.3931,"is_reserved":false,"is_disabled":false,"rental_uris":{"android":"levelo://app?vid=63e08bd3-2486-4ea1-b4ad-38808a0c2f21","ios":"levelo://app?vid=63e08bd3-2486-4ea1-b4ad-38808a0c2f21"},"vehicle_type_id":"4","last_reported":1747830008,"current_range_meters":3200,"station_id":"ce4bh192rcd13ifvqdd0","pricing_plan_id":"cebpf4jnsgd1na2vs0mg"},{"bike_id":"b31a529d-2285-43f7-91a3-871694cce4eb","system_id":"levelo_inurba_marseille","lat":43.27377,"lon":5.36258,"is_reserved":false,"is_disabled":false,"rental_uris":{"android":"levelo://app?vid=b31a529d-2285-43f7-91a3-871694cce4eb","ios":"levelo://app?vid=b31a529d-2285-43f7-91a3-871694cce4eb"},"vehicle_type_id":"4","last_reported":1747830008,"current_range_meters":3200,"station_id":"ce4bhbh2rcd13ifvqeo0","pricing_plan_id":"cebpf4jnsgd1na2vs0mg"},{"bike_id":"38f37b36-9999-4071-9d07-d6d51b3f1e64","system_id":"levelo_inurba_marseille","lat":43.270464,"lon":5.403546,"is_reserved":false,"is_disabled":true,"rental_uris":{"android":"levelo://app?vid=38f37b36-9999-4071-9d07-d6d51b3f1e64","ios":"levelo://app?vid=38f37b36-9999-4071-9d07-d6d51b3f1e64"},"vehicle_type_id":"4","last_reported":1747830008,"current_range_meters":3200,"station_id":"ce4bhh12rcd13ifvqfg0","pricing_plan_id":"cebpf4jnsgd1na2vs0mg"},{"bike_id":"f36f05f9-f8be-4f50-9197-112833d63c52","system_id":"levelo_inurba_marseille","lat":43.26502,"lon":5.39534,"is_reserved":false,"is_disabled":false,"rental_uris":{"android":"levelo://app?vid=f36f05f9-f8be-4f50-9197-112833d63c52","ios":"levelo://app?vid=f36f05f9-f8be-4f50-9197-112833d63c52"},"vehicle_type_id":"4","last_reported":1747830008,"current_range_meters":3200,"station_id":"ce4bhi12rcd13ifvqfq0","pricing_plan_id":"cebpf4jnsgd1na2vs0mg"},{"bike_id":"25dcd913-d783-4a9c-9ad0-d7f79a701848","system_id":"levelo_inurba_marseille","lat":43.2782,"lon":5.40714,"is_reserved":false,"is_disabled":false,"rental_uris":{"android":"levelo://app?vid=25dcd913-d783-4a9c-9ad0-d7f79a701848","ios":"levelo://app?vid=25dcd913-d783-4a9c-9ad0-d7f79a701848"},"vehicle_type_id":"4","last_reported":1747830008,"current_range_meters":3200,"station_id":"ce4bhnh2rcd13ifvqgtg","pricing_plan_id":"cebpf4jnsgd1na2vs0mg"},{"bike_id":"08fa2d38-2174-4516-984a-f6b18417d67a","system_id":"levelo_inurba_marseille","lat":43.26562,"lon":5.37275,"is_reserved":false,"is_disabled":false,"rental_uris":{"android":"levelo://app?vid=08fa2d38-2174-4516-984a-f6b18417d67a","ios":"levelo://app?vid=08fa2d38-2174-4516-984a-f6b18417d67a"},"vehicle_type_id":"4","last_reported":1747830008,"current_range_meters":3600,"station_id":"ce4bhg12rcd13ifvqf70","pricing_plan_id":"cebpf4jnsgd1na2vs0mg"},{"bike_id":"82952b1b-7ea4-498b-b0e9-d501e56fb491","system_id":"levelo_inurba_marseille","lat":43.28153,"lon":5.42643,"is_reserved":false,"is_disabled":false,"rental_uris":{"android":"levelo://app?vid=82952b1b-7ea4-498b-b0e9-d501e56fb491","ios":"levelo://app?vid=82952b1b-7ea4-498b-b0e9-d501e56fb491"},"vehicle_type_id":"4","last_reported":1747830008,"current_range_meters":3600,"station_id":"ce4bhnh2rcd13ifvqgug","pricing_plan_id":"cebpf4jnsgd1na2vs0mg"},{"bike_id":"85eaca89-9437-48d0-9bca-a254337b88db","system_id":"levelo_inurba_marseille","lat":43.274553,"lon":5.409724,"is_reserved":false,"is_disabled":false,"rental_uris":{"android":"levelo://app?vid=85eaca89-9437-48d0-9bca-a254337b88db","ios":"levelo://app?vid=85eaca89-9437-48d0-9bca-a254337b88db"},"vehicle_type_id":"4","last_reported":1747830008,"current_range_meters":4000,"station_id":"","pricing_plan_id":"cebpf4jnsgd1na2vs0mg"},{"bike_id":"4df9db71-d4fd-4b58-8b52-948922a59cbf","system_id":"levelo_inurba_marseille","lat":43.29195,"lon":5.39314,"is_reserved":false,"is_disabled":false,"rental_uris":{"android":"levelo://app?vid=4df9db71-d4fd-4b58-8b52-948922a59cbf","ios":"levelo://app?vid=4df9db71-d4fd-4b58-8b52-948922a59cbf"},"vehicle_type_id":"4","last_reported":1747830008,"current_range_meters":4000,"station_id":"ce4bh192rcd13ifvqdd0","pricing_plan_id":"cebpf4jnsgd1na2vs0mg"},{"bike_id":"ac976a1a-0cb1-4515-91a6-77cc0d2cfc4b","system_id":"levelo_inurba_marseille","lat":43.25939,"lon":5.40898,"is_reserved":false,"is_disabled":false,"rental_uris":{"android":"levelo://app?vid=ac976a1a-0cb1-4515-91a6-77cc0d2cfc4b","ios":"levelo://app?vid=ac976a1a-0cb1-4515-91a6-77cc0d2cfc4b"},"vehicle_type_id":"4","last_reported":1747830008,"current_range_meters":4000,"station_id":"ce4bhm92rcd13ifvqglg","pricing_plan_id":"cebpf4jnsgd1na2vs0mg"},{"bike_id":"845def88-5892-4dfa-8092-b21c09802b5d","system_id":"levelo_inurba_marseille","lat":43.23184,"lon":5.39995,"is_reserved":false,"is_disabled":false,"rental_uris":{"android":"levelo://app?vid=845def88-5892-4dfa-8092-b21c09802b5d","ios":"levelo://app?vid=845def88-5892-4dfa-8092-b21c09802b5d"},"vehicle_type_id":"4","last_reported":1747830008,"current_range_meters":4000,"station_id":"ce4bhn12rcd13ifvqgqg","pricing_plan_id":"cebpf4jnsgd1na2vs0mg"},{"bike_id":"a3389b6e-3953-4647-8f89-21771969459a","system_id":"levelo_inurba_marseille","lat":43.34142,"lon":5.409,"is_reserved":false,"is_disabled":false,"rental_uris":{"android":"levelo://app?vid=a3389b6e-3953-4647-8f89-21771969459a","ios":"levelo://app?vid=a3389b6e-3953-4647-8f89-21771969459a"},"vehicle_type_id":"4","last_reported":1747830008,"current_range_meters":4400,"station_id":"","pricing_plan_id":"cebpf4jnsgd1na2vs0mg"},{"bike_id":"35f4f27b-865c-4da1-9bad-e26db9f7ba5f","system_id":"levelo_inurba_marseille","lat":43.25577,"lon":5.38236,"is_reserved":false,"is_disabled":false,"rental_uris":{"android":"levelo://app?vid=35f4f27b-865c-4da1-9bad-e26db9f7ba5f","ios":"levelo://app?vid=35f4f27b-865c-4da1-9bad-e26db9f7ba5f"},"vehicle_type_id":"4","last_reported":1747830008,"current_range_meters":4400,"station_id":"ce4bhih2rcd13ifvqfs0","pricing_plan_id":"cebpf4jnsgd1na2vs0mg"},{"bike_id":"24f18f6d-f044-4a4b-b19a-158f6f2a2f0b","system_id":"levelo_inurba_marseille","lat":43.27946,"lon":5.4104,"is_reserved":false,"is_disabled":false,"rental_uris":{"android":"levelo://app?vid=24f18f6d-f044-4a4b-b19a-158f6f2a2f0b","ios":"levelo://app?vid=24f18f6d-f044-4a4b-b19a-158f6f2a2f0b"},"vehicle_type_id":"4","last_reported":1747830008,"current_range_meters":4400,"station_id":"ce4bhnp2rcd13ifvqh0g","pricing_plan_id":"cebpf4jnsgd1na2vs0mg"},{"bike_id":"4b41694b-a0b6-4d40-9a01-e171a0a0a5c2","system_id":"levelo_inurba_marseille","lat":43.29619,"lon":5.37159,"is_reserved":false,"is_disabled":false,"rental_uris":{"android":"levelo://app?vid=4b41694b-a0b6-4d40-9a01-e171a0a0a5c2","ios":"levelo://app?vid=4b41694b-a0b6-4d40-9a01-e171a0a0a5c2"},"vehicle_type_id":"4","last_reported":1747830008,"current_range_meters":4800,"station_id":"ce4bgnh2rcd13ifvqc0g","pricing_plan_id":"cebpf4jnsgd1na2vs0mg"},{"bike_id":"9aa35c9d-0f42-4112-8b10-375e6d75d3c5","system_id":"levelo_inurba_marseille","lat":43.29256,"lon":5.40919,"is_reserved":false,"is_disabled":false,"rental_uris":{"android":"levelo://app?vid=9aa35c9d-0f42-4112-8b10-375e6d75d3c5","ios":"levelo://app?vid=9aa35c9d-0f42-4112-8b10-375e6d75d3c5"},"vehicle_type_id":"4","last_reported":1747830008,"current_range_meters":4800,"station_id":"ce4bh192rcd13ifvqdc0","pricing_plan_id":"cebpf4jnsgd1na2vs0mg"},{"bike_id":"ecb6da83-4520-47f7-9c38-4990af6000e3","system_id":"levelo_inurba_marseille","lat":43.28614,"lon":5.351,"is_reserved":false,"is_disabled":false,"rental_uris":{"android":"levelo://app?vid=ecb6da83-4520-47f7-9c38-4990af6000e3","ios":"levelo://app?vid=ecb6da83-4520-47f7-9c38-4990af6000e3"},"vehicle_type_id":"4","last_reported":1747830008,"current_range_meters":4800,"station_id":"ce4bhch2rcd13ifvqeug","pricing_plan_id":"cebpf4jnsgd1na2vs0mg"},{"bike_id":"0962179a-c021-4104-96ad-a553eb817d59","system_id":"levelo_inurba_marseille","lat":43.24804,"lon":5.37449,"is_reserved":false,"is_disabled":false,"rental_uris":{"android":"levelo://app?vid=0962179a-c021-4104-96ad-a553eb817d59","ios":"levelo://app?vid=0962179a-c021-4104-96ad-a553eb817d59"},"vehicle_type_id":"4","last_reported":1747830008,"current_range_meters":4800,"station_id":"ce4bhgh2rcd13ifvqfb0","pricing_plan_id":"cebpf4jnsgd1na2vs0mg"},{"bike_id":"e40320ee-7d80-44d7-8a02-d009e3cb310a","system_id":"levelo_inurba_marseille","lat":43.23131,"lon":5.43706,"is_reserved":false,"is_disabled":false,"rental_uris":{"android":"levelo://app?vid=e40320ee-7d80-44d7-8a02-d009e3cb310a","ios":"levelo://app?vid=e40320ee-7d80-44d7-8a02-d009e3cb310a"},"vehicle_type_id":"4","last_reported":1747830008,"current_range_meters":4800,"station_id":"ce4bhmp2rcd13ifvqgog","pricing_plan_id":"cebpf4jnsgd1na2vs0mg"},{"bike_id":"9705868b-1782-4328-b529-ba835e3a1de7","system_id":"levelo_inurba_marseille","lat":43.29869,"lon":5.39723,"is_reserved":false,"is_disabled":false,"rental_uris":{"android":"levelo://app?vid=9705868b-1782-4328-b529-ba835e3a1de7","ios":"levelo://app?vid=9705868b-1782-4328-b529-ba835e3a1de7"},"vehicle_type_id":"4","last_reported":1747830008,"current_range_meters":5600,"station_id":"ce4bh0h2rcd13ifvqd50","pricing_plan_id":"cebpf4jnsgd1na2vs0mg"},{"bike_id":"4c6a8839-39d5-4a1a-b8d9-0ffecf319df2","system_id":"levelo_inurba_marseille","lat":43.28872,"lon":5.39401,"is_reserved":false,"is_disabled":false,"rental_uris":{"android":"levelo://app?vid=4c6a8839-39d5-4a1a-b8d9-0ffecf319df2","ios":"levelo://app?vid=4c6a8839-39d5-4a1a-b8d9-0ffecf319df2"},"vehicle_type_id":"4","last_reported":1747830008,"current_range_meters":6000,"station_id":"","pricing_plan_id":"cebpf4jnsgd1na2vs0mg"},{"bike_id":"b993178f-5118-457c-b8fb-ff99e3bf5192","system_id":"levelo_inurba_marseille","lat":43.31174,"lon":5.38708,"is_reserved":false,"is_disabled":false,"rental_uris":{"android":"levelo://app?vid=b993178f-5118-457c-b8fb-ff99e3bf5192","ios":"levelo://app?vid=b993178f-5118-457c-b8fb-ff99e3bf5192"},"vehicle_type_id":"4","last_reported":1747830008,"current_range_meters":6000,"station_id":"ce4bgv12rcd13ifvqcp0","pricing_plan_id":"cebpf4jnsgd1na2vs0mg"},{"bike_id":"4c61ea23-8227-45af-b6f8-2c37deb5a6b1","system_id":"levelo_inurba_marseille","lat":43.30597,"lon":5.393597,"is_reserved":false,"is_disabled":false,"rental_uris":{"android":"levelo://app?vid=4c61ea23-8227-45af-b6f8-2c37deb5a6b1","ios":"levelo://app?vid=4c61ea23-8227-45af-b6f8-2c37deb5a6b1"},"vehicle_type_id":"4","last_reported":1747830008,"current_range_meters":6000,"station_id":"ce4bh0p2rcd13ifvqd80","pricing_plan_id":"cebpf4jnsgd1na2vs0mg"},{"bike_id":"f76564a3-862e-4d20-8d27-7b52a640aa53","system_id":"levelo_inurba_marseille","lat":43.29067,"lon":5.3716,"is_reserved":false,"is_disabled":false,"rental_uris":{"android":"levelo://app?vid=f76564a3-862e-4d20-8d27-7b52a640aa53","ios":"levelo://app?vid=f76564a3-862e-4d20-8d27-7b52a640aa53"},"vehicle_type_id":"4","last_reported":1747830008,"current_range_meters":6000,"station_id":"ce4bh5p2rcd13ifvqe4g","pricing_plan_id":"cebpf4jnsgd1na2vs0mg"},{"bike_id":"1b940c48-5349-49e0-a76a-c8f04708b654","system_id":"levelo_inurba_marseille","lat":43.28922,"lon":5.36627,"is_reserved":false,"is_disabled":false,"rental_uris":{"android":"levelo://app?vid=1b940c48-5349-49e0-a76a-c8f04708b654","ios":"levelo://app?vid=1b940c48-5349-49e0-a76a-c8f04708b654"},"vehicle_type_id":"4","last_reported":1747830008,"current_range_meters":6000,"station_id":"ce4bhap2rcd13ifvqek0","pricing_plan_id":"cebpf4jnsgd1na2vs0mg"},{"bike_id":"90294c08-e49b-4b97-88f9-e49d62db7883","system_id":"levelo_inurba_marseille","lat":43.24642,"lon":5.38887,"is_reserved":false,"is_disabled":false,"rental_uris":{"android":"levelo://app?vid=90294c08-e49b-4b97-88f9-e49d62db7883","ios":"levelo://app?vid=90294c08-e49b-4b97-88f9-e49d62db7883"},"vehicle_type_id":"4","last_reported":1747830008,"current_range_meters":6000,"station_id":"ce4bhg12rcd13ifvqf60","pricing_plan_id":"cebpf4jnsgd1na2vs0mg"},{"bike_id":"8321ee51-be89-4602-9084-5b73d84fcc9c","system_id":"levelo_inurba_marseille","lat":43.245886,"lon":5.395216,"is_reserved":false,"is_disabled":false,"rental_uris":{"android":"levelo://app?vid=8321ee51-be89-4602-9084-5b73d84fcc9c","ios":"levelo://app?vid=8321ee51-be89-4602-9084-5b73d84fcc9c"},"vehicle_type_id":"4","last_reported":1747830008,"current_range_meters":6000,"station_id":"ce4bhlp2rcd13ifvqgjg","pricing_plan_id":"cebpf4jnsgd1na2vs0mg"},{"bike_id":"d8ee85e1-e599-4dbf-8801-6321d455cdab","system_id":"levelo_inurba_marseille","lat":43.27489,"lon":5.42439,"is_reserved":false,"is_disabled":false,"rental_uris":{"android":"levelo://app?vid=d8ee85e1-e599-4dbf-8801-6321d455cdab","ios":"levelo://app?vid=d8ee85e1-e599-4dbf-8801-6321d455cdab"},"vehicle_type_id":"4","last_reported":1747830008,"current_range_meters":6000,"station_id":"ce4bhn92rcd13ifvqgrg","pricing_plan_id":"cebpf4jnsgd1na2vs0mg"},{"bike_id":"165d67e7-7820-413e-9335-5112e6b2d1ca","system_id":"levelo_inurba_marseille","lat":43.32656,"lon":5.40974,"is_reserved":false,"is_disabled":false,"rental_uris":{"android":"levelo://app?vid=165d67e7-7820-413e-9335-5112e6b2d1ca","ios":"levelo://app?vid=165d67e7-7820-413e-9335-5112e6b2d1ca"},"vehicle_type_id":"4","last_reported":1747830008,"current_range_meters":6000,"station_id":"ce4bhpp2rcd13ifvqhgg","pricing_plan_id":"cebpf4jnsgd1na2vs0mg"},{"bike_id":"7c37b0da-8f61-4f58-8c4e-764499d322be","system_id":"levelo_inurba_marseille","lat":43.21748,"lon":5.34606,"is_reserved":false,"is_disabled":false,"rental_uris":{"android":"levelo://app?vid=7c37b0da-8f61-4f58-8c4e-764499d322be","ios":"levelo://app?vid=7c37b0da-8f61-4f58-8c4e-764499d322be"},"vehicle_type_id":"4","last_reported":1747830008,"current_range_meters":6000,"station_id":"st_cvj6r9ubvosntc0bgbag","pricing_plan_id":"cebpf4jnsgd1na2vs0mg"},{"bike_id":"bffbaf88-357a-4e87-a68c-a9a27a6e01e6","system_id":"levelo_inurba_marseille","lat":43.262244,"lon":5.421229,"is_reserved":false,"is_disabled":false,"rental_uris":{"android":"levelo://app?vid=bffbaf88-357a-4e87-a68c-a9a27a6e01e6","ios":"levelo://app?vid=bffbaf88-357a-4e87-a68c-a9a27a6e01e6"},"vehicle_type_id":"4","last_reported":1747830008,"current_range_meters":6400,"station_id":"","pricing_plan_id":"cebpf4jnsgd1na2vs0mg"},{"bike_id":"d0b6d1e3-af36-4bf3-b60f-31bf11e9159a","system_id":"levelo_inurba_marseille","lat":43.29844,"lon":5.36286,"is_reserved":false,"is_disabled":false,"rental_uris":{"android":"levelo://app?vid=d0b6d1e3-af36-4bf3-b60f-31bf11e9159a","ios":"levelo://app?vid=d0b6d1e3-af36-4bf3-b60f-31bf11e9159a"},"vehicle_type_id":"4","last_reported":1747830008,"current_range_meters":6400,"station_id":"ce4bgpp2rcd13ifvqc3g","pricing_plan_id":"cebpf4jnsgd1na2vs0mg"},{"bike_id":"c1e8085f-73a5-4598-be3c-0bad91937a79","system_id":"levelo_inurba_marseille","lat":43.305511,"lon":5.36558,"is_reserved":false,"is_disabled":false,"rental_uris":{"android":"levelo://app?vid=c1e8085f-73a5-4598-be3c-0bad91937a79","ios":"levelo://app?vid=c1e8085f-73a5-4598-be3c-0bad91937a79"},"vehicle_type_id":"4","last_reported":1747830008,"current_range_meters":6400,"station_id":"ce4bgs12rcd13ifvqcag","pricing_plan_id":"cebpf4jnsgd1na2vs0mg"},{"bike_id":"42632a2e-03a3-4064-ac83-78c4adf666d0","system_id":"levelo_inurba_marseille","lat":43.309479,"lon":5.390348,"is_reserved":false,"is_disabled":false,"rental_uris":{"android":"levelo://app?vid=42632a2e-03a3-4064-ac83-78c4adf666d0","ios":"levelo://app?vid=42632a2e-03a3-4064-ac83-78c4adf666d0"},"vehicle_type_id":"4","last_reported":1747830008,"current_range_meters":6400,"station_id":"ce4bgup2rcd13ifvqco0","pricing_plan_id":"cebpf4jnsgd1na2vs0mg"},{"bike_id":"8bcc7333-0dd1-4b52-887b-85245a2f2ad5","system_id":"levelo_inurba_marseille","lat":43.27374,"lon":5.36225,"is_reserved":false,"is_disabled":false,"rental_uris":{"android":"levelo://app?vid=8bcc7333-0dd1-4b52-887b-85245a2f2ad5","ios":"levelo://app?vid=8bcc7333-0dd1-4b52-887b-85245a2f2ad5"},"vehicle_type_id":"4","last_reported":1747830008,"current_range_meters":6400,"station_id":"ce4bhbh2rcd13ifvqeo0","pricing_plan_id":"cebpf4jnsgd1na2vs0mg"},{"bike_id":"787b326c-5bf8-4565-aa82-241b4baba109","system_id":"levelo_inurba_marseille","lat":43.26224,"lon":5.40477,"is_reserved":false,"is_disabled":false,"rental_uris":{"android":"levelo://app?vid=787b326c-5bf8-4565-aa82-241b4baba109","ios":"levelo://app?vid=787b326c-5bf8-4565-aa82-241b4baba109"},"vehicle_type_id":"4","last_reported":1747830008,"current_range_meters":6400,"station_id":"ce4bhmh2rcd13ifvqgmg","pricing_plan_id":"cebpf4jnsgd1na2vs0mg"},{"bike_id":"8b533d5a-8464-4492-b066-9d3bfa56377d","system_id":"levelo_inurba_marseille","lat":43.21741,"lon":5.34606,"is_reserved":false,"is_disabled":false,"rental_uris":{"android":"levelo://app?vid=8b533d5a-8464-4492-b066-9d3bfa56377d","ios":"levelo://app?vid=8b533d5a-8464-4492-b066-9d3bfa56377d"},"vehicle_type_id":"4","last_reported":1747830008,"current_range_meters":6400,"station_id":"st_cvj6r9ubvosntc0bgbag","pricing_plan_id":"cebpf4jnsgd1na2vs0mg"},{"bike_id":"1f3086a2-e995-4c7c-a224-f6dabfa39ce5","system_id":"levelo_inurba_marseille","lat":43.29603,"lon":5.38106,"is_reserved":false,"is_disabled":false,"rental_uris":{"android":"levelo://app?vid=1f3086a2-e995-4c7c-a224-f6dabfa39ce5","ios":"levelo://app?vid=1f3086a2-e995-4c7c-a224-f6dabfa39ce5"},"vehicle_type_id":"4","last_reported":1747830008,"current_range_meters":6800,"station_id":"ce4bgl12rcd13ifvqbo0","pricing_plan_id":"cebpf4jnsgd1na2vs0mg"},{"bike_id":"345c7c54-7131-43a7-bab4-c1b0c0fb0967","system_id":"levelo_inurba_marseille","lat":43.2976,"lon":5.37113,"is_reserved":false,"is_disabled":false,"rental_uris":{"android":"levelo://app?vid=345c7c54-7131-43a7-bab4-c1b0c0fb0967","ios":"levelo://app?vid=345c7c54-7131-43a7-bab4-c1b0c0fb0967"},"vehicle_type_id":"4","last_reported":1747830008,"current_range_meters":6800,"station_id":"ce4bgop2rcd13ifvqc1g","pricing_plan_id":"cebpf4jnsgd1na2vs0mg"},{"bike_id":"f66041e7-1d8b-4917-b69d-18dca6ef83cb","system_id":"levelo_inurba_marseille","lat":43.309495,"lon":5.39031,"is_reserved":false,"is_disabled":false,"rental_uris":{"android":"levelo://app?vid=f66041e7-1d8b-4917-b69d-18dca6ef83cb","ios":"levelo://app?vid=f66041e7-1d8b-4917-b69d-18dca6ef83cb"},"vehicle_type_id":"4","last_reported":1747830008,"current_range_meters":6800,"station_id":"ce4bgup2rcd13ifvqco0","pricing_plan_id":"cebpf4jnsgd1na2vs0mg"},{"bike_id":"939a8fb7-697e-44dc-a9c8-d7432db5b657","system_id":"levelo_inurba_marseille","lat":43.26547,"lon":5.37295,"is_reserved":false,"is_disabled":false,"rental_uris":{"android":"levelo://app?vid=939a8fb7-697e-44dc-a9c8-d7432db5b657","ios":"levelo://app?vid=939a8fb7-697e-44dc-a9c8-d7432db5b657"},"vehicle_type_id":"4","last_reported":1747830008,"current_range_meters":6800,"station_id":"ce4bhg12rcd13ifvqf70","pricing_plan_id":"cebpf4jnsgd1na2vs0mg"},{"bike_id":"cf63a139-0651-41ef-99be-64fadc0fca91","system_id":"levelo_inurba_marseille","lat":43.31742,"lon":5.37279,"is_reserved":false,"is_disabled":false,"rental_uris":{"android":"levelo://app?vid=cf63a139-0651-41ef-99be-64fadc0fca91","ios":"levelo://app?vid=cf63a139-0651-41ef-99be-64fadc0fca91"},"vehicle_type_id":"4","last_reported":1747830008,"current_range_meters":7200,"station_id":"","pricing_plan_id":"cebpf4jnsgd1na2vs0mg"},{"bike_id":"71e146ad-5169-4dc5-a288-c7c746aad618","system_id":"levelo_inurba_marseille","lat":43.28543,"lon":5.3505,"is_reserved":false,"is_disabled":false,"rental_uris":{"android":"levelo://app?vid=71e146ad-5169-4dc5-a288-c7c746aad618","ios":"levelo://app?vid=71e146ad-5169-4dc5-a288-c7c746aad618"},"vehicle_type_id":"4","last_reported":1747830008,"current_range_meters":7200,"station_id":"","pricing_plan_id":"cebpf4jnsgd1na2vs0mg"},{"bike_id":"9b3f8e5a-be8a-484d-bf29-04759dd5fcb3","system_id":"levelo_inurba_marseille","lat":43.30564,"lon":5.36548,"is_reserved":false,"is_disabled":false,"rental_uris":{"android":"levelo://app?vid=9b3f8e5a-be8a-484d-bf29-04759dd5fcb3","ios":"levelo://app?vid=9b3f8e5a-be8a-484d-bf29-04759dd5fcb3"},"vehicle_type_id":"4","last_reported":1747830008,"current_range_meters":7200,"station_id":"ce4bgs12rcd13ifvqcag","pricing_plan_id":"cebpf4jnsgd1na2vs0mg"},{"bike_id":"879aeb71-927b-439c-9c2b-1c9452379465","system_id":"levelo_inurba_marseille","lat":43.28611,"lon":5.35099,"is_reserved":false,"is_disabled":false,"rental_uris":{"android":"levelo://app?vid=879aeb71-927b-439c-9c2b-1c9452379465","ios":"levelo://app?vid=879aeb71-927b-439c-9c2b-1c9452379465"},"vehicle_type_id":"4","last_reported":1747830008,"current_range_meters":7200,"station_id":"ce4bhch2rcd13ifvqeug","pricing_plan_id":"cebpf4jnsgd1na2vs0mg"},{"bike_id":"e9591493-5c5e-40b9-9eb4-b0caac51d0c1","system_id":"levelo_inurba_marseille","lat":43.24682,"lon":5.38135,"is_reserved":false,"is_disabled":false,"rental_uris":{"android":"levelo://app?vid=e9591493-5c5e-40b9-9eb4-b0caac51d0c1","ios":"levelo://app?vid=e9591493-5c5e-40b9-9eb4-b0caac51d0c1"},"vehicle_type_id":"4","last_reported":1747830008,"current_range_meters":7200,"station_id":"ce4bhih2rcd13ifvqfr0","pricing_plan_id":"cebpf4jnsgd1na2vs0mg"},{"bike_id":"c9bf0bed-ab35-4f97-844c-4eb511b8961d","system_id":"levelo_inurba_marseille","lat":43.25719,"lon":5.41115,"is_reserved":false,"is_disabled":false,"rental_uris":{"android":"levelo://app?vid=c9bf0bed-ab35-4f97-844c-4eb511b8961d","ios":"levelo://app?vid=c9bf0bed-ab35-4f97-844c-4eb511b8961d"},"vehicle_type_id":"4","last_reported":1747830008,"current_range_meters":7200,"station_id":"ce4bhkp2rcd13ifvqgd0","pricing_plan_id":"cebpf4jnsgd1na2vs0mg"},{"bike_id":"b8b511c7-6f48-45be-97af-1e0036b54cc5","system_id":"levelo_inurba_marseille","lat":43.273565,"lon":5.424085,"is_reserved":false,"is_disabled":false,"rental_uris":{"android":"levelo://app?vid=b8b511c7-6f48-45be-97af-1e0036b54cc5","ios":"levelo://app?vid=b8b511c7-6f48-45be-97af-1e0036b54cc5"},"vehicle_type_id":"4","last_reported":1747830008,"current_range_meters":8000,"station_id":"","pricing_plan_id":"cebpf4jnsgd1na2vs0mg"},{"bike_id":"bb71e48e-92ee-43a2-a633-4b63712a135e","system_id":"levelo_inurba_marseille","lat":43.29184,"lon":5.39321,"is_reserved":false,"is_disabled":false,"rental_uris":{"android":"levelo://app?vid=bb71e48e-92ee-43a2-a633-4b63712a135e","ios":"levelo://app?vid=bb71e48e-92ee-43a2-a633-4b63712a135e"},"vehicle_type_id":"4","last_reported":1747830008,"current_range_meters":8000,"station_id":"ce4bh192rcd13ifvqdd0","pricing_plan_id":"cebpf4jnsgd1na2vs0mg"},{"bike_id":"c3211724-3d1c-4ce9-b4fb-a8befa6d98af","system_id":"levelo_inurba_marseille","lat":43.2952,"lon":5.39025,"is_reserved":false,"is_disabled":false,"rental_uris":{"android":"levelo://app?vid=c3211724-3d1c-4ce9-b4fb-a8befa6d98af","ios":"levelo://app?vid=c3211724-3d1c-4ce9-b4fb-a8befa6d98af"},"vehicle_type_id":"4","last_reported":1747830008,"current_range_meters":8000,"station_id":"ce4bh3p2rcd13ifvqdp0","pricing_plan_id":"cebpf4jnsgd1na2vs0mg"},{"bike_id":"d7adf546-436d-468c-82b6-615f38a762a9","system_id":"levelo_inurba_marseille","lat":43.27973,"lon":5.38727,"is_reserved":false,"is_disabled":false,"rental_uris":{"android":"levelo://app?vid=d7adf546-436d-468c-82b6-615f38a762a9","ios":"levelo://app?vid=d7adf546-436d-468c-82b6-615f38a762a9"},"vehicle_type_id":"4","last_reported":1747830008,"current_range_meters":8000,"station_id":"ce4bhg12rcd13ifvqf80","pricing_plan_id":"cebpf4jnsgd1na2vs0mg"},{"bike_id":"7c23fe65-fa85-4c48-9c23-31df76d24451","system_id":"levelo_inurba_marseille","lat":43.27056,"lon":5.40278,"is_reserved":false,"is_disabled":false,"rental_uris":{"android":"levelo://app?vid=7c23fe65-fa85-4c48-9c23-31df76d24451","ios":"levelo://app?vid=7c23fe65-fa85-4c48-9c23-31df76d24451"},"vehicle_type_id":"4","last_reported":1747830008,"current_range_meters":8000,"station_id":"ce4bhk92rcd13ifvqgc0","pricing_plan_id":"cebpf4jnsgd1na2vs0mg"},{"bike_id":"64bb941f-9fdf-4ad4-9850-a2641047d240","system_id":"levelo_inurba_marseille","lat":43.259,"lon":5.40867,"is_reserved":false,"is_disabled":false,"rental_uris":{"android":"levelo://app?vid=64bb941f-9fdf-4ad4-9850-a2641047d240","ios":"levelo://app?vid=64bb941f-9fdf-4ad4-9850-a2641047d240"},"vehicle_type_id":"4","last_reported":1747830008,"current_range_meters":8000,"station_id":"ce4bhm92rcd13ifvqglg","pricing_plan_id":"cebpf4jnsgd1na2vs0mg"},{"bike_id":"119414dd-a64a-482e-b0a3-d8cde5e6007d","system_id":"levelo_inurba_marseille","lat":43.27818,"lon":5.40688,"is_reserved":false,"is_disabled":false,"rental_uris":{"android":"levelo://app?vid=119414dd-a64a-482e-b0a3-d8cde5e6007d","ios":"levelo://app?vid=119414dd-a64a-482e-b0a3-d8cde5e6007d"},"vehicle_type_id":"4","last_reported":1747830008,"current_range_meters":8000,"station_id":"ce4bhnh2rcd13ifvqgtg","pricing_plan_id":"cebpf4jnsgd1na2vs0mg"},{"bike_id":"d432b018-2a72-4f2c-9393-4b986dc48fc9","system_id":"levelo_inurba_marseille","lat":43.28075,"lon":5.39662,"is_reserved":false,"is_disabled":false,"rental_uris":{"android":"levelo://app?vid=d432b018-2a72-4f2c-9393-4b986dc48fc9","ios":"levelo://app?vid=d432b018-2a72-4f2c-9393-4b986dc48fc9"},"vehicle_type_id":"4","last_reported":1747830008,"current_range_meters":8000,"station_id":"ce4bho12rcd13ifvqh2g","pricing_plan_id":"cebpf4jnsgd1na2vs0mg"},{"bike_id":"e8162579-a5ad-485f-ad83-fec8a2ebe7e1","system_id":"levelo_inurba_marseille","lat":43.26826,"lon":5.39099,"is_reserved":false,"is_disabled":false,"rental_uris":{"android":"levelo://app?vid=e8162579-a5ad-485f-ad83-fec8a2ebe7e1","ios":"levelo://app?vid=e8162579-a5ad-485f-ad83-fec8a2ebe7e1"},"vehicle_type_id":"4","last_reported":1747830008,"current_range_meters":8400,"station_id":"","pricing_plan_id":"cebpf4jnsgd1na2vs0mg"},{"bike_id":"7b90bbd6-6b9c-4f18-86e7-55e5e43c995c","system_id":"levelo_inurba_marseille","lat":43.26117,"lon":5.41464,"is_reserved":false,"is_disabled":false,"rental_uris":{"android":"levelo://app?vid=7b90bbd6-6b9c-4f18-86e7-55e5e43c995c","ios":"levelo://app?vid=7b90bbd6-6b9c-4f18-86e7-55e5e43c995c"},"vehicle_type_id":"4","last_reported":1747830008,"current_range_meters":8400,"station_id":"","pricing_plan_id":"cebpf4jnsgd1na2vs0mg"},{"bike_id":"3552fbf2-b43a-446f-93f5-d695fc251b73","system_id":"levelo_inurba_marseille","lat":43.25172,"lon":5.37527,"is_reserved":false,"is_disabled":false,"rental_uris":{"android":"levelo://app?vid=3552fbf2-b43a-446f-93f5-d695fc251b73","ios":"levelo://app?vid=3552fbf2-b43a-446f-93f5-d695fc251b73"},"vehicle_type_id":"4","last_reported":1747830008,"current_range_meters":8400,"station_id":"","pricing_plan_id":"cebpf4jnsgd1na2vs0mg"},{"bike_id":"31b900e5-03bd-4880-a1a4-394b0437396c","system_id":"levelo_inurba_marseille","lat":43.31372,"lon":5.36721,"is_reserved":false,"is_disabled":false,"rental_uris":{"android":"levelo://app?vid=31b900e5-03bd-4880-a1a4-394b0437396c","ios":"levelo://app?vid=31b900e5-03bd-4880-a1a4-394b0437396c"},"vehicle_type_id":"4","last_reported":1747830008,"current_range_meters":8400,"station_id":"ce4bgr92rcd13ifvqc6g","pricing_plan_id":"cebpf4jnsgd1na2vs0mg"},{"bike_id":"cc481ecf-0e97-46ee-9f0e-cd100a762393","system_id":"levelo_inurba_marseille","lat":43.30782,"lon":5.3765,"is_reserved":false,"is_disabled":false,"rental_uris":{"android":"levelo://app?vid=cc481ecf-0e97-46ee-9f0e-cd100a762393","ios":"levelo://app?vid=cc481ecf-0e97-46ee-9f0e-cd100a762393"},"vehicle_type_id":"4","last_reported":1747830008,"current_range_meters":8400,"station_id":"ce4bgv92rcd13ifvqcq0","pricing_plan_id":"cebpf4jnsgd1na2vs0mg"},{"bike_id":"0c19fbeb-42ad-4f5a-a5a6-b82fca91ac12","system_id":"levelo_inurba_marseille","lat":43.280326,"lon":5.369344,"is_reserved":false,"is_disabled":false,"rental_uris":{"android":"levelo://app?vid=0c19fbeb-42ad-4f5a-a5a6-b82fca91ac12","ios":"levelo://app?vid=0c19fbeb-42ad-4f5a-a5a6-b82fca91ac12"},"vehicle_type_id":"4","last_reported":1747830008,"current_range_meters":8400,"station_id":"ce4bha12rcd13ifvqef0","pricing_plan_id":"cebpf4jnsgd1na2vs0mg"},{"bike_id":"6cdef387-baab-4555-9f86-617fba94902a","system_id":"levelo_inurba_marseille","lat":43.32347,"lon":5.3675,"is_reserved":false,"is_disabled":false,"rental_uris":{"android":"levelo://app?vid=6cdef387-baab-4555-9f86-617fba94902a","ios":"levelo://app?vid=6cdef387-baab-4555-9f86-617fba94902a"},"vehicle_type_id":"4","last_reported":1747830008,"current_range_meters":8400,"station_id":"ce4bhsh2rcd13ifvqi2g","pricing_plan_id":"cebpf4jnsgd1na2vs0mg"},{"bike_id":"dc80936a-51b4-4ef9-b71e-e259b58f2ac3","system_id":"levelo_inurba_marseille","lat":43.28565,"lon":5.35049,"is_reserved":false,"is_disabled":false,"rental_uris":{"android":"levelo://app?vid=dc80936a-51b4-4ef9-b71e-e259b58f2ac3","ios":"levelo://app?vid=dc80936a-51b4-4ef9-b71e-e259b58f2ac3"},"vehicle_type_id":"4","last_reported":1747830008,"current_range_meters":8800,"station_id":"","pricing_plan_id":"cebpf4jnsgd1na2vs0mg"},{"bike_id":"b372620f-8132-4e7e-8d1a-e467489438c7","system_id":"levelo_inurba_marseille","lat":43.28628,"lon":5.40363,"is_reserved":false,"is_disabled":false,"rental_uris":{"android":"levelo://app?vid=b372620f-8132-4e7e-8d1a-e467489438c7","ios":"levelo://app?vid=b372620f-8132-4e7e-8d1a-e467489438c7"},"vehicle_type_id":"4","last_reported":1747830008,"current_range_meters":8800,"station_id":"","pricing_plan_id":"cebpf4jnsgd1na2vs0mg"},{"bike_id":"d95c912e-8b1e-4325-bdb5-ca5cee06c18b","system_id":"levelo_inurba_marseille","lat":43.30793,"lon":5.37635,"is_reserved":false,"is_disabled":false,"rental_uris":{"android":"levelo://app?vid=d95c912e-8b1e-4325-bdb5-ca5cee06c18b","ios":"levelo://app?vid=d95c912e-8b1e-4325-bdb5-ca5cee06c18b"},"vehicle_type_id":"4","last_reported":1747830008,"current_range_meters":8800,"station_id":"ce4bgv92rcd13ifvqcq0","pricing_plan_id":"cebpf4jnsgd1na2vs0mg"},{"bike_id":"58e60cee-21aa-4348-9525-6e5a5eb32617","system_id":"levelo_inurba_marseille","lat":43.26951,"lon":5.38639,"is_reserved":false,"is_disabled":false,"rental_uris":{"android":"levelo://app?vid=58e60cee-21aa-4348-9525-6e5a5eb32617","ios":"levelo://app?vid=58e60cee-21aa-4348-9525-6e5a5eb32617"},"vehicle_type_id":"4","last_reported":1747830008,"current_range_meters":8800,"station_id":"ce4bhh92rcd13ifvqfh0","pricing_plan_id":"cebpf4jnsgd1na2vs0mg"},{"bike_id":"f0d8547a-c73d-4505-af65-8db5f38c8128","system_id":"levelo_inurba_marseille","lat":43.27675,"lon":5.38864,"is_reserved":false,"is_disabled":false,"rental_uris":{"android":"levelo://app?vid=f0d8547a-c73d-4505-af65-8db5f38c8128","ios":"levelo://app?vid=f0d8547a-c73d-4505-af65-8db5f38c8128"},"vehicle_type_id":"4","last_reported":1747830008,"current_range_meters":8800,"station_id":"ce4bhi12rcd13ifvqfo0","pricing_plan_id":"cebpf4jnsgd1na2vs0mg"},{"bike_id":"b4dfcdc2-6479-4783-9eb0-5b6bef6a5c8e","system_id":"levelo_inurba_marseille","lat":43.23155,"lon":5.43714,"is_reserved":false,"is_disabled":false,"rental_uris":{"android":"levelo://app?vid=b4dfcdc2-6479-4783-9eb0-5b6bef6a5c8e","ios":"levelo://app?vid=b4dfcdc2-6479-4783-9eb0-5b6bef6a5c8e"},"vehicle_type_id":"4","last_reported":1747830008,"current_range_meters":8800,"station_id":"ce4bhmp2rcd13ifvqgog","pricing_plan_id":"cebpf4jnsgd1na2vs0mg"},{"bike_id":"26fd2cc0-986c-43ff-bd6f-4286d17267ea","system_id":"levelo_inurba_marseille","lat":43.279402,"lon":5.410481,"is_reserved":false,"is_disabled":false,"rental_uris":{"android":"levelo://app?vid=26fd2cc0-986c-43ff-bd6f-4286d17267ea","ios":"levelo://app?vid=26fd2cc0-986c-43ff-bd6f-4286d17267ea"},"vehicle_type_id":"4","last_reported":1747830008,"current_range_meters":8800,"station_id":"ce4bhnp2rcd13ifvqh0g","pricing_plan_id":"cebpf4jnsgd1na2vs0mg"},{"bike_id":"57f06891-499d-433a-b2c1-26fc0ba00da5","system_id":"levelo_inurba_marseille","lat":43.23192,"lon":5.35552,"is_reserved":false,"is_disabled":false,"rental_uris":{"android":"levelo://app?vid=57f06891-499d-433a-b2c1-26fc0ba00da5","ios":"levelo://app?vid=57f06891-499d-433a-b2c1-26fc0ba00da5"},"vehicle_type_id":"4","last_reported":1747830008,"current_range_meters":8800,"station_id":"ce4bhu92rcd13ifvqi70","pricing_plan_id":"cebpf4jnsgd1na2vs0mg"},{"bike_id":"c3c11b11-8507-45b4-bd48-1e3bdd46fbbe","system_id":"levelo_inurba_marseille","lat":43.23207,"lon":5.39951,"is_reserved":false,"is_disabled":false,"rental_uris":{"android":"levelo://app?vid=c3c11b11-8507-45b4-bd48-1e3bdd46fbbe","ios":"levelo://app?vid=c3c11b11-8507-45b4-bd48-1e3bdd46fbbe"},"vehicle_type_id":"4","last_reported":1747830008,"current_range_meters":9200,"station_id":"","pricing_plan_id":"cebpf4jnsgd1na2vs0mg"},{"bike_id":"976b93e4-43ba-441f-88b0-11afd3bb24b4","system_id":"levelo_inurba_marseille","lat":43.301824,"lon":5.366282,"is_reserved":false,"is_disabled":false,"rental_uris":{"android":"levelo://app?vid=976b93e4-43ba-441f-88b0-11afd3bb24b4","ios":"levelo://app?vid=976b93e4-43ba-441f-88b0-11afd3bb24b4"},"vehicle_type_id":"4","last_reported":1747830008,"current_range_meters":9200,"station_id":"ce4bgrh2rcd13ifvqc8g","pricing_plan_id":"cebpf4jnsgd1na2vs0mg"},{"bike_id":"e0ce7120-d4bc-46c4-98cc-8417fac97745","system_id":"levelo_inurba_marseille","lat":43.30321,"lon":5.40445,"is_reserved":false,"is_disabled":false,"rental_uris":{"android":"levelo://app?vid=e0ce7120-d4bc-46c4-98cc-8417fac97745","ios":"levelo://app?vid=e0ce7120-d4bc-46c4-98cc-8417fac97745"},"vehicle_type_id":"4","last_reported":1747830008,"current_range_meters":9200,"station_id":"ce4bh012rcd13ifvqd10","pricing_plan_id":"cebpf4jnsgd1na2vs0mg"},{"bike_id":"34b810d5-9328-4efc-be8a-ac0407d5c423","system_id":"levelo_inurba_marseille","lat":43.27372,"lon":5.36255,"is_reserved":false,"is_disabled":false,"rental_uris":{"android":"levelo://app?vid=34b810d5-9328-4efc-be8a-ac0407d5c423","ios":"levelo://app?vid=34b810d5-9328-4efc-be8a-ac0407d5c423"},"vehicle_type_id":"4","last_reported":1747830008,"current_range_meters":9200,"station_id":"ce4bhbh2rcd13ifvqeo0","pricing_plan_id":"cebpf4jnsgd1na2vs0mg"},{"bike_id":"2814daa3-36a5-4f0f-9026-41641f5f72bf","system_id":"levelo_inurba_marseille","lat":43.26683,"lon":5.38274,"is_reserved":false,"is_disabled":false,"rental_uris":{"android":"levelo://app?vid=2814daa3-36a5-4f0f-9026-41641f5f72bf","ios":"levelo://app?vid=2814daa3-36a5-4f0f-9026-41641f5f72bf"},"vehicle_type_id":"4","last_reported":1747830008,"current_range_meters":9200,"station_id":"ce4bhg92rcd13ifvqf90","pricing_plan_id":"cebpf4jnsgd1na2vs0mg"},{"bike_id":"1ff4dd87-bf56-4ab1-8365-aad71fcb827c","system_id":"levelo_inurba_marseille","lat":43.316076,"lon":5.423906,"is_reserved":false,"is_disabled":false,"rental_uris":{"android":"levelo://app?vid=1ff4dd87-bf56-4ab1-8365-aad71fcb827c","ios":"levelo://app?vid=1ff4dd87-bf56-4ab1-8365-aad71fcb827c"},"vehicle_type_id":"4","last_reported":1747830008,"current_range_meters":9200,"station_id":"ce4bhp92rcd13ifvqhbg","pricing_plan_id":"cebpf4jnsgd1na2vs0mg"},{"bike_id":"c6ed72ff-364d-44e0-939f-858e4e3f1cc9","system_id":"levelo_inurba_marseille","lat":43.32364,"lon":5.38871,"is_reserved":false,"is_disabled":false,"rental_uris":{"android":"levelo://app?vid=c6ed72ff-364d-44e0-939f-858e4e3f1cc9","ios":"levelo://app?vid=c6ed72ff-364d-44e0-939f-858e4e3f1cc9"},"vehicle_type_id":"4","last_reported":1747830008,"current_range_meters":9200,"station_id":"ce4bhqp2rcd13ifvqhog","pricing_plan_id":"cebpf4jnsgd1na2vs0mg"},{"bike_id":"d996db61-de6b-4dec-9219-20cee9a4a091","system_id":"levelo_inurba_marseille","lat":43.28039,"lon":5.36937,"is_reserved":false,"is_disabled":false,"rental_uris":{"android":"levelo://app?vid=d996db61-de6b-4dec-9219-20cee9a4a091","ios":"levelo://app?vid=d996db61-de6b-4dec-9219-20cee9a4a091"},"vehicle_type_id":"4","last_reported":1747830008,"current_range_meters":9600,"station_id":"ce4bha12rcd13ifvqef0","pricing_plan_id":"cebpf4jnsgd1na2vs0mg"},{"bike_id":"af4e87b2-1020-430c-b28e-4591beadf001","system_id":"levelo_inurba_marseille","lat":43.24678,"lon":5.3816,"is_reserved":false,"is_disabled":false,"rental_uris":{"android":"levelo://app?vid=af4e87b2-1020-430c-b28e-4591beadf001","ios":"levelo://app?vid=af4e87b2-1020-430c-b28e-4591beadf001"},"vehicle_type_id":"4","last_reported":1747830008,"current_range_meters":9600,"station_id":"ce4bhih2rcd13ifvqfr0","pricing_plan_id":"cebpf4jnsgd1na2vs0mg"},{"bike_id":"8a77c670-a7af-4ac0-9918-4e6c1c91e962","system_id":"levelo_inurba_marseille","lat":43.25084,"lon":5.39522,"is_reserved":false,"is_disabled":false,"rental_uris":{"android":"levelo://app?vid=8a77c670-a7af-4ac0-9918-4e6c1c91e962","ios":"levelo://app?vid=8a77c670-a7af-4ac0-9918-4e6c1c91e962"},"vehicle_type_id":"4","last_reported":1747830008,"current_range_meters":9600,"station_id":"ce4bhm12rcd13ifvqgkg","pricing_plan_id":"cebpf4jnsgd1na2vs0mg"},{"bike_id":"6fa2a045-306c-4146-823c-182cbdf87330","system_id":"levelo_inurba_marseille","lat":43.23195,"lon":5.39975,"is_reserved":false,"is_disabled":false,"rental_uris":{"android":"levelo://app?vid=6fa2a045-306c-4146-823c-182cbdf87330","ios":"levelo://app?vid=6fa2a045-306c-4146-823c-182cbdf87330"},"vehicle_type_id":"4","last_reported":1747830008,"current_range_meters":9600,"station_id":"ce4bhn12rcd13ifvqgqg","pricing_plan_id":"cebpf4jnsgd1na2vs0mg"},{"bike_id":"5606c28d-2639-4d1b-9c6c-5a30abff70d3","system_id":"levelo_inurba_marseille","lat":43.313407,"lon":5.367207,"is_reserved":false,"is_disabled":false,"rental_uris":{"android":"levelo://app?vid=5606c28d-2639-4d1b-9c6c-5a30abff70d3","ios":"levelo://app?vid=5606c28d-2639-4d1b-9c6c-5a30abff70d3"},"vehicle_type_id":"4","last_reported":1747830008,"current_range_meters":10000,"station_id":"ce4bgr92rcd13ifvqc6g","pricing_plan_id":"cebpf4jnsgd1na2vs0mg"},{"bike_id":"4bdee449-9f36-4c85-9d54-a0b956e7496c","system_id":"levelo_inurba_marseille","lat":43.28365,"lon":5.38629,"is_reserved":false,"is_disabled":false,"rental_uris":{"android":"levelo://app?vid=4bdee449-9f36-4c85-9d54-a0b956e7496c","ios":"levelo://app?vid=4bdee449-9f36-4c85-9d54-a0b956e7496c"},"vehicle_type_id":"4","last_reported":1747830008,"current_range_meters":10000,"station_id":"ce4bh492rcd13ifvqdvg","pricing_plan_id":"cebpf4jnsgd1na2vs0mg"},{"bike_id":"2c795062-d34a-4c72-b72b-55c1ee16d113","system_id":"levelo_inurba_marseille","lat":43.26203,"lon":5.37928,"is_reserved":false,"is_disabled":false,"rental_uris":{"android":"levelo://app?vid=2c795062-d34a-4c72-b72b-55c1ee16d113","ios":"levelo://app?vid=2c795062-d34a-4c72-b72b-55c1ee16d113"},"vehicle_type_id":"4","last_reported":1747830008,"current_range_meters":10000,"station_id":"ce4bhjp2rcd13ifvqg90","pricing_plan_id":"cebpf4jnsgd1na2vs0mg"},{"bike_id":"11ec03dc-f767-49c3-8b4b-603b93c91c7b","system_id":"levelo_inurba_marseille","lat":43.27174,"lon":5.40997,"is_reserved":false,"is_disabled":false,"rental_uris":{"android":"levelo://app?vid=11ec03dc-f767-49c3-8b4b-603b93c91c7b","ios":"levelo://app?vid=11ec03dc-f767-49c3-8b4b-603b93c91c7b"},"vehicle_type_id":"4","last_reported":1747830008,"current_range_meters":10000,"station_id":"ce4bhl12rcd13ifvqgf0","pricing_plan_id":"cebpf4jnsgd1na2vs0mg"},{"bike_id":"1addcad7-d488-4e1c-b76c-777e91802e42","system_id":"levelo_inurba_marseille","lat":43.25073,"lon":5.3952,"is_reserved":false,"is_disabled":false,"rental_uris":{"android":"levelo://app?vid=1addcad7-d488-4e1c-b76c-777e91802e42","ios":"levelo://app?vid=1addcad7-d488-4e1c-b76c-777e91802e42"},"vehicle_type_id":"4","last_reported":1747830008,"current_range_meters":10000,"station_id":"ce4bhm12rcd13ifvqgkg","pricing_plan_id":"cebpf4jnsgd1na2vs0mg"},{"bike_id":"812fa841-0b74-4a66-8e01-ac7b6abb4a4c","system_id":"levelo_inurba_marseille","lat":43.2315,"lon":5.43721,"is_reserved":false,"is_disabled":false,"rental_uris":{"android":"levelo://app?vid=812fa841-0b74-4a66-8e01-ac7b6abb4a4c","ios":"levelo://app?vid=812fa841-0b74-4a66-8e01-ac7b6abb4a4c"},"vehicle_type_id":"4","last_reported":1747830008,"current_range_meters":10000,"station_id":"ce4bhmp2rcd13ifvqgog","pricing_plan_id":"cebpf4jnsgd1na2vs0mg"},{"bike_id":"289edf10-3cb4-4764-b8e9-01dd09886fd6","system_id":"levelo_inurba_marseille","lat":43.23178,"lon":5.39981,"is_reserved":false,"is_disabled":false,"rental_uris":{"android":"levelo://app?vid=289edf10-3cb4-4764-b8e9-01dd09886fd6","ios":"levelo://app?vid=289edf10-3cb4-4764-b8e9-01dd09886fd6"},"vehicle_type_id":"4","last_reported":1747830008,"current_range_meters":10000,"station_id":"ce4bhn12rcd13ifvqgqg","pricing_plan_id":"cebpf4jnsgd1na2vs0mg"},{"bike_id":"00cb99e8-0d75-4db1-bcd5-27f07b38577d","system_id":"levelo_inurba_marseille","lat":43.27999,"lon":5.40013,"is_reserved":false,"is_disabled":false,"rental_uris":{"android":"levelo://app?vid=00cb99e8-0d75-4db1-bcd5-27f07b38577d","ios":"levelo://app?vid=00cb99e8-0d75-4db1-bcd5-27f07b38577d"},"vehicle_type_id":"4","last_reported":1747830008,"current_range_meters":10000,"station_id":"ce4bho92rcd13ifvqh4g","pricing_plan_id":"cebpf4jnsgd1na2vs0mg"},{"bike_id":"324231ab-033b-40ae-97d2-7b70e0442b0c","system_id":"levelo_inurba_marseille","lat":43.312296,"lon":5.368641,"is_reserved":false,"is_disabled":false,"rental_uris":{"android":"levelo://app?vid=324231ab-033b-40ae-97d2-7b70e0442b0c","ios":"levelo://app?vid=324231ab-033b-40ae-97d2-7b70e0442b0c"},"vehicle_type_id":"4","last_reported":1747830008,"current_range_meters":10800,"station_id":"ce4bgl92rcd13ifvqbq0","pricing_plan_id":"cebpf4jnsgd1na2vs0mg"},{"bike_id":"89dcf66e-67a2-4cd3-8a61-d14779ff67db","system_id":"levelo_inurba_marseille","lat":43.28476,"lon":5.38559,"is_reserved":false,"is_disabled":false,"rental_uris":{"android":"levelo://app?vid=89dcf66e-67a2-4cd3-8a61-d14779ff67db","ios":"levelo://app?vid=89dcf66e-67a2-4cd3-8a61-d14779ff67db"},"vehicle_type_id":"4","last_reported":1747830008,"current_range_meters":10800,"station_id":"ce4bh8p2rcd13ifvqeb0","pricing_plan_id":"cebpf4jnsgd1na2vs0mg"},{"bike_id":"1df42cc4-ca0d-46b2-9f71-092b4713b502","system_id":"levelo_inurba_marseille","lat":43.29,"lon":5.35617,"is_reserved":false,"is_disabled":false,"rental_uris":{"android":"levelo://app?vid=1df42cc4-ca0d-46b2-9f71-092b4713b502","ios":"levelo://app?vid=1df42cc4-ca0d-46b2-9f71-092b4713b502"},"vehicle_type_id":"4","last_reported":1747830008,"current_range_meters":10800,"station_id":"ce4bhb92rcd13ifvqen0","pricing_plan_id":"cebpf4jnsgd1na2vs0mg"},{"bike_id":"15fece08-8fc5-430f-a21c-4d8a316b0217","system_id":"levelo_inurba_marseille","lat":43.23963,"lon":5.36653,"is_reserved":false,"is_disabled":false,"rental_uris":{"android":"levelo://app?vid=15fece08-8fc5-430f-a21c-4d8a316b0217","ios":"levelo://app?vid=15fece08-8fc5-430f-a21c-4d8a316b0217"},"vehicle_type_id":"4","last_reported":1747830008,"current_range_meters":10800,"station_id":"ce4bhi12rcd13ifvqfp0","pricing_plan_id":"cebpf4jnsgd1na2vs0mg"},{"bike_id":"cf0185dc-4a06-4588-a272-2e75ffd31e70","system_id":"levelo_inurba_marseille","lat":43.25578,"lon":5.38242,"is_reserved":false,"is_disabled":false,"rental_uris":{"android":"levelo://app?vid=cf0185dc-4a06-4588-a272-2e75ffd31e70","ios":"levelo://app?vid=cf0185dc-4a06-4588-a272-2e75ffd31e70"},"vehicle_type_id":"4","last_reported":1747830008,"current_range_meters":10800,"station_id":"ce4bhih2rcd13ifvqfs0","pricing_plan_id":"cebpf4jnsgd1na2vs0mg"},{"bike_id":"efd236b9-9a84-47e9-8ada-b6b1fdad4475","system_id":"levelo_inurba_marseille","lat":43.25101,"lon":5.403,"is_reserved":false,"is_disabled":false,"rental_uris":{"android":"levelo://app?vid=efd236b9-9a84-47e9-8ada-b6b1fdad4475","ios":"levelo://app?vid=efd236b9-9a84-47e9-8ada-b6b1fdad4475"},"vehicle_type_id":"4","last_reported":1747830008,"current_range_meters":10800,"station_id":"ce4bhlh2rcd13ifvqgig","pricing_plan_id":"cebpf4jnsgd1na2vs0mg"},{"bike_id":"c06c87aa-99e3-4b89-97dc-fd6edd7b18f0","system_id":"levelo_inurba_marseille","lat":43.321051,"lon":5.367717,"is_reserved":false,"is_disabled":false,"rental_uris":{"android":"levelo://app?vid=c06c87aa-99e3-4b89-97dc-fd6edd7b18f0","ios":"levelo://app?vid=c06c87aa-99e3-4b89-97dc-fd6edd7b18f0"},"vehicle_type_id":"4","last_reported":1747830008,"current_range_meters":10800,"station_id":"ce4bhrh2rcd13ifvqhug","pricing_plan_id":"cebpf4jnsgd1na2vs0mg"},{"bike_id":"a8a131af-027d-4c09-9cdc-a1b38a172804","system_id":"levelo_inurba_marseille","lat":43.26805,"lon":5.40266,"is_reserved":false,"is_disabled":false,"rental_uris":{"android":"levelo://app?vid=a8a131af-027d-4c09-9cdc-a1b38a172804","ios":"levelo://app?vid=a8a131af-027d-4c09-9cdc-a1b38a172804"},"vehicle_type_id":"4","last_reported":1747830008,"current_range_meters":10800,"station_id":"ce501612rcd8frsf0b60","pricing_plan_id":"cebpf4jnsgd1na2vs0mg"},{"bike_id":"03536d5e-3ba1-4707-9234-f90f2cba4976","system_id":"levelo_inurba_marseille","lat":43.27385,"lon":5.36265,"is_reserved":false,"is_disabled":false,"rental_uris":{"android":"levelo://app?vid=03536d5e-3ba1-4707-9234-f90f2cba4976","ios":"levelo://app?vid=03536d5e-3ba1-4707-9234-f90f2cba4976"},"vehicle_type_id":"4","last_reported":1747830008,"current_range_meters":11200,"station_id":"ce4bhbh2rcd13ifvqeo0","pricing_plan_id":"cebpf4jnsgd1na2vs0mg"},{"bike_id":"232d933a-5d46-408d-bd2a-f2806fa69d49","system_id":"levelo_inurba_marseille","lat":43.28412,"lon":5.34975,"is_reserved":false,"is_disabled":false,"rental_uris":{"android":"levelo://app?vid=232d933a-5d46-408d-bd2a-f2806fa69d49","ios":"levelo://app?vid=232d933a-5d46-408d-bd2a-f2806fa69d49"},"vehicle_type_id":"4","last_reported":1747830008,"current_range_meters":11200,"station_id":"ce4bhbh2rcd13ifvqepg","pricing_plan_id":"cebpf4jnsgd1na2vs0mg"},{"bike_id":"bd352f34-b030-4a16-8e89-90f665a92dd9","system_id":"levelo_inurba_marseille","lat":43.28426,"lon":5.34983,"is_reserved":false,"is_disabled":false,"rental_uris":{"android":"levelo://app?vid=bd352f34-b030-4a16-8e89-90f665a92dd9","ios":"levelo://app?vid=bd352f34-b030-4a16-8e89-90f665a92dd9"},"vehicle_type_id":"4","last_reported":1747830008,"current_range_meters":11200,"station_id":"ce4bhbh2rcd13ifvqepg","pricing_plan_id":"cebpf4jnsgd1na2vs0mg"},{"bike_id":"229fe435-b444-4483-8973-1e2849db9b24","system_id":"levelo_inurba_marseille","lat":43.28272,"lon":5.35063,"is_reserved":false,"is_disabled":false,"rental_uris":{"android":"levelo://app?vid=229fe435-b444-4483-8973-1e2849db9b24","ios":"levelo://app?vid=229fe435-b444-4483-8973-1e2849db9b24"},"vehicle_type_id":"4","last_reported":1747830008,"current_range_meters":11200,"station_id":"ce4bhbp2rcd13ifvqerg","pricing_plan_id":"cebpf4jnsgd1na2vs0mg"},{"bike_id":"7752cba4-3205-474a-82f7-119286c114ed","system_id":"levelo_inurba_marseille","lat":43.2655,"lon":5.37279,"is_reserved":false,"is_disabled":false,"rental_uris":{"android":"levelo://app?vid=7752cba4-3205-474a-82f7-119286c114ed","ios":"levelo://app?vid=7752cba4-3205-474a-82f7-119286c114ed"},"vehicle_type_id":"4","last_reported":1747830008,"current_range_meters":11200,"station_id":"ce4bhg12rcd13ifvqf70","pricing_plan_id":"cebpf4jnsgd1na2vs0mg"},{"bike_id":"2c44cda2-9c3b-40e2-9d58-e49cffc27833","system_id":"levelo_inurba_marseille","lat":43.24666,"lon":5.38173,"is_reserved":false,"is_disabled":false,"rental_uris":{"android":"levelo://app?vid=2c44cda2-9c3b-40e2-9d58-e49cffc27833","ios":"levelo://app?vid=2c44cda2-9c3b-40e2-9d58-e49cffc27833"},"vehicle_type_id":"4","last_reported":1747830008,"current_range_meters":11200,"station_id":"ce4bhih2rcd13ifvqfr0","pricing_plan_id":"cebpf4jnsgd1na2vs0mg"},{"bike_id":"33737770-98ce-40e9-a6a3-88e3b9a6ca7f","system_id":"levelo_inurba_marseille","lat":43.25936,"lon":5.40909,"is_reserved":false,"is_disabled":false,"rental_uris":{"android":"levelo://app?vid=33737770-98ce-40e9-a6a3-88e3b9a6ca7f","ios":"levelo://app?vid=33737770-98ce-40e9-a6a3-88e3b9a6ca7f"},"vehicle_type_id":"4","last_reported":1747830008,"current_range_meters":11200,"station_id":"ce4bhm92rcd13ifvqglg","pricing_plan_id":"cebpf4jnsgd1na2vs0mg"},{"bike_id":"d3794132-a70f-416f-8f79-15d73a23ca4b","system_id":"levelo_inurba_marseille","lat":43.24642,"lon":5.389,"is_reserved":false,"is_disabled":false,"rental_uris":{"android":"levelo://app?vid=d3794132-a70f-416f-8f79-15d73a23ca4b","ios":"levelo://app?vid=d3794132-a70f-416f-8f79-15d73a23ca4b"},"vehicle_type_id":"4","last_reported":1747830008,"current_range_meters":11600,"station_id":"ce4bhg12rcd13ifvqf60","pricing_plan_id":"cebpf4jnsgd1na2vs0mg"},{"bike_id":"3712461b-e0ad-49ef-a8fe-58f841cef756","system_id":"levelo_inurba_marseille","lat":43.27069,"lon":5.42278,"is_reserved":false,"is_disabled":false,"rental_uris":{"android":"levelo://app?vid=3712461b-e0ad-49ef-a8fe-58f841cef756","ios":"levelo://app?vid=3712461b-e0ad-49ef-a8fe-58f841cef756"},"vehicle_type_id":"4","last_reported":1747830008,"current_range_meters":11600,"station_id":"ce4bhk92rcd13ifvqgb0","pricing_plan_id":"cebpf4jnsgd1na2vs0mg"},{"bike_id":"6912307a-b4d5-42d8-b865-d9e0e18ad5d5","system_id":"levelo_inurba_marseille","lat":43.24568,"lon":5.39532,"is_reserved":false,"is_disabled":false,"rental_uris":{"android":"levelo://app?vid=6912307a-b4d5-42d8-b865-d9e0e18ad5d5","ios":"levelo://app?vid=6912307a-b4d5-42d8-b865-d9e0e18ad5d5"},"vehicle_type_id":"4","last_reported":1747830008,"current_range_meters":11600,"station_id":"ce4bhlp2rcd13ifvqgjg","pricing_plan_id":"cebpf4jnsgd1na2vs0mg"},{"bike_id":"3b782a7a-d3ce-416d-9295-3db8a5ce71e1","system_id":"levelo_inurba_marseille","lat":43.23149,"lon":5.4371,"is_reserved":false,"is_disabled":false,"rental_uris":{"android":"levelo://app?vid=3b782a7a-d3ce-416d-9295-3db8a5ce71e1","ios":"levelo://app?vid=3b782a7a-d3ce-416d-9295-3db8a5ce71e1"},"vehicle_type_id":"4","last_reported":1747830008,"current_range_meters":11600,"station_id":"ce4bhmp2rcd13ifvqgog","pricing_plan_id":"cebpf4jnsgd1na2vs0mg"},{"bike_id":"10f82511-78f9-4537-a4e3-3c8c0ce14ef4","system_id":"levelo_inurba_marseille","lat":43.32483,"lon":5.36558,"is_reserved":false,"is_disabled":false,"rental_uris":{"android":"levelo://app?vid=10f82511-78f9-4537-a4e3-3c8c0ce14ef4","ios":"levelo://app?vid=10f82511-78f9-4537-a4e3-3c8c0ce14ef4"},"vehicle_type_id":"4","last_reported":1747830008,"current_range_meters":11600,"station_id":"ce4bhs12rcd13ifvqhvg","pricing_plan_id":"cebpf4jnsgd1na2vs0mg"},{"bike_id":"1a340bac-8012-4c7c-b50a-247d19f083a9","system_id":"levelo_inurba_marseille","lat":43.224977,"lon":5.34774,"is_reserved":false,"is_disabled":false,"rental_uris":{"android":"levelo://app?vid=1a340bac-8012-4c7c-b50a-247d19f083a9","ios":"levelo://app?vid=1a340bac-8012-4c7c-b50a-247d19f083a9"},"vehicle_type_id":"4","last_reported":1747830008,"current_range_meters":11600,"station_id":"st_cvj5dfep6f1abm77gieg","pricing_plan_id":"cebpf4jnsgd1na2vs0mg"},{"bike_id":"061c9e95-5c99-477b-8463-637a4eca4ac2","system_id":"levelo_inurba_marseille","lat":43.27935,"lon":5.39589,"is_reserved":false,"is_disabled":false,"rental_uris":{"android":"levelo://app?vid=061c9e95-5c99-477b-8463-637a4eca4ac2","ios":"levelo://app?vid=061c9e95-5c99-477b-8463-637a4eca4ac2"},"vehicle_type_id":"4","last_reported":1747830008,"current_range_meters":12000,"station_id":"ce4bhf92rcd13ifvqf40","pricing_plan_id":"cebpf4jnsgd1na2vs0mg"},{"bike_id":"42192e01-f367-4dc7-ac5e-2317e0319d89","system_id":"levelo_inurba_marseille","lat":43.25866,"lon":5.39901,"is_reserved":false,"is_disabled":false,"rental_uris":{"android":"levelo://app?vid=42192e01-f367-4dc7-ac5e-2317e0319d89","ios":"levelo://app?vid=42192e01-f367-4dc7-ac5e-2317e0319d89"},"vehicle_type_id":"4","last_reported":1747830008,"current_range_meters":12000,"station_id":"ce4bhl92rcd13ifvqghg","pricing_plan_id":"cebpf4jnsgd1na2vs0mg"},{"bike_id":"5d55ba09-e499-4e44-b6fc-dd0281889c8c","system_id":"levelo_inurba_marseille","lat":43.25114,"lon":5.4032,"is_reserved":false,"is_disabled":false,"rental_uris":{"android":"levelo://app?vid=5d55ba09-e499-4e44-b6fc-dd0281889c8c","ios":"levelo://app?vid=5d55ba09-e499-4e44-b6fc-dd0281889c8c"},"vehicle_type_id":"4","last_reported":1747830008,"current_range_meters":12000,"station_id":"ce4bhlh2rcd13ifvqgig","pricing_plan_id":"cebpf4jnsgd1na2vs0mg"},{"bike_id":"2f34c329-54fe-438b-a307-b47c6ac8481c","system_id":"levelo_inurba_marseille","lat":43.29902,"lon":5.43666,"is_reserved":false,"is_disabled":false,"rental_uris":{"android":"levelo://app?vid=2f34c329-54fe-438b-a307-b47c6ac8481c","ios":"levelo://app?vid=2f34c329-54fe-438b-a307-b47c6ac8481c"},"vehicle_type_id":"4","last_reported":1747830008,"current_range_meters":12000,"station_id":"ce4bhpp2rcd13ifvqhfg","pricing_plan_id":"cebpf4jnsgd1na2vs0mg"},{"bike_id":"559b35e6-1af9-49a8-a151-99590d48c023","system_id":"levelo_inurba_marseille","lat":43.30897,"lon":5.36841,"is_reserved":false,"is_disabled":false,"rental_uris":{"android":"levelo://app?vid=559b35e6-1af9-49a8-a151-99590d48c023","ios":"levelo://app?vid=559b35e6-1af9-49a8-a151-99590d48c023"},"vehicle_type_id":"4","last_reported":1747830008,"current_range_meters":12400,"station_id":"ce4bgn92rcd13ifvqbvg","pricing_plan_id":"cebpf4jnsgd1na2vs0mg"},{"bike_id":"41d19122-b758-41cb-b236-efb8ba3c0d0f","system_id":"levelo_inurba_marseille","lat":43.28616,"lon":5.35106,"is_reserved":false,"is_disabled":false,"rental_uris":{"android":"levelo://app?vid=41d19122-b758-41cb-b236-efb8ba3c0d0f","ios":"levelo://app?vid=41d19122-b758-41cb-b236-efb8ba3c0d0f"},"vehicle_type_id":"4","last_reported":1747830008,"current_range_meters":12400,"station_id":"ce4bhch2rcd13ifvqeug","pricing_plan_id":"cebpf4jnsgd1na2vs0mg"},{"bike_id":"de9386ca-90e4-4791-ba5c-6d4d3cfc4484","system_id":"levelo_inurba_marseille","lat":43.26682,"lon":5.38274,"is_reserved":false,"is_disabled":false,"rental_uris":{"android":"levelo://app?vid=de9386ca-90e4-4791-ba5c-6d4d3cfc4484","ios":"levelo://app?vid=de9386ca-90e4-4791-ba5c-6d4d3cfc4484"},"vehicle_type_id":"4","last_reported":1747830008,"current_range_meters":12400,"station_id":"ce4bhg92rcd13ifvqf90","pricing_plan_id":"cebpf4jnsgd1na2vs0mg"},{"bike_id":"5129874e-b935-427a-b833-f77610762b6a","system_id":"levelo_inurba_marseille","lat":43.25109,"lon":5.40327,"is_reserved":false,"is_disabled":false,"rental_uris":{"android":"levelo://app?vid=5129874e-b935-427a-b833-f77610762b6a","ios":"levelo://app?vid=5129874e-b935-427a-b833-f77610762b6a"},"vehicle_type_id":"4","last_reported":1747830008,"current_range_meters":12400,"station_id":"ce4bhlh2rcd13ifvqgig","pricing_plan_id":"cebpf4jnsgd1na2vs0mg"},{"bike_id":"120c77ac-e603-404f-94d2-094850d09f86","system_id":"levelo_inurba_marseille","lat":43.25909,"lon":5.40892,"is_reserved":false,"is_disabled":false,"rental_uris":{"android":"levelo://app?vid=120c77ac-e603-404f-94d2-094850d09f86","ios":"levelo://app?vid=120c77ac-e603-404f-94d2-094850d09f86"},"vehicle_type_id":"4","last_reported":1747830008,"current_range_meters":12400,"station_id":"ce4bhm92rcd13ifvqglg","pricing_plan_id":"cebpf4jnsgd1na2vs0mg"},{"bike_id":"0cc58957-c5b7-42c1-abec-33957dbb5986","system_id":"levelo_inurba_marseille","lat":43.29288,"lon":5.37636,"is_reserved":false,"is_disabled":false,"rental_uris":{"android":"levelo://app?vid=0cc58957-c5b7-42c1-abec-33957dbb5986","ios":"levelo://app?vid=0cc58957-c5b7-42c1-abec-33957dbb5986"},"vehicle_type_id":"4","last_reported":1747830008,"current_range_meters":12800,"station_id":"ce4bgi12rcd13ifvqb80","pricing_plan_id":"cebpf4jnsgd1na2vs0mg"},{"bike_id":"0b83d5d9-6273-47e4-bbdc-3bf01570bdb1","system_id":"levelo_inurba_marseille","lat":43.28948,"lon":5.36373,"is_reserved":false,"is_disabled":false,"rental_uris":{"android":"levelo://app?vid=0b83d5d9-6273-47e4-bbdc-3bf01570bdb1","ios":"levelo://app?vid=0b83d5d9-6273-47e4-bbdc-3bf01570bdb1"},"vehicle_type_id":"4","last_reported":1747830008,"current_range_meters":12800,"station_id":"ce4bhc92rcd13ifvqetg","pricing_plan_id":"cebpf4jnsgd1na2vs0mg"},{"bike_id":"f0577ccd-fd54-4319-985b-fceedaaf996b","system_id":"levelo_inurba_marseille","lat":43.2757,"lon":5.38407,"is_reserved":false,"is_disabled":false,"rental_uris":{"android":"levelo://app?vid=f0577ccd-fd54-4319-985b-fceedaaf996b","ios":"levelo://app?vid=f0577ccd-fd54-4319-985b-fceedaaf996b"},"vehicle_type_id":"4","last_reported":1747830008,"current_range_meters":12800,"station_id":"ce4bhh92rcd13ifvqfi0","pricing_plan_id":"cebpf4jnsgd1na2vs0mg"},{"bike_id":"60bd9881-5084-43e2-bd51-bf012147f24a","system_id":"levelo_inurba_marseille","lat":43.27073,"lon":5.42277,"is_reserved":false,"is_disabled":false,"rental_uris":{"android":"levelo://app?vid=60bd9881-5084-43e2-bd51-bf012147f24a","ios":"levelo://app?vid=60bd9881-5084-43e2-bd51-bf012147f24a"},"vehicle_type_id":"4","last_reported":1747830008,"current_range_meters":12800,"station_id":"ce4bhk92rcd13ifvqgb0","pricing_plan_id":"cebpf4jnsgd1na2vs0mg"},{"bike_id":"60fa0d7f-c32b-4a16-8511-a386e85e89f1","system_id":"levelo_inurba_marseille","lat":43.27834,"lon":5.40718,"is_reserved":false,"is_disabled":false,"rental_uris":{"android":"levelo://app?vid=60fa0d7f-c32b-4a16-8511-a386e85e89f1","ios":"levelo://app?vid=60fa0d7f-c32b-4a16-8511-a386e85e89f1"},"vehicle_type_id":"4","last_reported":1747830008,"current_range_meters":12800,"station_id":"ce4bhnh2rcd13ifvqgtg","pricing_plan_id":"cebpf4jnsgd1na2vs0mg"},{"bike_id":"669cf5af-5292-483f-82e8-2ed20bda3b9d","system_id":"levelo_inurba_marseille","lat":43.29895,"lon":5.38903,"is_reserved":false,"is_disabled":false,"rental_uris":{"android":"levelo://app?vid=669cf5af-5292-483f-82e8-2ed20bda3b9d","ios":"levelo://app?vid=669cf5af-5292-483f-82e8-2ed20bda3b9d"},"vehicle_type_id":"4","last_reported":1747830008,"current_range_meters":13600,"station_id":"ce4bh392rcd13ifvqdl0","pricing_plan_id":"cebpf4jnsgd1na2vs0mg"},{"bike_id":"b4c9e3c7-b720-4d7e-a325-b00c13b029f5","system_id":"levelo_inurba_marseille","lat":43.27579,"lon":5.38395,"is_reserved":false,"is_disabled":false,"rental_uris":{"android":"levelo://app?vid=b4c9e3c7-b720-4d7e-a325-b00c13b029f5","ios":"levelo://app?vid=b4c9e3c7-b720-4d7e-a325-b00c13b029f5"},"vehicle_type_id":"4","last_reported":1747830008,"current_range_meters":13600,"station_id":"ce4bhh92rcd13ifvqfi0","pricing_plan_id":"cebpf4jnsgd1na2vs0mg"},{"bike_id":"73ce1992-d387-48d4-a3bf-f1e2869a2b1f","system_id":"levelo_inurba_marseille","lat":43.27493,"lon":5.42453,"is_reserved":false,"is_disabled":false,"rental_uris":{"android":"levelo://app?vid=73ce1992-d387-48d4-a3bf-f1e2869a2b1f","ios":"levelo://app?vid=73ce1992-d387-48d4-a3bf-f1e2869a2b1f"},"vehicle_type_id":"4","last_reported":1747830008,"current_range_meters":13600,"station_id":"ce4bhn92rcd13ifvqgrg","pricing_plan_id":"cebpf4jnsgd1na2vs0mg"},{"bike_id":"a8aa9098-3096-4ef5-8a93-f4b4af914161","system_id":"levelo_inurba_marseille","lat":43.26942,"lon":5.40245,"is_reserved":false,"is_disabled":false,"rental_uris":{"android":"levelo://app?vid=a8aa9098-3096-4ef5-8a93-f4b4af914161","ios":"levelo://app?vid=a8aa9098-3096-4ef5-8a93-f4b4af914161"},"vehicle_type_id":"4","last_reported":1747830008,"current_range_meters":13600,"station_id":"cjm6bp8fraef2m0cb0m0","pricing_plan_id":"cebpf4jnsgd1na2vs0mg"},{"bike_id":"824a86f4-99ca-47bd-ae65-1ed008ec6a72","system_id":"levelo_inurba_marseille","lat":43.28729,"lon":5.35213,"is_reserved":false,"is_disabled":false,"rental_uris":{"android":"levelo://app?vid=824a86f4-99ca-47bd-ae65-1ed008ec6a72","ios":"levelo://app?vid=824a86f4-99ca-47bd-ae65-1ed008ec6a72"},"vehicle_type_id":"4","last_reported":1747830008,"current_range_meters":14000,"station_id":"","pricing_plan_id":"cebpf4jnsgd1na2vs0mg"},{"bike_id":"6faa3d0b-70dd-436a-83f0-e6c2087c49c6","system_id":"levelo_inurba_marseille","lat":43.29621,"lon":5.3772,"is_reserved":false,"is_disabled":false,"rental_uris":{"android":"levelo://app?vid=6faa3d0b-70dd-436a-83f0-e6c2087c49c6","ios":"levelo://app?vid=6faa3d0b-70dd-436a-83f0-e6c2087c49c6"},"vehicle_type_id":"4","last_reported":1747830008,"current_range_meters":14000,"station_id":"ce4bgi92rcd13ifvqb90","pricing_plan_id":"cebpf4jnsgd1na2vs0mg"},{"bike_id":"720c19e8-e62b-48b9-8494-c3683cde55b5","system_id":"levelo_inurba_marseille","lat":43.24546,"lon":5.39524,"is_reserved":false,"is_disabled":false,"rental_uris":{"android":"levelo://app?vid=720c19e8-e62b-48b9-8494-c3683cde55b5","ios":"levelo://app?vid=720c19e8-e62b-48b9-8494-c3683cde55b5"},"vehicle_type_id":"4","last_reported":1747830008,"current_range_meters":14000,"station_id":"ce4bhlp2rcd13ifvqgjg","pricing_plan_id":"cebpf4jnsgd1na2vs0mg"},{"bike_id":"e2cb30a3-06d3-4a8d-8bb5-0556ae31c6ff","system_id":"levelo_inurba_marseille","lat":43.24544,"lon":5.39519,"is_reserved":false,"is_disabled":false,"rental_uris":{"android":"levelo://app?vid=e2cb30a3-06d3-4a8d-8bb5-0556ae31c6ff","ios":"levelo://app?vid=e2cb30a3-06d3-4a8d-8bb5-0556ae31c6ff"},"vehicle_type_id":"4","last_reported":1747830008,"current_range_meters":14000,"station_id":"ce4bhlp2rcd13ifvqgjg","pricing_plan_id":"cebpf4jnsgd1na2vs0mg"},{"bike_id":"9ab9a453-c610-4ee6-bfe9-c53b25fc7671","system_id":"levelo_inurba_marseille","lat":43.26673,"lon":5.39564,"is_reserved":false,"is_disabled":false,"rental_uris":{"android":"levelo://app?vid=9ab9a453-c610-4ee6-bfe9-c53b25fc7671","ios":"levelo://app?vid=9ab9a453-c610-4ee6-bfe9-c53b25fc7671"},"vehicle_type_id":"4","last_reported":1747830008,"current_range_meters":14400,"station_id":"","pricing_plan_id":"cebpf4jnsgd1na2vs0mg"},{"bike_id":"f9fb40c0-1fcd-48cb-8e26-3f2dc0fb2451","system_id":"levelo_inurba_marseille","lat":43.33751,"lon":5.37509,"is_reserved":false,"is_disabled":false,"rental_uris":{"android":"levelo://app?vid=f9fb40c0-1fcd-48cb-8e26-3f2dc0fb2451","ios":"levelo://app?vid=f9fb40c0-1fcd-48cb-8e26-3f2dc0fb2451"},"vehicle_type_id":"4","last_reported":1747830008,"current_range_meters":14400,"station_id":"","pricing_plan_id":"cebpf4jnsgd1na2vs0mg"},{"bike_id":"3c0300aa-3669-4f50-ae12-06c5f9beef96","system_id":"levelo_inurba_marseille","lat":43.25859,"lon":5.39903,"is_reserved":false,"is_disabled":false,"rental_uris":{"android":"levelo://app?vid=3c0300aa-3669-4f50-ae12-06c5f9beef96","ios":"levelo://app?vid=3c0300aa-3669-4f50-ae12-06c5f9beef96"},"vehicle_type_id":"4","last_reported":1747830008,"current_range_meters":14400,"station_id":"ce4bhl92rcd13ifvqghg","pricing_plan_id":"cebpf4jnsgd1na2vs0mg"},{"bike_id":"f693b179-d4c4-4ee0-8a73-552a9c1888ff","system_id":"levelo_inurba_marseille","lat":43.25917,"lon":5.40892,"is_reserved":false,"is_disabled":false,"rental_uris":{"android":"levelo://app?vid=f693b179-d4c4-4ee0-8a73-552a9c1888ff","ios":"levelo://app?vid=f693b179-d4c4-4ee0-8a73-552a9c1888ff"},"vehicle_type_id":"4","last_reported":1747830008,"current_range_meters":14400,"station_id":"ce4bhm92rcd13ifvqglg","pricing_plan_id":"cebpf4jnsgd1na2vs0mg"},{"bike_id":"1c1345fe-714e-4c02-b2b9-a549c7b5fb19","system_id":"levelo_inurba_marseille","lat":43.3249,"lon":5.36553,"is_reserved":false,"is_disabled":false,"rental_uris":{"android":"levelo://app?vid=1c1345fe-714e-4c02-b2b9-a549c7b5fb19","ios":"levelo://app?vid=1c1345fe-714e-4c02-b2b9-a549c7b5fb19"},"vehicle_type_id":"4","last_reported":1747830008,"current_range_meters":14400,"station_id":"ce4bhs12rcd13ifvqhvg","pricing_plan_id":"cebpf4jnsgd1na2vs0mg"},{"bike_id":"5f8cd7d8-7773-4a08-80b6-bd940d2369f4","system_id":"levelo_inurba_marseille","lat":43.28224,"lon":5.39055,"is_reserved":false,"is_disabled":false,"rental_uris":{"android":"levelo://app?vid=5f8cd7d8-7773-4a08-80b6-bd940d2369f4","ios":"levelo://app?vid=5f8cd7d8-7773-4a08-80b6-bd940d2369f4"},"vehicle_type_id":"4","last_reported":1747830008,"current_range_meters":14800,"station_id":"","pricing_plan_id":"cebpf4jnsgd1na2vs0mg"},{"bike_id":"87fc21bf-d497-442b-ac08-f0fe66da3e84","system_id":"levelo_inurba_marseille","lat":43.22502,"lon":5.34782,"is_reserved":false,"is_disabled":false,"rental_uris":{"android":"levelo://app?vid=87fc21bf-d497-442b-ac08-f0fe66da3e84","ios":"levelo://app?vid=87fc21bf-d497-442b-ac08-f0fe66da3e84"},"vehicle_type_id":"4","last_reported":1747830008,"current_range_meters":14800,"station_id":"","pricing_plan_id":"cebpf4jnsgd1na2vs0mg"},{"bike_id":"1c6b2cc5-0117-4eb4-91c7-bd68d0b2ec05","system_id":"levelo_inurba_marseille","lat":43.31295,"lon":5.36719,"is_reserved":false,"is_disabled":false,"rental_uris":{"android":"levelo://app?vid=1c6b2cc5-0117-4eb4-91c7-bd68d0b2ec05","ios":"levelo://app?vid=1c6b2cc5-0117-4eb4-91c7-bd68d0b2ec05"},"vehicle_type_id":"4","last_reported":1747830008,"current_range_meters":14800,"station_id":"ce4bgr92rcd13ifvqc6g","pricing_plan_id":"cebpf4jnsgd1na2vs0mg"},{"bike_id":"8cccf100-8c1b-4cf4-b5c2-18dee93664de","system_id":"levelo_inurba_marseille","lat":43.23193,"lon":5.3555,"is_reserved":false,"is_disabled":false,"rental_uris":{"android":"levelo://app?vid=8cccf100-8c1b-4cf4-b5c2-18dee93664de","ios":"levelo://app?vid=8cccf100-8c1b-4cf4-b5c2-18dee93664de"},"vehicle_type_id":"4","last_reported":1747830008,"current_range_meters":14800,"station_id":"ce4bhu92rcd13ifvqi70","pricing_plan_id":"cebpf4jnsgd1na2vs0mg"},{"bike_id":"5353a39c-ff3f-4bc7-ad80-f9910794d606","system_id":"levelo_inurba_marseille","lat":43.30546,"lon":5.36693,"is_reserved":false,"is_disabled":false,"rental_uris":{"android":"levelo://app?vid=5353a39c-ff3f-4bc7-ad80-f9910794d606","ios":"levelo://app?vid=5353a39c-ff3f-4bc7-ad80-f9910794d606"},"vehicle_type_id":"4","last_reported":1747830008,"current_range_meters":15200,"station_id":"ce4bgrp2rcd13ifvqc9g","pricing_plan_id":"cebpf4jnsgd1na2vs0mg"},{"bike_id":"3e6e5891-fa97-4b0b-b272-7dfe7cd1bc36","system_id":"levelo_inurba_marseille","lat":43.2862,"lon":5.35102,"is_reserved":false,"is_disabled":false,"rental_uris":{"android":"levelo://app?vid=3e6e5891-fa97-4b0b-b272-7dfe7cd1bc36","ios":"levelo://app?vid=3e6e5891-fa97-4b0b-b272-7dfe7cd1bc36"},"vehicle_type_id":"4","last_reported":1747830008,"current_range_meters":15200,"station_id":"ce4bhch2rcd13ifvqeug","pricing_plan_id":"cebpf4jnsgd1na2vs0mg"},{"bike_id":"dbd701ce-b74f-4507-88cf-7d2b64f801da","system_id":"levelo_inurba_marseille","lat":43.259326,"lon":5.408995,"is_reserved":false,"is_disabled":false,"rental_uris":{"android":"levelo://app?vid=dbd701ce-b74f-4507-88cf-7d2b64f801da","ios":"levelo://app?vid=dbd701ce-b74f-4507-88cf-7d2b64f801da"},"vehicle_type_id":"4","last_reported":1747830008,"current_range_meters":15200,"station_id":"ce4bhm92rcd13ifvqglg","pricing_plan_id":"cebpf4jnsgd1na2vs0mg"},{"bike_id":"30b5fdc2-95f3-4609-a725-1262c77633d5","system_id":"levelo_inurba_marseille","lat":43.31722,"lon":5.42401,"is_reserved":false,"is_disabled":false,"rental_uris":{"android":"levelo://app?vid=30b5fdc2-95f3-4609-a725-1262c77633d5","ios":"levelo://app?vid=30b5fdc2-95f3-4609-a725-1262c77633d5"},"vehicle_type_id":"4","last_reported":1747830008,"current_range_meters":15200,"station_id":"ce4bhp92rcd13ifvqhbg","pricing_plan_id":"cebpf4jnsgd1na2vs0mg"},{"bike_id":"0552706d-7ee7-4fee-97ae-ee5ed92102cb","system_id":"levelo_inurba_marseille","lat":43.335904,"lon":5.409731,"is_reserved":false,"is_disabled":false,"rental_uris":{"android":"levelo://app?vid=0552706d-7ee7-4fee-97ae-ee5ed92102cb","ios":"levelo://app?vid=0552706d-7ee7-4fee-97ae-ee5ed92102cb"},"vehicle_type_id":"4","last_reported":1747830008,"current_range_meters":16000,"station_id":"","pricing_plan_id":"cebpf4jnsgd1na2vs0mg"},{"bike_id":"d32f3042-a34d-4b47-a48a-9c3bd2223417","system_id":"levelo_inurba_marseille","lat":43.26554,"lon":5.37283,"is_reserved":false,"is_disabled":false,"rental_uris":{"android":"levelo://app?vid=d32f3042-a34d-4b47-a48a-9c3bd2223417","ios":"levelo://app?vid=d32f3042-a34d-4b47-a48a-9c3bd2223417"},"vehicle_type_id":"4","last_reported":1747830008,"current_range_meters":16000,"station_id":"ce4bhg12rcd13ifvqf70","pricing_plan_id":"cebpf4jnsgd1na2vs0mg"},{"bike_id":"e18750f4-a913-489f-bb11-e38694a807fb","system_id":"levelo_inurba_marseille","lat":43.25906,"lon":5.40895,"is_reserved":false,"is_disabled":false,"rental_uris":{"android":"levelo://app?vid=e18750f4-a913-489f-bb11-e38694a807fb","ios":"levelo://app?vid=e18750f4-a913-489f-bb11-e38694a807fb"},"vehicle_type_id":"4","last_reported":1747830008,"current_range_meters":16000,"station_id":"ce4bhm92rcd13ifvqglg","pricing_plan_id":"cebpf4jnsgd1na2vs0mg"},{"bike_id":"367001af-20e0-499c-b98c-752a74b4fbcf","system_id":"levelo_inurba_marseille","lat":43.23149,"lon":5.43706,"is_reserved":false,"is_disabled":false,"rental_uris":{"android":"levelo://app?vid=367001af-20e0-499c-b98c-752a74b4fbcf","ios":"levelo://app?vid=367001af-20e0-499c-b98c-752a74b4fbcf"},"vehicle_type_id":"4","last_reported":1747830008,"current_range_meters":16000,"station_id":"ce4bhmp2rcd13ifvqgog","pricing_plan_id":"cebpf4jnsgd1na2vs0mg"},{"bike_id":"cab1bc3a-d133-45d1-b5e2-49215a305917","system_id":"levelo_inurba_marseille","lat":43.23186,"lon":5.39978,"is_reserved":false,"is_disabled":false,"rental_uris":{"android":"levelo://app?vid=cab1bc3a-d133-45d1-b5e2-49215a305917","ios":"levelo://app?vid=cab1bc3a-d133-45d1-b5e2-49215a305917"},"vehicle_type_id":"4","last_reported":1747830008,"current_range_meters":16000,"station_id":"ce4bhn12rcd13ifvqgqg","pricing_plan_id":"cebpf4jnsgd1na2vs0mg"},{"bike_id":"1a091a66-2e68-4ded-9fc5-3d6f9e9f6f62","system_id":"levelo_inurba_marseille","lat":43.32119,"lon":5.36762,"is_reserved":false,"is_disabled":false,"rental_uris":{"android":"levelo://app?vid=1a091a66-2e68-4ded-9fc5-3d6f9e9f6f62","ios":"levelo://app?vid=1a091a66-2e68-4ded-9fc5-3d6f9e9f6f62"},"vehicle_type_id":"4","last_reported":1747830008,"current_range_meters":16000,"station_id":"ce4bhrh2rcd13ifvqhug","pricing_plan_id":"cebpf4jnsgd1na2vs0mg"},{"bike_id":"c9a00e74-029a-454e-8e85-1b3d994b9d78","system_id":"levelo_inurba_marseille","lat":43.21191,"lon":5.35075,"is_reserved":false,"is_disabled":false,"rental_uris":{"android":"levelo://app?vid=c9a00e74-029a-454e-8e85-1b3d994b9d78","ios":"levelo://app?vid=c9a00e74-029a-454e-8e85-1b3d994b9d78"},"vehicle_type_id":"4","last_reported":1747830008,"current_range_meters":16000,"station_id":"st_cvj6sg6p6f1abm77japg","pricing_plan_id":"cebpf4jnsgd1na2vs0mg"},{"bike_id":"98e6b04e-048b-411e-914a-7cf74ae76ef4","system_id":"levelo_inurba_marseille","lat":43.30755,"lon":5.36804,"is_reserved":false,"is_disabled":false,"rental_uris":{"android":"levelo://app?vid=98e6b04e-048b-411e-914a-7cf74ae76ef4","ios":"levelo://app?vid=98e6b04e-048b-411e-914a-7cf74ae76ef4"},"vehicle_type_id":"4","last_reported":1747830008,"current_range_meters":16400,"station_id":"","pricing_plan_id":"cebpf4jnsgd1na2vs0mg"},{"bike_id":"87987afe-4534-47e9-920e-2df9e4427a38","system_id":"levelo_inurba_marseille","lat":43.30544,"lon":5.3652,"is_reserved":false,"is_disabled":false,"rental_uris":{"android":"levelo://app?vid=87987afe-4534-47e9-920e-2df9e4427a38","ios":"levelo://app?vid=87987afe-4534-47e9-920e-2df9e4427a38"},"vehicle_type_id":"4","last_reported":1747830008,"current_range_meters":16400,"station_id":"ce4bgs12rcd13ifvqcag","pricing_plan_id":"cebpf4jnsgd1na2vs0mg"},{"bike_id":"b646ecc1-ff10-4a7f-88cd-c9403d9d5836","system_id":"levelo_inurba_marseille","lat":43.30951,"lon":5.39034,"is_reserved":false,"is_disabled":false,"rental_uris":{"android":"levelo://app?vid=b646ecc1-ff10-4a7f-88cd-c9403d9d5836","ios":"levelo://app?vid=b646ecc1-ff10-4a7f-88cd-c9403d9d5836"},"vehicle_type_id":"4","last_reported":1747830008,"current_range_meters":16400,"station_id":"ce4bgup2rcd13ifvqco0","pricing_plan_id":"cebpf4jnsgd1na2vs0mg"},{"bike_id":"4acf0f29-8bf6-4926-b62f-78fced93ff1f","system_id":"levelo_inurba_marseille","lat":43.28636,"lon":5.35005,"is_reserved":false,"is_disabled":false,"rental_uris":{"android":"levelo://app?vid=4acf0f29-8bf6-4926-b62f-78fced93ff1f","ios":"levelo://app?vid=4acf0f29-8bf6-4926-b62f-78fced93ff1f"},"vehicle_type_id":"4","last_reported":1747830008,"current_range_meters":16400,"station_id":"ce4bhch2rcd13ifvqeug","pricing_plan_id":"cebpf4jnsgd1na2vs0mg"},{"bike_id":"e3120b8b-8871-4a05-b522-497a98c26691","system_id":"levelo_inurba_marseille","lat":43.25866,"lon":5.39883,"is_reserved":false,"is_disabled":false,"rental_uris":{"android":"levelo://app?vid=e3120b8b-8871-4a05-b522-497a98c26691","ios":"levelo://app?vid=e3120b8b-8871-4a05-b522-497a98c26691"},"vehicle_type_id":"4","last_reported":1747830008,"current_range_meters":16400,"station_id":"ce4bhl92rcd13ifvqghg","pricing_plan_id":"cebpf4jnsgd1na2vs0mg"},{"bike_id":"84241822-4119-441e-8b41-fdbdc1d61646","system_id":"levelo_inurba_marseille","lat":43.24522,"lon":5.39541,"is_reserved":false,"is_disabled":false,"rental_uris":{"android":"levelo://app?vid=84241822-4119-441e-8b41-fdbdc1d61646","ios":"levelo://app?vid=84241822-4119-441e-8b41-fdbdc1d61646"},"vehicle_type_id":"4","last_reported":1747830008,"current_range_meters":16400,"station_id":"ce4bhlp2rcd13ifvqgjg","pricing_plan_id":"cebpf4jnsgd1na2vs0mg"},{"bike_id":"bb9d1657-8e4a-4f4c-8831-535fd69de822","system_id":"levelo_inurba_marseille","lat":43.27828,"lon":5.40723,"is_reserved":false,"is_disabled":false,"rental_uris":{"android":"levelo://app?vid=bb9d1657-8e4a-4f4c-8831-535fd69de822","ios":"levelo://app?vid=bb9d1657-8e4a-4f4c-8831-535fd69de822"},"vehicle_type_id":"4","last_reported":1747830008,"current_range_meters":16400,"station_id":"ce4bhnh2rcd13ifvqgtg","pricing_plan_id":"cebpf4jnsgd1na2vs0mg"},{"bike_id":"46838dcc-bfcd-47f7-9e26-97ebaf4848eb","system_id":"levelo_inurba_marseille","lat":43.21187,"lon":5.35073,"is_reserved":false,"is_disabled":false,"rental_uris":{"android":"levelo://app?vid=46838dcc-bfcd-47f7-9e26-97ebaf4848eb","ios":"levelo://app?vid=46838dcc-bfcd-47f7-9e26-97ebaf4848eb"},"vehicle_type_id":"4","last_reported":1747830008,"current_range_meters":16400,"station_id":"st_cvj6sg6p6f1abm77japg","pricing_plan_id":"cebpf4jnsgd1na2vs0mg"},{"bike_id":"e2f3b8b2-8d6e-404c-a522-8288897696b6","system_id":"levelo_inurba_marseille","lat":43.30785,"lon":5.36842,"is_reserved":false,"is_disabled":false,"rental_uris":{"android":"levelo://app?vid=e2f3b8b2-8d6e-404c-a522-8288897696b6","ios":"levelo://app?vid=e2f3b8b2-8d6e-404c-a522-8288897696b6"},"vehicle_type_id":"4","last_reported":1747830008,"current_range_meters":16800,"station_id":"","pricing_plan_id":"cebpf4jnsgd1na2vs0mg"},{"bike_id":"83cd6607-711c-414a-aea5-43bb77366d7a","system_id":"levelo_inurba_marseille","lat":43.30152,"lon":5.381,"is_reserved":false,"is_disabled":false,"rental_uris":{"android":"levelo://app?vid=83cd6607-711c-414a-aea5-43bb77366d7a","ios":"levelo://app?vid=83cd6607-711c-414a-aea5-43bb77366d7a"},"vehicle_type_id":"4","last_reported":1747830008,"current_range_meters":16800,"station_id":"ce4bgjp2rcd13ifvqbh0","pricing_plan_id":"cebpf4jnsgd1na2vs0mg"},{"bike_id":"0c09f33a-e223-44c4-ad4d-ba36457d0978","system_id":"levelo_inurba_marseille","lat":43.29703,"lon":5.37697,"is_reserved":false,"is_disabled":false,"rental_uris":{"android":"levelo://app?vid=0c09f33a-e223-44c4-ad4d-ba36457d0978","ios":"levelo://app?vid=0c09f33a-e223-44c4-ad4d-ba36457d0978"},"vehicle_type_id":"4","last_reported":1747830008,"current_range_meters":16800,"station_id":"ce4bgkh2rcd13ifvqbl0","pricing_plan_id":"cebpf4jnsgd1na2vs0mg"},{"bike_id":"c339e758-fb9c-41f6-8219-8747cdbe2320","system_id":"levelo_inurba_marseille","lat":43.30558,"lon":5.36535,"is_reserved":false,"is_disabled":false,"rental_uris":{"android":"levelo://app?vid=c339e758-fb9c-41f6-8219-8747cdbe2320","ios":"levelo://app?vid=c339e758-fb9c-41f6-8219-8747cdbe2320"},"vehicle_type_id":"4","last_reported":1747830008,"current_range_meters":16800,"station_id":"ce4bgs12rcd13ifvqcag","pricing_plan_id":"cebpf4jnsgd1na2vs0mg"},{"bike_id":"3f52792c-27a7-4b6b-a35c-839785bd77b2","system_id":"levelo_inurba_marseille","lat":43.30267,"lon":5.37718,"is_reserved":false,"is_disabled":false,"rental_uris":{"android":"levelo://app?vid=3f52792c-27a7-4b6b-a35c-839785bd77b2","ios":"levelo://app?vid=3f52792c-27a7-4b6b-a35c-839785bd77b2"},