{"last_updated":1689707142,"ttl":30,"version":"2.2","data":{"bikes":[{"bike_id":"b65e9fb1-761d-45f8-a43e-c25bf0fa119a","system_id":"levelo_inurba_marseille","lat":43.31308,"lon":5.3713,"is_reserved":false,"is_disabled":false,"rental_uris":{"android":"levelo://app?vid=b65e9fb1-761d-45f8-a43e-c25bf0fa119a","ios":"levelo://app?vid=b65e9fb1-761d-45f8-a43e-c25bf0fa119a"},"vehicle_type_id":"4","last_reported":1689707142,"current_range_meters":27200,"station_id":"","pricing_plan_id":"free"},{"bike_id":"c17c2dad-4391-4c0b-b97b-44133b0beb01","system_id":"levelo_inurba_marseille","lat":43.314811,"lon":5.373103,"is_reserved":false,"is_disabled":false,"rental_uris":{"android":"levelo://app?vid=c17c2dad-4391-4c0b-b97b-44133b0beb01","ios":"levelo://app?vid=c17c2dad-4391-4c0b-b97b-44133b0beb01"},"vehicle_type_id":"4","last_reported":1689707142,"current_range_meters":30800,"station_id":"ce4bgt12rcd13ifvqcd0","pricing_plan_id":"free"},{"bike_id":"0cdc183f-5029-4a2e-83dd-2f6864e2aae4","system_id":"levelo_inurba_marseille","lat":43.314811,"lon":5.373103,"is_reserved":false,"is_disabled":false,"rental_uris":{"android":"levelo://app?vid=0cdc183f-5029-4a2e-83dd-2f6864e2aae4","ios":"levelo://app?vid=0cdc183f-5029-4a2e-83dd-2f6864e2aae4"},"vehicle_type_id":"4","last_reported":1689707142,"current_range_meters":27200,"station_id":"ce4bgt12rcd13ifvqcd0","pricing_plan_id":"free"},{"bike_id":"9ebfdadf-eebb-4934-973d-55963c25c762","system_id":"levelo_inurba_marseille","lat":43.314811,"lon":5.373103,"is_reserved":false,"is_disabled":false,"rental_uris":{"android":"levelo://app?vid=9ebfdadf-eebb-4934-973d-55963c25c762","ios":"levelo://app?vid=9ebfdadf-eebb-4934-973d-55963c25c762"},"vehicle_type_id":"4","last_reported":1689707142,"current_range_meters":30400,"station_id":"ce4bgt12rcd13ifvqcd0","pricing_plan_id":"free"},{"bike_id":"bca2025b-2355-4751-ad58-1d721d3d0b04","system_id":"levelo_inurba_marseille","lat":43.314811,"lon":5.373104,"is_reserved":false,"is_disabled":false,"rental_uris":{"android":"levelo://app?vid=bca2025b-2355-4751-ad58-1d721d3d0b04","ios":"levelo://app?vid=bca2025b-2355-4751-ad58-1d721d3d0b04"},"vehicle_type_id":"4","last_reported":1689707142,"current_range_meters":13200,"station_id":"ce4bgt12rcd13ifvqcd0","pricing_plan_id":"free"},{"bike_id":"fbcb7226-bb63-43d6-91f9-7b6b1a70fe4d","system_id":"levelo_inurba_marseille","lat":43.31496,"lon":5.37307,"is_reserved":false,"is_disabled":false,"rental_uris":{"android":"levelo://app?vid=fbcb7226-bb63-43d6-91f9-7b6b1a70fe4d","ios":"levelo://app?vid=fbcb7226-bb63-43d6-91f9-7b6b1a70fe4d"},"vehicle_type_id":"4","last_reported":1689707142,"current_range_meters":800,"station_id":"ce4bgt12rcd13ifvqcd0","pricing_plan_id":"free"},{"bike_id":"f508272a-ab00-434e-841c-4959d5643898","system_id":"levelo_inurba_marseille","lat":43.31673,"lon":5.37311,"is_reserved":false,"is_disabled":false,"rental_uris":{"android":"levelo://app?vid=f508272a-ab00-434e-841c-4959d5643898","ios":"levelo://app?vid=f508272a-ab00-434e-841c-4959d5643898"},"vehicle_type_id":"4","last_reported":1689707142,"current_range_meters":25600,"station_id":"","pricing_plan_id":"free"},{"bike_id":"d5452eac-45ec-41ca-8734-58f25f4b1789","system_id":"levelo_inurba_marseille","lat":43.31294,"lon":5.37689,"is_reserved":false,"is_disabled":false,"rental_uris":{"android":"levelo://app?vid=d5452eac-45ec-41ca-8734-58f25f4b1789","ios":"levelo://app?vid=d5452eac-45ec-41ca-8734-58f25f4b1789"},"vehicle_type_id":"4","last_reported":1689707142,"current_range_meters":29600,"station_id":"","pricing_plan_id":"free"},{"bike_id":"6017ac1d-3f36-485f-ac3a-db83defd6594","system_id":"levelo_inurba_marseille","lat":43.305714,"lon":5.365633,"is_reserved":false,"is_disabled":false,"rental_uris":{"android":"levelo://app?vid=6017ac1d-3f36-485f-ac3a-db83defd6594","ios":"levelo://app?vid=6017ac1d-3f36-485f-ac3a-db83defd6594"},"vehicle_type_id":"4","last_reported":1689707142,"current_range_meters":3600,"station_id":"ce4bgs12rcd13ifvqcag","pricing_plan_id":"free"},{"bike_id":"a2e136f1-c728-4018-88c2-a46aa30aa3c2","system_id":"levelo_inurba_marseille","lat":43.305368,"lon":5.367343,"is_reserved":false,"is_disabled":false,"rental_uris":{"android":"levelo://app?vid=a2e136f1-c728-4018-88c2-a46aa30aa3c2","ios":"levelo://app?vid=a2e136f1-c728-4018-88c2-a46aa30aa3c2"},"vehicle_type_id":"4","last_reported":1689707142,"current_range_meters":24400,"station_id":"ce4bgrp2rcd13ifvqc9g","pricing_plan_id":"free"},{"bike_id":"b012ec2c-47ca-4b26-89b4-f88f3071f1f7","system_id":"levelo_inurba_marseille","lat":43.305714,"lon":5.365633,"is_reserved":false,"is_disabled":false,"rental_uris":{"android":"levelo://app?vid=b012ec2c-47ca-4b26-89b4-f88f3071f1f7","ios":"levelo://app?vid=b012ec2c-47ca-4b26-89b4-f88f3071f1f7"},"vehicle_type_id":"4","last_reported":1689707142,"current_range_meters":6800,"station_id":"ce4bgs12rcd13ifvqcag","pricing_plan_id":"free"},{"bike_id":"6fc1e771-db5f-49ce-852c-c17dd456f925","system_id":"levelo_inurba_marseille","lat":43.305989,"lon":5.37225,"is_reserved":false,"is_disabled":false,"rental_uris":{"android":"levelo://app?vid=6fc1e771-db5f-49ce-852c-c17dd456f925","ios":"levelo://app?vid=6fc1e771-db5f-49ce-852c-c17dd456f925"},"vehicle_type_id":"4","last_reported":1689707142,"current_range_meters":18000,"station_id":"ce4bgqh2rcd13ifvqc4g","pricing_plan_id":"free"},{"bike_id":"75f806f0-7871-4f16-a944-41aaaba75a74","system_id":"levelo_inurba_marseille","lat":43.317075,"lon":5.377367,"is_reserved":false,"is_disabled":false,"rental_uris":{"android":"levelo://app?vid=75f806f0-7871-4f16-a944-41aaaba75a74","ios":"levelo://app?vid=75f806f0-7871-4f16-a944-41aaaba75a74"},"vehicle_type_id":"4","last_reported":1689707142,"current_range_meters":26800,"station_id":"ce4bgth2rcd13ifvqch0","pricing_plan_id":"free"},{"bike_id":"a3f4c536-8c2c-442e-83df-fe41c5dfa652","system_id":"levelo_inurba_marseille","lat":43.317075,"lon":5.377367,"is_reserved":false,"is_disabled":false,"rental_uris":{"android":"levelo://app?vid=a3f4c536-8c2c-442e-83df-fe41c5dfa652","ios":"levelo://app?vid=a3f4c536-8c2c-442e-83df-fe41c5dfa652"},"vehicle_type_id":"4","last_reported":1689707142,"current_range_meters":22400,"station_id":"ce4bgth2rcd13ifvqch0","pricing_plan_id":"free"},{"bike_id":"071e26e0-af79-4432-93e0-2b23acda0269","system_id":"levelo_inurba_marseille","lat":43.317075,"lon":5.377367,"is_reserved":false,"is_disabled":false,"rental_uris":{"android":"levelo://app?vid=071e26e0-af79-4432-93e0-2b23acda0269","ios":"levelo://app?vid=071e26e0-af79-4432-93e0-2b23acda0269"},"vehicle_type_id":"4","last_reported":1689707142,"current_range_meters":30000,"station_id":"ce4bgth2rcd13ifvqch0","pricing_plan_id":"free"},{"bike_id":"6763bc13-1a65-4adb-8e2f-7fd8ef2476ad","system_id":"levelo_inurba_marseille","lat":43.315293,"lon":5.380349,"is_reserved":false,"is_disabled":false,"rental_uris":{"android":"levelo://app?vid=6763bc13-1a65-4adb-8e2f-7fd8ef2476ad","ios":"levelo://app?vid=6763bc13-1a65-4adb-8e2f-7fd8ef2476ad"},"vehicle_type_id":"4","last_reported":1689707142,"current_range_meters":25200,"station_id":"ce4bhsp2rcd13ifvqi50","pricing_plan_id":"free"},{"bike_id":"3b5adf91-9019-4966-9be5-457ef9969770","system_id":"levelo_inurba_marseille","lat":43.315289,"lon":5.380349,"is_reserved":false,"is_disabled":false,"rental_uris":{"android":"levelo://app?vid=3b5adf91-9019-4966-9be5-457ef9969770","ios":"levelo://app?vid=3b5adf91-9019-4966-9be5-457ef9969770"},"vehicle_type_id":"4","last_reported":1689707142,"current_range_meters":20000,"station_id":"ce4bhsp2rcd13ifvqi50","pricing_plan_id":"free"},{"bike_id":"75e3c4fe-84b6-4386-9d3e-2453be7848f5","system_id":"levelo_inurba_marseille","lat":43.315293,"lon":5.380349,"is_reserved":false,"is_disabled":false,"rental_uris":{"android":"levelo://app?vid=75e3c4fe-84b6-4386-9d3e-2453be7848f5","ios":"levelo://app?vid=75e3c4fe-84b6-4386-9d3e-2453be7848f5"},"vehicle_type_id":"4","last_reported":1689707142,"current_range_meters":31200,"station_id":"ce4bhsp2rcd13ifvqi50","pricing_plan_id":"free"},{"bike_id":"d45c9090-05bd-41cf-9622-23bfa67d1a26","system_id":"levelo_inurba_marseille","lat":43.308012,"lon":5.381511,"is_reserved":false,"is_disabled":false,"rental_uris":{"android":"levelo://app?vid=d45c9090-05bd-41cf-9622-23bfa67d1a26","ios":"levelo://app?vid=d45c9090-05bd-41cf-9622-23bfa67d1a26"},"vehicle_type_id":"4","last_reported":1689707142,"current_range_meters":8000,"station_id":"ce4bgt12rcd13ifvqce0","pricing_plan_id":"free"},{"bike_id":"75a9e792-8a4c-4a21-9f89-83cd8b38ee1b","system_id":"levelo_inurba_marseille","lat":43.308012,"lon":5.381511,"is_reserved":false,"is_disabled":false,"rental_uris":{"android":"levelo://app?vid=75a9e792-8a4c-4a21-9f89-83cd8b38ee1b","ios":"levelo://app?vid=75a9e792-8a4c-4a21-9f89-83cd8b38ee1b"},"vehicle_type_id":"4","last_reported":1689707142,"current_range_meters":24400,"station_id":"ce4bgt12rcd13ifvqce0","pricing_plan_id":"free"},{"bike_id":"ea3a1c29-6bbd-4bb1-83f1-f34c8657d52a","system_id":"levelo_inurba_marseille","lat":43.308012,"lon":5.381511,"is_reserved":false,"is_disabled":false,"rental_uris":{"android":"levelo://app?vid=ea3a1c29-6bbd-4bb1-83f1-f34c8657d52a","ios":"levelo://app?vid=ea3a1c29-6bbd-4bb1-83f1-f34c8657d52a"},"vehicle_type_id":"4","last_reported":1689707142,"current_range_meters":8400,"station_id":"ce4bgt12rcd13ifvqce0","pricing_plan_id":"free"},{"bike_id":"d177750c-06d3-40f7-b7f1-8420710673de","system_id":"levelo_inurba_marseille","lat":43.308012,"lon":5.381511,"is_reserved":false,"is_disabled":false,"rental_uris":{"android":"levelo://app?vid=d177750c-06d3-40f7-b7f1-8420710673de","ios":"levelo://app?vid=d177750c-06d3-40f7-b7f1-8420710673de"},"vehicle_type_id":"4","last_reported":1689707142,"current_range_meters":0,"station_id":"ce4bgt12rcd13ifvqce0","pricing_plan_id":"free"},{"bike_id":"ea4c0290-d05f-405e-b86a-3a300b138f1d","system_id":"levelo_inurba_marseille","lat":43.304606,"lon":5.379026,"is_reserved":false,"is_disabled":false,"rental_uris":{"android":"levelo://app?vid=ea4c0290-d05f-405e-b86a-3a300b138f1d","ios":"levelo://app?vid=ea4c0290-d05f-405e-b86a-3a300b138f1d"},"vehicle_type_id":"4","last_reported":1689707142,"current_range_meters":16000,"station_id":"ce4bgup2rcd13ifvqcn0","pricing_plan_id":"free"},{"bike_id":"0ba0eabe-3b25-4af9-943d-ad629868e8af","system_id":"levelo_inurba_marseille","lat":43.304606,"lon":5.379026,"is_reserved":false,"is_disabled":false,"rental_uris":{"android":"levelo://app?vid=0ba0eabe-3b25-4af9-943d-ad629868e8af","ios":"levelo://app?vid=0ba0eabe-3b25-4af9-943d-ad629868e8af"},"vehicle_type_id":"4","last_reported":1689707142,"current_range_meters":14800,"station_id":"ce4bgup2rcd13ifvqcn0","pricing_plan_id":"free"},{"bike_id":"b6a545ed-30fd-4410-aac8-4789fd2decb0","system_id":"levelo_inurba_marseille","lat":43.304606,"lon":5.379026,"is_reserved":false,"is_disabled":false,"rental_uris":{"android":"levelo://app?vid=b6a545ed-30fd-4410-aac8-4789fd2decb0","ios":"levelo://app?vid=b6a545ed-30fd-4410-aac8-4789fd2decb0"},"vehicle_type_id":"4","last_reported":1689707142,"current_range_meters":26400,"station_id":"ce4bgup2rcd13ifvqcn0","pricing_plan_id":"free"},{"bike_id":"b70b1aae-051d-4ff1-893a-62d6424e10d6","system_id":"levelo_inurba_marseille","lat":43.304606,"lon":5.379026,"is_reserved":false,"is_disabled":false,"rental_uris":{"android":"levelo://app?vid=b70b1aae-051d-4ff1-893a-62d6424e10d6","ios":"levelo://app?vid=b70b1aae-051d-4ff1-893a-62d6424e10d6"},"vehicle_type_id":"4","last_reported":1689707142,"current_range_meters":21600,"station_id":"ce4bgup2rcd13ifvqcn0","pricing_plan_id":"free"},{"bike_id":"08b38734-2a2a-4ce9-915f-bc4809b22cc5","system_id":"levelo_inurba_marseille","lat":43.302784,"lon":5.377158,"is_reserved":false,"is_disabled":false,"rental_uris":{"android":"levelo://app?vid=08b38734-2a2a-4ce9-915f-bc4809b22cc5","ios":"levelo://app?vid=08b38734-2a2a-4ce9-915f-bc4809b22cc5"},"vehicle_type_id":"4","last_reported":1689707142,"current_range_meters":2800,"station_id":"ce4bguh2rcd13ifvqcj0","pricing_plan_id":"free"},{"bike_id":"19100311-c096-4ea3-9658-fe0675467fb5","system_id":"levelo_inurba_marseille","lat":43.319935,"lon":5.381699,"is_reserved":false,"is_disabled":false,"rental_uris":{"android":"levelo://app?vid=19100311-c096-4ea3-9658-fe0675467fb5","ios":"levelo://app?vid=19100311-c096-4ea3-9658-fe0675467fb5"},"vehicle_type_id":"4","last_reported":1689707142,"current_range_meters":30400,"station_id":"ce4bhr12rcd13ifvqhpg","pricing_plan_id":"free"},{"bike_id":"81dbb561-ba63-4cda-a721-d080e1d9f826","system_id":"levelo_inurba_marseille","lat":43.319935,"lon":5.381699,"is_reserved":false,"is_disabled":false,"rental_uris":{"android":"levelo://app?vid=81dbb561-ba63-4cda-a721-d080e1d9f826","ios":"levelo://app?vid=81dbb561-ba63-4cda-a721-d080e1d9f826"},"vehicle_type_id":"4","last_reported":1689707142,"current_range_meters":18800,"station_id":"ce4bhr12rcd13ifvqhpg","pricing_plan_id":"free"},{"bike_id":"aecf68cc-6dab-4d48-9b33-456f56f1c060","system_id":"levelo_inurba_marseille","lat":43.319935,"lon":5.381699,"is_reserved":false,"is_disabled":false,"rental_uris":{"android":"levelo://app?vid=aecf68cc-6dab-4d48-9b33-456f56f1c060","ios":"levelo://app?vid=aecf68cc-6dab-4d48-9b33-456f56f1c060"},"vehicle_type_id":"4","last_reported":1689707142,"current_range_meters":25600,"station_id":"ce4bhr12rcd13ifvqhpg","pricing_plan_id":"free"},{"bike_id":"b0dd87b2-d98f-41f0-92f5-f872f1fe0084","system_id":"levelo_inurba_marseille","lat":43.319935,"lon":5.381699,"is_reserved":false,"is_disabled":false,"rental_uris":{"android":"levelo://app?vid=b0dd87b2-d98f-41f0-92f5-f872f1fe0084","ios":"levelo://app?vid=b0dd87b2-d98f-41f0-92f5-f872f1fe0084"},"vehicle_type_id":"4","last_reported":1689707142,"current_range_meters":31200,"station_id":"ce4bhr12rcd13ifvqhpg","pricing_plan_id":"free"},{"bike_id":"1b498175-c20f-4ab7-8fa5-370ed4da5d88","system_id":"levelo_inurba_marseille","lat":43.313571,"lon":5.384829,"is_reserved":false,"is_disabled":false,"rental_uris":{"android":"levelo://app?vid=1b498175-c20f-4ab7-8fa5-370ed4da5d88","ios":"levelo://app?vid=1b498175-c20f-4ab7-8fa5-370ed4da5d88"},"vehicle_type_id":"4","last_reported":1689707142,"current_range_meters":30000,"station_id":"ce4bgt92rcd13ifvqcf0","pricing_plan_id":"free"},{"bike_id":"ad029540-e8d0-417a-94f2-2808924cc111","system_id":"levelo_inurba_marseille","lat":43.299222,"lon":5.365554,"is_reserved":false,"is_disabled":false,"rental_uris":{"android":"levelo://app?vid=ad029540-e8d0-417a-94f2-2808924cc111","ios":"levelo://app?vid=ad029540-e8d0-417a-94f2-2808924cc111"},"vehicle_type_id":"4","last_reported":1689707142,"current_range_meters":9200,"station_id":"ce4bgm92rcd13ifvqbr0","pricing_plan_id":"free"},{"bike_id":"1cfdc75d-2f8e-4c95-a3c7-94b50ac5db2b","system_id":"levelo_inurba_marseille","lat":43.299222,"lon":5.365554,"is_reserved":false,"is_disabled":false,"rental_uris":{"android":"levelo://app?vid=1cfdc75d-2f8e-4c95-a3c7-94b50ac5db2b","ios":"levelo://app?vid=1cfdc75d-2f8e-4c95-a3c7-94b50ac5db2b"},"vehicle_type_id":"4","last_reported":1689707142,"current_range_meters":10400,"station_id":"ce4bgm92rcd13ifvqbr0","pricing_plan_id":"free"},{"bike_id":"39be2670-289f-4828-98a4-1aef26f7ed70","system_id":"levelo_inurba_marseille","lat":43.299222,"lon":5.365554,"is_reserved":false,"is_disabled":false,"rental_uris":{"android":"levelo://app?vid=39be2670-289f-4828-98a4-1aef26f7ed70","ios":"levelo://app?vid=39be2670-289f-4828-98a4-1aef26f7ed70"},"vehicle_type_id":"4","last_reported":1689707142,"current_range_meters":7200,"station_id":"ce4bgm92rcd13ifvqbr0","pricing_plan_id":"free"},{"bike_id":"09d9a63f-ae6b-40de-aa99-2b02f69c781a","system_id":"levelo_inurba_marseille","lat":43.305364,"lon":5.384119,"is_reserved":false,"is_disabled":false,"rental_uris":{"android":"levelo://app?vid=09d9a63f-ae6b-40de-aa99-2b02f69c781a","ios":"levelo://app?vid=09d9a63f-ae6b-40de-aa99-2b02f69c781a"},"vehicle_type_id":"4","last_reported":1689707142,"current_range_meters":2000,"station_id":"ce4bgg92rcd13ifvqb30","pricing_plan_id":"free"},{"bike_id":"7e9f34d2-9af0-405b-acfd-68051561857e","system_id":"levelo_inurba_marseille","lat":43.298433,"lon":5.362774,"is_reserved":false,"is_disabled":false,"rental_uris":{"android":"levelo://app?vid=7e9f34d2-9af0-405b-acfd-68051561857e","ios":"levelo://app?vid=7e9f34d2-9af0-405b-acfd-68051561857e"},"vehicle_type_id":"4","last_reported":1689707142,"current_range_meters":12400,"station_id":"ce4bgpp2rcd13ifvqc3g","pricing_plan_id":"free"},{"bike_id":"3d81c38c-e889-4206-8da0-aab38dfa1fa2","system_id":"levelo_inurba_marseille","lat":43.298433,"lon":5.362774,"is_reserved":false,"is_disabled":false,"rental_uris":{"android":"levelo://app?vid=3d81c38c-e889-4206-8da0-aab38dfa1fa2","ios":"levelo://app?vid=3d81c38c-e889-4206-8da0-aab38dfa1fa2"},"vehicle_type_id":"4","last_reported":1689707142,"current_range_meters":1600,"station_id":"ce4bgpp2rcd13ifvqc3g","pricing_plan_id":"free"},{"bike_id":"5f0f16f6-eaf3-449b-b282-81400274a1a2","system_id":"levelo_inurba_marseille","lat":43.31165,"lon":5.38719,"is_reserved":false,"is_disabled":false,"rental_uris":{"android":"levelo://app?vid=5f0f16f6-eaf3-449b-b282-81400274a1a2","ios":"levelo://app?vid=5f0f16f6-eaf3-449b-b282-81400274a1a2"},"vehicle_type_id":"4","last_reported":1689707142,"current_range_meters":30000,"station_id":"","pricing_plan_id":"free"},{"bike_id":"95ba240c-4168-47d3-8bf5-708d35be661b","system_id":"levelo_inurba_marseille","lat":43.297794,"lon":5.370888,"is_reserved":false,"is_disabled":false,"rental_uris":{"android":"levelo://app?vid=95ba240c-4168-47d3-8bf5-708d35be661b","ios":"levelo://app?vid=95ba240c-4168-47d3-8bf5-708d35be661b"},"vehicle_type_id":"4","last_reported":1689707142,"current_range_meters":22800,"station_id":"ce4bgop2rcd13ifvqc1g","pricing_plan_id":"free"},{"bike_id":"38cb8470-ab16-4d1e-bd37-13ef2ac7db48","system_id":"levelo_inurba_marseille","lat":43.322872,"lon":5.382756,"is_reserved":false,"is_disabled":false,"rental_uris":{"android":"levelo://app?vid=38cb8470-ab16-4d1e-bd37-13ef2ac7db48","ios":"levelo://app?vid=38cb8470-ab16-4d1e-bd37-13ef2ac7db48"},"vehicle_type_id":"4","last_reported":1689707142,"current_range_meters":24800,"station_id":"ce4bhr12rcd13ifvqhqg","pricing_plan_id":"free"},{"bike_id":"2ed41945-cea8-4afa-87d0-4eb6bbef9c57","system_id":"levelo_inurba_marseille","lat":43.32286,"lon":5.38263,"is_reserved":false,"is_disabled":false,"rental_uris":{"android":"levelo://app?vid=2ed41945-cea8-4afa-87d0-4eb6bbef9c57","ios":"levelo://app?vid=2ed41945-cea8-4afa-87d0-4eb6bbef9c57"},"vehicle_type_id":"4","last_reported":1689707142,"current_range_meters":25200,"station_id":"ce4bhr12rcd13ifvqhqg","pricing_plan_id":"free"},{"bike_id":"a11921e7-a2f2-41ca-973f-06a6684cf79e","system_id":"levelo_inurba_marseille","lat":43.322872,"lon":5.382756,"is_reserved":false,"is_disabled":false,"rental_uris":{"android":"levelo://app?vid=a11921e7-a2f2-41ca-973f-06a6684cf79e","ios":"levelo://app?vid=a11921e7-a2f2-41ca-973f-06a6684cf79e"},"vehicle_type_id":"4","last_reported":1689707142,"current_range_meters":18000,"station_id":"ce4bhr12rcd13ifvqhqg","pricing_plan_id":"free"},{"bike_id":"6d2a9240-d864-4743-9e10-d3266f25f7ef","system_id":"levelo_inurba_marseille","lat":43.322872,"lon":5.382756,"is_reserved":false,"is_disabled":false,"rental_uris":{"android":"levelo://app?vid=6d2a9240-d864-4743-9e10-d3266f25f7ef","ios":"levelo://app?vid=6d2a9240-d864-4743-9e10-d3266f25f7ef"},"vehicle_type_id":"4","last_reported":1689707142,"current_range_meters":21600,"station_id":"ce4bhr12rcd13ifvqhqg","pricing_plan_id":"free"},{"bike_id":"64127e17-b117-4a26-b5b1-f27db8ca0e03","system_id":"levelo_inurba_marseille","lat":43.322872,"lon":5.382756,"is_reserved":false,"is_disabled":false,"rental_uris":{"android":"levelo://app?vid=64127e17-b117-4a26-b5b1-f27db8ca0e03","ios":"levelo://app?vid=64127e17-b117-4a26-b5b1-f27db8ca0e03"},"vehicle_type_id":"4","last_reported":1689707142,"current_range_meters":22000,"station_id":"ce4bhr12rcd13ifvqhqg","pricing_plan_id":"free"},{"bike_id":"7c154cf1-be76-45ac-8f98-526cdbeb1a99","system_id":"levelo_inurba_marseille","lat":43.322872,"lon":5.382756,"is_reserved":false,"is_disabled":false,"rental_uris":{"android":"levelo://app?vid=7c154cf1-be76-45ac-8f98-526cdbeb1a99","ios":"levelo://app?vid=7c154cf1-be76-45ac-8f98-526cdbeb1a99"},"vehicle_type_id":"4","last_reported":1689707142,"current_range_meters":25600,"station_id":"ce4bhr12rcd13ifvqhqg","pricing_plan_id":"free"},{"bike_id":"e916ca30-98a4-4365-b6d6-d96cd71c267d","system_id":"levelo_inurba_marseille","lat":43.32291,"lon":5.38265,"is_reserved":false,"is_disabled":false,"rental_uris":{"android":"levelo://app?vid=e916ca30-98a4-4365-b6d6-d96cd71c267d","ios":"levelo://app?vid=e916ca30-98a4-4365-b6d6-d96cd71c267d"},"vehicle_type_id":"4","last_reported":1689707142,"current_range_meters":16400,"station_id":"ce4bhr12rcd13ifvqhqg","pricing_plan_id":"free"},{"bike_id":"3296666b-4550-46e5-8780-de3f4f4bdb22","system_id":"levelo_inurba_marseille","lat":43.32292,"lon":5.38267,"is_reserved":false,"is_disabled":false,"rental_uris":{"android":"levelo://app?vid=3296666b-4550-46e5-8780-de3f4f4bdb22","ios":"levelo://app?vid=3296666b-4550-46e5-8780-de3f4f4bdb22"},"vehicle_type_id":"4","last_reported":1689707142,"current_range_meters":24000,"station_id":"ce4bhr12rcd13ifvqhqg","pricing_plan_id":"free"},{"bike_id":"be92d518-68b8-4f05-a3c0-5d2d0d4d757d","system_id":"levelo_inurba_marseille","lat":43.32822,"lon":5.36688,"is_reserved":false,"is_disabled":false,"rental_uris":{"android":"levelo://app?vid=be92d518-68b8-4f05-a3c0-5d2d0d4d757d","ios":"levelo://app?vid=be92d518-68b8-4f05-a3c0-5d2d0d4d757d"},"vehicle_type_id":"4","last_reported":1689707142,"current_range_meters":21200,"station_id":"ce4bhs92rcd13ifvqi0g","pricing_plan_id":"free"},{"bike_id":"ca80ddc9-4224-4881-ba12-3ea418891e6c","system_id":"levelo_inurba_marseille","lat":43.32827,"lon":5.36692,"is_reserved":false,"is_disabled":false,"rental_uris":{"android":"levelo://app?vid=ca80ddc9-4224-4881-ba12-3ea418891e6c","ios":"levelo://app?vid=ca80ddc9-4224-4881-ba12-3ea418891e6c"},"vehicle_type_id":"4","last_reported":1689707142,"current_range_meters":0,"station_id":"ce4bhs92rcd13ifvqi0g","pricing_plan_id":"free"},{"bike_id":"1785ac81-c45b-4e28-b2e3-d4fb077dcc49","system_id":"levelo_inurba_marseille","lat":43.32828,"lon":5.36686,"is_reserved":false,"is_disabled":false,"rental_uris":{"android":"levelo://app?vid=1785ac81-c45b-4e28-b2e3-d4fb077dcc49","ios":"levelo://app?vid=1785ac81-c45b-4e28-b2e3-d4fb077dcc49"},"vehicle_type_id":"4","last_reported":1689707142,"current_range_meters":18400,"station_id":"ce4bhs92rcd13ifvqi0g","pricing_plan_id":"free"},{"bike_id":"1b1a92f9-a469-49be-ae33-4794a606317c","system_id":"levelo_inurba_marseille","lat":43.328371,"lon":5.366909,"is_reserved":false,"is_disabled":false,"rental_uris":{"android":"levelo://app?vid=1b1a92f9-a469-49be-ae33-4794a606317c","ios":"levelo://app?vid=1b1a92f9-a469-49be-ae33-4794a606317c"},"vehicle_type_id":"4","last_reported":1689707142,"current_range_meters":18800,"station_id":"ce4bhs92rcd13ifvqi0g","pricing_plan_id":"free"},{"bike_id":"68aff992-6a2f-4df7-84f1-5f129124d378","system_id":"levelo_inurba_marseille","lat":43.32829,"lon":5.36691,"is_reserved":false,"is_disabled":false,"rental_uris":{"android":"levelo://app?vid=68aff992-6a2f-4df7-84f1-5f129124d378","ios":"levelo://app?vid=68aff992-6a2f-4df7-84f1-5f129124d378"},"vehicle_type_id":"4","last_reported":1689707142,"current_range_meters":31200,"station_id":"ce4bhs92rcd13ifvqi0g","pricing_plan_id":"free"},{"bike_id":"bccd87f9-44fb-4c8c-b55e-836d1e79bd1d","system_id":"levelo_inurba_marseille","lat":43.328371,"lon":5.366909,"is_reserved":false,"is_disabled":false,"rental_uris":{"android":"levelo://app?vid=bccd87f9-44fb-4c8c-b55e-836d1e79bd1d","ios":"levelo://app?vid=bccd87f9-44fb-4c8c-b55e-836d1e79bd1d"},"vehicle_type_id":"4","last_reported":1689707142,"current_range_meters":24800,"station_id":"ce4bhs92rcd13ifvqi0g","pricing_plan_id":"free"},{"bike_id":"3916e407-8c11-4a2b-8e00-1d25f7bfdca8","system_id":"levelo_inurba_marseille","lat":43.29718,"lon":5.36609,"is_reserved":false,"is_disabled":false,"rental_uris":{"android":"levelo://app?vid=3916e407-8c11-4a2b-8e00-1d25f7bfdca8","ios":"levelo://app?vid=3916e407-8c11-4a2b-8e00-1d25f7bfdca8"},"vehicle_type_id":"4","last_reported":1689707142,"current_range_meters":30000,"station_id":"ce4bgn12rcd13ifvqbt0","pricing_plan_id":"free"},{"bike_id":"c2dbc644-c7fb-4fb5-923b-703ff3d9c54f","system_id":"levelo_inurba_marseille","lat":43.32832,"lon":5.36694,"is_reserved":false,"is_disabled":false,"rental_uris":{"android":"levelo://app?vid=c2dbc644-c7fb-4fb5-923b-703ff3d9c54f","ios":"levelo://app?vid=c2dbc644-c7fb-4fb5-923b-703ff3d9c54f"},"vehicle_type_id":"4","last_reported":1689707142,"current_range_meters":2000,"station_id":"ce4bhs92rcd13ifvqi0g","pricing_plan_id":"free"},{"bike_id":"eb414e3d-48ee-4bed-aadf-aaf017756557","system_id":"levelo_inurba_marseille","lat":43.32832,"lon":5.36695,"is_reserved":false,"is_disabled":false,"rental_uris":{"android":"levelo://app?vid=eb414e3d-48ee-4bed-aadf-aaf017756557","ios":"levelo://app?vid=eb414e3d-48ee-4bed-aadf-aaf017756557"},"vehicle_type_id":"4","last_reported":1689707142,"current_range_meters":23600,"station_id":"ce4bhs92rcd13ifvqi0g","pricing_plan_id":"free"},{"bike_id":"05f61ee2-50db-419a-b4c2-15d64fa3a4b7","system_id":"levelo_inurba_marseille","lat":43.32832,"lon":5.36686,"is_reserved":false,"is_disabled":false,"rental_uris":{"android":"levelo://app?vid=05f61ee2-50db-419a-b4c2-15d64fa3a4b7","ios":"levelo://app?vid=05f61ee2-50db-419a-b4c2-15d64fa3a4b7"},"vehicle_type_id":"4","last_reported":1689707142,"current_range_meters":16800,"station_id":"ce4bhs92rcd13ifvqi0g","pricing_plan_id":"free"},{"bike_id":"a183349e-8fc2-422b-a1a4-311bf42922ae","system_id":"levelo_inurba_marseille","lat":43.32832,"lon":5.36681,"is_reserved":false,"is_disabled":false,"rental_uris":{"android":"levelo://app?vid=a183349e-8fc2-422b-a1a4-311bf42922ae","ios":"levelo://app?vid=a183349e-8fc2-422b-a1a4-311bf42922ae"},"vehicle_type_id":"4","last_reported":1689707142,"current_range_meters":24400,"station_id":"ce4bhs92rcd13ifvqi0g","pricing_plan_id":"free"},{"bike_id":"c52398db-3149-4ccd-8b41-49b4cc753238","system_id":"levelo_inurba_marseille","lat":43.32834,"lon":5.36688,"is_reserved":false,"is_disabled":false,"rental_uris":{"android":"levelo://app?vid=c52398db-3149-4ccd-8b41-49b4cc753238","ios":"levelo://app?vid=c52398db-3149-4ccd-8b41-49b4cc753238"},"vehicle_type_id":"4","last_reported":1689707142,"current_range_meters":20800,"station_id":"ce4bhs92rcd13ifvqi0g","pricing_plan_id":"free"},{"bike_id":"fa22a42c-19fd-4d4c-b13d-acfa470204e5","system_id":"levelo_inurba_marseille","lat":43.328371,"lon":5.366909,"is_reserved":false,"is_disabled":false,"rental_uris":{"android":"levelo://app?vid=fa22a42c-19fd-4d4c-b13d-acfa470204e5","ios":"levelo://app?vid=fa22a42c-19fd-4d4c-b13d-acfa470204e5"},"vehicle_type_id":"4","last_reported":1689707142,"current_range_meters":23600,"station_id":"ce4bhs92rcd13ifvqi0g","pricing_plan_id":"free"},{"bike_id":"f9d209b6-dc93-4a81-b83c-3c2bb6c98dd6","system_id":"levelo_inurba_marseille","lat":43.29644,"lon":5.36027,"is_reserved":false,"is_disabled":false,"rental_uris":{"android":"levelo://app?vid=f9d209b6-dc93-4a81-b83c-3c2bb6c98dd6","ios":"levelo://app?vid=f9d209b6-dc93-4a81-b83c-3c2bb6c98dd6"},"vehicle_type_id":"4","last_reported":1689707142,"current_range_meters":30800,"station_id":"","pricing_plan_id":"free"},{"bike_id":"6ca7f4e4-5866-4407-9765-ff06f085168b","system_id":"levelo_inurba_marseille","lat":43.29714,"lon":5.37703,"is_reserved":false,"is_disabled":false,"rental_uris":{"android":"levelo://app?vid=6ca7f4e4-5866-4407-9765-ff06f085168b","ios":"levelo://app?vid=6ca7f4e4-5866-4407-9765-ff06f085168b"},"vehicle_type_id":"4","last_reported":1689707142,"current_range_meters":26400,"station_id":"ce4bgkh2rcd13ifvqbl0","pricing_plan_id":"free"},{"bike_id":"884d0125-15e7-4aa7-8708-d3aeac28cb5b","system_id":"levelo_inurba_marseille","lat":43.309589,"lon":5.390258,"is_reserved":false,"is_disabled":false,"rental_uris":{"android":"levelo://app?vid=884d0125-15e7-4aa7-8708-d3aeac28cb5b","ios":"levelo://app?vid=884d0125-15e7-4aa7-8708-d3aeac28cb5b"},"vehicle_type_id":"4","last_reported":1689707142,"current_range_meters":23600,"station_id":"ce4bgup2rcd13ifvqco0","pricing_plan_id":"free"},{"bike_id":"3daa75b0-6298-4859-80cd-9f42f5dd00c5","system_id":"levelo_inurba_marseille","lat":43.317557,"lon":5.390173,"is_reserved":false,"is_disabled":false,"rental_uris":{"android":"levelo://app?vid=3daa75b0-6298-4859-80cd-9f42f5dd00c5","ios":"levelo://app?vid=3daa75b0-6298-4859-80cd-9f42f5dd00c5"},"vehicle_type_id":"4","last_reported":1689707142,"current_range_meters":9200,"station_id":"ce4bhqp2rcd13ifvqhng","pricing_plan_id":"free"},{"bike_id":"94959e57-b440-423f-8dc5-bb4906fcdbdd","system_id":"levelo_inurba_marseille","lat":43.317557,"lon":5.390173,"is_reserved":false,"is_disabled":false,"rental_uris":{"android":"levelo://app?vid=94959e57-b440-423f-8dc5-bb4906fcdbdd","ios":"levelo://app?vid=94959e57-b440-423f-8dc5-bb4906fcdbdd"},"vehicle_type_id":"4","last_reported":1689707142,"current_range_meters":31200,"station_id":"ce4bhqp2rcd13ifvqhng","pricing_plan_id":"free"},{"bike_id":"97c69e7b-d785-4d2e-a444-b3f7be1ffbfb","system_id":"levelo_inurba_marseille","lat":43.317557,"lon":5.390173,"is_reserved":false,"is_disabled":false,"rental_uris":{"android":"levelo://app?vid=97c69e7b-d785-4d2e-a444-b3f7be1ffbfb","ios":"levelo://app?vid=97c69e7b-d785-4d2e-a444-b3f7be1ffbfb"},"vehicle_type_id":"4","last_reported":1689707142,"current_range_meters":18400,"station_id":"ce4bhqp2rcd13ifvqhng","pricing_plan_id":"free"},{"bike_id":"3ffcd7ca-33b6-4140-867d-c4a471c3ed2d","system_id":"levelo_inurba_marseille","lat":43.317557,"lon":5.390173,"is_reserved":false,"is_disabled":false,"rental_uris":{"android":"levelo://app?vid=3ffcd7ca-33b6-4140-867d-c4a471c3ed2d","ios":"levelo://app?vid=3ffcd7ca-33b6-4140-867d-c4a471c3ed2d"},"vehicle_type_id":"4","last_reported":1689707142,"current_range_meters":12400,"station_id":"ce4bhqp2rcd13ifvqhng","pricing_plan_id":"free"},{"bike_id":"11ee362a-447b-437c-9cc1-8c2c1025c76f","system_id":"levelo_inurba_marseille","lat":43.317557,"lon":5.390173,"is_reserved":false,"is_disabled":false,"rental_uris":{"android":"levelo://app?vid=11ee362a-447b-437c-9cc1-8c2c1025c76f","ios":"levelo://app?vid=11ee362a-447b-437c-9cc1-8c2c1025c76f"},"vehicle_type_id":"4","last_reported":1689707142,"current_range_meters":21600,"station_id":"ce4bhqp2rcd13ifvqhng","pricing_plan_id":"free"},{"bike_id":"149c94ad-2e03-4c5c-a382-ac5d9737014a","system_id":"levelo_inurba_marseille","lat":43.317557,"lon":5.390173,"is_reserved":false,"is_disabled":false,"rental_uris":{"android":"levelo://app?vid=149c94ad-2e03-4c5c-a382-ac5d9737014a","ios":"levelo://app?vid=149c94ad-2e03-4c5c-a382-ac5d9737014a"},"vehicle_type_id":"4","last_reported":1689707142,"current_range_meters":31600,"station_id":"ce4bhqp2rcd13ifvqhng","pricing_plan_id":"free"},{"bike_id":"a4ce986c-bb39-40b0-9ba0-9e7c714bc33e","system_id":"levelo_inurba_marseille","lat":43.317557,"lon":5.390173,"is_reserved":false,"is_disabled":false,"rental_uris":{"android":"levelo://app?vid=a4ce986c-bb39-40b0-9ba0-9e7c714bc33e","ios":"levelo://app?vid=a4ce986c-bb39-40b0-9ba0-9e7c714bc33e"},"vehicle_type_id":"4","last_reported":1689707142,"current_range_meters":21600,"station_id":"ce4bhqp2rcd13ifvqhng","pricing_plan_id":"free"},{"bike_id":"5a3bae3f-877a-4441-96ce-3bab3b483ea1","system_id":"levelo_inurba_marseille","lat":43.317557,"lon":5.390173,"is_reserved":false,"is_disabled":false,"rental_uris":{"android":"levelo://app?vid=5a3bae3f-877a-4441-96ce-3bab3b483ea1","ios":"levelo://app?vid=5a3bae3f-877a-4441-96ce-3bab3b483ea1"},"vehicle_type_id":"4","last_reported":1689707142,"current_range_meters":30000,"station_id":"ce4bhqp2rcd13ifvqhng","pricing_plan_id":"free"},{"bike_id":"f3e51c6c-7ff3-45a9-b119-6ebcc4e5b155","system_id":"levelo_inurba_marseille","lat":43.30444,"lon":5.38886,"is_reserved":false,"is_disabled":false,"rental_uris":{"android":"levelo://app?vid=f3e51c6c-7ff3-45a9-b119-6ebcc4e5b155","ios":"levelo://app?vid=f3e51c6c-7ff3-45a9-b119-6ebcc4e5b155"},"vehicle_type_id":"4","last_reported":1689707142,"current_range_meters":4800,"station_id":"ce4bgk12rcd13ifvqbi0","pricing_plan_id":"free"},{"bike_id":"ef5c095d-671a-420c-8761-41f1bf5109d4","system_id":"levelo_inurba_marseille","lat":43.304274,"lon":5.388873,"is_reserved":false,"is_disabled":false,"rental_uris":{"android":"levelo://app?vid=ef5c095d-671a-420c-8761-41f1bf5109d4","ios":"levelo://app?vid=ef5c095d-671a-420c-8761-41f1bf5109d4"},"vehicle_type_id":"4","last_reported":1689707142,"current_range_meters":6400,"station_id":"ce4bgk12rcd13ifvqbi0","pricing_plan_id":"free"},{"bike_id":"b7d005fa-9a6f-47aa-9b8a-77aa5d6a40c2","system_id":"levelo_inurba_marseille","lat":43.29786,"lon":5.38082,"is_reserved":false,"is_disabled":false,"rental_uris":{"android":"levelo://app?vid=b7d005fa-9a6f-47aa-9b8a-77aa5d6a40c2","ios":"levelo://app?vid=b7d005fa-9a6f-47aa-9b8a-77aa5d6a40c2"},"vehicle_type_id":"4","last_reported":1689707142,"current_range_meters":0,"station_id":"ce4bgip2rcd13ifvqbb0","pricing_plan_id":"free"},{"bike_id":"92146313-dc46-41c0-a678-a6ad30febdd4","system_id":"levelo_inurba_marseille","lat":43.30437,"lon":5.38892,"is_reserved":false,"is_disabled":false,"rental_uris":{"android":"levelo://app?vid=92146313-dc46-41c0-a678-a6ad30febdd4","ios":"levelo://app?vid=92146313-dc46-41c0-a678-a6ad30febdd4"},"vehicle_type_id":"4","last_reported":1689707142,"current_range_meters":21600,"station_id":"ce4bgk12rcd13ifvqbi0","pricing_plan_id":"free"},{"bike_id":"4e769d2b-3cd2-443b-a83d-379412318e2a","system_id":"levelo_inurba_marseille","lat":43.296277,"lon":5.377108,"is_reserved":false,"is_disabled":false,"rental_uris":{"android":"levelo://app?vid=4e769d2b-3cd2-443b-a83d-379412318e2a","ios":"levelo://app?vid=4e769d2b-3cd2-443b-a83d-379412318e2a"},"vehicle_type_id":"4","last_reported":1689707142,"current_range_meters":800,"station_id":"ce4bgi92rcd13ifvqb90","pricing_plan_id":"free"},{"bike_id":"badfbcae-3bea-4c9b-b06a-421448319e08","system_id":"levelo_inurba_marseille","lat":43.299707,"lon":5.384859,"is_reserved":false,"is_disabled":false,"rental_uris":{"android":"levelo://app?vid=badfbcae-3bea-4c9b-b06a-421448319e08","ios":"levelo://app?vid=badfbcae-3bea-4c9b-b06a-421448319e08"},"vehicle_type_id":"4","last_reported":1689707142,"current_range_meters":19200,"station_id":"ce4bgj92rcd13ifvqbd0","pricing_plan_id":"free"},{"bike_id":"1c772097-0f8e-4a7f-9543-dac990ef25af","system_id":"levelo_inurba_marseille","lat":43.299707,"lon":5.384859,"is_reserved":false,"is_disabled":false,"rental_uris":{"android":"levelo://app?vid=1c772097-0f8e-4a7f-9543-dac990ef25af","ios":"levelo://app?vid=1c772097-0f8e-4a7f-9543-dac990ef25af"},"vehicle_type_id":"4","last_reported":1689707142,"current_range_meters":13200,"station_id":"ce4bgj92rcd13ifvqbd0","pricing_plan_id":"free"},{"bike_id":"3e8d1dd9-0179-4dd1-b19b-c7acf1b377ac","system_id":"levelo_inurba_marseille","lat":43.299707,"lon":5.384859,"is_reserved":false,"is_disabled":false,"rental_uris":{"android":"levelo://app?vid=3e8d1dd9-0179-4dd1-b19b-c7acf1b377ac","ios":"levelo://app?vid=3e8d1dd9-0179-4dd1-b19b-c7acf1b377ac"},"vehicle_type_id":"4","last_reported":1689707142,"current_range_meters":1600,"station_id":"ce4bgj92rcd13ifvqbd0","pricing_plan_id":"free"},{"bike_id":"1c770dec-0d22-49c9-bbe4-89e4d3fcf85e","system_id":"levelo_inurba_marseille","lat":43.29965,"lon":5.38495,"is_reserved":false,"is_disabled":false,"rental_uris":{"android":"levelo://app?vid=1c770dec-0d22-49c9-bbe4-89e4d3fcf85e","ios":"levelo://app?vid=1c770dec-0d22-49c9-bbe4-89e4d3fcf85e"},"vehicle_type_id":"4","last_reported":1689707142,"current_range_meters":4000,"station_id":"ce4bgj92rcd13ifvqbd0","pricing_plan_id":"free"},{"bike_id":"fe65c3f5-eaaa-43b8-b477-8d5ee12c5433","system_id":"levelo_inurba_marseille","lat":43.299717,"lon":5.384845,"is_reserved":false,"is_disabled":false,"rental_uris":{"android":"levelo://app?vid=fe65c3f5-eaaa-43b8-b477-8d5ee12c5433","ios":"levelo://app?vid=fe65c3f5-eaaa-43b8-b477-8d5ee12c5433"},"vehicle_type_id":"4","last_reported":1689707142,"current_range_meters":23200,"station_id":"ce4bgj92rcd13ifvqbd0","pricing_plan_id":"free"},{"bike_id":"f2cc5b5b-53a8-4b4c-8ca2-b39be4d5bd87","system_id":"levelo_inurba_marseille","lat":43.2996,"lon":5.385,"is_reserved":false,"is_disabled":false,"rental_uris":{"android":"levelo://app?vid=f2cc5b5b-53a8-4b4c-8ca2-b39be4d5bd87","ios":"levelo://app?vid=f2cc5b5b-53a8-4b4c-8ca2-b39be4d5bd87"},"vehicle_type_id":"4","last_reported":1689707142,"current_range_meters":2000,"station_id":"ce4bgj92rcd13ifvqbd0","pricing_plan_id":"free"},{"bike_id":"cf7ba923-1ffc-429f-9bfc-edc68077373d","system_id":"levelo_inurba_marseille","lat":43.2996,"lon":5.38503,"is_reserved":false,"is_disabled":false,"rental_uris":{"android":"levelo://app?vid=cf7ba923-1ffc-429f-9bfc-edc68077373d","ios":"levelo://app?vid=cf7ba923-1ffc-429f-9bfc-edc68077373d"},"vehicle_type_id":"4","last_reported":1689707142,"current_range_meters":28400,"station_id":"ce4bgj92rcd13ifvqbd0","pricing_plan_id":"free"},{"bike_id":"5ec41c3e-a4d7-4bef-9b5f-e4125a041933","system_id":"levelo_inurba_marseille","lat":43.32369,"lon":5.38877,"is_reserved":false,"is_disabled":false,"rental_uris":{"android":"levelo://app?vid=5ec41c3e-a4d7-4bef-9b5f-e4125a041933","ios":"levelo://app?vid=5ec41c3e-a4d7-4bef-9b5f-e4125a041933"},"vehicle_type_id":"4","last_reported":1689707142,"current_range_meters":18400,"station_id":"ce4bhqp2rcd13ifvqhog","pricing_plan_id":"free"},{"bike_id":"fdf33e7e-bc6f-46fb-88e2-7a5aede71038","system_id":"levelo_inurba_marseille","lat":43.32363,"lon":5.38887,"is_reserved":false,"is_disabled":false,"rental_uris":{"android":"levelo://app?vid=fdf33e7e-bc6f-46fb-88e2-7a5aede71038","ios":"levelo://app?vid=fdf33e7e-bc6f-46fb-88e2-7a5aede71038"},"vehicle_type_id":"4","last_reported":1689707142,"current_range_meters":24000,"station_id":"ce4bhqp2rcd13ifvqhog","pricing_plan_id":"free"},{"bike_id":"4290b152-9a44-4358-9a64-332a32078433","system_id":"levelo_inurba_marseille","lat":43.32367,"lon":5.388836,"is_reserved":false,"is_disabled":false,"rental_uris":{"android":"levelo://app?vid=4290b152-9a44-4358-9a64-332a32078433","ios":"levelo://app?vid=4290b152-9a44-4358-9a64-332a32078433"},"vehicle_type_id":"4","last_reported":1689707142,"current_range_meters":17600,"station_id":"ce4bhqp2rcd13ifvqhog","pricing_plan_id":"free"},{"bike_id":"2baf5c12-896e-4857-beb1-c0b457a46e61","system_id":"levelo_inurba_marseille","lat":43.32368,"lon":5.38884,"is_reserved":false,"is_disabled":false,"rental_uris":{"android":"levelo://app?vid=2baf5c12-896e-4857-beb1-c0b457a46e61","ios":"levelo://app?vid=2baf5c12-896e-4857-beb1-c0b457a46e61"},"vehicle_type_id":"4","last_reported":1689707142,"current_range_meters":24800,"station_id":"ce4bhqp2rcd13ifvqhog","pricing_plan_id":"free"},{"bike_id":"33af6360-898e-403d-80f9-b88a5dacf14e","system_id":"levelo_inurba_marseille","lat":43.29602,"lon":5.381084,"is_reserved":false,"is_disabled":false,"rental_uris":{"android":"levelo://app?vid=33af6360-898e-403d-80f9-b88a5dacf14e","ios":"levelo://app?vid=33af6360-898e-403d-80f9-b88a5dacf14e"},"vehicle_type_id":"4","last_reported":1689707142,"current_range_meters":10000,"station_id":"ce4bgl12rcd13ifvqbo0","pricing_plan_id":"free"},{"bike_id":"6000a0db-1038-4047-9b12-0bdc77dfa08a","system_id":"levelo_inurba_marseille","lat":43.29601,"lon":5.381084,"is_reserved":false,"is_disabled":false,"rental_uris":{"android":"levelo://app?vid=6000a0db-1038-4047-9b12-0bdc77dfa08a","ios":"levelo://app?vid=6000a0db-1038-4047-9b12-0bdc77dfa08a"},"vehicle_type_id":"4","last_reported":1689707142,"current_range_meters":5200,"station_id":"ce4bgl12rcd13ifvqbo0","pricing_plan_id":"free"},{"bike_id":"5e3c4725-5bd2-4b06-accc-2ad485b5e15d","system_id":"levelo_inurba_marseille","lat":43.29602,"lon":5.381084,"is_reserved":false,"is_disabled":false,"rental_uris":{"android":"levelo://app?vid=5e3c4725-5bd2-4b06-accc-2ad485b5e15d","ios":"levelo://app?vid=5e3c4725-5bd2-4b06-accc-2ad485b5e15d"},"vehicle_type_id":"4","last_reported":1689707142,"current_range_meters":15200,"station_id":"ce4bgl12rcd13ifvqbo0","pricing_plan_id":"free"},{"bike_id":"23eca65d-b80a-4241-93f8-e1516925305b","system_id":"levelo_inurba_marseille","lat":43.29602,"lon":5.381084,"is_reserved":false,"is_disabled":false,"rental_uris":{"android":"levelo://app?vid=23eca65d-b80a-4241-93f8-e1516925305b","ios":"levelo://app?vid=23eca65d-b80a-4241-93f8-e1516925305b"},"vehicle_type_id":"4","last_reported":1689707142,"current_range_meters":18800,"station_id":"ce4bgl12rcd13ifvqbo0","pricing_plan_id":"free"},{"bike_id":"ad5889f3-e71a-4e16-89de-ffdff95c95a1","system_id":"levelo_inurba_marseille","lat":43.29331,"lon":5.37284,"is_reserved":false,"is_disabled":false,"rental_uris":{"android":"levelo://app?vid=ad5889f3-e71a-4e16-89de-ffdff95c95a1","ios":"levelo://app?vid=ad5889f3-e71a-4e16-89de-ffdff95c95a1"},"vehicle_type_id":"4","last_reported":1689707142,"current_range_meters":21200,"station_id":"","pricing_plan_id":"free"},{"bike_id":"a00db40e-90f6-4b08-aad1-d7bec5b79bcf","system_id":"levelo_inurba_marseille","lat":43.293259,"lon":5.371586,"is_reserved":false,"is_disabled":false,"rental_uris":{"android":"levelo://app?vid=a00db40e-90f6-4b08-aad1-d7bec5b79bcf","ios":"levelo://app?vid=a00db40e-90f6-4b08-aad1-d7bec5b79bcf"},"vehicle_type_id":"4","last_reported":1689707142,"current_range_meters":17600,"station_id":"ce4bgh92rcd13ifvqb40","pricing_plan_id":"free"},{"bike_id":"94484169-2d51-46e6-aede-73c21eac8a82","system_id":"levelo_inurba_marseille","lat":43.30245,"lon":5.3907,"is_reserved":false,"is_disabled":false,"rental_uris":{"android":"levelo://app?vid=94484169-2d51-46e6-aede-73c21eac8a82","ios":"levelo://app?vid=94484169-2d51-46e6-aede-73c21eac8a82"},"vehicle_type_id":"4","last_reported":1689707142,"current_range_meters":25600,"station_id":"","pricing_plan_id":"free"},{"bike_id":"dc4e0837-2e97-42be-bba0-57100709d3c1","system_id":"levelo_inurba_marseille","lat":43.293009,"lon":5.374584,"is_reserved":false,"is_disabled":false,"rental_uris":{"android":"levelo://app?vid=dc4e0837-2e97-42be-bba0-57100709d3c1","ios":"levelo://app?vid=dc4e0837-2e97-42be-bba0-57100709d3c1"},"vehicle_type_id":"4","last_reported":1689707142,"current_range_meters":24000,"station_id":"ce4bgi12rcd13ifvqb70","pricing_plan_id":"free"},{"bike_id":"eab67f38-a483-4646-bcf6-43012b715720","system_id":"levelo_inurba_marseille","lat":43.293009,"lon":5.374584,"is_reserved":false,"is_disabled":false,"rental_uris":{"android":"levelo://app?vid=eab67f38-a483-4646-bcf6-43012b715720","ios":"levelo://app?vid=eab67f38-a483-4646-bcf6-43012b715720"},"vehicle_type_id":"4","last_reported":1689707142,"current_range_meters":6400,"station_id":"ce4bgi12rcd13ifvqb70","pricing_plan_id":"free"},{"bike_id":"4ee61d53-2b23-4773-b7fe-2efa79673493","system_id":"levelo_inurba_marseille","lat":43.29295,"lon":5.37454,"is_reserved":false,"is_disabled":false,"rental_uris":{"android":"levelo://app?vid=4ee61d53-2b23-4773-b7fe-2efa79673493","ios":"levelo://app?vid=4ee61d53-2b23-4773-b7fe-2efa79673493"},"vehicle_type_id":"4","last_reported":1689707142,"current_range_meters":15200,"station_id":"","pricing_plan_id":"free"},{"bike_id":"dceee68f-5ce8-406b-b046-0bca3aaddfcb","system_id":"levelo_inurba_marseille","lat":43.293009,"lon":5.374584,"is_reserved":false,"is_disabled":false,"rental_uris":{"android":"levelo://app?vid=dceee68f-5ce8-406b-b046-0bca3aaddfcb","ios":"levelo://app?vid=dceee68f-5ce8-406b-b046-0bca3aaddfcb"},"vehicle_type_id":"4","last_reported":1689707142,"current_range_meters":18000,"station_id":"ce4bgi12rcd13ifvqb70","pricing_plan_id":"free"},{"bike_id":"69863942-dede-44ac-90a1-ff10666e331e","system_id":"levelo_inurba_marseille","lat":43.293009,"lon":5.374584,"is_reserved":false,"is_disabled":false,"rental_uris":{"android":"levelo://app?vid=69863942-dede-44ac-90a1-ff10666e331e","ios":"levelo://app?vid=69863942-dede-44ac-90a1-ff10666e331e"},"vehicle_type_id":"4","last_reported":1689707142,"current_range_meters":0,"station_id":"ce4bgi12rcd13ifvqb70","pricing_plan_id":"free"},{"bike_id":"6b392774-3fb7-43fd-9fbb-aa04d4514b47","system_id":"levelo_inurba_marseille","lat":43.303002,"lon":5.392142,"is_reserved":false,"is_disabled":false,"rental_uris":{"android":"levelo://app?vid=6b392774-3fb7-43fd-9fbb-aa04d4514b47","ios":"levelo://app?vid=6b392774-3fb7-43fd-9fbb-aa04d4514b47"},"vehicle_type_id":"4","last_reported":1689707142,"current_range_meters":17200,"station_id":"ce4bgkh2rcd13ifvqbk0","pricing_plan_id":"free"},{"bike_id":"9c64f742-ced4-4553-8b03-fab42b555981","system_id":"levelo_inurba_marseille","lat":43.30306,"lon":5.39218,"is_reserved":false,"is_disabled":false,"rental_uris":{"android":"levelo://app?vid=9c64f742-ced4-4553-8b03-fab42b555981","ios":"levelo://app?vid=9c64f742-ced4-4553-8b03-fab42b555981"},"vehicle_type_id":"4","last_reported":1689707142,"current_range_meters":4800,"station_id":"ce4bgkh2rcd13ifvqbk0","pricing_plan_id":"free"},{"bike_id":"c17d8d90-01c5-454f-ba1c-acbdbd88319e","system_id":"levelo_inurba_marseille","lat":43.302992,"lon":5.392136,"is_reserved":false,"is_disabled":false,"rental_uris":{"android":"levelo://app?vid=c17d8d90-01c5-454f-ba1c-acbdbd88319e","ios":"levelo://app?vid=c17d8d90-01c5-454f-ba1c-acbdbd88319e"},"vehicle_type_id":"4","last_reported":1689707142,"current_range_meters":16400,"station_id":"ce4bgkh2rcd13ifvqbk0","pricing_plan_id":"free"},{"bike_id":"dbaf0883-5a87-43ed-8808-9c06ba6bc1f0","system_id":"levelo_inurba_marseille","lat":43.302992,"lon":5.392136,"is_reserved":false,"is_disabled":false,"rental_uris":{"android":"levelo://app?vid=dbaf0883-5a87-43ed-8808-9c06ba6bc1f0","ios":"levelo://app?vid=dbaf0883-5a87-43ed-8808-9c06ba6bc1f0"},"vehicle_type_id":"4","last_reported":1689707142,"current_range_meters":14000,"station_id":"ce4bgkh2rcd13ifvqbk0","pricing_plan_id":"free"},{"bike_id":"c8369944-72f3-41a0-b875-529bc5624c7b","system_id":"levelo_inurba_marseille","lat":43.2936,"lon":5.37835,"is_reserved":false,"is_disabled":false,"rental_uris":{"android":"levelo://app?vid=c8369944-72f3-41a0-b875-529bc5624c7b","ios":"levelo://app?vid=c8369944-72f3-41a0-b875-529bc5624c7b"},"vehicle_type_id":"4","last_reported":1689707142,"current_range_meters":9600,"station_id":"ce4bgjh2rcd13ifvqbf0","pricing_plan_id":"free"},{"bike_id":"adc407ee-fe43-4116-955c-ea4a162838c2","system_id":"levelo_inurba_marseille","lat":43.292311,"lon":5.360731,"is_reserved":false,"is_disabled":false,"rental_uris":{"android":"levelo://app?vid=adc407ee-fe43-4116-955c-ea4a162838c2","ios":"levelo://app?vid=adc407ee-fe43-4116-955c-ea4a162838c2"},"vehicle_type_id":"4","last_reported":1689707142,"current_range_meters":30400,"station_id":"ce4bhbh2rcd13ifvqeqg","pricing_plan_id":"free"},{"bike_id":"bfe374d8-5da5-4ab6-96aa-49b1bc8b92e0","system_id":"levelo_inurba_marseille","lat":43.30085,"lon":5.390856,"is_reserved":false,"is_disabled":false,"rental_uris":{"android":"levelo://app?vid=bfe374d8-5da5-4ab6-96aa-49b1bc8b92e0","ios":"levelo://app?vid=bfe374d8-5da5-4ab6-96aa-49b1bc8b92e0"},"vehicle_type_id":"4","last_reported":1689707142,"current_range_meters":22800,"station_id":"ce4bh192rcd13ifvqdb0","pricing_plan_id":"free"},{"bike_id":"1304b5df-c1a0-438a-9d68-87b3950b8c9e","system_id":"levelo_inurba_marseille","lat":43.30085,"lon":5.390856,"is_reserved":false,"is_disabled":false,"rental_uris":{"android":"levelo://app?vid=1304b5df-c1a0-438a-9d68-87b3950b8c9e","ios":"levelo://app?vid=1304b5df-c1a0-438a-9d68-87b3950b8c9e"},"vehicle_type_id":"4","last_reported":1689707142,"current_range_meters":9600,"station_id":"ce4bh192rcd13ifvqdb0","pricing_plan_id":"free"},{"bike_id":"505b5842-b625-451f-9737-97f1138fea3c","system_id":"levelo_inurba_marseille","lat":43.292663,"lon":5.376394,"is_reserved":false,"is_disabled":false,"rental_uris":{"android":"levelo://app?vid=505b5842-b625-451f-9737-97f1138fea3c","ios":"levelo://app?vid=505b5842-b625-451f-9737-97f1138fea3c"},"vehicle_type_id":"4","last_reported":1689707142,"current_range_meters":18800,"station_id":"ce4bgi12rcd13ifvqb80","pricing_plan_id":"free"},{"bike_id":"05911c12-db29-4578-9efe-cda63b893780","system_id":"levelo_inurba_marseille","lat":43.300852,"lon":5.390859,"is_reserved":false,"is_disabled":false,"rental_uris":{"android":"levelo://app?vid=05911c12-db29-4578-9efe-cda63b893780","ios":"levelo://app?vid=05911c12-db29-4578-9efe-cda63b893780"},"vehicle_type_id":"4","last_reported":1689707142,"current_range_meters":27600,"station_id":"ce4bh192rcd13ifvqdb0","pricing_plan_id":"free"},{"bike_id":"83887638-657d-4e0a-862c-c5323eab81bb","system_id":"levelo_inurba_marseille","lat":43.292663,"lon":5.376389,"is_reserved":false,"is_disabled":false,"rental_uris":{"android":"levelo://app?vid=83887638-657d-4e0a-862c-c5323eab81bb","ios":"levelo://app?vid=83887638-657d-4e0a-862c-c5323eab81bb"},"vehicle_type_id":"4","last_reported":1689707142,"current_range_meters":12800,"station_id":"ce4bgi12rcd13ifvqb80","pricing_plan_id":"free"},{"bike_id":"00dd9710-d091-4dd8-a9a0-0cc781d37c0e","system_id":"levelo_inurba_marseille","lat":43.291675,"lon":5.371583,"is_reserved":false,"is_disabled":false,"rental_uris":{"android":"levelo://app?vid=00dd9710-d091-4dd8-a9a0-0cc781d37c0e","ios":"levelo://app?vid=00dd9710-d091-4dd8-a9a0-0cc781d37c0e"},"vehicle_type_id":"4","last_reported":1689707142,"current_range_meters":8400,"station_id":"ce4bha92rcd13ifvqeh0","pricing_plan_id":"free"},{"bike_id":"6e23cd9d-44c2-489f-ba55-76d6bdb11da0","system_id":"levelo_inurba_marseille","lat":43.309038,"lon":5.396546,"is_reserved":false,"is_disabled":false,"rental_uris":{"android":"levelo://app?vid=6e23cd9d-44c2-489f-ba55-76d6bdb11da0","ios":"levelo://app?vid=6e23cd9d-44c2-489f-ba55-76d6bdb11da0"},"vehicle_type_id":"4","last_reported":1689707142,"current_range_meters":12400,"station_id":"ce4bh012rcd13ifvqcv0","pricing_plan_id":"free"},{"bike_id":"42590978-69ff-4e55-95be-943b603d30a1","system_id":"levelo_inurba_marseille","lat":43.309038,"lon":5.396546,"is_reserved":false,"is_disabled":false,"rental_uris":{"android":"levelo://app?vid=42590978-69ff-4e55-95be-943b603d30a1","ios":"levelo://app?vid=42590978-69ff-4e55-95be-943b603d30a1"},"vehicle_type_id":"4","last_reported":1689707142,"current_range_meters":0,"station_id":"ce4bh012rcd13ifvqcv0","pricing_plan_id":"free"},{"bike_id":"cd60b1c2-fd73-4472-b305-cdc611f32f3d","system_id":"levelo_inurba_marseille","lat":43.309038,"lon":5.396546,"is_reserved":false,"is_disabled":false,"rental_uris":{"android":"levelo://app?vid=cd60b1c2-fd73-4472-b305-cdc611f32f3d","ios":"levelo://app?vid=cd60b1c2-fd73-4472-b305-cdc611f32f3d"},"vehicle_type_id":"4","last_reported":1689707142,"current_range_meters":14000,"station_id":"ce4bh012rcd13ifvqcv0","pricing_plan_id":"free"},{"bike_id":"053b46e9-a1d4-49d5-a63f-d6cc85f9b736","system_id":"levelo_inurba_marseille","lat":43.313291,"lon":5.396838,"is_reserved":false,"is_disabled":false,"rental_uris":{"android":"levelo://app?vid=053b46e9-a1d4-49d5-a63f-d6cc85f9b736","ios":"levelo://app?vid=053b46e9-a1d4-49d5-a63f-d6cc85f9b736"},"vehicle_type_id":"4","last_reported":1689707142,"current_range_meters":21600,"station_id":"ce4bgvp2rcd13ifvqcu0","pricing_plan_id":"free"},{"bike_id":"68c1a075-d57b-454d-b4fe-76e9e4e420f0","system_id":"levelo_inurba_marseille","lat":43.309038,"lon":5.396546,"is_reserved":false,"is_disabled":false,"rental_uris":{"android":"levelo://app?vid=68c1a075-d57b-454d-b4fe-76e9e4e420f0","ios":"levelo://app?vid=68c1a075-d57b-454d-b4fe-76e9e4e420f0"},"vehicle_type_id":"4","last_reported":1689707142,"current_range_meters":6000,"station_id":"ce4bh012rcd13ifvqcv0","pricing_plan_id":"free"},{"bike_id":"75bcb5dc-54ab-4969-9917-dec98d7d35f0","system_id":"levelo_inurba_marseille","lat":43.29237,"lon":5.35574,"is_reserved":false,"is_disabled":false,"rental_uris":{"android":"levelo://app?vid=75bcb5dc-54ab-4969-9917-dec98d7d35f0","ios":"levelo://app?vid=75bcb5dc-54ab-4969-9917-dec98d7d35f0"},"vehicle_type_id":"4","last_reported":1689707142,"current_range_meters":14000,"station_id":"","pricing_plan_id":"free"},{"bike_id":"60fedae2-4cb2-47fc-82ad-7756bbdd0412","system_id":"levelo_inurba_marseille","lat":43.29529,"lon":5.385581,"is_reserved":false,"is_disabled":false,"rental_uris":{"android":"levelo://app?vid=60fedae2-4cb2-47fc-82ad-7756bbdd0412","ios":"levelo://app?vid=60fedae2-4cb2-47fc-82ad-7756bbdd0412"},"vehicle_type_id":"4","last_reported":1689707142,"current_range_meters":22800,"station_id":"ce4bgih2rcd13ifvqba0","pricing_plan_id":"free"},{"bike_id":"b62e8d9f-8e28-412f-b6b2-a720766020a9","system_id":"levelo_inurba_marseille","lat":43.29529,"lon":5.385581,"is_reserved":false,"is_disabled":false,"rental_uris":{"android":"levelo://app?vid=b62e8d9f-8e28-412f-b6b2-a720766020a9","ios":"levelo://app?vid=b62e8d9f-8e28-412f-b6b2-a720766020a9"},"vehicle_type_id":"4","last_reported":1689707142,"current_range_meters":20400,"station_id":"ce4bgih2rcd13ifvqba0","pricing_plan_id":"free"},{"bike_id":"fd517fe2-3219-40b9-b56f-d8f24707abda","system_id":"levelo_inurba_marseille","lat":43.29529,"lon":5.385581,"is_reserved":false,"is_disabled":false,"rental_uris":{"android":"levelo://app?vid=fd517fe2-3219-40b9-b56f-d8f24707abda","ios":"levelo://app?vid=fd517fe2-3219-40b9-b56f-d8f24707abda"},"vehicle_type_id":"4","last_reported":1689707142,"current_range_meters":14000,"station_id":"ce4bgih2rcd13ifvqba0","pricing_plan_id":"free"},{"bike_id":"b69faa0e-7096-4522-acce-d15564b8da8f","system_id":"levelo_inurba_marseille","lat":43.29073,"lon":5.37159,"is_reserved":false,"is_disabled":false,"rental_uris":{"android":"levelo://app?vid=b69faa0e-7096-4522-acce-d15564b8da8f","ios":"levelo://app?vid=b69faa0e-7096-4522-acce-d15564b8da8f"},"vehicle_type_id":"4","last_reported":1689707142,"current_range_meters":31200,"station_id":"ce4bh5p2rcd13ifvqe4g","pricing_plan_id":"free"},{"bike_id":"0f5d05b0-3f0e-4836-8c95-7e1886cc6086","system_id":"levelo_inurba_marseille","lat":43.290779,"lon":5.371482,"is_reserved":false,"is_disabled":false,"rental_uris":{"android":"levelo://app?vid=0f5d05b0-3f0e-4836-8c95-7e1886cc6086","ios":"levelo://app?vid=0f5d05b0-3f0e-4836-8c95-7e1886cc6086"},"vehicle_type_id":"4","last_reported":1689707142,"current_range_meters":6000,"station_id":"ce4bh5p2rcd13ifvqe4g","pricing_plan_id":"free"},{"bike_id":"79796d93-9892-4da5-bafd-094de65be420","system_id":"levelo_inurba_marseille","lat":43.290779,"lon":5.371482,"is_reserved":false,"is_disabled":false,"rental_uris":{"android":"levelo://app?vid=79796d93-9892-4da5-bafd-094de65be420","ios":"levelo://app?vid=79796d93-9892-4da5-bafd-094de65be420"},"vehicle_type_id":"4","last_reported":1689707142,"current_range_meters":11600,"station_id":"ce4bh5p2rcd13ifvqe4g","pricing_plan_id":"free"},{"bike_id":"b43d9562-5570-4568-ab42-94e08f4d3fb3","system_id":"levelo_inurba_marseille","lat":43.290779,"lon":5.371482,"is_reserved":false,"is_disabled":false,"rental_uris":{"android":"levelo://app?vid=b43d9562-5570-4568-ab42-94e08f4d3fb3","ios":"levelo://app?vid=b43d9562-5570-4568-ab42-94e08f4d3fb3"},"vehicle_type_id":"4","last_reported":1689707142,"current_range_meters":21600,"station_id":"ce4bh5p2rcd13ifvqe4g","pricing_plan_id":"free"},{"bike_id":"b8463e71-1334-4eab-98c2-a78c681e17a0","system_id":"levelo_inurba_marseille","lat":43.302008,"lon":5.394694,"is_reserved":false,"is_disabled":false,"rental_uris":{"android":"levelo://app?vid=b8463e71-1334-4eab-98c2-a78c681e17a0","ios":"levelo://app?vid=b8463e71-1334-4eab-98c2-a78c681e17a0"},"vehicle_type_id":"4","last_reported":1689707142,"current_range_meters":24800,"station_id":"ce4bh0p2rcd13ifvqd70","pricing_plan_id":"free"},{"bike_id":"98d1b043-d079-42fc-b2d7-78f80138d28a","system_id":"levelo_inurba_marseille","lat":43.302008,"lon":5.394694,"is_reserved":false,"is_disabled":false,"rental_uris":{"android":"levelo://app?vid=98d1b043-d079-42fc-b2d7-78f80138d28a","ios":"levelo://app?vid=98d1b043-d079-42fc-b2d7-78f80138d28a"},"vehicle_type_id":"4","last_reported":1689707142,"current_range_meters":19200,"station_id":"ce4bh0p2rcd13ifvqd70","pricing_plan_id":"free"},{"bike_id":"ec01b002-62ac-416f-bfc5-91b0500fd73d","system_id":"levelo_inurba_marseille","lat":43.302008,"lon":5.394694,"is_reserved":false,"is_disabled":false,"rental_uris":{"android":"levelo://app?vid=ec01b002-62ac-416f-bfc5-91b0500fd73d","ios":"levelo://app?vid=ec01b002-62ac-416f-bfc5-91b0500fd73d"},"vehicle_type_id":"4","last_reported":1689707142,"current_range_meters":17200,"station_id":"ce4bh0p2rcd13ifvqd70","pricing_plan_id":"free"},{"bike_id":"16fe9f09-b254-4a47-ac37-e0cca4b63406","system_id":"levelo_inurba_marseille","lat":43.302008,"lon":5.394694,"is_reserved":false,"is_disabled":false,"rental_uris":{"android":"levelo://app?vid=16fe9f09-b254-4a47-ac37-e0cca4b63406","ios":"levelo://app?vid=16fe9f09-b254-4a47-ac37-e0cca4b63406"},"vehicle_type_id":"4","last_reported":1689707142,"current_range_meters":11600,"station_id":"ce4bh0p2rcd13ifvqd70","pricing_plan_id":"free"},{"bike_id":"18086a51-2d52-4de9-9069-73e1137d153c","system_id":"levelo_inurba_marseille","lat":43.294529,"lon":5.385879,"is_reserved":false,"is_disabled":false,"rental_uris":{"android":"levelo://app?vid=18086a51-2d52-4de9-9069-73e1137d153c","ios":"levelo://app?vid=18086a51-2d52-4de9-9069-73e1137d153c"},"vehicle_type_id":"4","last_reported":1689707142,"current_range_meters":10000,"station_id":"ce4bh2h2rcd13ifvqdh0","pricing_plan_id":"free"},{"bike_id":"f370fa82-b774-4654-baa3-3dd9d02a65b5","system_id":"levelo_inurba_marseille","lat":43.302008,"lon":5.394694,"is_reserved":false,"is_disabled":false,"rental_uris":{"android":"levelo://app?vid=f370fa82-b774-4654-baa3-3dd9d02a65b5","ios":"levelo://app?vid=f370fa82-b774-4654-baa3-3dd9d02a65b5"},"vehicle_type_id":"4","last_reported":1689707142,"current_range_meters":26400,"station_id":"ce4bh0p2rcd13ifvqd70","pricing_plan_id":"free"},{"bike_id":"ec66e687-aada-4a83-a331-b77c9e5e6893","system_id":"levelo_inurba_marseille","lat":43.290624,"lon":5.359245,"is_reserved":false,"is_disabled":false,"rental_uris":{"android":"levelo://app?vid=ec66e687-aada-4a83-a331-b77c9e5e6893","ios":"levelo://app?vid=ec66e687-aada-4a83-a331-b77c9e5e6893"},"vehicle_type_id":"4","last_reported":1689707142,"current_range_meters":19600,"station_id":"ce4bha92rcd13ifvqeg0","pricing_plan_id":"free"},{"bike_id":"4beb39f2-9be9-47e6-a9a0-532c8864c5a4","system_id":"levelo_inurba_marseille","lat":43.290624,"lon":5.359245,"is_reserved":false,"is_disabled":false,"rental_uris":{"android":"levelo://app?vid=4beb39f2-9be9-47e6-a9a0-532c8864c5a4","ios":"levelo://app?vid=4beb39f2-9be9-47e6-a9a0-532c8864c5a4"},"vehicle_type_id":"4","last_reported":1689707142,"current_range_meters":22000,"station_id":"ce4bha92rcd13ifvqeg0","pricing_plan_id":"free"},{"bike_id":"8142f7e6-0a8a-4bc6-b6b7-ef9c8e5469b4","system_id":"levelo_inurba_marseille","lat":43.29425,"lon":5.3862,"is_reserved":false,"is_disabled":false,"rental_uris":{"android":"levelo://app?vid=8142f7e6-0a8a-4bc6-b6b7-ef9c8e5469b4","ios":"levelo://app?vid=8142f7e6-0a8a-4bc6-b6b7-ef9c8e5469b4"},"vehicle_type_id":"4","last_reported":1689707142,"current_range_meters":18000,"station_id":"ce4bh2h2rcd13ifvqdh0","pricing_plan_id":"free"},{"bike_id":"dd43993a-46bd-40e6-8963-956dcd3b3445","system_id":"levelo_inurba_marseille","lat":43.29425,"lon":5.3862,"is_reserved":false,"is_disabled":false,"rental_uris":{"android":"levelo://app?vid=dd43993a-46bd-40e6-8963-956dcd3b3445","ios":"levelo://app?vid=dd43993a-46bd-40e6-8963-956dcd3b3445"},"vehicle_type_id":"4","last_reported":1689707142,"current_range_meters":31200,"station_id":"ce4bh2h2rcd13ifvqdh0","pricing_plan_id":"free"},{"bike_id":"73519695-bead-434b-8e8f-748d12a4d034","system_id":"levelo_inurba_marseille","lat":43.29419,"lon":5.38613,"is_reserved":false,"is_disabled":false,"rental_uris":{"android":"levelo://app?vid=73519695-bead-434b-8e8f-748d12a4d034","ios":"levelo://app?vid=73519695-bead-434b-8e8f-748d12a4d034"},"vehicle_type_id":"4","last_reported":1689707142,"current_range_meters":4400,"station_id":"ce4bh2h2rcd13ifvqdh0","pricing_plan_id":"free"},{"bike_id":"4b564cee-f1d6-4147-8ed5-6fd3754d80b1","system_id":"levelo_inurba_marseille","lat":43.29424,"lon":5.38625,"is_reserved":false,"is_disabled":false,"rental_uris":{"android":"levelo://app?vid=4b564cee-f1d6-4147-8ed5-6fd3754d80b1","ios":"levelo://app?vid=4b564cee-f1d6-4147-8ed5-6fd3754d80b1"},"vehicle_type_id":"4","last_reported":1689707142,"current_range_meters":20800,"station_id":"ce4bh2h2rcd13ifvqdh0","pricing_plan_id":"free"},{"bike_id":"c6c81bef-7139-4bea-9905-f7b34613c73b","system_id":"levelo_inurba_marseille","lat":43.29421,"lon":5.38621,"is_reserved":false,"is_disabled":false,"rental_uris":{"android":"levelo://app?vid=c6c81bef-7139-4bea-9905-f7b34613c73b","ios":"levelo://app?vid=c6c81bef-7139-4bea-9905-f7b34613c73b"},"vehicle_type_id":"4","last_reported":1689707142,"current_range_meters":29200,"station_id":"ce4bh2h2rcd13ifvqdh0","pricing_plan_id":"free"},{"bike_id":"0f265242-486a-484c-966f-95640f0a5c57","system_id":"levelo_inurba_marseille","lat":43.294162,"lon":5.386292,"is_reserved":false,"is_disabled":false,"rental_uris":{"android":"levelo://app?vid=0f265242-486a-484c-966f-95640f0a5c57","ios":"levelo://app?vid=0f265242-486a-484c-966f-95640f0a5c57"},"vehicle_type_id":"4","last_reported":1689707142,"current_range_meters":22800,"station_id":"ce4bh2h2rcd13ifvqdh0","pricing_plan_id":"free"},{"bike_id":"95209c08-113b-416a-9c17-c54601a296f8","system_id":"levelo_inurba_marseille","lat":43.2942,"lon":5.38623,"is_reserved":false,"is_disabled":false,"rental_uris":{"android":"levelo://app?vid=95209c08-113b-416a-9c17-c54601a296f8","ios":"levelo://app?vid=95209c08-113b-416a-9c17-c54601a296f8"},"vehicle_type_id":"4","last_reported":1689707142,"current_range_meters":14400,"station_id":"ce4bh2h2rcd13ifvqdh0","pricing_plan_id":"free"},{"bike_id":"aecd2ae7-4813-4023-98a2-275063e17ecb","system_id":"levelo_inurba_marseille","lat":43.28958,"lon":5.36381,"is_reserved":false,"is_disabled":false,"rental_uris":{"android":"levelo://app?vid=aecd2ae7-4813-4023-98a2-275063e17ecb","ios":"levelo://app?vid=aecd2ae7-4813-4023-98a2-275063e17ecb"},"vehicle_type_id":"4","last_reported":1689707142,"current_range_meters":20800,"station_id":"ce4bhc92rcd13ifvqetg","pricing_plan_id":"free"},{"bike_id":"ae21bfe1-4fb0-4b96-90e7-618c04a2e974","system_id":"levelo_inurba_marseille","lat":43.294162,"lon":5.386292,"is_reserved":false,"is_disabled":false,"rental_uris":{"android":"levelo://app?vid=ae21bfe1-4fb0-4b96-90e7-618c04a2e974","ios":"levelo://app?vid=ae21bfe1-4fb0-4b96-90e7-618c04a2e974"},"vehicle_type_id":"4","last_reported":1689707142,"current_range_meters":11200,"station_id":"ce4bh2h2rcd13ifvqdh0","pricing_plan_id":"free"},{"bike_id":"f4b47e1d-2f5d-4e00-a430-4697c86fca4f","system_id":"levelo_inurba_marseille","lat":43.294162,"lon":5.386292,"is_reserved":false,"is_disabled":false,"rental_uris":{"android":"levelo://app?vid=f4b47e1d-2f5d-4e00-a430-4697c86fca4f","ios":"levelo://app?vid=f4b47e1d-2f5d-4e00-a430-4697c86fca4f"},"vehicle_type_id":"4","last_reported":1689707142,"current_range_meters":30000,"station_id":"ce4bh2h2rcd13ifvqdh0","pricing_plan_id":"free"},{"bike_id":"c02e0936-7955-4fd2-be91-bf6400004d96","system_id":"levelo_inurba_marseille","lat":43.294162,"lon":5.386292,"is_reserved":false,"is_disabled":false,"rental_uris":{"android":"levelo://app?vid=c02e0936-7955-4fd2-be91-bf6400004d96","ios":"levelo://app?vid=c02e0936-7955-4fd2-be91-bf6400004d96"},"vehicle_type_id":"4","last_reported":1689707142,"current_range_meters":31200,"station_id":"ce4bh2h2rcd13ifvqdh0","pricing_plan_id":"free"},{"bike_id":"a1a8f382-df76-4119-975a-b99eed472cba","system_id":"levelo_inurba_marseille","lat":43.294162,"lon":5.386292,"is_reserved":false,"is_disabled":false,"rental_uris":{"android":"levelo://app?vid=a1a8f382-df76-4119-975a-b99eed472cba","ios":"levelo://app?vid=a1a8f382-df76-4119-975a-b99eed472cba"},"vehicle_type_id":"4","last_reported":1689707142,"current_range_meters":17600,"station_id":"ce4bh2h2rcd13ifvqdh0","pricing_plan_id":"free"},{"bike_id":"c7f07f31-d9c4-47d2-82d1-2b15b22fcced","system_id":"levelo_inurba_marseille","lat":43.289184,"lon":5.366408,"is_reserved":false,"is_disabled":false,"rental_uris":{"android":"levelo://app?vid=c7f07f31-d9c4-47d2-82d1-2b15b22fcced","ios":"levelo://app?vid=c7f07f31-d9c4-47d2-82d1-2b15b22fcced"},"vehicle_type_id":"4","last_reported":1689707142,"current_range_meters":19200,"station_id":"ce4bhap2rcd13ifvqek0","pricing_plan_id":"free"},{"bike_id":"b2cf5865-fb1b-4d00-8a90-4fbaed6d2d99","system_id":"levelo_inurba_marseille","lat":43.294162,"lon":5.386292,"is_reserved":false,"is_disabled":false,"rental_uris":{"android":"levelo://app?vid=b2cf5865-fb1b-4d00-8a90-4fbaed6d2d99","ios":"levelo://app?vid=b2cf5865-fb1b-4d00-8a90-4fbaed6d2d99"},"vehicle_type_id":"4","last_reported":1689707142,"current_range_meters":10400,"station_id":"ce4bh2h2rcd13ifvqdh0","pricing_plan_id":"free"},{"bike_id":"4a919888-9d94-4053-ba60-979ddb2c3ce2","system_id":"levelo_inurba_marseille","lat":43.289184,"lon":5.366408,"is_reserved":false,"is_disabled":false,"rental_uris":{"android":"levelo://app?vid=4a919888-9d94-4053-ba60-979ddb2c3ce2","ios":"levelo://app?vid=4a919888-9d94-4053-ba60-979ddb2c3ce2"},"vehicle_type_id":"4","last_reported":1689707142,"current_range_meters":24800,"station_id":"ce4bhap2rcd13ifvqek0","pricing_plan_id":"free"},{"bike_id":"5a616f1f-ec33-44fa-9b78-2e7f5bde471c","system_id":"levelo_inurba_marseille","lat":43.290416,"lon":5.376064,"is_reserved":false,"is_disabled":false,"rental_uris":{"android":"levelo://app?vid=5a616f1f-ec33-44fa-9b78-2e7f5bde471c","ios":"levelo://app?vid=5a616f1f-ec33-44fa-9b78-2e7f5bde471c"},"vehicle_type_id":"4","last_reported":1689707142,"current_range_meters":18800,"station_id":"","pricing_plan_id":"free"},{"bike_id":"b3489c2f-b635-4fdb-bf52-202ad61a276e","system_id":"levelo_inurba_marseille","lat":43.294162,"lon":5.386292,"is_reserved":false,"is_disabled":false,"rental_uris":{"android":"levelo://app?vid=b3489c2f-b635-4fdb-bf52-202ad61a276e","ios":"levelo://app?vid=b3489c2f-b635-4fdb-bf52-202ad61a276e"},"vehicle_type_id":"4","last_reported":1689707142,"current_range_meters":31200,"station_id":"ce4bh2h2rcd13ifvqdh0","pricing_plan_id":"free"},{"bike_id":"f571b1cb-1673-4c66-9ef5-2cc4392284eb","system_id":"levelo_inurba_marseille","lat":43.294162,"lon":5.386292,"is_reserved":false,"is_disabled":false,"rental_uris":{"android":"levelo://app?vid=f571b1cb-1673-4c66-9ef5-2cc4392284eb","ios":"levelo://app?vid=f571b1cb-1673-4c66-9ef5-2cc4392284eb"},"vehicle_type_id":"4","last_reported":1689707142,"current_range_meters":10000,"station_id":"ce4bh2h2rcd13ifvqdh0","pricing_plan_id":"free"},{"bike_id":"b5055c31-a423-4d8a-870c-9e08ad93aaf8","system_id":"levelo_inurba_marseille","lat":43.29415,"lon":5.38625,"is_reserved":false,"is_disabled":false,"rental_uris":{"android":"levelo://app?vid=b5055c31-a423-4d8a-870c-9e08ad93aaf8","ios":"levelo://app?vid=b5055c31-a423-4d8a-870c-9e08ad93aaf8"},"vehicle_type_id":"4","last_reported":1689707142,"current_range_meters":12800,"station_id":"ce4bh2h2rcd13ifvqdh0","pricing_plan_id":"free"},{"bike_id":"94ee896c-a65e-4271-accf-047482948161","system_id":"levelo_inurba_marseille","lat":43.294162,"lon":5.386292,"is_reserved":false,"is_disabled":false,"rental_uris":{"android":"levelo://app?vid=94ee896c-a65e-4271-accf-047482948161","ios":"levelo://app?vid=94ee896c-a65e-4271-accf-047482948161"},"vehicle_type_id":"4","last_reported":1689707142,"current_range_meters":15600,"station_id":"ce4bh2h2rcd13ifvqdh0","pricing_plan_id":"free"},{"bike_id":"a612846f-6328-4b39-b10c-3573d56aba8e","system_id":"levelo_inurba_marseille","lat":43.289184,"lon":5.366408,"is_reserved":false,"is_disabled":false,"rental_uris":{"android":"levelo://app?vid=a612846f-6328-4b39-b10c-3573d56aba8e","ios":"levelo://app?vid=a612846f-6328-4b39-b10c-3573d56aba8e"},"vehicle_type_id":"4","last_reported":1689707142,"current_range_meters":21200,"station_id":"ce4bhap2rcd13ifvqek0","pricing_plan_id":"free"},{"bike_id":"838ae5f9-b8e6-4fbe-abf8-69d918d00fe3","system_id":"levelo_inurba_marseille","lat":43.294162,"lon":5.386292,"is_reserved":false,"is_disabled":false,"rental_uris":{"android":"levelo://app?vid=838ae5f9-b8e6-4fbe-abf8-69d918d00fe3","ios":"levelo://app?vid=838ae5f9-b8e6-4fbe-abf8-69d918d00fe3"},"vehicle_type_id":"4","last_reported":1689707142,"current_range_meters":22800,"station_id":"ce4bh2h2rcd13ifvqdh0","pricing_plan_id":"free"},{"bike_id":"a7adbdbe-3b10-4942-a5a3-49ce3ee4e070","system_id":"levelo_inurba_marseille","lat":43.294162,"lon":5.386292,"is_reserved":false,"is_disabled":false,"rental_uris":{"android":"levelo://app?vid=a7adbdbe-3b10-4942-a5a3-49ce3ee4e070","ios":"levelo://app?vid=a7adbdbe-3b10-4942-a5a3-49ce3ee4e070"},"vehicle_type_id":"4","last_reported":1689707142,"current_range_meters":0,"station_id":"ce4bh2h2rcd13ifvqdh0","pricing_plan_id":"free"},{"bike_id":"59fb0fe2-d83f-4024-a6b8-89c0c8ee7110","system_id":"levelo_inurba_marseille","lat":43.29413,"lon":5.38623,"is_reserved":false,"is_disabled":false,"rental_uris":{"android":"levelo://app?vid=59fb0fe2-d83f-4024-a6b8-89c0c8ee7110","ios":"levelo://app?vid=59fb0fe2-d83f-4024-a6b8-89c0c8ee7110"},"vehicle_type_id":"4","last_reported":1689707142,"current_range_meters":12000,"station_id":"ce4bh2h2rcd13ifvqdh0","pricing_plan_id":"free"},{"bike_id":"c9cf8a91-66b9-41fb-8193-a6777af27498","system_id":"levelo_inurba_marseille","lat":43.289184,"lon":5.366408,"is_reserved":false,"is_disabled":false,"rental_uris":{"android":"levelo://app?vid=c9cf8a91-66b9-41fb-8193-a6777af27498","ios":"levelo://app?vid=c9cf8a91-66b9-41fb-8193-a6777af27498"},"vehicle_type_id":"4","last_reported":1689707142,"current_range_meters":15600,"station_id":"ce4bhap2rcd13ifvqek0","pricing_plan_id":"free"},{"bike_id":"ccedf69a-0038-4fb9-a5ae-a70c92845df4","system_id":"levelo_inurba_marseille","lat":43.289184,"lon":5.366408,"is_reserved":false,"is_disabled":false,"rental_uris":{"android":"levelo://app?vid=ccedf69a-0038-4fb9-a5ae-a70c92845df4","ios":"levelo://app?vid=ccedf69a-0038-4fb9-a5ae-a70c92845df4"},"vehicle_type_id":"4","last_reported":1689707142,"current_range_meters":8800,"station_id":"ce4bhap2rcd13ifvqek0","pricing_plan_id":"free"},{"bike_id":"bf6b1fcc-eae0-41ca-b3d8-b60f2d9c973c","system_id":"levelo_inurba_marseille","lat":43.289184,"lon":5.366408,"is_reserved":false,"is_disabled":false,"rental_uris":{"android":"levelo://app?vid=bf6b1fcc-eae0-41ca-b3d8-b60f2d9c973c","ios":"levelo://app?vid=bf6b1fcc-eae0-41ca-b3d8-b60f2d9c973c"},"vehicle_type_id":"4","last_reported":1689707142,"current_range_meters":4800,"station_id":"ce4bhap2rcd13ifvqek0","pricing_plan_id":"free"},{"bike_id":"c925120d-a10e-4a19-a192-22c358953b81","system_id":"levelo_inurba_marseille","lat":43.289184,"lon":5.366408,"is_reserved":false,"is_disabled":false,"rental_uris":{"android":"levelo://app?vid=c925120d-a10e-4a19-a192-22c358953b81","ios":"levelo://app?vid=c925120d-a10e-4a19-a192-22c358953b81"},"vehicle_type_id":"4","last_reported":1689707142,"current_range_meters":14400,"station_id":"ce4bhap2rcd13ifvqek0","pricing_plan_id":"free"},{"bike_id":"8aabce08-d486-4569-95df-ad3cf10f4613","system_id":"levelo_inurba_marseille","lat":43.289184,"lon":5.366408,"is_reserved":false,"is_disabled":false,"rental_uris":{"android":"levelo://app?vid=8aabce08-d486-4569-95df-ad3cf10f4613","ios":"levelo://app?vid=8aabce08-d486-4569-95df-ad3cf10f4613"},"vehicle_type_id":"4","last_reported":1689707142,"current_range_meters":7600,"station_id":"ce4bhap2rcd13ifvqek0","pricing_plan_id":"free"},{"bike_id":"2b873659-2edd-47ae-af57-2a51ae11aa7b","system_id":"levelo_inurba_marseille","lat":43.289184,"lon":5.366408,"is_reserved":false,"is_disabled":false,"rental_uris":{"android":"levelo://app?vid=2b873659-2edd-47ae-af57-2a51ae11aa7b","ios":"levelo://app?vid=2b873659-2edd-47ae-af57-2a51ae11aa7b"},"vehicle_type_id":"4","last_reported":1689707142,"current_range_meters":13200,"station_id":"ce4bhap2rcd13ifvqek0","pricing_plan_id":"free"},{"bike_id":"312ecb83-8db2-49d9-b806-86ad1b415d3c","system_id":"levelo_inurba_marseille","lat":43.289184,"lon":5.366408,"is_reserved":false,"is_disabled":false,"rental_uris":{"android":"levelo://app?vid=312ecb83-8db2-49d9-b806-86ad1b415d3c","ios":"levelo://app?vid=312ecb83-8db2-49d9-b806-86ad1b415d3c"},"vehicle_type_id":"4","last_reported":1689707142,"current_range_meters":25600,"station_id":"ce4bhap2rcd13ifvqek0","pricing_plan_id":"free"},{"bike_id":"92f65670-dd38-4361-be20-b42c95734cf1","system_id":"levelo_inurba_marseille","lat":43.289184,"lon":5.366408,"is_reserved":false,"is_disabled":false,"rental_uris":{"android":"levelo://app?vid=92f65670-dd38-4361-be20-b42c95734cf1","ios":"levelo://app?vid=92f65670-dd38-4361-be20-b42c95734cf1"},"vehicle_type_id":"4","last_reported":1689707142,"current_range_meters":17200,"station_id":"ce4bhap2rcd13ifvqek0","pricing_plan_id":"free"},{"bike_id":"55c09699-7829-4946-af14-bc6afcb3db38","system_id":"levelo_inurba_marseille","lat":43.28931,"lon":5.36637,"is_reserved":false,"is_disabled":false,"rental_uris":{"android":"levelo://app?vid=55c09699-7829-4946-af14-bc6afcb3db38","ios":"levelo://app?vid=55c09699-7829-4946-af14-bc6afcb3db38"},"vehicle_type_id":"4","last_reported":1689707142,"current_range_meters":31200,"station_id":"ce4bhap2rcd13ifvqek0","pricing_plan_id":"free"},{"bike_id":"c732a003-c19e-4c15-aa4f-8ae47f02d924","system_id":"levelo_inurba_marseille","lat":43.289184,"lon":5.366408,"is_reserved":false,"is_disabled":false,"rental_uris":{"android":"levelo://app?vid=c732a003-c19e-4c15-aa4f-8ae47f02d924","ios":"levelo://app?vid=c732a003-c19e-4c15-aa4f-8ae47f02d924"},"vehicle_type_id":"4","last_reported":1689707142,"current_range_meters":22400,"station_id":"ce4bhap2rcd13ifvqek0","pricing_plan_id":"free"},{"bike_id":"70bc1472-05bc-4855-82e7-fc27d4396648","system_id":"levelo_inurba_marseille","lat":43.289184,"lon":5.366408,"is_reserved":false,"is_disabled":false,"rental_uris":{"android":"levelo://app?vid=70bc1472-05bc-4855-82e7-fc27d4396648","ios":"levelo://app?vid=70bc1472-05bc-4855-82e7-fc27d4396648"},"vehicle_type_id":"4","last_reported":1689707142,"current_range_meters":18800,"station_id":"ce4bhap2rcd13ifvqek0","pricing_plan_id":"free"},{"bike_id":"9d755c2a-557b-41ca-97d9-925645eee08b","system_id":"levelo_inurba_marseille","lat":43.289468,"lon":5.363719,"is_reserved":false,"is_disabled":false,"rental_uris":{"android":"levelo://app?vid=9d755c2a-557b-41ca-97d9-925645eee08b","ios":"levelo://app?vid=9d755c2a-557b-41ca-97d9-925645eee08b"},"vehicle_type_id":"4","last_reported":1689707142,"current_range_meters":20800,"station_id":"ce4bhc92rcd13ifvqetg","pricing_plan_id":"free"},{"bike_id":"d0d16dbb-765b-4cb3-b66a-3d2cdfa9eaf2","system_id":"levelo_inurba_marseille","lat":43.304274,"lon":5.397513,"is_reserved":false,"is_disabled":false,"rental_uris":{"android":"levelo://app?vid=d0d16dbb-765b-4cb3-b66a-3d2cdfa9eaf2","ios":"levelo://app?vid=d0d16dbb-765b-4cb3-b66a-3d2cdfa9eaf2"},"vehicle_type_id":"4","last_reported":1689707142,"current_range_meters":30000,"station_id":"ce4bh092rcd13ifvqd20","pricing_plan_id":"free"},{"bike_id":"6dc8aea0-17a2-4f9d-a090-844233d6493b","system_id":"levelo_inurba_marseille","lat":43.292644,"lon":5.384257,"is_reserved":false,"is_disabled":false,"rental_uris":{"android":"levelo://app?vid=6dc8aea0-17a2-4f9d-a090-844233d6493b","ios":"levelo://app?vid=6dc8aea0-17a2-4f9d-a090-844233d6493b"},"vehicle_type_id":"4","last_reported":1689707142,"current_range_meters":20400,"station_id":"ce4bh692rcd13ifvqea0","pricing_plan_id":"free"},{"bike_id":"3245d067-dd03-44d3-96e7-2d26b9c22f66","system_id":"levelo_inurba_marseille","lat":43.30436,"lon":5.39745,"is_reserved":false,"is_disabled":false,"rental_uris":{"android":"levelo://app?vid=3245d067-dd03-44d3-96e7-2d26b9c22f66","ios":"levelo://app?vid=3245d067-dd03-44d3-96e7-2d26b9c22f66"},"vehicle_type_id":"4","last_reported":1689707142,"current_range_meters":13200,"station_id":"ce4bh092rcd13ifvqd20","pricing_plan_id":"free"},{"bike_id":"ab68fff2-cd23-481b-8fc6-33ff9d5a764f","system_id":"levelo_inurba_marseille","lat":43.292644,"lon":5.384257,"is_reserved":false,"is_disabled":false,"rental_uris":{"android":"levelo://app?vid=ab68fff2-cd23-481b-8fc6-33ff9d5a764f","ios":"levelo://app?vid=ab68fff2-cd23-481b-8fc6-33ff9d5a764f"},"vehicle_type_id":"4","last_reported":1689707142,"current_range_meters":19200,"station_id":"ce4bh692rcd13ifvqea0","pricing_plan_id":"free"},{"bike_id":"0f03dbe6-57b8-4ce5-9913-262d823b168f","system_id":"levelo_inurba_marseille","lat":43.30423,"lon":5.39743,"is_reserved":false,"is_disabled":false,"rental_uris":{"android":"levelo://app?vid=0f03dbe6-57b8-4ce5-9913-262d823b168f","ios":"levelo://app?vid=0f03dbe6-57b8-4ce5-9913-262d823b168f"},"vehicle_type_id":"4","last_reported":1689707142,"current_range_meters":20800,"station_id":"ce4bh092rcd13ifvqd20","pricing_plan_id":"free"},{"bike_id":"629f68e5-9c05-44bf-9532-e65dd64b3051","system_id":"levelo_inurba_marseille","lat":43.304296,"lon":5.397513,"is_reserved":false,"is_disabled":false,"rental_uris":{"android":"levelo://app?vid=629f68e5-9c05-44bf-9532-e65dd64b3051","ios":"levelo://app?vid=629f68e5-9c05-44bf-9532-e65dd64b3051"},"vehicle_type_id":"4","last_reported":1689707142,"current_range_meters":19200,"station_id":"ce4bh092rcd13ifvqd20","pricing_plan_id":"free"},{"bike_id":"e27ec48f-3902-491f-a1d2-6c649ce26732","system_id":"levelo_inurba_marseille","lat":43.30425,"lon":5.39746,"is_reserved":false,"is_disabled":false,"rental_uris":{"android":"levelo://app?vid=e27ec48f-3902-491f-a1d2-6c649ce26732","ios":"levelo://app?vid=e27ec48f-3902-491f-a1d2-6c649ce26732"},"vehicle_type_id":"4","last_reported":1689707142,"current_range_meters":6400,"station_id":"ce4bh092rcd13ifvqd20","pricing_plan_id":"free"},{"bike_id":"3505fa7f-89f3-4878-af90-c342e30e044f","system_id":"levelo_inurba_marseille","lat":43.292644,"lon":5.384257,"is_reserved":false,"is_disabled":false,"rental_uris":{"android":"levelo://app?vid=3505fa7f-89f3-4878-af90-c342e30e044f","ios":"levelo://app?vid=3505fa7f-89f3-4878-af90-c342e30e044f"},"vehicle_type_id":"4","last_reported":1689707142,"current_range_meters":17200,"station_id":"ce4bh692rcd13ifvqea0","pricing_plan_id":"free"},{"bike_id":"ad4a6cbb-4749-497f-9207-a4ebbbe04a8a","system_id":"levelo_inurba_marseille","lat":43.292644,"lon":5.384257,"is_reserved":false,"is_disabled":false,"rental_uris":{"android":"levelo://app?vid=ad4a6cbb-4749-497f-9207-a4ebbbe04a8a","ios":"levelo://app?vid=ad4a6cbb-4749-497f-9207-a4ebbbe04a8a"},"vehicle_type_id":"4","last_reported":1689707142,"current_range_meters":18400,"station_id":"ce4bh692rcd13ifvqea0","pricing_plan_id":"free"},{"bike_id":"49b40424-51bd-4430-9dac-fd42d22c7457","system_id":"levelo_inurba_marseille","lat":43.292642,"lon":5.384254,"is_reserved":false,"is_disabled":false,"rental_uris":{"android":"levelo://app?vid=49b40424-51bd-4430-9dac-fd42d22c7457","ios":"levelo://app?vid=49b40424-51bd-4430-9dac-fd42d22c7457"},"vehicle_type_id":"4","last_reported":1689707142,"current_range_meters":20400,"station_id":"ce4bh692rcd13ifvqea0","pricing_plan_id":"free"},{"bike_id":"6c9cb0d5-9568-4b1b-8705-90c4d105f01a","system_id":"levelo_inurba_marseille","lat":43.292644,"lon":5.384257,"is_reserved":false,"is_disabled":false,"rental_uris":{"android":"levelo://app?vid=6c9cb0d5-9568-4b1b-8705-90c4d105f01a","ios":"levelo://app?vid=6c9cb0d5-9568-4b1b-8705-90c4d105f01a"},"vehicle_type_id":"4","last_reported":1689707142,"current_range_meters":25600,"station_id":"ce4bh692rcd13ifvqea0","pricing_plan_id":"free"},{"bike_id":"454fffc0-73ae-4677-92c3-52dcd290297a","system_id":"levelo_inurba_marseille","lat":43.29011,"lon":5.35621,"is_reserved":false,"is_disabled":false,"rental_uris":{"android":"levelo://app?vid=454fffc0-73ae-4677-92c3-52dcd290297a","ios":"levelo://app?vid=454fffc0-73ae-4677-92c3-52dcd290297a"},"vehicle_type_id":"4","last_reported":1689707142,"current_range_meters":28400,"station_id":"ce4bhb92rcd13ifvqen0","pricing_plan_id":"free"},{"bike_id":"40a64735-aae0-40f4-951e-382c78d316e8","system_id":"levelo_inurba_marseille","lat":43.2901,"lon":5.35615,"is_reserved":false,"is_disabled":false,"rental_uris":{"android":"levelo://app?vid=40a64735-aae0-40f4-951e-382c78d316e8","ios":"levelo://app?vid=40a64735-aae0-40f4-951e-382c78d316e8"},"vehicle_type_id":"4","last_reported":1689707142,"current_range_meters":28000,"station_id":"ce4bhb92rcd13ifvqen0","pricing_plan_id":"free"},{"bike_id":"657291ce-8776-41e1-8f68-3574f6579ab9","system_id":"levelo_inurba_marseille","lat":43.29009,"lon":5.35613,"is_reserved":false,"is_disabled":false,"rental_uris":{"android":"levelo://app?vid=657291ce-8776-41e1-8f68-3574f6579ab9","ios":"levelo://app?vid=657291ce-8776-41e1-8f68-3574f6579ab9"},"vehicle_type_id":"4","last_reported":1689707142,"current_range_meters":5600,"station_id":"ce4bhb92rcd13ifvqen0","pricing_plan_id":"free"},{"bike_id":"dff91c95-0942-46a3-a883-6b929d79533f","system_id":"levelo_inurba_marseille","lat":43.33046,"lon":5.38915,"is_reserved":false,"is_disabled":false,"rental_uris":{"android":"levelo://app?vid=dff91c95-0942-46a3-a883-6b929d79533f","ios":"levelo://app?vid=dff91c95-0942-46a3-a883-6b929d79533f"},"vehicle_type_id":"4","last_reported":1689707142,"current_range_meters":8000,"station_id":"ce4bhr92rcd13ifvqhrg","pricing_plan_id":"free"},{"bike_id":"7b293299-0182-493a-a8ea-f72d29edccaa","system_id":"levelo_inurba_marseille","lat":43.33046,"lon":5.38915,"is_reserved":false,"is_disabled":false,"rental_uris":{"android":"levelo://app?vid=7b293299-0182-493a-a8ea-f72d29edccaa","ios":"levelo://app?vid=7b293299-0182-493a-a8ea-f72d29edccaa"},"vehicle_type_id":"4","last_reported":1689707142,"current_range_meters":8000,"station_id":"ce4bhr92rcd13ifvqhrg","pricing_plan_id":"free"},{"bike_id":"f059f759-d306-4169-a328-72fcde3eae61","system_id":"levelo_inurba_marseille","lat":43.29008,"lon":5.3561,"is_reserved":false,"is_disabled":false,"rental_uris":{"android":"levelo://app?vid=f059f759-d306-4169-a328-72fcde3eae61","ios":"levelo://app?vid=f059f759-d306-4169-a328-72fcde3eae61"},"vehicle_type_id":"4","last_reported":1689707142,"current_range_meters":18400,"station_id":"ce4bhb92rcd13ifvqen0","pricing_plan_id":"free"},{"bike_id":"dc245f38-9b56-477b-a3a0-89f6eff7c01f","system_id":"levelo_inurba_marseille","lat":43.29008,"lon":5.35606,"is_reserved":false,"is_disabled":false,"rental_uris":{"android":"levelo://app?vid=dc245f38-9b56-477b-a3a0-89f6eff7c01f","ios":"levelo://app?vid=dc245f38-9b56-477b-a3a0-89f6eff7c01f"},"vehicle_type_id":"4","last_reported":1689707142,"current_range_meters":16400,"station_id":"ce4bhb92rcd13ifvqen0","pricing_plan_id":"free"},{"bike_id":"bd012bd1-d24a-40c8-89a3-8323a67303b2","system_id":"levelo_inurba_marseille","lat":43.29007,"lon":5.35609,"is_reserved":false,"is_disabled":false,"rental_uris":{"android":"levelo://app?vid=bd012bd1-d24a-40c8-89a3-8323a67303b2","ios":"levelo://app?vid=bd012bd1-d24a-40c8-89a3-8323a67303b2"},"vehicle_type_id":"4","last_reported":1689707142,"current_range_meters":21200,"station_id":"ce4bhb92rcd13ifvqen0","pricing_plan_id":"free"},{"bike_id":"aafb81ff-fb3d-4e90-8f8a-6772b9229bbc","system_id":"levelo_inurba_marseille","lat":43.29007,"lon":5.35609,"is_reserved":false,"is_disabled":false,"rental_uris":{"android":"levelo://app?vid=aafb81ff-fb3d-4e90-8f8a-6772b9229bbc","ios":"levelo://app?vid=aafb81ff-fb3d-4e90-8f8a-6772b9229bbc"},"vehicle_type_id":"4","last_reported":1689707142,"current_range_meters":14000,"station_id":"ce4bhb92rcd13ifvqen0","pricing_plan_id":"free"},{"bike_id":"32836fe6-6bf4-4f5c-b28d-64f685738ff6","system_id":"levelo_inurba_marseille","lat":43.29008,"lon":5.35604,"is_reserved":false,"is_disabled":false,"rental_uris":{"android":"levelo://app?vid=32836fe6-6bf4-4f5c-b28d-64f685738ff6","ios":"levelo://app?vid=32836fe6-6bf4-4f5c-b28d-64f685738ff6"},"vehicle_type_id":"4","last_reported":1689707142,"current_range_meters":28400,"station_id":"ce4bhb92rcd13ifvqen0","pricing_plan_id":"free"},{"bike_id":"2d67757d-4c43-4179-9f56-9c4765f8ab76","system_id":"levelo_inurba_marseille","lat":43.29007,"lon":5.35607,"is_reserved":false,"is_disabled":false,"rental_uris":{"android":"levelo://app?vid=2d67757d-4c43-4179-9f56-9c4765f8ab76","ios":"levelo://app?vid=2d67757d-4c43-4179-9f56-9c4765f8ab76"},"vehicle_type_id":"4","last_reported":1689707142,"current_range_meters":1200,"station_id":"ce4bhb92rcd13ifvqen0","pricing_plan_id":"free"},{"bike_id":"6a532f1d-79e6-4120-b0d5-9f6a02269f2c","system_id":"levelo_inurba_marseille","lat":43.29005,"lon":5.3561,"is_reserved":false,"is_disabled":false,"rental_uris":{"android":"levelo://app?vid=6a532f1d-79e6-4120-b0d5-9f6a02269f2c","ios":"levelo://app?vid=6a532f1d-79e6-4120-b0d5-9f6a02269f2c"},"vehicle_type_id":"4","last_reported":1689707142,"current_range_meters":18000,"station_id":"ce4bhb92rcd13ifvqen0","pricing_plan_id":"free"},{"bike_id":"3caa5310-362b-4ad0-8e3a-0a490786f0db","system_id":"levelo_inurba_marseille","lat":43.29002,"lon":5.35617,"is_reserved":false,"is_disabled":false,"rental_uris":{"android":"levelo://app?vid=3caa5310-362b-4ad0-8e3a-0a490786f0db","ios":"levelo://app?vid=3caa5310-362b-4ad0-8e3a-0a490786f0db"},"vehicle_type_id":"4","last_reported":1689707142,"current_range_meters":24800,"station_id":"ce4bhb92rcd13ifvqen0","pricing_plan_id":"free"},{"bike_id":"8c245575-7ce2-48a5-a0e9-76eb5ec7a5c8","system_id":"levelo_inurba_marseille","lat":43.290104,"lon":5.356111,"is_reserved":false,"is_disabled":false,"rental_uris":{"android":"levelo://app?vid=8c245575-7ce2-48a5-a0e9-76eb5ec7a5c8","ios":"levelo://app?vid=8c245575-7ce2-48a5-a0e9-76eb5ec7a5c8"},"vehicle_type_id":"4","last_reported":1689707142,"current_range_meters":31200,"station_id":"ce4bhb92rcd13ifvqen0","pricing_plan_id":"free"},{"bike_id":"ad38977f-e5d0-447d-a4d6-7a1bc028dfa8","system_id":"levelo_inurba_marseille","lat":43.290995,"lon":5.381361,"is_reserved":false,"is_disabled":false,"rental_uris":{"android":"levelo://app?vid=ad38977f-e5d0-447d-a4d6-7a1bc028dfa8","ios":"levelo://app?vid=ad38977f-e5d0-447d-a4d6-7a1bc028dfa8"},"vehicle_type_id":"4","last_reported":1689707142,"current_range_meters":12000,"station_id":"ce4bh512rcd13ifvqe2g","pricing_plan_id":"free"},{"bike_id":"33ff712e-6eaa-4f2b-b9cf-41fd7d15ff17","system_id":"levelo_inurba_marseille","lat":43.29001,"lon":5.35608,"is_reserved":false,"is_disabled":false,"rental_uris":{"android":"levelo://app?vid=33ff712e-6eaa-4f2b-b9cf-41fd7d15ff17","ios":"levelo://app?vid=33ff712e-6eaa-4f2b-b9cf-41fd7d15ff17"},"vehicle_type_id":"4","last_reported":1689707142,"current_range_meters":31200,"station_id":"ce4bhb92rcd13ifvqen0","pricing_plan_id":"free"},{"bike_id":"043584fd-838f-493b-916b-04b943b450cf","system_id":"levelo_inurba_marseille","lat":43.290995,"lon":5.381361,"is_reserved":false,"is_disabled":false,"rental_uris":{"android":"levelo://app?vid=043584fd-838f-493b-916b-04b943b450cf","ios":"levelo://app?vid=043584fd-838f-493b-916b-04b943b450cf"},"vehicle_type_id":"4","last_reported":1689707142,"current_range_meters":15600,"station_id":"ce4bh512rcd13ifvqe2g","pricing_plan_id":"free"},{"bike_id":"e2be2eaa-ab50-40f9-a77e-dec8cb2cd1b8","system_id":"levelo_inurba_marseille","lat":43.290995,"lon":5.381361,"is_reserved":false,"is_disabled":false,"rental_uris":{"android":"levelo://app?vid=e2be2eaa-ab50-40f9-a77e-dec8cb2cd1b8","ios":"levelo://app?vid=e2be2eaa-ab50-40f9-a77e-dec8cb2cd1b8"},"vehicle_type_id":"4","last_reported":1689707142,"current_range_meters":28400,"station_id":"ce4bh512rcd13ifvqe2g","pricing_plan_id":"free"},{"bike_id":"2dcbdf09-763a-435c-ae37-eab69b1ddce4","system_id":"levelo_inurba_marseille","lat":43.289741,"lon":5.378306,"is_reserved":false,"is_disabled":false,"rental_uris":{"android":"levelo://app?vid=2dcbdf09-763a-435c-ae37-eab69b1ddce4","ios":"levelo://app?vid=2dcbdf09-763a-435c-ae37-eab69b1ddce4"},"vehicle_type_id":"4","last_reported":1689707142,"current_range_meters":13600,"station_id":"ce4bh9p2rcd13ifvqed0","pricing_plan_id":"free"},{"bike_id":"3498651a-2699-46c9-b0aa-4ffa842aeecb","system_id":"levelo_inurba_marseille","lat":43.295169,"lon":5.390426,"is_reserved":false,"is_disabled":false,"rental_uris":{"android":"levelo://app?vid=3498651a-2699-46c9-b0aa-4ffa842aeecb","ios":"levelo://app?vid=3498651a-2699-46c9-b0aa-4ffa842aeecb"},"vehicle_type_id":"4","last_reported":1689707142,"current_range_meters":25600,"station_id":"ce4bh3p2rcd13ifvqdp0","pricing_plan_id":"free"},{"bike_id":"d3bb7d31-66d8-4baa-b502-2dca5885890d","system_id":"levelo_inurba_marseille","lat":43.295169,"lon":5.390426,"is_reserved":false,"is_disabled":false,"rental_uris":{"android":"levelo://app?vid=d3bb7d31-66d8-4baa-b502-2dca5885890d","ios":"levelo://app?vid=d3bb7d31-66d8-4baa-b502-2dca5885890d"},"vehicle_type_id":"4","last_reported":1689707142,"current_range_meters":10000,"station_id":"ce4bh3p2rcd13ifvqdp0","pricing_plan_id":"free"},{"bike_id":"f9ac8e36-6c84-4f28-9c17-62ac31fbbf4f","system_id":"levelo_inurba_marseille","lat":43.295169,"lon":5.390426,"is_reserved":false,"is_disabled":false,"rental_uris":{"android":"levelo://app?vid=f9ac8e36-6c84-4f28-9c17-62ac31fbbf4f","ios":"levelo://app?vid=f9ac8e36-6c84-4f28-9c17-62ac31fbbf4f"},"vehicle_type_id":"4","last_reported":1689707142,"current_range_meters":27600,"station_id":"ce4bh3p2rcd13ifvqdp0","pricing_plan_id":"free"},{"bike_id":"df614d1d-ec41-4ffc-9973-6d2c60df1c43","system_id":"levelo_inurba_marseille","lat":43.295169,"lon":5.390426,"is_reserved":false,"is_disabled":false,"rental_uris":{"android":"levelo://app?vid=df614d1d-ec41-4ffc-9973-6d2c60df1c43","ios":"levelo://app?vid=df614d1d-ec41-4ffc-9973-6d2c60df1c43"},"vehicle_type_id":"4","last_reported":1689707142,"current_range_meters":3600,"station_id":"ce4bh3p2rcd13ifvqdp0","pricing_plan_id":"free"},{"bike_id":"fac537b4-2550-4a86-a960-799a0e927199","system_id":"levelo_inurba_marseille","lat":43.295169,"lon":5.390426,"is_reserved":false,"is_disabled":false,"rental_uris":{"android":"levelo://app?vid=fac537b4-2550-4a86-a960-799a0e927199","ios":"levelo://app?vid=fac537b4-2550-4a86-a960-799a0e927199"},"vehicle_type_id":"4","last_reported":1689707142,"current_range_meters":21600,"station_id":"ce4bh3p2rcd13ifvqdp0","pricing_plan_id":"free"},{"bike_id":"2255fd51-0fb2-4662-b8c9-d71c069920b5","system_id":"levelo_inurba_marseille","lat":43.295169,"lon":5.390426,"is_reserved":false,"is_disabled":false,"rental_uris":{"android":"levelo://app?vid=2255fd51-0fb2-4662-b8c9-d71c069920b5","ios":"levelo://app?vid=2255fd51-0fb2-4662-b8c9-d71c069920b5"},"vehicle_type_id":"4","last_reported":1689707142,"current_range_meters":27200,"station_id":"ce4bh3p2rcd13ifvqdp0","pricing_plan_id":"free"},{"bike_id":"0b145ff6-5d5e-42cd-8f78-65387a16c930","system_id":"levelo_inurba_marseille","lat":43.295169,"lon":5.390426,"is_reserved":false,"is_disabled":false,"rental_uris":{"android":"levelo://app?vid=0b145ff6-5d5e-42cd-8f78-65387a16c930","ios":"levelo://app?vid=0b145ff6-5d5e-42cd-8f78-65387a16c930"},"vehicle_type_id":"4","last_reported":1689707142,"current_range_meters":20000,"station_id":"ce4bh3p2rcd13ifvqdp0","pricing_plan_id":"free"},{"bike_id":"c0562328-aca7-429b-8ddf-3bdb1b1c3d7b","system_id":"levelo_inurba_marseille","lat":43.28856,"lon":5.358371,"is_reserved":false,"is_disabled":false,"rental_uris":{"android":"levelo://app?vid=c0562328-aca7-429b-8ddf-3bdb1b1c3d7b","ios":"levelo://app?vid=c0562328-aca7-429b-8ddf-3bdb1b1c3d7b"},"vehicle_type_id":"4","last_reported":1689707142,"current_range_meters":31600,"station_id":"ce4bhb12rcd13ifvqem0","pricing_plan_id":"free"},{"bike_id":"178c9ec5-a75f-4056-ab9b-699b52da75b8","system_id":"levelo_inurba_marseille","lat":43.290094,"lon":5.381264,"is_reserved":false,"is_disabled":false,"rental_uris":{"android":"levelo://app?vid=178c9ec5-a75f-4056-ab9b-699b52da75b8","ios":"levelo://app?vid=178c9ec5-a75f-4056-ab9b-699b52da75b8"},"vehicle_type_id":"4","last_reported":1689707142,"current_range_meters":25200,"station_id":"ce4bh4p2rcd13ifvqe1g","pricing_plan_id":"free"},{"bike_id":"4cfc67d5-951d-46c2-b801-df1be1695687","system_id":"levelo_inurba_marseille","lat":43.28856,"lon":5.358371,"is_reserved":false,"is_disabled":false,"rental_uris":{"android":"levelo://app?vid=4cfc67d5-951d-46c2-b801-df1be1695687","ios":"levelo://app?vid=4cfc67d5-951d-46c2-b801-df1be1695687"},"vehicle_type_id":"4","last_reported":1689707142,"current_range_meters":28400,"station_id":"ce4bhb12rcd13ifvqem0","pricing_plan_id":"free"},{"bike_id":"0bc26287-d52a-4619-abbf-8deb72b1dc1d","system_id":"levelo_inurba_marseille","lat":43.290094,"lon":5.381264,"is_reserved":false,"is_disabled":false,"rental_uris":{"android":"levelo://app?vid=0bc26287-d52a-4619-abbf-8deb72b1dc1d","ios":"levelo://app?vid=0bc26287-d52a-4619-abbf-8deb72b1dc1d"},"vehicle_type_id":"4","last_reported":1689707142,"current_range_meters":27200,"station_id":"ce4bh4p2rcd13ifvqe1g","pricing_plan_id":"free"},{"bike_id":"a10bb510-c7f9-4f8f-a4c6-e08dcdba2022","system_id":"levelo_inurba_marseille","lat":43.28856,"lon":5.358371,"is_reserved":false,"is_disabled":false,"rental_uris":{"android":"levelo://app?vid=a10bb510-c7f9-4f8f-a4c6-e08dcdba2022","ios":"levelo://app?vid=a10bb510-c7f9-4f8f-a4c6-e08dcdba2022"},"vehicle_type_id":"4","last_reported":1689707142,"current_range_meters":13200,"station_id":"ce4bhb12rcd13ifvqem0","pricing_plan_id":"free"},{"bike_id":"e61f3db7-6b54-461f-941a-fcd0168ad8b3","system_id":"levelo_inurba_marseille","lat":43.28859,"lon":5.35846,"is_reserved":false,"is_disabled":false,"rental_uris":{"android":"levelo://app?vid=e61f3db7-6b54-461f-941a-fcd0168ad8b3","ios":"levelo://app?vid=e61f3db7-6b54-461f-941a-fcd0168ad8b3"},"vehicle_type_id":"4","last_reported":1689707142,"current_range_meters":31200,"station_id":"ce4bhb12rcd13ifvqem0","pricing_plan_id":"free"},{"bike_id":"b9239dba-a395-40c4-9a19-2ce9a4a7a7fb","system_id":"levelo_inurba_marseille","lat":43.28856,"lon":5.358371,"is_reserved":false,"is_disabled":false,"rental_uris":{"android":"levelo://app?vid=b9239dba-a395-40c4-9a19-2ce9a4a7a7fb","ios":"levelo://app?vid=b9239dba-a395-40c4-9a19-2ce9a4a7a7fb"},"vehicle_type_id":"4","last_reported":1689707142,"current_range_meters":3200,"station_id":"ce4bhb12rcd13ifvqem0","pricing_plan_id":"free"},{"bike_id":"d66154f8-05f7-42f8-90f1-42bf6f452fc9","system_id":"levelo_inurba_marseille","lat":43.28856,"lon":5.358371,"is_reserved":false,"is_disabled":false,"rental_uris":{"android":"levelo://app?vid=d66154f8-05f7-42f8-90f1-42bf6f452fc9","ios":"levelo://app?vid=d66154f8-05f7-42f8-90f1-42bf6f452fc9"},"vehicle_type_id":"4","last_reported":1689707142,"current_range_meters":31600,"station_id":"ce4bhb12rcd13ifvqem0","pricing_plan_id":"free"},{"bike_id":"f0b1ecd4-321d-4e2d-a08d-61aea190f7f1","system_id":"levelo_inurba_marseille","lat":43.28856,"lon":5.35844,"is_reserved":false,"is_disabled":false,"rental_uris":{"android":"levelo://app?vid=f0b1ecd4-321d-4e2d-a08d-61aea190f7f1","ios":"levelo://app?vid=f0b1ecd4-321d-4e2d-a08d-61aea190f7f1"},"vehicle_type_id":"4","last_reported":1689707142,"current_range_meters":26800,"station_id":"ce4bhb12rcd13ifvqem0","pricing_plan_id":"free"},{"bike_id":"7055b00a-c93c-4ad2-bc25-4eb866305fe5","system_id":"levelo_inurba_marseille","lat":43.28856,"lon":5.358371,"is_reserved":false,"is_disabled":false,"rental_uris":{"android":"levelo://app?vid=7055b00a-c93c-4ad2-bc25-4eb866305fe5","ios":"levelo://app?vid=7055b00a-c93c-4ad2-bc25-4eb866305fe5"},"vehicle_type_id":"4","last_reported":1689707142,"current_range_meters":23600,"station_id":"ce4bhb12rcd13ifvqem0","pricing_plan_id":"free"},{"bike_id":"65d8432f-c4c6-41cc-8291-eeb784981208","system_id":"levelo_inurba_marseille","lat":43.28856,"lon":5.358371,"is_reserved":false,"is_disabled":false,"rental_uris":{"android":"levelo://app?vid=65d8432f-c4c6-41cc-8291-eeb784981208","ios":"levelo://app?vid=65d8432f-c4c6-41cc-8291-eeb784981208"},"vehicle_type_id":"4","last_reported":1689707142,"current_range_meters":31600,"station_id":"ce4bhb12rcd13ifvqem0","pricing_plan_id":"free"},{"bike_id":"6d4a46aa-6e15-4993-8fd2-787ec3903d53","system_id":"levelo_inurba_marseille","lat":43.28856,"lon":5.358371,"is_reserved":false,"is_disabled":false,"rental_uris":{"android":"levelo://app?vid=6d4a46aa-6e15-4993-8fd2-787ec3903d53","ios":"levelo://app?vid=6d4a46aa-6e15-4993-8fd2-787ec3903d53"},"vehicle_type_id":"4","last_reported":1689707142,"current_range_meters":6400,"station_id":"ce4bhb12rcd13ifvqem0","pricing_plan_id":"free"},{"bike_id":"fdeb2a24-b81c-4f88-b1c1-a0142bb8cb60","system_id":"levelo_inurba_marseille","lat":43.309371,"lon":5.401449,"is_reserved":false,"is_disabled":false,"rental_uris":{"android":"levelo://app?vid=fdeb2a24-b81c-4f88-b1c1-a0142bb8cb60","ios":"levelo://app?vid=fdeb2a24-b81c-4f88-b1c1-a0142bb8cb60"},"vehicle_type_id":"4","last_reported":1689707142,"current_range_meters":28000,"station_id":"ce4bgvp2rcd13ifvqct0","pricing_plan_id":"free"},{"bike_id":"52f31365-0006-4202-a433-c3611c1f0466","system_id":"levelo_inurba_marseille","lat":43.309371,"lon":5.401449,"is_reserved":false,"is_disabled":false,"rental_uris":{"android":"levelo://app?vid=52f31365-0006-4202-a433-c3611c1f0466","ios":"levelo://app?vid=52f31365-0006-4202-a433-c3611c1f0466"},"vehicle_type_id":"4","last_reported":1689707142,"current_range_meters":16000,"station_id":"ce4bgvp2rcd13ifvqct0","pricing_plan_id":"free"},{"bike_id":"f2f2dfc1-8d07-4a68-8b6c-9143e9291023","system_id":"levelo_inurba_marseille","lat":43.309371,"lon":5.401449,"is_reserved":false,"is_disabled":false,"rental_uris":{"android":"levelo://app?vid=f2f2dfc1-8d07-4a68-8b6c-9143e9291023","ios":"levelo://app?vid=f2f2dfc1-8d07-4a68-8b6c-9143e9291023"},"vehicle_type_id":"4","last_reported":1689707142,"current_range_meters":12400,"station_id":"ce4bgvp2rcd13ifvqct0","pricing_plan_id":"free"},{"bike_id":"25426ecd-8997-49d6-abca-70d7be09dfa4","system_id":"levelo_inurba_marseille","lat":43.337444,"lon":5.374475,"is_reserved":false,"is_disabled":false,"rental_uris":{"android":"levelo://app?vid=25426ecd-8997-49d6-abca-70d7be09dfa4","ios":"levelo://app?vid=25426ecd-8997-49d6-abca-70d7be09dfa4"},"vehicle_type_id":"4","last_reported":1689707142,"current_range_meters":14400,"station_id":"","pricing_plan_id":"free"},{"bike_id":"5b115e17-de40-48a9-953d-a213ad540cb3","system_id":"levelo_inurba_marseille","lat":43.337444,"lon":5.374475,"is_reserved":false,"is_disabled":false,"rental_uris":{"android":"levelo://app?vid=5b115e17-de40-48a9-953d-a213ad540cb3","ios":"levelo://app?vid=5b115e17-de40-48a9-953d-a213ad540cb3"},"vehicle_type_id":"4","last_reported":1689707142,"current_range_meters":400,"station_id":"","pricing_plan_id":"free"},{"bike_id":"c4ac535e-f867-43be-aa4b-68ee3a6ba010","system_id":"levelo_inurba_marseille","lat":43.337444,"lon":5.374475,"is_reserved":false,"is_disabled":false,"rental_uris":{"android":"levelo://app?vid=c4ac535e-f867-43be-aa4b-68ee3a6ba010","ios":"levelo://app?vid=c4ac535e-f867-43be-aa4b-68ee3a6ba010"},"vehicle_type_id":"4","last_reported":1689707142,"current_range_meters":0,"station_id":"","pricing_plan_id":"free"},{"bike_id":"5818d1d1-cd9a-42e2-aca0-66a354d88d18","system_id":"levelo_inurba_marseille","lat":43.337444,"lon":5.374475,"is_reserved":false,"is_disabled":false,"rental_uris":{"android":"levelo://app?vid=5818d1d1-cd9a-42e2-aca0-66a354d88d18","ios":"levelo://app?vid=5818d1d1-cd9a-42e2-aca0-66a354d88d18"},"vehicle_type_id":"4","last_reported":1689707142,"current_range_meters":23200,"station_id":"","pricing_plan_id":"free"},{"bike_id":"8435ff39-bd9f-48e8-9b65-37225d6a67d9","system_id":"levelo_inurba_marseille","lat":43.337444,"lon":5.374475,"is_reserved":false,"is_disabled":false,"rental_uris":{"android":"levelo://app?vid=8435ff39-bd9f-48e8-9b65-37225d6a67d9","ios":"levelo://app?vid=8435ff39-bd9f-48e8-9b65-37225d6a67d9"},"vehicle_type_id":"4","last_reported":1689707142,"current_range_meters":0,"station_id":"","pricing_plan_id":"free"},{"bike_id":"829f5559-e032-455d-9fec-638bdf7650ed","system_id":"levelo_inurba_marseille","lat":43.337444,"lon":5.374475,"is_reserved":false,"is_disabled":false,"rental_uris":{"android":"levelo://app?vid=829f5559-e032-455d-9fec-638bdf7650ed","ios":"levelo://app?vid=829f5559-e032-455d-9fec-638bdf7650ed"},