{"last_updated":1740326950,"ttl":60,"version":"2.2","data":{"bikes":[{"bike_id":"09cedd85-a89c-4dcc-90ea-2612ebe05a35","system_id":"levelo_inurba_marseille","lat":43.30955,"lon":5.39027,"is_reserved":false,"is_disabled":false,"rental_uris":{"android":"levelo://app?vid=09cedd85-a89c-4dcc-90ea-2612ebe05a35","ios":"levelo://app?vid=09cedd85-a89c-4dcc-90ea-2612ebe05a35"},"vehicle_type_id":"4","last_reported":1740326951,"current_range_meters":2000,"station_id":"ce4bgup2rcd13ifvqco0","pricing_plan_id":"cebpf4jnsgd1na2vs0mg"},{"bike_id":"91cd9c50-a708-4ca7-8c38-9684716b8855","system_id":"levelo_inurba_marseille","lat":43.33774,"lon":5.37429,"is_reserved":false,"is_disabled":false,"rental_uris":{"android":"levelo://app?vid=91cd9c50-a708-4ca7-8c38-9684716b8855","ios":"levelo://app?vid=91cd9c50-a708-4ca7-8c38-9684716b8855"},"vehicle_type_id":"4","last_reported":1740326951,"current_range_meters":3200,"station_id":"","pricing_plan_id":"cebpf4jnsgd1na2vs0mg"},{"bike_id":"99c63bb1-b588-48a1-b8de-6be3dc293a1c","system_id":"levelo_inurba_marseille","lat":43.238804,"lon":5.365362,"is_reserved":false,"is_disabled":false,"rental_uris":{"android":"levelo://app?vid=99c63bb1-b588-48a1-b8de-6be3dc293a1c","ios":"levelo://app?vid=99c63bb1-b588-48a1-b8de-6be3dc293a1c"},"vehicle_type_id":"4","last_reported":1740326951,"current_range_meters":3200,"station_id":"ce4bhi12rcd13ifvqfp0","pricing_plan_id":"cebpf4jnsgd1na2vs0mg"},{"bike_id":"51f78d1e-068e-444b-9428-a8a8fd1441b7","system_id":"levelo_inurba_marseille","lat":43.28462,"lon":5.35884,"is_reserved":false,"is_disabled":false,"rental_uris":{"android":"levelo://app?vid=51f78d1e-068e-444b-9428-a8a8fd1441b7","ios":"levelo://app?vid=51f78d1e-068e-444b-9428-a8a8fd1441b7"},"vehicle_type_id":"4","last_reported":1740326951,"current_range_meters":3200,"station_id":"ce4bhah2rcd13ifvqei0","pricing_plan_id":"cebpf4jnsgd1na2vs0mg"},{"bike_id":"de655a03-4de0-444b-b12d-104424b02905","system_id":"levelo_inurba_marseille","lat":43.29617,"lon":5.38085,"is_reserved":false,"is_disabled":false,"rental_uris":{"android":"levelo://app?vid=de655a03-4de0-444b-b12d-104424b02905","ios":"levelo://app?vid=de655a03-4de0-444b-b12d-104424b02905"},"vehicle_type_id":"4","last_reported":1740326951,"current_range_meters":3600,"station_id":"ce4bgl12rcd13ifvqbo0","pricing_plan_id":"cebpf4jnsgd1na2vs0mg"},{"bike_id":"957cfad2-e520-418f-a626-985bea81aa8b","system_id":"levelo_inurba_marseille","lat":43.29301,"lon":5.37172,"is_reserved":false,"is_disabled":false,"rental_uris":{"android":"levelo://app?vid=957cfad2-e520-418f-a626-985bea81aa8b","ios":"levelo://app?vid=957cfad2-e520-418f-a626-985bea81aa8b"},"vehicle_type_id":"4","last_reported":1740326951,"current_range_meters":3600,"station_id":"ce4bgh92rcd13ifvqb40","pricing_plan_id":"cebpf4jnsgd1na2vs0mg"},{"bike_id":"1840b1bb-c461-40f7-af81-2da2b88b3cd0","system_id":"levelo_inurba_marseille","lat":43.25821,"lon":5.39439,"is_reserved":false,"is_disabled":false,"rental_uris":{"android":"levelo://app?vid=1840b1bb-c461-40f7-af81-2da2b88b3cd0","ios":"levelo://app?vid=1840b1bb-c461-40f7-af81-2da2b88b3cd0"},"vehicle_type_id":"4","last_reported":1740326951,"current_range_meters":3600,"station_id":"ce4bhip2rcd13ifvqft0","pricing_plan_id":"cebpf4jnsgd1na2vs0mg"},{"bike_id":"4ec63e19-5182-4a89-8203-8f6653eac5ad","system_id":"levelo_inurba_marseille","lat":43.244968,"lon":5.384107,"is_reserved":false,"is_disabled":false,"rental_uris":{"android":"levelo://app?vid=4ec63e19-5182-4a89-8203-8f6653eac5ad","ios":"levelo://app?vid=4ec63e19-5182-4a89-8203-8f6653eac5ad"},"vehicle_type_id":"4","last_reported":1740326951,"current_range_meters":3200,"station_id":"ce4bhn12rcd13ifvqgqg","pricing_plan_id":"cebpf4jnsgd1na2vs0mg"},{"bike_id":"87816e55-cc76-4fca-8b55-3a9d05d19717","system_id":"levelo_inurba_marseille","lat":43.30318,"lon":5.36918,"is_reserved":false,"is_disabled":false,"rental_uris":{"android":"levelo://app?vid=87816e55-cc76-4fca-8b55-3a9d05d19717","ios":"levelo://app?vid=87816e55-cc76-4fca-8b55-3a9d05d19717"},"vehicle_type_id":"4","last_reported":1740326951,"current_range_meters":4000,"station_id":"ce4bgqh2rcd13ifvqc5g","pricing_plan_id":"cebpf4jnsgd1na2vs0mg"},{"bike_id":"597f22d2-3d4a-4b91-8dd6-0882bac65463","system_id":"levelo_inurba_marseille","lat":43.27616,"lon":5.36117,"is_reserved":false,"is_disabled":true,"rental_uris":{"android":"levelo://app?vid=597f22d2-3d4a-4b91-8dd6-0882bac65463","ios":"levelo://app?vid=597f22d2-3d4a-4b91-8dd6-0882bac65463"},"vehicle_type_id":"4","last_reported":1740326951,"current_range_meters":4000,"station_id":"ce4bgj92rcd13ifvqbe0","pricing_plan_id":"cebpf4jnsgd1na2vs0mg"},{"bike_id":"ab46b189-6bae-4129-a7fd-10b3ccd5a48e","system_id":"levelo_inurba_marseille","lat":43.271977,"lon":5.399919,"is_reserved":false,"is_disabled":false,"rental_uris":{"android":"levelo://app?vid=ab46b189-6bae-4129-a7fd-10b3ccd5a48e","ios":"levelo://app?vid=ab46b189-6bae-4129-a7fd-10b3ccd5a48e"},"vehicle_type_id":"4","last_reported":1740326951,"current_range_meters":4000,"station_id":"","pricing_plan_id":"cebpf4jnsgd1na2vs0mg"},{"bike_id":"fa83beb1-2405-4db0-9826-c091cb751783","system_id":"levelo_inurba_marseille","lat":43.25112,"lon":5.40345,"is_reserved":false,"is_disabled":true,"rental_uris":{"android":"levelo://app?vid=fa83beb1-2405-4db0-9826-c091cb751783","ios":"levelo://app?vid=fa83beb1-2405-4db0-9826-c091cb751783"},"vehicle_type_id":"4","last_reported":1740326951,"current_range_meters":4000,"station_id":"ce4bhlh2rcd13ifvqgig","pricing_plan_id":"cebpf4jnsgd1na2vs0mg"},{"bike_id":"d5015d39-44fd-4360-87fa-3d78dfff65ad","system_id":"levelo_inurba_marseille","lat":43.27998,"lon":5.41673,"is_reserved":false,"is_disabled":false,"rental_uris":{"android":"levelo://app?vid=d5015d39-44fd-4360-87fa-3d78dfff65ad","ios":"levelo://app?vid=d5015d39-44fd-4360-87fa-3d78dfff65ad"},"vehicle_type_id":"4","last_reported":1740326951,"current_range_meters":4800,"station_id":"ce4bho12rcd13ifvqh1g","pricing_plan_id":"cebpf4jnsgd1na2vs0mg"},{"bike_id":"72b7aed9-e461-4d6f-aaff-4555878c9731","system_id":"levelo_inurba_marseille","lat":43.309503,"lon":5.390265,"is_reserved":false,"is_disabled":false,"rental_uris":{"android":"levelo://app?vid=72b7aed9-e461-4d6f-aaff-4555878c9731","ios":"levelo://app?vid=72b7aed9-e461-4d6f-aaff-4555878c9731"},"vehicle_type_id":"4","last_reported":1740326951,"current_range_meters":1200,"station_id":"ce4bgi92rcd13ifvqb90","pricing_plan_id":"cebpf4jnsgd1na2vs0mg"},{"bike_id":"c7f4dc33-8afc-43fa-aa2a-08d82151dbbf","system_id":"levelo_inurba_marseille","lat":43.29032,"lon":5.38652,"is_reserved":false,"is_disabled":false,"rental_uris":{"android":"levelo://app?vid=c7f4dc33-8afc-43fa-aa2a-08d82151dbbf","ios":"levelo://app?vid=c7f4dc33-8afc-43fa-aa2a-08d82151dbbf"},"vehicle_type_id":"4","last_reported":1740326951,"current_range_meters":5600,"station_id":"ce4bh4p2rcd13ifvqe0g","pricing_plan_id":"cebpf4jnsgd1na2vs0mg"},{"bike_id":"cce138b1-873c-4422-b964-b0da3615b8c4","system_id":"levelo_inurba_marseille","lat":43.25937,"lon":5.40903,"is_reserved":false,"is_disabled":false,"rental_uris":{"android":"levelo://app?vid=cce138b1-873c-4422-b964-b0da3615b8c4","ios":"levelo://app?vid=cce138b1-873c-4422-b964-b0da3615b8c4"},"vehicle_type_id":"4","last_reported":1740326951,"current_range_meters":5600,"station_id":"ce4bhm92rcd13ifvqglg","pricing_plan_id":"cebpf4jnsgd1na2vs0mg"},{"bike_id":"d262074d-b023-4d8f-89e5-9ccc47ca7a2f","system_id":"levelo_inurba_marseille","lat":43.28612,"lon":5.37073,"is_reserved":false,"is_disabled":false,"rental_uris":{"android":"levelo://app?vid=d262074d-b023-4d8f-89e5-9ccc47ca7a2f","ios":"levelo://app?vid=d262074d-b023-4d8f-89e5-9ccc47ca7a2f"},"vehicle_type_id":"4","last_reported":1740326951,"current_range_meters":5600,"station_id":"ce4bht12rcd13ifvqi60","pricing_plan_id":"cebpf4jnsgd1na2vs0mg"},{"bike_id":"f8f95b90-dff9-4de4-ae68-355770eaafd2","system_id":"levelo_inurba_marseille","lat":43.28614,"lon":5.3511,"is_reserved":false,"is_disabled":false,"rental_uris":{"android":"levelo://app?vid=f8f95b90-dff9-4de4-ae68-355770eaafd2","ios":"levelo://app?vid=f8f95b90-dff9-4de4-ae68-355770eaafd2"},"vehicle_type_id":"4","last_reported":1740326951,"current_range_meters":5600,"station_id":"ce4bhch2rcd13ifvqeug","pricing_plan_id":"cebpf4jnsgd1na2vs0mg"},{"bike_id":"4a8c9843-7598-4492-ac71-805902c8c479","system_id":"levelo_inurba_marseille","lat":43.30085,"lon":5.37021,"is_reserved":false,"is_disabled":false,"rental_uris":{"android":"levelo://app?vid=4a8c9843-7598-4492-ac71-805902c8c479","ios":"levelo://app?vid=4a8c9843-7598-4492-ac71-805902c8c479"},"vehicle_type_id":"4","last_reported":1740326951,"current_range_meters":6000,"station_id":"","pricing_plan_id":"cebpf4jnsgd1na2vs0mg"},{"bike_id":"498fd156-74e1-4d37-a852-67eabfe4e583","system_id":"levelo_inurba_marseille","lat":43.24673,"lon":5.38167,"is_reserved":false,"is_disabled":false,"rental_uris":{"android":"levelo://app?vid=498fd156-74e1-4d37-a852-67eabfe4e583","ios":"levelo://app?vid=498fd156-74e1-4d37-a852-67eabfe4e583"},"vehicle_type_id":"4","last_reported":1740326951,"current_range_meters":6000,"station_id":"ce4bhih2rcd13ifvqfr0","pricing_plan_id":"cebpf4jnsgd1na2vs0mg"},{"bike_id":"f8812183-2a7f-4612-bd78-a321cf2ab341","system_id":"levelo_inurba_marseille","lat":43.32349,"lon":5.40636,"is_reserved":false,"is_disabled":false,"rental_uris":{"android":"levelo://app?vid=f8812183-2a7f-4612-bd78-a321cf2ab341","ios":"levelo://app?vid=f8812183-2a7f-4612-bd78-a321cf2ab341"},"vehicle_type_id":"4","last_reported":1740326951,"current_range_meters":6000,"station_id":"ce4bhq92rcd13ifvqhjg","pricing_plan_id":"cebpf4jnsgd1na2vs0mg"},{"bike_id":"2a7165b4-60a1-4418-90cd-83d9915280e2","system_id":"levelo_inurba_marseille","lat":43.28019,"lon":5.40605,"is_reserved":false,"is_disabled":false,"rental_uris":{"android":"levelo://app?vid=2a7165b4-60a1-4418-90cd-83d9915280e2","ios":"levelo://app?vid=2a7165b4-60a1-4418-90cd-83d9915280e2"},"vehicle_type_id":"4","last_reported":1740326951,"current_range_meters":6000,"station_id":"","pricing_plan_id":"cebpf4jnsgd1na2vs0mg"},{"bike_id":"9116b8ac-629d-459b-b44d-248b2c2649b7","system_id":"levelo_inurba_marseille","lat":43.27943,"lon":5.41065,"is_reserved":false,"is_disabled":true,"rental_uris":{"android":"levelo://app?vid=9116b8ac-629d-459b-b44d-248b2c2649b7","ios":"levelo://app?vid=9116b8ac-629d-459b-b44d-248b2c2649b7"},"vehicle_type_id":"4","last_reported":1740326951,"current_range_meters":6000,"station_id":"ce4bhnp2rcd13ifvqh0g","pricing_plan_id":"cebpf4jnsgd1na2vs0mg"},{"bike_id":"15cba4bc-12ca-4c8f-b33c-aba1405bb3dc","system_id":"levelo_inurba_marseille","lat":43.29007,"lon":5.35609,"is_reserved":false,"is_disabled":false,"rental_uris":{"android":"levelo://app?vid=15cba4bc-12ca-4c8f-b33c-aba1405bb3dc","ios":"levelo://app?vid=15cba4bc-12ca-4c8f-b33c-aba1405bb3dc"},"vehicle_type_id":"4","last_reported":1740326951,"current_range_meters":6000,"station_id":"ce4bhb92rcd13ifvqen0","pricing_plan_id":"cebpf4jnsgd1na2vs0mg"},{"bike_id":"b985ad1f-1942-453b-b5eb-7462cafd1e31","system_id":"levelo_inurba_marseille","lat":43.23191,"lon":5.35564,"is_reserved":false,"is_disabled":false,"rental_uris":{"android":"levelo://app?vid=b985ad1f-1942-453b-b5eb-7462cafd1e31","ios":"levelo://app?vid=b985ad1f-1942-453b-b5eb-7462cafd1e31"},"vehicle_type_id":"4","last_reported":1740326951,"current_range_meters":6000,"station_id":"ce4bhu92rcd13ifvqi70","pricing_plan_id":"cebpf4jnsgd1na2vs0mg"},{"bike_id":"24b8a196-d385-4dcb-bfee-5e86c153870a","system_id":"levelo_inurba_marseille","lat":43.29275,"lon":5.36842,"is_reserved":false,"is_disabled":false,"rental_uris":{"android":"levelo://app?vid=24b8a196-d385-4dcb-bfee-5e86c153870a","ios":"levelo://app?vid=24b8a196-d385-4dcb-bfee-5e86c153870a"},"vehicle_type_id":"4","last_reported":1740326951,"current_range_meters":6400,"station_id":"ce4bhbp2rcd13ifvqesg","pricing_plan_id":"cebpf4jnsgd1na2vs0mg"},{"bike_id":"2e4d9ef6-4dd9-45eb-8687-42db3850d70a","system_id":"levelo_inurba_marseille","lat":43.27468,"lon":5.40793,"is_reserved":false,"is_disabled":false,"rental_uris":{"android":"levelo://app?vid=2e4d9ef6-4dd9-45eb-8687-42db3850d70a","ios":"levelo://app?vid=2e4d9ef6-4dd9-45eb-8687-42db3850d70a"},"vehicle_type_id":"4","last_reported":1740326951,"current_range_meters":6400,"station_id":"","pricing_plan_id":"cebpf4jnsgd1na2vs0mg"},{"bike_id":"ef9ce138-6700-457b-8ffc-653bcae2562d","system_id":"levelo_inurba_marseille","lat":43.25936,"lon":5.40912,"is_reserved":false,"is_disabled":false,"rental_uris":{"android":"levelo://app?vid=ef9ce138-6700-457b-8ffc-653bcae2562d","ios":"levelo://app?vid=ef9ce138-6700-457b-8ffc-653bcae2562d"},"vehicle_type_id":"4","last_reported":1740326951,"current_range_meters":6400,"station_id":"ce4bhm92rcd13ifvqglg","pricing_plan_id":"cebpf4jnsgd1na2vs0mg"},{"bike_id":"30dc027b-862b-4eee-b5e9-748f55bddfeb","system_id":"levelo_inurba_marseille","lat":43.26225,"lon":5.40462,"is_reserved":false,"is_disabled":false,"rental_uris":{"android":"levelo://app?vid=30dc027b-862b-4eee-b5e9-748f55bddfeb","ios":"levelo://app?vid=30dc027b-862b-4eee-b5e9-748f55bddfeb"},"vehicle_type_id":"4","last_reported":1740326951,"current_range_meters":6400,"station_id":"ce4bhmh2rcd13ifvqgmg","pricing_plan_id":"cebpf4jnsgd1na2vs0mg"},{"bike_id":"cdfd6565-c0c2-4630-aa6c-55cf93e8ba60","system_id":"levelo_inurba_marseille","lat":43.30307,"lon":5.3922,"is_reserved":false,"is_disabled":false,"rental_uris":{"android":"levelo://app?vid=cdfd6565-c0c2-4630-aa6c-55cf93e8ba60","ios":"levelo://app?vid=cdfd6565-c0c2-4630-aa6c-55cf93e8ba60"},"vehicle_type_id":"4","last_reported":1740326951,"current_range_meters":6400,"station_id":"ce4bgkh2rcd13ifvqbk0","pricing_plan_id":"cebpf4jnsgd1na2vs0mg"},{"bike_id":"8d575984-501a-4f13-a884-79765f2be3c1","system_id":"levelo_inurba_marseille","lat":43.31529,"lon":5.38039,"is_reserved":false,"is_disabled":false,"rental_uris":{"android":"levelo://app?vid=8d575984-501a-4f13-a884-79765f2be3c1","ios":"levelo://app?vid=8d575984-501a-4f13-a884-79765f2be3c1"},"vehicle_type_id":"4","last_reported":1740326951,"current_range_meters":6400,"station_id":"ce4bhsp2rcd13ifvqi50","pricing_plan_id":"cebpf4jnsgd1na2vs0mg"},{"bike_id":"17e162bf-15d7-4a1f-a569-1d5284cb2773","system_id":"levelo_inurba_marseille","lat":43.28846,"lon":5.39299,"is_reserved":false,"is_disabled":false,"rental_uris":{"android":"levelo://app?vid=17e162bf-15d7-4a1f-a569-1d5284cb2773","ios":"levelo://app?vid=17e162bf-15d7-4a1f-a569-1d5284cb2773"},"vehicle_type_id":"4","last_reported":1740326951,"current_range_meters":6400,"station_id":"ce4bh2p2rcd13ifvqdi0","pricing_plan_id":"cebpf4jnsgd1na2vs0mg"},{"bike_id":"ddbb1c56-9870-4231-b735-ca6f231bf9f0","system_id":"levelo_inurba_marseille","lat":43.24087,"lon":5.37753,"is_reserved":false,"is_disabled":false,"rental_uris":{"android":"levelo://app?vid=ddbb1c56-9870-4231-b735-ca6f231bf9f0","ios":"levelo://app?vid=ddbb1c56-9870-4231-b735-ca6f231bf9f0"},"vehicle_type_id":"4","last_reported":1740326951,"current_range_meters":6400,"station_id":"ce4bhnp2rcd13ifvqgvg","pricing_plan_id":"cebpf4jnsgd1na2vs0mg"},{"bike_id":"085d8577-6f11-4676-a238-0c4dccbb82c1","system_id":"levelo_inurba_marseille","lat":43.28618,"lon":5.351,"is_reserved":false,"is_disabled":false,"rental_uris":{"android":"levelo://app?vid=085d8577-6f11-4676-a238-0c4dccbb82c1","ios":"levelo://app?vid=085d8577-6f11-4676-a238-0c4dccbb82c1"},"vehicle_type_id":"4","last_reported":1740326951,"current_range_meters":6400,"station_id":"ce4bhch2rcd13ifvqeug","pricing_plan_id":"cebpf4jnsgd1na2vs0mg"},{"bike_id":"db5d9613-c30a-48a3-8624-2effcc292914","system_id":"levelo_inurba_marseille","lat":43.3211,"lon":5.36781,"is_reserved":false,"is_disabled":false,"rental_uris":{"android":"levelo://app?vid=db5d9613-c30a-48a3-8624-2effcc292914","ios":"levelo://app?vid=db5d9613-c30a-48a3-8624-2effcc292914"},"vehicle_type_id":"4","last_reported":1740326951,"current_range_meters":6800,"station_id":"ce4bhrh2rcd13ifvqhug","pricing_plan_id":"cebpf4jnsgd1na2vs0mg"},{"bike_id":"54a3c075-d907-44c6-8a08-951d36499fe5","system_id":"levelo_inurba_marseille","lat":43.28617,"lon":5.35112,"is_reserved":false,"is_disabled":false,"rental_uris":{"android":"levelo://app?vid=54a3c075-d907-44c6-8a08-951d36499fe5","ios":"levelo://app?vid=54a3c075-d907-44c6-8a08-951d36499fe5"},"vehicle_type_id":"4","last_reported":1740326951,"current_range_meters":6800,"station_id":"ce4bhch2rcd13ifvqeug","pricing_plan_id":"cebpf4jnsgd1na2vs0mg"},{"bike_id":"f4c73116-43d3-41d9-88bb-9461dbbb405f","system_id":"levelo_inurba_marseille","lat":43.25426,"lon":5.41604,"is_reserved":false,"is_disabled":false,"rental_uris":{"android":"levelo://app?vid=f4c73116-43d3-41d9-88bb-9461dbbb405f","ios":"levelo://app?vid=f4c73116-43d3-41d9-88bb-9461dbbb405f"},"vehicle_type_id":"4","last_reported":1740326951,"current_range_meters":6800,"station_id":"","pricing_plan_id":"cebpf4jnsgd1na2vs0mg"},{"bike_id":"d3a32405-a678-4957-a26c-ef83cdc41cfe","system_id":"levelo_inurba_marseille","lat":43.29263,"lon":5.38441,"is_reserved":false,"is_disabled":false,"rental_uris":{"android":"levelo://app?vid=d3a32405-a678-4957-a26c-ef83cdc41cfe","ios":"levelo://app?vid=d3a32405-a678-4957-a26c-ef83cdc41cfe"},"vehicle_type_id":"4","last_reported":1740326951,"current_range_meters":6800,"station_id":"ce4bh692rcd13ifvqea0","pricing_plan_id":"cebpf4jnsgd1na2vs0mg"},{"bike_id":"0b35ef10-1d1d-4e8a-949e-c3122c5e3874","system_id":"levelo_inurba_marseille","lat":43.2396,"lon":5.3663,"is_reserved":false,"is_disabled":false,"rental_uris":{"android":"levelo://app?vid=0b35ef10-1d1d-4e8a-949e-c3122c5e3874","ios":"levelo://app?vid=0b35ef10-1d1d-4e8a-949e-c3122c5e3874"},"vehicle_type_id":"4","last_reported":1740326951,"current_range_meters":7200,"station_id":"ce4bhi12rcd13ifvqfp0","pricing_plan_id":"cebpf4jnsgd1na2vs0mg"},{"bike_id":"350fc4a5-35dc-4361-aea1-6687a971862d","system_id":"levelo_inurba_marseille","lat":43.27622,"lon":5.36121,"is_reserved":false,"is_disabled":false,"rental_uris":{"android":"levelo://app?vid=350fc4a5-35dc-4361-aea1-6687a971862d","ios":"levelo://app?vid=350fc4a5-35dc-4361-aea1-6687a971862d"},"vehicle_type_id":"4","last_reported":1740326951,"current_range_meters":7200,"station_id":"ce4bgj92rcd13ifvqbe0","pricing_plan_id":"cebpf4jnsgd1na2vs0mg"},{"bike_id":"b3026796-ee60-4276-99b1-e0877edc9db0","system_id":"levelo_inurba_marseille","lat":43.24074,"lon":5.37765,"is_reserved":false,"is_disabled":false,"rental_uris":{"android":"levelo://app?vid=b3026796-ee60-4276-99b1-e0877edc9db0","ios":"levelo://app?vid=b3026796-ee60-4276-99b1-e0877edc9db0"},"vehicle_type_id":"4","last_reported":1740326951,"current_range_meters":7200,"station_id":"ce4bhnp2rcd13ifvqgvg","pricing_plan_id":"cebpf4jnsgd1na2vs0mg"},{"bike_id":"cc7e6ba9-8c4b-4862-a209-561315924157","system_id":"levelo_inurba_marseille","lat":43.34141,"lon":5.40905,"is_reserved":false,"is_disabled":false,"rental_uris":{"android":"levelo://app?vid=cc7e6ba9-8c4b-4862-a209-561315924157","ios":"levelo://app?vid=cc7e6ba9-8c4b-4862-a209-561315924157"},"vehicle_type_id":"4","last_reported":1740326951,"current_range_meters":7200,"station_id":"ce4bhqh2rcd13ifvqhlg","pricing_plan_id":"cebpf4jnsgd1na2vs0mg"},{"bike_id":"590c2d4d-a6f8-41f2-86bc-cf779452c419","system_id":"levelo_inurba_marseille","lat":43.27176,"lon":5.41008,"is_reserved":false,"is_disabled":false,"rental_uris":{"android":"levelo://app?vid=590c2d4d-a6f8-41f2-86bc-cf779452c419","ios":"levelo://app?vid=590c2d4d-a6f8-41f2-86bc-cf779452c419"},"vehicle_type_id":"4","last_reported":1740326951,"current_range_meters":7200,"station_id":"ce4bhl12rcd13ifvqgf0","pricing_plan_id":"cebpf4jnsgd1na2vs0mg"},{"bike_id":"1284377d-613e-4b0e-b8b9-30807af03316","system_id":"levelo_inurba_marseille","lat":43.27831,"lon":5.39201,"is_reserved":false,"is_disabled":true,"rental_uris":{"android":"levelo://app?vid=1284377d-613e-4b0e-b8b9-30807af03316","ios":"levelo://app?vid=1284377d-613e-4b0e-b8b9-30807af03316"},"vehicle_type_id":"4","last_reported":1740326951,"current_range_meters":7200,"station_id":"ce4bhjp2rcd13ifvqga0","pricing_plan_id":"cebpf4jnsgd1na2vs0mg"},{"bike_id":"d9656922-897c-48e6-bcb8-79aed9195147","system_id":"levelo_inurba_marseille","lat":43.2397,"lon":5.36625,"is_reserved":false,"is_disabled":false,"rental_uris":{"android":"levelo://app?vid=d9656922-897c-48e6-bcb8-79aed9195147","ios":"levelo://app?vid=d9656922-897c-48e6-bcb8-79aed9195147"},"vehicle_type_id":"4","last_reported":1740326951,"current_range_meters":7200,"station_id":"ce4bhi12rcd13ifvqfp0","pricing_plan_id":"cebpf4jnsgd1na2vs0mg"},{"bike_id":"e9c5d09c-4b74-4c23-8771-9bcc70d35cf9","system_id":"levelo_inurba_marseille","lat":43.30802,"lon":5.37646,"is_reserved":false,"is_disabled":false,"rental_uris":{"android":"levelo://app?vid=e9c5d09c-4b74-4c23-8771-9bcc70d35cf9","ios":"levelo://app?vid=e9c5d09c-4b74-4c23-8771-9bcc70d35cf9"},"vehicle_type_id":"4","last_reported":1740326951,"current_range_meters":7200,"station_id":"ce4bgv92rcd13ifvqcq0","pricing_plan_id":"cebpf4jnsgd1na2vs0mg"},{"bike_id":"15df4f22-0e02-40b3-916a-9516d1f46a1d","system_id":"levelo_inurba_marseille","lat":43.23958,"lon":5.36626,"is_reserved":false,"is_disabled":false,"rental_uris":{"android":"levelo://app?vid=15df4f22-0e02-40b3-916a-9516d1f46a1d","ios":"levelo://app?vid=15df4f22-0e02-40b3-916a-9516d1f46a1d"},"vehicle_type_id":"4","last_reported":1740326951,"current_range_meters":7200,"station_id":"ce4bhi12rcd13ifvqfp0","pricing_plan_id":"cebpf4jnsgd1na2vs0mg"},{"bike_id":"827ec7e5-1ae5-45b8-890e-b6822ea9bc11","system_id":"levelo_inurba_marseille","lat":43.23967,"lon":5.36642,"is_reserved":false,"is_disabled":false,"rental_uris":{"android":"levelo://app?vid=827ec7e5-1ae5-45b8-890e-b6822ea9bc11","ios":"levelo://app?vid=827ec7e5-1ae5-45b8-890e-b6822ea9bc11"},"vehicle_type_id":"4","last_reported":1740326951,"current_range_meters":7200,"station_id":"ce4bhi12rcd13ifvqfp0","pricing_plan_id":"cebpf4jnsgd1na2vs0mg"},{"bike_id":"27a28959-3cdd-4aea-a886-bd0313b2c4fa","system_id":"levelo_inurba_marseille","lat":43.28003,"lon":5.40021,"is_reserved":false,"is_disabled":false,"rental_uris":{"android":"levelo://app?vid=27a28959-3cdd-4aea-a886-bd0313b2c4fa","ios":"levelo://app?vid=27a28959-3cdd-4aea-a886-bd0313b2c4fa"},"vehicle_type_id":"4","last_reported":1740326951,"current_range_meters":8000,"station_id":"ce4bho92rcd13ifvqh4g","pricing_plan_id":"cebpf4jnsgd1na2vs0mg"},{"bike_id":"519c0d90-c598-4074-9c80-d5e1565ff705","system_id":"levelo_inurba_marseille","lat":43.23066,"lon":5.35468,"is_reserved":false,"is_disabled":false,"rental_uris":{"android":"levelo://app?vid=519c0d90-c598-4074-9c80-d5e1565ff705","ios":"levelo://app?vid=519c0d90-c598-4074-9c80-d5e1565ff705"},"vehicle_type_id":"4","last_reported":1740326951,"current_range_meters":8000,"station_id":"cpo3342slgdg3j2ifvpg","pricing_plan_id":"cebpf4jnsgd1na2vs0mg"},{"bike_id":"9a62e7b4-2776-4d92-9883-8716a0930f35","system_id":"levelo_inurba_marseille","lat":43.28941,"lon":5.36636,"is_reserved":false,"is_disabled":false,"rental_uris":{"android":"levelo://app?vid=9a62e7b4-2776-4d92-9883-8716a0930f35","ios":"levelo://app?vid=9a62e7b4-2776-4d92-9883-8716a0930f35"},"vehicle_type_id":"4","last_reported":1740326951,"current_range_meters":8000,"station_id":"ce4bhap2rcd13ifvqek0","pricing_plan_id":"cebpf4jnsgd1na2vs0mg"},{"bike_id":"350b5756-ab2c-4209-b15e-1ece88bbee28","system_id":"levelo_inurba_marseille","lat":43.30803,"lon":5.38155,"is_reserved":false,"is_disabled":false,"rental_uris":{"android":"levelo://app?vid=350b5756-ab2c-4209-b15e-1ece88bbee28","ios":"levelo://app?vid=350b5756-ab2c-4209-b15e-1ece88bbee28"},"vehicle_type_id":"4","last_reported":1740326951,"current_range_meters":8000,"station_id":"ce4bgt12rcd13ifvqce0","pricing_plan_id":"cebpf4jnsgd1na2vs0mg"},{"bike_id":"29221b34-f27c-46b3-a717-83bfd1d1faff","system_id":"levelo_inurba_marseille","lat":43.26028,"lon":5.37548,"is_reserved":false,"is_disabled":false,"rental_uris":{"android":"levelo://app?vid=29221b34-f27c-46b3-a717-83bfd1d1faff","ios":"levelo://app?vid=29221b34-f27c-46b3-a717-83bfd1d1faff"},"vehicle_type_id":"4","last_reported":1740326951,"current_range_meters":8000,"station_id":"ce4bhgh2rcd13ifvqfa0","pricing_plan_id":"cebpf4jnsgd1na2vs0mg"},{"bike_id":"0325289f-9ab0-4dab-af12-210a46cd8044","system_id":"levelo_inurba_marseille","lat":43.28273,"lon":5.35072,"is_reserved":false,"is_disabled":false,"rental_uris":{"android":"levelo://app?vid=0325289f-9ab0-4dab-af12-210a46cd8044","ios":"levelo://app?vid=0325289f-9ab0-4dab-af12-210a46cd8044"},"vehicle_type_id":"4","last_reported":1740326951,"current_range_meters":8000,"station_id":"ce4bhbp2rcd13ifvqerg","pricing_plan_id":"cebpf4jnsgd1na2vs0mg"},{"bike_id":"9cdee3df-2ffb-4f05-ac72-8bba3f82454a","system_id":"levelo_inurba_marseille","lat":43.29638,"lon":5.40592,"is_reserved":false,"is_disabled":false,"rental_uris":{"android":"levelo://app?vid=9cdee3df-2ffb-4f05-ac72-8bba3f82454a","ios":"levelo://app?vid=9cdee3df-2ffb-4f05-ac72-8bba3f82454a"},"vehicle_type_id":"4","last_reported":1740326951,"current_range_meters":8000,"station_id":"ce4bh0h2rcd13ifvqd60","pricing_plan_id":"cebpf4jnsgd1na2vs0mg"},{"bike_id":"c76c7f28-93d2-493a-8818-bd156d7afb02","system_id":"levelo_inurba_marseille","lat":43.28726,"lon":5.36089,"is_reserved":false,"is_disabled":false,"rental_uris":{"android":"levelo://app?vid=c76c7f28-93d2-493a-8818-bd156d7afb02","ios":"levelo://app?vid=c76c7f28-93d2-493a-8818-bd156d7afb02"},"vehicle_type_id":"4","last_reported":1740326951,"current_range_meters":7200,"station_id":"cki0cbj6b192h4jlfktg","pricing_plan_id":"cebpf4jnsgd1na2vs0mg"},{"bike_id":"71033220-7ac1-45bc-98c1-5028b5a2d90f","system_id":"levelo_inurba_marseille","lat":43.293,"lon":5.37159,"is_reserved":false,"is_disabled":false,"rental_uris":{"android":"levelo://app?vid=71033220-7ac1-45bc-98c1-5028b5a2d90f","ios":"levelo://app?vid=71033220-7ac1-45bc-98c1-5028b5a2d90f"},"vehicle_type_id":"4","last_reported":1740326951,"current_range_meters":8000,"station_id":"ce4bgh92rcd13ifvqb40","pricing_plan_id":"cebpf4jnsgd1na2vs0mg"},{"bike_id":"5af4044b-c1d2-40f7-be6f-e20695793d75","system_id":"levelo_inurba_marseille","lat":43.26674,"lon":5.38269,"is_reserved":false,"is_disabled":false,"rental_uris":{"android":"levelo://app?vid=5af4044b-c1d2-40f7-be6f-e20695793d75","ios":"levelo://app?vid=5af4044b-c1d2-40f7-be6f-e20695793d75"},"vehicle_type_id":"4","last_reported":1740326951,"current_range_meters":7200,"station_id":"ce4bhg92rcd13ifvqf90","pricing_plan_id":"cebpf4jnsgd1na2vs0mg"},{"bike_id":"3cd0c617-18e4-45d8-ac10-ab8d65ae67d3","system_id":"levelo_inurba_marseille","lat":43.28907,"lon":5.40002,"is_reserved":false,"is_disabled":false,"rental_uris":{"android":"levelo://app?vid=3cd0c617-18e4-45d8-ac10-ab8d65ae67d3","ios":"levelo://app?vid=3cd0c617-18e4-45d8-ac10-ab8d65ae67d3"},"vehicle_type_id":"4","last_reported":1740326951,"current_range_meters":8000,"station_id":"ce4bh392rcd13ifvqdm0","pricing_plan_id":"cebpf4jnsgd1na2vs0mg"},{"bike_id":"d731231d-c9ec-4633-b117-c166bf96f0dc","system_id":"levelo_inurba_marseille","lat":43.28938,"lon":5.3963,"is_reserved":false,"is_disabled":false,"rental_uris":{"android":"levelo://app?vid=d731231d-c9ec-4633-b117-c166bf96f0dc","ios":"levelo://app?vid=d731231d-c9ec-4633-b117-c166bf96f0dc"},"vehicle_type_id":"4","last_reported":1740326951,"current_range_meters":8400,"station_id":"ce4bh3h2rcd13ifvqdn0","pricing_plan_id":"cebpf4jnsgd1na2vs0mg"},{"bike_id":"1af71967-b274-4269-9655-88715abf61c6","system_id":"levelo_inurba_marseille","lat":43.26555,"lon":5.37311,"is_reserved":false,"is_disabled":true,"rental_uris":{"android":"levelo://app?vid=1af71967-b274-4269-9655-88715abf61c6","ios":"levelo://app?vid=1af71967-b274-4269-9655-88715abf61c6"},"vehicle_type_id":"4","last_reported":1740326951,"current_range_meters":8400,"station_id":"ce4bhg12rcd13ifvqf70","pricing_plan_id":"cebpf4jnsgd1na2vs0mg"},{"bike_id":"bcdec4e2-1788-4070-b572-0026a4727de0","system_id":"levelo_inurba_marseille","lat":43.24661,"lon":5.38168,"is_reserved":false,"is_disabled":false,"rental_uris":{"android":"levelo://app?vid=bcdec4e2-1788-4070-b572-0026a4727de0","ios":"levelo://app?vid=bcdec4e2-1788-4070-b572-0026a4727de0"},"vehicle_type_id":"4","last_reported":1740326951,"current_range_meters":8400,"station_id":"ce4bhih2rcd13ifvqfr0","pricing_plan_id":"cebpf4jnsgd1na2vs0mg"},{"bike_id":"26a2d076-f5f2-45a7-98f5-29542790fe7d","system_id":"levelo_inurba_marseille","lat":43.32284,"lon":5.36643,"is_reserved":false,"is_disabled":false,"rental_uris":{"android":"levelo://app?vid=26a2d076-f5f2-45a7-98f5-29542790fe7d","ios":"levelo://app?vid=26a2d076-f5f2-45a7-98f5-29542790fe7d"},"vehicle_type_id":"4","last_reported":1740326951,"current_range_meters":8400,"station_id":"","pricing_plan_id":"cebpf4jnsgd1na2vs0mg"},{"bike_id":"08ad222d-27c0-4c9c-a6d9-78ae54cc91f7","system_id":"levelo_inurba_marseille","lat":43.28617,"lon":5.35112,"is_reserved":false,"is_disabled":false,"rental_uris":{"android":"levelo://app?vid=08ad222d-27c0-4c9c-a6d9-78ae54cc91f7","ios":"levelo://app?vid=08ad222d-27c0-4c9c-a6d9-78ae54cc91f7"},"vehicle_type_id":"4","last_reported":1740326951,"current_range_meters":8400,"station_id":"ce4bhch2rcd13ifvqeug","pricing_plan_id":"cebpf4jnsgd1na2vs0mg"},{"bike_id":"cc42a8c0-db27-4634-b2b7-32de4f5a4f68","system_id":"levelo_inurba_marseille","lat":43.24817,"lon":5.37467,"is_reserved":false,"is_disabled":false,"rental_uris":{"android":"levelo://app?vid=cc42a8c0-db27-4634-b2b7-32de4f5a4f68","ios":"levelo://app?vid=cc42a8c0-db27-4634-b2b7-32de4f5a4f68"},"vehicle_type_id":"4","last_reported":1740326951,"current_range_meters":8800,"station_id":"ce4bhgh2rcd13ifvqfb0","pricing_plan_id":"cebpf4jnsgd1na2vs0mg"},{"bike_id":"09486dc5-7654-4904-afc6-3b8a40308aeb","system_id":"levelo_inurba_marseille","lat":43.25408,"lon":5.41559,"is_reserved":false,"is_disabled":false,"rental_uris":{"android":"levelo://app?vid=09486dc5-7654-4904-afc6-3b8a40308aeb","ios":"levelo://app?vid=09486dc5-7654-4904-afc6-3b8a40308aeb"},"vehicle_type_id":"4","last_reported":1740326951,"current_range_meters":8800,"station_id":"","pricing_plan_id":"cebpf4jnsgd1na2vs0mg"},{"bike_id":"532c4564-7f0d-4d1e-af8f-ca7853199c8e","system_id":"levelo_inurba_marseille","lat":43.28418,"lon":5.34983,"is_reserved":false,"is_disabled":false,"rental_uris":{"android":"levelo://app?vid=532c4564-7f0d-4d1e-af8f-ca7853199c8e","ios":"levelo://app?vid=532c4564-7f0d-4d1e-af8f-ca7853199c8e"},"vehicle_type_id":"4","last_reported":1740326951,"current_range_meters":8800,"station_id":"ce4bhbh2rcd13ifvqepg","pricing_plan_id":"cebpf4jnsgd1na2vs0mg"},{"bike_id":"c03c9bc9-bc2a-4b3e-bbad-3b5dbb9cc2fc","system_id":"levelo_inurba_marseille","lat":43.25008,"lon":5.38943,"is_reserved":false,"is_disabled":false,"rental_uris":{"android":"levelo://app?vid=c03c9bc9-bc2a-4b3e-bbad-3b5dbb9cc2fc","ios":"levelo://app?vid=c03c9bc9-bc2a-4b3e-bbad-3b5dbb9cc2fc"},"vehicle_type_id":"4","last_reported":1740326951,"current_range_meters":8800,"station_id":"ce4bhgp2rcd13ifvqfd0","pricing_plan_id":"cebpf4jnsgd1na2vs0mg"},{"bike_id":"eca26384-0776-4aec-9005-d1a6996510c1","system_id":"levelo_inurba_marseille","lat":43.29533,"lon":5.38548,"is_reserved":false,"is_disabled":false,"rental_uris":{"android":"levelo://app?vid=eca26384-0776-4aec-9005-d1a6996510c1","ios":"levelo://app?vid=eca26384-0776-4aec-9005-d1a6996510c1"},"vehicle_type_id":"4","last_reported":1740326951,"current_range_meters":8800,"station_id":"ce4bgih2rcd13ifvqba0","pricing_plan_id":"cebpf4jnsgd1na2vs0mg"},{"bike_id":"64df3fb9-9597-484f-8e3c-a3d35c0ba2b7","system_id":"levelo_inurba_marseille","lat":43.29309,"lon":5.37182,"is_reserved":false,"is_disabled":false,"rental_uris":{"android":"levelo://app?vid=64df3fb9-9597-484f-8e3c-a3d35c0ba2b7","ios":"levelo://app?vid=64df3fb9-9597-484f-8e3c-a3d35c0ba2b7"},"vehicle_type_id":"4","last_reported":1740326951,"current_range_meters":9200,"station_id":"ce4bgh92rcd13ifvqb40","pricing_plan_id":"cebpf4jnsgd1na2vs0mg"},{"bike_id":"45d050d6-dc11-4482-936c-c08fd3d6d7d0","system_id":"levelo_inurba_marseille","lat":43.28662,"lon":5.36349,"is_reserved":false,"is_disabled":false,"rental_uris":{"android":"levelo://app?vid=45d050d6-dc11-4482-936c-c08fd3d6d7d0","ios":"levelo://app?vid=45d050d6-dc11-4482-936c-c08fd3d6d7d0"},"vehicle_type_id":"4","last_reported":1740326951,"current_range_meters":8800,"station_id":"ce4bhah2rcd13ifvqej0","pricing_plan_id":"cebpf4jnsgd1na2vs0mg"},{"bike_id":"49e1c317-c43a-4e17-be08-ea23dc8d6739","system_id":"levelo_inurba_marseille","lat":43.3017,"lon":5.39588,"is_reserved":false,"is_disabled":true,"rental_uris":{"android":"levelo://app?vid=49e1c317-c43a-4e17-be08-ea23dc8d6739","ios":"levelo://app?vid=49e1c317-c43a-4e17-be08-ea23dc8d6739"},"vehicle_type_id":"4","last_reported":1740326951,"current_range_meters":9200,"station_id":"","pricing_plan_id":"cebpf4jnsgd1na2vs0mg"},{"bike_id":"fb7ac801-7895-490b-820c-1a264fb17ed3","system_id":"levelo_inurba_marseille","lat":43.28617,"lon":5.35109,"is_reserved":false,"is_disabled":false,"rental_uris":{"android":"levelo://app?vid=fb7ac801-7895-490b-820c-1a264fb17ed3","ios":"levelo://app?vid=fb7ac801-7895-490b-820c-1a264fb17ed3"},"vehicle_type_id":"4","last_reported":1740326951,"current_range_meters":9200,"station_id":"ce4bhch2rcd13ifvqeug","pricing_plan_id":"cebpf4jnsgd1na2vs0mg"},{"bike_id":"aa088a01-dc51-4e1d-8486-4d274c77d0c6","system_id":"levelo_inurba_marseille","lat":43.29273,"lon":5.38443,"is_reserved":false,"is_disabled":false,"rental_uris":{"android":"levelo://app?vid=aa088a01-dc51-4e1d-8486-4d274c77d0c6","ios":"levelo://app?vid=aa088a01-dc51-4e1d-8486-4d274c77d0c6"},"vehicle_type_id":"4","last_reported":1740326951,"current_range_meters":9200,"station_id":"ce4bh692rcd13ifvqea0","pricing_plan_id":"cebpf4jnsgd1na2vs0mg"},{"bike_id":"1f7411cd-9379-4bab-a8bc-411b928d8602","system_id":"levelo_inurba_marseille","lat":43.27488,"lon":5.42456,"is_reserved":false,"is_disabled":false,"rental_uris":{"android":"levelo://app?vid=1f7411cd-9379-4bab-a8bc-411b928d8602","ios":"levelo://app?vid=1f7411cd-9379-4bab-a8bc-411b928d8602"},"vehicle_type_id":"4","last_reported":1740326951,"current_range_meters":9600,"station_id":"ce4bhn92rcd13ifvqgrg","pricing_plan_id":"cebpf4jnsgd1na2vs0mg"},{"bike_id":"8dc51aab-29d3-43fa-a37e-6c47cc4c2e69","system_id":"levelo_inurba_marseille","lat":43.24151,"lon":5.36395,"is_reserved":false,"is_disabled":false,"rental_uris":{"android":"levelo://app?vid=8dc51aab-29d3-43fa-a37e-6c47cc4c2e69","ios":"levelo://app?vid=8dc51aab-29d3-43fa-a37e-6c47cc4c2e69"},"vehicle_type_id":"4","last_reported":1740326951,"current_range_meters":9600,"station_id":"cpo36qri1sfpv3e86is0","pricing_plan_id":"cebpf4jnsgd1na2vs0mg"},{"bike_id":"80e30e07-59ff-4807-b06b-c6dc1a9e08e2","system_id":"levelo_inurba_marseille","lat":43.33618,"lon":5.41029,"is_reserved":false,"is_disabled":true,"rental_uris":{"android":"levelo://app?vid=80e30e07-59ff-4807-b06b-c6dc1a9e08e2","ios":"levelo://app?vid=80e30e07-59ff-4807-b06b-c6dc1a9e08e2"},"vehicle_type_id":"4","last_reported":1740326951,"current_range_meters":9600,"station_id":"ce4bhqh2rcd13ifvqhmg","pricing_plan_id":"cebpf4jnsgd1na2vs0mg"},{"bike_id":"8abe045e-74d3-4881-92e9-9c25e47b6ab8","system_id":"levelo_inurba_marseille","lat":43.2901,"lon":5.35614,"is_reserved":false,"is_disabled":false,"rental_uris":{"android":"levelo://app?vid=8abe045e-74d3-4881-92e9-9c25e47b6ab8","ios":"levelo://app?vid=8abe045e-74d3-4881-92e9-9c25e47b6ab8"},"vehicle_type_id":"4","last_reported":1740326951,"current_range_meters":9600,"station_id":"ce4bhb92rcd13ifvqen0","pricing_plan_id":"cebpf4jnsgd1na2vs0mg"},{"bike_id":"d940e9fa-d862-4ae3-9ded-649bf58acfc2","system_id":"levelo_inurba_marseille","lat":43.28153,"lon":5.42653,"is_reserved":false,"is_disabled":false,"rental_uris":{"android":"levelo://app?vid=d940e9fa-d862-4ae3-9ded-649bf58acfc2","ios":"levelo://app?vid=d940e9fa-d862-4ae3-9ded-649bf58acfc2"},"vehicle_type_id":"4","last_reported":1740326951,"current_range_meters":9600,"station_id":"ce4bhnh2rcd13ifvqgug","pricing_plan_id":"cebpf4jnsgd1na2vs0mg"},{"bike_id":"0fe0ae3c-c1a7-4cb4-86f0-3c48902cf54a","system_id":"levelo_inurba_marseille","lat":43.29266,"lon":5.38449,"is_reserved":false,"is_disabled":false,"rental_uris":{"android":"levelo://app?vid=0fe0ae3c-c1a7-4cb4-86f0-3c48902cf54a","ios":"levelo://app?vid=0fe0ae3c-c1a7-4cb4-86f0-3c48902cf54a"},"vehicle_type_id":"4","last_reported":1740326951,"current_range_meters":9600,"station_id":"ce4bh692rcd13ifvqea0","pricing_plan_id":"cebpf4jnsgd1na2vs0mg"},{"bike_id":"e0c1d965-9bb5-48f6-93c4-81a00c3e7849","system_id":"levelo_inurba_marseille","lat":43.27071,"lon":5.423,"is_reserved":false,"is_disabled":false,"rental_uris":{"android":"levelo://app?vid=e0c1d965-9bb5-48f6-93c4-81a00c3e7849","ios":"levelo://app?vid=e0c1d965-9bb5-48f6-93c4-81a00c3e7849"},"vehicle_type_id":"4","last_reported":1740326951,"current_range_meters":9600,"station_id":"ce4bhk92rcd13ifvqgb0","pricing_plan_id":"cebpf4jnsgd1na2vs0mg"},{"bike_id":"b87d1f8f-c725-4eb4-a5c4-678893bcaa2d","system_id":"levelo_inurba_marseille","lat":43.30137,"lon":5.3986,"is_reserved":false,"is_disabled":false,"rental_uris":{"android":"levelo://app?vid=b87d1f8f-c725-4eb4-a5c4-678893bcaa2d","ios":"levelo://app?vid=b87d1f8f-c725-4eb4-a5c4-678893bcaa2d"},"vehicle_type_id":"4","last_reported":1740326951,"current_range_meters":10000,"station_id":"ce4bh0h2rcd13ifvqd40","pricing_plan_id":"cebpf4jnsgd1na2vs0mg"},{"bike_id":"b009c89e-83ae-4318-a299-b3427be731dc","system_id":"levelo_inurba_marseille","lat":43.292954,"lon":5.374711,"is_reserved":false,"is_disabled":false,"rental_uris":{"android":"levelo://app?vid=b009c89e-83ae-4318-a299-b3427be731dc","ios":"levelo://app?vid=b009c89e-83ae-4318-a299-b3427be731dc"},"vehicle_type_id":"4","last_reported":1740326951,"current_range_meters":10000,"station_id":"ce4bha92rcd13ifvqeh0","pricing_plan_id":"cebpf4jnsgd1na2vs0mg"},{"bike_id":"095d5026-b6cb-411c-ab71-6c60703e2b2f","system_id":"levelo_inurba_marseille","lat":43.230538,"lon":5.354894,"is_reserved":false,"is_disabled":true,"rental_uris":{"android":"levelo://app?vid=095d5026-b6cb-411c-ab71-6c60703e2b2f","ios":"levelo://app?vid=095d5026-b6cb-411c-ab71-6c60703e2b2f"},"vehicle_type_id":"4","last_reported":1740326951,"current_range_meters":10000,"station_id":"cpo3342slgdg3j2ifvpg","pricing_plan_id":"cebpf4jnsgd1na2vs0mg"},{"bike_id":"90af7487-7691-400c-b112-bb0d639b1dd9","system_id":"levelo_inurba_marseille","lat":43.28616,"lon":5.35114,"is_reserved":false,"is_disabled":false,"rental_uris":{"android":"levelo://app?vid=90af7487-7691-400c-b112-bb0d639b1dd9","ios":"levelo://app?vid=90af7487-7691-400c-b112-bb0d639b1dd9"},"vehicle_type_id":"4","last_reported":1740326951,"current_range_meters":10000,"station_id":"ce4bhch2rcd13ifvqeug","pricing_plan_id":"cebpf4jnsgd1na2vs0mg"},{"bike_id":"7289a275-a8b7-4f58-baf5-fd1183af00a2","system_id":"levelo_inurba_marseille","lat":43.29002,"lon":5.35638,"is_reserved":false,"is_disabled":false,"rental_uris":{"android":"levelo://app?vid=7289a275-a8b7-4f58-baf5-fd1183af00a2","ios":"levelo://app?vid=7289a275-a8b7-4f58-baf5-fd1183af00a2"},"vehicle_type_id":"4","last_reported":1740326951,"current_range_meters":10000,"station_id":"ce4bhb92rcd13ifvqen0","pricing_plan_id":"cebpf4jnsgd1na2vs0mg"},{"bike_id":"ef5c9952-e3f2-42a3-a03a-bcdc0019c2a2","system_id":"levelo_inurba_marseille","lat":43.30127,"lon":5.39867,"is_reserved":false,"is_disabled":false,"rental_uris":{"android":"levelo://app?vid=ef5c9952-e3f2-42a3-a03a-bcdc0019c2a2","ios":"levelo://app?vid=ef5c9952-e3f2-42a3-a03a-bcdc0019c2a2"},"vehicle_type_id":"4","last_reported":1740326951,"current_range_meters":10800,"station_id":"ce4bh0h2rcd13ifvqd40","pricing_plan_id":"cebpf4jnsgd1na2vs0mg"},{"bike_id":"c4ed39fb-ee07-4305-9a22-04d7ac8a0772","system_id":"levelo_inurba_marseille","lat":43.30321,"lon":5.3918,"is_reserved":false,"is_disabled":false,"rental_uris":{"android":"levelo://app?vid=c4ed39fb-ee07-4305-9a22-04d7ac8a0772","ios":"levelo://app?vid=c4ed39fb-ee07-4305-9a22-04d7ac8a0772"},"vehicle_type_id":"4","last_reported":1740326951,"current_range_meters":10800,"station_id":"ce4bgkh2rcd13ifvqbk0","pricing_plan_id":"cebpf4jnsgd1na2vs0mg"},{"bike_id":"d8fe9461-3f19-4646-9471-9345bfd53bad","system_id":"levelo_inurba_marseille","lat":43.24391,"lon":5.37053,"is_reserved":false,"is_disabled":false,"rental_uris":{"android":"levelo://app?vid=d8fe9461-3f19-4646-9471-9345bfd53bad","ios":"levelo://app?vid=d8fe9461-3f19-4646-9471-9345bfd53bad"},"vehicle_type_id":"4","last_reported":1740326951,"current_range_meters":10800,"station_id":"ce4bhhh2rcd13ifvqfk0","pricing_plan_id":"cebpf4jnsgd1na2vs0mg"},{"bike_id":"820eabd5-d824-4434-99d7-9fbd6fd66758","system_id":"levelo_inurba_marseille","lat":43.3277,"lon":5.39242,"is_reserved":false,"is_disabled":false,"rental_uris":{"android":"levelo://app?vid=820eabd5-d824-4434-99d7-9fbd6fd66758","ios":"levelo://app?vid=820eabd5-d824-4434-99d7-9fbd6fd66758"},"vehicle_type_id":"4","last_reported":1740326951,"current_range_meters":11200,"station_id":"","pricing_plan_id":"cebpf4jnsgd1na2vs0mg"},{"bike_id":"215369f1-b31b-4748-963a-c6b448155de3","system_id":"levelo_inurba_marseille","lat":43.29007,"lon":5.3562,"is_reserved":false,"is_disabled":false,"rental_uris":{"android":"levelo://app?vid=215369f1-b31b-4748-963a-c6b448155de3","ios":"levelo://app?vid=215369f1-b31b-4748-963a-c6b448155de3"},"vehicle_type_id":"4","last_reported":1740326951,"current_range_meters":11600,"station_id":"ce4bhb92rcd13ifvqen0","pricing_plan_id":"cebpf4jnsgd1na2vs0mg"},{"bike_id":"2bdc35be-c87d-4858-a812-b27d436edeb5","system_id":"levelo_inurba_marseille","lat":43.28276,"lon":5.35079,"is_reserved":false,"is_disabled":false,"rental_uris":{"android":"levelo://app?vid=2bdc35be-c87d-4858-a812-b27d436edeb5","ios":"levelo://app?vid=2bdc35be-c87d-4858-a812-b27d436edeb5"},"vehicle_type_id":"4","last_reported":1740326951,"current_range_meters":11600,"station_id":"ce4bhbp2rcd13ifvqerg","pricing_plan_id":"cebpf4jnsgd1na2vs0mg"},{"bike_id":"3e6d0582-3f8d-48f2-91e2-8ddf0569e41b","system_id":"levelo_inurba_marseille","lat":43.29275,"lon":5.38445,"is_reserved":false,"is_disabled":false,"rental_uris":{"android":"levelo://app?vid=3e6d0582-3f8d-48f2-91e2-8ddf0569e41b","ios":"levelo://app?vid=3e6d0582-3f8d-48f2-91e2-8ddf0569e41b"},"vehicle_type_id":"4","last_reported":1740326951,"current_range_meters":11600,"station_id":"ce4bh692rcd13ifvqea0","pricing_plan_id":"cebpf4jnsgd1na2vs0mg"},{"bike_id":"131c4fc6-f7f2-4917-9684-13896a309a73","system_id":"levelo_inurba_marseille","lat":43.2861,"lon":5.37056,"is_reserved":false,"is_disabled":false,"rental_uris":{"android":"levelo://app?vid=131c4fc6-f7f2-4917-9684-13896a309a73","ios":"levelo://app?vid=131c4fc6-f7f2-4917-9684-13896a309a73"},"vehicle_type_id":"4","last_reported":1740326951,"current_range_meters":11600,"station_id":"ce4bht12rcd13ifvqi60","pricing_plan_id":"cebpf4jnsgd1na2vs0mg"},{"bike_id":"b8aff984-ae97-4c09-96e5-bf37da8fbbce","system_id":"levelo_inurba_marseille","lat":43.31124,"lon":5.37773,"is_reserved":false,"is_disabled":false,"rental_uris":{"android":"levelo://app?vid=b8aff984-ae97-4c09-96e5-bf37da8fbbce","ios":"levelo://app?vid=b8aff984-ae97-4c09-96e5-bf37da8fbbce"},"vehicle_type_id":"4","last_reported":1740326951,"current_range_meters":11600,"station_id":"ce4bgt92rcd13ifvqcg0","pricing_plan_id":"cebpf4jnsgd1na2vs0mg"},{"bike_id":"679fe540-942a-48aa-835f-44960810a527","system_id":"levelo_inurba_marseille","lat":43.23153,"lon":5.43714,"is_reserved":false,"is_disabled":false,"rental_uris":{"android":"levelo://app?vid=679fe540-942a-48aa-835f-44960810a527","ios":"levelo://app?vid=679fe540-942a-48aa-835f-44960810a527"},"vehicle_type_id":"4","last_reported":1740326951,"current_range_meters":11600,"station_id":"ce4bhmp2rcd13ifvqgog","pricing_plan_id":"cebpf4jnsgd1na2vs0mg"},{"bike_id":"ab7da9df-c7ed-482b-9961-43b5cca3e34b","system_id":"levelo_inurba_marseille","lat":43.3111,"lon":5.37799,"is_reserved":false,"is_disabled":true,"rental_uris":{"android":"levelo://app?vid=ab7da9df-c7ed-482b-9961-43b5cca3e34b","ios":"levelo://app?vid=ab7da9df-c7ed-482b-9961-43b5cca3e34b"},"vehicle_type_id":"4","last_reported":1740326951,"current_range_meters":12000,"station_id":"ce4bgt92rcd13ifvqcg0","pricing_plan_id":"cebpf4jnsgd1na2vs0mg"},{"bike_id":"fb44b31f-7afc-4a5c-8b14-6d56005aa669","system_id":"levelo_inurba_marseille","lat":43.2899,"lon":5.4325,"is_reserved":false,"is_disabled":false,"rental_uris":{"android":"levelo://app?vid=fb44b31f-7afc-4a5c-8b14-6d56005aa669","ios":"levelo://app?vid=fb44b31f-7afc-4a5c-8b14-6d56005aa669"},"vehicle_type_id":"4","last_reported":1740326951,"current_range_meters":12000,"station_id":"","pricing_plan_id":"cebpf4jnsgd1na2vs0mg"},{"bike_id":"47c58b1f-0f04-4a95-ba73-4d794abee5f2","system_id":"levelo_inurba_marseille","lat":43.30433,"lon":5.38896,"is_reserved":false,"is_disabled":true,"rental_uris":{"android":"levelo://app?vid=47c58b1f-0f04-4a95-ba73-4d794abee5f2","ios":"levelo://app?vid=47c58b1f-0f04-4a95-ba73-4d794abee5f2"},"vehicle_type_id":"4","last_reported":1740326951,"current_range_meters":12400,"station_id":"ce4bgk12rcd13ifvqbi0","pricing_plan_id":"cebpf4jnsgd1na2vs0mg"},{"bike_id":"54a6b0ba-8381-4a72-830c-622766c32199","system_id":"levelo_inurba_marseille","lat":43.32105,"lon":5.36795,"is_reserved":false,"is_disabled":false,"rental_uris":{"android":"levelo://app?vid=54a6b0ba-8381-4a72-830c-622766c32199","ios":"levelo://app?vid=54a6b0ba-8381-4a72-830c-622766c32199"},"vehicle_type_id":"4","last_reported":1740326951,"current_range_meters":12400,"station_id":"ce4bhrh2rcd13ifvqhug","pricing_plan_id":"cebpf4jnsgd1na2vs0mg"},{"bike_id":"a34024d2-bd78-4aa2-b9dd-e4711b4f4101","system_id":"levelo_inurba_marseille","lat":43.24392,"lon":5.37058,"is_reserved":false,"is_disabled":false,"rental_uris":{"android":"levelo://app?vid=a34024d2-bd78-4aa2-b9dd-e4711b4f4101","ios":"levelo://app?vid=a34024d2-bd78-4aa2-b9dd-e4711b4f4101"},"vehicle_type_id":"4","last_reported":1740326951,"current_range_meters":12400,"station_id":"ce4bhhh2rcd13ifvqfk0","pricing_plan_id":"cebpf4jnsgd1na2vs0mg"},{"bike_id":"e61c2b74-4ece-46bf-bf8e-6ea12dcb1ec2","system_id":"levelo_inurba_marseille","lat":43.30599,"lon":5.39408,"is_reserved":false,"is_disabled":true,"rental_uris":{"android":"levelo://app?vid=e61c2b74-4ece-46bf-bf8e-6ea12dcb1ec2","ios":"levelo://app?vid=e61c2b74-4ece-46bf-bf8e-6ea12dcb1ec2"},"vehicle_type_id":"4","last_reported":1740326951,"current_range_meters":12400,"station_id":"ce4bh0p2rcd13ifvqd80","pricing_plan_id":"cebpf4jnsgd1na2vs0mg"},{"bike_id":"a3610751-bbe4-4d3e-a717-1a0eebd2fb2a","system_id":"levelo_inurba_marseille","lat":43.30648,"lon":5.37502,"is_reserved":false,"is_disabled":false,"rental_uris":{"android":"levelo://app?vid=a3610751-bbe4-4d3e-a717-1a0eebd2fb2a","ios":"levelo://app?vid=a3610751-bbe4-4d3e-a717-1a0eebd2fb2a"},"vehicle_type_id":"4","last_reported":1740326951,"current_range_meters":12400,"station_id":"","pricing_plan_id":"cebpf4jnsgd1na2vs0mg"},{"bike_id":"07e3a89c-d0c8-4bd1-b937-48bb8c5e3f0c","system_id":"levelo_inurba_marseille","lat":43.28939,"lon":5.39634,"is_reserved":false,"is_disabled":false,"rental_uris":{"android":"levelo://app?vid=07e3a89c-d0c8-4bd1-b937-48bb8c5e3f0c","ios":"levelo://app?vid=07e3a89c-d0c8-4bd1-b937-48bb8c5e3f0c"},"vehicle_type_id":"4","last_reported":1740326951,"current_range_meters":12000,"station_id":"ce4bh3h2rcd13ifvqdn0","pricing_plan_id":"cebpf4jnsgd1na2vs0mg"},{"bike_id":"958d1dfd-996c-4307-b315-bce97e55f0bf","system_id":"levelo_inurba_marseille","lat":43.29275,"lon":5.38444,"is_reserved":false,"is_disabled":false,"rental_uris":{"android":"levelo://app?vid=958d1dfd-996c-4307-b315-bce97e55f0bf","ios":"levelo://app?vid=958d1dfd-996c-4307-b315-bce97e55f0bf"},"vehicle_type_id":"4","last_reported":1740326951,"current_range_meters":12400,"station_id":"ce4bh692rcd13ifvqea0","pricing_plan_id":"cebpf4jnsgd1na2vs0mg"},{"bike_id":"0e17628e-77f1-4b2d-9900-e51a8c9f0181","system_id":"levelo_inurba_marseille","lat":43.28878,"lon":5.45068,"is_reserved":false,"is_disabled":false,"rental_uris":{"android":"levelo://app?vid=0e17628e-77f1-4b2d-9900-e51a8c9f0181","ios":"levelo://app?vid=0e17628e-77f1-4b2d-9900-e51a8c9f0181"},"vehicle_type_id":"4","last_reported":1740326951,"current_range_meters":12800,"station_id":"","pricing_plan_id":"cebpf4jnsgd1na2vs0mg"},{"bike_id":"a9c95a8e-e2ad-4424-9a73-92d37c854b6b","system_id":"levelo_inurba_marseille","lat":43.28026,"lon":5.36933,"is_reserved":false,"is_disabled":false,"rental_uris":{"android":"levelo://app?vid=a9c95a8e-e2ad-4424-9a73-92d37c854b6b","ios":"levelo://app?vid=a9c95a8e-e2ad-4424-9a73-92d37c854b6b"},"vehicle_type_id":"4","last_reported":1740326951,"current_range_meters":12400,"station_id":"ce4bha12rcd13ifvqef0","pricing_plan_id":"cebpf4jnsgd1na2vs0mg"},{"bike_id":"4caf490d-10e5-4073-8dae-a68a285775aa","system_id":"levelo_inurba_marseille","lat":43.24381,"lon":5.3706,"is_reserved":false,"is_disabled":false,"rental_uris":{"android":"levelo://app?vid=4caf490d-10e5-4073-8dae-a68a285775aa","ios":"levelo://app?vid=4caf490d-10e5-4073-8dae-a68a285775aa"},"vehicle_type_id":"4","last_reported":1740326951,"current_range_meters":13600,"station_id":"ce4bhhh2rcd13ifvqfk0","pricing_plan_id":"cebpf4jnsgd1na2vs0mg"},{"bike_id":"6e15618d-4d2d-4cdc-9d90-2b87c6806ce4","system_id":"levelo_inurba_marseille","lat":43.27203,"lon":5.40995,"is_reserved":false,"is_disabled":false,"rental_uris":{"android":"levelo://app?vid=6e15618d-4d2d-4cdc-9d90-2b87c6806ce4","ios":"levelo://app?vid=6e15618d-4d2d-4cdc-9d90-2b87c6806ce4"},"vehicle_type_id":"4","last_reported":1740326951,"current_range_meters":13600,"station_id":"ce4bhl12rcd13ifvqgf0","pricing_plan_id":"cebpf4jnsgd1na2vs0mg"},{"bike_id":"7b8a9d29-1449-4471-9a0e-084bfeebe57e","system_id":"levelo_inurba_marseille","lat":43.26216,"lon":5.37443,"is_reserved":false,"is_disabled":false,"rental_uris":{"android":"levelo://app?vid=7b8a9d29-1449-4471-9a0e-084bfeebe57e","ios":"levelo://app?vid=7b8a9d29-1449-4471-9a0e-084bfeebe57e"},"vehicle_type_id":"4","last_reported":1740326951,"current_range_meters":13600,"station_id":"ce4bhgp2rcd13ifvqfc0","pricing_plan_id":"cebpf4jnsgd1na2vs0mg"},{"bike_id":"35f7fe5f-b05d-405c-a155-dda0758733e2","system_id":"levelo_inurba_marseille","lat":43.28156,"lon":5.42643,"is_reserved":false,"is_disabled":true,"rental_uris":{"android":"levelo://app?vid=35f7fe5f-b05d-405c-a155-dda0758733e2","ios":"levelo://app?vid=35f7fe5f-b05d-405c-a155-dda0758733e2"},"vehicle_type_id":"4","last_reported":1740326951,"current_range_meters":13600,"station_id":"ce4bhnh2rcd13ifvqgug","pricing_plan_id":"cebpf4jnsgd1na2vs0mg"},{"bike_id":"2ccfc7e7-1b84-4f8d-9d39-811a77a8e09b","system_id":"levelo_inurba_marseille","lat":43.27636,"lon":5.35847,"is_reserved":false,"is_disabled":false,"rental_uris":{"android":"levelo://app?vid=2ccfc7e7-1b84-4f8d-9d39-811a77a8e09b","ios":"levelo://app?vid=2ccfc7e7-1b84-4f8d-9d39-811a77a8e09b"},"vehicle_type_id":"4","last_reported":1740326951,"current_range_meters":13600,"station_id":"ce4bhih2rcd13ifvqfs0","pricing_plan_id":"cebpf4jnsgd1na2vs0mg"},{"bike_id":"25e12065-ed93-4022-a013-47eabbeac87e","system_id":"levelo_inurba_marseille","lat":43.28035,"lon":5.36956,"is_reserved":false,"is_disabled":false,"rental_uris":{"android":"levelo://app?vid=25e12065-ed93-4022-a013-47eabbeac87e","ios":"levelo://app?vid=25e12065-ed93-4022-a013-47eabbeac87e"},"vehicle_type_id":"4","last_reported":1740326951,"current_range_meters":14000,"station_id":"ce4bha12rcd13ifvqef0","pricing_plan_id":"cebpf4jnsgd1na2vs0mg"},{"bike_id":"1360bc5c-7917-4f9f-a3ce-0d0bc0ee22e0","system_id":"levelo_inurba_marseille","lat":43.26498,"lon":5.39547,"is_reserved":false,"is_disabled":false,"rental_uris":{"android":"levelo://app?vid=1360bc5c-7917-4f9f-a3ce-0d0bc0ee22e0","ios":"levelo://app?vid=1360bc5c-7917-4f9f-a3ce-0d0bc0ee22e0"},"vehicle_type_id":"4","last_reported":1740326951,"current_range_meters":14000,"station_id":"ce4bhi12rcd13ifvqfq0","pricing_plan_id":"cebpf4jnsgd1na2vs0mg"},{"bike_id":"3a65e98c-6fc0-442b-97a2-ccd814e231ae","system_id":"levelo_inurba_marseille","lat":43.24071,"lon":5.37762,"is_reserved":false,"is_disabled":false,"rental_uris":{"android":"levelo://app?vid=3a65e98c-6fc0-442b-97a2-ccd814e231ae","ios":"levelo://app?vid=3a65e98c-6fc0-442b-97a2-ccd814e231ae"},"vehicle_type_id":"4","last_reported":1740326951,"current_range_meters":14000,"station_id":"ce4bhnp2rcd13ifvqgvg","pricing_plan_id":"cebpf4jnsgd1na2vs0mg"},{"bike_id":"bd3cd35d-8872-4079-b434-dfe718238ac3","system_id":"levelo_inurba_marseille","lat":43.32367,"lon":5.38884,"is_reserved":false,"is_disabled":false,"rental_uris":{"android":"levelo://app?vid=bd3cd35d-8872-4079-b434-dfe718238ac3","ios":"levelo://app?vid=bd3cd35d-8872-4079-b434-dfe718238ac3"},"vehicle_type_id":"4","last_reported":1740326951,"current_range_meters":14000,"station_id":"ce4bhqp2rcd13ifvqhog","pricing_plan_id":"cebpf4jnsgd1na2vs0mg"},{"bike_id":"9fdc5228-e835-4793-ad30-e5834cfd975b","system_id":"levelo_inurba_marseille","lat":43.2586,"lon":5.39904,"is_reserved":false,"is_disabled":false,"rental_uris":{"android":"levelo://app?vid=9fdc5228-e835-4793-ad30-e5834cfd975b","ios":"levelo://app?vid=9fdc5228-e835-4793-ad30-e5834cfd975b"},"vehicle_type_id":"4","last_reported":1740326951,"current_range_meters":14000,"station_id":"ce4bhl92rcd13ifvqghg","pricing_plan_id":"cebpf4jnsgd1na2vs0mg"},{"bike_id":"b49d5e52-ea0b-48d3-8a70-3d9ea3251436","system_id":"levelo_inurba_marseille","lat":43.30142,"lon":5.39896,"is_reserved":false,"is_disabled":true,"rental_uris":{"android":"levelo://app?vid=b49d5e52-ea0b-48d3-8a70-3d9ea3251436","ios":"levelo://app?vid=b49d5e52-ea0b-48d3-8a70-3d9ea3251436"},"vehicle_type_id":"4","last_reported":1740326951,"current_range_meters":14400,"station_id":"ce4bh0h2rcd13ifvqd40","pricing_plan_id":"cebpf4jnsgd1na2vs0mg"},{"bike_id":"94d81672-f077-455d-ad5d-d4332136c2a8","system_id":"levelo_inurba_marseille","lat":43.22893,"lon":5.35409,"is_reserved":false,"is_disabled":false,"rental_uris":{"android":"levelo://app?vid=94d81672-f077-455d-ad5d-d4332136c2a8","ios":"levelo://app?vid=94d81672-f077-455d-ad5d-d4332136c2a8"},"vehicle_type_id":"4","last_reported":1740326951,"current_range_meters":14400,"station_id":"cpo3532slgdg3j2ikp40","pricing_plan_id":"cebpf4jnsgd1na2vs0mg"},{"bike_id":"9faf844a-413f-419f-bdea-64830f7f2bfb","system_id":"levelo_inurba_marseille","lat":43.29883,"lon":5.37852,"is_reserved":false,"is_disabled":false,"rental_uris":{"android":"levelo://app?vid=9faf844a-413f-419f-bdea-64830f7f2bfb","ios":"levelo://app?vid=9faf844a-413f-419f-bdea-64830f7f2bfb"},"vehicle_type_id":"4","last_reported":1740326951,"current_range_meters":14400,"station_id":"","pricing_plan_id":"cebpf4jnsgd1na2vs0mg"},{"bike_id":"ccb44fc9-5df9-4c53-871d-0459faad3ced","system_id":"levelo_inurba_marseille","lat":43.29862,"lon":5.39735,"is_reserved":false,"is_disabled":false,"rental_uris":{"android":"levelo://app?vid=ccb44fc9-5df9-4c53-871d-0459faad3ced","ios":"levelo://app?vid=ccb44fc9-5df9-4c53-871d-0459faad3ced"},"vehicle_type_id":"4","last_reported":1740326951,"current_range_meters":14000,"station_id":"ce4bh0h2rcd13ifvqd50","pricing_plan_id":"cebpf4jnsgd1na2vs0mg"},{"bike_id":"b4e0215b-f2ff-46db-ba8e-290afa8d74a4","system_id":"levelo_inurba_marseille","lat":43.28943,"lon":5.36635,"is_reserved":false,"is_disabled":false,"rental_uris":{"android":"levelo://app?vid=b4e0215b-f2ff-46db-ba8e-290afa8d74a4","ios":"levelo://app?vid=b4e0215b-f2ff-46db-ba8e-290afa8d74a4"},"vehicle_type_id":"4","last_reported":1740326951,"current_range_meters":14400,"station_id":"ce4bhap2rcd13ifvqek0","pricing_plan_id":"cebpf4jnsgd1na2vs0mg"},{"bike_id":"6aa4dde2-57d1-4271-91d7-3249e7118204","system_id":"levelo_inurba_marseille","lat":43.303,"lon":5.36886,"is_reserved":false,"is_disabled":false,"rental_uris":{"android":"levelo://app?vid=6aa4dde2-57d1-4271-91d7-3249e7118204","ios":"levelo://app?vid=6aa4dde2-57d1-4271-91d7-3249e7118204"},"vehicle_type_id":"4","last_reported":1740326951,"current_range_meters":14800,"station_id":"ce4bgqh2rcd13ifvqc5g","pricing_plan_id":"cebpf4jnsgd1na2vs0mg"},{"bike_id":"d6f7be83-7fe6-4192-a95d-d29abf725921","system_id":"levelo_inurba_marseille","lat":43.26059,"lon":5.39401,"is_reserved":false,"is_disabled":false,"rental_uris":{"android":"levelo://app?vid=d6f7be83-7fe6-4192-a95d-d29abf725921","ios":"levelo://app?vid=d6f7be83-7fe6-4192-a95d-d29abf725921"},"vehicle_type_id":"4","last_reported":1740326951,"current_range_meters":14400,"station_id":"ce4bhh92rcd13ifvqfj0","pricing_plan_id":"cebpf4jnsgd1na2vs0mg"},{"bike_id":"17c5fb47-42cc-4bfb-9f45-0384a4991dcc","system_id":"levelo_inurba_marseille","lat":43.23183,"lon":5.39992,"is_reserved":false,"is_disabled":false,"rental_uris":{"android":"levelo://app?vid=17c5fb47-42cc-4bfb-9f45-0384a4991dcc","ios":"levelo://app?vid=17c5fb47-42cc-4bfb-9f45-0384a4991dcc"},"vehicle_type_id":"4","last_reported":1740326951,"current_range_meters":14800,"station_id":"ce4bhn12rcd13ifvqgqg","pricing_plan_id":"cebpf4jnsgd1na2vs0mg"},{"bike_id":"38e8c25d-9aca-43fa-88d8-cec1d44489ef","system_id":"levelo_inurba_marseille","lat":43.26557,"lon":5.3901,"is_reserved":false,"is_disabled":false,"rental_uris":{"android":"levelo://app?vid=38e8c25d-9aca-43fa-88d8-cec1d44489ef","ios":"levelo://app?vid=38e8c25d-9aca-43fa-88d8-cec1d44489ef"},"vehicle_type_id":"4","last_reported":1740326951,"current_range_meters":14800,"station_id":"ce4bhe12rcd13ifvqf30","pricing_plan_id":"cebpf4jnsgd1na2vs0mg"},{"bike_id":"fc93a0cd-d658-4fe7-9e6a-52a49333f268","system_id":"levelo_inurba_marseille","lat":43.30828,"lon":5.38189,"is_reserved":false,"is_disabled":false,"rental_uris":{"android":"levelo://app?vid=fc93a0cd-d658-4fe7-9e6a-52a49333f268","ios":"levelo://app?vid=fc93a0cd-d658-4fe7-9e6a-52a49333f268"},"vehicle_type_id":"4","last_reported":1740326951,"current_range_meters":14800,"station_id":"ce4bgt12rcd13ifvqce0","pricing_plan_id":"cebpf4jnsgd1na2vs0mg"},{"bike_id":"f4434e29-5640-48c8-baa8-5cca863a5ca0","system_id":"levelo_inurba_marseille","lat":43.2583,"lon":5.39427,"is_reserved":false,"is_disabled":false,"rental_uris":{"android":"levelo://app?vid=f4434e29-5640-48c8-baa8-5cca863a5ca0","ios":"levelo://app?vid=f4434e29-5640-48c8-baa8-5cca863a5ca0"},"vehicle_type_id":"4","last_reported":1740326951,"current_range_meters":15200,"station_id":"ce4bhip2rcd13ifvqft0","pricing_plan_id":"cebpf4jnsgd1na2vs0mg"},{"bike_id":"68c1cb49-7da1-4934-a025-4e78e338d091","system_id":"levelo_inurba_marseille","lat":43.337638,"lon":5.374412,"is_reserved":false,"is_disabled":false,"rental_uris":{"android":"levelo://app?vid=68c1cb49-7da1-4934-a025-4e78e338d091","ios":"levelo://app?vid=68c1cb49-7da1-4934-a025-4e78e338d091"},"vehicle_type_id":"4","last_reported":1740326951,"current_range_meters":15200,"station_id":"","pricing_plan_id":"cebpf4jnsgd1na2vs0mg"},{"bike_id":"6d3a28fb-ad8e-4099-ab7e-2f1842cf0da6","system_id":"levelo_inurba_marseille","lat":43.31996,"lon":5.38139,"is_reserved":false,"is_disabled":false,"rental_uris":{"android":"levelo://app?vid=6d3a28fb-ad8e-4099-ab7e-2f1842cf0da6","ios":"levelo://app?vid=6d3a28fb-ad8e-4099-ab7e-2f1842cf0da6"},"vehicle_type_id":"4","last_reported":1740326951,"current_range_meters":16000,"station_id":"ce4bhr12rcd13ifvqhpg","pricing_plan_id":"cebpf4jnsgd1na2vs0mg"},{"bike_id":"a85dea3d-d4f1-4002-bf3e-2b6ec1fa25b3","system_id":"levelo_inurba_marseille","lat":43.26217,"lon":5.40458,"is_reserved":false,"is_disabled":false,"rental_uris":{"android":"levelo://app?vid=a85dea3d-d4f1-4002-bf3e-2b6ec1fa25b3","ios":"levelo://app?vid=a85dea3d-d4f1-4002-bf3e-2b6ec1fa25b3"},"vehicle_type_id":"4","last_reported":1740326951,"current_range_meters":16000,"station_id":"ce4bhmh2rcd13ifvqgmg","pricing_plan_id":"cebpf4jnsgd1na2vs0mg"},{"bike_id":"d052ba98-98c3-4137-ab7e-bd3de5f4e2d0","system_id":"levelo_inurba_marseille","lat":43.29022,"lon":5.3562,"is_reserved":false,"is_disabled":false,"rental_uris":{"android":"levelo://app?vid=d052ba98-98c3-4137-ab7e-bd3de5f4e2d0","ios":"levelo://app?vid=d052ba98-98c3-4137-ab7e-bd3de5f4e2d0"},"vehicle_type_id":"4","last_reported":1740326951,"current_range_meters":16000,"station_id":"ce4bhb92rcd13ifvqen0","pricing_plan_id":"cebpf4jnsgd1na2vs0mg"},{"bike_id":"425dfc13-f615-4dae-9af9-83fe46b9022e","system_id":"levelo_inurba_marseille","lat":43.28616,"lon":5.35104,"is_reserved":false,"is_disabled":false,"rental_uris":{"android":"levelo://app?vid=425dfc13-f615-4dae-9af9-83fe46b9022e","ios":"levelo://app?vid=425dfc13-f615-4dae-9af9-83fe46b9022e"},"vehicle_type_id":"4","last_reported":1740326951,"current_range_meters":16000,"station_id":"ce4bhch2rcd13ifvqeug","pricing_plan_id":"cebpf4jnsgd1na2vs0mg"},{"bike_id":"4fdf7b2b-cb0e-460b-a85c-87d4783d8218","system_id":"levelo_inurba_marseille","lat":43.25494,"lon":5.37654,"is_reserved":false,"is_disabled":true,"rental_uris":{"android":"levelo://app?vid=4fdf7b2b-cb0e-460b-a85c-87d4783d8218","ios":"levelo://app?vid=4fdf7b2b-cb0e-460b-a85c-87d4783d8218"},"vehicle_type_id":"4","last_reported":1740326951,"current_range_meters":16400,"station_id":"ce4bhh12rcd13ifvqff0","pricing_plan_id":"cebpf4jnsgd1na2vs0mg"},{"bike_id":"69164cda-af79-49c1-9319-dc816606cbd8","system_id":"levelo_inurba_marseille","lat":43.24808,"lon":5.37453,"is_reserved":false,"is_disabled":false,"rental_uris":{"android":"levelo://app?vid=69164cda-af79-49c1-9319-dc816606cbd8","ios":"levelo://app?vid=69164cda-af79-49c1-9319-dc816606cbd8"},"vehicle_type_id":"4","last_reported":1740326951,"current_range_meters":16400,"station_id":"ce4bhgh2rcd13ifvqfb0","pricing_plan_id":"cebpf4jnsgd1na2vs0mg"},{"bike_id":"02113bed-98b2-43c1-b135-956b928f7277","system_id":"levelo_inurba_marseille","lat":43.28268,"lon":5.35074,"is_reserved":false,"is_disabled":false,"rental_uris":{"android":"levelo://app?vid=02113bed-98b2-43c1-b135-956b928f7277","ios":"levelo://app?vid=02113bed-98b2-43c1-b135-956b928f7277"},"vehicle_type_id":"4","last_reported":1740326951,"current_range_meters":16400,"station_id":"ce4bhbp2rcd13ifvqerg","pricing_plan_id":"cebpf4jnsgd1na2vs0mg"},{"bike_id":"e532a46e-a93d-4084-95a8-9a5a425faf28","system_id":"levelo_inurba_marseille","lat":43.30298,"lon":5.39212,"is_reserved":false,"is_disabled":false,"rental_uris":{"android":"levelo://app?vid=e532a46e-a93d-4084-95a8-9a5a425faf28","ios":"levelo://app?vid=e532a46e-a93d-4084-95a8-9a5a425faf28"},"vehicle_type_id":"4","last_reported":1740326951,"current_range_meters":16400,"station_id":"ce4bgkh2rcd13ifvqbk0","pricing_plan_id":"cebpf4jnsgd1na2vs0mg"},{"bike_id":"51c7c09f-82e9-4a4b-a201-54869c0fba8f","system_id":"levelo_inurba_marseille","lat":43.25092,"lon":5.39519,"is_reserved":false,"is_disabled":true,"rental_uris":{"android":"levelo://app?vid=51c7c09f-82e9-4a4b-a201-54869c0fba8f","ios":"levelo://app?vid=51c7c09f-82e9-4a4b-a201-54869c0fba8f"},"vehicle_type_id":"4","last_reported":1740326951,"current_range_meters":16400,"station_id":"ce4bhm12rcd13ifvqgkg","pricing_plan_id":"cebpf4jnsgd1na2vs0mg"},{"bike_id":"efa34741-96ee-4fd7-b3a8-ee4efe778296","system_id":"levelo_inurba_marseille","lat":43.29846,"lon":5.36273,"is_reserved":false,"is_disabled":false,"rental_uris":{"android":"levelo://app?vid=efa34741-96ee-4fd7-b3a8-ee4efe778296","ios":"levelo://app?vid=efa34741-96ee-4fd7-b3a8-ee4efe778296"},"vehicle_type_id":"4","last_reported":1740326951,"current_range_meters":16400,"station_id":"ce4bgpp2rcd13ifvqc3g","pricing_plan_id":"cebpf4jnsgd1na2vs0mg"},{"bike_id":"7ba1671d-7e24-4f64-992b-a61a7a2114e0","system_id":"levelo_inurba_marseille","lat":43.272043,"lon":5.391808,"is_reserved":false,"is_disabled":false,"rental_uris":{"android":"levelo://app?vid=7ba1671d-7e24-4f64-992b-a61a7a2114e0","ios":"levelo://app?vid=7ba1671d-7e24-4f64-992b-a61a7a2114e0"},"vehicle_type_id":"4","last_reported":1740326951,"current_range_meters":16400,"station_id":"ce4bhhp2rcd13ifvqfm0","pricing_plan_id":"cebpf4jnsgd1na2vs0mg"},{"bike_id":"b4fb2d5d-036d-45f4-9052-58d8e6ed419a","system_id":"levelo_inurba_marseille","lat":43.28853,"lon":5.39323,"is_reserved":false,"is_disabled":false,"rental_uris":{"android":"levelo://app?vid=b4fb2d5d-036d-45f4-9052-58d8e6ed419a","ios":"levelo://app?vid=b4fb2d5d-036d-45f4-9052-58d8e6ed419a"},"vehicle_type_id":"4","last_reported":1740326951,"current_range_meters":16400,"station_id":"ce4bh2p2rcd13ifvqdi0","pricing_plan_id":"cebpf4jnsgd1na2vs0mg"},{"bike_id":"6e695b2a-e2fe-4fe6-b43d-47c06094a692","system_id":"levelo_inurba_marseille","lat":43.27618,"lon":5.3612,"is_reserved":false,"is_disabled":false,"rental_uris":{"android":"levelo://app?vid=6e695b2a-e2fe-4fe6-b43d-47c06094a692","ios":"levelo://app?vid=6e695b2a-e2fe-4fe6-b43d-47c06094a692"},"vehicle_type_id":"4","last_reported":1740326951,"current_range_meters":16400,"station_id":"ce4bgj92rcd13ifvqbe0","pricing_plan_id":"cebpf4jnsgd1na2vs0mg"},{"bike_id":"da66b67c-f1c1-46a4-94b2-add154d27a69","system_id":"levelo_inurba_marseille","lat":43.28263,"lon":5.3507,"is_reserved":false,"is_disabled":false,"rental_uris":{"android":"levelo://app?vid=da66b67c-f1c1-46a4-94b2-add154d27a69","ios":"levelo://app?vid=da66b67c-f1c1-46a4-94b2-add154d27a69"},"vehicle_type_id":"4","last_reported":1740326951,"current_range_meters":16800,"station_id":"ce4bhbp2rcd13ifvqerg","pricing_plan_id":"cebpf4jnsgd1na2vs0mg"},{"bike_id":"87c93845-143c-4613-9a0d-08836448a26d","system_id":"levelo_inurba_marseille","lat":43.23963,"lon":5.36614,"is_reserved":false,"is_disabled":false,"rental_uris":{"android":"levelo://app?vid=87c93845-143c-4613-9a0d-08836448a26d","ios":"levelo://app?vid=87c93845-143c-4613-9a0d-08836448a26d"},"vehicle_type_id":"4","last_reported":1740326951,"current_range_meters":16800,"station_id":"ce4bhi12rcd13ifvqfp0","pricing_plan_id":"cebpf4jnsgd1na2vs0mg"},{"bike_id":"e174a6ac-577f-4125-8c7a-4847f84807ff","system_id":"levelo_inurba_marseille","lat":43.29002,"lon":5.35612,"is_reserved":false,"is_disabled":false,"rental_uris":{"android":"levelo://app?vid=e174a6ac-577f-4125-8c7a-4847f84807ff","ios":"levelo://app?vid=e174a6ac-577f-4125-8c7a-4847f84807ff"},"vehicle_type_id":"4","last_reported":1740326951,"current_range_meters":16800,"station_id":"ce4bhb92rcd13ifvqen0","pricing_plan_id":"cebpf4jnsgd1na2vs0mg"},{"bike_id":"4a1de9dd-dca7-46a1-9da7-88c7986b0efa","system_id":"levelo_inurba_marseille","lat":43.27056,"lon":5.4026,"is_reserved":false,"is_disabled":false,"rental_uris":{"android":"levelo://app?vid=4a1de9dd-dca7-46a1-9da7-88c7986b0efa","ios":"levelo://app?vid=4a1de9dd-dca7-46a1-9da7-88c7986b0efa"},"vehicle_type_id":"4","last_reported":1740326951,"current_range_meters":16800,"station_id":"ce4bhk92rcd13ifvqgc0","pricing_plan_id":"cebpf4jnsgd1na2vs0mg"},{"bike_id":"08db29a2-6b26-4ec0-98d0-b026c15e08b2","system_id":"levelo_inurba_marseille","lat":43.25002,"lon":5.38927,"is_reserved":false,"is_disabled":false,"rental_uris":{"android":"levelo://app?vid=08db29a2-6b26-4ec0-98d0-b026c15e08b2","ios":"levelo://app?vid=08db29a2-6b26-4ec0-98d0-b026c15e08b2"},"vehicle_type_id":"4","last_reported":1740326951,"current_range_meters":17200,"station_id":"ce4bhgp2rcd13ifvqfd0","pricing_plan_id":"cebpf4jnsgd1na2vs0mg"},{"bike_id":"46e61105-7e67-4cf7-a268-04732bc9135f","system_id":"levelo_inurba_marseille","lat":43.25571,"lon":5.38258,"is_reserved":false,"is_disabled":false,"rental_uris":{"android":"levelo://app?vid=46e61105-7e67-4cf7-a268-04732bc9135f","ios":"levelo://app?vid=46e61105-7e67-4cf7-a268-04732bc9135f"},"vehicle_type_id":"4","last_reported":1740326951,"current_range_meters":17200,"station_id":"ce4bhih2rcd13ifvqfs0","pricing_plan_id":"cebpf4jnsgd1na2vs0mg"},{"bike_id":"5c6bff26-5353-4e54-b33c-f9b68c4c7b2e","system_id":"levelo_inurba_marseille","lat":43.23962,"lon":5.36638,"is_reserved":false,"is_disabled":false,"rental_uris":{"android":"levelo://app?vid=5c6bff26-5353-4e54-b33c-f9b68c4c7b2e","ios":"levelo://app?vid=5c6bff26-5353-4e54-b33c-f9b68c4c7b2e"},"vehicle_type_id":"4","last_reported":1740326951,"current_range_meters":17200,"station_id":"ce4bhi12rcd13ifvqfp0","pricing_plan_id":"cebpf4jnsgd1na2vs0mg"},{"bike_id":"7fe0996e-2e24-4a3a-b975-03a2a20f6506","system_id":"levelo_inurba_marseille","lat":43.32365,"lon":5.36765,"is_reserved":false,"is_disabled":false,"rental_uris":{"android":"levelo://app?vid=7fe0996e-2e24-4a3a-b975-03a2a20f6506","ios":"levelo://app?vid=7fe0996e-2e24-4a3a-b975-03a2a20f6506"},"vehicle_type_id":"4","last_reported":1740326951,"current_range_meters":17200,"station_id":"ce4bhsh2rcd13ifvqi2g","pricing_plan_id":"cebpf4jnsgd1na2vs0mg"},{"bike_id":"27ee9d48-8e2c-4a45-a6bb-98fee1c7dfd6","system_id":"levelo_inurba_marseille","lat":43.26065,"lon":5.39401,"is_reserved":false,"is_disabled":false,"rental_uris":{"android":"levelo://app?vid=27ee9d48-8e2c-4a45-a6bb-98fee1c7dfd6","ios":"levelo://app?vid=27ee9d48-8e2c-4a45-a6bb-98fee1c7dfd6"},"vehicle_type_id":"4","last_reported":1740326951,"current_range_meters":16800,"station_id":"ce4bhh92rcd13ifvqfj0","pricing_plan_id":"cebpf4jnsgd1na2vs0mg"},{"bike_id":"c9bfa61c-d110-4610-aaa5-9c9b618a220e","system_id":"levelo_inurba_marseille","lat":43.23184,"lon":5.39989,"is_reserved":false,"is_disabled":false,"rental_uris":{"android":"levelo://app?vid=c9bfa61c-d110-4610-aaa5-9c9b618a220e","ios":"levelo://app?vid=c9bfa61c-d110-4610-aaa5-9c9b618a220e"},"vehicle_type_id":"4","last_reported":1740326951,"current_range_meters":16800,"station_id":"ce4bhn12rcd13ifvqgqg","pricing_plan_id":"cebpf4jnsgd1na2vs0mg"},{"bike_id":"4b406a5f-1e3d-484d-adc2-d30e0f301eee","system_id":"levelo_inurba_marseille","lat":43.27566,"lon":5.38442,"is_reserved":false,"is_disabled":false,"rental_uris":{"android":"levelo://app?vid=4b406a5f-1e3d-484d-adc2-d30e0f301eee","ios":"levelo://app?vid=4b406a5f-1e3d-484d-adc2-d30e0f301eee"},"vehicle_type_id":"4","last_reported":1740326951,"current_range_meters":17600,"station_id":"ce4bhh92rcd13ifvqfi0","pricing_plan_id":"cebpf4jnsgd1na2vs0mg"},{"bike_id":"6a23bae4-3a19-4252-a3ee-4c42096afe48","system_id":"levelo_inurba_marseille","lat":43.25711,"lon":5.41077,"is_reserved":false,"is_disabled":false,"rental_uris":{"android":"levelo://app?vid=6a23bae4-3a19-4252-a3ee-4c42096afe48","ios":"levelo://app?vid=6a23bae4-3a19-4252-a3ee-4c42096afe48"},"vehicle_type_id":"4","last_reported":1740326951,"current_range_meters":17600,"station_id":"ce4bhkp2rcd13ifvqgd0","pricing_plan_id":"cebpf4jnsgd1na2vs0mg"},{"bike_id":"1ef41376-cd3a-40a3-ae4a-f23a2a34fc30","system_id":"levelo_inurba_marseille","lat":43.27677,"lon":5.38907,"is_reserved":false,"is_disabled":true,"rental_uris":{"android":"levelo://app?vid=1ef41376-cd3a-40a3-ae4a-f23a2a34fc30","ios":"levelo://app?vid=1ef41376-cd3a-40a3-ae4a-f23a2a34fc30"},"vehicle_type_id":"4","last_reported":1740326951,"current_range_meters":17600,"station_id":"ce4bhi12rcd13ifvqfo0","pricing_plan_id":"cebpf4jnsgd1na2vs0mg"},{"bike_id":"a2d6ae3f-66f4-4649-ba0a-99967149441d","system_id":"levelo_inurba_marseille","lat":43.295229,"lon":5.361412,"is_reserved":false,"is_disabled":false,"rental_uris":{"android":"levelo://app?vid=a2d6ae3f-66f4-4649-ba0a-99967149441d","ios":"levelo://app?vid=a2d6ae3f-66f4-4649-ba0a-99967149441d"},"vehicle_type_id":"4","last_reported":1740326951,"current_range_meters":17600,"station_id":"","pricing_plan_id":"cebpf4jnsgd1na2vs0mg"},{"bike_id":"63c8dc8d-25b1-4388-b7e0-1236cb38cb11","system_id":"levelo_inurba_marseille","lat":43.292028,"lon":5.393146,"is_reserved":false,"is_disabled":false,"rental_uris":{"android":"levelo://app?vid=63c8dc8d-25b1-4388-b7e0-1236cb38cb11","ios":"levelo://app?vid=63c8dc8d-25b1-4388-b7e0-1236cb38cb11"},"vehicle_type_id":"4","last_reported":1740326951,"current_range_meters":17600,"station_id":"ce4bh192rcd13ifvqdd0","pricing_plan_id":"cebpf4jnsgd1na2vs0mg"},{"bike_id":"7c96b1e9-f8fc-429d-a4e2-22256462d5e7","system_id":"levelo_inurba_marseille","lat":43.30095,"lon":5.39078,"is_reserved":false,"is_disabled":false,"rental_uris":{"android":"levelo://app?vid=7c96b1e9-f8fc-429d-a4e2-22256462d5e7","ios":"levelo://app?vid=7c96b1e9-f8fc-429d-a4e2-22256462d5e7"},"vehicle_type_id":"4","last_reported":1740326951,"current_range_meters":18000,"station_id":"ce4bh192rcd13ifvqdb0","pricing_plan_id":"cebpf4jnsgd1na2vs0mg"},{"bike_id":"0f98e1c1-1060-482a-b468-abb9bd619098","system_id":"levelo_inurba_marseille","lat":43.23963,"lon":5.3663,"is_reserved":false,"is_disabled":false,"rental_uris":{"android":"levelo://app?vid=0f98e1c1-1060-482a-b468-abb9bd619098","ios":"levelo://app?vid=0f98e1c1-1060-482a-b468-abb9bd619098"},"vehicle_type_id":"4","last_reported":1740326951,"current_range_meters":18000,"station_id":"ce4bhi12rcd13ifvqfp0","pricing_plan_id":"cebpf4jnsgd1na2vs0mg"},{"bike_id":"477c0d1c-124f-4b94-b784-34f87beafd28","system_id":"levelo_inurba_marseille","lat":43.23963,"lon":5.36628,"is_reserved":false,"is_disabled":false,"rental_uris":{"android":"levelo://app?vid=477c0d1c-124f-4b94-b784-34f87beafd28","ios":"levelo://app?vid=477c0d1c-124f-4b94-b784-34f87beafd28"},"vehicle_type_id":"4","last_reported":1740326951,"current_range_meters":18000,"station_id":"ce4bhi12rcd13ifvqfp0","pricing_plan_id":"cebpf4jnsgd1na2vs0mg"},{"bike_id":"4bc2c84c-035c-4858-bc3c-11d90574336e","system_id":"levelo_inurba_marseille","lat":43.29007,"lon":5.35616,"is_reserved":false,"is_disabled":false,"rental_uris":{"android":"levelo://app?vid=4bc2c84c-035c-4858-bc3c-11d90574336e","ios":"levelo://app?vid=4bc2c84c-035c-4858-bc3c-11d90574336e"},"vehicle_type_id":"4","last_reported":1740326951,"current_range_meters":18000,"station_id":"ce4bhb92rcd13ifvqen0","pricing_plan_id":"cebpf4jnsgd1na2vs0mg"},{"bike_id":"da805173-c32f-4615-b8c5-69bdaf0f2e7f","system_id":"levelo_inurba_marseille","lat":43.28998,"lon":5.35604,"is_reserved":false,"is_disabled":true,"rental_uris":{"android":"levelo://app?vid=da805173-c32f-4615-b8c5-69bdaf0f2e7f","ios":"levelo://app?vid=da805173-c32f-4615-b8c5-69bdaf0f2e7f"},"vehicle_type_id":"4","last_reported":1740326951,"current_range_meters":18000,"station_id":"ce4bhb92rcd13ifvqen0","pricing_plan_id":"cebpf4jnsgd1na2vs0mg"},{"bike_id":"2601a66d-f2d4-4fe9-ac73-e489cd4aa426","system_id":"levelo_inurba_marseille","lat":43.29537,"lon":5.38539,"is_reserved":false,"is_disabled":false,"rental_uris":{"android":"levelo://app?vid=2601a66d-f2d4-4fe9-ac73-e489cd4aa426","ios":"levelo://app?vid=2601a66d-f2d4-4fe9-ac73-e489cd4aa426"},"vehicle_type_id":"4","last_reported":1740326951,"current_range_meters":18000,"station_id":"ce4bgih2rcd13ifvqba0","pricing_plan_id":"cebpf4jnsgd1na2vs0mg"},{"bike_id":"42c78488-4a2c-41af-8bd5-0df9da240110","system_id":"levelo_inurba_marseille","lat":43.30806,"lon":5.37638,"is_reserved":false,"is_disabled":false,"rental_uris":{"android":"levelo://app?vid=42c78488-4a2c-41af-8bd5-0df9da240110","ios":"levelo://app?vid=42c78488-4a2c-41af-8bd5-0df9da240110"},"vehicle_type_id":"4","last_reported":1740326951,"current_range_meters":18000,"station_id":"ce4bgv92rcd13ifvqcq0","pricing_plan_id":"cebpf4jnsgd1na2vs0mg"},{"bike_id":"c219a6e1-9408-4938-a25a-24013015bbc2","system_id":"levelo_inurba_marseille","lat":43.265658,"lon":5.390262,"is_reserved":false,"is_disabled":false,"rental_uris":{"android":"levelo://app?vid=c219a6e1-9408-4938-a25a-24013015bbc2","ios":"levelo://app?vid=c219a6e1-9408-4938-a25a-24013015bbc2"},"vehicle_type_id":"4","last_reported":1740326951,"current_range_meters":18000,"station_id":"ce4bhih2rcd13ifvqfs0","pricing_plan_id":"cebpf4jnsgd1na2vs0mg"},{"bike_id":"b5a1d484-9e63-43b3-9bbc-06f2df1a2c91","system_id":"levelo_inurba_marseille","lat":43.292101,"lon":5.393133,"is_reserved":false,"is_disabled":false,"rental_uris":{"android":"levelo://app?vid=b5a1d484-9e63-43b3-9bbc-06f2df1a2c91","ios":"levelo://app?vid=b5a1d484-9e63-43b3-9bbc-06f2df1a2c91"},"vehicle_type_id":"4","last_reported":1740326951,"current_range_meters":18800,"station_id":"ce4bh192rcd13ifvqdd0","pricing_plan_id":"cebpf4jnsgd1na2vs0mg"},{"bike_id":"41a2216f-8b22-4f4f-9eac-5e2283bcdb4b","system_id":"levelo_inurba_marseille","lat":43.28151,"lon":5.42545,"is_reserved":false,"is_disabled":true,"rental_uris":{"android":"levelo://app?vid=41a2216f-8b22-4f4f-9eac-5e2283bcdb4b","ios":"levelo://app?vid=41a2216f-8b22-4f4f-9eac-5e2283bcdb4b"},"vehicle_type_id":"4","last_reported":1740326951,"current_range_meters":18800,"station_id":"","pricing_plan_id":"cebpf4jnsgd1na2vs0mg"},{"bike_id":"b74b70b7-2ee4-40f6-9bb9-a30abcb56606","system_id":"levelo_inurba_marseille","lat":43.292084,"lon":5.393346,"is_reserved":false,"is_disabled":false,"rental_uris":{"android":"levelo://app?vid=b74b70b7-2ee4-40f6-9bb9-a30abcb56606","ios":"levelo://app?vid=b74b70b7-2ee4-40f6-9bb9-a30abcb56606"},"vehicle_type_id":"4","last_reported":1740326951,"current_range_meters":18800,"station_id":"ce4bh192rcd13ifvqdd0","pricing_plan_id":"cebpf4jnsgd1na2vs0mg"},{"bike_id":"b603bfe1-ca07-48a7-9422-c5dabf721193","system_id":"levelo_inurba_marseille","lat":43.32675,"lon":5.39153,"is_reserved":false,"is_disabled":false,"rental_uris":{"android":"levelo://app?vid=b603bfe1-ca07-48a7-9422-c5dabf721193","ios":"levelo://app?vid=b603bfe1-ca07-48a7-9422-c5dabf721193"},"vehicle_type_id":"4","last_reported":1740326951,"current_range_meters":18800,"station_id":"","pricing_plan_id":"cebpf4jnsgd1na2vs0mg"},{"bike_id":"b46ba00a-f171-4025-a2e3-4dec663b6aff","system_id":"levelo_inurba_marseille","lat":43.2623,"lon":5.40456,"is_reserved":false,"is_disabled":false,"rental_uris":{"android":"levelo://app?vid=b46ba00a-f171-4025-a2e3-4dec663b6aff","ios":"levelo://app?vid=b46ba00a-f171-4025-a2e3-4dec663b6aff"},"vehicle_type_id":"4","last_reported":1740326951,"current_range_meters":18800,"station_id":"ce4bhmh2rcd13ifvqgmg","pricing_plan_id":"cebpf4jnsgd1na2vs0mg"},{"bike_id":"ad31706a-a46e-476c-a150-1109ce72b9d1","system_id":"levelo_inurba_marseille","lat":43.3248,"lon":5.36571,"is_reserved":false,"is_disabled":false,"rental_uris":{"android":"levelo://app?vid=ad31706a-a46e-476c-a150-1109ce72b9d1","ios":"levelo://app?vid=ad31706a-a46e-476c-a150-1109ce72b9d1"},"vehicle_type_id":"4","last_reported":1740326951,"current_range_meters":18800,"station_id":"ce4bhs12rcd13ifvqhvg","pricing_plan_id":"cebpf4jnsgd1na2vs0mg"},{"bike_id":"e1e6eecf-00c7-420d-b145-21709b68c1fe","system_id":"levelo_inurba_marseille","lat":43.28625,"lon":5.35112,"is_reserved":false,"is_disabled":false,"rental_uris":{"android":"levelo://app?vid=e1e6eecf-00c7-420d-b145-21709b68c1fe","ios":"levelo://app?vid=e1e6eecf-00c7-420d-b145-21709b68c1fe"},"vehicle_type_id":"4","last_reported":1740326951,"current_range_meters":18800,"station_id":"ce4bhch2rcd13ifvqeug","pricing_plan_id":"cebpf4jnsgd1na2vs0mg"},{"bike_id":"c0553ce2-1e21-4424-ae14-30f158e9755d","system_id":"levelo_inurba_marseille","lat":43.2988,"lon":5.38923,"is_reserved":false,"is_disabled":true,"rental_uris":{"android":"levelo://app?vid=c0553ce2-1e21-4424-ae14-30f158e9755d","ios":"levelo://app?vid=c0553ce2-1e21-4424-ae14-30f158e9755d"},"vehicle_type_id":"4","last_reported":1740326951,"current_range_meters":18800,"station_id":"ce4bh392rcd13ifvqdl0","pricing_plan_id":"cebpf4jnsgd1na2vs0mg"},{"bike_id":"9ec80d5d-5365-4fe8-b1b8-741c81741c1c","system_id":"levelo_inurba_marseille","lat":43.27734,"lon":5.40778,"is_reserved":false,"is_disabled":false,"rental_uris":{"android":"levelo://app?vid=9ec80d5d-5365-4fe8-b1b8-741c81741c1c","ios":"levelo://app?vid=9ec80d5d-5365-4fe8-b1b8-741c81741c1c"},"vehicle_type_id":"4","last_reported":1740326951,"current_range_meters":19200,"station_id":"","pricing_plan_id":"cebpf4jnsgd1na2vs0mg"},{"bike_id":"2cb3f284-7b8f-46db-a012-ff6c476270a8","system_id":"levelo_inurba_marseille","lat":43.23193,"lon":5.35585,"is_reserved":false,"is_disabled":false,"rental_uris":{"android":"levelo://app?vid=2cb3f284-7b8f-46db-a012-ff6c476270a8","ios":"levelo://app?vid=2cb3f284-7b8f-46db-a012-ff6c476270a8"},"vehicle_type_id":"4","last_reported":1740326951,"current_range_meters":19200,"station_id":"ce4bhu92rcd13ifvqi70","pricing_plan_id":"cebpf4jnsgd1na2vs0mg"},{"bike_id":"98f0728d-28d6-418f-8c20-7526e5f2bf59","system_id":"levelo_inurba_marseille","lat":43.28274,"lon":5.3506,"is_reserved":false,"is_disabled":false,"rental_uris":{"android":"levelo://app?vid=98f0728d-28d6-418f-8c20-7526e5f2bf59","ios":"levelo://app?vid=98f0728d-28d6-418f-8c20-7526e5f2bf59"},"vehicle_type_id":"4","last_reported":1740326951,"current_range_meters":19600,"station_id":"ce4bhbp2rcd13ifvqerg","pricing_plan_id":"cebpf4jnsgd1na2vs0mg"},{"bike_id":"6e0cfcd9-47b8-4276-979e-8501af433a4a","system_id":"levelo_inurba_marseille","lat":43.292,"lon":5.35805,"is_reserved":false,"is_disabled":false,"rental_uris":{"android":"levelo://app?vid=6e0cfcd9-47b8-4276-979e-8501af433a4a","ios":"levelo://app?vid=6e0cfcd9-47b8-4276-979e-8501af433a4a"},"vehicle_type_id":"4","last_reported":1740326951,"current_range_meters":19200,"station_id":"ce4bhb12rcd13ifvqel0","pricing_plan_id":"cebpf4jnsgd1na2vs0mg"},{"bike_id":"dcd03dba-9292-4614-8ec0-01d5308cbc07","system_id":"levelo_inurba_marseille","lat":43.29898,"lon":5.43663,"is_reserved":false,"is_disabled":false,"rental_uris":{"android":"levelo://app?vid=dcd03dba-9292-4614-8ec0-01d5308cbc07","ios":"levelo://app?vid=dcd03dba-9292-4614-8ec0-01d5308cbc07"},"vehicle_type_id":"4","last_reported":1740326951,"current_range_meters":19200,"station_id":"ce4bhpp2rcd13ifvqhfg","pricing_plan_id":"cebpf4jnsgd1na2vs0mg"},{"bike_id":"bcc9f283-1a48-40bb-a6e9-8d48ce3a6bb6","system_id":"levelo_inurba_marseille","lat":43.29003,"lon":5.35608,"is_reserved":false,"is_disabled":false,"rental_uris":{"android":"levelo://app?vid=bcc9f283-1a48-40bb-a6e9-8d48ce3a6bb6","ios":"levelo://app?vid=bcc9f283-1a48-40bb-a6e9-8d48ce3a6bb6"},"vehicle_type_id":"4","last_reported":1740326951,"current_range_meters":19600,"station_id":"ce4bhb92rcd13ifvqen0","pricing_plan_id":"cebpf4jnsgd1na2vs0mg"},{"bike_id":"ba524a02-484a-48ea-a0ca-487a21848620","system_id":"levelo_inurba_marseille","lat":43.291,"lon":5.38137,"is_reserved":false,"is_disabled":false,"rental_uris":{"android":"levelo://app?vid=ba524a02-484a-48ea-a0ca-487a21848620","ios":"levelo://app?vid=ba524a02-484a-48ea-a0ca-487a21848620"},"vehicle_type_id":"4","last_reported":1740326951,"current_range_meters":19600,"station_id":"ce4bh512rcd13ifvqe2g","pricing_plan_id":"cebpf4jnsgd1na2vs0mg"},{"bike_id":"31f22dd6-b64e-47dc-a1e2-0e184779765a","system_id":"levelo_inurba_marseille","lat":43.28405,"lon":5.38465,"is_reserved":false,"is_disabled":false,"rental_uris":{"android":"levelo://app?vid=31f22dd6-b64e-47dc-a1e2-0e184779765a","ios":"levelo://app?vid=31f22dd6-b64e-47dc-a1e2-0e184779765a"},"vehicle_type_id":"4","last_reported":1740326951,"current_range_meters":20000,"station_id":"","pricing_plan_id":"cebpf4jnsgd1na2vs0mg"},{"bike_id":"d4730943-c8a0-45ac-a541-8183607370d1","system_id":"levelo_inurba_marseille","lat":43.25018,"lon":5.38918,"is_reserved":false,"is_disabled":false,"rental_uris":{"android":"levelo://app?vid=d4730943-c8a0-45ac-a541-8183607370d1","ios":"levelo://app?vid=d4730943-c8a0-45ac-a541-8183607370d1"},"vehicle_type_id":"4","last_reported":1740326951,"current_range_meters":20000,"station_id":"ce4bhgp2rcd13ifvqfd0","pricing_plan_id":"cebpf4jnsgd1na2vs0mg"},{"bike_id":"cdf89f84-1d45-4ce1-b985-6a2c8b69ccf3","system_id":"levelo_inurba_marseille","lat":43.30545,"lon":5.3653,"is_reserved":false,"is_disabled":true,"rental_uris":{"android":"levelo://app?vid=cdf89f84-1d45-4ce1-b985-6a2c8b69ccf3","ios":"levelo://app?vid=cdf89f84-1d45-4ce1-b985-6a2c8b69ccf3"},"vehicle_type_id":"4","last_reported":1740326951,"current_range_meters":20000,"station_id":"ce4bgs12rcd13ifvqcag","pricing_plan_id":"cebpf4jnsgd1na2vs0mg"},{"bike_id":"ebbf6217-465f-4269-8ee4-4515a862b241","system_id":"levelo_inurba_marseille","lat":43.29868,"lon":5.38889,"is_reserved":false,"is_disabled":true,"rental_uris":{"android":"levelo://app?vid=ebbf6217-465f-4269-8ee4-4515a862b241","ios":"levelo://app?vid=ebbf6217-465f-4269-8ee4-4515a862b241"},"vehicle_type_id":"4","last_reported":1740326951,"current_range_meters":20000,"station_id":"ce4bh392rcd13ifvqdl0","pricing_plan_id":"cebpf4jnsgd1na2vs0mg"},{"bike_id":"feb374c4-ced8-4721-b255-40391d59106c","system_id":"levelo_inurba_marseille","lat":43.28106,"lon":5.37859,"is_reserved":false,"is_disabled":false,"rental_uris":{"android":"levelo://app?vid=feb374c4-ced8-4721-b255-40391d59106c","ios":"levelo://app?vid=feb374c4-ced8-4721-b255-40391d59106c"},"vehicle_type_id":"4","last_reported":1740326951,"current_range_meters":20000,"station_id":"ce4bha12rcd13ifvqee0","pricing_plan_id":"cebpf4jnsgd1na2vs0mg"},{"bike_id":"c47ed376-8e64-4b0c-b877-8495e83c2ec2","system_id":"levelo_inurba_marseille","lat":43.26806,"lon":5.40271,"is_reserved":false,"is_disabled":false,"rental_uris":{"android":"levelo://app?vid=c47ed376-8e64-4b0c-b877-8495e83c2ec2","ios":"levelo://app?vid=c47ed376-8e64-4b0c-b877-8495e83c2ec2"},"vehicle_type_id":"4","last_reported":1740326951,"current_range_meters":20000,"station_id":"ce501612rcd8frsf0b60","pricing_plan_id":"cebpf4jnsgd1na2vs0mg"},{"bike_id":"7f5aae77-407d-4966-a802-dcf0bc20ffbf","system_id":"levelo_inurba_marseille","lat":43.26808,"lon":5.40266,"is_reserved":false,"is_disabled":false,"rental_uris":{"android":"levelo://app?vid=7f5aae77-407d-4966-a802-dcf0bc20ffbf","ios":"levelo://app?vid=7f5aae77-407d-4966-a802-dcf0bc20ffbf"},"vehicle_type_id":"4","last_reported":1740326951,"current_range_meters":20400,"station_id":"ce501612rcd8frsf0b60","pricing_plan_id":"cebpf4jnsgd1na2vs0mg"},{"bike_id":"e62c50dd-fd33-4a61-994f-cfb5137dca59","system_id":"levelo_inurba_marseille","lat":43.27998,"lon":5.40019,"is_reserved":false,"is_disabled":false,"rental_uris":{"android":"levelo://app?vid=e62c50dd-fd33-4a61-994f-cfb5137dca59","ios":"levelo://app?vid=e62c50dd-fd33-4a61-994f-cfb5137dca59"},"vehicle_type_id":"4","last_reported":1740326951,"current_range_meters":20400,"station_id":"ce4bho92rcd13ifvqh4g","pricing_plan_id":"cebpf4jnsgd1na2vs0mg"},{"bike_id":"53899e2c-901f-4684-921b-47370fcd206b","system_id":"levelo_inurba_marseille","lat":43.30104,"lon":5.3909,"is_reserved":false,"is_disabled":true,"rental_uris":{"android":"levelo://app?vid=53899e2c-901f-4684-921b-47370fcd206b","ios":"levelo://app?vid=53899e2c-901f-4684-921b-47370fcd206b"},"vehicle_type_id":"4","last_reported":1740326951,"current_range_meters":20400,"station_id":"ce4bh192rcd13ifvqdb0","pricing_plan_id":"cebpf4jnsgd1na2vs0mg"},{"bike_id":"87e38e13-31e5-438d-b932-35823825390c","system_id":"levelo_inurba_marseille","lat":43.30303,"lon":5.39219,"is_reserved":false,"is_disabled":false,"rental_uris":{"android":"levelo://app?vid=87e38e13-31e5-438d-b932-35823825390c","ios":"levelo://app?vid=87e38e13-31e5-438d-b932-35823825390c"},"vehicle_type_id":"4","last_reported":1740326951,"current_range_meters":20400,"station_id":"ce4bgkh2rcd13ifvqbk0","pricing_plan_id":"cebpf4jnsgd1na2vs0mg"},{"bike_id":"b9ca77b9-71b3-4fce-ba6d-9bf71fdeb3e8","system_id":"levelo_inurba_marseille","lat":43.28615,"lon":5.35108,"is_reserved":false,"is_disabled":false,"rental_uris":{"android":"levelo://app?vid=b9ca77b9-71b3-4fce-ba6d-9bf71fdeb3e8","ios":"levelo://app?vid=b9ca77b9-71b3-4fce-ba6d-9bf71fdeb3e8"},"vehicle_type_id":"4","last_reported":1740326951,"current_range_meters":20400,"station_id":"ce4bhch2rcd13ifvqeug","pricing_plan_id":"cebpf4jnsgd1na2vs0mg"},{"bike_id":"a01f5c6f-5aea-4ddc-8287-05dfd53152b4","system_id":"levelo_inurba_marseille","lat":43.292081,"lon":5.393116,"is_reserved":false,"is_disabled":false,"rental_uris":{"android":"levelo://app?vid=a01f5c6f-5aea-4ddc-8287-05dfd53152b4","ios":"levelo://app?vid=a01f5c6f-5aea-4ddc-8287-05dfd53152b4"},"vehicle_type_id":"4","last_reported":1740326951,"current_range_meters":20400,"station_id":"ce4bh192rcd13ifvqdd0","pricing_plan_id":"cebpf4jnsgd1na2vs0mg"},{"bike_id":"0b3ab188-e68b-45d1-b8ed-918c6d3d9882","system_id":"levelo_inurba_marseille","lat":43.30262,"lon":5.40082,"is_reserved":false,"is_disabled":false,"rental_uris":{"android":"levelo://app?vid=0b3ab188-e68b-45d1-b8ed-918c6d3d9882","ios":"levelo://app?vid=0b3ab188-e68b-45d1-b8ed-918c6d3d9882"},"vehicle_type_id":"4","last_reported":1740326951,"current_range_meters":20000,"station_id":"ce4bgvh2rcd13ifvqcs0","pricing_plan_id":"cebpf4jnsgd1na2vs0mg"},{"bike_id":"073518a5-4dc0-447e-9477-a67f73b2a5a2","system_id":"levelo_inurba_marseille","lat":43.32258,"lon":5.36578,"is_reserved":false,"is_disabled":false,"rental_uris":{"android":"levelo://app?vid=073518a5-4dc0-447e-9477-a67f73b2a5a2","ios":"levelo://app?vid=073518a5-4dc0-447e-9477-a67f73b2a5a2"},"vehicle_type_id":"4","last_reported":1740326951,"current_range_meters":20800,"station_id":"ce4bhsh2rcd13ifvqi2g","pricing_plan_id":"cebpf4jnsgd1na2vs0mg"},{"bike_id":"46e57d52-d72c-4dab-8db0-b12a2a9d9ac5","system_id":"levelo_inurba_marseille","lat":43.265823,"lon":5.39036,"is_reserved":false,"is_disabled":false,"rental_uris":{"android":"levelo://app?vid=46e57d52-d72c-4dab-8db0-b12a2a9d9ac5","ios":"levelo://app?vid=46e57d52-d72c-4dab-8db0-b12a2a9d9ac5"},"vehicle_type_id":"4","last_reported":1740326951,"current_range_meters":20800,"station_id":"ce4bhe12rcd13ifvqf30","pricing_plan_id":"cebpf4jnsgd1na2vs0mg"},{"bike_id":"d5f86142-2cf1-4634-9302-ac3d7bd425be","system_id":"levelo_inurba_marseille","lat":43.29304,"lon":5.37193,"is_reserved":false,"is_disabled":false,"rental_uris":{"android":"levelo://app?vid=d5f86142-2cf1-4634-9302-ac3d7bd425be","ios":"levelo://app?vid=d5f86142-2cf1-4634-9302-ac3d7bd425be"},"vehicle_type_id":"4","last_reported":1740326951,"current_range_meters":21600,"station_id":"ce4bgh92rcd13ifvqb40","pricing_plan_id":"cebpf4jnsgd1na2vs0mg"},{"bike_id":"67350e3b-ced3-434f-8df5-0f50029c572e","system_id":"levelo_inurba_marseille","lat":43.23161,"lon":5.35613,"is_reserved":false,"is_disabled":false,"rental_uris":{"android":"levelo://app?vid=67350e3b-ced3-434f-8df5-0f50029c572e","ios":"levelo://app?vid=67350e3b-ced3-434f-8df5-0f50029c572e"},"vehicle_type_id":"4","last_reported":1740326951,"current_range_meters":21600,"station_id":"","pricing_plan_id":"cebpf4jnsgd1na2vs0mg"},{"bike_id":"d39b89dc-367c-4403-9e9b-c26f4449b1ae","system_id":"levelo_inurba_marseille","lat":43.28355,"lon":5.38123,"is_reserved":false,"is_disabled":false,"rental_uris":{"android":"levelo://app?vid=d39b89dc-367c-4403-9e9b-c26f4449b1ae","ios":"levelo://app?vid=d39b89dc-367c-4403-9e9b-c26f4449b1ae"},"vehicle_type_id":"4","last_reported":1740326951,"current_range_meters":22000,"station_id":"ce4bh412rcd13ifvqdr0","pricing_plan_id":"cebpf4jnsgd1na2vs0mg"},{"bike_id":"2adcad4e-0a98-48b4-b4a0-d22dcf02bc24","system_id":"levelo_inurba_marseille","lat":43.27204,"lon":5.39184,"is_reserved":false,"is_disabled":false,"rental_uris":{"android":"levelo://app?vid=2adcad4e-0a98-48b4-b4a0-d22dcf02bc24","ios":"levelo://app?vid=2adcad4e-0a98-48b4-b4a0-d22dcf02bc24"},"vehicle_type_id":"4","last_reported":1740326951,"current_range_meters":21600,"station_id":"ce4bhhp2rcd13ifvqfm0","pricing_plan_id":"cebpf4jnsgd1na2vs0mg"},{"bike_id":"0c196170-6b3c-4348-a05e-13d77c4565dd","system_id":"levelo_inurba_marseille","lat":43.23968,"lon":5.36647,"is_reserved":false,"is_disabled":false,"rental_uris":{"android":"levelo://app?vid=0c196170-6b3c-4348-a05e-13d77c4565dd","ios":"levelo://app?vid=0c196170-6b3c-4348-a05e-13d77c4565dd"},"vehicle_type_id":"4","last_reported":1740326951,"current_range_meters":21600,"station_id":"ce4bhi12rcd13ifvqfp0","pricing_plan_id":"cebpf4jnsgd1na2vs0mg"},{"bike_id":"0f36dcdd-b97b-4ae8-afcd-d5c2384b3d87","system_id":"levelo_inurba_marseille","lat":43.28416,"lon":5.34964,"is_reserved":false,"is_disabled":false,"rental_uris":{"android":"levelo://app?vid=0f36dcdd-b97b-4ae8-afcd-d5c2384b3d87","ios":"levelo://app?vid=0f36dcdd-b97b-4ae8-afcd-d5c2384b3d87"},"vehicle_type_id":"4","last_reported":1740326951,"current_range_meters":22000,"station_id":"ce4bhbh2rcd13ifvqepg","pricing_plan_id":"cebpf4jnsgd1na2vs0mg"},{"bike_id":"1d4f5f3e-935a-4d9b-9c63-59aeec3590ef","system_id":"levelo_inurba_marseille","lat":43.29796,"lon":5.38095,"is_reserved":false,"is_disabled":false,"rental_uris":{"android":"levelo://app?vid=1d4f5f3e-935a-4d9b-9c63-59aeec3590ef","ios":"levelo://app?vid=1d4f5f3e-935a-4d9b-9c63-59aeec3590ef"},"vehicle_type_id":"4","last_reported":1740326951,"current_range_meters":22000,"station_id":"ce4bgip2rcd13ifvqbb0","pricing_plan_id":"cebpf4jnsgd1na2vs0mg"},{"bike_id":"67b8b3f6-1135-41e1-9b4f-c98e6799dec8","system_id":"levelo_inurba_marseille","lat":43.308,"lon":5.43514,"is_reserved":false,"is_disabled":false,"rental_uris":{"android":"levelo://app?vid=67b8b3f6-1135-41e1-9b4f-c98e6799dec8","ios":"levelo://app?vid=67b8b3f6-1135-41e1-9b4f-c98e6799dec8"},"vehicle_type_id":"4","last_reported":1740326951,"current_range_meters":22000,"station_id":"ce4bhph2rcd13ifvqheg","pricing_plan_id":"cebpf4jnsgd1na2vs0mg"},{"bike_id":"34bfda12-2dfb-47d6-b2c1-4566a70f711e","system_id":"levelo_inurba_marseille","lat":43.313596,"lon":5.384944,"is_reserved":false,"is_disabled":false,"rental_uris":{"android":"levelo://app?vid=34bfda12-2dfb-47d6-b2c1-4566a70f711e","ios":"levelo://app?vid=34bfda12-2dfb-47d6-b2c1-4566a70f711e"},"vehicle_type_id":"4","last_reported":1740326951,"current_range_meters":22000,"station_id":"ce4bgt92rcd13ifvqcf0","pricing_plan_id":"cebpf4jnsgd1na2vs0mg"},{"bike_id":"86669f33-8519-423e-9dec-1b624217baeb","system_id":"levelo_inurba_marseille","lat":43.25091,"lon":5.39515,"is_reserved":false,"is_disabled":true,"rental_uris":{"android":"levelo://app?vid=86669f33-8519-423e-9dec-1b624217baeb","ios":"levelo://app?vid=86669f33-8519-423e-9dec-1b624217baeb"},"vehicle_type_id":"4","last_reported":1740326951,"current_range_meters":22000,"station_id":"ce4bhm12rcd13ifvqgkg","pricing_plan_id":"cebpf4jnsgd1na2vs0mg"},{"bike_id":"db1ed043-2ce4-4dd4-9149-6c793af057ac","system_id":"levelo_inurba_marseille","lat":43.26056,"lon":5.39401,"is_reserved":false,"is_disabled":false,"rental_uris":{"android":"levelo://app?vid=db1ed043-2ce4-4dd4-9149-6c793af057ac","ios":"levelo://app?vid=db1ed043-2ce4-4dd4-9149-6c793af057ac"},"vehicle_type_id":"4","last_reported":1740326951,"current_range_meters":22000,"station_id":"ce4bhh92rcd13ifvqfj0","pricing_plan_id":"cebpf4jnsgd1na2vs0mg"},{"bike_id":"e0a974b6-ebb6-4643-b3b6-b282d529bc0a","system_id":"levelo_inurba_marseille","lat":43.31719,"lon":5.43695,"is_reserved":false,"is_disabled":true,"rental_uris":{"android":"levelo://app?vid=e0a974b6-ebb6-4643-b3b6-b282d529bc0a","ios":"levelo://app?vid=e0a974b6-ebb6-4643-b3b6-b282d529bc0a"},"vehicle_type_id":"4","last_reported":1740326951,"current_range_meters":22000,"station_id":"ce4bhp92rcd13ifvqhcg","pricing_plan_id":"cebpf4jnsgd1na2vs0mg"},{"bike_id":"67353ec5-ce91-46f3-8df8-86128e85fd44","system_id":"levelo_inurba_marseille","lat":43.28153,"lon":5.42677,"is_reserved":false,"is_disabled":true,"rental_uris":{"android":"levelo://app?vid=67353ec5-ce91-46f3-8df8-86128e85fd44","ios":"levelo://app?vid=67353ec5-ce91-46f3-8df8-86128e85fd44"},"vehicle_type_id":"4","last_reported":1740326951,"current_range_meters":22000,"station_id":"ce4bhnh2rcd13ifvqgug","pricing_plan_id":"cebpf4jnsgd1na2vs0mg"},{"bike_id":"f244c07b-dc13-4f61-8c44-efe86de82881","system_id":"levelo_inurba_marseille","lat":43.29628,"lon":5.40605,"is_reserved":false,"is_disabled":true,"rental_uris":{"android":"levelo://app?vid=f244c07b-dc13-4f61-8c44-efe86de82881","ios":"levelo://app?vid=f244c07b-dc13-4f61-8c44-efe86de82881"},"vehicle_type_id":"4","last_reported":1740326951,"current_range_meters":22400,"station_id":"ce4bh0h2rcd13ifvqd60","pricing_plan_id":"cebpf4jnsgd1na2vs0mg"},{"bike_id":"306c8afe-27f2-42dd-9d3c-74d43bc1f2cb","system_id":"levelo_inurba_marseille","lat":43.27494,"lon":5.42462,"is_reserved":false,"is_disabled":false,"rental_uris":{"android":"levelo://app?vid=306c8afe-27f2-42dd-9d3c-74d43bc1f2cb","ios":"levelo://app?vid=306c8afe-27f2-42dd-9d3c-74d43bc1f2cb"},"vehicle_type_id":"4","last_reported":1740326951,"current_range_meters":22400,"station_id":"ce4bhn92rcd13ifvqgrg","pricing_plan_id":"cebpf4jnsgd1na2vs0mg"},{"bike_id":"3521843e-791a-4e8d-b1e2-892832c99be3","system_id":"levelo_inurba_marseille","lat":43.29845,"lon":5.3627,"is_reserved":false,"is_disabled":false,"rental_uris":{"android":"levelo://app?vid=3521843e-791a-4e8d-b1e2-892832c99be3","ios":"levelo://app?vid=3521843e-791a-4e8d-b1e2-892832c99be3"},"vehicle_type_id":"4","last_reported":1740326951,"current_range_meters":22400,"station_id":"ce4bgpp2rcd13ifvqc3g","pricing_plan_id":"cebpf4jnsgd1na2vs0mg"},{"bike_id":"5214cfc5-c93a-4ba7-b70b-76576f887414","system_id":"levelo_inurba_marseille","lat":43.30928,"lon":5.40154,"is_reserved":false,"is_disabled":false,"rental_uris":{"android":"levelo://app?vid=5214cfc5-c93a-4ba7-b70b-76576f887414","ios":"levelo://app?vid=5214cfc5-c93a-4ba7-b70b-76576f887414"},"vehicle_type_id":"4","last_reported":1740326951,"current_range_meters":22400,"station_id":"ce4bgvp2rcd13ifvqct0","pricing_plan_id":"cebpf4jnsgd1na2vs0mg"},{"bike_id":"e0e11351-fbb6-4f2c-8fce-c0ab92b63704","system_id":"levelo_inurba_marseille","lat":43.29347,"lon":5.42812,"is_reserved":false,"is_disabled":false,"rental_uris":{"android":"levelo://app?vid=e0e11351-fbb6-4f2c-8fce-c0ab92b63704","ios":"levelo://app?vid=e0e11351-fbb6-4f2c-8fce-c0ab92b63704"},"vehicle_type_id":"4","last_reported":1740326951,"current_range_meters":22400,"station_id":"","pricing_plan_id":"cebpf4jnsgd1na2vs0mg"},{"bike_id":"4e83ca67-5477-4052-8de9-73da3035aee0","system_id":"levelo_inurba_marseille","lat":43.2509,"lon":5.39528,"is_reserved":false,"is_disabled":false,"rental_uris":{"android":"levelo://app?vid=4e83ca67-5477-4052-8de9-73da3035aee0","ios":"levelo://app?vid=4e83ca67-5477-4052-8de9-73da3035aee0"},"vehicle_type_id":"4","last_reported":1740326951,"current_range_meters":22800,"station_id":"ce4bhm12rcd13ifvqgkg","pricing_plan_id":"cebpf4jnsgd1na2vs0mg"},{"bike_id":"181e14ed-4e9f-4874-8710-1b5c1fed90a1","system_id":"levelo_inurba_marseille","lat":43.25824,"lon":5.39426,"is_reserved":false,"is_disabled":false,"rental_uris":{"android":"levelo://app?vid=181e14ed-4e9f-4874-8710-1b5c1fed90a1","ios":"levelo://app?vid=181e14ed-4e9f-4874-8710-1b5c1fed90a1"},"vehicle_type_id":"4","last_reported":1740326951,"current_range_meters":22800,"station_id":"ce4bhip2rcd13ifvqft0","pricing_plan_id":"cebpf4jnsgd1na2vs0mg"},{"bike_id":"b121fce8-88c2-4326-b46f-99a4b93a6450","system_id":"levelo_inurba_marseille","lat":43.29274,"lon":5.36842,"is_reserved":false,"is_disabled":false,"rental_uris":{"android":"levelo://app?vid=b121fce8-88c2-4326-b46f-99a4b93a6450","ios":"levelo://app?vid=b121fce8-88c2-4326-b46f-99a4b93a6450"},"vehicle_type_id":"4","last_reported":1740326951,"current_range_meters":22800,"station_id":"ce4bhbp2rcd13ifvqesg","pricing_plan_id":"cebpf4jnsgd1na2vs0mg"},{"bike_id":"0421518c-6716-443a-9264-b01c16546fba","system_id":"levelo_inurba_marseille","lat":43.28622,"lon":5.35108,"is_reserved":false,"is_disabled":false,"rental_uris":{"android":"levelo://app?vid=0421518c-6716-443a-9264-b01c16546fba","ios":"levelo://app?vid=0421518c-6716-443a-9264-b01c16546fba"},"vehicle_type_id":"4","last_reported":1740326951,"current_range_meters":22800,"station_id":"ce4bhch2rcd13ifvqeug","pricing_plan_id":"cebpf4jnsgd1na2vs0mg"},{"bike_id":"543b11c4-846f-4053-849b-edd86e3c9bf8","system_id":"levelo_inurba_marseille","lat":43.28616,"lon":5.35106,"is_reserved":false,"is_disabled":false,"rental_uris":{"android":"levelo://app?vid=543b11c4-846f-4053-849b-edd86e3c9bf8","ios":"levelo://app?vid=543b11c4-846f-4053-849b-edd86e3c9bf8"},"vehicle_type_id":"4","last_reported":1740326951,"current_range_meters":22800,"station_id":"ce4bhch2rcd13ifvqeug","pricing_plan_id":"cebpf4jnsgd1na2vs0mg"},{"bike_id":"b5e2cedb-cfae-44f9-b063-ce607555a488","system_id":"levelo_inurba_marseille","lat":43.24811,"lon":5.37456,"is_reserved":false,"is_disabled":false,"rental_uris":{"android":"levelo://app?vid=b5e2cedb-cfae-44f9-b063-ce607555a488","ios":"levelo://app?vid=b5e2cedb-cfae-44f9-b063-ce607555a488"},"vehicle_type_id":"4","last_reported":1740326951,"current_range_meters":22800,"station_id":"ce4bhgh2rcd13ifvqfb0","pricing_plan_id":"cebpf4jnsgd1na2vs0mg"},{"bike_id":"320e1b38-66ac-4a32-8997-1beec4399d8f","system_id":"levelo_inurba_marseille","lat":43.29009,"lon":5.35606,"is_reserved":false,"is_disabled":false,"rental_uris":{"android":"levelo://app?vid=320e1b38-66ac-4a32-8997-1beec4399d8f","ios":"levelo://app?vid=320e1b38-66ac-4a32-8997-1beec4399d8f"},