{"last_updated":1751137682,"ttl":60,"version":"2.2","data":{"bikes":[{"bike_id":"3da29fb8-fc97-44c6-b9ac-31dd456b2fd4","system_id":"levelo_inurba_marseille","lat":43.33771,"lon":5.37424,"is_reserved":false,"is_disabled":true,"rental_uris":{"android":"levelo://app?vid=3da29fb8-fc97-44c6-b9ac-31dd456b2fd4","ios":"levelo://app?vid=3da29fb8-fc97-44c6-b9ac-31dd456b2fd4"},"vehicle_type_id":"4","last_reported":1751137682,"current_range_meters":0,"station_id":"","pricing_plan_id":"cebpf4jnsgd1na2vs0mg"},{"bike_id":"01861ad8-a8d7-4be6-816e-651927c87584","system_id":"levelo_inurba_marseille","lat":43.33751,"lon":5.37456,"is_reserved":false,"is_disabled":true,"rental_uris":{"android":"levelo://app?vid=01861ad8-a8d7-4be6-816e-651927c87584","ios":"levelo://app?vid=01861ad8-a8d7-4be6-816e-651927c87584"},"vehicle_type_id":"4","last_reported":1751137682,"current_range_meters":0,"station_id":"","pricing_plan_id":"cebpf4jnsgd1na2vs0mg"},{"bike_id":"612b34ed-ddf1-4f6a-96bb-08fc82d7d35a","system_id":"levelo_inurba_marseille","lat":43.27155,"lon":5.40893,"is_reserved":false,"is_disabled":true,"rental_uris":{"android":"levelo://app?vid=612b34ed-ddf1-4f6a-96bb-08fc82d7d35a","ios":"levelo://app?vid=612b34ed-ddf1-4f6a-96bb-08fc82d7d35a"},"vehicle_type_id":"4","last_reported":1751137682,"current_range_meters":0,"station_id":"","pricing_plan_id":"cebpf4jnsgd1na2vs0mg"},{"bike_id":"7aac647a-260b-423f-ae41-874b82472ad9","system_id":"levelo_inurba_marseille","lat":43.23203,"lon":5.35169,"is_reserved":false,"is_disabled":true,"rental_uris":{"android":"levelo://app?vid=7aac647a-260b-423f-ae41-874b82472ad9","ios":"levelo://app?vid=7aac647a-260b-423f-ae41-874b82472ad9"},"vehicle_type_id":"4","last_reported":1751137682,"current_range_meters":0,"station_id":"","pricing_plan_id":"cebpf4jnsgd1na2vs0mg"},{"bike_id":"499114bb-646f-4618-a3ce-ee7c9ab2a1c4","system_id":"levelo_inurba_marseille","lat":43.33031,"lon":5.39102,"is_reserved":false,"is_disabled":true,"rental_uris":{"android":"levelo://app?vid=499114bb-646f-4618-a3ce-ee7c9ab2a1c4","ios":"levelo://app?vid=499114bb-646f-4618-a3ce-ee7c9ab2a1c4"},"vehicle_type_id":"4","last_reported":1751137682,"current_range_meters":0,"station_id":"","pricing_plan_id":"cebpf4jnsgd1na2vs0mg"},{"bike_id":"e9a7f2ce-f5b2-41e5-b572-5533013492a4","system_id":"levelo_inurba_marseille","lat":43.337444,"lon":5.374475,"is_reserved":false,"is_disabled":true,"rental_uris":{"android":"levelo://app?vid=e9a7f2ce-f5b2-41e5-b572-5533013492a4","ios":"levelo://app?vid=e9a7f2ce-f5b2-41e5-b572-5533013492a4"},"vehicle_type_id":"4","last_reported":1751137682,"current_range_meters":0,"station_id":"","pricing_plan_id":"cebpf4jnsgd1na2vs0mg"},{"bike_id":"666ef40e-8142-4330-a1bf-355f72ca0910","system_id":"levelo_inurba_marseille","lat":43.26341,"lon":5.40102,"is_reserved":false,"is_disabled":true,"rental_uris":{"android":"levelo://app?vid=666ef40e-8142-4330-a1bf-355f72ca0910","ios":"levelo://app?vid=666ef40e-8142-4330-a1bf-355f72ca0910"},"vehicle_type_id":"4","last_reported":1751137682,"current_range_meters":0,"station_id":"","pricing_plan_id":"cebpf4jnsgd1na2vs0mg"},{"bike_id":"e23bce5b-eb4d-4710-841c-64bdc0d493ad","system_id":"levelo_inurba_marseille","lat":43.30955,"lon":5.39059,"is_reserved":false,"is_disabled":true,"rental_uris":{"android":"levelo://app?vid=e23bce5b-eb4d-4710-841c-64bdc0d493ad","ios":"levelo://app?vid=e23bce5b-eb4d-4710-841c-64bdc0d493ad"},"vehicle_type_id":"4","last_reported":1751137682,"current_range_meters":0,"station_id":"ce4bgup2rcd13ifvqco0","pricing_plan_id":"cebpf4jnsgd1na2vs0mg"},{"bike_id":"ed709f9c-74a0-4cac-8fa9-d89660e28d91","system_id":"levelo_inurba_marseille","lat":43.30948,"lon":5.39051,"is_reserved":false,"is_disabled":true,"rental_uris":{"android":"levelo://app?vid=ed709f9c-74a0-4cac-8fa9-d89660e28d91","ios":"levelo://app?vid=ed709f9c-74a0-4cac-8fa9-d89660e28d91"},"vehicle_type_id":"4","last_reported":1751137682,"current_range_meters":0,"station_id":"ce4bgup2rcd13ifvqco0","pricing_plan_id":"cebpf4jnsgd1na2vs0mg"},{"bike_id":"3bd3a3ac-1547-42a4-af23-542671ef090e","system_id":"levelo_inurba_marseille","lat":43.28464,"lon":5.35885,"is_reserved":false,"is_disabled":true,"rental_uris":{"android":"levelo://app?vid=3bd3a3ac-1547-42a4-af23-542671ef090e","ios":"levelo://app?vid=3bd3a3ac-1547-42a4-af23-542671ef090e"},"vehicle_type_id":"4","last_reported":1751137682,"current_range_meters":0,"station_id":"ce4bhah2rcd13ifvqei0","pricing_plan_id":"cebpf4jnsgd1na2vs0mg"},{"bike_id":"99bbb388-fa88-4088-8463-1c34bc3b9aab","system_id":"levelo_inurba_marseille","lat":43.27369,"lon":5.36259,"is_reserved":false,"is_disabled":true,"rental_uris":{"android":"levelo://app?vid=99bbb388-fa88-4088-8463-1c34bc3b9aab","ios":"levelo://app?vid=99bbb388-fa88-4088-8463-1c34bc3b9aab"},"vehicle_type_id":"4","last_reported":1751137682,"current_range_meters":0,"station_id":"ce4bhbh2rcd13ifvqeo0","pricing_plan_id":"cebpf4jnsgd1na2vs0mg"},{"bike_id":"994d7637-bf43-48e0-97b8-ae4bb612c7e1","system_id":"levelo_inurba_marseille","lat":43.292206,"lon":5.360574,"is_reserved":false,"is_disabled":true,"rental_uris":{"android":"levelo://app?vid=994d7637-bf43-48e0-97b8-ae4bb612c7e1","ios":"levelo://app?vid=994d7637-bf43-48e0-97b8-ae4bb612c7e1"},"vehicle_type_id":"4","last_reported":1751137682,"current_range_meters":0,"station_id":"ce4bhbh2rcd13ifvqeqg","pricing_plan_id":"cebpf4jnsgd1na2vs0mg"},{"bike_id":"f476e5fa-4edd-4079-a1be-1badf76ed514","system_id":"levelo_inurba_marseille","lat":43.292266,"lon":5.360481,"is_reserved":false,"is_disabled":true,"rental_uris":{"android":"levelo://app?vid=f476e5fa-4edd-4079-a1be-1badf76ed514","ios":"levelo://app?vid=f476e5fa-4edd-4079-a1be-1badf76ed514"},"vehicle_type_id":"4","last_reported":1751137682,"current_range_meters":0,"station_id":"ce4bhbh2rcd13ifvqeqg","pricing_plan_id":"cebpf4jnsgd1na2vs0mg"},{"bike_id":"ef04b3cc-3a87-4e76-8c9e-093aff8f6c18","system_id":"levelo_inurba_marseille","lat":43.28264,"lon":5.35067,"is_reserved":false,"is_disabled":true,"rental_uris":{"android":"levelo://app?vid=ef04b3cc-3a87-4e76-8c9e-093aff8f6c18","ios":"levelo://app?vid=ef04b3cc-3a87-4e76-8c9e-093aff8f6c18"},"vehicle_type_id":"4","last_reported":1751137682,"current_range_meters":0,"station_id":"ce4bhbp2rcd13ifvqerg","pricing_plan_id":"cebpf4jnsgd1na2vs0mg"},{"bike_id":"be90c28b-44af-4c84-b640-24d055b3ff43","system_id":"levelo_inurba_marseille","lat":43.28257,"lon":5.3505,"is_reserved":false,"is_disabled":true,"rental_uris":{"android":"levelo://app?vid=be90c28b-44af-4c84-b640-24d055b3ff43","ios":"levelo://app?vid=be90c28b-44af-4c84-b640-24d055b3ff43"},"vehicle_type_id":"4","last_reported":1751137682,"current_range_meters":0,"station_id":"ce4bhbp2rcd13ifvqerg","pricing_plan_id":"cebpf4jnsgd1na2vs0mg"},{"bike_id":"d5ac8071-f7c9-46a9-96bb-40261b6c960e","system_id":"levelo_inurba_marseille","lat":43.246319,"lon":5.388851,"is_reserved":false,"is_disabled":true,"rental_uris":{"android":"levelo://app?vid=d5ac8071-f7c9-46a9-96bb-40261b6c960e","ios":"levelo://app?vid=d5ac8071-f7c9-46a9-96bb-40261b6c960e"},"vehicle_type_id":"4","last_reported":1751137682,"current_range_meters":0,"station_id":"ce4bhg12rcd13ifvqf60","pricing_plan_id":"cebpf4jnsgd1na2vs0mg"},{"bike_id":"d0d7cc43-521b-4cec-b4c1-a87ba601603e","system_id":"levelo_inurba_marseille","lat":43.26219,"lon":5.37443,"is_reserved":false,"is_disabled":true,"rental_uris":{"android":"levelo://app?vid=d0d7cc43-521b-4cec-b4c1-a87ba601603e","ios":"levelo://app?vid=d0d7cc43-521b-4cec-b4c1-a87ba601603e"},"vehicle_type_id":"4","last_reported":1751137682,"current_range_meters":0,"station_id":"ce4bhgp2rcd13ifvqfc0","pricing_plan_id":"cebpf4jnsgd1na2vs0mg"},{"bike_id":"a3da550e-e205-410d-ad55-02a96c74e158","system_id":"levelo_inurba_marseille","lat":43.26212,"lon":5.37446,"is_reserved":false,"is_disabled":true,"rental_uris":{"android":"levelo://app?vid=a3da550e-e205-410d-ad55-02a96c74e158","ios":"levelo://app?vid=a3da550e-e205-410d-ad55-02a96c74e158"},"vehicle_type_id":"4","last_reported":1751137682,"current_range_meters":0,"station_id":"ce4bhgp2rcd13ifvqfc0","pricing_plan_id":"cebpf4jnsgd1na2vs0mg"},{"bike_id":"5b56e8d8-262b-45a7-9480-48747e26f8d7","system_id":"levelo_inurba_marseille","lat":43.2558,"lon":5.38237,"is_reserved":false,"is_disabled":true,"rental_uris":{"android":"levelo://app?vid=5b56e8d8-262b-45a7-9480-48747e26f8d7","ios":"levelo://app?vid=5b56e8d8-262b-45a7-9480-48747e26f8d7"},"vehicle_type_id":"4","last_reported":1751137682,"current_range_meters":0,"station_id":"ce4bhih2rcd13ifvqfs0","pricing_plan_id":"cebpf4jnsgd1na2vs0mg"},{"bike_id":"92d3bb11-4cf3-47e6-bc0f-ff80eea58ad1","system_id":"levelo_inurba_marseille","lat":43.303747,"lon":5.424926,"is_reserved":false,"is_disabled":true,"rental_uris":{"android":"levelo://app?vid=92d3bb11-4cf3-47e6-bc0f-ff80eea58ad1","ios":"levelo://app?vid=92d3bb11-4cf3-47e6-bc0f-ff80eea58ad1"},"vehicle_type_id":"4","last_reported":1751137682,"current_range_meters":0,"station_id":"ce4bhoh2rcd13ifvqh6g","pricing_plan_id":"cebpf4jnsgd1na2vs0mg"},{"bike_id":"c8ce0351-fe68-40b1-beb5-45d8ee0eed11","system_id":"levelo_inurba_marseille","lat":43.30386,"lon":5.42471,"is_reserved":false,"is_disabled":true,"rental_uris":{"android":"levelo://app?vid=c8ce0351-fe68-40b1-beb5-45d8ee0eed11","ios":"levelo://app?vid=c8ce0351-fe68-40b1-beb5-45d8ee0eed11"},"vehicle_type_id":"4","last_reported":1751137682,"current_range_meters":0,"station_id":"ce4bhoh2rcd13ifvqh6g","pricing_plan_id":"cebpf4jnsgd1na2vs0mg"},{"bike_id":"8c766cdf-2fb4-42df-9e7c-e3a2edf8459a","system_id":"levelo_inurba_marseille","lat":43.32038,"lon":5.4157,"is_reserved":false,"is_disabled":true,"rental_uris":{"android":"levelo://app?vid=8c766cdf-2fb4-42df-9e7c-e3a2edf8459a","ios":"levelo://app?vid=8c766cdf-2fb4-42df-9e7c-e3a2edf8459a"},"vehicle_type_id":"4","last_reported":1751137682,"current_range_meters":0,"station_id":"ce4bhq92rcd13ifvqhkg","pricing_plan_id":"cebpf4jnsgd1na2vs0mg"},{"bike_id":"bd953bef-c550-4a60-909e-9c1b03221fc8","system_id":"levelo_inurba_marseille","lat":43.23192,"lon":5.35559,"is_reserved":false,"is_disabled":true,"rental_uris":{"android":"levelo://app?vid=bd953bef-c550-4a60-909e-9c1b03221fc8","ios":"levelo://app?vid=bd953bef-c550-4a60-909e-9c1b03221fc8"},"vehicle_type_id":"4","last_reported":1751137682,"current_range_meters":0,"station_id":"ce4bhu92rcd13ifvqi70","pricing_plan_id":"cebpf4jnsgd1na2vs0mg"},{"bike_id":"38d01765-5414-4f3d-b96c-a482eae367ca","system_id":"levelo_inurba_marseille","lat":43.21748,"lon":5.3462,"is_reserved":false,"is_disabled":true,"rental_uris":{"android":"levelo://app?vid=38d01765-5414-4f3d-b96c-a482eae367ca","ios":"levelo://app?vid=38d01765-5414-4f3d-b96c-a482eae367ca"},"vehicle_type_id":"4","last_reported":1751137682,"current_range_meters":0,"station_id":"st_cvj6r9ubvosntc0bgbag","pricing_plan_id":"cebpf4jnsgd1na2vs0mg"},{"bike_id":"070a5204-3e73-4cf5-9fda-520c8795969f","system_id":"levelo_inurba_marseille","lat":43.21757,"lon":5.34611,"is_reserved":false,"is_disabled":true,"rental_uris":{"android":"levelo://app?vid=070a5204-3e73-4cf5-9fda-520c8795969f","ios":"levelo://app?vid=070a5204-3e73-4cf5-9fda-520c8795969f"},"vehicle_type_id":"4","last_reported":1751137682,"current_range_meters":0,"station_id":"st_cvj6r9ubvosntc0bgbag","pricing_plan_id":"cebpf4jnsgd1na2vs0mg"},{"bike_id":"0dd74537-1eda-4a45-9817-024db8ba2a24","system_id":"levelo_inurba_marseille","lat":43.27995,"lon":5.41653,"is_reserved":false,"is_disabled":true,"rental_uris":{"android":"levelo://app?vid=0dd74537-1eda-4a45-9817-024db8ba2a24","ios":"levelo://app?vid=0dd74537-1eda-4a45-9817-024db8ba2a24"},"vehicle_type_id":"4","last_reported":1751137682,"current_range_meters":400,"station_id":"ce4bho12rcd13ifvqh1g","pricing_plan_id":"cebpf4jnsgd1na2vs0mg"},{"bike_id":"2f0c1670-2939-4758-9c39-42f421bc0904","system_id":"levelo_inurba_marseille","lat":43.23193,"lon":5.35557,"is_reserved":false,"is_disabled":true,"rental_uris":{"android":"levelo://app?vid=2f0c1670-2939-4758-9c39-42f421bc0904","ios":"levelo://app?vid=2f0c1670-2939-4758-9c39-42f421bc0904"},"vehicle_type_id":"4","last_reported":1751137682,"current_range_meters":400,"station_id":"ce4bhu92rcd13ifvqi70","pricing_plan_id":"cebpf4jnsgd1na2vs0mg"},{"bike_id":"53f760d9-2926-4c0b-9078-ae8706c81b5c","system_id":"levelo_inurba_marseille","lat":43.21745,"lon":5.346,"is_reserved":false,"is_disabled":true,"rental_uris":{"android":"levelo://app?vid=53f760d9-2926-4c0b-9078-ae8706c81b5c","ios":"levelo://app?vid=53f760d9-2926-4c0b-9078-ae8706c81b5c"},"vehicle_type_id":"4","last_reported":1751137682,"current_range_meters":400,"station_id":"st_cvj6r9ubvosntc0bgbag","pricing_plan_id":"cebpf4jnsgd1na2vs0mg"},{"bike_id":"8c5ff167-f773-45b4-b1de-2b610ec2e4e2","system_id":"levelo_inurba_marseille","lat":43.30927,"lon":5.40154,"is_reserved":false,"is_disabled":true,"rental_uris":{"android":"levelo://app?vid=8c5ff167-f773-45b4-b1de-2b610ec2e4e2","ios":"levelo://app?vid=8c5ff167-f773-45b4-b1de-2b610ec2e4e2"},"vehicle_type_id":"4","last_reported":1751137682,"current_range_meters":800,"station_id":"ce4bgvp2rcd13ifvqct0","pricing_plan_id":"cebpf4jnsgd1na2vs0mg"},{"bike_id":"3ed97791-4fd1-4beb-9e6b-4998740d59d9","system_id":"levelo_inurba_marseille","lat":43.271719,"lon":5.410008,"is_reserved":false,"is_disabled":true,"rental_uris":{"android":"levelo://app?vid=3ed97791-4fd1-4beb-9e6b-4998740d59d9","ios":"levelo://app?vid=3ed97791-4fd1-4beb-9e6b-4998740d59d9"},"vehicle_type_id":"4","last_reported":1751137682,"current_range_meters":1200,"station_id":"","pricing_plan_id":"cebpf4jnsgd1na2vs0mg"},{"bike_id":"118afc4f-8f03-4f79-b1a2-ac019c49942f","system_id":"levelo_inurba_marseille","lat":43.30934,"lon":5.39023,"is_reserved":false,"is_disabled":true,"rental_uris":{"android":"levelo://app?vid=118afc4f-8f03-4f79-b1a2-ac019c49942f","ios":"levelo://app?vid=118afc4f-8f03-4f79-b1a2-ac019c49942f"},"vehicle_type_id":"4","last_reported":1751137682,"current_range_meters":1200,"station_id":"ce4bgup2rcd13ifvqco0","pricing_plan_id":"cebpf4jnsgd1na2vs0mg"},{"bike_id":"f3d71f9d-5de8-4669-8009-e44fdfb5624a","system_id":"levelo_inurba_marseille","lat":43.313262,"lon":5.39691,"is_reserved":false,"is_disabled":true,"rental_uris":{"android":"levelo://app?vid=f3d71f9d-5de8-4669-8009-e44fdfb5624a","ios":"levelo://app?vid=f3d71f9d-5de8-4669-8009-e44fdfb5624a"},"vehicle_type_id":"4","last_reported":1751137682,"current_range_meters":1200,"station_id":"ce4bgvp2rcd13ifvqcu0","pricing_plan_id":"cebpf4jnsgd1na2vs0mg"},{"bike_id":"25011d23-086a-4503-b78b-934875310dd9","system_id":"levelo_inurba_marseille","lat":43.27373,"lon":5.36254,"is_reserved":false,"is_disabled":true,"rental_uris":{"android":"levelo://app?vid=25011d23-086a-4503-b78b-934875310dd9","ios":"levelo://app?vid=25011d23-086a-4503-b78b-934875310dd9"},"vehicle_type_id":"4","last_reported":1751137682,"current_range_meters":1200,"station_id":"ce4bhbh2rcd13ifvqeo0","pricing_plan_id":"cebpf4jnsgd1na2vs0mg"},{"bike_id":"8ad24147-d115-497e-92ce-7001eacb97d7","system_id":"levelo_inurba_marseille","lat":43.2872,"lon":5.37932,"is_reserved":false,"is_disabled":true,"rental_uris":{"android":"levelo://app?vid=8ad24147-d115-497e-92ce-7001eacb97d7","ios":"levelo://app?vid=8ad24147-d115-497e-92ce-7001eacb97d7"},"vehicle_type_id":"4","last_reported":1751137682,"current_range_meters":1600,"station_id":"ce4bh9p2rcd13ifvqec0","pricing_plan_id":"cebpf4jnsgd1na2vs0mg"},{"bike_id":"2add8708-acf5-4b4c-b6d7-d9fe59d56f80","system_id":"levelo_inurba_marseille","lat":43.26564,"lon":5.39012,"is_reserved":false,"is_disabled":true,"rental_uris":{"android":"levelo://app?vid=2add8708-acf5-4b4c-b6d7-d9fe59d56f80","ios":"levelo://app?vid=2add8708-acf5-4b4c-b6d7-d9fe59d56f80"},"vehicle_type_id":"4","last_reported":1751137682,"current_range_meters":1600,"station_id":"ce4bhe12rcd13ifvqf30","pricing_plan_id":"cebpf4jnsgd1na2vs0mg"},{"bike_id":"6163d2f3-266f-4b59-bee6-78fb029bf644","system_id":"levelo_inurba_marseille","lat":43.22939,"lon":5.35355,"is_reserved":false,"is_disabled":true,"rental_uris":{"android":"levelo://app?vid=6163d2f3-266f-4b59-bee6-78fb029bf644","ios":"levelo://app?vid=6163d2f3-266f-4b59-bee6-78fb029bf644"},"vehicle_type_id":"4","last_reported":1751137682,"current_range_meters":1600,"station_id":"cpo3532slgdg3j2ikp40","pricing_plan_id":"cebpf4jnsgd1na2vs0mg"},{"bike_id":"8a4b93ef-0d89-4979-8ffa-2e57676063b0","system_id":"levelo_inurba_marseille","lat":43.29572,"lon":5.39983,"is_reserved":false,"is_disabled":true,"rental_uris":{"android":"levelo://app?vid=8a4b93ef-0d89-4979-8ffa-2e57676063b0","ios":"levelo://app?vid=8a4b93ef-0d89-4979-8ffa-2e57676063b0"},"vehicle_type_id":"4","last_reported":1751137682,"current_range_meters":2000,"station_id":"ce4bh312rcd13ifvqdj0","pricing_plan_id":"cebpf4jnsgd1na2vs0mg"},{"bike_id":"dbea4cc5-0470-4125-bcb0-305fc098bb91","system_id":"levelo_inurba_marseille","lat":43.23192,"lon":5.35553,"is_reserved":false,"is_disabled":true,"rental_uris":{"android":"levelo://app?vid=dbea4cc5-0470-4125-bcb0-305fc098bb91","ios":"levelo://app?vid=dbea4cc5-0470-4125-bcb0-305fc098bb91"},"vehicle_type_id":"4","last_reported":1751137682,"current_range_meters":2000,"station_id":"ce4bhu92rcd13ifvqi70","pricing_plan_id":"cebpf4jnsgd1na2vs0mg"},{"bike_id":"8adf2c6a-36fa-4bb6-9b20-c6a196f74657","system_id":"levelo_inurba_marseille","lat":43.29006,"lon":5.35611,"is_reserved":false,"is_disabled":false,"rental_uris":{"android":"levelo://app?vid=8adf2c6a-36fa-4bb6-9b20-c6a196f74657","ios":"levelo://app?vid=8adf2c6a-36fa-4bb6-9b20-c6a196f74657"},"vehicle_type_id":"4","last_reported":1751137682,"current_range_meters":2800,"station_id":"ce4bhb92rcd13ifvqen0","pricing_plan_id":"cebpf4jnsgd1na2vs0mg"},{"bike_id":"4d9a8a5e-b0bb-426e-a73d-c10e4b1ba1a2","system_id":"levelo_inurba_marseille","lat":43.28264,"lon":5.35061,"is_reserved":false,"is_disabled":false,"rental_uris":{"android":"levelo://app?vid=4d9a8a5e-b0bb-426e-a73d-c10e4b1ba1a2","ios":"levelo://app?vid=4d9a8a5e-b0bb-426e-a73d-c10e4b1ba1a2"},"vehicle_type_id":"4","last_reported":1751137682,"current_range_meters":2800,"station_id":"ce4bhbp2rcd13ifvqerg","pricing_plan_id":"cebpf4jnsgd1na2vs0mg"},{"bike_id":"b82a87e7-9d9c-4111-b87e-22654164efb0","system_id":"levelo_inurba_marseille","lat":43.24802,"lon":5.37455,"is_reserved":false,"is_disabled":false,"rental_uris":{"android":"levelo://app?vid=b82a87e7-9d9c-4111-b87e-22654164efb0","ios":"levelo://app?vid=b82a87e7-9d9c-4111-b87e-22654164efb0"},"vehicle_type_id":"4","last_reported":1751137682,"current_range_meters":2800,"station_id":"ce4bhgh2rcd13ifvqfb0","pricing_plan_id":"cebpf4jnsgd1na2vs0mg"},{"bike_id":"7ff6cb5c-3a90-41b7-a1f2-0af950ee0733","system_id":"levelo_inurba_marseille","lat":43.32388,"lon":5.36737,"is_reserved":false,"is_disabled":false,"rental_uris":{"android":"levelo://app?vid=7ff6cb5c-3a90-41b7-a1f2-0af950ee0733","ios":"levelo://app?vid=7ff6cb5c-3a90-41b7-a1f2-0af950ee0733"},"vehicle_type_id":"4","last_reported":1751137682,"current_range_meters":2800,"station_id":"ce4bhsh2rcd13ifvqi2g","pricing_plan_id":"cebpf4jnsgd1na2vs0mg"},{"bike_id":"9f5d52fe-d51c-4b07-9ead-b65f1b32aec4","system_id":"levelo_inurba_marseille","lat":43.2937,"lon":5.37847,"is_reserved":false,"is_disabled":false,"rental_uris":{"android":"levelo://app?vid=9f5d52fe-d51c-4b07-9ead-b65f1b32aec4","ios":"levelo://app?vid=9f5d52fe-d51c-4b07-9ead-b65f1b32aec4"},"vehicle_type_id":"4","last_reported":1751137682,"current_range_meters":3200,"station_id":"ce4bgjh2rcd13ifvqbf0","pricing_plan_id":"cebpf4jnsgd1na2vs0mg"},{"bike_id":"98f93d6e-608b-4fba-bf43-c6e0361cf076","system_id":"levelo_inurba_marseille","lat":43.31486,"lon":5.37309,"is_reserved":false,"is_disabled":false,"rental_uris":{"android":"levelo://app?vid=98f93d6e-608b-4fba-bf43-c6e0361cf076","ios":"levelo://app?vid=98f93d6e-608b-4fba-bf43-c6e0361cf076"},"vehicle_type_id":"4","last_reported":1751137682,"current_range_meters":3200,"station_id":"ce4bgt12rcd13ifvqcd0","pricing_plan_id":"cebpf4jnsgd1na2vs0mg"},{"bike_id":"1d84cec2-de1e-4ccf-bf97-ba343df08549","system_id":"levelo_inurba_marseille","lat":43.26216,"lon":5.37444,"is_reserved":false,"is_disabled":false,"rental_uris":{"android":"levelo://app?vid=1d84cec2-de1e-4ccf-bf97-ba343df08549","ios":"levelo://app?vid=1d84cec2-de1e-4ccf-bf97-ba343df08549"},"vehicle_type_id":"4","last_reported":1751137682,"current_range_meters":3200,"station_id":"ce4bhgp2rcd13ifvqfc0","pricing_plan_id":"cebpf4jnsgd1na2vs0mg"},{"bike_id":"8e020c43-4761-4de1-8489-72513568c373","system_id":"levelo_inurba_marseille","lat":43.29199,"lon":5.39316,"is_reserved":false,"is_disabled":false,"rental_uris":{"android":"levelo://app?vid=8e020c43-4761-4de1-8489-72513568c373","ios":"levelo://app?vid=8e020c43-4761-4de1-8489-72513568c373"},"vehicle_type_id":"4","last_reported":1751137682,"current_range_meters":3600,"station_id":"ce4bh192rcd13ifvqdd0","pricing_plan_id":"cebpf4jnsgd1na2vs0mg"},{"bike_id":"0a034962-a078-4cd8-ab5c-29a2f15ac163","system_id":"levelo_inurba_marseille","lat":43.299013,"lon":5.436742,"is_reserved":false,"is_disabled":false,"rental_uris":{"android":"levelo://app?vid=0a034962-a078-4cd8-ab5c-29a2f15ac163","ios":"levelo://app?vid=0a034962-a078-4cd8-ab5c-29a2f15ac163"},"vehicle_type_id":"4","last_reported":1751137682,"current_range_meters":3600,"station_id":"ce4bhpp2rcd13ifvqhfg","pricing_plan_id":"cebpf4jnsgd1na2vs0mg"},{"bike_id":"1b73fbc0-310f-40af-aa3a-a318cd72cf41","system_id":"levelo_inurba_marseille","lat":43.29524,"lon":5.39042,"is_reserved":false,"is_disabled":false,"rental_uris":{"android":"levelo://app?vid=1b73fbc0-310f-40af-aa3a-a318cd72cf41","ios":"levelo://app?vid=1b73fbc0-310f-40af-aa3a-a318cd72cf41"},"vehicle_type_id":"4","last_reported":1751137682,"current_range_meters":4000,"station_id":"ce4bh3p2rcd13ifvqdp0","pricing_plan_id":"cebpf4jnsgd1na2vs0mg"},{"bike_id":"ba16790a-752d-44ea-8a59-8deda897e758","system_id":"levelo_inurba_marseille","lat":43.285814,"lon":5.350764,"is_reserved":false,"is_disabled":false,"rental_uris":{"android":"levelo://app?vid=ba16790a-752d-44ea-8a59-8deda897e758","ios":"levelo://app?vid=ba16790a-752d-44ea-8a59-8deda897e758"},"vehicle_type_id":"4","last_reported":1751137682,"current_range_meters":4000,"station_id":"ce4bhbp2rcd13ifvqerg","pricing_plan_id":"cebpf4jnsgd1na2vs0mg"},{"bike_id":"ab7570a6-844b-4d75-a886-ed4d4e7b249c","system_id":"levelo_inurba_marseille","lat":43.32283,"lon":5.38271,"is_reserved":false,"is_disabled":false,"rental_uris":{"android":"levelo://app?vid=ab7570a6-844b-4d75-a886-ed4d4e7b249c","ios":"levelo://app?vid=ab7570a6-844b-4d75-a886-ed4d4e7b249c"},"vehicle_type_id":"4","last_reported":1751137682,"current_range_meters":4000,"station_id":"ce4bhr12rcd13ifvqhqg","pricing_plan_id":"cebpf4jnsgd1na2vs0mg"},{"bike_id":"ead1b171-c933-48a3-a485-29a5c80a1079","system_id":"levelo_inurba_marseille","lat":43.291626,"lon":5.371611,"is_reserved":false,"is_disabled":false,"rental_uris":{"android":"levelo://app?vid=ead1b171-c933-48a3-a485-29a5c80a1079","ios":"levelo://app?vid=ead1b171-c933-48a3-a485-29a5c80a1079"},"vehicle_type_id":"4","last_reported":1751137682,"current_range_meters":4400,"station_id":"ce4bha92rcd13ifvqeh0","pricing_plan_id":"cebpf4jnsgd1na2vs0mg"},{"bike_id":"641979e2-4867-4376-b837-83a374aae394","system_id":"levelo_inurba_marseille","lat":43.24648,"lon":5.38882,"is_reserved":false,"is_disabled":false,"rental_uris":{"android":"levelo://app?vid=641979e2-4867-4376-b837-83a374aae394","ios":"levelo://app?vid=641979e2-4867-4376-b837-83a374aae394"},"vehicle_type_id":"4","last_reported":1751137682,"current_range_meters":4400,"station_id":"ce4bhg12rcd13ifvqf60","pricing_plan_id":"cebpf4jnsgd1na2vs0mg"},{"bike_id":"dae73d68-69c4-453f-88b6-743c181b58ec","system_id":"levelo_inurba_marseille","lat":43.23962,"lon":5.3663,"is_reserved":false,"is_disabled":true,"rental_uris":{"android":"levelo://app?vid=dae73d68-69c4-453f-88b6-743c181b58ec","ios":"levelo://app?vid=dae73d68-69c4-453f-88b6-743c181b58ec"},"vehicle_type_id":"4","last_reported":1751137682,"current_range_meters":4400,"station_id":"ce4bhi12rcd13ifvqfp0","pricing_plan_id":"cebpf4jnsgd1na2vs0mg"},{"bike_id":"48c60c85-4f46-4198-abe4-9a08874d2674","system_id":"levelo_inurba_marseille","lat":43.32383,"lon":5.36745,"is_reserved":false,"is_disabled":false,"rental_uris":{"android":"levelo://app?vid=48c60c85-4f46-4198-abe4-9a08874d2674","ios":"levelo://app?vid=48c60c85-4f46-4198-abe4-9a08874d2674"},"vehicle_type_id":"4","last_reported":1751137682,"current_range_meters":4400,"station_id":"ce4bhsh2rcd13ifvqi2g","pricing_plan_id":"cebpf4jnsgd1na2vs0mg"},{"bike_id":"73a03650-973e-42b0-bad4-545481e15f73","system_id":"levelo_inurba_marseille","lat":43.31235,"lon":5.39061,"is_reserved":false,"is_disabled":false,"rental_uris":{"android":"levelo://app?vid=73a03650-973e-42b0-bad4-545481e15f73","ios":"levelo://app?vid=73a03650-973e-42b0-bad4-545481e15f73"},"vehicle_type_id":"4","last_reported":1751137682,"current_range_meters":4800,"station_id":"","pricing_plan_id":"cebpf4jnsgd1na2vs0mg"},{"bike_id":"89da4245-cca7-4b98-bfc0-199cce3026ab","system_id":"levelo_inurba_marseille","lat":43.217425,"lon":5.346034,"is_reserved":false,"is_disabled":false,"rental_uris":{"android":"levelo://app?vid=89da4245-cca7-4b98-bfc0-199cce3026ab","ios":"levelo://app?vid=89da4245-cca7-4b98-bfc0-199cce3026ab"},"vehicle_type_id":"4","last_reported":1751137682,"current_range_meters":4800,"station_id":"","pricing_plan_id":"cebpf4jnsgd1na2vs0mg"},{"bike_id":"a1f58f96-8c37-4cb4-ae9b-4cc6c7bd43f1","system_id":"levelo_inurba_marseille","lat":43.29516,"lon":5.39037,"is_reserved":false,"is_disabled":false,"rental_uris":{"android":"levelo://app?vid=a1f58f96-8c37-4cb4-ae9b-4cc6c7bd43f1","ios":"levelo://app?vid=a1f58f96-8c37-4cb4-ae9b-4cc6c7bd43f1"},"vehicle_type_id":"4","last_reported":1751137682,"current_range_meters":5600,"station_id":"ce4bh3p2rcd13ifvqdp0","pricing_plan_id":"cebpf4jnsgd1na2vs0mg"},{"bike_id":"0481e6b1-0433-4bd0-8245-7222ad5e2e0a","system_id":"levelo_inurba_marseille","lat":43.28271,"lon":5.35061,"is_reserved":false,"is_disabled":false,"rental_uris":{"android":"levelo://app?vid=0481e6b1-0433-4bd0-8245-7222ad5e2e0a","ios":"levelo://app?vid=0481e6b1-0433-4bd0-8245-7222ad5e2e0a"},"vehicle_type_id":"4","last_reported":1751137682,"current_range_meters":5600,"station_id":"ce4bhbp2rcd13ifvqerg","pricing_plan_id":"cebpf4jnsgd1na2vs0mg"},{"bike_id":"44607553-0560-4c94-89f4-01d362ad0104","system_id":"levelo_inurba_marseille","lat":43.32366,"lon":5.38884,"is_reserved":false,"is_disabled":false,"rental_uris":{"android":"levelo://app?vid=44607553-0560-4c94-89f4-01d362ad0104","ios":"levelo://app?vid=44607553-0560-4c94-89f4-01d362ad0104"},"vehicle_type_id":"4","last_reported":1751137682,"current_range_meters":5600,"station_id":"ce4bhqp2rcd13ifvqhog","pricing_plan_id":"cebpf4jnsgd1na2vs0mg"},{"bike_id":"7b8252d9-2755-48da-b23b-b6936f03ec26","system_id":"levelo_inurba_marseille","lat":43.2175,"lon":5.34597,"is_reserved":false,"is_disabled":false,"rental_uris":{"android":"levelo://app?vid=7b8252d9-2755-48da-b23b-b6936f03ec26","ios":"levelo://app?vid=7b8252d9-2755-48da-b23b-b6936f03ec26"},"vehicle_type_id":"4","last_reported":1751137682,"current_range_meters":5600,"station_id":"st_cvj6r9ubvosntc0bgbag","pricing_plan_id":"cebpf4jnsgd1na2vs0mg"},{"bike_id":"9e177162-622c-42f3-a056-6451d934f0d0","system_id":"levelo_inurba_marseille","lat":43.29605,"lon":5.38102,"is_reserved":false,"is_disabled":false,"rental_uris":{"android":"levelo://app?vid=9e177162-622c-42f3-a056-6451d934f0d0","ios":"levelo://app?vid=9e177162-622c-42f3-a056-6451d934f0d0"},"vehicle_type_id":"4","last_reported":1751137682,"current_range_meters":6000,"station_id":"ce4bgl12rcd13ifvqbo0","pricing_plan_id":"cebpf4jnsgd1na2vs0mg"},{"bike_id":"4993c3e8-deed-443b-9e1e-5875004d6fc9","system_id":"levelo_inurba_marseille","lat":43.27372,"lon":5.36253,"is_reserved":false,"is_disabled":false,"rental_uris":{"android":"levelo://app?vid=4993c3e8-deed-443b-9e1e-5875004d6fc9","ios":"levelo://app?vid=4993c3e8-deed-443b-9e1e-5875004d6fc9"},"vehicle_type_id":"4","last_reported":1751137682,"current_range_meters":6000,"station_id":"ce4bhbh2rcd13ifvqeo0","pricing_plan_id":"cebpf4jnsgd1na2vs0mg"},{"bike_id":"2d8bc822-e9d6-4047-8f65-e2d48936b9bb","system_id":"levelo_inurba_marseille","lat":43.27434,"lon":5.39412,"is_reserved":false,"is_disabled":false,"rental_uris":{"android":"levelo://app?vid=2d8bc822-e9d6-4047-8f65-e2d48936b9bb","ios":"levelo://app?vid=2d8bc822-e9d6-4047-8f65-e2d48936b9bb"},"vehicle_type_id":"4","last_reported":1751137682,"current_range_meters":6000,"station_id":"ce4bhdp2rcd13ifvqf20","pricing_plan_id":"cebpf4jnsgd1na2vs0mg"},{"bike_id":"a440f2f6-8cf8-4348-9ba1-e21002a18a07","system_id":"levelo_inurba_marseille","lat":43.32117,"lon":5.36783,"is_reserved":false,"is_disabled":false,"rental_uris":{"android":"levelo://app?vid=a440f2f6-8cf8-4348-9ba1-e21002a18a07","ios":"levelo://app?vid=a440f2f6-8cf8-4348-9ba1-e21002a18a07"},"vehicle_type_id":"4","last_reported":1751137682,"current_range_meters":6000,"station_id":"ce4bhrh2rcd13ifvqhug","pricing_plan_id":"cebpf4jnsgd1na2vs0mg"},{"bike_id":"f0b8e7db-d8dd-4574-b97e-3971706fcdfd","system_id":"levelo_inurba_marseille","lat":43.31113,"lon":5.37777,"is_reserved":false,"is_disabled":false,"rental_uris":{"android":"levelo://app?vid=f0b8e7db-d8dd-4574-b97e-3971706fcdfd","ios":"levelo://app?vid=f0b8e7db-d8dd-4574-b97e-3971706fcdfd"},"vehicle_type_id":"4","last_reported":1751137682,"current_range_meters":6400,"station_id":"ce4bgt92rcd13ifvqcg0","pricing_plan_id":"cebpf4jnsgd1na2vs0mg"},{"bike_id":"91f31835-dd48-435d-b1d3-0eb37af3b447","system_id":"levelo_inurba_marseille","lat":43.30138,"lon":5.39878,"is_reserved":false,"is_disabled":false,"rental_uris":{"android":"levelo://app?vid=91f31835-dd48-435d-b1d3-0eb37af3b447","ios":"levelo://app?vid=91f31835-dd48-435d-b1d3-0eb37af3b447"},"vehicle_type_id":"4","last_reported":1751137682,"current_range_meters":6400,"station_id":"ce4bh0h2rcd13ifvqd40","pricing_plan_id":"cebpf4jnsgd1na2vs0mg"},{"bike_id":"bb3a7b88-e01c-4333-a33a-b2f98ebb14c8","system_id":"levelo_inurba_marseille","lat":43.25502,"lon":5.37651,"is_reserved":false,"is_disabled":false,"rental_uris":{"android":"levelo://app?vid=bb3a7b88-e01c-4333-a33a-b2f98ebb14c8","ios":"levelo://app?vid=bb3a7b88-e01c-4333-a33a-b2f98ebb14c8"},"vehicle_type_id":"4","last_reported":1751137682,"current_range_meters":6400,"station_id":"ce4bhh12rcd13ifvqff0","pricing_plan_id":"cebpf4jnsgd1na2vs0mg"},{"bike_id":"281c06c7-9aa7-4543-95f4-878f7926a0e9","system_id":"levelo_inurba_marseille","lat":43.25941,"lon":5.40903,"is_reserved":false,"is_disabled":false,"rental_uris":{"android":"levelo://app?vid=281c06c7-9aa7-4543-95f4-878f7926a0e9","ios":"levelo://app?vid=281c06c7-9aa7-4543-95f4-878f7926a0e9"},"vehicle_type_id":"4","last_reported":1751137682,"current_range_meters":6400,"station_id":"ce4bhm92rcd13ifvqglg","pricing_plan_id":"cebpf4jnsgd1na2vs0mg"},{"bike_id":"5d822830-964e-4146-afac-ab985e6fe63e","system_id":"levelo_inurba_marseille","lat":43.2861,"lon":5.37061,"is_reserved":false,"is_disabled":false,"rental_uris":{"android":"levelo://app?vid=5d822830-964e-4146-afac-ab985e6fe63e","ios":"levelo://app?vid=5d822830-964e-4146-afac-ab985e6fe63e"},"vehicle_type_id":"4","last_reported":1751137682,"current_range_meters":6400,"station_id":"ce4bht12rcd13ifvqi60","pricing_plan_id":"cebpf4jnsgd1na2vs0mg"},{"bike_id":"d93518a7-acea-49d1-8b1d-66917831e25a","system_id":"levelo_inurba_marseille","lat":43.28414,"lon":5.39535,"is_reserved":false,"is_disabled":false,"rental_uris":{"android":"levelo://app?vid=d93518a7-acea-49d1-8b1d-66917831e25a","ios":"levelo://app?vid=d93518a7-acea-49d1-8b1d-66917831e25a"},"vehicle_type_id":"4","last_reported":1751137682,"current_range_meters":6800,"station_id":"","pricing_plan_id":"cebpf4jnsgd1na2vs0mg"},{"bike_id":"be69badc-83bc-4ef3-b10e-8e00a10178e0","system_id":"levelo_inurba_marseille","lat":43.3112,"lon":5.37776,"is_reserved":false,"is_disabled":false,"rental_uris":{"android":"levelo://app?vid=be69badc-83bc-4ef3-b10e-8e00a10178e0","ios":"levelo://app?vid=be69badc-83bc-4ef3-b10e-8e00a10178e0"},"vehicle_type_id":"4","last_reported":1751137682,"current_range_meters":6800,"station_id":"ce4bgt92rcd13ifvqcg0","pricing_plan_id":"cebpf4jnsgd1na2vs0mg"},{"bike_id":"fec964b1-eace-476c-a7d1-8f8829da4453","system_id":"levelo_inurba_marseille","lat":43.26571,"lon":5.38997,"is_reserved":false,"is_disabled":false,"rental_uris":{"android":"levelo://app?vid=fec964b1-eace-476c-a7d1-8f8829da4453","ios":"levelo://app?vid=fec964b1-eace-476c-a7d1-8f8829da4453"},"vehicle_type_id":"4","last_reported":1751137682,"current_range_meters":6800,"station_id":"ce4bhe12rcd13ifvqf30","pricing_plan_id":"cebpf4jnsgd1na2vs0mg"},{"bike_id":"c6240266-1b1a-408e-aa67-c6560b60d809","system_id":"levelo_inurba_marseille","lat":43.23958,"lon":5.3663,"is_reserved":false,"is_disabled":false,"rental_uris":{"android":"levelo://app?vid=c6240266-1b1a-408e-aa67-c6560b60d809","ios":"levelo://app?vid=c6240266-1b1a-408e-aa67-c6560b60d809"},"vehicle_type_id":"4","last_reported":1751137682,"current_range_meters":6800,"station_id":"ce4bhi12rcd13ifvqfp0","pricing_plan_id":"cebpf4jnsgd1na2vs0mg"},{"bike_id":"753cae3d-13ad-4a0c-8ba8-0b57c59a5512","system_id":"levelo_inurba_marseille","lat":43.25079,"lon":5.39522,"is_reserved":false,"is_disabled":false,"rental_uris":{"android":"levelo://app?vid=753cae3d-13ad-4a0c-8ba8-0b57c59a5512","ios":"levelo://app?vid=753cae3d-13ad-4a0c-8ba8-0b57c59a5512"},"vehicle_type_id":"4","last_reported":1751137682,"current_range_meters":6800,"station_id":"ce4bhm12rcd13ifvqgkg","pricing_plan_id":"cebpf4jnsgd1na2vs0mg"},{"bike_id":"e1081ced-4faf-4fd4-925d-963334ce38cd","system_id":"levelo_inurba_marseille","lat":43.29366,"lon":5.37849,"is_reserved":false,"is_disabled":false,"rental_uris":{"android":"levelo://app?vid=e1081ced-4faf-4fd4-925d-963334ce38cd","ios":"levelo://app?vid=e1081ced-4faf-4fd4-925d-963334ce38cd"},"vehicle_type_id":"4","last_reported":1751137682,"current_range_meters":7200,"station_id":"ce4bgjh2rcd13ifvqbf0","pricing_plan_id":"cebpf4jnsgd1na2vs0mg"},{"bike_id":"4aaebacf-7af1-4faf-ba8d-3b8ef4a72a87","system_id":"levelo_inurba_marseille","lat":43.26199,"lon":5.3744,"is_reserved":false,"is_disabled":false,"rental_uris":{"android":"levelo://app?vid=4aaebacf-7af1-4faf-ba8d-3b8ef4a72a87","ios":"levelo://app?vid=4aaebacf-7af1-4faf-ba8d-3b8ef4a72a87"},"vehicle_type_id":"4","last_reported":1751137682,"current_range_meters":7200,"station_id":"ce4bhgp2rcd13ifvqfc0","pricing_plan_id":"cebpf4jnsgd1na2vs0mg"},{"bike_id":"bc92f310-c4b7-4edf-ab69-8121326f211f","system_id":"levelo_inurba_marseille","lat":43.26028,"lon":5.37548,"is_reserved":false,"is_disabled":false,"rental_uris":{"android":"levelo://app?vid=bc92f310-c4b7-4edf-ab69-8121326f211f","ios":"levelo://app?vid=bc92f310-c4b7-4edf-ab69-8121326f211f"},"vehicle_type_id":"4","last_reported":1751137682,"current_range_meters":8000,"station_id":"ce4bhgh2rcd13ifvqfa0","pricing_plan_id":"cebpf4jnsgd1na2vs0mg"},{"bike_id":"27af4a07-b378-4076-805b-3f43a7bdf98e","system_id":"levelo_inurba_marseille","lat":43.27319,"lon":5.39077,"is_reserved":false,"is_disabled":false,"rental_uris":{"android":"levelo://app?vid=27af4a07-b378-4076-805b-3f43a7bdf98e","ios":"levelo://app?vid=27af4a07-b378-4076-805b-3f43a7bdf98e"},"vehicle_type_id":"4","last_reported":1751137682,"current_range_meters":8000,"station_id":"ce4bhgp2rcd13ifvqfe0","pricing_plan_id":"cebpf4jnsgd1na2vs0mg"},{"bike_id":"1c8ab180-05fd-405f-9922-b2b2c2d5142f","system_id":"levelo_inurba_marseille","lat":43.32116,"lon":5.36785,"is_reserved":false,"is_disabled":false,"rental_uris":{"android":"levelo://app?vid=1c8ab180-05fd-405f-9922-b2b2c2d5142f","ios":"levelo://app?vid=1c8ab180-05fd-405f-9922-b2b2c2d5142f"},"vehicle_type_id":"4","last_reported":1751137682,"current_range_meters":8000,"station_id":"ce4bhrh2rcd13ifvqhug","pricing_plan_id":"cebpf4jnsgd1na2vs0mg"},{"bike_id":"001fdb65-7adf-45d8-b172-ccc00924ec85","system_id":"levelo_inurba_marseille","lat":43.24166,"lon":5.36391,"is_reserved":false,"is_disabled":false,"rental_uris":{"android":"levelo://app?vid=001fdb65-7adf-45d8-b172-ccc00924ec85","ios":"levelo://app?vid=001fdb65-7adf-45d8-b172-ccc00924ec85"},"vehicle_type_id":"4","last_reported":1751137682,"current_range_meters":8000,"station_id":"cpo36qri1sfpv3e86is0","pricing_plan_id":"cebpf4jnsgd1na2vs0mg"},{"bike_id":"56d6f40b-b923-4128-bbb9-eea3ebe4588f","system_id":"levelo_inurba_marseille","lat":43.2762,"lon":5.36104,"is_reserved":false,"is_disabled":false,"rental_uris":{"android":"levelo://app?vid=56d6f40b-b923-4128-bbb9-eea3ebe4588f","ios":"levelo://app?vid=56d6f40b-b923-4128-bbb9-eea3ebe4588f"},"vehicle_type_id":"4","last_reported":1751137682,"current_range_meters":8400,"station_id":"ce4bgj92rcd13ifvqbe0","pricing_plan_id":"cebpf4jnsgd1na2vs0mg"},{"bike_id":"00e3de77-849e-4da6-b812-4c472810f698","system_id":"levelo_inurba_marseille","lat":43.26214,"lon":5.3744,"is_reserved":false,"is_disabled":false,"rental_uris":{"android":"levelo://app?vid=00e3de77-849e-4da6-b812-4c472810f698","ios":"levelo://app?vid=00e3de77-849e-4da6-b812-4c472810f698"},"vehicle_type_id":"4","last_reported":1751137682,"current_range_meters":8400,"station_id":"ce4bhgp2rcd13ifvqfc0","pricing_plan_id":"cebpf4jnsgd1na2vs0mg"},{"bike_id":"1f5c26e8-94da-47b0-9534-92ba8539afc0","system_id":"levelo_inurba_marseille","lat":43.24388,"lon":5.37065,"is_reserved":false,"is_disabled":false,"rental_uris":{"android":"levelo://app?vid=1f5c26e8-94da-47b0-9534-92ba8539afc0","ios":"levelo://app?vid=1f5c26e8-94da-47b0-9534-92ba8539afc0"},"vehicle_type_id":"4","last_reported":1751137682,"current_range_meters":8400,"station_id":"ce4bhhh2rcd13ifvqfk0","pricing_plan_id":"cebpf4jnsgd1na2vs0mg"},{"bike_id":"f55d2bb9-1a31-471a-9a94-108a28e269d3","system_id":"levelo_inurba_marseille","lat":43.27996,"lon":5.40022,"is_reserved":false,"is_disabled":false,"rental_uris":{"android":"levelo://app?vid=f55d2bb9-1a31-471a-9a94-108a28e269d3","ios":"levelo://app?vid=f55d2bb9-1a31-471a-9a94-108a28e269d3"},"vehicle_type_id":"4","last_reported":1751137682,"current_range_meters":8400,"station_id":"ce4bho92rcd13ifvqh4g","pricing_plan_id":"cebpf4jnsgd1na2vs0mg"},{"bike_id":"a6b8dee1-fa21-496b-918d-908eb6a95ebe","system_id":"levelo_inurba_marseille","lat":43.3266,"lon":5.40981,"is_reserved":false,"is_disabled":false,"rental_uris":{"android":"levelo://app?vid=a6b8dee1-fa21-496b-918d-908eb6a95ebe","ios":"levelo://app?vid=a6b8dee1-fa21-496b-918d-908eb6a95ebe"},"vehicle_type_id":"4","last_reported":1751137682,"current_range_meters":8400,"station_id":"ce4bhpp2rcd13ifvqhgg","pricing_plan_id":"cebpf4jnsgd1na2vs0mg"},{"bike_id":"15f53c95-1e8c-4d4e-a80d-7db39da6bf03","system_id":"levelo_inurba_marseille","lat":43.29778,"lon":5.37106,"is_reserved":false,"is_disabled":false,"rental_uris":{"android":"levelo://app?vid=15f53c95-1e8c-4d4e-a80d-7db39da6bf03","ios":"levelo://app?vid=15f53c95-1e8c-4d4e-a80d-7db39da6bf03"},"vehicle_type_id":"4","last_reported":1751137682,"current_range_meters":8800,"station_id":"ce4bgop2rcd13ifvqc1g","pricing_plan_id":"cebpf4jnsgd1na2vs0mg"},{"bike_id":"807825ff-c3ae-4d85-9374-d1716a73f0c4","system_id":"levelo_inurba_marseille","lat":43.29004,"lon":5.38602,"is_reserved":false,"is_disabled":false,"rental_uris":{"android":"levelo://app?vid=807825ff-c3ae-4d85-9374-d1716a73f0c4","ios":"levelo://app?vid=807825ff-c3ae-4d85-9374-d1716a73f0c4"},"vehicle_type_id":"4","last_reported":1751137682,"current_range_meters":8800,"station_id":"ce4bh4p2rcd13ifvqe0g","pricing_plan_id":"cebpf4jnsgd1na2vs0mg"},{"bike_id":"5285971f-a60d-4bb6-a928-38856b3aa436","system_id":"levelo_inurba_marseille","lat":43.27497,"lon":5.42444,"is_reserved":false,"is_disabled":false,"rental_uris":{"android":"levelo://app?vid=5285971f-a60d-4bb6-a928-38856b3aa436","ios":"levelo://app?vid=5285971f-a60d-4bb6-a928-38856b3aa436"},"vehicle_type_id":"4","last_reported":1751137682,"current_range_meters":8800,"station_id":"ce4bhn92rcd13ifvqgrg","pricing_plan_id":"cebpf4jnsgd1na2vs0mg"},{"bike_id":"8e88d330-4796-4944-bdb3-da5564ba7e9f","system_id":"levelo_inurba_marseille","lat":43.2751,"lon":5.42459,"is_reserved":false,"is_disabled":false,"rental_uris":{"android":"levelo://app?vid=8e88d330-4796-4944-bdb3-da5564ba7e9f","ios":"levelo://app?vid=8e88d330-4796-4944-bdb3-da5564ba7e9f"},"vehicle_type_id":"4","last_reported":1751137682,"current_range_meters":8800,"station_id":"ce4bhn92rcd13ifvqgrg","pricing_plan_id":"cebpf4jnsgd1na2vs0mg"},{"bike_id":"afc5db3e-0ec2-4fcc-8e74-cd2c8402cc54","system_id":"levelo_inurba_marseille","lat":43.28724,"lon":5.36097,"is_reserved":false,"is_disabled":false,"rental_uris":{"android":"levelo://app?vid=afc5db3e-0ec2-4fcc-8e74-cd2c8402cc54","ios":"levelo://app?vid=afc5db3e-0ec2-4fcc-8e74-cd2c8402cc54"},"vehicle_type_id":"4","last_reported":1751137682,"current_range_meters":8800,"station_id":"cki0cbj6b192h4jlfktg","pricing_plan_id":"cebpf4jnsgd1na2vs0mg"},{"bike_id":"ff38d16a-f3b2-486c-821b-189cc1c84b88","system_id":"levelo_inurba_marseille","lat":43.2894,"lon":5.39631,"is_reserved":false,"is_disabled":false,"rental_uris":{"android":"levelo://app?vid=ff38d16a-f3b2-486c-821b-189cc1c84b88","ios":"levelo://app?vid=ff38d16a-f3b2-486c-821b-189cc1c84b88"},"vehicle_type_id":"4","last_reported":1751137682,"current_range_meters":9200,"station_id":"ce4bh3h2rcd13ifvqdn0","pricing_plan_id":"cebpf4jnsgd1na2vs0mg"},{"bike_id":"d5e70777-ad97-4594-91b6-43ede9611b14","system_id":"levelo_inurba_marseille","lat":43.32108,"lon":5.36756,"is_reserved":false,"is_disabled":false,"rental_uris":{"android":"levelo://app?vid=d5e70777-ad97-4594-91b6-43ede9611b14","ios":"levelo://app?vid=d5e70777-ad97-4594-91b6-43ede9611b14"},"vehicle_type_id":"4","last_reported":1751137682,"current_range_meters":9200,"station_id":"ce4bhrh2rcd13ifvqhug","pricing_plan_id":"cebpf4jnsgd1na2vs0mg"},{"bike_id":"0ea9a5fa-dfe3-4435-8521-628911f3c041","system_id":"levelo_inurba_marseille","lat":43.232051,"lon":5.355578,"is_reserved":false,"is_disabled":false,"rental_uris":{"android":"levelo://app?vid=0ea9a5fa-dfe3-4435-8521-628911f3c041","ios":"levelo://app?vid=0ea9a5fa-dfe3-4435-8521-628911f3c041"},"vehicle_type_id":"4","last_reported":1751137682,"current_range_meters":9600,"station_id":"","pricing_plan_id":"cebpf4jnsgd1na2vs0mg"},{"bike_id":"c41dc82a-16a9-41cd-84fd-485f8d1260ab","system_id":"levelo_inurba_marseille","lat":43.29872,"lon":5.36299,"is_reserved":false,"is_disabled":false,"rental_uris":{"android":"levelo://app?vid=c41dc82a-16a9-41cd-84fd-485f8d1260ab","ios":"levelo://app?vid=c41dc82a-16a9-41cd-84fd-485f8d1260ab"},"vehicle_type_id":"4","last_reported":1751137682,"current_range_meters":9600,"station_id":"ce4bgpp2rcd13ifvqc3g","pricing_plan_id":"cebpf4jnsgd1na2vs0mg"},{"bike_id":"37248949-2587-48c9-b229-36017ab32b46","system_id":"levelo_inurba_marseille","lat":43.29023,"lon":5.38641,"is_reserved":false,"is_disabled":false,"rental_uris":{"android":"levelo://app?vid=37248949-2587-48c9-b229-36017ab32b46","ios":"levelo://app?vid=37248949-2587-48c9-b229-36017ab32b46"},"vehicle_type_id":"4","last_reported":1751137682,"current_range_meters":9600,"station_id":"ce4bh4p2rcd13ifvqe0g","pricing_plan_id":"cebpf4jnsgd1na2vs0mg"},{"bike_id":"09bf38f2-4fe0-4882-b857-ca72ecbdfb01","system_id":"levelo_inurba_marseille","lat":43.29075,"lon":5.3717,"is_reserved":false,"is_disabled":false,"rental_uris":{"android":"levelo://app?vid=09bf38f2-4fe0-4882-b857-ca72ecbdfb01","ios":"levelo://app?vid=09bf38f2-4fe0-4882-b857-ca72ecbdfb01"},"vehicle_type_id":"4","last_reported":1751137682,"current_range_meters":9600,"station_id":"ce4bh5p2rcd13ifvqe4g","pricing_plan_id":"cebpf4jnsgd1na2vs0mg"},{"bike_id":"d6b53119-eb86-4ea3-bff1-1ea6002fb0f7","system_id":"levelo_inurba_marseille","lat":43.257827,"lon":5.376125,"is_reserved":false,"is_disabled":false,"rental_uris":{"android":"levelo://app?vid=d6b53119-eb86-4ea3-bff1-1ea6002fb0f7","ios":"levelo://app?vid=d6b53119-eb86-4ea3-bff1-1ea6002fb0f7"},"vehicle_type_id":"4","last_reported":1751137682,"current_range_meters":9600,"station_id":"ce4bhgh2rcd13ifvqfa0","pricing_plan_id":"cebpf4jnsgd1na2vs0mg"},{"bike_id":"5b490b7b-acb3-480f-8da9-dc9ae11ef6c8","system_id":"levelo_inurba_marseille","lat":43.2621,"lon":5.37445,"is_reserved":false,"is_disabled":false,"rental_uris":{"android":"levelo://app?vid=5b490b7b-acb3-480f-8da9-dc9ae11ef6c8","ios":"levelo://app?vid=5b490b7b-acb3-480f-8da9-dc9ae11ef6c8"},"vehicle_type_id":"4","last_reported":1751137682,"current_range_meters":9600,"station_id":"ce4bhgp2rcd13ifvqfc0","pricing_plan_id":"cebpf4jnsgd1na2vs0mg"},{"bike_id":"e6ce70f7-9138-485c-a4db-2c9174614cff","system_id":"levelo_inurba_marseille","lat":43.3183,"lon":5.36867,"is_reserved":false,"is_disabled":false,"rental_uris":{"android":"levelo://app?vid=e6ce70f7-9138-485c-a4db-2c9174614cff","ios":"levelo://app?vid=e6ce70f7-9138-485c-a4db-2c9174614cff"},"vehicle_type_id":"4","last_reported":1751137682,"current_range_meters":10000,"station_id":"","pricing_plan_id":"cebpf4jnsgd1na2vs0mg"},{"bike_id":"4d27aa42-3bd6-43e5-90b4-a054c420ac93","system_id":"levelo_inurba_marseille","lat":43.29599,"lon":5.381012,"is_reserved":false,"is_disabled":false,"rental_uris":{"android":"levelo://app?vid=4d27aa42-3bd6-43e5-90b4-a054c420ac93","ios":"levelo://app?vid=4d27aa42-3bd6-43e5-90b4-a054c420ac93"},"vehicle_type_id":"4","last_reported":1751137682,"current_range_meters":10000,"station_id":"ce4bgl12rcd13ifvqbo0","pricing_plan_id":"cebpf4jnsgd1na2vs0mg"},{"bike_id":"0808afa9-719d-4a11-bbf3-573e8951e953","system_id":"levelo_inurba_marseille","lat":43.29262,"lon":5.38442,"is_reserved":false,"is_disabled":false,"rental_uris":{"android":"levelo://app?vid=0808afa9-719d-4a11-bbf3-573e8951e953","ios":"levelo://app?vid=0808afa9-719d-4a11-bbf3-573e8951e953"},"vehicle_type_id":"4","last_reported":1751137682,"current_range_meters":10000,"station_id":"ce4bh692rcd13ifvqea0","pricing_plan_id":"cebpf4jnsgd1na2vs0mg"},{"bike_id":"81117ed8-1d8c-40ae-a7ca-aa939f5dacf6","system_id":"levelo_inurba_marseille","lat":43.28527,"lon":5.38554,"is_reserved":false,"is_disabled":false,"rental_uris":{"android":"levelo://app?vid=81117ed8-1d8c-40ae-a7ca-aa939f5dacf6","ios":"levelo://app?vid=81117ed8-1d8c-40ae-a7ca-aa939f5dacf6"},"vehicle_type_id":"4","last_reported":1751137682,"current_range_meters":10000,"station_id":"ce4bh8p2rcd13ifvqeb0","pricing_plan_id":"cebpf4jnsgd1na2vs0mg"},{"bike_id":"2d9685d4-c859-4936-8905-0013a0b2f613","system_id":"levelo_inurba_marseille","lat":43.2742,"lon":5.39414,"is_reserved":false,"is_disabled":false,"rental_uris":{"android":"levelo://app?vid=2d9685d4-c859-4936-8905-0013a0b2f613","ios":"levelo://app?vid=2d9685d4-c859-4936-8905-0013a0b2f613"},"vehicle_type_id":"4","last_reported":1751137682,"current_range_meters":10000,"station_id":"ce4bhdp2rcd13ifvqf20","pricing_plan_id":"cebpf4jnsgd1na2vs0mg"},{"bike_id":"579ee661-ccf3-4fea-b854-553310655910","system_id":"levelo_inurba_marseille","lat":43.27316,"lon":5.39109,"is_reserved":false,"is_disabled":false,"rental_uris":{"android":"levelo://app?vid=579ee661-ccf3-4fea-b854-553310655910","ios":"levelo://app?vid=579ee661-ccf3-4fea-b854-553310655910"},"vehicle_type_id":"4","last_reported":1751137682,"current_range_meters":10000,"station_id":"ce4bhgp2rcd13ifvqfe0","pricing_plan_id":"cebpf4jnsgd1na2vs0mg"},{"bike_id":"b08fc34f-13e7-4b6b-a967-2614c997a74a","system_id":"levelo_inurba_marseille","lat":43.23183,"lon":5.39988,"is_reserved":false,"is_disabled":false,"rental_uris":{"android":"levelo://app?vid=b08fc34f-13e7-4b6b-a967-2614c997a74a","ios":"levelo://app?vid=b08fc34f-13e7-4b6b-a967-2614c997a74a"},"vehicle_type_id":"4","last_reported":1751137682,"current_range_meters":10000,"station_id":"ce4bhn12rcd13ifvqgqg","pricing_plan_id":"cebpf4jnsgd1na2vs0mg"},{"bike_id":"13726ea4-91b3-4b24-87ce-db653217d50c","system_id":"levelo_inurba_marseille","lat":43.32123,"lon":5.36752,"is_reserved":false,"is_disabled":false,"rental_uris":{"android":"levelo://app?vid=13726ea4-91b3-4b24-87ce-db653217d50c","ios":"levelo://app?vid=13726ea4-91b3-4b24-87ce-db653217d50c"},"vehicle_type_id":"4","last_reported":1751137682,"current_range_meters":10000,"station_id":"ce4bhrh2rcd13ifvqhug","pricing_plan_id":"cebpf4jnsgd1na2vs0mg"},{"bike_id":"bbc4a376-bee7-4ad5-a49a-1022d27c1489","system_id":"levelo_inurba_marseille","lat":43.32106,"lon":5.36755,"is_reserved":false,"is_disabled":false,"rental_uris":{"android":"levelo://app?vid=bbc4a376-bee7-4ad5-a49a-1022d27c1489","ios":"levelo://app?vid=bbc4a376-bee7-4ad5-a49a-1022d27c1489"},"vehicle_type_id":"4","last_reported":1751137682,"current_range_meters":10000,"station_id":"ce4bhrh2rcd13ifvqhug","pricing_plan_id":"cebpf4jnsgd1na2vs0mg"},{"bike_id":"303e09fe-088b-44ab-9946-308396e29add","system_id":"levelo_inurba_marseille","lat":43.268133,"lon":5.394747,"is_reserved":false,"is_disabled":false,"rental_uris":{"android":"levelo://app?vid=303e09fe-088b-44ab-9946-308396e29add","ios":"levelo://app?vid=303e09fe-088b-44ab-9946-308396e29add"},"vehicle_type_id":"4","last_reported":1751137682,"current_range_meters":10800,"station_id":"","pricing_plan_id":"cebpf4jnsgd1na2vs0mg"},{"bike_id":"291d0eec-182f-4962-827e-e30645152ba9","system_id":"levelo_inurba_marseille","lat":43.31356,"lon":5.38492,"is_reserved":false,"is_disabled":false,"rental_uris":{"android":"levelo://app?vid=291d0eec-182f-4962-827e-e30645152ba9","ios":"levelo://app?vid=291d0eec-182f-4962-827e-e30645152ba9"},"vehicle_type_id":"4","last_reported":1751137682,"current_range_meters":10800,"station_id":"ce4bgt92rcd13ifvqcf0","pricing_plan_id":"cebpf4jnsgd1na2vs0mg"},{"bike_id":"552cbbd3-6db8-4cec-854f-0d32cd13be85","system_id":"levelo_inurba_marseille","lat":43.27332,"lon":5.3907,"is_reserved":false,"is_disabled":false,"rental_uris":{"android":"levelo://app?vid=552cbbd3-6db8-4cec-854f-0d32cd13be85","ios":"levelo://app?vid=552cbbd3-6db8-4cec-854f-0d32cd13be85"},"vehicle_type_id":"4","last_reported":1751137682,"current_range_meters":10800,"station_id":"ce4bhgp2rcd13ifvqfe0","pricing_plan_id":"cebpf4jnsgd1na2vs0mg"},{"bike_id":"44b677c8-76ed-4eac-8888-58151f9d5d6e","system_id":"levelo_inurba_marseille","lat":43.319645,"lon":5.367556,"is_reserved":false,"is_disabled":false,"rental_uris":{"android":"levelo://app?vid=44b677c8-76ed-4eac-8888-58151f9d5d6e","ios":"levelo://app?vid=44b677c8-76ed-4eac-8888-58151f9d5d6e"},"vehicle_type_id":"4","last_reported":1751137682,"current_range_meters":11200,"station_id":"","pricing_plan_id":"cebpf4jnsgd1na2vs0mg"},{"bike_id":"fa7db707-cccd-40df-81c8-e0b8c8665b59","system_id":"levelo_inurba_marseille","lat":43.29037,"lon":5.3997,"is_reserved":false,"is_disabled":false,"rental_uris":{"android":"levelo://app?vid=fa7db707-cccd-40df-81c8-e0b8c8665b59","ios":"levelo://app?vid=fa7db707-cccd-40df-81c8-e0b8c8665b59"},"vehicle_type_id":"4","last_reported":1751137682,"current_range_meters":11200,"station_id":"ce4bh392rcd13ifvqdm0","pricing_plan_id":"cebpf4jnsgd1na2vs0mg"},{"bike_id":"411255a8-69a4-496b-9683-76ccf4babba4","system_id":"levelo_inurba_marseille","lat":43.27917,"lon":5.39579,"is_reserved":false,"is_disabled":false,"rental_uris":{"android":"levelo://app?vid=411255a8-69a4-496b-9683-76ccf4babba4","ios":"levelo://app?vid=411255a8-69a4-496b-9683-76ccf4babba4"},"vehicle_type_id":"4","last_reported":1751137682,"current_range_meters":11200,"station_id":"ce4bhf92rcd13ifvqf40","pricing_plan_id":"cebpf4jnsgd1na2vs0mg"},{"bike_id":"ddc32f42-6c6b-4efd-b624-808533ea3c9e","system_id":"levelo_inurba_marseille","lat":43.26192,"lon":5.37438,"is_reserved":false,"is_disabled":false,"rental_uris":{"android":"levelo://app?vid=ddc32f42-6c6b-4efd-b624-808533ea3c9e","ios":"levelo://app?vid=ddc32f42-6c6b-4efd-b624-808533ea3c9e"},"vehicle_type_id":"4","last_reported":1751137682,"current_range_meters":11200,"station_id":"ce4bhgp2rcd13ifvqfc0","pricing_plan_id":"cebpf4jnsgd1na2vs0mg"},{"bike_id":"ad5227ea-688c-4a47-afec-7a6ae547a9df","system_id":"levelo_inurba_marseille","lat":43.295999,"lon":5.380992,"is_reserved":false,"is_disabled":false,"rental_uris":{"android":"levelo://app?vid=ad5227ea-688c-4a47-afec-7a6ae547a9df","ios":"levelo://app?vid=ad5227ea-688c-4a47-afec-7a6ae547a9df"},"vehicle_type_id":"4","last_reported":1751137682,"current_range_meters":11600,"station_id":"ce4bgi92rcd13ifvqb90","pricing_plan_id":"cebpf4jnsgd1na2vs0mg"},{"bike_id":"07b3984a-2889-4253-99cf-c5ef4530e935","system_id":"levelo_inurba_marseille","lat":43.29416,"lon":5.38608,"is_reserved":false,"is_disabled":false,"rental_uris":{"android":"levelo://app?vid=07b3984a-2889-4253-99cf-c5ef4530e935","ios":"levelo://app?vid=07b3984a-2889-4253-99cf-c5ef4530e935"},"vehicle_type_id":"4","last_reported":1751137682,"current_range_meters":11600,"station_id":"ce4bh2h2rcd13ifvqdh0","pricing_plan_id":"cebpf4jnsgd1na2vs0mg"},{"bike_id":"962af267-d53f-46b3-80f5-26c7fbd343ce","system_id":"levelo_inurba_marseille","lat":43.22509,"lon":5.3477,"is_reserved":false,"is_disabled":false,"rental_uris":{"android":"levelo://app?vid=962af267-d53f-46b3-80f5-26c7fbd343ce","ios":"levelo://app?vid=962af267-d53f-46b3-80f5-26c7fbd343ce"},"vehicle_type_id":"4","last_reported":1751137682,"current_range_meters":11600,"station_id":"st_cvj5dfep6f1abm77gieg","pricing_plan_id":"cebpf4jnsgd1na2vs0mg"},{"bike_id":"13fabc0f-5bfd-4dc8-9136-84b1659cd66b","system_id":"levelo_inurba_marseille","lat":43.21193,"lon":5.3508,"is_reserved":false,"is_disabled":false,"rental_uris":{"android":"levelo://app?vid=13fabc0f-5bfd-4dc8-9136-84b1659cd66b","ios":"levelo://app?vid=13fabc0f-5bfd-4dc8-9136-84b1659cd66b"},"vehicle_type_id":"4","last_reported":1751137682,"current_range_meters":11600,"station_id":"st_cvj6sg6p6f1abm77japg","pricing_plan_id":"cebpf4jnsgd1na2vs0mg"},{"bike_id":"721165c1-ef6f-40cc-8d33-af3a7999864b","system_id":"levelo_inurba_marseille","lat":43.32583,"lon":5.3783,"is_reserved":false,"is_disabled":false,"rental_uris":{"android":"levelo://app?vid=721165c1-ef6f-40cc-8d33-af3a7999864b","ios":"levelo://app?vid=721165c1-ef6f-40cc-8d33-af3a7999864b"},"vehicle_type_id":"4","last_reported":1751137682,"current_range_meters":12000,"station_id":"","pricing_plan_id":"cebpf4jnsgd1na2vs0mg"},{"bike_id":"cdd68c94-aa96-4e83-bc65-33aac7232d22","system_id":"levelo_inurba_marseille","lat":43.24055,"lon":5.37743,"is_reserved":false,"is_disabled":false,"rental_uris":{"android":"levelo://app?vid=cdd68c94-aa96-4e83-bc65-33aac7232d22","ios":"levelo://app?vid=cdd68c94-aa96-4e83-bc65-33aac7232d22"},"vehicle_type_id":"4","last_reported":1751137682,"current_range_meters":12000,"station_id":"ce4bhnp2rcd13ifvqgvg","pricing_plan_id":"cebpf4jnsgd1na2vs0mg"},{"bike_id":"873ce198-d36d-4815-8778-b72bd2ca0116","system_id":"levelo_inurba_marseille","lat":43.32104,"lon":5.36765,"is_reserved":false,"is_disabled":false,"rental_uris":{"android":"levelo://app?vid=873ce198-d36d-4815-8778-b72bd2ca0116","ios":"levelo://app?vid=873ce198-d36d-4815-8778-b72bd2ca0116"},"vehicle_type_id":"4","last_reported":1751137682,"current_range_meters":12000,"station_id":"ce4bhrh2rcd13ifvqhug","pricing_plan_id":"cebpf4jnsgd1na2vs0mg"},{"bike_id":"12c7fc9f-7c7b-4185-9b2f-badd0c17e36b","system_id":"levelo_inurba_marseille","lat":43.24736,"lon":5.37439,"is_reserved":false,"is_disabled":false,"rental_uris":{"android":"levelo://app?vid=12c7fc9f-7c7b-4185-9b2f-badd0c17e36b","ios":"levelo://app?vid=12c7fc9f-7c7b-4185-9b2f-badd0c17e36b"},"vehicle_type_id":"4","last_reported":1751137682,"current_range_meters":12400,"station_id":"","pricing_plan_id":"cebpf4jnsgd1na2vs0mg"},{"bike_id":"e3e49dbd-a30c-4304-97e2-4646aeca1d68","system_id":"levelo_inurba_marseille","lat":43.30948,"lon":5.39045,"is_reserved":false,"is_disabled":false,"rental_uris":{"android":"levelo://app?vid=e3e49dbd-a30c-4304-97e2-4646aeca1d68","ios":"levelo://app?vid=e3e49dbd-a30c-4304-97e2-4646aeca1d68"},"vehicle_type_id":"4","last_reported":1751137682,"current_range_meters":12400,"station_id":"ce4bgup2rcd13ifvqco0","pricing_plan_id":"cebpf4jnsgd1na2vs0mg"},{"bike_id":"b5a90bbb-c79a-4fb2-b2af-048455947488","system_id":"levelo_inurba_marseille","lat":43.2845,"lon":5.34969,"is_reserved":false,"is_disabled":false,"rental_uris":{"android":"levelo://app?vid=b5a90bbb-c79a-4fb2-b2af-048455947488","ios":"levelo://app?vid=b5a90bbb-c79a-4fb2-b2af-048455947488"},"vehicle_type_id":"4","last_reported":1751137682,"current_range_meters":12400,"station_id":"ce4bhbh2rcd13ifvqepg","pricing_plan_id":"cebpf4jnsgd1na2vs0mg"},{"bike_id":"465d715d-c466-435a-83c2-03d320454a0a","system_id":"levelo_inurba_marseille","lat":43.28408,"lon":5.3499,"is_reserved":false,"is_disabled":false,"rental_uris":{"android":"levelo://app?vid=465d715d-c466-435a-83c2-03d320454a0a","ios":"levelo://app?vid=465d715d-c466-435a-83c2-03d320454a0a"},"vehicle_type_id":"4","last_reported":1751137682,"current_range_meters":12400,"station_id":"ce4bhbh2rcd13ifvqepg","pricing_plan_id":"cebpf4jnsgd1na2vs0mg"},{"bike_id":"a1830893-cb72-4ffd-9cf5-821d9fd07d61","system_id":"levelo_inurba_marseille","lat":43.28611,"lon":5.35104,"is_reserved":false,"is_disabled":false,"rental_uris":{"android":"levelo://app?vid=a1830893-cb72-4ffd-9cf5-821d9fd07d61","ios":"levelo://app?vid=a1830893-cb72-4ffd-9cf5-821d9fd07d61"},"vehicle_type_id":"4","last_reported":1751137682,"current_range_meters":12400,"station_id":"ce4bhch2rcd13ifvqeug","pricing_plan_id":"cebpf4jnsgd1na2vs0mg"},{"bike_id":"c23a7efe-3711-483b-9a2c-408773fe0a20","system_id":"levelo_inurba_marseille","lat":43.269306,"lon":5.386139,"is_reserved":false,"is_disabled":false,"rental_uris":{"android":"levelo://app?vid=c23a7efe-3711-483b-9a2c-408773fe0a20","ios":"levelo://app?vid=c23a7efe-3711-483b-9a2c-408773fe0a20"},"vehicle_type_id":"4","last_reported":1751137682,"current_range_meters":12400,"station_id":"ce4bhh92rcd13ifvqfh0","pricing_plan_id":"cebpf4jnsgd1na2vs0mg"},{"bike_id":"a7883090-0e10-4075-944b-a3cca54bc544","system_id":"levelo_inurba_marseille","lat":43.225066,"lon":5.347826,"is_reserved":false,"is_disabled":false,"rental_uris":{"android":"levelo://app?vid=a7883090-0e10-4075-944b-a3cca54bc544","ios":"levelo://app?vid=a7883090-0e10-4075-944b-a3cca54bc544"},"vehicle_type_id":"4","last_reported":1751137682,"current_range_meters":12400,"station_id":"st_cvj5dfep6f1abm77gieg","pricing_plan_id":"cebpf4jnsgd1na2vs0mg"},{"bike_id":"14e8ef37-e834-4d76-9946-e98f7a083a2f","system_id":"levelo_inurba_marseille","lat":43.21204,"lon":5.35071,"is_reserved":false,"is_disabled":false,"rental_uris":{"android":"levelo://app?vid=14e8ef37-e834-4d76-9946-e98f7a083a2f","ios":"levelo://app?vid=14e8ef37-e834-4d76-9946-e98f7a083a2f"},"vehicle_type_id":"4","last_reported":1751137682,"current_range_meters":12400,"station_id":"st_cvj6sg6p6f1abm77japg","pricing_plan_id":"cebpf4jnsgd1na2vs0mg"},{"bike_id":"cb3e2143-c3f5-4240-b015-69f3f2bd439a","system_id":"levelo_inurba_marseille","lat":43.30956,"lon":5.39033,"is_reserved":false,"is_disabled":false,"rental_uris":{"android":"levelo://app?vid=cb3e2143-c3f5-4240-b015-69f3f2bd439a","ios":"levelo://app?vid=cb3e2143-c3f5-4240-b015-69f3f2bd439a"},"vehicle_type_id":"4","last_reported":1751137682,"current_range_meters":12800,"station_id":"ce4bgup2rcd13ifvqco0","pricing_plan_id":"cebpf4jnsgd1na2vs0mg"},{"bike_id":"af1ccf2d-e0f6-4739-904b-9eb7260d4e1b","system_id":"levelo_inurba_marseille","lat":43.27357,"lon":5.36275,"is_reserved":false,"is_disabled":false,"rental_uris":{"android":"levelo://app?vid=af1ccf2d-e0f6-4739-904b-9eb7260d4e1b","ios":"levelo://app?vid=af1ccf2d-e0f6-4739-904b-9eb7260d4e1b"},"vehicle_type_id":"4","last_reported":1751137682,"current_range_meters":12800,"station_id":"ce4bhbh2rcd13ifvqeo0","pricing_plan_id":"cebpf4jnsgd1na2vs0mg"},{"bike_id":"59c5acef-086d-47ad-88cd-e5a192fceaf2","system_id":"levelo_inurba_marseille","lat":43.27943,"lon":5.41056,"is_reserved":false,"is_disabled":false,"rental_uris":{"android":"levelo://app?vid=59c5acef-086d-47ad-88cd-e5a192fceaf2","ios":"levelo://app?vid=59c5acef-086d-47ad-88cd-e5a192fceaf2"},"vehicle_type_id":"4","last_reported":1751137682,"current_range_meters":12800,"station_id":"ce4bhnp2rcd13ifvqh0g","pricing_plan_id":"cebpf4jnsgd1na2vs0mg"},{"bike_id":"762acdc5-9b99-47a0-bda1-ee8060271245","system_id":"levelo_inurba_marseille","lat":43.21203,"lon":5.35062,"is_reserved":false,"is_disabled":false,"rental_uris":{"android":"levelo://app?vid=762acdc5-9b99-47a0-bda1-ee8060271245","ios":"levelo://app?vid=762acdc5-9b99-47a0-bda1-ee8060271245"},"vehicle_type_id":"4","last_reported":1751137682,"current_range_meters":12800,"station_id":"st_cvj6sg6p6f1abm77japg","pricing_plan_id":"cebpf4jnsgd1na2vs0mg"},{"bike_id":"a1e4f19f-818e-4f0c-874e-611bae4b305b","system_id":"levelo_inurba_marseille","lat":43.30889,"lon":5.37187,"is_reserved":false,"is_disabled":false,"rental_uris":{"android":"levelo://app?vid=a1e4f19f-818e-4f0c-874e-611bae4b305b","ios":"levelo://app?vid=a1e4f19f-818e-4f0c-874e-611bae4b305b"},"vehicle_type_id":"4","last_reported":1751137682,"current_range_meters":13600,"station_id":"ce4bguh2rcd13ifvqckg","pricing_plan_id":"cebpf4jnsgd1na2vs0mg"},{"bike_id":"c7067ed1-f9ee-40ab-a529-1c223a6eea73","system_id":"levelo_inurba_marseille","lat":43.28447,"lon":5.3497,"is_reserved":false,"is_disabled":false,"rental_uris":{"android":"levelo://app?vid=c7067ed1-f9ee-40ab-a529-1c223a6eea73","ios":"levelo://app?vid=c7067ed1-f9ee-40ab-a529-1c223a6eea73"},"vehicle_type_id":"4","last_reported":1751137682,"current_range_meters":13600,"station_id":"ce4bhbh2rcd13ifvqepg","pricing_plan_id":"cebpf4jnsgd1na2vs0mg"},{"bike_id":"7888f0a1-72ef-43a6-98ea-a196926d003d","system_id":"levelo_inurba_marseille","lat":43.26558,"lon":5.38994,"is_reserved":false,"is_disabled":false,"rental_uris":{"android":"levelo://app?vid=7888f0a1-72ef-43a6-98ea-a196926d003d","ios":"levelo://app?vid=7888f0a1-72ef-43a6-98ea-a196926d003d"},"vehicle_type_id":"4","last_reported":1751137682,"current_range_meters":13600,"station_id":"ce4bhe12rcd13ifvqf30","pricing_plan_id":"cebpf4jnsgd1na2vs0mg"},{"bike_id":"e581575c-248c-4184-b065-aa0f02b54377","system_id":"levelo_inurba_marseille","lat":43.26953,"lon":5.38631,"is_reserved":false,"is_disabled":false,"rental_uris":{"android":"levelo://app?vid=e581575c-248c-4184-b065-aa0f02b54377","ios":"levelo://app?vid=e581575c-248c-4184-b065-aa0f02b54377"},"vehicle_type_id":"4","last_reported":1751137682,"current_range_meters":13600,"station_id":"ce4bhh92rcd13ifvqfh0","pricing_plan_id":"cebpf4jnsgd1na2vs0mg"},{"bike_id":"42274c6b-04c6-47ee-bf8a-4ba54b8c42cd","system_id":"levelo_inurba_marseille","lat":43.27318,"lon":5.39065,"is_reserved":false,"is_disabled":false,"rental_uris":{"android":"levelo://app?vid=42274c6b-04c6-47ee-bf8a-4ba54b8c42cd","ios":"levelo://app?vid=42274c6b-04c6-47ee-bf8a-4ba54b8c42cd"},"vehicle_type_id":"4","last_reported":1751137682,"current_range_meters":14000,"station_id":"ce4bhgp2rcd13ifvqfe0","pricing_plan_id":"cebpf4jnsgd1na2vs0mg"},{"bike_id":"91b65e10-0e4e-418a-bcf7-105b8872a5de","system_id":"levelo_inurba_marseille","lat":43.23089,"lon":5.35463,"is_reserved":false,"is_disabled":false,"rental_uris":{"android":"levelo://app?vid=91b65e10-0e4e-418a-bcf7-105b8872a5de","ios":"levelo://app?vid=91b65e10-0e4e-418a-bcf7-105b8872a5de"},"vehicle_type_id":"4","last_reported":1751137682,"current_range_meters":14000,"station_id":"cpo3342slgdg3j2ifvpg","pricing_plan_id":"cebpf4jnsgd1na2vs0mg"},{"bike_id":"c4e23027-fb76-4e12-a17a-e866f2d0c4a5","system_id":"levelo_inurba_marseille","lat":43.26074,"lon":5.37497,"is_reserved":false,"is_disabled":false,"rental_uris":{"android":"levelo://app?vid=c4e23027-fb76-4e12-a17a-e866f2d0c4a5","ios":"levelo://app?vid=c4e23027-fb76-4e12-a17a-e866f2d0c4a5"},"vehicle_type_id":"4","last_reported":1751137682,"current_range_meters":14400,"station_id":"","pricing_plan_id":"cebpf4jnsgd1na2vs0mg"},{"bike_id":"e9931aff-891f-4ab2-80de-abfe09343716","system_id":"levelo_inurba_marseille","lat":43.26031,"lon":5.37553,"is_reserved":false,"is_disabled":false,"rental_uris":{"android":"levelo://app?vid=e9931aff-891f-4ab2-80de-abfe09343716","ios":"levelo://app?vid=e9931aff-891f-4ab2-80de-abfe09343716"},"vehicle_type_id":"4","last_reported":1751137682,"current_range_meters":14400,"station_id":"ce4bhgh2rcd13ifvqfa0","pricing_plan_id":"cebpf4jnsgd1na2vs0mg"},{"bike_id":"941146f2-032e-40c2-a791-f959bdd02e9f","system_id":"levelo_inurba_marseille","lat":43.32659,"lon":5.409901,"is_reserved":false,"is_disabled":false,"rental_uris":{"android":"levelo://app?vid=941146f2-032e-40c2-a791-f959bdd02e9f","ios":"levelo://app?vid=941146f2-032e-40c2-a791-f959bdd02e9f"},"vehicle_type_id":"4","last_reported":1751137682,"current_range_meters":14400,"station_id":"ce4bhpp2rcd13ifvqhgg","pricing_plan_id":"cebpf4jnsgd1na2vs0mg"},{"bike_id":"2bd31d8c-a42c-42c3-906f-7d6eb700a570","system_id":"levelo_inurba_marseille","lat":43.326429,"lon":5.410032,"is_reserved":false,"is_disabled":false,"rental_uris":{"android":"levelo://app?vid=2bd31d8c-a42c-42c3-906f-7d6eb700a570","ios":"levelo://app?vid=2bd31d8c-a42c-42c3-906f-7d6eb700a570"},"vehicle_type_id":"4","last_reported":1751137682,"current_range_meters":14800,"station_id":"","pricing_plan_id":"cebpf4jnsgd1na2vs0mg"},{"bike_id":"a12fe640-e5df-4342-b7d7-754a0bd8aa41","system_id":"levelo_inurba_marseille","lat":43.31071,"lon":5.38355,"is_reserved":false,"is_disabled":false,"rental_uris":{"android":"levelo://app?vid=a12fe640-e5df-4342-b7d7-754a0bd8aa41","ios":"levelo://app?vid=a12fe640-e5df-4342-b7d7-754a0bd8aa41"},"vehicle_type_id":"4","last_reported":1751137682,"current_range_meters":14800,"station_id":"","pricing_plan_id":"cebpf4jnsgd1na2vs0mg"},{"bike_id":"a24c1b44-2764-4e04-bdd7-dd30636b2708","system_id":"levelo_inurba_marseille","lat":43.25867,"lon":5.39896,"is_reserved":false,"is_disabled":false,"rental_uris":{"android":"levelo://app?vid=a24c1b44-2764-4e04-bdd7-dd30636b2708","ios":"levelo://app?vid=a24c1b44-2764-4e04-bdd7-dd30636b2708"},"vehicle_type_id":"4","last_reported":1751137682,"current_range_meters":14800,"station_id":"ce4bhl92rcd13ifvqghg","pricing_plan_id":"cebpf4jnsgd1na2vs0mg"},{"bike_id":"a8d3767a-3965-4159-a4d2-ecaa4fb927de","system_id":"levelo_inurba_marseille","lat":43.31758,"lon":5.39009,"is_reserved":false,"is_disabled":false,"rental_uris":{"android":"levelo://app?vid=a8d3767a-3965-4159-a4d2-ecaa4fb927de","ios":"levelo://app?vid=a8d3767a-3965-4159-a4d2-ecaa4fb927de"},"vehicle_type_id":"4","last_reported":1751137682,"current_range_meters":14800,"station_id":"ce4bhqp2rcd13ifvqhng","pricing_plan_id":"cebpf4jnsgd1na2vs0mg"},{"bike_id":"2a9a5366-8dad-42f1-bee6-ffb042c54776","system_id":"levelo_inurba_marseille","lat":43.21187,"lon":5.35077,"is_reserved":false,"is_disabled":false,"rental_uris":{"android":"levelo://app?vid=2a9a5366-8dad-42f1-bee6-ffb042c54776","ios":"levelo://app?vid=2a9a5366-8dad-42f1-bee6-ffb042c54776"},"vehicle_type_id":"4","last_reported":1751137682,"current_range_meters":14800,"station_id":"st_cvj6sg6p6f1abm77japg","pricing_plan_id":"cebpf4jnsgd1na2vs0mg"},{"bike_id":"08abf329-ad3a-4856-a0aa-ab0e078764bf","system_id":"levelo_inurba_marseille","lat":43.29577,"lon":5.36746,"is_reserved":false,"is_disabled":false,"rental_uris":{"android":"levelo://app?vid=08abf329-ad3a-4856-a0aa-ab0e078764bf","ios":"levelo://app?vid=08abf329-ad3a-4856-a0aa-ab0e078764bf"},"vehicle_type_id":"4","last_reported":1751137682,"current_range_meters":15200,"station_id":"ce4bgph2rcd13ifvqc2g","pricing_plan_id":"cebpf4jnsgd1na2vs0mg"},{"bike_id":"c9727364-02b0-4b88-8668-56db49153198","system_id":"levelo_inurba_marseille","lat":43.26811,"lon":5.39404,"is_reserved":false,"is_disabled":false,"rental_uris":{"android":"levelo://app?vid=c9727364-02b0-4b88-8668-56db49153198","ios":"levelo://app?vid=c9727364-02b0-4b88-8668-56db49153198"},"vehicle_type_id":"4","last_reported":1751137682,"current_range_meters":15200,"station_id":"ce4bhh12rcd13ifvqfg0","pricing_plan_id":"cebpf4jnsgd1na2vs0mg"},{"bike_id":"7d182acc-99fa-4a63-abb0-f39520b0768b","system_id":"levelo_inurba_marseille","lat":43.24389,"lon":5.37058,"is_reserved":false,"is_disabled":false,"rental_uris":{"android":"levelo://app?vid=7d182acc-99fa-4a63-abb0-f39520b0768b","ios":"levelo://app?vid=7d182acc-99fa-4a63-abb0-f39520b0768b"},"vehicle_type_id":"4","last_reported":1751137682,"current_range_meters":15200,"station_id":"ce4bhhh2rcd13ifvqfk0","pricing_plan_id":"cebpf4jnsgd1na2vs0mg"},{"bike_id":"f9389eef-2fb8-4193-ae88-937d63a8e97b","system_id":"levelo_inurba_marseille","lat":43.25863,"lon":5.39913,"is_reserved":false,"is_disabled":false,"rental_uris":{"android":"levelo://app?vid=f9389eef-2fb8-4193-ae88-937d63a8e97b","ios":"levelo://app?vid=f9389eef-2fb8-4193-ae88-937d63a8e97b"},"vehicle_type_id":"4","last_reported":1751137682,"current_range_meters":15200,"station_id":"ce4bhl92rcd13ifvqghg","pricing_plan_id":"cebpf4jnsgd1na2vs0mg"},{"bike_id":"f810be2a-3c00-446f-9ba1-1f3840ce349d","system_id":"levelo_inurba_marseille","lat":43.32113,"lon":5.36781,"is_reserved":false,"is_disabled":false,"rental_uris":{"android":"levelo://app?vid=f810be2a-3c00-446f-9ba1-1f3840ce349d","ios":"levelo://app?vid=f810be2a-3c00-446f-9ba1-1f3840ce349d"},"vehicle_type_id":"4","last_reported":1751137682,"current_range_meters":15200,"station_id":"ce4bhrh2rcd13ifvqhug","pricing_plan_id":"cebpf4jnsgd1na2vs0mg"},{"bike_id":"c0a2de0a-20e3-4e62-848e-f0dbd6b2e588","system_id":"levelo_inurba_marseille","lat":43.22538,"lon":5.34784,"is_reserved":false,"is_disabled":false,"rental_uris":{"android":"levelo://app?vid=c0a2de0a-20e3-4e62-848e-f0dbd6b2e588","ios":"levelo://app?vid=c0a2de0a-20e3-4e62-848e-f0dbd6b2e588"},"vehicle_type_id":"4","last_reported":1751137682,"current_range_meters":15200,"station_id":"st_cvj5dfep6f1abm77gieg","pricing_plan_id":"cebpf4jnsgd1na2vs0mg"},{"bike_id":"e5e9e78b-4730-43b1-8651-5c571c638bbb","system_id":"levelo_inurba_marseille","lat":43.21181,"lon":5.35059,"is_reserved":false,"is_disabled":false,"rental_uris":{"android":"levelo://app?vid=e5e9e78b-4730-43b1-8651-5c571c638bbb","ios":"levelo://app?vid=e5e9e78b-4730-43b1-8651-5c571c638bbb"},"vehicle_type_id":"4","last_reported":1751137682,"current_range_meters":15200,"station_id":"st_cvj6sg6p6f1abm77japg","pricing_plan_id":"cebpf4jnsgd1na2vs0mg"},{"bike_id":"fefa174c-3439-453c-bc29-f58fdce41de6","system_id":"levelo_inurba_marseille","lat":43.27312,"lon":5.39079,"is_reserved":false,"is_disabled":false,"rental_uris":{"android":"levelo://app?vid=fefa174c-3439-453c-bc29-f58fdce41de6","ios":"levelo://app?vid=fefa174c-3439-453c-bc29-f58fdce41de6"},"vehicle_type_id":"4","last_reported":1751137682,"current_range_meters":16000,"station_id":"ce4bhgp2rcd13ifvqfe0","pricing_plan_id":"cebpf4jnsgd1na2vs0mg"},{"bike_id":"4f7da216-f811-4c57-9e64-cdee7467bddd","system_id":"levelo_inurba_marseille","lat":43.22501,"lon":5.34773,"is_reserved":false,"is_disabled":false,"rental_uris":{"android":"levelo://app?vid=4f7da216-f811-4c57-9e64-cdee7467bddd","ios":"levelo://app?vid=4f7da216-f811-4c57-9e64-cdee7467bddd"},"vehicle_type_id":"4","last_reported":1751137682,"current_range_meters":16000,"station_id":"st_cvj5dfep6f1abm77gieg","pricing_plan_id":"cebpf4jnsgd1na2vs0mg"},{"bike_id":"5d5e13a4-10cc-485c-a362-06d02242e666","system_id":"levelo_inurba_marseille","lat":43.21205,"lon":5.35033,"is_reserved":false,"is_disabled":false,"rental_uris":{"android":"levelo://app?vid=5d5e13a4-10cc-485c-a362-06d02242e666","ios":"levelo://app?vid=5d5e13a4-10cc-485c-a362-06d02242e666"},"vehicle_type_id":"4","last_reported":1751137682,"current_range_meters":16400,"station_id":"","pricing_plan_id":"cebpf4jnsgd1na2vs0mg"},{"bike_id":"735fb3ec-51d3-42a0-b0e0-35a6ef148211","system_id":"levelo_inurba_marseille","lat":43.31286,"lon":5.373,"is_reserved":false,"is_disabled":false,"rental_uris":{"android":"levelo://app?vid=735fb3ec-51d3-42a0-b0e0-35a6ef148211","ios":"levelo://app?vid=735fb3ec-51d3-42a0-b0e0-35a6ef148211"},"vehicle_type_id":"4","last_reported":1751137682,"current_range_meters":16400,"station_id":"","pricing_plan_id":"cebpf4jnsgd1na2vs0mg"},{"bike_id":"d308c658-b19c-49c0-8014-5506ff26f69a","system_id":"levelo_inurba_marseille","lat":43.23084,"lon":5.40508,"is_reserved":false,"is_disabled":false,"rental_uris":{"android":"levelo://app?vid=d308c658-b19c-49c0-8014-5506ff26f69a","ios":"levelo://app?vid=d308c658-b19c-49c0-8014-5506ff26f69a"},"vehicle_type_id":"4","last_reported":1751137682,"current_range_meters":16400,"station_id":"","pricing_plan_id":"cebpf4jnsgd1na2vs0mg"},{"bike_id":"3c74722a-89c5-4d58-a755-06da4c2d9f98","system_id":"levelo_inurba_marseille","lat":43.26675,"lon":5.38268,"is_reserved":false,"is_disabled":false,"rental_uris":{"android":"levelo://app?vid=3c74722a-89c5-4d58-a755-06da4c2d9f98","ios":"levelo://app?vid=3c74722a-89c5-4d58-a755-06da4c2d9f98"},"vehicle_type_id":"4","last_reported":1751137682,"current_range_meters":16400,"station_id":"ce4bhg92rcd13ifvqf90","pricing_plan_id":"cebpf4jnsgd1na2vs0mg"},{"bike_id":"0b8ab345-189e-4748-99e8-1290b01cd636","system_id":"levelo_inurba_marseille","lat":43.24658,"lon":5.38165,"is_reserved":false,"is_disabled":false,"rental_uris":{"android":"levelo://app?vid=0b8ab345-189e-4748-99e8-1290b01cd636","ios":"levelo://app?vid=0b8ab345-189e-4748-99e8-1290b01cd636"},"vehicle_type_id":"4","last_reported":1751137682,"current_range_meters":16400,"station_id":"ce4bhih2rcd13ifvqfr0","pricing_plan_id":"cebpf4jnsgd1na2vs0mg"},{"bike_id":"dc52be52-60b5-448c-b8e7-30f1c07b993e","system_id":"levelo_inurba_marseille","lat":43.25107,"lon":5.40326,"is_reserved":false,"is_disabled":false,"rental_uris":{"android":"levelo://app?vid=dc52be52-60b5-448c-b8e7-30f1c07b993e","ios":"levelo://app?vid=dc52be52-60b5-448c-b8e7-30f1c07b993e"},"vehicle_type_id":"4","last_reported":1751137682,"current_range_meters":16400,"station_id":"ce4bhlh2rcd13ifvqgig","pricing_plan_id":"cebpf4jnsgd1na2vs0mg"},{"bike_id":"064e1b75-6456-473b-9a83-8a42db06b827","system_id":"levelo_inurba_marseille","lat":43.26227,"lon":5.40453,"is_reserved":false,"is_disabled":false,"rental_uris":{"android":"levelo://app?vid=064e1b75-6456-473b-9a83-8a42db06b827","ios":"levelo://app?vid=064e1b75-6456-473b-9a83-8a42db06b827"},"vehicle_type_id":"4","last_reported":1751137682,"current_range_meters":16400,"station_id":"ce4bhmh2rcd13ifvqgmg","pricing_plan_id":"cebpf4jnsgd1na2vs0mg"},{"bike_id":"4fbca59d-df32-4179-ba25-70ecf4ef2219","system_id":"levelo_inurba_marseille","lat":43.24187,"lon":5.39712,"is_reserved":false,"is_disabled":false,"rental_uris":{"android":"levelo://app?vid=4fbca59d-df32-4179-ba25-70ecf4ef2219","ios":"levelo://app?vid=4fbca59d-df32-4179-ba25-70ecf4ef2219"},"vehicle_type_id":"4","last_reported":1751137682,"current_range_meters":16400,"station_id":"ce4bhn12rcd13ifvqgpg","pricing_plan_id":"cebpf4jnsgd1na2vs0mg"},{"bike_id":"5e6f9da2-f57c-4f4a-9083-64354f865d6a","system_id":"levelo_inurba_marseille","lat":43.29897,"lon":5.43673,"is_reserved":false,"is_disabled":false,"rental_uris":{"android":"levelo://app?vid=5e6f9da2-f57c-4f4a-9083-64354f865d6a","ios":"levelo://app?vid=5e6f9da2-f57c-4f4a-9083-64354f865d6a"},"vehicle_type_id":"4","last_reported":1751137682,"current_range_meters":16400,"station_id":"ce4bhpp2rcd13ifvqhfg","pricing_plan_id":"cebpf4jnsgd1na2vs0mg"},{"bike_id":"aff4423e-c2af-4b70-b9bd-2bdc17fafffc","system_id":"levelo_inurba_marseille","lat":43.24176,"lon":5.36405,"is_reserved":false,"is_disabled":false,"rental_uris":{"android":"levelo://app?vid=aff4423e-c2af-4b70-b9bd-2bdc17fafffc","ios":"levelo://app?vid=aff4423e-c2af-4b70-b9bd-2bdc17fafffc"},"vehicle_type_id":"4","last_reported":1751137682,"current_range_meters":16400,"station_id":"cpo36qri1sfpv3e86is0","pricing_plan_id":"cebpf4jnsgd1na2vs0mg"},{"bike_id":"b13877a6-4825-4d82-b46b-67fa8ad66c5d","system_id":"levelo_inurba_marseille","lat":43.211941,"lon":5.350721,"is_reserved":false,"is_disabled":false,"rental_uris":{"android":"levelo://app?vid=b13877a6-4825-4d82-b46b-67fa8ad66c5d","ios":"levelo://app?vid=b13877a6-4825-4d82-b46b-67fa8ad66c5d"},"vehicle_type_id":"4","last_reported":1751137682,"current_range_meters":16400,"station_id":"st_cvj6sg6p6f1abm77japg","pricing_plan_id":"cebpf4jnsgd1na2vs0mg"},{"bike_id":"d83be15c-239d-410c-9374-2954b9783857","system_id":"levelo_inurba_marseille","lat":43.21211,"lon":5.35055,"is_reserved":false,"is_disabled":false,"rental_uris":{"android":"levelo://app?vid=d83be15c-239d-410c-9374-2954b9783857","ios":"levelo://app?vid=d83be15c-239d-410c-9374-2954b9783857"},"vehicle_type_id":"4","last_reported":1751137682,"current_range_meters":16400,"station_id":"st_cvj6sg6p6f1abm77japg","pricing_plan_id":"cebpf4jnsgd1na2vs0mg"},{"bike_id":"66abb35b-0e37-4ddd-bf66-70dc62e8f63c","system_id":"levelo_inurba_marseille","lat":43.22858,"lon":5.35115,"is_reserved":false,"is_disabled":false,"rental_uris":{"android":"levelo://app?vid=66abb35b-0e37-4ddd-bf66-70dc62e8f63c","ios":"levelo://app?vid=66abb35b-0e37-4ddd-bf66-70dc62e8f63c"},"vehicle_type_id":"4","last_reported":1751137682,"current_range_meters":16800,"station_id":"","pricing_plan_id":"cebpf4jnsgd1na2vs0mg"},{"bike_id":"9348a4fc-cbd5-4a42-a17a-1b36111c8c16","system_id":"levelo_inurba_marseille","lat":43.30944,"lon":5.39033,"is_reserved":false,"is_disabled":false,"rental_uris":{"android":"levelo://app?vid=9348a4fc-cbd5-4a42-a17a-1b36111c8c16","ios":"levelo://app?vid=9348a4fc-cbd5-4a42-a17a-1b36111c8c16"},"vehicle_type_id":"4","last_reported":1751137682,"current_range_meters":16800,"station_id":"ce4bgup2rcd13ifvqco0","pricing_plan_id":"cebpf4jnsgd1na2vs0mg"},{"bike_id":"0db14670-7096-476e-b1cf-51dcc5e1a2d6","system_id":"levelo_inurba_marseille","lat":43.26683,"lon":5.38273,"is_reserved":false,"is_disabled":false,"rental_uris":{"android":"levelo://app?vid=0db14670-7096-476e-b1cf-51dcc5e1a2d6","ios":"levelo://app?vid=0db14670-7096-476e-b1cf-51dcc5e1a2d6"},"vehicle_type_id":"4","last_reported":1751137682,"current_range_meters":16800,"station_id":"ce4bhg92rcd13ifvqf90","pricing_plan_id":"cebpf4jnsgd1na2vs0mg"},{"bike_id":"8d1e10f3-20fd-463c-a408-0a21083b0c6f","system_id":"levelo_inurba_marseille","lat":43.21189,"lon":5.35072,"is_reserved":false,"is_disabled":false,"rental_uris":{"android":"levelo://app?vid=8d1e10f3-20fd-463c-a408-0a21083b0c6f","ios":"levelo://app?vid=8d1e10f3-20fd-463c-a408-0a21083b0c6f"},"vehicle_type_id":"4","last_reported":1751137682,"current_range_meters":16800,"station_id":"st_cvj6sg6p6f1abm77japg","pricing_plan_id":"cebpf4jnsgd1na2vs0mg"},{"bike_id":"bca121d6-7dac-4f14-a296-ce2249d7aad2","system_id":"levelo_inurba_marseille","lat":43.28147,"lon":5.4434,"is_reserved":false,"is_disabled":false,"rental_uris":{"android":"levelo://app?vid=bca121d6-7dac-4f14-a296-ce2249d7aad2","ios":"levelo://app?vid=bca121d6-7dac-4f14-a296-ce2249d7aad2"},"vehicle_type_id":"4","last_reported":1751137682,"current_range_meters":17200,"station_id":"","pricing_plan_id":"cebpf4jnsgd1na2vs0mg"},{"bike_id":"c595d0e1-c778-4abe-9c79-a9dd74f54e27","system_id":"levelo_inurba_marseille","lat":43.24459,"lon":5.37221,"is_reserved":false,"is_disabled":false,"rental_uris":{"android":"levelo://app?vid=c595d0e1-c778-4abe-9c79-a9dd74f54e27","ios":"levelo://app?vid=c595d0e1-c778-4abe-9c79-a9dd74f54e27"},"vehicle_type_id":"4","last_reported":1751137682,"current_range_meters":17200,"station_id":"","pricing_plan_id":"cebpf4jnsgd1na2vs0mg"},{"bike_id":"07ca4d32-f8d4-4205-8a35-c7ff63def9dc","system_id":"levelo_inurba_marseille","lat":43.225078,"lon":5.347877,"is_reserved":false,"is_disabled":false,"rental_uris":{"android":"levelo://app?vid=07ca4d32-f8d4-4205-8a35-c7ff63def9dc","ios":"levelo://app?vid=07ca4d32-f8d4-4205-8a35-c7ff63def9dc"},"vehicle_type_id":"4","last_reported":1751137682,"current_range_meters":17200,"station_id":"","pricing_plan_id":"cebpf4jnsgd1na2vs0mg"},{"bike_id":"8d7b6e54-2a91-41fe-a088-2a08fd28e6e6","system_id":"levelo_inurba_marseille","lat":43.29934,"lon":5.3655,"is_reserved":false,"is_disabled":false,"rental_uris":{"android":"levelo://app?vid=8d7b6e54-2a91-41fe-a088-2a08fd28e6e6","ios":"levelo://app?vid=8d7b6e54-2a91-41fe-a088-2a08fd28e6e6"},"vehicle_type_id":"4","last_reported":1751137682,"current_range_meters":17200,"station_id":"ce4bgm92rcd13ifvqbr0","pricing_plan_id":"cebpf4jnsgd1na2vs0mg"},{"bike_id":"9dee4328-f5fd-4e61-a54e-558109a99176","system_id":"levelo_inurba_marseille","lat":43.3095,"lon":5.39029,"is_reserved":false,"is_disabled":false,"rental_uris":{"android":"levelo://app?vid=9dee4328-f5fd-4e61-a54e-558109a99176","ios":"levelo://app?vid=9dee4328-f5fd-4e61-a54e-558109a99176"},"vehicle_type_id":"4","last_reported":1751137682,"current_range_meters":17200,"station_id":"ce4bgup2rcd13ifvqco0","pricing_plan_id":"cebpf4jnsgd1na2vs0mg"},{"bike_id":"775e90dd-a1a2-44c1-9560-122d01eafd4d","system_id":"levelo_inurba_marseille","lat":43.28038,"lon":5.36942,"is_reserved":false,"is_disabled":false,"rental_uris":{"android":"levelo://app?vid=775e90dd-a1a2-44c1-9560-122d01eafd4d","ios":"levelo://app?vid=775e90dd-a1a2-44c1-9560-122d01eafd4d"},"vehicle_type_id":"4","last_reported":1751137682,"current_range_meters":17200,"station_id":"ce4bha12rcd13ifvqef0","pricing_plan_id":"cebpf4jnsgd1na2vs0mg"},{"bike_id":"9ec72034-8a3a-4a26-984d-d47e0467acbc","system_id":"levelo_inurba_marseille","lat":43.28471,"lon":5.35873,"is_reserved":false,"is_disabled":false,"rental_uris":{"android":"levelo://app?vid=9ec72034-8a3a-4a26-984d-d47e0467acbc","ios":"levelo://app?vid=9ec72034-8a3a-4a26-984d-d47e0467acbc"},"vehicle_type_id":"4","last_reported":1751137682,"current_range_meters":17200,"station_id":"ce4bhah2rcd13ifvqei0","pricing_plan_id":"cebpf4jnsgd1na2vs0mg"},{"bike_id":"aa5557ec-ab53-419c-b67e-c2ce31ca5ef3","system_id":"levelo_inurba_marseille","lat":43.27319,"lon":5.39122,"is_reserved":false,"is_disabled":false,"rental_uris":{"android":"levelo://app?vid=aa5557ec-ab53-419c-b67e-c2ce31ca5ef3","ios":"levelo://app?vid=aa5557ec-ab53-419c-b67e-c2ce31ca5ef3"},"vehicle_type_id":"4","last_reported":1751137682,"current_range_meters":17200,"station_id":"ce4bhgp2rcd13ifvqfe0","pricing_plan_id":"cebpf4jnsgd1na2vs0mg"},{"bike_id":"700b998e-e1ba-4bac-b241-064080001f2b","system_id":"levelo_inurba_marseille","lat":43.32279,"lon":5.38288,"is_reserved":false,"is_disabled":false,"rental_uris":{"android":"levelo://app?vid=700b998e-e1ba-4bac-b241-064080001f2b","ios":"levelo://app?vid=700b998e-e1ba-4bac-b241-064080001f2b"},"vehicle_type_id":"4","last_reported":1751137682,"current_range_meters":17200,"station_id":"ce4bhr12rcd13ifvqhqg","pricing_plan_id":"cebpf4jnsgd1na2vs0mg"},{"bike_id":"706791be-79ff-4961-85f9-10b00214ce8a","system_id":"levelo_inurba_marseille","lat":43.33048,"lon":5.39063,"is_reserved":false,"is_disabled":false,"rental_uris":{"android":"levelo://app?vid=706791be-79ff-4961-85f9-10b00214ce8a","ios":"levelo://app?vid=706791be-79ff-4961-85f9-10b00214ce8a"},"vehicle_type_id":"4","last_reported":1751137682,"current_range_meters":17200,"station_id":"ce4bhr92rcd13ifvqhrg","pricing_plan_id":"cebpf4jnsgd1na2vs0mg"},{"bike_id":"2183b5e4-83fc-48e6-88b5-14ec39b15c42","system_id":"levelo_inurba_marseille","lat":43.30955,"lon":5.39028,"is_reserved":false,"is_disabled":false,"rental_uris":{"android":"levelo://app?vid=2183b5e4-83fc-48e6-88b5-14ec39b15c42","ios":"levelo://app?vid=2183b5e4-83fc-48e6-88b5-14ec39b15c42"},"vehicle_type_id":"4","last_reported":1751137682,"current_range_meters":17600,"station_id":"ce4bgup2rcd13ifvqco0","pricing_plan_id":"cebpf4jnsgd1na2vs0mg"},{"bike_id":"0e544019-e756-4648-8fa8-6fb6aaabc34a","system_id":"levelo_inurba_marseille","lat":43.29255,"lon":5.38428,"is_reserved":false,"is_disabled":false,"rental_uris":{"android":"levelo://app?vid=0e544019-e756-4648-8fa8-6fb6aaabc34a","ios":"levelo://app?vid=0e544019-e756-4648-8fa8-6fb6aaabc34a"},"vehicle_type_id":"4","last_reported":1751137682,"current_range_meters":17600,"station_id":"ce4bh692rcd13ifvqea0","pricing_plan_id":"cebpf4jnsgd1na2vs0mg"},{"bike_id":"9befb8e3-2212-4c14-8f3d-8f22c32c6905","system_id":"levelo_inurba_marseille","lat":43.29034,"lon":5.35894,"is_reserved":false,"is_disabled":false,"rental_uris":{"android":"levelo://app?vid=9befb8e3-2212-4c14-8f3d-8f22c32c6905","ios":"levelo://app?vid=9befb8e3-2212-4c14-8f3d-8f22c32c6905"},"vehicle_type_id":"4","last_reported":1751137682,"current_range_meters":17600,"station_id":"ce4bha92rcd13ifvqeg0","pricing_plan_id":"cebpf4jnsgd1na2vs0mg"},{"bike_id":"35606f12-d5bf-4384-8f41-ffc6231f5d51","system_id":"levelo_inurba_marseille","lat":43.29048,"lon":5.35912,"is_reserved":false,"is_disabled":false,"rental_uris":{"android":"levelo://app?vid=35606f12-d5bf-4384-8f41-ffc6231f5d51","ios":"levelo://app?vid=35606f12-d5bf-4384-8f41-ffc6231f5d51"},"vehicle_type_id":"4","last_reported":1751137682,"current_range_meters":17600,"station_id":"ce4bha92rcd13ifvqeg0","pricing_plan_id":"cebpf4jnsgd1na2vs0mg"},{"bike_id":"0d44df5d-0a80-410a-ac5a-36a517c821ae","system_id":"levelo_inurba_marseille","lat":43.27371,"lon":5.36259,"is_reserved":false,"is_disabled":false,"rental_uris":{"android":"levelo://app?vid=0d44df5d-0a80-410a-ac5a-36a517c821ae","ios":"levelo://app?vid=0d44df5d-0a80-410a-ac5a-36a517c821ae"},"vehicle_type_id":"4","last_reported":1751137682,"current_range_meters":17600,"station_id":"ce4bhbh2rcd13ifvqeo0","pricing_plan_id":"cebpf4jnsgd1na2vs0mg"},{"bike_id":"874a9feb-0a55-4e63-885b-f64f90d6117d","system_id":"levelo_inurba_marseille","lat":43.2797,"lon":5.38754,"is_reserved":false,"is_disabled":false,"rental_uris":{"android":"levelo://app?vid=874a9feb-0a55-4e63-885b-f64f90d6117d","ios":"levelo://app?vid=874a9feb-0a55-4e63-885b-f64f90d6117d"},"vehicle_type_id":"4","last_reported":1751137682,"current_range_meters":17600,"station_id":"ce4bhg12rcd13ifvqf80","pricing_plan_id":"cebpf4jnsgd1na2vs0mg"},{"bike_id":"87c7181b-706f-4ecc-bcb3-6dddc0ba4ffe","system_id":"levelo_inurba_marseille","lat":43.27302,"lon":5.39075,"is_reserved":false,"is_disabled":false,"rental_uris":{"android":"levelo://app?vid=87c7181b-706f-4ecc-bcb3-6dddc0ba4ffe","ios":"levelo://app?vid=87c7181b-706f-4ecc-bcb3-6dddc0ba4ffe"},"vehicle_type_id":"4","last_reported":1751137682,"current_range_meters":17600,"station_id":"ce4bhgp2rcd13ifvqfe0","pricing_plan_id":"cebpf4jnsgd1na2vs0mg"},{"bike_id":"813acca8-2b1b-4b37-bb34-3e1400236a3a","system_id":"levelo_inurba_marseille","lat":43.23174,"lon":5.39987,"is_reserved":false,"is_disabled":false,"rental_uris":{"android":"levelo://app?vid=813acca8-2b1b-4b37-bb34-3e1400236a3a","ios":"levelo://app?vid=813acca8-2b1b-4b37-bb34-3e1400236a3a"},"vehicle_type_id":"4","last_reported":1751137682,"current_range_meters":17600,"station_id":"ce4bhn12rcd13ifvqgqg","pricing_plan_id":"cebpf4jnsgd1na2vs0mg"},{"bike_id":"65e23ff5-c03c-4674-b49e-21369b8c055a","system_id":"levelo_inurba_marseille","lat":43.29422,"lon":5.38603,"is_reserved":false,"is_disabled":false,"rental_uris":{"android":"levelo://app?vid=65e23ff5-c03c-4674-b49e-21369b8c055a","ios":"levelo://app?vid=65e23ff5-c03c-4674-b49e-21369b8c055a"},"vehicle_type_id":"4","last_reported":1751137682,"current_range_meters":18000,"station_id":"ce4bh2h2rcd13ifvqdh0","pricing_plan_id":"cebpf4jnsgd1na2vs0mg"},{"bike_id":"fede116f-fe8f-4996-bd86-bef08c43bb15","system_id":"levelo_inurba_marseille","lat":43.28422,"lon":5.34992,"is_reserved":false,"is_disabled":false,"rental_uris":{"android":"levelo://app?vid=fede116f-fe8f-4996-bd86-bef08c43bb15","ios":"levelo://app?vid=fede116f-fe8f-4996-bd86-bef08c43bb15"},"vehicle_type_id":"4","last_reported":1751137682,"current_range_meters":18000,"station_id":"ce4bhbh2rcd13ifvqepg","pricing_plan_id":"cebpf4jnsgd1na2vs0mg"},{"bike_id":"6286aec4-7889-4e62-9c7f-a0f9de37fc58","system_id":"levelo_inurba_marseille","lat":43.27317,"lon":5.39105,"is_reserved":false,"is_disabled":false,"rental_uris":{"android":"levelo://app?vid=6286aec4-7889-4e62-9c7f-a0f9de37fc58","ios":"levelo://app?vid=6286aec4-7889-4e62-9c7f-a0f9de37fc58"},"vehicle_type_id":"4","last_reported":1751137682,"current_range_meters":18000,"station_id":"ce4bhgp2rcd13ifvqfe0","pricing_plan_id":"cebpf4jnsgd1na2vs0mg"},{"bike_id":"7acea039-cece-428a-81e2-85fbb5517403","system_id":"levelo_inurba_marseille","lat":43.287201,"lon":5.36088,"is_reserved":false,"is_disabled":false,"rental_uris":{"android":"levelo://app?vid=7acea039-cece-428a-81e2-85fbb5517403","ios":"levelo://app?vid=7acea039-cece-428a-81e2-85fbb5517403"},"vehicle_type_id":"4","last_reported":1751137682,"current_range_meters":18000,"station_id":"cki0cbj6b192h4jlfktg","pricing_plan_id":"cebpf4jnsgd1na2vs0mg"},{"bike_id":"6e53ad1f-d4f5-4de6-9418-67b290ec993f","system_id":"levelo_inurba_marseille","lat":43.30941,"lon":5.4103,"is_reserved":false,"is_disabled":false,"rental_uris":{"android":"levelo://app?vid=6e53ad1f-d4f5-4de6-9418-67b290ec993f","ios":"levelo://app?vid=6e53ad1f-d4f5-4de6-9418-67b290ec993f"},"vehicle_type_id":"4","last_reported":1751137682,"current_range_meters":18800,"station_id":"","pricing_plan_id":"cebpf4jnsgd1na2vs0mg"},{"bike_id":"3e82f598-9d1d-4257-8afa-a4dc7305de09","system_id":"levelo_inurba_marseille","lat":43.2122,"lon":5.35039,"is_reserved":false,"is_disabled":false,"rental_uris":{"android":"levelo://app?vid=3e82f598-9d1d-4257-8afa-a4dc7305de09","ios":"levelo://app?vid=3e82f598-9d1d-4257-8afa-a4dc7305de09"},"vehicle_type_id":"4","last_reported":1751137682,"current_range_meters":18800,"station_id":"","pricing_plan_id":"cebpf4jnsgd1na2vs0mg"},{"bike_id":"77626fc6-1b9f-45c8-97df-78e05ba88476","system_id":"levelo_inurba_marseille","lat":43.273743,"lon":5.362588,"is_reserved":false,"is_disabled":false,"rental_uris":{"android":"levelo://app?vid=77626fc6-1b9f-45c8-97df-78e05ba88476","ios":"levelo://app?vid=77626fc6-1b9f-45c8-97df-78e05ba88476"},"vehicle_type_id":"4","last_reported":1751137682,"current_range_meters":18800,"station_id":"ce4bhbh2rcd13ifvqeo0","pricing_plan_id":"cebpf4jnsgd1na2vs0mg"},{"bike_id":"22ce862b-ab25-4106-9135-f733f855867c","system_id":"levelo_inurba_marseille","lat":43.31767,"lon":5.39013,"is_reserved":false,"is_disabled":false,"rental_uris":{"android":"levelo://app?vid=22ce862b-ab25-4106-9135-f733f855867c","ios":"levelo://app?vid=22ce862b-ab25-4106-9135-f733f855867c"},"vehicle_type_id":"4","last_reported":1751137682,"current_range_meters":18800,"station_id":"ce4bhqp2rcd13ifvqhng","pricing_plan_id":"cebpf4jnsgd1na2vs0mg"},{"bike_id":"bf24b26e-7f51-4120-9a48-54c87edaa2f7","system_id":"levelo_inurba_marseille","lat":43.21194,"lon":5.35071,"is_reserved":false,"is_disabled":false,"rental_uris":{"android":"levelo://app?vid=bf24b26e-7f51-4120-9a48-54c87edaa2f7","ios":"levelo://app?vid=bf24b26e-7f51-4120-9a48-54c87edaa2f7"},"vehicle_type_id":"4","last_reported":1751137682,"current_range_meters":18800,"station_id":"st_cvj6sg6p6f1abm77japg","pricing_plan_id":"cebpf4jnsgd1na2vs0mg"},{"bike_id":"7cd73daf-6410-4b72-a872-e5224e9d29ff","system_id":"levelo_inurba_marseille","lat":43.27409,"lon":5.41176,"is_reserved":false,"is_disabled":false,"rental_uris":{"android":"levelo://app?vid=7cd73daf-6410-4b72-a872-e5224e9d29ff","ios":"levelo://app?vid=7cd73daf-6410-4b72-a872-e5224e9d29ff"},"vehicle_type_id":"4","last_reported":1751137682,"current_range_meters":19200,"station_id":"","pricing_plan_id":"cebpf4jnsgd1na2vs0mg"},{"bike_id":"2e15a96b-9fb0-4887-a587-027f183c4fac","system_id":"levelo_inurba_marseille","lat":43.29633,"lon":5.40592,"is_reserved":false,"is_disabled":false,"rental_uris":{"android":"levelo://app?vid=2e15a96b-9fb0-4887-a587-027f183c4fac","ios":"levelo://app?vid=2e15a96b-9fb0-4887-a587-027f183c4fac"},"vehicle_type_id":"4","last_reported":1751137682,"current_range_meters":19200,"station_id":"ce4bh0h2rcd13ifvqd60","pricing_plan_id":"cebpf4jnsgd1na2vs0mg"},{"bike_id":"8a73d86a-7065-40d5-98d3-35d606225561","system_id":"levelo_inurba_marseille","lat":43.26214,"lon":5.37447,"is_reserved":false,"is_disabled":false,"rental_uris":{"android":"levelo://app?vid=8a73d86a-7065-40d5-98d3-35d606225561","ios":"levelo://app?vid=8a73d86a-7065-40d5-98d3-35d606225561"},"vehicle_type_id":"4","last_reported":1751137682,"current_range_meters":19200,"station_id":"ce4bhgp2rcd13ifvqfc0","pricing_plan_id":"cebpf4jnsgd1na2vs0mg"},{"bike_id":"252f49c9-399d-43ef-a295-5584c54147b9","system_id":"levelo_inurba_marseille","lat":43.26781,"lon":5.39422,"is_reserved":false,"is_disabled":false,"rental_uris":{"android":"levelo://app?vid=252f49c9-399d-43ef-a295-5584c54147b9","ios":"levelo://app?vid=252f49c9-399d-43ef-a295-5584c54147b9"},"vehicle_type_id":"4","last_reported":1751137682,"current_range_meters":19200,"station_id":"ce4bhh12rcd13ifvqfg0","pricing_plan_id":"cebpf4jnsgd1na2vs0mg"},{"bike_id":"e283eccf-a5d6-47f6-8859-92f12eb0ae24","system_id":"levelo_inurba_marseille","lat":43.27245,"lon":5.39165,"is_reserved":false,"is_disabled":false,"rental_uris":{"android":"levelo://app?vid=e283eccf-a5d6-47f6-8859-92f12eb0ae24","ios":"levelo://app?vid=e283eccf-a5d6-47f6-8859-92f12eb0ae24"},"vehicle_type_id":"4","last_reported":1751137682,"current_range_meters":19200,"station_id":"ce4bhhp2rcd13ifvqfm0","pricing_plan_id":"cebpf4jnsgd1na2vs0mg"},{"bike_id":"a48b3707-0767-4098-a58f-58703817fe2c","system_id":"levelo_inurba_marseille","lat":43.3205,"lon":5.41548,"is_reserved":false,"is_disabled":false,"rental_uris":{"android":"levelo://app?vid=a48b3707-0767-4098-a58f-58703817fe2c","ios":"levelo://app?vid=a48b3707-0767-4098-a58f-58703817fe2c"},"vehicle_type_id":"4","last_reported":1751137682,"current_range_meters":19200,"station_id":"ce4bhq92rcd13ifvqhkg","pricing_plan_id":"cebpf4jnsgd1na2vs0mg"},{"bike_id":"7f212f1e-9b22-4ad3-88bb-18d999719345","system_id":"levelo_inurba_marseille","lat":43.2119,"lon":5.35071,"is_reserved":false,"is_disabled":false,"rental_uris":{"android":"levelo://app?vid=7f212f1e-9b22-4ad3-88bb-18d999719345","ios":"levelo://app?vid=7f212f1e-9b22-4ad3-88bb-18d999719345"},"vehicle_type_id":"4","last_reported":1751137682,"current_range_meters":19200,"station_id":"st_cvj6sg6p6f1abm77japg","pricing_plan_id":"cebpf4jnsgd1na2vs0mg"},{"bike_id":"f8ca590d-fd1f-4743-94b3-a62ff8851840","system_id":"levelo_inurba_marseille","lat":43.29696,"lon":5.36605,"is_reserved":false,"is_disabled":false,"rental_uris":{"android":"levelo://app?vid=f8ca590d-fd1f-4743-94b3-a62ff8851840","ios":"levelo://app?vid=f8ca590d-fd1f-4743-94b3-a62ff8851840"},"vehicle_type_id":"4","last_reported":1751137682,"current_range_meters":19600,"station_id":"ce4bgn12rcd13ifvqbt0","pricing_plan_id":"cebpf4jnsgd1na2vs0mg"},{"bike_id":"7f92f1ef-cd0e-4faa-a5d1-063032a5dd20","system_id":"levelo_inurba_marseille","lat":43.29529,"lon":5.39386,"is_reserved":false,"is_disabled":false,"rental_uris":{"android":"levelo://app?vid=7f92f1ef-cd0e-4faa-a5d1-063032a5dd20","ios":"levelo://app?vid=7f92f1ef-cd0e-4faa-a5d1-063032a5dd20"},"vehicle_type_id":"4","last_reported":1751137682,"current_range_meters":19600,"station_id":"ce4bh292rcd13ifvqdf0","pricing_plan_id":"cebpf4jnsgd1na2vs0mg"},{"bike_id":"694c7c4b-e51a-4ab7-99c2-d3428516e98b","system_id":"levelo_inurba_marseille","lat":43.26692,"lon":5.38256,"is_reserved":false,"is_disabled":false,"rental_uris":{"android":"levelo://app?vid=694c7c4b-e51a-4ab7-99c2-d3428516e98b","ios":"levelo://app?vid=694c7c4b-e51a-4ab7-99c2-d3428516e98b"},"vehicle_type_id":"4","last_reported":1751137682,"current_range_meters":19600,"station_id":"ce4bhg92rcd13ifvqf90","pricing_plan_id":"cebpf4jnsgd1na2vs0mg"},{"bike_id":"bb7f91ae-2949-4cc5-821b-99f4d2b71992","system_id":"levelo_inurba_marseille","lat":43.27214,"lon":5.39167,"is_reserved":false,"is_disabled":false,"rental_uris":{"android":"levelo://app?vid=bb7f91ae-2949-4cc5-821b-99f4d2b71992","ios":"levelo://app?vid=bb7f91ae-2949-4cc5-821b-99f4d2b71992"},"vehicle_type_id":"4","last_reported":1751137682,"current_range_meters":19600,"station_id":"ce4bhhp2rcd13ifvqfm0","pricing_plan_id":"cebpf4jnsgd1na2vs0mg"},{"bike_id":"8560ffbc-d653-4eea-a935-35660986a318","system_id":"levelo_inurba_marseille","lat":43.28413,"lon":5.34987,"is_reserved":false,"is_disabled":false,"rental_uris":{"android":"levelo://app?vid=8560ffbc-d653-4eea-a935-35660986a318","ios":"levelo://app?vid=8560ffbc-d653-4eea-a935-35660986a318"},"vehicle_type_id":"4","last_reported":1751137682,"current_range_meters":20000,"station_id":"ce4bhbh2rcd13ifvqepg","pricing_plan_id":"cebpf4jnsgd1na2vs0mg"},{"bike_id":"141beece-96d6-44a9-8784-593601322aca","system_id":"levelo_inurba_marseille","lat":43.2922,"lon":5.36049,"is_reserved":false,"is_disabled":false,"rental_uris":{"android":"levelo://app?vid=141beece-96d6-44a9-8784-593601322aca","ios":"levelo://app?vid=141beece-96d6-44a9-8784-593601322aca"},"vehicle_type_id":"4","last_reported":1751137682,"current_range_meters":20000,"station_id":"ce4bhbh2rcd13ifvqeqg","pricing_plan_id":"cebpf4jnsgd1na2vs0mg"},{"bike_id":"b5da330b-b13d-4ce7-94a4-79d99100431b","system_id":"levelo_inurba_marseille","lat":43.3177,"lon":5.3901,"is_reserved":false,"is_disabled":false,"rental_uris":{"android":"levelo://app?vid=b5da330b-b13d-4ce7-94a4-79d99100431b","ios":"levelo://app?vid=b5da330b-b13d-4ce7-94a4-79d99100431b"},"vehicle_type_id":"4","last_reported":1751137682,"current_range_meters":20000,"station_id":"ce4bhqp2rcd13ifvqhng","pricing_plan_id":"cebpf4jnsgd1na2vs0mg"},{"bike_id":"e7641e58-176f-485d-9342-129003cdc52b","system_id":"levelo_inurba_marseille","lat":43.32117,"lon":5.36765,"is_reserved":false,"is_disabled":false,"rental_uris":{"android":"levelo://app?vid=e7641e58-176f-485d-9342-129003cdc52b","ios":"levelo://app?vid=e7641e58-176f-485d-9342-129003cdc52b"},"vehicle_type_id":"4","last_reported":1751137682,"current_range_meters":20000,"station_id":"ce4bhrh2rcd13ifvqhug","pricing_plan_id":"cebpf4jnsgd1na2vs0mg"},{"bike_id":"340f8749-f0de-426e-b0dd-c49414211338","system_id":"levelo_inurba_marseille","lat":43.24735,"lon":5.39263,"is_reserved":false,"is_disabled":false,"rental_uris":{"android":"levelo://app?vid=340f8749-f0de-426e-b0dd-c49414211338","ios":"levelo://app?vid=340f8749-f0de-426e-b0dd-c49414211338"},"vehicle_type_id":"4","last_reported":1751137682,"current_range_meters":20400,"station_id":"","pricing_plan_id":"cebpf4jnsgd1na2vs0mg"},{"bike_id":"54e6c144-89e2-4352-bee4-0bc5a4da8819","system_id":"levelo_inurba_marseille","lat":43.326602,"lon":5.409856,"is_reserved":false,"is_disabled":false,"rental_uris":{"android":"levelo://app?vid=54e6c144-89e2-4352-bee4-0bc5a4da8819","ios":"levelo://app?vid=54e6c144-89e2-4352-bee4-0bc5a4da8819"},"vehicle_type_id":"4","last_reported":1751137682,"current_range_meters":20400,"station_id":"ce4bhpp2rcd13ifvqhgg","pricing_plan_id":"cebpf4jnsgd1na2vs0mg"},{"bike_id":"ff359b06-e82b-4518-b602-f9c62162a27d","system_id":"levelo_inurba_marseille","lat":43.211858,"lon":5.350782,"is_reserved":false,"is_disabled":false,"rental_uris":{"android":"levelo://app?vid=ff359b06-e82b-4518-b602-f9c62162a27d","ios":"levelo://app?vid=ff359b06-e82b-4518-b602-f9c62162a27d"},"vehicle_type_id":"4","last_reported":1751137682,"current_range_meters":20400,"station_id":"st_cvj6sg6p6f1abm77japg","pricing_plan_id":"cebpf4jnsgd1na2vs0mg"},{"bike_id":"2a7d4522-b0dd-48c1-8653-7a6d0e58cc43","system_id":"levelo_inurba_marseille","lat":43.32076,"lon":5.40129,"is_reserved":false,"is_disabled":false,"rental_uris":{"android":"levelo://app?vid=2a7d4522-b0dd-48c1-8653-7a6d0e58cc43","ios":"levelo://app?vid=2a7d4522-b0dd-48c1-8653-7a6d0e58cc43"},"vehicle_type_id":"4","last_reported":1751137682,"current_range_meters":20800,"station_id":"","pricing_plan_id":"cebpf4jnsgd1na2vs0mg"},{"bike_id":"baf8283d-da3b-4ed0-bc66-8c0af8b88a2a","system_id":"levelo_inurba_marseille","lat":43.28414,"lon":5.34977,"is_reserved":false,"is_disabled":false,"rental_uris":{"android":"levelo://app?vid=baf8283d-da3b-4ed0-bc66-8c0af8b88a2a","ios":"levelo://app?vid=baf8283d-da3b-4ed0-bc66-8c0af8b88a2a"},"vehicle_type_id":"4","last_reported":1751137682,"current_range_meters":20800,"station_id":"ce4bhbh2rcd13ifvqepg","pricing_plan_id":"cebpf4jnsgd1na2vs0mg"},{"bike_id":"2efc0165-7fd0-488a-913d-6bbad03870a6","system_id":"levelo_inurba_marseille","lat":43.24658,"lon":5.38893,"is_reserved":false,"is_disabled":false,"rental_uris":{"android":"levelo://app?vid=2efc0165-7fd0-488a-913d-6bbad03870a6","ios":"levelo://app?vid=2efc0165-7fd0-488a-913d-6bbad03870a6"},"vehicle_type_id":"4","last_reported":1751137682,"current_range_meters":20800,"station_id":"ce4bhg12rcd13ifvqf60","pricing_plan_id":"cebpf4jnsgd1na2vs0mg"},