{"last_updated":1747933759,"ttl":60,"version":"2.2","data":{"bikes":[{"bike_id":"c0b9fd4f-e181-46ce-b0bf-f5119973334f","system_id":"levelo_inurba_marseille","lat":43.33771,"lon":5.37424,"is_reserved":false,"is_disabled":true,"rental_uris":{"android":"levelo://app?vid=c0b9fd4f-e181-46ce-b0bf-f5119973334f","ios":"levelo://app?vid=c0b9fd4f-e181-46ce-b0bf-f5119973334f"},"vehicle_type_id":"4","last_reported":1747933760,"current_range_meters":0,"station_id":"","pricing_plan_id":"cebpf4jnsgd1na2vs0mg"},{"bike_id":"99f73d8c-ff21-451c-8082-80384eaeabfc","system_id":"levelo_inurba_marseille","lat":43.305777,"lon":5.4015,"is_reserved":false,"is_disabled":true,"rental_uris":{"android":"levelo://app?vid=99f73d8c-ff21-451c-8082-80384eaeabfc","ios":"levelo://app?vid=99f73d8c-ff21-451c-8082-80384eaeabfc"},"vehicle_type_id":"4","last_reported":1747933760,"current_range_meters":0,"station_id":"","pricing_plan_id":"cebpf4jnsgd1na2vs0mg"},{"bike_id":"c306fa7d-481e-4ae3-9585-ff4c1f5ddcb9","system_id":"levelo_inurba_marseille","lat":43.34943,"lon":5.37894,"is_reserved":false,"is_disabled":true,"rental_uris":{"android":"levelo://app?vid=c306fa7d-481e-4ae3-9585-ff4c1f5ddcb9","ios":"levelo://app?vid=c306fa7d-481e-4ae3-9585-ff4c1f5ddcb9"},"vehicle_type_id":"4","last_reported":1747933760,"current_range_meters":0,"station_id":"","pricing_plan_id":"cebpf4jnsgd1na2vs0mg"},{"bike_id":"c2b4a03e-0b64-4ca0-8ea3-612bc6668100","system_id":"levelo_inurba_marseille","lat":43.31409,"lon":5.37582,"is_reserved":false,"is_disabled":true,"rental_uris":{"android":"levelo://app?vid=c2b4a03e-0b64-4ca0-8ea3-612bc6668100","ios":"levelo://app?vid=c2b4a03e-0b64-4ca0-8ea3-612bc6668100"},"vehicle_type_id":"4","last_reported":1747933760,"current_range_meters":0,"station_id":"","pricing_plan_id":"cebpf4jnsgd1na2vs0mg"},{"bike_id":"ddea1036-6b99-4d66-853c-ddea54e4d5b4","system_id":"levelo_inurba_marseille","lat":43.27731,"lon":5.38607,"is_reserved":false,"is_disabled":true,"rental_uris":{"android":"levelo://app?vid=ddea1036-6b99-4d66-853c-ddea54e4d5b4","ios":"levelo://app?vid=ddea1036-6b99-4d66-853c-ddea54e4d5b4"},"vehicle_type_id":"4","last_reported":1747933760,"current_range_meters":0,"station_id":"","pricing_plan_id":"cebpf4jnsgd1na2vs0mg"},{"bike_id":"8f0f531d-6a65-4647-8a6f-baa3d982f42f","system_id":"levelo_inurba_marseille","lat":43.28129,"lon":5.42551,"is_reserved":false,"is_disabled":true,"rental_uris":{"android":"levelo://app?vid=8f0f531d-6a65-4647-8a6f-baa3d982f42f","ios":"levelo://app?vid=8f0f531d-6a65-4647-8a6f-baa3d982f42f"},"vehicle_type_id":"4","last_reported":1747933760,"current_range_meters":0,"station_id":"","pricing_plan_id":"cebpf4jnsgd1na2vs0mg"},{"bike_id":"56ae3812-e361-4564-b157-4dc0683e3b6f","system_id":"levelo_inurba_marseille","lat":43.26521,"lon":5.3905,"is_reserved":false,"is_disabled":true,"rental_uris":{"android":"levelo://app?vid=56ae3812-e361-4564-b157-4dc0683e3b6f","ios":"levelo://app?vid=56ae3812-e361-4564-b157-4dc0683e3b6f"},"vehicle_type_id":"4","last_reported":1747933760,"current_range_meters":0,"station_id":"","pricing_plan_id":"cebpf4jnsgd1na2vs0mg"},{"bike_id":"138e0a65-efcb-4c7f-a002-7ca5f532909d","system_id":"levelo_inurba_marseille","lat":43.30989,"lon":5.38464,"is_reserved":false,"is_disabled":true,"rental_uris":{"android":"levelo://app?vid=138e0a65-efcb-4c7f-a002-7ca5f532909d","ios":"levelo://app?vid=138e0a65-efcb-4c7f-a002-7ca5f532909d"},"vehicle_type_id":"4","last_reported":1747933760,"current_range_meters":0,"station_id":"","pricing_plan_id":"cebpf4jnsgd1na2vs0mg"},{"bike_id":"70c5c5ad-5e66-4a49-9450-c4d67d96b788","system_id":"levelo_inurba_marseille","lat":43.271312,"lon":5.427386,"is_reserved":false,"is_disabled":true,"rental_uris":{"android":"levelo://app?vid=70c5c5ad-5e66-4a49-9450-c4d67d96b788","ios":"levelo://app?vid=70c5c5ad-5e66-4a49-9450-c4d67d96b788"},"vehicle_type_id":"4","last_reported":1747933760,"current_range_meters":0,"station_id":"","pricing_plan_id":"cebpf4jnsgd1na2vs0mg"},{"bike_id":"9913adaa-d53d-44af-8cc0-e1c41d052752","system_id":"levelo_inurba_marseille","lat":43.27988,"lon":5.38617,"is_reserved":false,"is_disabled":true,"rental_uris":{"android":"levelo://app?vid=9913adaa-d53d-44af-8cc0-e1c41d052752","ios":"levelo://app?vid=9913adaa-d53d-44af-8cc0-e1c41d052752"},"vehicle_type_id":"4","last_reported":1747933760,"current_range_meters":0,"station_id":"","pricing_plan_id":"cebpf4jnsgd1na2vs0mg"},{"bike_id":"15dcdbbd-a41e-43eb-9ed6-26ec15ce7a50","system_id":"levelo_inurba_marseille","lat":43.21406,"lon":5.34122,"is_reserved":false,"is_disabled":true,"rental_uris":{"android":"levelo://app?vid=15dcdbbd-a41e-43eb-9ed6-26ec15ce7a50","ios":"levelo://app?vid=15dcdbbd-a41e-43eb-9ed6-26ec15ce7a50"},"vehicle_type_id":"4","last_reported":1747933760,"current_range_meters":0,"station_id":"","pricing_plan_id":"cebpf4jnsgd1na2vs0mg"},{"bike_id":"e9dd3aa4-b5e7-4480-926d-d7f537719bfa","system_id":"levelo_inurba_marseille","lat":43.230331,"lon":5.401847,"is_reserved":false,"is_disabled":true,"rental_uris":{"android":"levelo://app?vid=e9dd3aa4-b5e7-4480-926d-d7f537719bfa","ios":"levelo://app?vid=e9dd3aa4-b5e7-4480-926d-d7f537719bfa"},"vehicle_type_id":"4","last_reported":1747933760,"current_range_meters":0,"station_id":"","pricing_plan_id":"cebpf4jnsgd1na2vs0mg"},{"bike_id":"14603e41-b2dd-4757-a53c-2e366aa4f983","system_id":"levelo_inurba_marseille","lat":43.26993,"lon":5.42825,"is_reserved":false,"is_disabled":true,"rental_uris":{"android":"levelo://app?vid=14603e41-b2dd-4757-a53c-2e366aa4f983","ios":"levelo://app?vid=14603e41-b2dd-4757-a53c-2e366aa4f983"},"vehicle_type_id":"4","last_reported":1747933760,"current_range_meters":0,"station_id":"","pricing_plan_id":"cebpf4jnsgd1na2vs0mg"},{"bike_id":"94075b27-a985-48ef-a34b-f3778b444f65","system_id":"levelo_inurba_marseille","lat":43.307953,"lon":5.381542,"is_reserved":false,"is_disabled":true,"rental_uris":{"android":"levelo://app?vid=94075b27-a985-48ef-a34b-f3778b444f65","ios":"levelo://app?vid=94075b27-a985-48ef-a34b-f3778b444f65"},"vehicle_type_id":"4","last_reported":1747933760,"current_range_meters":0,"station_id":"ce4bgt12rcd13ifvqce0","pricing_plan_id":"cebpf4jnsgd1na2vs0mg"},{"bike_id":"5281ff50-15a3-4882-a775-51088d6a98cc","system_id":"levelo_inurba_marseille","lat":43.31138,"lon":5.37771,"is_reserved":false,"is_disabled":true,"rental_uris":{"android":"levelo://app?vid=5281ff50-15a3-4882-a775-51088d6a98cc","ios":"levelo://app?vid=5281ff50-15a3-4882-a775-51088d6a98cc"},"vehicle_type_id":"4","last_reported":1747933760,"current_range_meters":0,"station_id":"ce4bgt92rcd13ifvqcg0","pricing_plan_id":"cebpf4jnsgd1na2vs0mg"},{"bike_id":"72017b92-0e97-47f6-837b-cf83f52cb068","system_id":"levelo_inurba_marseille","lat":43.31112,"lon":5.37761,"is_reserved":false,"is_disabled":true,"rental_uris":{"android":"levelo://app?vid=72017b92-0e97-47f6-837b-cf83f52cb068","ios":"levelo://app?vid=72017b92-0e97-47f6-837b-cf83f52cb068"},"vehicle_type_id":"4","last_reported":1747933760,"current_range_meters":0,"station_id":"ce4bgt92rcd13ifvqcg0","pricing_plan_id":"cebpf4jnsgd1na2vs0mg"},{"bike_id":"b0304abc-0415-47e0-9089-a5599eac7811","system_id":"levelo_inurba_marseille","lat":43.302243,"lon":5.39429,"is_reserved":false,"is_disabled":true,"rental_uris":{"android":"levelo://app?vid=b0304abc-0415-47e0-9089-a5599eac7811","ios":"levelo://app?vid=b0304abc-0415-47e0-9089-a5599eac7811"},"vehicle_type_id":"4","last_reported":1747933760,"current_range_meters":0,"station_id":"ce4bh0p2rcd13ifvqd70","pricing_plan_id":"cebpf4jnsgd1na2vs0mg"},{"bike_id":"e21d4620-9b0e-4e0b-a9d3-e2fb724525d8","system_id":"levelo_inurba_marseille","lat":43.28364,"lon":5.38102,"is_reserved":false,"is_disabled":true,"rental_uris":{"android":"levelo://app?vid=e21d4620-9b0e-4e0b-a9d3-e2fb724525d8","ios":"levelo://app?vid=e21d4620-9b0e-4e0b-a9d3-e2fb724525d8"},"vehicle_type_id":"4","last_reported":1747933760,"current_range_meters":0,"station_id":"ce4bh412rcd13ifvqdr0","pricing_plan_id":"cebpf4jnsgd1na2vs0mg"},{"bike_id":"8fab68f3-a366-4047-ae6c-02bfd676cfcd","system_id":"levelo_inurba_marseille","lat":43.29002,"lon":5.3561,"is_reserved":false,"is_disabled":true,"rental_uris":{"android":"levelo://app?vid=8fab68f3-a366-4047-ae6c-02bfd676cfcd","ios":"levelo://app?vid=8fab68f3-a366-4047-ae6c-02bfd676cfcd"},"vehicle_type_id":"4","last_reported":1747933760,"current_range_meters":0,"station_id":"ce4bhb92rcd13ifvqen0","pricing_plan_id":"cebpf4jnsgd1na2vs0mg"},{"bike_id":"e9e99b60-6afc-48a0-90ab-e8d4b190bb83","system_id":"levelo_inurba_marseille","lat":43.28271,"lon":5.35059,"is_reserved":false,"is_disabled":true,"rental_uris":{"android":"levelo://app?vid=e9e99b60-6afc-48a0-90ab-e8d4b190bb83","ios":"levelo://app?vid=e9e99b60-6afc-48a0-90ab-e8d4b190bb83"},"vehicle_type_id":"4","last_reported":1747933760,"current_range_meters":0,"station_id":"ce4bhbp2rcd13ifvqerg","pricing_plan_id":"cebpf4jnsgd1na2vs0mg"},{"bike_id":"ad49357a-f091-49cb-befa-f9de49a06f92","system_id":"levelo_inurba_marseille","lat":43.28262,"lon":5.35087,"is_reserved":false,"is_disabled":true,"rental_uris":{"android":"levelo://app?vid=ad49357a-f091-49cb-befa-f9de49a06f92","ios":"levelo://app?vid=ad49357a-f091-49cb-befa-f9de49a06f92"},"vehicle_type_id":"4","last_reported":1747933760,"current_range_meters":0,"station_id":"ce4bhbp2rcd13ifvqerg","pricing_plan_id":"cebpf4jnsgd1na2vs0mg"},{"bike_id":"83abf2ff-a44a-45d3-88c1-f996a52257fb","system_id":"levelo_inurba_marseille","lat":43.2797,"lon":5.38741,"is_reserved":false,"is_disabled":true,"rental_uris":{"android":"levelo://app?vid=83abf2ff-a44a-45d3-88c1-f996a52257fb","ios":"levelo://app?vid=83abf2ff-a44a-45d3-88c1-f996a52257fb"},"vehicle_type_id":"4","last_reported":1747933760,"current_range_meters":0,"station_id":"ce4bhg12rcd13ifvqf80","pricing_plan_id":"cebpf4jnsgd1na2vs0mg"},{"bike_id":"9584bd62-b741-432c-897a-542b1c137582","system_id":"levelo_inurba_marseille","lat":43.27837,"lon":5.39189,"is_reserved":false,"is_disabled":true,"rental_uris":{"android":"levelo://app?vid=9584bd62-b741-432c-897a-542b1c137582","ios":"levelo://app?vid=9584bd62-b741-432c-897a-542b1c137582"},"vehicle_type_id":"4","last_reported":1747933760,"current_range_meters":0,"station_id":"ce4bhjp2rcd13ifvqga0","pricing_plan_id":"cebpf4jnsgd1na2vs0mg"},{"bike_id":"8edaf7ca-c6f9-4597-89d3-4891595aeec2","system_id":"levelo_inurba_marseille","lat":43.24179,"lon":5.39734,"is_reserved":false,"is_disabled":true,"rental_uris":{"android":"levelo://app?vid=8edaf7ca-c6f9-4597-89d3-4891595aeec2","ios":"levelo://app?vid=8edaf7ca-c6f9-4597-89d3-4891595aeec2"},"vehicle_type_id":"4","last_reported":1747933760,"current_range_meters":0,"station_id":"ce4bhn12rcd13ifvqgpg","pricing_plan_id":"cebpf4jnsgd1na2vs0mg"},{"bike_id":"1539c708-ed9b-4a02-811a-8a649ebdf968","system_id":"levelo_inurba_marseille","lat":43.30385,"lon":5.4187,"is_reserved":false,"is_disabled":true,"rental_uris":{"android":"levelo://app?vid=1539c708-ed9b-4a02-811a-8a649ebdf968","ios":"levelo://app?vid=1539c708-ed9b-4a02-811a-8a649ebdf968"},"vehicle_type_id":"4","last_reported":1747933760,"current_range_meters":0,"station_id":"ce4bhop2rcd13ifvqh7g","pricing_plan_id":"cebpf4jnsgd1na2vs0mg"},{"bike_id":"bff44204-d3d2-4c47-bac6-bf32654a4d61","system_id":"levelo_inurba_marseille","lat":43.29957,"lon":5.41317,"is_reserved":false,"is_disabled":true,"rental_uris":{"android":"levelo://app?vid=bff44204-d3d2-4c47-bac6-bf32654a4d61","ios":"levelo://app?vid=bff44204-d3d2-4c47-bac6-bf32654a4d61"},"vehicle_type_id":"4","last_reported":1747933760,"current_range_meters":0,"station_id":"ce4bhp12rcd13ifvqh9g","pricing_plan_id":"cebpf4jnsgd1na2vs0mg"},{"bike_id":"e6443527-757d-4b43-946e-ae12740f228a","system_id":"levelo_inurba_marseille","lat":43.29902,"lon":5.43669,"is_reserved":false,"is_disabled":true,"rental_uris":{"android":"levelo://app?vid=e6443527-757d-4b43-946e-ae12740f228a","ios":"levelo://app?vid=e6443527-757d-4b43-946e-ae12740f228a"},"vehicle_type_id":"4","last_reported":1747933760,"current_range_meters":0,"station_id":"ce4bhpp2rcd13ifvqhfg","pricing_plan_id":"cebpf4jnsgd1na2vs0mg"},{"bike_id":"f6e0a981-db2e-4695-a996-820453f5332a","system_id":"levelo_inurba_marseille","lat":43.32334,"lon":5.40618,"is_reserved":false,"is_disabled":true,"rental_uris":{"android":"levelo://app?vid=f6e0a981-db2e-4695-a996-820453f5332a","ios":"levelo://app?vid=f6e0a981-db2e-4695-a996-820453f5332a"},"vehicle_type_id":"4","last_reported":1747933760,"current_range_meters":0,"station_id":"ce4bhq92rcd13ifvqhjg","pricing_plan_id":"cebpf4jnsgd1na2vs0mg"},{"bike_id":"819831cc-16b6-413e-87d2-1f12ec385b19","system_id":"levelo_inurba_marseille","lat":43.30938,"lon":5.40143,"is_reserved":false,"is_disabled":true,"rental_uris":{"android":"levelo://app?vid=819831cc-16b6-413e-87d2-1f12ec385b19","ios":"levelo://app?vid=819831cc-16b6-413e-87d2-1f12ec385b19"},"vehicle_type_id":"4","last_reported":1747933760,"current_range_meters":400,"station_id":"ce4bgvp2rcd13ifvqct0","pricing_plan_id":"cebpf4jnsgd1na2vs0mg"},{"bike_id":"a48257a4-35f8-4931-a769-62509faaba98","system_id":"levelo_inurba_marseille","lat":43.2927,"lon":5.3686,"is_reserved":false,"is_disabled":true,"rental_uris":{"android":"levelo://app?vid=a48257a4-35f8-4931-a769-62509faaba98","ios":"levelo://app?vid=a48257a4-35f8-4931-a769-62509faaba98"},"vehicle_type_id":"4","last_reported":1747933760,"current_range_meters":400,"station_id":"ce4bhbp2rcd13ifvqesg","pricing_plan_id":"cebpf4jnsgd1na2vs0mg"},{"bike_id":"ba141140-523c-4775-a78e-e7d6a06b0bba","system_id":"levelo_inurba_marseille","lat":43.25584,"lon":5.38229,"is_reserved":false,"is_disabled":true,"rental_uris":{"android":"levelo://app?vid=ba141140-523c-4775-a78e-e7d6a06b0bba","ios":"levelo://app?vid=ba141140-523c-4775-a78e-e7d6a06b0bba"},"vehicle_type_id":"4","last_reported":1747933760,"current_range_meters":400,"station_id":"ce4bhih2rcd13ifvqfs0","pricing_plan_id":"cebpf4jnsgd1na2vs0mg"},{"bike_id":"7c41bde0-91a0-4b4e-87c2-34481d7b8a58","system_id":"levelo_inurba_marseille","lat":43.31079,"lon":5.42429,"is_reserved":false,"is_disabled":true,"rental_uris":{"android":"levelo://app?vid=7c41bde0-91a0-4b4e-87c2-34481d7b8a58","ios":"levelo://app?vid=7c41bde0-91a0-4b4e-87c2-34481d7b8a58"},"vehicle_type_id":"4","last_reported":1747933760,"current_range_meters":400,"station_id":"ce4bhp92rcd13ifvqhag","pricing_plan_id":"cebpf4jnsgd1na2vs0mg"},{"bike_id":"addacb63-eaa1-4b88-b2d5-f495030c26ce","system_id":"levelo_inurba_marseille","lat":43.23216,"lon":5.43719,"is_reserved":false,"is_disabled":true,"rental_uris":{"android":"levelo://app?vid=addacb63-eaa1-4b88-b2d5-f495030c26ce","ios":"levelo://app?vid=addacb63-eaa1-4b88-b2d5-f495030c26ce"},"vehicle_type_id":"4","last_reported":1747933760,"current_range_meters":800,"station_id":"","pricing_plan_id":"cebpf4jnsgd1na2vs0mg"},{"bike_id":"dc4a9dcd-5553-4a92-90d1-7b64fe425080","system_id":"levelo_inurba_marseille","lat":43.29028,"lon":5.39969,"is_reserved":false,"is_disabled":true,"rental_uris":{"android":"levelo://app?vid=dc4a9dcd-5553-4a92-90d1-7b64fe425080","ios":"levelo://app?vid=dc4a9dcd-5553-4a92-90d1-7b64fe425080"},"vehicle_type_id":"4","last_reported":1747933760,"current_range_meters":800,"station_id":"ce4bh392rcd13ifvqdm0","pricing_plan_id":"cebpf4jnsgd1na2vs0mg"},{"bike_id":"8a6945d6-776e-4455-a28d-45cb56ceb9c2","system_id":"levelo_inurba_marseille","lat":43.28927,"lon":5.36634,"is_reserved":false,"is_disabled":true,"rental_uris":{"android":"levelo://app?vid=8a6945d6-776e-4455-a28d-45cb56ceb9c2","ios":"levelo://app?vid=8a6945d6-776e-4455-a28d-45cb56ceb9c2"},"vehicle_type_id":"4","last_reported":1747933760,"current_range_meters":800,"station_id":"ce4bhap2rcd13ifvqek0","pricing_plan_id":"cebpf4jnsgd1na2vs0mg"},{"bike_id":"7144f228-4cc1-4c48-9039-ab40a267e245","system_id":"levelo_inurba_marseille","lat":43.25498,"lon":5.37645,"is_reserved":false,"is_disabled":true,"rental_uris":{"android":"levelo://app?vid=7144f228-4cc1-4c48-9039-ab40a267e245","ios":"levelo://app?vid=7144f228-4cc1-4c48-9039-ab40a267e245"},"vehicle_type_id":"4","last_reported":1747933760,"current_range_meters":800,"station_id":"ce4bhh12rcd13ifvqff0","pricing_plan_id":"cebpf4jnsgd1na2vs0mg"},{"bike_id":"f74712f7-0ad0-4ebb-9540-0c60cadc2028","system_id":"levelo_inurba_marseille","lat":43.269347,"lon":5.389235,"is_reserved":false,"is_disabled":true,"rental_uris":{"android":"levelo://app?vid=f74712f7-0ad0-4ebb-9540-0c60cadc2028","ios":"levelo://app?vid=f74712f7-0ad0-4ebb-9540-0c60cadc2028"},"vehicle_type_id":"4","last_reported":1747933760,"current_range_meters":800,"station_id":"ce4bhhh2rcd13ifvqfl0","pricing_plan_id":"cebpf4jnsgd1na2vs0mg"},{"bike_id":"ee9fb5c3-2e6f-491d-8e34-29d4fcdd3e82","system_id":"levelo_inurba_marseille","lat":43.28153,"lon":5.42637,"is_reserved":false,"is_disabled":true,"rental_uris":{"android":"levelo://app?vid=ee9fb5c3-2e6f-491d-8e34-29d4fcdd3e82","ios":"levelo://app?vid=ee9fb5c3-2e6f-491d-8e34-29d4fcdd3e82"},"vehicle_type_id":"4","last_reported":1747933760,"current_range_meters":1200,"station_id":"","pricing_plan_id":"cebpf4jnsgd1na2vs0mg"},{"bike_id":"d8bc2224-be57-4968-9c83-9fa46f458984","system_id":"levelo_inurba_marseille","lat":43.28206,"lon":5.39059,"is_reserved":false,"is_disabled":true,"rental_uris":{"android":"levelo://app?vid=d8bc2224-be57-4968-9c83-9fa46f458984","ios":"levelo://app?vid=d8bc2224-be57-4968-9c83-9fa46f458984"},"vehicle_type_id":"4","last_reported":1747933760,"current_range_meters":1200,"station_id":"","pricing_plan_id":"cebpf4jnsgd1na2vs0mg"},{"bike_id":"c74afda9-b213-40a6-a38b-eb61c182add1","system_id":"levelo_inurba_marseille","lat":43.30139,"lon":5.38785,"is_reserved":false,"is_disabled":true,"rental_uris":{"android":"levelo://app?vid=c74afda9-b213-40a6-a38b-eb61c182add1","ios":"levelo://app?vid=c74afda9-b213-40a6-a38b-eb61c182add1"},"vehicle_type_id":"4","last_reported":1747933760,"current_range_meters":1200,"station_id":"ce4bghh2rcd13ifvqb60","pricing_plan_id":"cebpf4jnsgd1na2vs0mg"},{"bike_id":"ea94c918-38e4-4d44-a71e-0a37ee781f00","system_id":"levelo_inurba_marseille","lat":43.29214,"lon":5.36062,"is_reserved":false,"is_disabled":true,"rental_uris":{"android":"levelo://app?vid=ea94c918-38e4-4d44-a71e-0a37ee781f00","ios":"levelo://app?vid=ea94c918-38e4-4d44-a71e-0a37ee781f00"},"vehicle_type_id":"4","last_reported":1747933760,"current_range_meters":1200,"station_id":"ce4bhbh2rcd13ifvqeqg","pricing_plan_id":"cebpf4jnsgd1na2vs0mg"},{"bike_id":"b90859c5-abc6-4858-a637-3abc3007850a","system_id":"levelo_inurba_marseille","lat":43.29225,"lon":5.360657,"is_reserved":false,"is_disabled":true,"rental_uris":{"android":"levelo://app?vid=b90859c5-abc6-4858-a637-3abc3007850a","ios":"levelo://app?vid=b90859c5-abc6-4858-a637-3abc3007850a"},"vehicle_type_id":"4","last_reported":1747933760,"current_range_meters":1200,"station_id":"ce4bhbh2rcd13ifvqeqg","pricing_plan_id":"cebpf4jnsgd1na2vs0mg"},{"bike_id":"73b2ced0-2cb6-4378-add3-6ddc25eb3f9d","system_id":"levelo_inurba_marseille","lat":43.27947,"lon":5.38721,"is_reserved":false,"is_disabled":true,"rental_uris":{"android":"levelo://app?vid=73b2ced0-2cb6-4378-add3-6ddc25eb3f9d","ios":"levelo://app?vid=73b2ced0-2cb6-4378-add3-6ddc25eb3f9d"},"vehicle_type_id":"4","last_reported":1747933760,"current_range_meters":1200,"station_id":"ce4bhg12rcd13ifvqf80","pricing_plan_id":"cebpf4jnsgd1na2vs0mg"},{"bike_id":"3fb85b0d-ecb4-47a0-8783-b09d9c10baef","system_id":"levelo_inurba_marseille","lat":43.25006,"lon":5.3892,"is_reserved":false,"is_disabled":true,"rental_uris":{"android":"levelo://app?vid=3fb85b0d-ecb4-47a0-8783-b09d9c10baef","ios":"levelo://app?vid=3fb85b0d-ecb4-47a0-8783-b09d9c10baef"},"vehicle_type_id":"4","last_reported":1747933760,"current_range_meters":1200,"station_id":"ce4bhgp2rcd13ifvqfd0","pricing_plan_id":"cebpf4jnsgd1na2vs0mg"},{"bike_id":"ca1ef42c-a88e-4a5c-bdc1-61570156b583","system_id":"levelo_inurba_marseille","lat":43.23151,"lon":5.43717,"is_reserved":false,"is_disabled":true,"rental_uris":{"android":"levelo://app?vid=ca1ef42c-a88e-4a5c-bdc1-61570156b583","ios":"levelo://app?vid=ca1ef42c-a88e-4a5c-bdc1-61570156b583"},"vehicle_type_id":"4","last_reported":1747933760,"current_range_meters":1200,"station_id":"ce4bhmp2rcd13ifvqgog","pricing_plan_id":"cebpf4jnsgd1na2vs0mg"},{"bike_id":"1a923fe3-9b61-4f75-993d-10058a181d6d","system_id":"levelo_inurba_marseille","lat":43.21754,"lon":5.34601,"is_reserved":false,"is_disabled":true,"rental_uris":{"android":"levelo://app?vid=1a923fe3-9b61-4f75-993d-10058a181d6d","ios":"levelo://app?vid=1a923fe3-9b61-4f75-993d-10058a181d6d"},"vehicle_type_id":"4","last_reported":1747933760,"current_range_meters":1200,"station_id":"st_cvj6r9ubvosntc0bgbag","pricing_plan_id":"cebpf4jnsgd1na2vs0mg"},{"bike_id":"27fcfb7f-fd7e-41b0-8939-c103136da582","system_id":"levelo_inurba_marseille","lat":43.30932,"lon":5.40147,"is_reserved":false,"is_disabled":true,"rental_uris":{"android":"levelo://app?vid=27fcfb7f-fd7e-41b0-8939-c103136da582","ios":"levelo://app?vid=27fcfb7f-fd7e-41b0-8939-c103136da582"},"vehicle_type_id":"4","last_reported":1747933760,"current_range_meters":1600,"station_id":"ce4bgvp2rcd13ifvqct0","pricing_plan_id":"cebpf4jnsgd1na2vs0mg"},{"bike_id":"3d3a2f5c-eb78-4ccb-a7c0-4a2304f68d4e","system_id":"levelo_inurba_marseille","lat":43.28125,"lon":5.37837,"is_reserved":false,"is_disabled":true,"rental_uris":{"android":"levelo://app?vid=3d3a2f5c-eb78-4ccb-a7c0-4a2304f68d4e","ios":"levelo://app?vid=3d3a2f5c-eb78-4ccb-a7c0-4a2304f68d4e"},"vehicle_type_id":"4","last_reported":1747933760,"current_range_meters":1600,"station_id":"ce4bha12rcd13ifvqee0","pricing_plan_id":"cebpf4jnsgd1na2vs0mg"},{"bike_id":"271afc1b-9ea7-4ded-9d75-dc32905991dd","system_id":"levelo_inurba_marseille","lat":43.2707,"lon":5.4025,"is_reserved":false,"is_disabled":true,"rental_uris":{"android":"levelo://app?vid=271afc1b-9ea7-4ded-9d75-dc32905991dd","ios":"levelo://app?vid=271afc1b-9ea7-4ded-9d75-dc32905991dd"},"vehicle_type_id":"4","last_reported":1747933760,"current_range_meters":1600,"station_id":"ce4bhk92rcd13ifvqgc0","pricing_plan_id":"cebpf4jnsgd1na2vs0mg"},{"bike_id":"8a108e7c-a75e-4321-b3aa-4ec0d1fc85c7","system_id":"levelo_inurba_marseille","lat":43.32286,"lon":5.38266,"is_reserved":false,"is_disabled":true,"rental_uris":{"android":"levelo://app?vid=8a108e7c-a75e-4321-b3aa-4ec0d1fc85c7","ios":"levelo://app?vid=8a108e7c-a75e-4321-b3aa-4ec0d1fc85c7"},"vehicle_type_id":"4","last_reported":1747933760,"current_range_meters":1600,"station_id":"ce4bhr12rcd13ifvqhqg","pricing_plan_id":"cebpf4jnsgd1na2vs0mg"},{"bike_id":"140e0341-b4f5-43cc-bd1a-ca4f515eee1f","system_id":"levelo_inurba_marseille","lat":43.30603,"lon":5.37231,"is_reserved":false,"is_disabled":true,"rental_uris":{"android":"levelo://app?vid=140e0341-b4f5-43cc-bd1a-ca4f515eee1f","ios":"levelo://app?vid=140e0341-b4f5-43cc-bd1a-ca4f515eee1f"},"vehicle_type_id":"4","last_reported":1747933760,"current_range_meters":2000,"station_id":"ce4bgqh2rcd13ifvqc4g","pricing_plan_id":"cebpf4jnsgd1na2vs0mg"},{"bike_id":"b33eebd9-dffd-4287-9706-e2486407d832","system_id":"levelo_inurba_marseille","lat":43.309309,"lon":5.401371,"is_reserved":false,"is_disabled":true,"rental_uris":{"android":"levelo://app?vid=b33eebd9-dffd-4287-9706-e2486407d832","ios":"levelo://app?vid=b33eebd9-dffd-4287-9706-e2486407d832"},"vehicle_type_id":"4","last_reported":1747933760,"current_range_meters":2000,"station_id":"ce4bgvp2rcd13ifvqct0","pricing_plan_id":"cebpf4jnsgd1na2vs0mg"},{"bike_id":"3bd48c57-ea46-4381-a7ce-7421a220ac3f","system_id":"levelo_inurba_marseille","lat":43.30929,"lon":5.40141,"is_reserved":false,"is_disabled":true,"rental_uris":{"android":"levelo://app?vid=3bd48c57-ea46-4381-a7ce-7421a220ac3f","ios":"levelo://app?vid=3bd48c57-ea46-4381-a7ce-7421a220ac3f"},"vehicle_type_id":"4","last_reported":1747933760,"current_range_meters":2000,"station_id":"ce4bgvp2rcd13ifvqct0","pricing_plan_id":"cebpf4jnsgd1na2vs0mg"},{"bike_id":"bea7700e-5be2-4642-96a7-a4163388dbf8","system_id":"levelo_inurba_marseille","lat":43.28721,"lon":5.36097,"is_reserved":false,"is_disabled":true,"rental_uris":{"android":"levelo://app?vid=bea7700e-5be2-4642-96a7-a4163388dbf8","ios":"levelo://app?vid=bea7700e-5be2-4642-96a7-a4163388dbf8"},"vehicle_type_id":"4","last_reported":1747933760,"current_range_meters":2000,"station_id":"cki0cbj6b192h4jlfktg","pricing_plan_id":"cebpf4jnsgd1na2vs0mg"},{"bike_id":"b8b511c7-6f48-45be-97af-1e0036b54cc5","system_id":"levelo_inurba_marseille","lat":43.273541,"lon":5.424059,"is_reserved":false,"is_disabled":false,"rental_uris":{"android":"levelo://app?vid=b8b511c7-6f48-45be-97af-1e0036b54cc5","ios":"levelo://app?vid=b8b511c7-6f48-45be-97af-1e0036b54cc5"},"vehicle_type_id":"4","last_reported":1747933760,"current_range_meters":2800,"station_id":"","pricing_plan_id":"cebpf4jnsgd1na2vs0mg"},{"bike_id":"028c22f8-66f1-43d4-bbed-c3ac25c58422","system_id":"levelo_inurba_marseille","lat":43.26935,"lon":5.40254,"is_reserved":false,"is_disabled":false,"rental_uris":{"android":"levelo://app?vid=028c22f8-66f1-43d4-bbed-c3ac25c58422","ios":"levelo://app?vid=028c22f8-66f1-43d4-bbed-c3ac25c58422"},"vehicle_type_id":"4","last_reported":1747933760,"current_range_meters":2800,"station_id":"cjm6bp8fraef2m0cb0m0","pricing_plan_id":"cebpf4jnsgd1na2vs0mg"},{"bike_id":"e8162579-a5ad-485f-ad83-fec8a2ebe7e1","system_id":"levelo_inurba_marseille","lat":43.26826,"lon":5.39099,"is_reserved":false,"is_disabled":false,"rental_uris":{"android":"levelo://app?vid=e8162579-a5ad-485f-ad83-fec8a2ebe7e1","ios":"levelo://app?vid=e8162579-a5ad-485f-ad83-fec8a2ebe7e1"},"vehicle_type_id":"4","last_reported":1747933760,"current_range_meters":3200,"station_id":"","pricing_plan_id":"cebpf4jnsgd1na2vs0mg"},{"bike_id":"1ff4dd87-bf56-4ab1-8365-aad71fcb827c","system_id":"levelo_inurba_marseille","lat":43.32558,"lon":5.42706,"is_reserved":false,"is_disabled":false,"rental_uris":{"android":"levelo://app?vid=1ff4dd87-bf56-4ab1-8365-aad71fcb827c","ios":"levelo://app?vid=1ff4dd87-bf56-4ab1-8365-aad71fcb827c"},"vehicle_type_id":"4","last_reported":1747933760,"current_range_meters":3200,"station_id":"","pricing_plan_id":"cebpf4jnsgd1na2vs0mg"},{"bike_id":"aa26ba01-75d3-4229-a886-9985bc35ce2d","system_id":"levelo_inurba_marseille","lat":43.29567,"lon":5.39985,"is_reserved":false,"is_disabled":false,"rental_uris":{"android":"levelo://app?vid=aa26ba01-75d3-4229-a886-9985bc35ce2d","ios":"levelo://app?vid=aa26ba01-75d3-4229-a886-9985bc35ce2d"},"vehicle_type_id":"4","last_reported":1747933760,"current_range_meters":3200,"station_id":"ce4bh312rcd13ifvqdj0","pricing_plan_id":"cebpf4jnsgd1na2vs0mg"},{"bike_id":"60cea5ae-0a5d-4a27-8900-efc58976c0ed","system_id":"levelo_inurba_marseille","lat":43.29279,"lon":5.4011,"is_reserved":false,"is_disabled":false,"rental_uris":{"android":"levelo://app?vid=60cea5ae-0a5d-4a27-8900-efc58976c0ed","ios":"levelo://app?vid=60cea5ae-0a5d-4a27-8900-efc58976c0ed"},"vehicle_type_id":"4","last_reported":1747933760,"current_range_meters":3200,"station_id":"ce4bh312rcd13ifvqdk0","pricing_plan_id":"cebpf4jnsgd1na2vs0mg"},{"bike_id":"16cd32cf-160e-46b7-bcd0-d77d1b8c08c9","system_id":"levelo_inurba_marseille","lat":43.28936,"lon":5.38395,"is_reserved":false,"is_disabled":false,"rental_uris":{"android":"levelo://app?vid=16cd32cf-160e-46b7-bcd0-d77d1b8c08c9","ios":"levelo://app?vid=16cd32cf-160e-46b7-bcd0-d77d1b8c08c9"},"vehicle_type_id":"4","last_reported":1747933760,"current_range_meters":3200,"station_id":"ce4bh612rcd13ifvqe6g","pricing_plan_id":"cebpf4jnsgd1na2vs0mg"},{"bike_id":"362a35bd-2535-41f0-a9f6-c2ebb89e6c51","system_id":"levelo_inurba_marseille","lat":43.29257,"lon":5.38439,"is_reserved":false,"is_disabled":false,"rental_uris":{"android":"levelo://app?vid=362a35bd-2535-41f0-a9f6-c2ebb89e6c51","ios":"levelo://app?vid=362a35bd-2535-41f0-a9f6-c2ebb89e6c51"},"vehicle_type_id":"4","last_reported":1747933760,"current_range_meters":3200,"station_id":"ce4bh692rcd13ifvqea0","pricing_plan_id":"cebpf4jnsgd1na2vs0mg"},{"bike_id":"2c0b40ab-8e6e-451c-9ca9-7ac68cabe65f","system_id":"levelo_inurba_marseille","lat":43.24808,"lon":5.37457,"is_reserved":false,"is_disabled":false,"rental_uris":{"android":"levelo://app?vid=2c0b40ab-8e6e-451c-9ca9-7ac68cabe65f","ios":"levelo://app?vid=2c0b40ab-8e6e-451c-9ca9-7ac68cabe65f"},"vehicle_type_id":"4","last_reported":1747933760,"current_range_meters":3200,"station_id":"ce4bhgh2rcd13ifvqfb0","pricing_plan_id":"cebpf4jnsgd1na2vs0mg"},{"bike_id":"acf2afc4-99dc-46fb-aeeb-71386fb4bcd0","system_id":"levelo_inurba_marseille","lat":43.27571,"lon":5.38428,"is_reserved":false,"is_disabled":false,"rental_uris":{"android":"levelo://app?vid=acf2afc4-99dc-46fb-aeeb-71386fb4bcd0","ios":"levelo://app?vid=acf2afc4-99dc-46fb-aeeb-71386fb4bcd0"},"vehicle_type_id":"4","last_reported":1747933760,"current_range_meters":3200,"station_id":"ce4bhh92rcd13ifvqfi0","pricing_plan_id":"cebpf4jnsgd1na2vs0mg"},{"bike_id":"132588a1-93ff-4074-9c51-264a514902d6","system_id":"levelo_inurba_marseille","lat":43.29006,"lon":5.3561,"is_reserved":false,"is_disabled":false,"rental_uris":{"android":"levelo://app?vid=132588a1-93ff-4074-9c51-264a514902d6","ios":"levelo://app?vid=132588a1-93ff-4074-9c51-264a514902d6"},"vehicle_type_id":"4","last_reported":1747933760,"current_range_meters":3600,"station_id":"ce4bhb92rcd13ifvqen0","pricing_plan_id":"cebpf4jnsgd1na2vs0mg"},{"bike_id":"9a333154-015d-4d33-a114-cde00e959eb3","system_id":"levelo_inurba_marseille","lat":43.27999,"lon":5.40022,"is_reserved":false,"is_disabled":false,"rental_uris":{"android":"levelo://app?vid=9a333154-015d-4d33-a114-cde00e959eb3","ios":"levelo://app?vid=9a333154-015d-4d33-a114-cde00e959eb3"},"vehicle_type_id":"4","last_reported":1747933760,"current_range_meters":3600,"station_id":"ce4bho92rcd13ifvqh4g","pricing_plan_id":"cebpf4jnsgd1na2vs0mg"},{"bike_id":"4496322d-5e98-40f3-902e-f82291687c9d","system_id":"levelo_inurba_marseille","lat":43.29978,"lon":5.37181,"is_reserved":false,"is_disabled":false,"rental_uris":{"android":"levelo://app?vid=4496322d-5e98-40f3-902e-f82291687c9d","ios":"levelo://app?vid=4496322d-5e98-40f3-902e-f82291687c9d"},"vehicle_type_id":"4","last_reported":1747933760,"current_range_meters":4000,"station_id":"ce4bgr92rcd13ifvqc7g","pricing_plan_id":"cebpf4jnsgd1na2vs0mg"},{"bike_id":"0b6bf2b1-208c-4718-9989-8a31274de9e9","system_id":"levelo_inurba_marseille","lat":43.28952,"lon":5.36386,"is_reserved":false,"is_disabled":false,"rental_uris":{"android":"levelo://app?vid=0b6bf2b1-208c-4718-9989-8a31274de9e9","ios":"levelo://app?vid=0b6bf2b1-208c-4718-9989-8a31274de9e9"},"vehicle_type_id":"4","last_reported":1747933760,"current_range_meters":4000,"station_id":"ce4bhc92rcd13ifvqetg","pricing_plan_id":"cebpf4jnsgd1na2vs0mg"},{"bike_id":"bc5e3b0d-996d-451d-b0c4-a538371e80b6","system_id":"levelo_inurba_marseille","lat":43.26492,"lon":5.39558,"is_reserved":false,"is_disabled":false,"rental_uris":{"android":"levelo://app?vid=bc5e3b0d-996d-451d-b0c4-a538371e80b6","ios":"levelo://app?vid=bc5e3b0d-996d-451d-b0c4-a538371e80b6"},"vehicle_type_id":"4","last_reported":1747933760,"current_range_meters":4000,"station_id":"ce4bhi12rcd13ifvqfq0","pricing_plan_id":"cebpf4jnsgd1na2vs0mg"},{"bike_id":"5c2f3cb7-a4d0-4b6c-b2ed-7bcd112d37b6","system_id":"levelo_inurba_marseille","lat":43.33605,"lon":5.41035,"is_reserved":false,"is_disabled":false,"rental_uris":{"android":"levelo://app?vid=5c2f3cb7-a4d0-4b6c-b2ed-7bcd112d37b6","ios":"levelo://app?vid=5c2f3cb7-a4d0-4b6c-b2ed-7bcd112d37b6"},"vehicle_type_id":"4","last_reported":1747933760,"current_range_meters":4000,"station_id":"ce4bhqh2rcd13ifvqhmg","pricing_plan_id":"cebpf4jnsgd1na2vs0mg"},{"bike_id":"b7ce20af-a4a9-400d-b1ac-5409d5a9c625","system_id":"levelo_inurba_marseille","lat":43.23196,"lon":5.35548,"is_reserved":false,"is_disabled":false,"rental_uris":{"android":"levelo://app?vid=b7ce20af-a4a9-400d-b1ac-5409d5a9c625","ios":"levelo://app?vid=b7ce20af-a4a9-400d-b1ac-5409d5a9c625"},"vehicle_type_id":"4","last_reported":1747933760,"current_range_meters":4000,"station_id":"ce4bhu92rcd13ifvqi70","pricing_plan_id":"cebpf4jnsgd1na2vs0mg"},{"bike_id":"76feef3d-928c-43ce-b835-9e9c72ab0039","system_id":"levelo_inurba_marseille","lat":43.24169,"lon":5.36394,"is_reserved":false,"is_disabled":false,"rental_uris":{"android":"levelo://app?vid=76feef3d-928c-43ce-b835-9e9c72ab0039","ios":"levelo://app?vid=76feef3d-928c-43ce-b835-9e9c72ab0039"},"vehicle_type_id":"4","last_reported":1747933760,"current_range_meters":4000,"station_id":"cpo36qri1sfpv3e86is0","pricing_plan_id":"cebpf4jnsgd1na2vs0mg"},{"bike_id":"73a78cfc-3364-497d-9364-7c409f1fa018","system_id":"levelo_inurba_marseille","lat":43.29534,"lon":5.39394,"is_reserved":false,"is_disabled":false,"rental_uris":{"android":"levelo://app?vid=73a78cfc-3364-497d-9364-7c409f1fa018","ios":"levelo://app?vid=73a78cfc-3364-497d-9364-7c409f1fa018"},"vehicle_type_id":"4","last_reported":1747933760,"current_range_meters":4400,"station_id":"ce4bh292rcd13ifvqdf0","pricing_plan_id":"cebpf4jnsgd1na2vs0mg"},{"bike_id":"cadab421-65af-422e-8a09-6b6f97e42a74","system_id":"levelo_inurba_marseille","lat":43.28403,"lon":5.37515,"is_reserved":false,"is_disabled":false,"rental_uris":{"android":"levelo://app?vid=cadab421-65af-422e-8a09-6b6f97e42a74","ios":"levelo://app?vid=cadab421-65af-422e-8a09-6b6f97e42a74"},"vehicle_type_id":"4","last_reported":1747933760,"current_range_meters":4400,"station_id":"ce4bh412rcd13ifvqds0","pricing_plan_id":"cebpf4jnsgd1na2vs0mg"},{"bike_id":"d4302aff-8675-4542-be71-24549a52501a","system_id":"levelo_inurba_marseille","lat":43.246887,"lon":5.373875,"is_reserved":false,"is_disabled":false,"rental_uris":{"android":"levelo://app?vid=d4302aff-8675-4542-be71-24549a52501a","ios":"levelo://app?vid=d4302aff-8675-4542-be71-24549a52501a"},"vehicle_type_id":"4","last_reported":1747933760,"current_range_meters":4400,"station_id":"ce4bhnp2rcd13ifvqgvg","pricing_plan_id":"cebpf4jnsgd1na2vs0mg"},{"bike_id":"52eeb79d-2f05-490f-8fa2-6b8e4be7a385","system_id":"levelo_inurba_marseille","lat":43.29297,"lon":5.37178,"is_reserved":false,"is_disabled":false,"rental_uris":{"android":"levelo://app?vid=52eeb79d-2f05-490f-8fa2-6b8e4be7a385","ios":"levelo://app?vid=52eeb79d-2f05-490f-8fa2-6b8e4be7a385"},"vehicle_type_id":"4","last_reported":1747933760,"current_range_meters":4800,"station_id":"ce4bgh92rcd13ifvqb40","pricing_plan_id":"cebpf4jnsgd1na2vs0mg"},{"bike_id":"f22d4c17-e788-4348-ba44-ef73635b42f9","system_id":"levelo_inurba_marseille","lat":43.30938,"lon":5.40144,"is_reserved":false,"is_disabled":false,"rental_uris":{"android":"levelo://app?vid=f22d4c17-e788-4348-ba44-ef73635b42f9","ios":"levelo://app?vid=f22d4c17-e788-4348-ba44-ef73635b42f9"},"vehicle_type_id":"4","last_reported":1747933760,"current_range_meters":4800,"station_id":"ce4bgvp2rcd13ifvqct0","pricing_plan_id":"cebpf4jnsgd1na2vs0mg"},{"bike_id":"933b69f6-8f57-41e3-a2f4-6323055c0927","system_id":"levelo_inurba_marseille","lat":43.28409,"lon":5.37521,"is_reserved":false,"is_disabled":false,"rental_uris":{"android":"levelo://app?vid=933b69f6-8f57-41e3-a2f4-6323055c0927","ios":"levelo://app?vid=933b69f6-8f57-41e3-a2f4-6323055c0927"},"vehicle_type_id":"4","last_reported":1747933760,"current_range_meters":4800,"station_id":"ce4bh412rcd13ifvqds0","pricing_plan_id":"cebpf4jnsgd1na2vs0mg"},{"bike_id":"a7eb7196-14b2-473d-9cef-28ef44dce52e","system_id":"levelo_inurba_marseille","lat":43.28925,"lon":5.36406,"is_reserved":false,"is_disabled":false,"rental_uris":{"android":"levelo://app?vid=a7eb7196-14b2-473d-9cef-28ef44dce52e","ios":"levelo://app?vid=a7eb7196-14b2-473d-9cef-28ef44dce52e"},"vehicle_type_id":"4","last_reported":1747933760,"current_range_meters":4800,"station_id":"ce4bhc92rcd13ifvqetg","pricing_plan_id":"cebpf4jnsgd1na2vs0mg"},{"bike_id":"5604e6ac-80ca-4b06-9aa5-29a3b76b636a","system_id":"levelo_inurba_marseille","lat":43.2782,"lon":5.39204,"is_reserved":false,"is_disabled":false,"rental_uris":{"android":"levelo://app?vid=5604e6ac-80ca-4b06-9aa5-29a3b76b636a","ios":"levelo://app?vid=5604e6ac-80ca-4b06-9aa5-29a3b76b636a"},"vehicle_type_id":"4","last_reported":1747933760,"current_range_meters":4800,"station_id":"ce4bhjp2rcd13ifvqga0","pricing_plan_id":"cebpf4jnsgd1na2vs0mg"},{"bike_id":"c172b8b2-6068-4ecd-9788-1fbcc3584e8e","system_id":"levelo_inurba_marseille","lat":43.28239,"lon":5.39045,"is_reserved":false,"is_disabled":false,"rental_uris":{"android":"levelo://app?vid=c172b8b2-6068-4ecd-9788-1fbcc3584e8e","ios":"levelo://app?vid=c172b8b2-6068-4ecd-9788-1fbcc3584e8e"},"vehicle_type_id":"4","last_reported":1747933760,"current_range_meters":5600,"station_id":"","pricing_plan_id":"cebpf4jnsgd1na2vs0mg"},{"bike_id":"80a1d12d-dede-4f38-a2a6-a7a8f08554ed","system_id":"levelo_inurba_marseille","lat":43.27922,"lon":5.39575,"is_reserved":false,"is_disabled":false,"rental_uris":{"android":"levelo://app?vid=80a1d12d-dede-4f38-a2a6-a7a8f08554ed","ios":"levelo://app?vid=80a1d12d-dede-4f38-a2a6-a7a8f08554ed"},"vehicle_type_id":"4","last_reported":1747933760,"current_range_meters":5600,"station_id":"ce4bhf92rcd13ifvqf40","pricing_plan_id":"cebpf4jnsgd1na2vs0mg"},{"bike_id":"0fcb0883-bd59-40ff-b3a2-c7bc9655de75","system_id":"levelo_inurba_marseille","lat":43.24804,"lon":5.37461,"is_reserved":false,"is_disabled":false,"rental_uris":{"android":"levelo://app?vid=0fcb0883-bd59-40ff-b3a2-c7bc9655de75","ios":"levelo://app?vid=0fcb0883-bd59-40ff-b3a2-c7bc9655de75"},"vehicle_type_id":"4","last_reported":1747933760,"current_range_meters":5600,"station_id":"ce4bhgh2rcd13ifvqfb0","pricing_plan_id":"cebpf4jnsgd1na2vs0mg"},{"bike_id":"2f1741c1-97eb-4268-b9ad-f99a223a2229","system_id":"levelo_inurba_marseille","lat":43.25579,"lon":5.38227,"is_reserved":false,"is_disabled":false,"rental_uris":{"android":"levelo://app?vid=2f1741c1-97eb-4268-b9ad-f99a223a2229","ios":"levelo://app?vid=2f1741c1-97eb-4268-b9ad-f99a223a2229"},"vehicle_type_id":"4","last_reported":1747933760,"current_range_meters":5600,"station_id":"ce4bhih2rcd13ifvqfs0","pricing_plan_id":"cebpf4jnsgd1na2vs0mg"},{"bike_id":"634cd4eb-86da-4d1a-adbb-ae26e13bb077","system_id":"levelo_inurba_marseille","lat":43.23212,"lon":5.39973,"is_reserved":false,"is_disabled":false,"rental_uris":{"android":"levelo://app?vid=634cd4eb-86da-4d1a-adbb-ae26e13bb077","ios":"levelo://app?vid=634cd4eb-86da-4d1a-adbb-ae26e13bb077"},"vehicle_type_id":"4","last_reported":1747933760,"current_range_meters":5600,"station_id":"ce4bhn12rcd13ifvqgqg","pricing_plan_id":"cebpf4jnsgd1na2vs0mg"},{"bike_id":"4724448e-ff22-492a-ad57-05a55b2e23eb","system_id":"levelo_inurba_marseille","lat":43.323403,"lon":5.406177,"is_reserved":false,"is_disabled":false,"rental_uris":{"android":"levelo://app?vid=4724448e-ff22-492a-ad57-05a55b2e23eb","ios":"levelo://app?vid=4724448e-ff22-492a-ad57-05a55b2e23eb"},"vehicle_type_id":"4","last_reported":1747933760,"current_range_meters":5600,"station_id":"ce4bhq92rcd13ifvqhjg","pricing_plan_id":"cebpf4jnsgd1na2vs0mg"},{"bike_id":"eb136e04-ced2-41e0-8dc8-49cbd65cf8ab","system_id":"levelo_inurba_marseille","lat":43.31111,"lon":5.37773,"is_reserved":false,"is_disabled":false,"rental_uris":{"android":"levelo://app?vid=eb136e04-ced2-41e0-8dc8-49cbd65cf8ab","ios":"levelo://app?vid=eb136e04-ced2-41e0-8dc8-49cbd65cf8ab"},"vehicle_type_id":"4","last_reported":1747933760,"current_range_meters":6000,"station_id":"ce4bgt92rcd13ifvqcg0","pricing_plan_id":"cebpf4jnsgd1na2vs0mg"},{"bike_id":"a965f51f-aafb-4afe-bfe3-121b43346203","system_id":"levelo_inurba_marseille","lat":43.28,"lon":5.4001,"is_reserved":false,"is_disabled":false,"rental_uris":{"android":"levelo://app?vid=a965f51f-aafb-4afe-bfe3-121b43346203","ios":"levelo://app?vid=a965f51f-aafb-4afe-bfe3-121b43346203"},"vehicle_type_id":"4","last_reported":1747933760,"current_range_meters":6000,"station_id":"ce4bho92rcd13ifvqh4g","pricing_plan_id":"cebpf4jnsgd1na2vs0mg"},{"bike_id":"aadb4e87-007d-4a99-9b46-2f19781ad0c3","system_id":"levelo_inurba_marseille","lat":43.31119,"lon":5.37753,"is_reserved":false,"is_disabled":false,"rental_uris":{"android":"levelo://app?vid=aadb4e87-007d-4a99-9b46-2f19781ad0c3","ios":"levelo://app?vid=aadb4e87-007d-4a99-9b46-2f19781ad0c3"},"vehicle_type_id":"4","last_reported":1747933760,"current_range_meters":6400,"station_id":"ce4bgt92rcd13ifvqcg0","pricing_plan_id":"cebpf4jnsgd1na2vs0mg"},{"bike_id":"7c923a08-e440-4ed9-8a55-ccefacf96a77","system_id":"levelo_inurba_marseille","lat":43.30887,"lon":5.39635,"is_reserved":false,"is_disabled":false,"rental_uris":{"android":"levelo://app?vid=7c923a08-e440-4ed9-8a55-ccefacf96a77","ios":"levelo://app?vid=7c923a08-e440-4ed9-8a55-ccefacf96a77"},"vehicle_type_id":"4","last_reported":1747933760,"current_range_meters":6400,"station_id":"ce4bh012rcd13ifvqcv0","pricing_plan_id":"cebpf4jnsgd1na2vs0mg"},{"bike_id":"565ea8a9-759d-490e-a368-96bd87ea8b8f","system_id":"levelo_inurba_marseille","lat":43.29263,"lon":5.40899,"is_reserved":false,"is_disabled":false,"rental_uris":{"android":"levelo://app?vid=565ea8a9-759d-490e-a368-96bd87ea8b8f","ios":"levelo://app?vid=565ea8a9-759d-490e-a368-96bd87ea8b8f"},"vehicle_type_id":"4","last_reported":1747933760,"current_range_meters":6400,"station_id":"ce4bh192rcd13ifvqdc0","pricing_plan_id":"cebpf4jnsgd1na2vs0mg"},{"bike_id":"8b352d57-7d07-4b38-af5f-aeb1853b0834","system_id":"levelo_inurba_marseille","lat":43.29054,"lon":5.35916,"is_reserved":false,"is_disabled":false,"rental_uris":{"android":"levelo://app?vid=8b352d57-7d07-4b38-af5f-aeb1853b0834","ios":"levelo://app?vid=8b352d57-7d07-4b38-af5f-aeb1853b0834"},"vehicle_type_id":"4","last_reported":1747933760,"current_range_meters":6400,"station_id":"ce4bha92rcd13ifvqeg0","pricing_plan_id":"cebpf4jnsgd1na2vs0mg"},{"bike_id":"43d29fe6-535a-4f8b-a078-bd2191c3b1f7","system_id":"levelo_inurba_marseille","lat":43.24799,"lon":5.37453,"is_reserved":false,"is_disabled":false,"rental_uris":{"android":"levelo://app?vid=43d29fe6-535a-4f8b-a078-bd2191c3b1f7","ios":"levelo://app?vid=43d29fe6-535a-4f8b-a078-bd2191c3b1f7"},"vehicle_type_id":"4","last_reported":1747933760,"current_range_meters":6400,"station_id":"ce4bhgh2rcd13ifvqfb0","pricing_plan_id":"cebpf4jnsgd1na2vs0mg"},{"bike_id":"84de57e5-2da5-43ce-90cb-e2fec7be6e1c","system_id":"levelo_inurba_marseille","lat":43.2719,"lon":5.40979,"is_reserved":false,"is_disabled":false,"rental_uris":{"android":"levelo://app?vid=84de57e5-2da5-43ce-90cb-e2fec7be6e1c","ios":"levelo://app?vid=84de57e5-2da5-43ce-90cb-e2fec7be6e1c"},"vehicle_type_id":"4","last_reported":1747933760,"current_range_meters":6400,"station_id":"ce4bhl12rcd13ifvqgf0","pricing_plan_id":"cebpf4jnsgd1na2vs0mg"},{"bike_id":"50170c98-e5dc-4924-8469-67ad32c60315","system_id":"levelo_inurba_marseille","lat":43.2719,"lon":5.40975,"is_reserved":false,"is_disabled":false,"rental_uris":{"android":"levelo://app?vid=50170c98-e5dc-4924-8469-67ad32c60315","ios":"levelo://app?vid=50170c98-e5dc-4924-8469-67ad32c60315"},"vehicle_type_id":"4","last_reported":1747933760,"current_range_meters":6400,"station_id":"ce4bhl12rcd13ifvqgf0","pricing_plan_id":"cebpf4jnsgd1na2vs0mg"},{"bike_id":"31907cb9-b067-459a-920f-da7df97f835b","system_id":"levelo_inurba_marseille","lat":43.25113,"lon":5.40349,"is_reserved":false,"is_disabled":false,"rental_uris":{"android":"levelo://app?vid=31907cb9-b067-459a-920f-da7df97f835b","ios":"levelo://app?vid=31907cb9-b067-459a-920f-da7df97f835b"},"vehicle_type_id":"4","last_reported":1747933760,"current_range_meters":6400,"station_id":"ce4bhlh2rcd13ifvqgig","pricing_plan_id":"cebpf4jnsgd1na2vs0mg"},{"bike_id":"4aaa0c9a-06f9-4739-9a58-ee92848a6f4b","system_id":"levelo_inurba_marseille","lat":43.23199,"lon":5.35559,"is_reserved":false,"is_disabled":false,"rental_uris":{"android":"levelo://app?vid=4aaa0c9a-06f9-4739-9a58-ee92848a6f4b","ios":"levelo://app?vid=4aaa0c9a-06f9-4739-9a58-ee92848a6f4b"},"vehicle_type_id":"4","last_reported":1747933760,"current_range_meters":6400,"station_id":"ce4bhu92rcd13ifvqi70","pricing_plan_id":"cebpf4jnsgd1na2vs0mg"},{"bike_id":"5a0b155f-fdd0-4fe9-b4eb-f9aab5e4016a","system_id":"levelo_inurba_marseille","lat":43.2991,"lon":5.38129,"is_reserved":false,"is_disabled":false,"rental_uris":{"android":"levelo://app?vid=5a0b155f-fdd0-4fe9-b4eb-f9aab5e4016a","ios":"levelo://app?vid=5a0b155f-fdd0-4fe9-b4eb-f9aab5e4016a"},"vehicle_type_id":"4","last_reported":1747933760,"current_range_meters":6800,"station_id":"ce4bgj12rcd13ifvqbc0","pricing_plan_id":"cebpf4jnsgd1na2vs0mg"},{"bike_id":"6967a2a8-d225-479f-8eb3-6fb36fc602a6","system_id":"levelo_inurba_marseille","lat":43.311223,"lon":5.377613,"is_reserved":false,"is_disabled":false,"rental_uris":{"android":"levelo://app?vid=6967a2a8-d225-479f-8eb3-6fb36fc602a6","ios":"levelo://app?vid=6967a2a8-d225-479f-8eb3-6fb36fc602a6"},"vehicle_type_id":"4","last_reported":1747933760,"current_range_meters":6800,"station_id":"ce4bgt92rcd13ifvqcg0","pricing_plan_id":"cebpf4jnsgd1na2vs0mg"},{"bike_id":"c2c07fbc-27c5-481e-8e7a-6d416bff8021","system_id":"levelo_inurba_marseille","lat":43.29405,"lon":5.38619,"is_reserved":false,"is_disabled":false,"rental_uris":{"android":"levelo://app?vid=c2c07fbc-27c5-481e-8e7a-6d416bff8021","ios":"levelo://app?vid=c2c07fbc-27c5-481e-8e7a-6d416bff8021"},"vehicle_type_id":"4","last_reported":1747933760,"current_range_meters":6800,"station_id":"ce4bh2h2rcd13ifvqdh0","pricing_plan_id":"cebpf4jnsgd1na2vs0mg"},{"bike_id":"3733989c-8040-41c2-983c-e324190df5d1","system_id":"levelo_inurba_marseille","lat":43.2957,"lon":5.39985,"is_reserved":false,"is_disabled":false,"rental_uris":{"android":"levelo://app?vid=3733989c-8040-41c2-983c-e324190df5d1","ios":"levelo://app?vid=3733989c-8040-41c2-983c-e324190df5d1"},"vehicle_type_id":"4","last_reported":1747933760,"current_range_meters":6800,"station_id":"ce4bh312rcd13ifvqdj0","pricing_plan_id":"cebpf4jnsgd1na2vs0mg"},{"bike_id":"40c1961e-6fde-4a19-9608-959fd903f308","system_id":"levelo_inurba_marseille","lat":43.24801,"lon":5.37455,"is_reserved":false,"is_disabled":false,"rental_uris":{"android":"levelo://app?vid=40c1961e-6fde-4a19-9608-959fd903f308","ios":"levelo://app?vid=40c1961e-6fde-4a19-9608-959fd903f308"},"vehicle_type_id":"4","last_reported":1747933760,"current_range_meters":6800,"station_id":"ce4bhgh2rcd13ifvqfb0","pricing_plan_id":"cebpf4jnsgd1na2vs0mg"},{"bike_id":"325a04d7-0c6c-4a4d-804e-27b29ba6514b","system_id":"levelo_inurba_marseille","lat":43.23963,"lon":5.36639,"is_reserved":false,"is_disabled":false,"rental_uris":{"android":"levelo://app?vid=325a04d7-0c6c-4a4d-804e-27b29ba6514b","ios":"levelo://app?vid=325a04d7-0c6c-4a4d-804e-27b29ba6514b"},"vehicle_type_id":"4","last_reported":1747933760,"current_range_meters":6800,"station_id":"ce4bhi12rcd13ifvqfp0","pricing_plan_id":"cebpf4jnsgd1na2vs0mg"},{"bike_id":"477ad2c7-13f5-4e7a-a40a-ad3c0916c208","system_id":"levelo_inurba_marseille","lat":43.29295,"lon":5.37459,"is_reserved":false,"is_disabled":false,"rental_uris":{"android":"levelo://app?vid=477ad2c7-13f5-4e7a-a40a-ad3c0916c208","ios":"levelo://app?vid=477ad2c7-13f5-4e7a-a40a-ad3c0916c208"},"vehicle_type_id":"4","last_reported":1747933760,"current_range_meters":7200,"station_id":"ce4bgi12rcd13ifvqb70","pricing_plan_id":"cebpf4jnsgd1na2vs0mg"},{"bike_id":"5fa8aaf5-6375-4526-bbbb-6f275096ef5e","system_id":"levelo_inurba_marseille","lat":43.2928,"lon":5.40111,"is_reserved":false,"is_disabled":false,"rental_uris":{"android":"levelo://app?vid=5fa8aaf5-6375-4526-bbbb-6f275096ef5e","ios":"levelo://app?vid=5fa8aaf5-6375-4526-bbbb-6f275096ef5e"},"vehicle_type_id":"4","last_reported":1747933760,"current_range_meters":7200,"station_id":"ce4bh312rcd13ifvqdk0","pricing_plan_id":"cebpf4jnsgd1na2vs0mg"},{"bike_id":"be2d82ff-805a-4add-af75-f4819258d421","system_id":"levelo_inurba_marseille","lat":43.28608,"lon":5.35118,"is_reserved":false,"is_disabled":false,"rental_uris":{"android":"levelo://app?vid=be2d82ff-805a-4add-af75-f4819258d421","ios":"levelo://app?vid=be2d82ff-805a-4add-af75-f4819258d421"},"vehicle_type_id":"4","last_reported":1747933760,"current_range_meters":7200,"station_id":"ce4bhch2rcd13ifvqeug","pricing_plan_id":"cebpf4jnsgd1na2vs0mg"},{"bike_id":"7f374a0c-9ab4-412c-a8dd-1f59fe7a5317","system_id":"levelo_inurba_marseille","lat":43.25585,"lon":5.38237,"is_reserved":false,"is_disabled":false,"rental_uris":{"android":"levelo://app?vid=7f374a0c-9ab4-412c-a8dd-1f59fe7a5317","ios":"levelo://app?vid=7f374a0c-9ab4-412c-a8dd-1f59fe7a5317"},"vehicle_type_id":"4","last_reported":1747933760,"current_range_meters":7200,"station_id":"ce4bhih2rcd13ifvqfs0","pricing_plan_id":"cebpf4jnsgd1na2vs0mg"},{"bike_id":"02a61e6b-3eb7-410b-a421-e6eb986d5786","system_id":"levelo_inurba_marseille","lat":43.28157,"lon":5.42642,"is_reserved":false,"is_disabled":false,"rental_uris":{"android":"levelo://app?vid=02a61e6b-3eb7-410b-a421-e6eb986d5786","ios":"levelo://app?vid=02a61e6b-3eb7-410b-a421-e6eb986d5786"},"vehicle_type_id":"4","last_reported":1747933760,"current_range_meters":7200,"station_id":"ce4bhnh2rcd13ifvqgug","pricing_plan_id":"cebpf4jnsgd1na2vs0mg"},{"bike_id":"eebfa399-9785-4fc2-b66a-eed62a9fa6a0","system_id":"levelo_inurba_marseille","lat":43.32307,"lon":5.40671,"is_reserved":false,"is_disabled":false,"rental_uris":{"android":"levelo://app?vid=eebfa399-9785-4fc2-b66a-eed62a9fa6a0","ios":"levelo://app?vid=eebfa399-9785-4fc2-b66a-eed62a9fa6a0"},"vehicle_type_id":"4","last_reported":1747933760,"current_range_meters":7200,"station_id":"ce4bhq92rcd13ifvqhjg","pricing_plan_id":"cebpf4jnsgd1na2vs0mg"},{"bike_id":"078bd019-c754-4226-b93a-2091338c876e","system_id":"levelo_inurba_marseille","lat":43.23191,"lon":5.35565,"is_reserved":false,"is_disabled":false,"rental_uris":{"android":"levelo://app?vid=078bd019-c754-4226-b93a-2091338c876e","ios":"levelo://app?vid=078bd019-c754-4226-b93a-2091338c876e"},"vehicle_type_id":"4","last_reported":1747933760,"current_range_meters":7200,"station_id":"ce4bhu92rcd13ifvqi70","pricing_plan_id":"cebpf4jnsgd1na2vs0mg"},{"bike_id":"3fe3d6c4-138a-47df-b6b4-e6f19e8f7d46","system_id":"levelo_inurba_marseille","lat":43.21413,"lon":5.34113,"is_reserved":false,"is_disabled":false,"rental_uris":{"android":"levelo://app?vid=3fe3d6c4-138a-47df-b6b4-e6f19e8f7d46","ios":"levelo://app?vid=3fe3d6c4-138a-47df-b6b4-e6f19e8f7d46"},"vehicle_type_id":"4","last_reported":1747933760,"current_range_meters":8000,"station_id":"","pricing_plan_id":"cebpf4jnsgd1na2vs0mg"},{"bike_id":"815528cc-1255-4aff-94fa-0d8ed881d4a7","system_id":"levelo_inurba_marseille","lat":43.29906,"lon":5.3814,"is_reserved":false,"is_disabled":false,"rental_uris":{"android":"levelo://app?vid=815528cc-1255-4aff-94fa-0d8ed881d4a7","ios":"levelo://app?vid=815528cc-1255-4aff-94fa-0d8ed881d4a7"},"vehicle_type_id":"4","last_reported":1747933760,"current_range_meters":8000,"station_id":"ce4bgj12rcd13ifvqbc0","pricing_plan_id":"cebpf4jnsgd1na2vs0mg"},{"bike_id":"f2001e4c-d59f-4af0-bd8e-d1419c73b658","system_id":"levelo_inurba_marseille","lat":43.29977,"lon":5.37176,"is_reserved":false,"is_disabled":false,"rental_uris":{"android":"levelo://app?vid=f2001e4c-d59f-4af0-bd8e-d1419c73b658","ios":"levelo://app?vid=f2001e4c-d59f-4af0-bd8e-d1419c73b658"},"vehicle_type_id":"4","last_reported":1747933760,"current_range_meters":8000,"station_id":"ce4bgr92rcd13ifvqc7g","pricing_plan_id":"cebpf4jnsgd1na2vs0mg"},{"bike_id":"20a476e6-0c93-4a9e-820d-51a73f4cd511","system_id":"levelo_inurba_marseille","lat":43.27829,"lon":5.39212,"is_reserved":false,"is_disabled":false,"rental_uris":{"android":"levelo://app?vid=20a476e6-0c93-4a9e-820d-51a73f4cd511","ios":"levelo://app?vid=20a476e6-0c93-4a9e-820d-51a73f4cd511"},"vehicle_type_id":"4","last_reported":1747933760,"current_range_meters":8000,"station_id":"ce4bhjp2rcd13ifvqga0","pricing_plan_id":"cebpf4jnsgd1na2vs0mg"},{"bike_id":"2f34c329-54fe-438b-a307-b47c6ac8481c","system_id":"levelo_inurba_marseille","lat":43.29902,"lon":5.43657,"is_reserved":false,"is_disabled":false,"rental_uris":{"android":"levelo://app?vid=2f34c329-54fe-438b-a307-b47c6ac8481c","ios":"levelo://app?vid=2f34c329-54fe-438b-a307-b47c6ac8481c"},"vehicle_type_id":"4","last_reported":1747933760,"current_range_meters":8000,"station_id":"ce4bhpp2rcd13ifvqhfg","pricing_plan_id":"cebpf4jnsgd1na2vs0mg"},{"bike_id":"14feda73-7baf-4b64-8ae9-79f4fe7d4a5f","system_id":"levelo_inurba_marseille","lat":43.323556,"lon":5.367433,"is_reserved":false,"is_disabled":false,"rental_uris":{"android":"levelo://app?vid=14feda73-7baf-4b64-8ae9-79f4fe7d4a5f","ios":"levelo://app?vid=14feda73-7baf-4b64-8ae9-79f4fe7d4a5f"},"vehicle_type_id":"4","last_reported":1747933760,"current_range_meters":8000,"station_id":"ce4bhsh2rcd13ifvqi2g","pricing_plan_id":"cebpf4jnsgd1na2vs0mg"},{"bike_id":"61ad8ca8-73f6-42e8-9411-c6759f7b2769","system_id":"levelo_inurba_marseille","lat":43.26806,"lon":5.40253,"is_reserved":false,"is_disabled":false,"rental_uris":{"android":"levelo://app?vid=61ad8ca8-73f6-42e8-9411-c6759f7b2769","ios":"levelo://app?vid=61ad8ca8-73f6-42e8-9411-c6759f7b2769"},"vehicle_type_id":"4","last_reported":1747933760,"current_range_meters":8000,"station_id":"ce501612rcd8frsf0b60","pricing_plan_id":"cebpf4jnsgd1na2vs0mg"},{"bike_id":"4d220435-47a8-4d82-80db-a1284cf3e4c5","system_id":"levelo_inurba_marseille","lat":43.28654,"lon":5.38748,"is_reserved":false,"is_disabled":false,"rental_uris":{"android":"levelo://app?vid=4d220435-47a8-4d82-80db-a1284cf3e4c5","ios":"levelo://app?vid=4d220435-47a8-4d82-80db-a1284cf3e4c5"},"vehicle_type_id":"4","last_reported":1747933760,"current_range_meters":8400,"station_id":"","pricing_plan_id":"cebpf4jnsgd1na2vs0mg"},{"bike_id":"ad4d8099-03a6-43ca-966f-189fb83ff678","system_id":"levelo_inurba_marseille","lat":43.31281,"lon":5.37387,"is_reserved":false,"is_disabled":false,"rental_uris":{"android":"levelo://app?vid=ad4d8099-03a6-43ca-966f-189fb83ff678","ios":"levelo://app?vid=ad4d8099-03a6-43ca-966f-189fb83ff678"},"vehicle_type_id":"4","last_reported":1747933760,"current_range_meters":8400,"station_id":"","pricing_plan_id":"cebpf4jnsgd1na2vs0mg"},{"bike_id":"730f6487-4702-406e-a300-620d835f2263","system_id":"levelo_inurba_marseille","lat":43.28406,"lon":5.37523,"is_reserved":false,"is_disabled":false,"rental_uris":{"android":"levelo://app?vid=730f6487-4702-406e-a300-620d835f2263","ios":"levelo://app?vid=730f6487-4702-406e-a300-620d835f2263"},"vehicle_type_id":"4","last_reported":1747933760,"current_range_meters":8400,"station_id":"ce4bh412rcd13ifvqds0","pricing_plan_id":"cebpf4jnsgd1na2vs0mg"},{"bike_id":"a9de2bfe-b011-41d9-8aa1-030a3c39de54","system_id":"levelo_inurba_marseille","lat":43.29226,"lon":5.36067,"is_reserved":false,"is_disabled":false,"rental_uris":{"android":"levelo://app?vid=a9de2bfe-b011-41d9-8aa1-030a3c39de54","ios":"levelo://app?vid=a9de2bfe-b011-41d9-8aa1-030a3c39de54"},"vehicle_type_id":"4","last_reported":1747933760,"current_range_meters":8400,"station_id":"ce4bhbh2rcd13ifvqeqg","pricing_plan_id":"cebpf4jnsgd1na2vs0mg"},{"bike_id":"08f259f8-e705-4892-a708-a0970e0d501a","system_id":"levelo_inurba_marseille","lat":43.28268,"lon":5.35068,"is_reserved":false,"is_disabled":false,"rental_uris":{"android":"levelo://app?vid=08f259f8-e705-4892-a708-a0970e0d501a","ios":"levelo://app?vid=08f259f8-e705-4892-a708-a0970e0d501a"},"vehicle_type_id":"4","last_reported":1747933760,"current_range_meters":8400,"station_id":"ce4bhbp2rcd13ifvqerg","pricing_plan_id":"cebpf4jnsgd1na2vs0mg"},{"bike_id":"bc83dc44-a2cb-4fde-bdd4-a04761be67bb","system_id":"levelo_inurba_marseille","lat":43.27058,"lon":5.40255,"is_reserved":false,"is_disabled":false,"rental_uris":{"android":"levelo://app?vid=bc83dc44-a2cb-4fde-bdd4-a04761be67bb","ios":"levelo://app?vid=bc83dc44-a2cb-4fde-bdd4-a04761be67bb"},"vehicle_type_id":"4","last_reported":1747933760,"current_range_meters":8400,"station_id":"ce4bhk92rcd13ifvqgc0","pricing_plan_id":"cebpf4jnsgd1na2vs0mg"},{"bike_id":"b91980aa-60ff-467c-bd75-7d53cde9d475","system_id":"levelo_inurba_marseille","lat":43.25105,"lon":5.40343,"is_reserved":false,"is_disabled":false,"rental_uris":{"android":"levelo://app?vid=b91980aa-60ff-467c-bd75-7d53cde9d475","ios":"levelo://app?vid=b91980aa-60ff-467c-bd75-7d53cde9d475"},"vehicle_type_id":"4","last_reported":1747933760,"current_range_meters":8400,"station_id":"ce4bhlh2rcd13ifvqgig","pricing_plan_id":"cebpf4jnsgd1na2vs0mg"},{"bike_id":"3944f00c-e9fc-4706-a38a-ade0f43ef779","system_id":"levelo_inurba_marseille","lat":43.25113,"lon":5.40316,"is_reserved":false,"is_disabled":false,"rental_uris":{"android":"levelo://app?vid=3944f00c-e9fc-4706-a38a-ade0f43ef779","ios":"levelo://app?vid=3944f00c-e9fc-4706-a38a-ade0f43ef779"},"vehicle_type_id":"4","last_reported":1747933760,"current_range_meters":8400,"station_id":"ce4bhlh2rcd13ifvqgig","pricing_plan_id":"cebpf4jnsgd1na2vs0mg"},{"bike_id":"0f09b4ff-d1f5-49f7-8a14-d0522793939f","system_id":"levelo_inurba_marseille","lat":43.249999,"lon":5.389391,"is_reserved":false,"is_disabled":false,"rental_uris":{"android":"levelo://app?vid=0f09b4ff-d1f5-49f7-8a14-d0522793939f","ios":"levelo://app?vid=0f09b4ff-d1f5-49f7-8a14-d0522793939f"},"vehicle_type_id":"4","last_reported":1747933760,"current_range_meters":8800,"station_id":"ce4bhgp2rcd13ifvqfd0","pricing_plan_id":"cebpf4jnsgd1na2vs0mg"},{"bike_id":"bd9150e5-aaed-493b-8dfb-5d4704615212","system_id":"levelo_inurba_marseille","lat":43.2706,"lon":5.40256,"is_reserved":false,"is_disabled":false,"rental_uris":{"android":"levelo://app?vid=bd9150e5-aaed-493b-8dfb-5d4704615212","ios":"levelo://app?vid=bd9150e5-aaed-493b-8dfb-5d4704615212"},"vehicle_type_id":"4","last_reported":1747933760,"current_range_meters":8800,"station_id":"ce4bhk92rcd13ifvqgc0","pricing_plan_id":"cebpf4jnsgd1na2vs0mg"},{"bike_id":"7136e991-5bea-41f6-baa4-5844f6473ea2","system_id":"levelo_inurba_marseille","lat":43.25106,"lon":5.40324,"is_reserved":false,"is_disabled":false,"rental_uris":{"android":"levelo://app?vid=7136e991-5bea-41f6-baa4-5844f6473ea2","ios":"levelo://app?vid=7136e991-5bea-41f6-baa4-5844f6473ea2"},"vehicle_type_id":"4","last_reported":1747933760,"current_range_meters":8800,"station_id":"ce4bhlh2rcd13ifvqgig","pricing_plan_id":"cebpf4jnsgd1na2vs0mg"},{"bike_id":"f54b3c8a-5c8d-4acb-b8a4-9e8393ea07dd","system_id":"levelo_inurba_marseille","lat":43.23178,"lon":5.39995,"is_reserved":false,"is_disabled":false,"rental_uris":{"android":"levelo://app?vid=f54b3c8a-5c8d-4acb-b8a4-9e8393ea07dd","ios":"levelo://app?vid=f54b3c8a-5c8d-4acb-b8a4-9e8393ea07dd"},"vehicle_type_id":"4","last_reported":1747933760,"current_range_meters":8800,"station_id":"ce4bhn12rcd13ifvqgqg","pricing_plan_id":"cebpf4jnsgd1na2vs0mg"},{"bike_id":"02a52646-fecc-41d2-983b-5b9e6643aa91","system_id":"levelo_inurba_marseille","lat":43.32113,"lon":5.36773,"is_reserved":false,"is_disabled":false,"rental_uris":{"android":"levelo://app?vid=02a52646-fecc-41d2-983b-5b9e6643aa91","ios":"levelo://app?vid=02a52646-fecc-41d2-983b-5b9e6643aa91"},"vehicle_type_id":"4","last_reported":1747933760,"current_range_meters":8800,"station_id":"ce4bhrh2rcd13ifvqhug","pricing_plan_id":"cebpf4jnsgd1na2vs0mg"},{"bike_id":"fb1b05c5-68d7-4243-a4b9-1e154a7a78cf","system_id":"levelo_inurba_marseille","lat":43.3042,"lon":5.37189,"is_reserved":false,"is_disabled":false,"rental_uris":{"android":"levelo://app?vid=fb1b05c5-68d7-4243-a4b9-1e154a7a78cf","ios":"levelo://app?vid=fb1b05c5-68d7-4243-a4b9-1e154a7a78cf"},"vehicle_type_id":"4","last_reported":1747933760,"current_range_meters":9200,"station_id":"","pricing_plan_id":"cebpf4jnsgd1na2vs0mg"},{"bike_id":"f9fb40c0-1fcd-48cb-8e26-3f2dc0fb2451","system_id":"levelo_inurba_marseille","lat":43.33751,"lon":5.37509,"is_reserved":false,"is_disabled":false,"rental_uris":{"android":"levelo://app?vid=f9fb40c0-1fcd-48cb-8e26-3f2dc0fb2451","ios":"levelo://app?vid=f9fb40c0-1fcd-48cb-8e26-3f2dc0fb2451"},"vehicle_type_id":"4","last_reported":1747933760,"current_range_meters":9200,"station_id":"","pricing_plan_id":"cebpf4jnsgd1na2vs0mg"},{"bike_id":"27653dcd-dec9-4f13-b172-8968c20c1725","system_id":"levelo_inurba_marseille","lat":43.2386,"lon":5.43081,"is_reserved":false,"is_disabled":false,"rental_uris":{"android":"levelo://app?vid=27653dcd-dec9-4f13-b172-8968c20c1725","ios":"levelo://app?vid=27653dcd-dec9-4f13-b172-8968c20c1725"},"vehicle_type_id":"4","last_reported":1747933760,"current_range_meters":9200,"station_id":"","pricing_plan_id":"cebpf4jnsgd1na2vs0mg"},{"bike_id":"7840330f-1868-47b7-b454-a81947a4dcc6","system_id":"levelo_inurba_marseille","lat":43.21753,"lon":5.34597,"is_reserved":false,"is_disabled":false,"rental_uris":{"android":"levelo://app?vid=7840330f-1868-47b7-b454-a81947a4dcc6","ios":"levelo://app?vid=7840330f-1868-47b7-b454-a81947a4dcc6"},"vehicle_type_id":"4","last_reported":1747933760,"current_range_meters":9200,"station_id":"st_cvj6r9ubvosntc0bgbag","pricing_plan_id":"cebpf4jnsgd1na2vs0mg"},{"bike_id":"971c8a5c-db56-48ea-b476-188519cb0562","system_id":"levelo_inurba_marseille","lat":43.30082,"lon":5.40502,"is_reserved":false,"is_disabled":false,"rental_uris":{"android":"levelo://app?vid=971c8a5c-db56-48ea-b476-188519cb0562","ios":"levelo://app?vid=971c8a5c-db56-48ea-b476-188519cb0562"},"vehicle_type_id":"4","last_reported":1747933760,"current_range_meters":9600,"station_id":"","pricing_plan_id":"cebpf4jnsgd1na2vs0mg"},{"bike_id":"e6fba02f-a7f5-4bd8-9381-447dc736f637","system_id":"levelo_inurba_marseille","lat":43.29801,"lon":5.40395,"is_reserved":false,"is_disabled":false,"rental_uris":{"android":"levelo://app?vid=e6fba02f-a7f5-4bd8-9381-447dc736f637","ios":"levelo://app?vid=e6fba02f-a7f5-4bd8-9381-447dc736f637"},"vehicle_type_id":"4","last_reported":1747933760,"current_range_meters":9600,"station_id":"ce4bh112rcd13ifvqd90","pricing_plan_id":"cebpf4jnsgd1na2vs0mg"},{"bike_id":"8e82c641-c86c-4199-8c3e-b3e4c1305828","system_id":"levelo_inurba_marseille","lat":43.292603,"lon":5.384458,"is_reserved":false,"is_disabled":false,"rental_uris":{"android":"levelo://app?vid=8e82c641-c86c-4199-8c3e-b3e4c1305828","ios":"levelo://app?vid=8e82c641-c86c-4199-8c3e-b3e4c1305828"},"vehicle_type_id":"4","last_reported":1747933760,"current_range_meters":9600,"station_id":"ce4bh692rcd13ifvqea0","pricing_plan_id":"cebpf4jnsgd1na2vs0mg"},{"bike_id":"09206e02-7279-40d5-9341-60fe16bac56b","system_id":"levelo_inurba_marseille","lat":43.284577,"lon":5.358844,"is_reserved":false,"is_disabled":false,"rental_uris":{"android":"levelo://app?vid=09206e02-7279-40d5-9341-60fe16bac56b","ios":"levelo://app?vid=09206e02-7279-40d5-9341-60fe16bac56b"},"vehicle_type_id":"4","last_reported":1747933760,"current_range_meters":9600,"station_id":"ce4bhah2rcd13ifvqei0","pricing_plan_id":"cebpf4jnsgd1na2vs0mg"},{"bike_id":"1f51c6ff-8181-4351-9b91-fd1d53c4bf0b","system_id":"levelo_inurba_marseille","lat":43.25106,"lon":5.40372,"is_reserved":false,"is_disabled":false,"rental_uris":{"android":"levelo://app?vid=1f51c6ff-8181-4351-9b91-fd1d53c4bf0b","ios":"levelo://app?vid=1f51c6ff-8181-4351-9b91-fd1d53c4bf0b"},"vehicle_type_id":"4","last_reported":1747933760,"current_range_meters":9600,"station_id":"ce4bhlh2rcd13ifvqgig","pricing_plan_id":"cebpf4jnsgd1na2vs0mg"},{"bike_id":"2f0e7a76-34bd-4591-ba9a-bbedc686542c","system_id":"levelo_inurba_marseille","lat":43.31711,"lon":5.43708,"is_reserved":false,"is_disabled":false,"rental_uris":{"android":"levelo://app?vid=2f0e7a76-34bd-4591-ba9a-bbedc686542c","ios":"levelo://app?vid=2f0e7a76-34bd-4591-ba9a-bbedc686542c"},"vehicle_type_id":"4","last_reported":1747933760,"current_range_meters":9600,"station_id":"ce4bhp92rcd13ifvqhcg","pricing_plan_id":"cebpf4jnsgd1na2vs0mg"},{"bike_id":"6a85369f-636f-4448-91f6-e3994a0fb52b","system_id":"levelo_inurba_marseille","lat":43.27758,"lon":5.387183,"is_reserved":false,"is_disabled":false,"rental_uris":{"android":"levelo://app?vid=6a85369f-636f-4448-91f6-e3994a0fb52b","ios":"levelo://app?vid=6a85369f-636f-4448-91f6-e3994a0fb52b"},"vehicle_type_id":"4","last_reported":1747933760,"current_range_meters":10000,"station_id":"","pricing_plan_id":"cebpf4jnsgd1na2vs0mg"},{"bike_id":"7dfdfdc8-9c79-46b6-9a4b-924773b53f29","system_id":"levelo_inurba_marseille","lat":43.268686,"lon":5.391649,"is_reserved":false,"is_disabled":false,"rental_uris":{"android":"levelo://app?vid=7dfdfdc8-9c79-46b6-9a4b-924773b53f29","ios":"levelo://app?vid=7dfdfdc8-9c79-46b6-9a4b-924773b53f29"},"vehicle_type_id":"4","last_reported":1747933760,"current_range_meters":10000,"station_id":"","pricing_plan_id":"cebpf4jnsgd1na2vs0mg"},{"bike_id":"fe94b02e-3e2c-4bda-9633-71326974e82c","system_id":"levelo_inurba_marseille","lat":43.3009,"lon":5.3907,"is_reserved":false,"is_disabled":false,"rental_uris":{"android":"levelo://app?vid=fe94b02e-3e2c-4bda-9633-71326974e82c","ios":"levelo://app?vid=fe94b02e-3e2c-4bda-9633-71326974e82c"},"vehicle_type_id":"4","last_reported":1747933760,"current_range_meters":10000,"station_id":"ce4bh192rcd13ifvqdb0","pricing_plan_id":"cebpf4jnsgd1na2vs0mg"},{"bike_id":"e496d50c-83a7-4110-9130-cb29abd86130","system_id":"levelo_inurba_marseille","lat":43.29261,"lon":5.38437,"is_reserved":false,"is_disabled":false,"rental_uris":{"android":"levelo://app?vid=e496d50c-83a7-4110-9130-cb29abd86130","ios":"levelo://app?vid=e496d50c-83a7-4110-9130-cb29abd86130"},"vehicle_type_id":"4","last_reported":1747933760,"current_range_meters":10000,"station_id":"ce4bh692rcd13ifvqea0","pricing_plan_id":"cebpf4jnsgd1na2vs0mg"},{"bike_id":"a18fd1fc-1707-4474-8be3-4346061a6d12","system_id":"levelo_inurba_marseille","lat":43.29272,"lon":5.36845,"is_reserved":false,"is_disabled":false,"rental_uris":{"android":"levelo://app?vid=a18fd1fc-1707-4474-8be3-4346061a6d12","ios":"levelo://app?vid=a18fd1fc-1707-4474-8be3-4346061a6d12"},"vehicle_type_id":"4","last_reported":1747933760,"current_range_meters":10000,"station_id":"ce4bhbp2rcd13ifvqesg","pricing_plan_id":"cebpf4jnsgd1na2vs0mg"},{"bike_id":"e1e149bd-3917-4ab8-b75b-85d7d9b82f8d","system_id":"levelo_inurba_marseille","lat":43.29624,"lon":5.3772,"is_reserved":false,"is_disabled":false,"rental_uris":{"android":"levelo://app?vid=e1e149bd-3917-4ab8-b75b-85d7d9b82f8d","ios":"levelo://app?vid=e1e149bd-3917-4ab8-b75b-85d7d9b82f8d"},"vehicle_type_id":"4","last_reported":1747933760,"current_range_meters":10800,"station_id":"ce4bgi92rcd13ifvqb90","pricing_plan_id":"cebpf4jnsgd1na2vs0mg"},{"bike_id":"2fa900eb-0a42-4f0a-8506-4cdb166fe833","system_id":"levelo_inurba_marseille","lat":43.30325,"lon":5.40438,"is_reserved":false,"is_disabled":false,"rental_uris":{"android":"levelo://app?vid=2fa900eb-0a42-4f0a-8506-4cdb166fe833","ios":"levelo://app?vid=2fa900eb-0a42-4f0a-8506-4cdb166fe833"},"vehicle_type_id":"4","last_reported":1747933760,"current_range_meters":10800,"station_id":"ce4bh012rcd13ifvqd10","pricing_plan_id":"cebpf4jnsgd1na2vs0mg"},{"bike_id":"3f0c307b-0fc1-412f-9f6d-a8f1438e37ec","system_id":"levelo_inurba_marseille","lat":43.30084,"lon":5.39065,"is_reserved":false,"is_disabled":false,"rental_uris":{"android":"levelo://app?vid=3f0c307b-0fc1-412f-9f6d-a8f1438e37ec","ios":"levelo://app?vid=3f0c307b-0fc1-412f-9f6d-a8f1438e37ec"},"vehicle_type_id":"4","last_reported":1747933760,"current_range_meters":10800,"station_id":"ce4bh192rcd13ifvqdb0","pricing_plan_id":"cebpf4jnsgd1na2vs0mg"},{"bike_id":"daa1fa20-a4fc-4e4c-a5e0-a46c69fa4a94","system_id":"levelo_inurba_marseille","lat":43.25109,"lon":5.40316,"is_reserved":false,"is_disabled":false,"rental_uris":{"android":"levelo://app?vid=daa1fa20-a4fc-4e4c-a5e0-a46c69fa4a94","ios":"levelo://app?vid=daa1fa20-a4fc-4e4c-a5e0-a46c69fa4a94"},"vehicle_type_id":"4","last_reported":1747933760,"current_range_meters":10800,"station_id":"ce4bhlh2rcd13ifvqgig","pricing_plan_id":"cebpf4jnsgd1na2vs0mg"},{"bike_id":"5dc9a4bd-3265-47eb-93b1-1ebd847847d8","system_id":"levelo_inurba_marseille","lat":43.31084,"lon":5.42429,"is_reserved":false,"is_disabled":false,"rental_uris":{"android":"levelo://app?vid=5dc9a4bd-3265-47eb-93b1-1ebd847847d8","ios":"levelo://app?vid=5dc9a4bd-3265-47eb-93b1-1ebd847847d8"},"vehicle_type_id":"4","last_reported":1747933760,"current_range_meters":10800,"station_id":"ce4bhp92rcd13ifvqhag","pricing_plan_id":"cebpf4jnsgd1na2vs0mg"},{"bike_id":"2f55c777-cbc9-4506-ac49-3bc0669b4bcb","system_id":"levelo_inurba_marseille","lat":43.30755,"lon":5.42411,"is_reserved":false,"is_disabled":false,"rental_uris":{"android":"levelo://app?vid=2f55c777-cbc9-4506-ac49-3bc0669b4bcb","ios":"levelo://app?vid=2f55c777-cbc9-4506-ac49-3bc0669b4bcb"},"vehicle_type_id":"4","last_reported":1747933760,"current_range_meters":10800,"station_id":"st_cvj6ca6bvosntc0bfgr0","pricing_plan_id":"cebpf4jnsgd1na2vs0mg"},{"bike_id":"794faaed-48e5-4aed-b51e-becf307b9925","system_id":"levelo_inurba_marseille","lat":43.29419,"lon":5.38618,"is_reserved":false,"is_disabled":false,"rental_uris":{"android":"levelo://app?vid=794faaed-48e5-4aed-b51e-becf307b9925","ios":"levelo://app?vid=794faaed-48e5-4aed-b51e-becf307b9925"},"vehicle_type_id":"4","last_reported":1747933760,"current_range_meters":11200,"station_id":"ce4bh2h2rcd13ifvqdh0","pricing_plan_id":"cebpf4jnsgd1na2vs0mg"},{"bike_id":"159d9e45-b71a-46c0-83d3-f8ee715f59ee","system_id":"levelo_inurba_marseille","lat":43.29039,"lon":5.37566,"is_reserved":false,"is_disabled":false,"rental_uris":{"android":"levelo://app?vid=159d9e45-b71a-46c0-83d3-f8ee715f59ee","ios":"levelo://app?vid=159d9e45-b71a-46c0-83d3-f8ee715f59ee"},"vehicle_type_id":"4","last_reported":1747933760,"current_range_meters":11200,"station_id":"ce4bh692rcd13ifvqe90","pricing_plan_id":"cebpf4jnsgd1na2vs0mg"},{"bike_id":"95f4869c-80ca-466f-9c75-2a87eba51561","system_id":"levelo_inurba_marseille","lat":43.2927,"lon":5.38427,"is_reserved":false,"is_disabled":false,"rental_uris":{"android":"levelo://app?vid=95f4869c-80ca-466f-9c75-2a87eba51561","ios":"levelo://app?vid=95f4869c-80ca-466f-9c75-2a87eba51561"},"vehicle_type_id":"4","last_reported":1747933760,"current_range_meters":11200,"station_id":"ce4bh692rcd13ifvqea0","pricing_plan_id":"cebpf4jnsgd1na2vs0mg"},{"bike_id":"77d351e7-4031-43fb-a118-368e81529b6f","system_id":"levelo_inurba_marseille","lat":43.28631,"lon":5.35096,"is_reserved":false,"is_disabled":false,"rental_uris":{"android":"levelo://app?vid=77d351e7-4031-43fb-a118-368e81529b6f","ios":"levelo://app?vid=77d351e7-4031-43fb-a118-368e81529b6f"},"vehicle_type_id":"4","last_reported":1747933760,"current_range_meters":11200,"station_id":"ce4bhch2rcd13ifvqeug","pricing_plan_id":"cebpf4jnsgd1na2vs0mg"},{"bike_id":"de0fb914-815f-496e-b265-257c322a0437","system_id":"levelo_inurba_marseille","lat":43.26553,"lon":5.37327,"is_reserved":false,"is_disabled":false,"rental_uris":{"android":"levelo://app?vid=de0fb914-815f-496e-b265-257c322a0437","ios":"levelo://app?vid=de0fb914-815f-496e-b265-257c322a0437"},"vehicle_type_id":"4","last_reported":1747933760,"current_range_meters":11200,"station_id":"ce4bhg12rcd13ifvqf70","pricing_plan_id":"cebpf4jnsgd1na2vs0mg"},{"bike_id":"332574d3-de4c-4af7-9337-03ba18ed0438","system_id":"levelo_inurba_marseille","lat":43.264918,"lon":5.395505,"is_reserved":false,"is_disabled":false,"rental_uris":{"android":"levelo://app?vid=332574d3-de4c-4af7-9337-03ba18ed0438","ios":"levelo://app?vid=332574d3-de4c-4af7-9337-03ba18ed0438"},"vehicle_type_id":"4","last_reported":1747933760,"current_range_meters":11200,"station_id":"ce4bhi12rcd13ifvqfq0","pricing_plan_id":"cebpf4jnsgd1na2vs0mg"},{"bike_id":"97cefe16-8a9e-44aa-b4cb-d578d05e2968","system_id":"levelo_inurba_marseille","lat":43.26814,"lon":5.40257,"is_reserved":false,"is_disabled":false,"rental_uris":{"android":"levelo://app?vid=97cefe16-8a9e-44aa-b4cb-d578d05e2968","ios":"levelo://app?vid=97cefe16-8a9e-44aa-b4cb-d578d05e2968"},"vehicle_type_id":"4","last_reported":1747933760,"current_range_meters":11200,"station_id":"ce501612rcd8frsf0b60","pricing_plan_id":"cebpf4jnsgd1na2vs0mg"},{"bike_id":"bc71ac0c-23e5-4f9f-8046-eae94d67cdf4","system_id":"levelo_inurba_marseille","lat":43.24802,"lon":5.37453,"is_reserved":false,"is_disabled":false,"rental_uris":{"android":"levelo://app?vid=bc71ac0c-23e5-4f9f-8046-eae94d67cdf4","ios":"levelo://app?vid=bc71ac0c-23e5-4f9f-8046-eae94d67cdf4"},"vehicle_type_id":"4","last_reported":1747933760,"current_range_meters":11600,"station_id":"","pricing_plan_id":"cebpf4jnsgd1na2vs0mg"},{"bike_id":"71bb6312-7119-4c3a-b9e0-260984c3be94","system_id":"levelo_inurba_marseille","lat":43.273704,"lon":5.362535,"is_reserved":false,"is_disabled":false,"rental_uris":{"android":"levelo://app?vid=71bb6312-7119-4c3a-b9e0-260984c3be94","ios":"levelo://app?vid=71bb6312-7119-4c3a-b9e0-260984c3be94"},"vehicle_type_id":"4","last_reported":1747933760,"current_range_meters":11600,"station_id":"ce4bhbh2rcd13ifvqeo0","pricing_plan_id":"cebpf4jnsgd1na2vs0mg"},{"bike_id":"fc478b53-8c86-4331-b685-e08cb1f0dc78","system_id":"levelo_inurba_marseille","lat":43.28426,"lon":5.35001,"is_reserved":false,"is_disabled":false,"rental_uris":{"android":"levelo://app?vid=fc478b53-8c86-4331-b685-e08cb1f0dc78","ios":"levelo://app?vid=fc478b53-8c86-4331-b685-e08cb1f0dc78"},"vehicle_type_id":"4","last_reported":1747933760,"current_range_meters":11600,"station_id":"ce4bhbh2rcd13ifvqepg","pricing_plan_id":"cebpf4jnsgd1na2vs0mg"},{"bike_id":"75a6aecc-0dda-4624-94f4-8357f3b4700e","system_id":"levelo_inurba_marseille","lat":43.24663,"lon":5.38166,"is_reserved":false,"is_disabled":false,"rental_uris":{"android":"levelo://app?vid=75a6aecc-0dda-4624-94f4-8357f3b4700e","ios":"levelo://app?vid=75a6aecc-0dda-4624-94f4-8357f3b4700e"},"vehicle_type_id":"4","last_reported":1747933760,"current_range_meters":11600,"station_id":"ce4bhih2rcd13ifvqfr0","pricing_plan_id":"cebpf4jnsgd1na2vs0mg"},{"bike_id":"50396d91-c507-4989-8ea7-905040c91c4d","system_id":"levelo_inurba_marseille","lat":43.24546,"lon":5.39524,"is_reserved":false,"is_disabled":false,"rental_uris":{"android":"levelo://app?vid=50396d91-c507-4989-8ea7-905040c91c4d","ios":"levelo://app?vid=50396d91-c507-4989-8ea7-905040c91c4d"},"vehicle_type_id":"4","last_reported":1747933760,"current_range_meters":11600,"station_id":"ce4bhlp2rcd13ifvqgjg","pricing_plan_id":"cebpf4jnsgd1na2vs0mg"},{"bike_id":"e395a821-5bd3-4395-bdfc-80390f409e92","system_id":"levelo_inurba_marseille","lat":43.3254,"lon":5.41425,"is_reserved":false,"is_disabled":false,"rental_uris":{"android":"levelo://app?vid=e395a821-5bd3-4395-bdfc-80390f409e92","ios":"levelo://app?vid=e395a821-5bd3-4395-bdfc-80390f409e92"},"vehicle_type_id":"4","last_reported":1747933760,"current_range_meters":11600,"station_id":"ce4bhq12rcd13ifvqhhg","pricing_plan_id":"cebpf4jnsgd1na2vs0mg"},{"bike_id":"2762eab4-265a-4f3c-a550-30c07f629268","system_id":"levelo_inurba_marseille","lat":43.29532,"lon":5.38543,"is_reserved":false,"is_disabled":false,"rental_uris":{"android":"levelo://app?vid=2762eab4-265a-4f3c-a550-30c07f629268","ios":"levelo://app?vid=2762eab4-265a-4f3c-a550-30c07f629268"},"vehicle_type_id":"4","last_reported":1747933760,"current_range_meters":12000,"station_id":"ce4bgih2rcd13ifvqba0","pricing_plan_id":"cebpf4jnsgd1na2vs0mg"},{"bike_id":"28150559-7d4b-4b56-8029-c46dab1b2e28","system_id":"levelo_inurba_marseille","lat":43.29528,"lon":5.39035,"is_reserved":false,"is_disabled":false,"rental_uris":{"android":"levelo://app?vid=28150559-7d4b-4b56-8029-c46dab1b2e28","ios":"levelo://app?vid=28150559-7d4b-4b56-8029-c46dab1b2e28"},"vehicle_type_id":"4","last_reported":1747933760,"current_range_meters":12000,"station_id":"ce4bh3p2rcd13ifvqdp0","pricing_plan_id":"cebpf4jnsgd1na2vs0mg"},{"bike_id":"e2811b7c-35c6-4f9e-93a5-df34f9fb062f","system_id":"levelo_inurba_marseille","lat":43.27914,"lon":5.39581,"is_reserved":false,"is_disabled":false,"rental_uris":{"android":"levelo://app?vid=e2811b7c-35c6-4f9e-93a5-df34f9fb062f","ios":"levelo://app?vid=e2811b7c-35c6-4f9e-93a5-df34f9fb062f"},"vehicle_type_id":"4","last_reported":1747933760,"current_range_meters":12000,"station_id":"ce4bhf92rcd13ifvqf40","pricing_plan_id":"cebpf4jnsgd1na2vs0mg"},{"bike_id":"98b4804c-04f7-45e7-acbf-b86914fdfedd","system_id":"levelo_inurba_marseille","lat":43.30428,"lon":5.41277,"is_reserved":false,"is_disabled":false,"rental_uris":{"android":"levelo://app?vid=98b4804c-04f7-45e7-acbf-b86914fdfedd","ios":"levelo://app?vid=98b4804c-04f7-45e7-acbf-b86914fdfedd"},"vehicle_type_id":"4","last_reported":1747933760,"current_range_meters":12000,"station_id":"ce4bhop2rcd13ifvqh8g","pricing_plan_id":"cebpf4jnsgd1na2vs0mg"},{"bike_id":"f9223343-51dd-4eb0-a255-7d7bd8e5d0ef","system_id":"levelo_inurba_marseille","lat":43.31192,"lon":5.40198,"is_reserved":false,"is_disabled":false,"rental_uris":{"android":"levelo://app?vid=f9223343-51dd-4eb0-a255-7d7bd8e5d0ef","ios":"levelo://app?vid=f9223343-51dd-4eb0-a255-7d7bd8e5d0ef"},"vehicle_type_id":"4","last_reported":1747933760,"current_range_meters":12400,"station_id":"","pricing_plan_id":"cebpf4jnsgd1na2vs0mg"},{"bike_id":"a54b9530-5791-450e-8b15-6654e4a5fe02","system_id":"levelo_inurba_marseille","lat":43.29787,"lon":5.37109,"is_reserved":false,"is_disabled":false,"rental_uris":{"android":"levelo://app?vid=a54b9530-5791-450e-8b15-6654e4a5fe02","ios":"levelo://app?vid=a54b9530-5791-450e-8b15-6654e4a5fe02"},"vehicle_type_id":"4","last_reported":1747933760,"current_range_meters":12400,"station_id":"ce4bgop2rcd13ifvqc1g","pricing_plan_id":"cebpf4jnsgd1na2vs0mg"},{"bike_id":"d904e7d9-8a5a-49a6-879e-639208dfc5d2","system_id":"levelo_inurba_marseille","lat":43.29515,"lon":5.39039,"is_reserved":false,"is_disabled":false,"rental_uris":{"android":"levelo://app?vid=d904e7d9-8a5a-49a6-879e-639208dfc5d2","ios":"levelo://app?vid=d904e7d9-8a5a-49a6-879e-639208dfc5d2"},"vehicle_type_id":"4","last_reported":1747933760,"current_range_meters":12400,"station_id":"ce4bh3p2rcd13ifvqdp0","pricing_plan_id":"cebpf4jnsgd1na2vs0mg"},{"bike_id":"39cba5ba-cc49-4a39-90b2-31612c6f7456","system_id":"levelo_inurba_marseille","lat":43.23951,"lon":5.36645,"is_reserved":false,"is_disabled":false,"rental_uris":{"android":"levelo://app?vid=39cba5ba-cc49-4a39-90b2-31612c6f7456","ios":"levelo://app?vid=39cba5ba-cc49-4a39-90b2-31612c6f7456"},"vehicle_type_id":"4","last_reported":1747933760,"current_range_meters":12400,"station_id":"ce4bhi12rcd13ifvqfp0","pricing_plan_id":"cebpf4jnsgd1na2vs0mg"},{"bike_id":"bcbce528-f9d7-44b0-8e7c-a8ac87c23372","system_id":"levelo_inurba_marseille","lat":43.31082,"lon":5.42426,"is_reserved":false,"is_disabled":false,"rental_uris":{"android":"levelo://app?vid=bcbce528-f9d7-44b0-8e7c-a8ac87c23372","ios":"levelo://app?vid=bcbce528-f9d7-44b0-8e7c-a8ac87c23372"},"vehicle_type_id":"4","last_reported":1747933760,"current_range_meters":12400,"station_id":"ce4bhp92rcd13ifvqhag","pricing_plan_id":"cebpf4jnsgd1na2vs0mg"},{"bike_id":"c2ea5a9c-8fd7-40ac-8515-427466010d70","system_id":"levelo_inurba_marseille","lat":43.32108,"lon":5.36766,"is_reserved":false,"is_disabled":false,"rental_uris":{"android":"levelo://app?vid=c2ea5a9c-8fd7-40ac-8515-427466010d70","ios":"levelo://app?vid=c2ea5a9c-8fd7-40ac-8515-427466010d70"},"vehicle_type_id":"4","last_reported":1747933760,"current_range_meters":12400,"station_id":"ce4bhrh2rcd13ifvqhug","pricing_plan_id":"cebpf4jnsgd1na2vs0mg"},{"bike_id":"6264a145-60b7-471c-83e8-62c0d2e96514","system_id":"levelo_inurba_marseille","lat":43.30191,"lon":5.36626,"is_reserved":false,"is_disabled":false,"rental_uris":{"android":"levelo://app?vid=6264a145-60b7-471c-83e8-62c0d2e96514","ios":"levelo://app?vid=6264a145-60b7-471c-83e8-62c0d2e96514"},"vehicle_type_id":"4","last_reported":1747933760,"current_range_meters":12800,"station_id":"ce4bgrh2rcd13ifvqc8g","pricing_plan_id":"cebpf4jnsgd1na2vs0mg"},{"bike_id":"e5f18f33-d07c-43ad-9755-519aa910d1b4","system_id":"levelo_inurba_marseille","lat":43.31331,"lon":5.39689,"is_reserved":false,"is_disabled":false,"rental_uris":{"android":"levelo://app?vid=e5f18f33-d07c-43ad-9755-519aa910d1b4","ios":"levelo://app?vid=e5f18f33-d07c-43ad-9755-519aa910d1b4"},"vehicle_type_id":"4","last_reported":1747933760,"current_range_meters":12800,"station_id":"ce4bgvp2rcd13ifvqcu0","pricing_plan_id":"cebpf4jnsgd1na2vs0mg"},{"bike_id":"d0d6ebfd-4b6a-4609-897a-2997b43a2744","system_id":"levelo_inurba_marseille","lat":43.272,"lon":5.39194,"is_reserved":false,"is_disabled":false,"rental_uris":{"android":"levelo://app?vid=d0d6ebfd-4b6a-4609-897a-2997b43a2744","ios":"levelo://app?vid=d0d6ebfd-4b6a-4609-897a-2997b43a2744"},"vehicle_type_id":"4","last_reported":1747933760,"current_range_meters":12800,"station_id":"ce4bhhp2rcd13ifvqfm0","pricing_plan_id":"cebpf4jnsgd1na2vs0mg"},{"bike_id":"46ad8bd8-1014-4533-a1ca-c2c00f4b46be","system_id":"levelo_inurba_marseille","lat":43.287,"lon":5.39982,"is_reserved":false,"is_disabled":false,"rental_uris":{"android":"levelo://app?vid=46ad8bd8-1014-4533-a1ca-c2c00f4b46be","ios":"levelo://app?vid=46ad8bd8-1014-4533-a1ca-c2c00f4b46be"},"vehicle_type_id":"4","last_reported":1747933760,"current_range_meters":12800,"station_id":"ce4bho92rcd13ifvqh3g","pricing_plan_id":"cebpf4jnsgd1na2vs0mg"},{"bike_id":"84f00b51-2429-41be-8a43-83978d7764de","system_id":"levelo_inurba_marseille","lat":43.27998,"lon":5.40006,"is_reserved":false,"is_disabled":false,"rental_uris":{"android":"levelo://app?vid=84f00b51-2429-41be-8a43-83978d7764de","ios":"levelo://app?vid=84f00b51-2429-41be-8a43-83978d7764de"},"vehicle_type_id":"4","last_reported":1747933760,"current_range_meters":12800,"station_id":"ce4bho92rcd13ifvqh4g","pricing_plan_id":"cebpf4jnsgd1na2vs0mg"},{"bike_id":"7da06f34-e019-4b18-921d-8f77e54cc2f1","system_id":"levelo_inurba_marseille","lat":43.24878,"lon":5.39391,"is_reserved":false,"is_disabled":false,"rental_uris":{"android":"levelo://app?vid=7da06f34-e019-4b18-921d-8f77e54cc2f1","ios":"levelo://app?vid=7da06f34-e019-4b18-921d-8f77e54cc2f1"},"vehicle_type_id":"4","last_reported":1747933760,"current_range_meters":13600,"station_id":"","pricing_plan_id":"cebpf4jnsgd1na2vs0mg"},{"bike_id":"45fd7195-86b0-4d66-950c-b1d1c1b61d5d","system_id":"levelo_inurba_marseille","lat":43.29774,"lon":5.371,"is_reserved":false,"is_disabled":false,"rental_uris":{"android":"levelo://app?vid=45fd7195-86b0-4d66-950c-b1d1c1b61d5d","ios":"levelo://app?vid=45fd7195-86b0-4d66-950c-b1d1c1b61d5d"},"vehicle_type_id":"4","last_reported":1747933760,"current_range_meters":13600,"station_id":"ce4bgop2rcd13ifvqc1g","pricing_plan_id":"cebpf4jnsgd1na2vs0mg"},{"bike_id":"1dfee687-a17b-465b-9805-ced3f96e1f7b","system_id":"levelo_inurba_marseille","lat":43.31092,"lon":5.37775,"is_reserved":false,"is_disabled":false,"rental_uris":{"android":"levelo://app?vid=1dfee687-a17b-465b-9805-ced3f96e1f7b","ios":"levelo://app?vid=1dfee687-a17b-465b-9805-ced3f96e1f7b"},"vehicle_type_id":"4","last_reported":1747933760,"current_range_meters":13600,"station_id":"ce4bgt92rcd13ifvqcg0","pricing_plan_id":"cebpf4jnsgd1na2vs0mg"},{"bike_id":"c7a24213-c9db-459e-b458-e2a3fb2c3b8b","system_id":"levelo_inurba_marseille","lat":43.29872,"lon":5.39733,"is_reserved":false,"is_disabled":false,"rental_uris":{"android":"levelo://app?vid=c7a24213-c9db-459e-b458-e2a3fb2c3b8b","ios":"levelo://app?vid=c7a24213-c9db-459e-b458-e2a3fb2c3b8b"},"vehicle_type_id":"4","last_reported":1747933760,"current_range_meters":13600,"station_id":"ce4bh0h2rcd13ifvqd50","pricing_plan_id":"cebpf4jnsgd1na2vs0mg"},{"bike_id":"665b73db-847c-4162-be3a-f9fe18819e9a","system_id":"levelo_inurba_marseille","lat":43.28623,"lon":5.3511,"is_reserved":false,"is_disabled":false,"rental_uris":{"android":"levelo://app?vid=665b73db-847c-4162-be3a-f9fe18819e9a","ios":"levelo://app?vid=665b73db-847c-4162-be3a-f9fe18819e9a"},"vehicle_type_id":"4","last_reported":1747933760,"current_range_meters":13600,"station_id":"ce4bhch2rcd13ifvqeug","pricing_plan_id":"cebpf4jnsgd1na2vs0mg"},{"bike_id":"682e8c54-3f77-4582-937b-7490f31456f6","system_id":"levelo_inurba_marseille","lat":43.25866,"lon":5.39902,"is_reserved":false,"is_disabled":false,"rental_uris":{"android":"levelo://app?vid=682e8c54-3f77-4582-937b-7490f31456f6","ios":"levelo://app?vid=682e8c54-3f77-4582-937b-7490f31456f6"},"vehicle_type_id":"4","last_reported":1747933760,"current_range_meters":13600,"station_id":"ce4bhl92rcd13ifvqghg","pricing_plan_id":"cebpf4jnsgd1na2vs0mg"},{"bike_id":"c4aba288-77fc-4f95-85d0-c86abfac4fc7","system_id":"levelo_inurba_marseille","lat":43.28408,"lon":5.3752,"is_reserved":false,"is_disabled":false,"rental_uris":{"android":"levelo://app?vid=c4aba288-77fc-4f95-85d0-c86abfac4fc7","ios":"levelo://app?vid=c4aba288-77fc-4f95-85d0-c86abfac4fc7"},"vehicle_type_id":"4","last_reported":1747933760,"current_range_meters":14000,"station_id":"ce4bh412rcd13ifvqds0","pricing_plan_id":"cebpf4jnsgd1na2vs0mg"},{"bike_id":"65709e04-dd2d-4829-ad4c-b8b87c733266","system_id":"levelo_inurba_marseille","lat":43.292651,"lon":5.384303,"is_reserved":false,"is_disabled":false,"rental_uris":{"android":"levelo://app?vid=65709e04-dd2d-4829-ad4c-b8b87c733266","ios":"levelo://app?vid=65709e04-dd2d-4829-ad4c-b8b87c733266"},"vehicle_type_id":"4","last_reported":1747933760,"current_range_meters":14000,"station_id":"ce4bh692rcd13ifvqea0","pricing_plan_id":"cebpf4jnsgd1na2vs0mg"},{"bike_id":"e77b9d43-a803-4f5c-912a-7a91f5e7da59","system_id":"levelo_inurba_marseille","lat":43.28437,"lon":5.34983,"is_reserved":false,"is_disabled":false,"rental_uris":{"android":"levelo://app?vid=e77b9d43-a803-4f5c-912a-7a91f5e7da59","ios":"levelo://app?vid=e77b9d43-a803-4f5c-912a-7a91f5e7da59"},"vehicle_type_id":"4","last_reported":1747933760,"current_range_meters":14000,"station_id":"ce4bhbh2rcd13ifvqepg","pricing_plan_id":"cebpf4jnsgd1na2vs0mg"},{"bike_id":"7c794c9d-5f9d-4cde-bb1b-0961b731c71a","system_id":"levelo_inurba_marseille","lat":43.28263,"lon":5.35063,"is_reserved":false,"is_disabled":false,"rental_uris":{"android":"levelo://app?vid=7c794c9d-5f9d-4cde-bb1b-0961b731c71a","ios":"levelo://app?vid=7c794c9d-5f9d-4cde-bb1b-0961b731c71a"},"vehicle_type_id":"4","last_reported":1747933760,"current_range_meters":14000,"station_id":"ce4bhbp2rcd13ifvqerg","pricing_plan_id":"cebpf4jnsgd1na2vs0mg"},{"bike_id":"19296e05-b4f3-4e79-9227-4cf9379b2e97","system_id":"levelo_inurba_marseille","lat":43.25578,"lon":5.38229,"is_reserved":false,"is_disabled":false,"rental_uris":{"android":"levelo://app?vid=19296e05-b4f3-4e79-9227-4cf9379b2e97","ios":"levelo://app?vid=19296e05-b4f3-4e79-9227-4cf9379b2e97"},"vehicle_type_id":"4","last_reported":1747933760,"current_range_meters":14000,"station_id":"ce4bhih2rcd13ifvqfs0","pricing_plan_id":"cebpf4jnsgd1na2vs0mg"},{"bike_id":"e3e19b90-9823-4b53-b8a7-4c599b3176c2","system_id":"levelo_inurba_marseille","lat":43.25109,"lon":5.40332,"is_reserved":false,"is_disabled":false,"rental_uris":{"android":"levelo://app?vid=e3e19b90-9823-4b53-b8a7-4c599b3176c2","ios":"levelo://app?vid=e3e19b90-9823-4b53-b8a7-4c599b3176c2"},"vehicle_type_id":"4","last_reported":1747933760,"current_range_meters":14000,"station_id":"ce4bhlh2rcd13ifvqgig","pricing_plan_id":"cebpf4jnsgd1na2vs0mg"},{"bike_id":"cebfe6eb-4f77-4193-b4cf-7b857e5ea088","system_id":"levelo_inurba_marseille","lat":43.26671,"lon":5.389761,"is_reserved":false,"is_disabled":false,"rental_uris":{"android":"levelo://app?vid=cebfe6eb-4f77-4193-b4cf-7b857e5ea088","ios":"levelo://app?vid=cebfe6eb-4f77-4193-b4cf-7b857e5ea088"},"vehicle_type_id":"4","last_reported":1747933760,"current_range_meters":14400,"station_id":"","pricing_plan_id":"cebpf4jnsgd1na2vs0mg"},{"bike_id":"aa1fd940-0a8c-4454-861a-cf76dbdea24d","system_id":"levelo_inurba_marseille","lat":43.3009,"lon":5.3906,"is_reserved":false,"is_disabled":false,"rental_uris":{"android":"levelo://app?vid=aa1fd940-0a8c-4454-861a-cf76dbdea24d","ios":"levelo://app?vid=aa1fd940-0a8c-4454-861a-cf76dbdea24d"},"vehicle_type_id":"4","last_reported":1747933760,"current_range_meters":14400,"station_id":"ce4bh192rcd13ifvqdb0","pricing_plan_id":"cebpf4jnsgd1na2vs0mg"},{"bike_id":"8774b4da-5a70-49e9-a83e-aaf76cb570b2","system_id":"levelo_inurba_marseille","lat":43.28931,"lon":5.38409,"is_reserved":false,"is_disabled":false,"rental_uris":{"android":"levelo://app?vid=8774b4da-5a70-49e9-a83e-aaf76cb570b2","ios":"levelo://app?vid=8774b4da-5a70-49e9-a83e-aaf76cb570b2"},"vehicle_type_id":"4","last_reported":1747933760,"current_range_meters":14400,"station_id":"ce4bh612rcd13ifvqe6g","pricing_plan_id":"cebpf4jnsgd1na2vs0mg"},{"bike_id":"105e9b63-957d-4c32-a91f-f616b9c7a877","system_id":"levelo_inurba_marseille","lat":43.292009,"lon":5.358026,"is_reserved":false,"is_disabled":false,"rental_uris":{"android":"levelo://app?vid=105e9b63-957d-4c32-a91f-f616b9c7a877","ios":"levelo://app?vid=105e9b63-957d-4c32-a91f-f616b9c7a877"},"vehicle_type_id":"4","last_reported":1747933760,"current_range_meters":14400,"station_id":"ce4bhb12rcd13ifvqel0","pricing_plan_id":"cebpf4jnsgd1na2vs0mg"},{"bike_id":"2c87c810-7a38-4e57-b8f4-53b1ff151be1","system_id":"levelo_inurba_marseille","lat":43.28617,"lon":5.35111,"is_reserved":false,"is_disabled":false,"rental_uris":{"android":"levelo://app?vid=2c87c810-7a38-4e57-b8f4-53b1ff151be1","ios":"levelo://app?vid=2c87c810-7a38-4e57-b8f4-53b1ff151be1"},"vehicle_type_id":"4","last_reported":1747933760,"current_range_meters":14400,"station_id":"ce4bhch2rcd13ifvqeug","pricing_plan_id":"cebpf4jnsgd1na2vs0mg"},{"bike_id":"d3ec0618-0497-424f-8209-d9b966342f1f","system_id":"levelo_inurba_marseille","lat":43.24652,"lon":5.38894,"is_reserved":false,"is_disabled":false,"rental_uris":{"android":"levelo://app?vid=d3ec0618-0497-424f-8209-d9b966342f1f","ios":"levelo://app?vid=d3ec0618-0497-424f-8209-d9b966342f1f"},"vehicle_type_id":"4","last_reported":1747933760,"current_range_meters":14400,"station_id":"ce4bhg12rcd13ifvqf60","pricing_plan_id":"cebpf4jnsgd1na2vs0mg"},{"bike_id":"a30e9205-cc02-4dfc-aaaa-7ec0a8cd3df5","system_id":"levelo_inurba_marseille","lat":43.32323,"lon":5.40627,"is_reserved":false,"is_disabled":false,"rental_uris":{"android":"levelo://app?vid=a30e9205-cc02-4dfc-aaaa-7ec0a8cd3df5","ios":"levelo://app?vid=a30e9205-cc02-4dfc-aaaa-7ec0a8cd3df5"},"vehicle_type_id":"4","last_reported":1747933760,"current_range_meters":14400,"station_id":"ce4bhq92rcd13ifvqhjg","pricing_plan_id":"cebpf4jnsgd1na2vs0mg"},{"bike_id":"b17f4d77-4af5-4e2c-ba22-92595ad072e2","system_id":"levelo_inurba_marseille","lat":43.24651,"lon":5.38899,"is_reserved":false,"is_disabled":false,"rental_uris":{"android":"levelo://app?vid=b17f4d77-4af5-4e2c-ba22-92595ad072e2","ios":"levelo://app?vid=b17f4d77-4af5-4e2c-ba22-92595ad072e2"},"vehicle_type_id":"4","last_reported":1747933760,"current_range_meters":14800,"station_id":"ce4bhg12rcd13ifvqf60","pricing_plan_id":"cebpf4jnsgd1na2vs0mg"},{"bike_id":"6f46cbc7-6441-4665-a8b9-2bfe633d517a","system_id":"levelo_inurba_marseille","lat":43.27566,"lon":5.38427,"is_reserved":false,"is_disabled":false,"rental_uris":{"android":"levelo://app?vid=6f46cbc7-6441-4665-a8b9-2bfe633d517a","ios":"levelo://app?vid=6f46cbc7-6441-4665-a8b9-2bfe633d517a"},"vehicle_type_id":"4","last_reported":1747933760,"current_range_meters":14800,"station_id":"ce4bhh92rcd13ifvqfi0","pricing_plan_id":"cebpf4jnsgd1na2vs0mg"},{"bike_id":"570f3e32-3397-4b8d-872f-e202ba197dc9","system_id":"levelo_inurba_marseille","lat":43.28154,"lon":5.42643,"is_reserved":false,"is_disabled":false,"rental_uris":{"android":"levelo://app?vid=570f3e32-3397-4b8d-872f-e202ba197dc9","ios":"levelo://app?vid=570f3e32-3397-4b8d-872f-e202ba197dc9"},"vehicle_type_id":"4","last_reported":1747933760,"current_range_meters":14800,"station_id":"ce4bhnh2rcd13ifvqgug","pricing_plan_id":"cebpf4jnsgd1na2vs0mg"},{"bike_id":"87d5ffc1-06bf-4386-a013-9310fd1ba7ab","system_id":"levelo_inurba_marseille","lat":43.287919,"lon":5.391149,"is_reserved":false,"is_disabled":false,"rental_uris":{"android":"levelo://app?vid=87d5ffc1-06bf-4386-a013-9310fd1ba7ab","ios":"levelo://app?vid=87d5ffc1-06bf-4386-a013-9310fd1ba7ab"},"vehicle_type_id":"4","last_reported":1747933760,"current_range_meters":15200,"station_id":"chh1huq6cuj3fo74tm60","pricing_plan_id":"cebpf4jnsgd1na2vs0mg"},{"bike_id":"605be4bf-deee-4b33-a4cb-0294e9797557","system_id":"levelo_inurba_marseille","lat":43.2308,"lon":5.35489,"is_reserved":false,"is_disabled":false,"rental_uris":{"android":"levelo://app?vid=605be4bf-deee-4b33-a4cb-0294e9797557","ios":"levelo://app?vid=605be4bf-deee-4b33-a4cb-0294e9797557"},"vehicle_type_id":"4","last_reported":1747933760,"current_range_meters":15200,"station_id":"cpo3342slgdg3j2ifvpg","pricing_plan_id":"cebpf4jnsgd1na2vs0mg"},{"bike_id":"817348e2-fb05-4de7-96f6-c8b207cb8ed8","system_id":"levelo_inurba_marseille","lat":43.21199,"lon":5.35072,"is_reserved":false,"is_disabled":false,"rental_uris":{"android":"levelo://app?vid=817348e2-fb05-4de7-96f6-c8b207cb8ed8","ios":"levelo://app?vid=817348e2-fb05-4de7-96f6-c8b207cb8ed8"},"vehicle_type_id":"4","last_reported":1747933760,"current_range_meters":15200,"station_id":"st_cvj6sg6p6f1abm77japg","pricing_plan_id":"cebpf4jnsgd1na2vs0mg"},{"bike_id":"7ac37cc1-d8b7-4def-b199-e8ee10b3f315","system_id":"levelo_inurba_marseille","lat":43.29974,"lon":5.4005,"is_reserved":false,"is_disabled":false,"rental_uris":{"android":"levelo://app?vid=7ac37cc1-d8b7-4def-b199-e8ee10b3f315","ios":"levelo://app?vid=7ac37cc1-d8b7-4def-b199-e8ee10b3f315"},"vehicle_type_id":"4","last_reported":1747933760,"current_range_meters":16000,"station_id":"","pricing_plan_id":"cebpf4jnsgd1na2vs0mg"},{"bike_id":"41bef200-0210-46a9-afd1-c001d345c4b0","system_id":"levelo_inurba_marseille","lat":43.33651,"lon":5.37833,"is_reserved":false,"is_disabled":false,"rental_uris":{"android":"levelo://app?vid=41bef200-0210-46a9-afd1-c001d345c4b0","ios":"levelo://app?vid=41bef200-0210-46a9-afd1-c001d345c4b0"},"vehicle_type_id":"4","last_reported":1747933760,"current_range_meters":16000,"station_id":"","pricing_plan_id":"cebpf4jnsgd1na2vs0mg"},{"bike_id":"77563226-eae9-40e7-8469-88757ff840f1","system_id":"levelo_inurba_marseille","lat":43.27914,"lon":5.39598,"is_reserved":false,"is_disabled":false,"rental_uris":{"android":"levelo://app?vid=77563226-eae9-40e7-8469-88757ff840f1","ios":"levelo://app?vid=77563226-eae9-40e7-8469-88757ff840f1"},"vehicle_type_id":"4","last_reported":1747933760,"current_range_meters":16000,"station_id":"ce4bhf92rcd13ifvqf40","pricing_plan_id":"cebpf4jnsgd1na2vs0mg"},{"bike_id":"4aa33abb-f8b1-4406-8249-c759069bc5ce","system_id":"levelo_inurba_marseille","lat":43.24647,"lon":5.38904,"is_reserved":false,"is_disabled":false,"rental_uris":{"android":"levelo://app?vid=4aa33abb-f8b1-4406-8249-c759069bc5ce","ios":"levelo://app?vid=4aa33abb-f8b1-4406-8249-c759069bc5ce"},"vehicle_type_id":"4","last_reported":1747933760,"current_range_meters":16000,"station_id":"ce4bhg12rcd13ifvqf60","pricing_plan_id":"cebpf4jnsgd1na2vs0mg"},{"bike_id":"bafa6d31-974a-466d-bafb-1113bbddbf4f","system_id":"levelo_inurba_marseille","lat":43.25113,"lon":5.40309,"is_reserved":false,"is_disabled":false,"rental_uris":{"android":"levelo://app?vid=bafa6d31-974a-466d-bafb-1113bbddbf4f","ios":"levelo://app?vid=bafa6d31-974a-466d-bafb-1113bbddbf4f"},"vehicle_type_id":"4","last_reported":1747933760,"current_range_meters":16000,"station_id":"ce4bhlh2rcd13ifvqgig","pricing_plan_id":"cebpf4jnsgd1na2vs0mg"},{"bike_id":"afb204a5-c5b7-4ca0-86dd-661482f5f266","system_id":"levelo_inurba_marseille","lat":43.27688,"lon":5.38922,"is_reserved":false,"is_disabled":false,"rental_uris":{"android":"levelo://app?vid=afb204a5-c5b7-4ca0-86dd-661482f5f266","ios":"levelo://app?vid=afb204a5-c5b7-4ca0-86dd-661482f5f266"},"vehicle_type_id":"4","last_reported":1747933760,"current_range_meters":16400,"station_id":"ce4bhi12rcd13ifvqfo0","pricing_plan_id":"cebpf4jnsgd1na2vs0mg"},{"bike_id":"e3eacefa-2ca6-4996-82e3-fd40437168db","system_id":"levelo_inurba_marseille","lat":43.2783,"lon":5.39216,"is_reserved":false,"is_disabled":false,"rental_uris":{"android":"levelo://app?vid=e3eacefa-2ca6-4996-82e3-fd40437168db","ios":"levelo://app?vid=e3eacefa-2ca6-4996-82e3-fd40437168db"},"vehicle_type_id":"4","last_reported":1747933760,"current_range_meters":16400,"station_id":"ce4bhjp2rcd13ifvqga0","pricing_plan_id":"cebpf4jnsgd1na2vs0mg"},{"bike_id":"9e6c43fe-0bc2-471e-9cdb-7e4b7a2e840c","system_id":"levelo_inurba_marseille","lat":43.28156,"lon":5.42641,"is_reserved":false,"is_disabled":false,"rental_uris":{"android":"levelo://app?vid=9e6c43fe-0bc2-471e-9cdb-7e4b7a2e840c","ios":"levelo://app?vid=9e6c43fe-0bc2-471e-9cdb-7e4b7a2e840c"},"vehicle_type_id":"4","last_reported":1747933760,"current_range_meters":16400,"station_id":"ce4bhnh2rcd13ifvqgug","pricing_plan_id":"cebpf4jnsgd1na2vs0mg"},{"bike_id":"6dde22b3-be2c-4353-838d-05c85608e4d3","system_id":"levelo_inurba_marseille","lat":43.32378,"lon":5.36758,"is_reserved":false,"is_disabled":false,"rental_uris":{"android":"levelo://app?vid=6dde22b3-be2c-4353-838d-05c85608e4d3","ios":"levelo://app?vid=6dde22b3-be2c-4353-838d-05c85608e4d3"},"vehicle_type_id":"4","last_reported":1747933760,"current_range_meters":16400,"station_id":"ce4bhsh2rcd13ifvqi2g","pricing_plan_id":"cebpf4jnsgd1na2vs0mg"},{"bike_id":"c0a363d1-3bb5-4d7a-a4e8-50a1272c1a00","system_id":"levelo_inurba_marseille","lat":43.23202,"lon":5.35557,"is_reserved":false,"is_disabled":false,"rental_uris":{"android":"levelo://app?vid=c0a363d1-3bb5-4d7a-a4e8-50a1272c1a00","ios":"levelo://app?vid=c0a363d1-3bb5-4d7a-a4e8-50a1272c1a00"},"vehicle_type_id":"4","last_reported":1747933760,"current_range_meters":16400,"station_id":"ce4bhu92rcd13ifvqi70","pricing_plan_id":"cebpf4jnsgd1na2vs0mg"},{"bike_id":"79efb592-1754-4cd2-ae01-9f2124c4f0f3","system_id":"levelo_inurba_marseille","lat":43.29026,"lon":5.38643,"is_reserved":false,"is_disabled":false,"rental_uris":{"android":"levelo://app?vid=79efb592-1754-4cd2-ae01-9f2124c4f0f3","ios":"levelo://app?vid=79efb592-1754-4cd2-ae01-9f2124c4f0f3"},"vehicle_type_id":"4","last_reported":1747933760,"current_range_meters":16800,"station_id":"ce4bh4p2rcd13ifvqe0g","pricing_plan_id":"cebpf4jnsgd1na2vs0mg"},{"bike_id":"fe2bcf9d-31d4-4e1d-9ee0-245e9981459f","system_id":"levelo_inurba_marseille","lat":43.29268,"lon":5.38432,"is_reserved":false,"is_disabled":false,"rental_uris":{"android":"levelo://app?vid=fe2bcf9d-31d4-4e1d-9ee0-245e9981459f","ios":"levelo://app?vid=fe2bcf9d-31d4-4e1d-9ee0-245e9981459f"},"vehicle_type_id":"4","last_reported":1747933760,"current_range_meters":16800,"station_id":"ce4bh692rcd13ifvqea0","pricing_plan_id":"cebpf4jnsgd1na2vs0mg"},{"bike_id":"4810926d-d599-4fda-b973-0ef990ba4f67","system_id":"levelo_inurba_marseille","lat":43.290078,"lon":5.35613,"is_reserved":false,"is_disabled":false,"rental_uris":{"android":"levelo://app?vid=4810926d-d599-4fda-b973-0ef990ba4f67","ios":"levelo://app?vid=4810926d-d599-4fda-b973-0ef990ba4f67"},"vehicle_type_id":"4","last_reported":1747933760,"current_range_meters":16800,"station_id":"ce4bhb92rcd13ifvqen0","pricing_plan_id":"cebpf4jnsgd1na2vs0mg"},{"bike_id":"a798eef8-c007-4e16-853c-244b6e137a9a","system_id":"levelo_inurba_marseille","lat":43.284181,"lon":5.349754,"is_reserved":false,"is_disabled":false,"rental_uris":{"android":"levelo://app?vid=a798eef8-c007-4e16-853c-244b6e137a9a","ios":"levelo://app?vid=a798eef8-c007-4e16-853c-244b6e137a9a"},"vehicle_type_id":"4","last_reported":1747933760,"current_range_meters":16800,"station_id":"ce4bhbh2rcd13ifvqepg","pricing_plan_id":"cebpf4jnsgd1na2vs0mg"},{"bike_id":"ede93f35-30d2-4e0b-8318-9b079bdad427","system_id":"levelo_inurba_marseille","lat":43.25573,"lon":5.38263,"is_reserved":false,"is_disabled":false,"rental_uris":{"android":"levelo://app?vid=ede93f35-30d2-4e0b-8318-9b079bdad427","ios":"levelo://app?vid=ede93f35-30d2-4e0b-8318-9b079bdad427"},"vehicle_type_id":"4","last_reported":1747933760,"current_range_meters":16800,"station_id":"ce4bhih2rcd13ifvqfs0","pricing_plan_id":"cebpf4jnsgd1na2vs0mg"},{"bike_id":"8f5ad702-5ff8-41ee-b034-3d5a2428c0c5","system_id":"levelo_inurba_marseille","lat":43.25108,"lon":5.40323,"is_reserved":false,"is_disabled":false,"rental_uris":{"android":"levelo://app?vid=8f5ad702-5ff8-41ee-b034-3d5a2428c0c5","ios":"levelo://app?vid=8f5ad702-5ff8-41ee-b034-3d5a2428c0c5"},"vehicle_type_id":"4","last_reported":1747933760,"current_range_meters":16800,"station_id":"ce4bhlh2rcd13ifvqgig","pricing_plan_id":"cebpf4jnsgd1na2vs0mg"},{"bike_id":"59aa252f-9923-4da6-b784-702eb21726fb","system_id":"levelo_inurba_marseille","lat":43.25126,"lon":5.40298,"is_reserved":false,"is_disabled":false,"rental_uris":{"android":"levelo://app?vid=59aa252f-9923-4da6-b784-702eb21726fb","ios":"levelo://app?vid=59aa252f-9923-4da6-b784-702eb21726fb"},