{"last_updated":1758294573,"ttl":60,"version":"2.2","data":{"bikes":[{"bike_id":"c05e7359-6652-44fb-aa59-55bc37d6eda9","system_id":"levelo_inurba_marseille","lat":43.272081,"lon":5.391829,"is_reserved":false,"is_disabled":false,"rental_uris":{"android":"levelo://app?vid=c05e7359-6652-44fb-aa59-55bc37d6eda9","ios":"levelo://app?vid=c05e7359-6652-44fb-aa59-55bc37d6eda9"},"vehicle_type_id":"4","last_reported":1758294574,"current_range_meters":2800,"station_id":"ce4bhhp2rcd13ifvqfm0","pricing_plan_id":"cebpf4jnsgd1na2vs0mg"},{"bike_id":"3576fee0-9a67-46d7-960d-14152dc6499f","system_id":"levelo_inurba_marseille","lat":43.29198,"lon":5.35801,"is_reserved":false,"is_disabled":false,"rental_uris":{"android":"levelo://app?vid=3576fee0-9a67-46d7-960d-14152dc6499f","ios":"levelo://app?vid=3576fee0-9a67-46d7-960d-14152dc6499f"},"vehicle_type_id":"4","last_reported":1758294574,"current_range_meters":2800,"station_id":"ce4bhb12rcd13ifvqel0","pricing_plan_id":"cebpf4jnsgd1na2vs0mg"},{"bike_id":"254350d2-b0f8-4739-ae4d-2a5e62b990aa","system_id":"levelo_inurba_marseille","lat":43.287231,"lon":5.360922,"is_reserved":false,"is_disabled":false,"rental_uris":{"android":"levelo://app?vid=254350d2-b0f8-4739-ae4d-2a5e62b990aa","ios":"levelo://app?vid=254350d2-b0f8-4739-ae4d-2a5e62b990aa"},"vehicle_type_id":"4","last_reported":1758294574,"current_range_meters":3200,"station_id":"cki0cbj6b192h4jlfktg","pricing_plan_id":"cebpf4jnsgd1na2vs0mg"},{"bike_id":"e7681389-8746-4002-9581-34d1074d77a9","system_id":"levelo_inurba_marseille","lat":43.26191,"lon":5.37451,"is_reserved":false,"is_disabled":false,"rental_uris":{"android":"levelo://app?vid=e7681389-8746-4002-9581-34d1074d77a9","ios":"levelo://app?vid=e7681389-8746-4002-9581-34d1074d77a9"},"vehicle_type_id":"4","last_reported":1758294574,"current_range_meters":3200,"station_id":"ce4bhgp2rcd13ifvqfc0","pricing_plan_id":"cebpf4jnsgd1na2vs0mg"},{"bike_id":"f2780eb9-2efa-408f-ad62-85583f1c0bb4","system_id":"levelo_inurba_marseille","lat":43.3014,"lon":5.38779,"is_reserved":false,"is_disabled":false,"rental_uris":{"android":"levelo://app?vid=f2780eb9-2efa-408f-ad62-85583f1c0bb4","ios":"levelo://app?vid=f2780eb9-2efa-408f-ad62-85583f1c0bb4"},"vehicle_type_id":"4","last_reported":1758294574,"current_range_meters":4000,"station_id":"ce4bghh2rcd13ifvqb60","pricing_plan_id":"cebpf4jnsgd1na2vs0mg"},{"bike_id":"b34793c6-5d8e-44a8-ba13-9c3040c9ce24","system_id":"levelo_inurba_marseille","lat":43.32478,"lon":5.36565,"is_reserved":false,"is_disabled":false,"rental_uris":{"android":"levelo://app?vid=b34793c6-5d8e-44a8-ba13-9c3040c9ce24","ios":"levelo://app?vid=b34793c6-5d8e-44a8-ba13-9c3040c9ce24"},"vehicle_type_id":"4","last_reported":1758294574,"current_range_meters":4000,"station_id":"ce4bhs12rcd13ifvqhvg","pricing_plan_id":"cebpf4jnsgd1na2vs0mg"},{"bike_id":"cdd4a8a4-df6d-47a9-ad5c-cf5629aad525","system_id":"levelo_inurba_marseille","lat":43.31169,"lon":5.38721,"is_reserved":false,"is_disabled":false,"rental_uris":{"android":"levelo://app?vid=cdd4a8a4-df6d-47a9-ad5c-cf5629aad525","ios":"levelo://app?vid=cdd4a8a4-df6d-47a9-ad5c-cf5629aad525"},"vehicle_type_id":"4","last_reported":1758294574,"current_range_meters":4000,"station_id":"ce4bgv12rcd13ifvqcp0","pricing_plan_id":"cebpf4jnsgd1na2vs0mg"},{"bike_id":"91813328-dbaa-4804-a244-0a2041c8adcb","system_id":"levelo_inurba_marseille","lat":43.337444,"lon":5.374475,"is_reserved":false,"is_disabled":false,"rental_uris":{"android":"levelo://app?vid=91813328-dbaa-4804-a244-0a2041c8adcb","ios":"levelo://app?vid=91813328-dbaa-4804-a244-0a2041c8adcb"},"vehicle_type_id":"4","last_reported":1758294574,"current_range_meters":4000,"station_id":"ce4bh392rcd13ifvqdm0","pricing_plan_id":"cebpf4jnsgd1na2vs0mg"},{"bike_id":"f257cafd-40e5-43b9-b0df-e393327002c1","system_id":"levelo_inurba_marseille","lat":43.31167,"lon":5.38716,"is_reserved":false,"is_disabled":false,"rental_uris":{"android":"levelo://app?vid=f257cafd-40e5-43b9-b0df-e393327002c1","ios":"levelo://app?vid=f257cafd-40e5-43b9-b0df-e393327002c1"},"vehicle_type_id":"4","last_reported":1758294574,"current_range_meters":4000,"station_id":"ce4bgv12rcd13ifvqcp0","pricing_plan_id":"cebpf4jnsgd1na2vs0mg"},{"bike_id":"579291d9-4a9d-4c81-adb6-8db6c565920a","system_id":"levelo_inurba_marseille","lat":43.32366,"lon":5.388834,"is_reserved":false,"is_disabled":false,"rental_uris":{"android":"levelo://app?vid=579291d9-4a9d-4c81-adb6-8db6c565920a","ios":"levelo://app?vid=579291d9-4a9d-4c81-adb6-8db6c565920a"},"vehicle_type_id":"4","last_reported":1758294574,"current_range_meters":4000,"station_id":"ce4bhqp2rcd13ifvqhog","pricing_plan_id":"cebpf4jnsgd1na2vs0mg"},{"bike_id":"4997560e-e0fc-4857-85b6-45c2b515368f","system_id":"levelo_inurba_marseille","lat":43.315117,"lon":5.380245,"is_reserved":false,"is_disabled":false,"rental_uris":{"android":"levelo://app?vid=4997560e-e0fc-4857-85b6-45c2b515368f","ios":"levelo://app?vid=4997560e-e0fc-4857-85b6-45c2b515368f"},"vehicle_type_id":"4","last_reported":1758294574,"current_range_meters":4000,"station_id":"ce4bhsp2rcd13ifvqi50","pricing_plan_id":"cebpf4jnsgd1na2vs0mg"},{"bike_id":"7f13bf2f-9099-4f32-ab89-90bb3bb16c98","system_id":"levelo_inurba_marseille","lat":43.28721,"lon":5.37941,"is_reserved":false,"is_disabled":false,"rental_uris":{"android":"levelo://app?vid=7f13bf2f-9099-4f32-ab89-90bb3bb16c98","ios":"levelo://app?vid=7f13bf2f-9099-4f32-ab89-90bb3bb16c98"},"vehicle_type_id":"4","last_reported":1758294574,"current_range_meters":4400,"station_id":"ce4bh9p2rcd13ifvqec0","pricing_plan_id":"cebpf4jnsgd1na2vs0mg"},{"bike_id":"6d927206-3030-4a60-9097-b3c153b6a12e","system_id":"levelo_inurba_marseille","lat":43.32369,"lon":5.36747,"is_reserved":false,"is_disabled":false,"rental_uris":{"android":"levelo://app?vid=6d927206-3030-4a60-9097-b3c153b6a12e","ios":"levelo://app?vid=6d927206-3030-4a60-9097-b3c153b6a12e"},"vehicle_type_id":"4","last_reported":1758294574,"current_range_meters":4400,"station_id":"ce4bhsh2rcd13ifvqi2g","pricing_plan_id":"cebpf4jnsgd1na2vs0mg"},{"bike_id":"059c0ba7-1dcb-4f29-8d05-6060640937cc","system_id":"levelo_inurba_marseille","lat":43.31784,"lon":5.36859,"is_reserved":false,"is_disabled":true,"rental_uris":{"android":"levelo://app?vid=059c0ba7-1dcb-4f29-8d05-6060640937cc","ios":"levelo://app?vid=059c0ba7-1dcb-4f29-8d05-6060640937cc"},"vehicle_type_id":"4","last_reported":1758294574,"current_range_meters":4800,"station_id":"","pricing_plan_id":"cebpf4jnsgd1na2vs0mg"},{"bike_id":"1f977bff-d1b4-4bf8-9052-7ce7d6469f2f","system_id":"levelo_inurba_marseille","lat":43.29903,"lon":5.43673,"is_reserved":false,"is_disabled":false,"rental_uris":{"android":"levelo://app?vid=1f977bff-d1b4-4bf8-9052-7ce7d6469f2f","ios":"levelo://app?vid=1f977bff-d1b4-4bf8-9052-7ce7d6469f2f"},"vehicle_type_id":"4","last_reported":1758294574,"current_range_meters":4800,"station_id":"ce4bhpp2rcd13ifvqhfg","pricing_plan_id":"cebpf4jnsgd1na2vs0mg"},{"bike_id":"7b51a36e-d3c1-400a-a130-b00f35dc0b10","system_id":"levelo_inurba_marseille","lat":43.225343,"lon":5.348357,"is_reserved":false,"is_disabled":false,"rental_uris":{"android":"levelo://app?vid=7b51a36e-d3c1-400a-a130-b00f35dc0b10","ios":"levelo://app?vid=7b51a36e-d3c1-400a-a130-b00f35dc0b10"},"vehicle_type_id":"4","last_reported":1758294574,"current_range_meters":4800,"station_id":"","pricing_plan_id":"cebpf4jnsgd1na2vs0mg"},{"bike_id":"45afe5f4-5cbe-49c2-a913-33c967100178","system_id":"levelo_inurba_marseille","lat":43.29776,"lon":5.380931,"is_reserved":false,"is_disabled":false,"rental_uris":{"android":"levelo://app?vid=45afe5f4-5cbe-49c2-a913-33c967100178","ios":"levelo://app?vid=45afe5f4-5cbe-49c2-a913-33c967100178"},"vehicle_type_id":"4","last_reported":1758294574,"current_range_meters":4800,"station_id":"","pricing_plan_id":"cebpf4jnsgd1na2vs0mg"},{"bike_id":"7918c8ea-f7f4-4157-b837-0cbefe2a77c9","system_id":"levelo_inurba_marseille","lat":43.27509,"lon":5.42432,"is_reserved":false,"is_disabled":true,"rental_uris":{"android":"levelo://app?vid=7918c8ea-f7f4-4157-b837-0cbefe2a77c9","ios":"levelo://app?vid=7918c8ea-f7f4-4157-b837-0cbefe2a77c9"},"vehicle_type_id":"4","last_reported":1758294574,"current_range_meters":5600,"station_id":"ce4bhn92rcd13ifvqgrg","pricing_plan_id":"cebpf4jnsgd1na2vs0mg"},{"bike_id":"49c549c9-eb52-4d96-aae2-7874ecf79231","system_id":"levelo_inurba_marseille","lat":43.28152,"lon":5.42642,"is_reserved":false,"is_disabled":false,"rental_uris":{"android":"levelo://app?vid=49c549c9-eb52-4d96-aae2-7874ecf79231","ios":"levelo://app?vid=49c549c9-eb52-4d96-aae2-7874ecf79231"},"vehicle_type_id":"4","last_reported":1758294574,"current_range_meters":6000,"station_id":"ce4bhnh2rcd13ifvqgug","pricing_plan_id":"cebpf4jnsgd1na2vs0mg"},{"bike_id":"6e89d1ff-c084-48fc-a2d3-90498832234e","system_id":"levelo_inurba_marseille","lat":43.30739,"lon":5.38035,"is_reserved":false,"is_disabled":false,"rental_uris":{"android":"levelo://app?vid=6e89d1ff-c084-48fc-a2d3-90498832234e","ios":"levelo://app?vid=6e89d1ff-c084-48fc-a2d3-90498832234e"},"vehicle_type_id":"4","last_reported":1758294574,"current_range_meters":6000,"station_id":"","pricing_plan_id":"cebpf4jnsgd1na2vs0mg"},{"bike_id":"9963a081-3d47-45c3-9a5f-f912abc0ffc5","system_id":"levelo_inurba_marseille","lat":43.25013,"lon":5.3891,"is_reserved":false,"is_disabled":true,"rental_uris":{"android":"levelo://app?vid=9963a081-3d47-45c3-9a5f-f912abc0ffc5","ios":"levelo://app?vid=9963a081-3d47-45c3-9a5f-f912abc0ffc5"},"vehicle_type_id":"4","last_reported":1758294574,"current_range_meters":6000,"station_id":"ce4bhgp2rcd13ifvqfd0","pricing_plan_id":"cebpf4jnsgd1na2vs0mg"},{"bike_id":"7a88e0bb-85ae-4f9a-9b58-df8e6149f976","system_id":"levelo_inurba_marseille","lat":43.21753,"lon":5.34598,"is_reserved":false,"is_disabled":false,"rental_uris":{"android":"levelo://app?vid=7a88e0bb-85ae-4f9a-9b58-df8e6149f976","ios":"levelo://app?vid=7a88e0bb-85ae-4f9a-9b58-df8e6149f976"},"vehicle_type_id":"4","last_reported":1758294574,"current_range_meters":6000,"station_id":"st_cvj6r9ubvosntc0bgbag","pricing_plan_id":"cebpf4jnsgd1na2vs0mg"},{"bike_id":"313bc7af-ce05-4b55-a49f-a2b083d4e8a0","system_id":"levelo_inurba_marseille","lat":43.29525,"lon":5.38544,"is_reserved":false,"is_disabled":false,"rental_uris":{"android":"levelo://app?vid=313bc7af-ce05-4b55-a49f-a2b083d4e8a0","ios":"levelo://app?vid=313bc7af-ce05-4b55-a49f-a2b083d4e8a0"},"vehicle_type_id":"4","last_reported":1758294574,"current_range_meters":6000,"station_id":"ce4bgih2rcd13ifvqba0","pricing_plan_id":"cebpf4jnsgd1na2vs0mg"},{"bike_id":"7ec87c6c-7f0c-47e7-8cc2-59d0412a9a7b","system_id":"levelo_inurba_marseille","lat":43.29598,"lon":5.38102,"is_reserved":false,"is_disabled":false,"rental_uris":{"android":"levelo://app?vid=7ec87c6c-7f0c-47e7-8cc2-59d0412a9a7b","ios":"levelo://app?vid=7ec87c6c-7f0c-47e7-8cc2-59d0412a9a7b"},"vehicle_type_id":"4","last_reported":1758294574,"current_range_meters":6400,"station_id":"ce4bgl12rcd13ifvqbo0","pricing_plan_id":"cebpf4jnsgd1na2vs0mg"},{"bike_id":"7745eab8-3d48-4349-b863-861b7cc7cbd1","system_id":"levelo_inurba_marseille","lat":43.290054,"lon":5.381405,"is_reserved":false,"is_disabled":false,"rental_uris":{"android":"levelo://app?vid=7745eab8-3d48-4349-b863-861b7cc7cbd1","ios":"levelo://app?vid=7745eab8-3d48-4349-b863-861b7cc7cbd1"},"vehicle_type_id":"4","last_reported":1758294574,"current_range_meters":6400,"station_id":"","pricing_plan_id":"cebpf4jnsgd1na2vs0mg"},{"bike_id":"0ef5f393-24dc-4c39-b655-2e8cfe406660","system_id":"levelo_inurba_marseille","lat":43.266133,"lon":5.375586,"is_reserved":false,"is_disabled":false,"rental_uris":{"android":"levelo://app?vid=0ef5f393-24dc-4c39-b655-2e8cfe406660","ios":"levelo://app?vid=0ef5f393-24dc-4c39-b655-2e8cfe406660"},"vehicle_type_id":"4","last_reported":1758294574,"current_range_meters":6400,"station_id":"","pricing_plan_id":"cebpf4jnsgd1na2vs0mg"},{"bike_id":"791152f5-1ec4-4c2c-a2c8-1f7f299e45c1","system_id":"levelo_inurba_marseille","lat":43.268987,"lon":5.385628,"is_reserved":false,"is_disabled":false,"rental_uris":{"android":"levelo://app?vid=791152f5-1ec4-4c2c-a2c8-1f7f299e45c1","ios":"levelo://app?vid=791152f5-1ec4-4c2c-a2c8-1f7f299e45c1"},"vehicle_type_id":"4","last_reported":1758294574,"current_range_meters":6800,"station_id":"ce4bhf92rcd13ifvqf40","pricing_plan_id":"cebpf4jnsgd1na2vs0mg"},{"bike_id":"8ce3378c-c99e-4dab-a24b-93593b1b2654","system_id":"levelo_inurba_marseille","lat":43.2996,"lon":5.36493,"is_reserved":false,"is_disabled":false,"rental_uris":{"android":"levelo://app?vid=8ce3378c-c99e-4dab-a24b-93593b1b2654","ios":"levelo://app?vid=8ce3378c-c99e-4dab-a24b-93593b1b2654"},"vehicle_type_id":"4","last_reported":1758294574,"current_range_meters":6800,"station_id":"ce4bgm92rcd13ifvqbr0","pricing_plan_id":"cebpf4jnsgd1na2vs0mg"},{"bike_id":"ccd44948-7c00-492e-b618-36105a29ab8f","system_id":"levelo_inurba_marseille","lat":43.32651,"lon":5.40983,"is_reserved":false,"is_disabled":true,"rental_uris":{"android":"levelo://app?vid=ccd44948-7c00-492e-b618-36105a29ab8f","ios":"levelo://app?vid=ccd44948-7c00-492e-b618-36105a29ab8f"},"vehicle_type_id":"4","last_reported":1758294574,"current_range_meters":6800,"station_id":"ce4bhpp2rcd13ifvqhgg","pricing_plan_id":"cebpf4jnsgd1na2vs0mg"},{"bike_id":"dce096b4-a68e-4281-b18e-1d1d3e165e03","system_id":"levelo_inurba_marseille","lat":43.29839,"lon":5.36264,"is_reserved":false,"is_disabled":false,"rental_uris":{"android":"levelo://app?vid=dce096b4-a68e-4281-b18e-1d1d3e165e03","ios":"levelo://app?vid=dce096b4-a68e-4281-b18e-1d1d3e165e03"},"vehicle_type_id":"4","last_reported":1758294574,"current_range_meters":6400,"station_id":"ce4bgpp2rcd13ifvqc3g","pricing_plan_id":"cebpf4jnsgd1na2vs0mg"},{"bike_id":"11d60f6e-f505-474f-a6c2-5b8f76486b7b","system_id":"levelo_inurba_marseille","lat":43.28276,"lon":5.35072,"is_reserved":false,"is_disabled":true,"rental_uris":{"android":"levelo://app?vid=11d60f6e-f505-474f-a6c2-5b8f76486b7b","ios":"levelo://app?vid=11d60f6e-f505-474f-a6c2-5b8f76486b7b"},"vehicle_type_id":"4","last_reported":1758294574,"current_range_meters":7200,"station_id":"ce4bhbp2rcd13ifvqerg","pricing_plan_id":"cebpf4jnsgd1na2vs0mg"},{"bike_id":"ff90fded-d098-4d61-aab2-acacc2c55acd","system_id":"levelo_inurba_marseille","lat":43.28458,"lon":5.35879,"is_reserved":false,"is_disabled":false,"rental_uris":{"android":"levelo://app?vid=ff90fded-d098-4d61-aab2-acacc2c55acd","ios":"levelo://app?vid=ff90fded-d098-4d61-aab2-acacc2c55acd"},"vehicle_type_id":"4","last_reported":1758294574,"current_range_meters":7200,"station_id":"ce4bhah2rcd13ifvqei0","pricing_plan_id":"cebpf4jnsgd1na2vs0mg"},{"bike_id":"b03963e7-f165-473d-a43d-a68e09ff2d96","system_id":"levelo_inurba_marseille","lat":43.25684,"lon":5.41931,"is_reserved":false,"is_disabled":false,"rental_uris":{"android":"levelo://app?vid=b03963e7-f165-473d-a43d-a68e09ff2d96","ios":"levelo://app?vid=b03963e7-f165-473d-a43d-a68e09ff2d96"},"vehicle_type_id":"4","last_reported":1758294574,"current_range_meters":7200,"station_id":"","pricing_plan_id":"cebpf4jnsgd1na2vs0mg"},{"bike_id":"51428e52-933e-4637-b90d-db6123d52fef","system_id":"levelo_inurba_marseille","lat":43.29831,"lon":5.3626,"is_reserved":false,"is_disabled":false,"rental_uris":{"android":"levelo://app?vid=51428e52-933e-4637-b90d-db6123d52fef","ios":"levelo://app?vid=51428e52-933e-4637-b90d-db6123d52fef"},"vehicle_type_id":"4","last_reported":1758294574,"current_range_meters":8000,"station_id":"ce4bgpp2rcd13ifvqc3g","pricing_plan_id":"cebpf4jnsgd1na2vs0mg"},{"bike_id":"5b5af6e2-efd2-407a-8f30-4b5cff1131aa","system_id":"levelo_inurba_marseille","lat":43.28431,"lon":5.34989,"is_reserved":false,"is_disabled":false,"rental_uris":{"android":"levelo://app?vid=5b5af6e2-efd2-407a-8f30-4b5cff1131aa","ios":"levelo://app?vid=5b5af6e2-efd2-407a-8f30-4b5cff1131aa"},"vehicle_type_id":"4","last_reported":1758294574,"current_range_meters":8000,"station_id":"ce4bhbh2rcd13ifvqepg","pricing_plan_id":"cebpf4jnsgd1na2vs0mg"},{"bike_id":"458acb7c-ad6c-45dc-826c-8158cb71ee06","system_id":"levelo_inurba_marseille","lat":43.28266,"lon":5.35058,"is_reserved":false,"is_disabled":false,"rental_uris":{"android":"levelo://app?vid=458acb7c-ad6c-45dc-826c-8158cb71ee06","ios":"levelo://app?vid=458acb7c-ad6c-45dc-826c-8158cb71ee06"},"vehicle_type_id":"4","last_reported":1758294574,"current_range_meters":8000,"station_id":"ce4bhbp2rcd13ifvqerg","pricing_plan_id":"cebpf4jnsgd1na2vs0mg"},{"bike_id":"7f940c2e-be1a-4575-ae92-1d56d2875531","system_id":"levelo_inurba_marseille","lat":43.28618,"lon":5.37072,"is_reserved":false,"is_disabled":false,"rental_uris":{"android":"levelo://app?vid=7f940c2e-be1a-4575-ae92-1d56d2875531","ios":"levelo://app?vid=7f940c2e-be1a-4575-ae92-1d56d2875531"},"vehicle_type_id":"4","last_reported":1758294574,"current_range_meters":8400,"station_id":"ce4bht12rcd13ifvqi60","pricing_plan_id":"cebpf4jnsgd1na2vs0mg"},{"bike_id":"5eb8dac9-9592-44d5-9522-9c4947136f34","system_id":"levelo_inurba_marseille","lat":43.30226,"lon":5.39396,"is_reserved":false,"is_disabled":false,"rental_uris":{"android":"levelo://app?vid=5eb8dac9-9592-44d5-9522-9c4947136f34","ios":"levelo://app?vid=5eb8dac9-9592-44d5-9522-9c4947136f34"},"vehicle_type_id":"4","last_reported":1758294574,"current_range_meters":8400,"station_id":"","pricing_plan_id":"cebpf4jnsgd1na2vs0mg"},{"bike_id":"c7bdcbe3-da83-4417-b0b0-729660a0bbe5","system_id":"levelo_inurba_marseille","lat":43.28263,"lon":5.35055,"is_reserved":false,"is_disabled":false,"rental_uris":{"android":"levelo://app?vid=c7bdcbe3-da83-4417-b0b0-729660a0bbe5","ios":"levelo://app?vid=c7bdcbe3-da83-4417-b0b0-729660a0bbe5"},"vehicle_type_id":"4","last_reported":1758294574,"current_range_meters":8400,"station_id":"ce4bhbp2rcd13ifvqerg","pricing_plan_id":"cebpf4jnsgd1na2vs0mg"},{"bike_id":"cf66592a-d8fa-4c6c-9927-5d7a9fef5026","system_id":"levelo_inurba_marseille","lat":43.26275,"lon":5.39884,"is_reserved":false,"is_disabled":false,"rental_uris":{"android":"levelo://app?vid=cf66592a-d8fa-4c6c-9927-5d7a9fef5026","ios":"levelo://app?vid=cf66592a-d8fa-4c6c-9927-5d7a9fef5026"},"vehicle_type_id":"4","last_reported":1758294574,"current_range_meters":8400,"station_id":"","pricing_plan_id":"cebpf4jnsgd1na2vs0mg"},{"bike_id":"13aad7a4-6795-4c9b-8f92-a5df69477f23","system_id":"levelo_inurba_marseille","lat":43.30309,"lon":5.36878,"is_reserved":false,"is_disabled":false,"rental_uris":{"android":"levelo://app?vid=13aad7a4-6795-4c9b-8f92-a5df69477f23","ios":"levelo://app?vid=13aad7a4-6795-4c9b-8f92-a5df69477f23"},"vehicle_type_id":"4","last_reported":1758294574,"current_range_meters":8400,"station_id":"ce4bgqh2rcd13ifvqc5g","pricing_plan_id":"cebpf4jnsgd1na2vs0mg"},{"bike_id":"3d670632-7922-4cda-9402-3824eb1c3432","system_id":"levelo_inurba_marseille","lat":43.30621,"lon":5.37206,"is_reserved":false,"is_disabled":false,"rental_uris":{"android":"levelo://app?vid=3d670632-7922-4cda-9402-3824eb1c3432","ios":"levelo://app?vid=3d670632-7922-4cda-9402-3824eb1c3432"},"vehicle_type_id":"4","last_reported":1758294574,"current_range_meters":8400,"station_id":"ce4bgqh2rcd13ifvqc4g","pricing_plan_id":"cebpf4jnsgd1na2vs0mg"},{"bike_id":"6dafa70f-dccc-418f-a0fc-1d8508362979","system_id":"levelo_inurba_marseille","lat":43.30924,"lon":5.36857,"is_reserved":false,"is_disabled":false,"rental_uris":{"android":"levelo://app?vid=6dafa70f-dccc-418f-a0fc-1d8508362979","ios":"levelo://app?vid=6dafa70f-dccc-418f-a0fc-1d8508362979"},"vehicle_type_id":"4","last_reported":1758294574,"current_range_meters":8800,"station_id":"","pricing_plan_id":"cebpf4jnsgd1na2vs0mg"},{"bike_id":"56a4f75d-eaf2-44b4-aa02-4a439b19699b","system_id":"levelo_inurba_marseille","lat":43.33747,"lon":5.37428,"is_reserved":false,"is_disabled":false,"rental_uris":{"android":"levelo://app?vid=56a4f75d-eaf2-44b4-aa02-4a439b19699b","ios":"levelo://app?vid=56a4f75d-eaf2-44b4-aa02-4a439b19699b"},"vehicle_type_id":"4","last_reported":1758294574,"current_range_meters":8800,"station_id":"","pricing_plan_id":"cebpf4jnsgd1na2vs0mg"},{"bike_id":"42323a1a-489c-43cb-90ae-c675b27444d5","system_id":"levelo_inurba_marseille","lat":43.216452,"lon":5.343647,"is_reserved":false,"is_disabled":false,"rental_uris":{"android":"levelo://app?vid=42323a1a-489c-43cb-90ae-c675b27444d5","ios":"levelo://app?vid=42323a1a-489c-43cb-90ae-c675b27444d5"},"vehicle_type_id":"4","last_reported":1758294574,"current_range_meters":8800,"station_id":"","pricing_plan_id":"cebpf4jnsgd1na2vs0mg"},{"bike_id":"422bcbb4-cb43-42df-8456-92f34416189f","system_id":"levelo_inurba_marseille","lat":43.31526,"lon":5.38029,"is_reserved":false,"is_disabled":false,"rental_uris":{"android":"levelo://app?vid=422bcbb4-cb43-42df-8456-92f34416189f","ios":"levelo://app?vid=422bcbb4-cb43-42df-8456-92f34416189f"},"vehicle_type_id":"4","last_reported":1758294574,"current_range_meters":9200,"station_id":"ce4bhsp2rcd13ifvqi50","pricing_plan_id":"cebpf4jnsgd1na2vs0mg"},{"bike_id":"36c3191c-4328-4eae-bf85-7efd18082c6f","system_id":"levelo_inurba_marseille","lat":43.30553,"lon":5.36708,"is_reserved":false,"is_disabled":false,"rental_uris":{"android":"levelo://app?vid=36c3191c-4328-4eae-bf85-7efd18082c6f","ios":"levelo://app?vid=36c3191c-4328-4eae-bf85-7efd18082c6f"},"vehicle_type_id":"4","last_reported":1758294574,"current_range_meters":9200,"station_id":"ce4bgrp2rcd13ifvqc9g","pricing_plan_id":"cebpf4jnsgd1na2vs0mg"},{"bike_id":"35733809-701a-416a-a759-0bcc777fb26f","system_id":"levelo_inurba_marseille","lat":43.28271,"lon":5.350667,"is_reserved":false,"is_disabled":false,"rental_uris":{"android":"levelo://app?vid=35733809-701a-416a-a759-0bcc777fb26f","ios":"levelo://app?vid=35733809-701a-416a-a759-0bcc777fb26f"},"vehicle_type_id":"4","last_reported":1758294574,"current_range_meters":9200,"station_id":"ce4bhbp2rcd13ifvqerg","pricing_plan_id":"cebpf4jnsgd1na2vs0mg"},{"bike_id":"7cc8afb7-aa9e-471c-ac62-f3f50273db81","system_id":"levelo_inurba_marseille","lat":43.28275,"lon":5.35072,"is_reserved":false,"is_disabled":false,"rental_uris":{"android":"levelo://app?vid=7cc8afb7-aa9e-471c-ac62-f3f50273db81","ios":"levelo://app?vid=7cc8afb7-aa9e-471c-ac62-f3f50273db81"},"vehicle_type_id":"4","last_reported":1758294574,"current_range_meters":9200,"station_id":"ce4bhbp2rcd13ifvqerg","pricing_plan_id":"cebpf4jnsgd1na2vs0mg"},{"bike_id":"e6f8489d-fe42-4015-a82c-b604c2c8b33e","system_id":"levelo_inurba_marseille","lat":43.29795,"lon":5.36682,"is_reserved":false,"is_disabled":false,"rental_uris":{"android":"levelo://app?vid=e6f8489d-fe42-4015-a82c-b604c2c8b33e","ios":"levelo://app?vid=e6f8489d-fe42-4015-a82c-b604c2c8b33e"},"vehicle_type_id":"4","last_reported":1758294574,"current_range_meters":9200,"station_id":"","pricing_plan_id":"cebpf4jnsgd1na2vs0mg"},{"bike_id":"cad97885-b582-49b2-8b83-0a6c3d079fc6","system_id":"levelo_inurba_marseille","lat":43.297018,"lon":5.365873,"is_reserved":false,"is_disabled":false,"rental_uris":{"android":"levelo://app?vid=cad97885-b582-49b2-8b83-0a6c3d079fc6","ios":"levelo://app?vid=cad97885-b582-49b2-8b83-0a6c3d079fc6"},"vehicle_type_id":"4","last_reported":1758294574,"current_range_meters":9600,"station_id":"ce4bgn12rcd13ifvqbt0","pricing_plan_id":"cebpf4jnsgd1na2vs0mg"},{"bike_id":"b4083a1d-dead-4bdf-976f-eaa3a7a9df87","system_id":"levelo_inurba_marseille","lat":43.25344,"lon":5.42113,"is_reserved":false,"is_disabled":false,"rental_uris":{"android":"levelo://app?vid=b4083a1d-dead-4bdf-976f-eaa3a7a9df87","ios":"levelo://app?vid=b4083a1d-dead-4bdf-976f-eaa3a7a9df87"},"vehicle_type_id":"4","last_reported":1758294574,"current_range_meters":9600,"station_id":"st_d2m65c5bi1j21697t3ng","pricing_plan_id":"cebpf4jnsgd1na2vs0mg"},{"bike_id":"c03db5d6-931c-41e0-bfa5-6550a106fb99","system_id":"levelo_inurba_marseille","lat":43.23265,"lon":5.36052,"is_reserved":false,"is_disabled":false,"rental_uris":{"android":"levelo://app?vid=c03db5d6-931c-41e0-bfa5-6550a106fb99","ios":"levelo://app?vid=c03db5d6-931c-41e0-bfa5-6550a106fb99"},"vehicle_type_id":"4","last_reported":1758294574,"current_range_meters":9600,"station_id":"","pricing_plan_id":"cebpf4jnsgd1na2vs0mg"},{"bike_id":"c48c1e43-6f5c-40cd-9eb1-0cf867f43b0f","system_id":"levelo_inurba_marseille","lat":43.30135,"lon":5.39863,"is_reserved":false,"is_disabled":false,"rental_uris":{"android":"levelo://app?vid=c48c1e43-6f5c-40cd-9eb1-0cf867f43b0f","ios":"levelo://app?vid=c48c1e43-6f5c-40cd-9eb1-0cf867f43b0f"},"vehicle_type_id":"4","last_reported":1758294574,"current_range_meters":9200,"station_id":"ce4bh0h2rcd13ifvqd40","pricing_plan_id":"cebpf4jnsgd1na2vs0mg"},{"bike_id":"f3a6ce53-db10-46e8-a0ef-1e66a7db17a2","system_id":"levelo_inurba_marseille","lat":43.27173,"lon":5.41002,"is_reserved":false,"is_disabled":false,"rental_uris":{"android":"levelo://app?vid=f3a6ce53-db10-46e8-a0ef-1e66a7db17a2","ios":"levelo://app?vid=f3a6ce53-db10-46e8-a0ef-1e66a7db17a2"},"vehicle_type_id":"4","last_reported":1758294574,"current_range_meters":9200,"station_id":"ce4bhl12rcd13ifvqgf0","pricing_plan_id":"cebpf4jnsgd1na2vs0mg"},{"bike_id":"aed238a1-3beb-46d1-85fc-ab4bb3243244","system_id":"levelo_inurba_marseille","lat":43.21749,"lon":5.34593,"is_reserved":false,"is_disabled":false,"rental_uris":{"android":"levelo://app?vid=aed238a1-3beb-46d1-85fc-ab4bb3243244","ios":"levelo://app?vid=aed238a1-3beb-46d1-85fc-ab4bb3243244"},"vehicle_type_id":"4","last_reported":1758294574,"current_range_meters":9600,"station_id":"st_cvj6r9ubvosntc0bgbag","pricing_plan_id":"cebpf4jnsgd1na2vs0mg"},{"bike_id":"e485a987-30d0-4949-b02c-74ffe1a7469a","system_id":"levelo_inurba_marseille","lat":43.28001,"lon":5.40016,"is_reserved":false,"is_disabled":false,"rental_uris":{"android":"levelo://app?vid=e485a987-30d0-4949-b02c-74ffe1a7469a","ios":"levelo://app?vid=e485a987-30d0-4949-b02c-74ffe1a7469a"},"vehicle_type_id":"4","last_reported":1758294574,"current_range_meters":10000,"station_id":"ce4bho92rcd13ifvqh4g","pricing_plan_id":"cebpf4jnsgd1na2vs0mg"},{"bike_id":"a4faa1fd-62ee-404a-aff8-b79ea6b6b5d2","system_id":"levelo_inurba_marseille","lat":43.32986,"lon":5.39245,"is_reserved":false,"is_disabled":false,"rental_uris":{"android":"levelo://app?vid=a4faa1fd-62ee-404a-aff8-b79ea6b6b5d2","ios":"levelo://app?vid=a4faa1fd-62ee-404a-aff8-b79ea6b6b5d2"},"vehicle_type_id":"4","last_reported":1758294574,"current_range_meters":10000,"station_id":"","pricing_plan_id":"cebpf4jnsgd1na2vs0mg"},{"bike_id":"e942f984-8fe7-48d1-8f04-3806656b9996","system_id":"levelo_inurba_marseille","lat":43.33626,"lon":5.37916,"is_reserved":false,"is_disabled":false,"rental_uris":{"android":"levelo://app?vid=e942f984-8fe7-48d1-8f04-3806656b9996","ios":"levelo://app?vid=e942f984-8fe7-48d1-8f04-3806656b9996"},"vehicle_type_id":"4","last_reported":1758294574,"current_range_meters":10000,"station_id":"","pricing_plan_id":"cebpf4jnsgd1na2vs0mg"},{"bike_id":"1a35b52a-c9df-460c-8016-0ac6499b0c5a","system_id":"levelo_inurba_marseille","lat":43.32469,"lon":5.3657,"is_reserved":false,"is_disabled":false,"rental_uris":{"android":"levelo://app?vid=1a35b52a-c9df-460c-8016-0ac6499b0c5a","ios":"levelo://app?vid=1a35b52a-c9df-460c-8016-0ac6499b0c5a"},"vehicle_type_id":"4","last_reported":1758294574,"current_range_meters":10000,"station_id":"ce4bhs12rcd13ifvqhvg","pricing_plan_id":"cebpf4jnsgd1na2vs0mg"},{"bike_id":"22f0687d-25d3-4094-9c4a-293a61e189a6","system_id":"levelo_inurba_marseille","lat":43.2463,"lon":5.39626,"is_reserved":false,"is_disabled":false,"rental_uris":{"android":"levelo://app?vid=22f0687d-25d3-4094-9c4a-293a61e189a6","ios":"levelo://app?vid=22f0687d-25d3-4094-9c4a-293a61e189a6"},"vehicle_type_id":"4","last_reported":1758294574,"current_range_meters":10000,"station_id":"","pricing_plan_id":"cebpf4jnsgd1na2vs0mg"},{"bike_id":"0ae2d2cc-805c-47a7-bd7e-28f3ea87c342","system_id":"levelo_inurba_marseille","lat":43.28871,"lon":5.42514,"is_reserved":false,"is_disabled":false,"rental_uris":{"android":"levelo://app?vid=0ae2d2cc-805c-47a7-bd7e-28f3ea87c342","ios":"levelo://app?vid=0ae2d2cc-805c-47a7-bd7e-28f3ea87c342"},"vehicle_type_id":"4","last_reported":1758294574,"current_range_meters":10000,"station_id":"","pricing_plan_id":"cebpf4jnsgd1na2vs0mg"},{"bike_id":"ac15e0da-a2f6-46f0-8500-23c31af3b72c","system_id":"levelo_inurba_marseille","lat":43.29963,"lon":5.38498,"is_reserved":false,"is_disabled":false,"rental_uris":{"android":"levelo://app?vid=ac15e0da-a2f6-46f0-8500-23c31af3b72c","ios":"levelo://app?vid=ac15e0da-a2f6-46f0-8500-23c31af3b72c"},"vehicle_type_id":"4","last_reported":1758294574,"current_range_meters":10800,"station_id":"ce4bgj92rcd13ifvqbd0","pricing_plan_id":"cebpf4jnsgd1na2vs0mg"},{"bike_id":"2e9c0603-15ff-462e-9d23-b08e1f271a63","system_id":"levelo_inurba_marseille","lat":43.298127,"lon":5.417095,"is_reserved":false,"is_disabled":false,"rental_uris":{"android":"levelo://app?vid=2e9c0603-15ff-462e-9d23-b08e1f271a63","ios":"levelo://app?vid=2e9c0603-15ff-462e-9d23-b08e1f271a63"},"vehicle_type_id":"4","last_reported":1758294574,"current_range_meters":10800,"station_id":"","pricing_plan_id":"cebpf4jnsgd1na2vs0mg"},{"bike_id":"26970deb-ca48-44ac-b195-cc0055a146ff","system_id":"levelo_inurba_marseille","lat":43.29795,"lon":5.40401,"is_reserved":false,"is_disabled":false,"rental_uris":{"android":"levelo://app?vid=26970deb-ca48-44ac-b195-cc0055a146ff","ios":"levelo://app?vid=26970deb-ca48-44ac-b195-cc0055a146ff"},"vehicle_type_id":"4","last_reported":1758294574,"current_range_meters":10000,"station_id":"ce4bh112rcd13ifvqd90","pricing_plan_id":"cebpf4jnsgd1na2vs0mg"},{"bike_id":"e8dae9a5-2841-49d9-b572-94d735628ab9","system_id":"levelo_inurba_marseille","lat":43.33732,"lon":5.3918,"is_reserved":false,"is_disabled":false,"rental_uris":{"android":"levelo://app?vid=e8dae9a5-2841-49d9-b572-94d735628ab9","ios":"levelo://app?vid=e8dae9a5-2841-49d9-b572-94d735628ab9"},"vehicle_type_id":"4","last_reported":1758294574,"current_range_meters":10800,"station_id":"ce4bhr92rcd13ifvqhsg","pricing_plan_id":"cebpf4jnsgd1na2vs0mg"},{"bike_id":"d3ed9803-6073-4fd8-9ed7-2b965fc8cbb5","system_id":"levelo_inurba_marseille","lat":43.29941,"lon":5.36553,"is_reserved":false,"is_disabled":false,"rental_uris":{"android":"levelo://app?vid=d3ed9803-6073-4fd8-9ed7-2b965fc8cbb5","ios":"levelo://app?vid=d3ed9803-6073-4fd8-9ed7-2b965fc8cbb5"},"vehicle_type_id":"4","last_reported":1758294574,"current_range_meters":10800,"station_id":"ce4bgm92rcd13ifvqbr0","pricing_plan_id":"cebpf4jnsgd1na2vs0mg"},{"bike_id":"c3897c00-e950-4044-8f08-e0b1f3ccd977","system_id":"levelo_inurba_marseille","lat":43.229355,"lon":5.353767,"is_reserved":false,"is_disabled":true,"rental_uris":{"android":"levelo://app?vid=c3897c00-e950-4044-8f08-e0b1f3ccd977","ios":"levelo://app?vid=c3897c00-e950-4044-8f08-e0b1f3ccd977"},"vehicle_type_id":"4","last_reported":1758294574,"current_range_meters":10800,"station_id":"cpo3532slgdg3j2ikp40","pricing_plan_id":"cebpf4jnsgd1na2vs0mg"},{"bike_id":"ed20f1d8-bc72-415d-8a8f-af83da4fa7d9","system_id":"levelo_inurba_marseille","lat":43.33481,"lon":5.36261,"is_reserved":false,"is_disabled":false,"rental_uris":{"android":"levelo://app?vid=ed20f1d8-bc72-415d-8a8f-af83da4fa7d9","ios":"levelo://app?vid=ed20f1d8-bc72-415d-8a8f-af83da4fa7d9"},"vehicle_type_id":"4","last_reported":1758294574,"current_range_meters":10800,"station_id":"","pricing_plan_id":"cebpf4jnsgd1na2vs0mg"},{"bike_id":"5abd5005-6e1a-4e4a-8cf1-5135d482aac9","system_id":"levelo_inurba_marseille","lat":43.33713,"lon":5.39171,"is_reserved":false,"is_disabled":false,"rental_uris":{"android":"levelo://app?vid=5abd5005-6e1a-4e4a-8cf1-5135d482aac9","ios":"levelo://app?vid=5abd5005-6e1a-4e4a-8cf1-5135d482aac9"},"vehicle_type_id":"4","last_reported":1758294574,"current_range_meters":10800,"station_id":"ce4bhr92rcd13ifvqhsg","pricing_plan_id":"cebpf4jnsgd1na2vs0mg"},{"bike_id":"2cf77ffd-8de9-4e12-b762-f555e7e11696","system_id":"levelo_inurba_marseille","lat":43.2808,"lon":5.39654,"is_reserved":false,"is_disabled":false,"rental_uris":{"android":"levelo://app?vid=2cf77ffd-8de9-4e12-b762-f555e7e11696","ios":"levelo://app?vid=2cf77ffd-8de9-4e12-b762-f555e7e11696"},"vehicle_type_id":"4","last_reported":1758294574,"current_range_meters":11200,"station_id":"ce4bho12rcd13ifvqh2g","pricing_plan_id":"cebpf4jnsgd1na2vs0mg"},{"bike_id":"f9418cc9-c64d-43d9-9060-3aeedd69cdee","system_id":"levelo_inurba_marseille","lat":43.3308,"lon":5.37864,"is_reserved":false,"is_disabled":false,"rental_uris":{"android":"levelo://app?vid=f9418cc9-c64d-43d9-9060-3aeedd69cdee","ios":"levelo://app?vid=f9418cc9-c64d-43d9-9060-3aeedd69cdee"},"vehicle_type_id":"4","last_reported":1758294574,"current_range_meters":11200,"station_id":"","pricing_plan_id":"cebpf4jnsgd1na2vs0mg"},{"bike_id":"fb78ea42-e26f-45b3-a617-d3474b811b72","system_id":"levelo_inurba_marseille","lat":43.29884,"lon":5.37928,"is_reserved":false,"is_disabled":false,"rental_uris":{"android":"levelo://app?vid=fb78ea42-e26f-45b3-a617-d3474b811b72","ios":"levelo://app?vid=fb78ea42-e26f-45b3-a617-d3474b811b72"},"vehicle_type_id":"4","last_reported":1758294574,"current_range_meters":11600,"station_id":"","pricing_plan_id":"cebpf4jnsgd1na2vs0mg"},{"bike_id":"95a62c10-7ca9-4348-809a-c3089ad076d3","system_id":"levelo_inurba_marseille","lat":43.29873,"lon":5.39737,"is_reserved":false,"is_disabled":true,"rental_uris":{"android":"levelo://app?vid=95a62c10-7ca9-4348-809a-c3089ad076d3","ios":"levelo://app?vid=95a62c10-7ca9-4348-809a-c3089ad076d3"},"vehicle_type_id":"4","last_reported":1758294574,"current_range_meters":11600,"station_id":"ce4bh0h2rcd13ifvqd50","pricing_plan_id":"cebpf4jnsgd1na2vs0mg"},{"bike_id":"c9e8cca6-59d7-4458-991b-61b5a160fafa","system_id":"levelo_inurba_marseille","lat":43.3096,"lon":5.40117,"is_reserved":false,"is_disabled":false,"rental_uris":{"android":"levelo://app?vid=c9e8cca6-59d7-4458-991b-61b5a160fafa","ios":"levelo://app?vid=c9e8cca6-59d7-4458-991b-61b5a160fafa"},"vehicle_type_id":"4","last_reported":1758294574,"current_range_meters":11600,"station_id":"ce4bgvp2rcd13ifvqct0","pricing_plan_id":"cebpf4jnsgd1na2vs0mg"},{"bike_id":"129693f1-bec1-405c-a566-241911c46a01","system_id":"levelo_inurba_marseille","lat":43.27997,"lon":5.36503,"is_reserved":false,"is_disabled":false,"rental_uris":{"android":"levelo://app?vid=129693f1-bec1-405c-a566-241911c46a01","ios":"levelo://app?vid=129693f1-bec1-405c-a566-241911c46a01"},"vehicle_type_id":"4","last_reported":1758294574,"current_range_meters":12000,"station_id":"","pricing_plan_id":"cebpf4jnsgd1na2vs0mg"},{"bike_id":"cc48539f-3363-44f7-9041-3eea5291a9db","system_id":"levelo_inurba_marseille","lat":43.21183,"lon":5.35048,"is_reserved":false,"is_disabled":true,"rental_uris":{"android":"levelo://app?vid=cc48539f-3363-44f7-9041-3eea5291a9db","ios":"levelo://app?vid=cc48539f-3363-44f7-9041-3eea5291a9db"},"vehicle_type_id":"4","last_reported":1758294574,"current_range_meters":11600,"station_id":"","pricing_plan_id":"cebpf4jnsgd1na2vs0mg"},{"bike_id":"58986729-223e-49d9-927c-b5c99c694938","system_id":"levelo_inurba_marseille","lat":43.31324,"lon":5.39684,"is_reserved":false,"is_disabled":false,"rental_uris":{"android":"levelo://app?vid=58986729-223e-49d9-927c-b5c99c694938","ios":"levelo://app?vid=58986729-223e-49d9-927c-b5c99c694938"},"vehicle_type_id":"4","last_reported":1758294574,"current_range_meters":11600,"station_id":"ce4bgvp2rcd13ifvqcu0","pricing_plan_id":"cebpf4jnsgd1na2vs0mg"},{"bike_id":"44fa2e89-34c2-46c7-a1b4-f44bfd92b5bf","system_id":"levelo_inurba_marseille","lat":43.30645,"lon":5.40101,"is_reserved":false,"is_disabled":false,"rental_uris":{"android":"levelo://app?vid=44fa2e89-34c2-46c7-a1b4-f44bfd92b5bf","ios":"levelo://app?vid=44fa2e89-34c2-46c7-a1b4-f44bfd92b5bf"},"vehicle_type_id":"4","last_reported":1758294574,"current_range_meters":11600,"station_id":"ce4bh112rcd13ifvqda0","pricing_plan_id":"cebpf4jnsgd1na2vs0mg"},{"bike_id":"d5928ddf-0267-4868-95a5-2257412c56f7","system_id":"levelo_inurba_marseille","lat":43.2864,"lon":5.35073,"is_reserved":false,"is_disabled":false,"rental_uris":{"android":"levelo://app?vid=d5928ddf-0267-4868-95a5-2257412c56f7","ios":"levelo://app?vid=d5928ddf-0267-4868-95a5-2257412c56f7"},"vehicle_type_id":"4","last_reported":1758294574,"current_range_meters":12000,"station_id":"ce4bhch2rcd13ifvqeug","pricing_plan_id":"cebpf4jnsgd1na2vs0mg"},{"bike_id":"93aab39e-a856-4f98-a441-c1c696754fc5","system_id":"levelo_inurba_marseille","lat":43.29226,"lon":5.3606,"is_reserved":false,"is_disabled":false,"rental_uris":{"android":"levelo://app?vid=93aab39e-a856-4f98-a441-c1c696754fc5","ios":"levelo://app?vid=93aab39e-a856-4f98-a441-c1c696754fc5"},"vehicle_type_id":"4","last_reported":1758294574,"current_range_meters":12000,"station_id":"ce4bhbh2rcd13ifvqeqg","pricing_plan_id":"cebpf4jnsgd1na2vs0mg"},{"bike_id":"a3047cef-51f7-47e4-a9f9-530021218c0a","system_id":"levelo_inurba_marseille","lat":43.33721,"lon":5.39181,"is_reserved":false,"is_disabled":false,"rental_uris":{"android":"levelo://app?vid=a3047cef-51f7-47e4-a9f9-530021218c0a","ios":"levelo://app?vid=a3047cef-51f7-47e4-a9f9-530021218c0a"},"vehicle_type_id":"4","last_reported":1758294574,"current_range_meters":12000,"station_id":"ce4bhr92rcd13ifvqhsg","pricing_plan_id":"cebpf4jnsgd1na2vs0mg"},{"bike_id":"c627b34a-8e81-4438-af3b-4fd0aab1c160","system_id":"levelo_inurba_marseille","lat":43.29598,"lon":5.36049,"is_reserved":false,"is_disabled":false,"rental_uris":{"android":"levelo://app?vid=c627b34a-8e81-4438-af3b-4fd0aab1c160","ios":"levelo://app?vid=c627b34a-8e81-4438-af3b-4fd0aab1c160"},"vehicle_type_id":"4","last_reported":1758294574,"current_range_meters":12000,"station_id":"","pricing_plan_id":"cebpf4jnsgd1na2vs0mg"},{"bike_id":"9b9f6315-958e-4e43-8771-5ee5f050185e","system_id":"levelo_inurba_marseille","lat":43.24806,"lon":5.37466,"is_reserved":false,"is_disabled":true,"rental_uris":{"android":"levelo://app?vid=9b9f6315-958e-4e43-8771-5ee5f050185e","ios":"levelo://app?vid=9b9f6315-958e-4e43-8771-5ee5f050185e"},"vehicle_type_id":"4","last_reported":1758294574,"current_range_meters":12400,"station_id":"ce4bhgh2rcd13ifvqfb0","pricing_plan_id":"cebpf4jnsgd1na2vs0mg"},{"bike_id":"74af45e8-68ad-402d-9309-9c11252e3c46","system_id":"levelo_inurba_marseille","lat":43.25495,"lon":5.37621,"is_reserved":false,"is_disabled":false,"rental_uris":{"android":"levelo://app?vid=74af45e8-68ad-402d-9309-9c11252e3c46","ios":"levelo://app?vid=74af45e8-68ad-402d-9309-9c11252e3c46"},"vehicle_type_id":"4","last_reported":1758294574,"current_range_meters":12400,"station_id":"ce4bhh12rcd13ifvqff0","pricing_plan_id":"cebpf4jnsgd1na2vs0mg"},{"bike_id":"bf6e6d27-c09e-4725-9fbc-20073fd5a515","system_id":"levelo_inurba_marseille","lat":43.289376,"lon":5.396214,"is_reserved":false,"is_disabled":false,"rental_uris":{"android":"levelo://app?vid=bf6e6d27-c09e-4725-9fbc-20073fd5a515","ios":"levelo://app?vid=bf6e6d27-c09e-4725-9fbc-20073fd5a515"},"vehicle_type_id":"4","last_reported":1758294574,"current_range_meters":12400,"station_id":"","pricing_plan_id":"cebpf4jnsgd1na2vs0mg"},{"bike_id":"0960e3dd-c358-4474-bd10-8223758e1f6b","system_id":"levelo_inurba_marseille","lat":43.296996,"lon":5.376855,"is_reserved":false,"is_disabled":false,"rental_uris":{"android":"levelo://app?vid=0960e3dd-c358-4474-bd10-8223758e1f6b","ios":"levelo://app?vid=0960e3dd-c358-4474-bd10-8223758e1f6b"},"vehicle_type_id":"4","last_reported":1758294574,"current_range_meters":12400,"station_id":"","pricing_plan_id":"cebpf4jnsgd1na2vs0mg"},{"bike_id":"17c63b59-7a6c-4d3b-8f07-867cc39bcb31","system_id":"levelo_inurba_marseille","lat":43.283423,"lon":5.381083,"is_reserved":false,"is_disabled":false,"rental_uris":{"android":"levelo://app?vid=17c63b59-7a6c-4d3b-8f07-867cc39bcb31","ios":"levelo://app?vid=17c63b59-7a6c-4d3b-8f07-867cc39bcb31"},"vehicle_type_id":"4","last_reported":1758294574,"current_range_meters":12400,"station_id":"ce4bh412rcd13ifvqdr0","pricing_plan_id":"cebpf4jnsgd1na2vs0mg"},{"bike_id":"c0bb6840-9330-4f31-ba2e-96e9443bdd16","system_id":"levelo_inurba_marseille","lat":43.33026,"lon":5.39034,"is_reserved":false,"is_disabled":false,"rental_uris":{"android":"levelo://app?vid=c0bb6840-9330-4f31-ba2e-96e9443bdd16","ios":"levelo://app?vid=c0bb6840-9330-4f31-ba2e-96e9443bdd16"},"vehicle_type_id":"4","last_reported":1758294574,"current_range_meters":12400,"station_id":"ce4bhr92rcd13ifvqhrg","pricing_plan_id":"cebpf4jnsgd1na2vs0mg"},{"bike_id":"d98ef090-c901-436e-8630-2f76ac811b49","system_id":"levelo_inurba_marseille","lat":43.2176,"lon":5.34587,"is_reserved":false,"is_disabled":false,"rental_uris":{"android":"levelo://app?vid=d98ef090-c901-436e-8630-2f76ac811b49","ios":"levelo://app?vid=d98ef090-c901-436e-8630-2f76ac811b49"},"vehicle_type_id":"4","last_reported":1758294574,"current_range_meters":12400,"station_id":"st_cvj6r9ubvosntc0bgbag","pricing_plan_id":"cebpf4jnsgd1na2vs0mg"},{"bike_id":"673db122-6da2-4392-b249-aa2716c67b63","system_id":"levelo_inurba_marseille","lat":43.28413,"lon":5.3499,"is_reserved":false,"is_disabled":false,"rental_uris":{"android":"levelo://app?vid=673db122-6da2-4392-b249-aa2716c67b63","ios":"levelo://app?vid=673db122-6da2-4392-b249-aa2716c67b63"},"vehicle_type_id":"4","last_reported":1758294574,"current_range_meters":12800,"station_id":"ce4bhbh2rcd13ifvqepg","pricing_plan_id":"cebpf4jnsgd1na2vs0mg"},{"bike_id":"85b2f184-eabf-4304-911c-4aaceb0860d6","system_id":"levelo_inurba_marseille","lat":43.323602,"lon":5.367526,"is_reserved":false,"is_disabled":false,"rental_uris":{"android":"levelo://app?vid=85b2f184-eabf-4304-911c-4aaceb0860d6","ios":"levelo://app?vid=85b2f184-eabf-4304-911c-4aaceb0860d6"},"vehicle_type_id":"4","last_reported":1758294574,"current_range_meters":12800,"station_id":"ce4bhsh2rcd13ifvqi2g","pricing_plan_id":"cebpf4jnsgd1na2vs0mg"},{"bike_id":"59ec2cea-9edc-47b6-9a5d-d07aaed533e6","system_id":"levelo_inurba_marseille","lat":43.308,"lon":5.435363,"is_reserved":false,"is_disabled":false,"rental_uris":{"android":"levelo://app?vid=59ec2cea-9edc-47b6-9a5d-d07aaed533e6","ios":"levelo://app?vid=59ec2cea-9edc-47b6-9a5d-d07aaed533e6"},"vehicle_type_id":"4","last_reported":1758294574,"current_range_meters":12800,"station_id":"ce4bhph2rcd13ifvqheg","pricing_plan_id":"cebpf4jnsgd1na2vs0mg"},{"bike_id":"ca250de3-5a8d-4a00-93a4-cb783b385e4d","system_id":"levelo_inurba_marseille","lat":43.21755,"lon":5.346,"is_reserved":false,"is_disabled":false,"rental_uris":{"android":"levelo://app?vid=ca250de3-5a8d-4a00-93a4-cb783b385e4d","ios":"levelo://app?vid=ca250de3-5a8d-4a00-93a4-cb783b385e4d"},"vehicle_type_id":"4","last_reported":1758294574,"current_range_meters":12800,"station_id":"st_cvj6r9ubvosntc0bgbag","pricing_plan_id":"cebpf4jnsgd1na2vs0mg"},{"bike_id":"af3a9b08-acb0-4398-b9c1-4d14de384455","system_id":"levelo_inurba_marseille","lat":43.24174,"lon":5.36391,"is_reserved":false,"is_disabled":false,"rental_uris":{"android":"levelo://app?vid=af3a9b08-acb0-4398-b9c1-4d14de384455","ios":"levelo://app?vid=af3a9b08-acb0-4398-b9c1-4d14de384455"},"vehicle_type_id":"4","last_reported":1758294574,"current_range_meters":12800,"station_id":"cpo36qri1sfpv3e86is0","pricing_plan_id":"cebpf4jnsgd1na2vs0mg"},{"bike_id":"9712ddb0-57d6-45e7-a9a0-012666ba07a0","system_id":"levelo_inurba_marseille","lat":43.21732,"lon":5.34592,"is_reserved":false,"is_disabled":false,"rental_uris":{"android":"levelo://app?vid=9712ddb0-57d6-45e7-a9a0-012666ba07a0","ios":"levelo://app?vid=9712ddb0-57d6-45e7-a9a0-012666ba07a0"},"vehicle_type_id":"4","last_reported":1758294574,"current_range_meters":12800,"station_id":"st_cvj6r9ubvosntc0bgbag","pricing_plan_id":"cebpf4jnsgd1na2vs0mg"},{"bike_id":"0d582943-241b-4177-8d74-25c5325bce04","system_id":"levelo_inurba_marseille","lat":43.28849,"lon":5.39317,"is_reserved":false,"is_disabled":false,"rental_uris":{"android":"levelo://app?vid=0d582943-241b-4177-8d74-25c5325bce04","ios":"levelo://app?vid=0d582943-241b-4177-8d74-25c5325bce04"},"vehicle_type_id":"4","last_reported":1758294574,"current_range_meters":12800,"station_id":"ce4bh2p2rcd13ifvqdi0","pricing_plan_id":"cebpf4jnsgd1na2vs0mg"},{"bike_id":"4bf7da81-8771-4141-ab80-4a514da13f57","system_id":"levelo_inurba_marseille","lat":43.28857,"lon":5.35854,"is_reserved":false,"is_disabled":false,"rental_uris":{"android":"levelo://app?vid=4bf7da81-8771-4141-ab80-4a514da13f57","ios":"levelo://app?vid=4bf7da81-8771-4141-ab80-4a514da13f57"},"vehicle_type_id":"4","last_reported":1758294574,"current_range_meters":13600,"station_id":"ce4bhb12rcd13ifvqem0","pricing_plan_id":"cebpf4jnsgd1na2vs0mg"},{"bike_id":"6dc49f8f-31b8-485c-b489-e3fd253e6676","system_id":"levelo_inurba_marseille","lat":43.333009,"lon":5.410255,"is_reserved":false,"is_disabled":true,"rental_uris":{"android":"levelo://app?vid=6dc49f8f-31b8-485c-b489-e3fd253e6676","ios":"levelo://app?vid=6dc49f8f-31b8-485c-b489-e3fd253e6676"},"vehicle_type_id":"4","last_reported":1758294574,"current_range_meters":13600,"station_id":"","pricing_plan_id":"cebpf4jnsgd1na2vs0mg"},{"bike_id":"eec4a50c-e987-428e-8baa-4647effa29dc","system_id":"levelo_inurba_marseille","lat":43.24166,"lon":5.36394,"is_reserved":false,"is_disabled":false,"rental_uris":{"android":"levelo://app?vid=eec4a50c-e987-428e-8baa-4647effa29dc","ios":"levelo://app?vid=eec4a50c-e987-428e-8baa-4647effa29dc"},"vehicle_type_id":"4","last_reported":1758294574,"current_range_meters":13600,"station_id":"cpo36qri1sfpv3e86is0","pricing_plan_id":"cebpf4jnsgd1na2vs0mg"},{"bike_id":"2d451c7b-cc83-474c-b2f4-9e5abfc44532","system_id":"levelo_inurba_marseille","lat":43.28278,"lon":5.35074,"is_reserved":false,"is_disabled":false,"rental_uris":{"android":"levelo://app?vid=2d451c7b-cc83-474c-b2f4-9e5abfc44532","ios":"levelo://app?vid=2d451c7b-cc83-474c-b2f4-9e5abfc44532"},"vehicle_type_id":"4","last_reported":1758294574,"current_range_meters":13600,"station_id":"ce4bhbp2rcd13ifvqerg","pricing_plan_id":"cebpf4jnsgd1na2vs0mg"},{"bike_id":"28cd6176-5fce-489e-a8d4-781d0b69f5d8","system_id":"levelo_inurba_marseille","lat":43.28419,"lon":5.34992,"is_reserved":false,"is_disabled":false,"rental_uris":{"android":"levelo://app?vid=28cd6176-5fce-489e-a8d4-781d0b69f5d8","ios":"levelo://app?vid=28cd6176-5fce-489e-a8d4-781d0b69f5d8"},"vehicle_type_id":"4","last_reported":1758294574,"current_range_meters":13600,"station_id":"ce4bhbh2rcd13ifvqepg","pricing_plan_id":"cebpf4jnsgd1na2vs0mg"},{"bike_id":"4e5c2e97-6c61-4332-9672-f5a53881b0d1","system_id":"levelo_inurba_marseille","lat":43.284837,"lon":5.35892,"is_reserved":false,"is_disabled":false,"rental_uris":{"android":"levelo://app?vid=4e5c2e97-6c61-4332-9672-f5a53881b0d1","ios":"levelo://app?vid=4e5c2e97-6c61-4332-9672-f5a53881b0d1"},"vehicle_type_id":"4","last_reported":1758294574,"current_range_meters":14000,"station_id":"ce4bhah2rcd13ifvqei0","pricing_plan_id":"cebpf4jnsgd1na2vs0mg"},{"bike_id":"0d35583f-667c-409c-9fcb-2f2b330f4596","system_id":"levelo_inurba_marseille","lat":43.27492,"lon":5.42448,"is_reserved":false,"is_disabled":false,"rental_uris":{"android":"levelo://app?vid=0d35583f-667c-409c-9fcb-2f2b330f4596","ios":"levelo://app?vid=0d35583f-667c-409c-9fcb-2f2b330f4596"},"vehicle_type_id":"4","last_reported":1758294574,"current_range_meters":14000,"station_id":"ce4bhn92rcd13ifvqgrg","pricing_plan_id":"cebpf4jnsgd1na2vs0mg"},{"bike_id":"22dfd962-8ff1-4016-80bd-59659ecdb24d","system_id":"levelo_inurba_marseille","lat":43.28268,"lon":5.35065,"is_reserved":false,"is_disabled":false,"rental_uris":{"android":"levelo://app?vid=22dfd962-8ff1-4016-80bd-59659ecdb24d","ios":"levelo://app?vid=22dfd962-8ff1-4016-80bd-59659ecdb24d"},"vehicle_type_id":"4","last_reported":1758294574,"current_range_meters":14000,"station_id":"ce4bhbp2rcd13ifvqerg","pricing_plan_id":"cebpf4jnsgd1na2vs0mg"},{"bike_id":"9c0693b2-33f4-40d9-85fa-754a770a9d54","system_id":"levelo_inurba_marseille","lat":43.295188,"lon":5.390328,"is_reserved":false,"is_disabled":false,"rental_uris":{"android":"levelo://app?vid=9c0693b2-33f4-40d9-85fa-754a770a9d54","ios":"levelo://app?vid=9c0693b2-33f4-40d9-85fa-754a770a9d54"},"vehicle_type_id":"4","last_reported":1758294574,"current_range_meters":14000,"station_id":"ce4bh312rcd13ifvqdj0","pricing_plan_id":"cebpf4jnsgd1na2vs0mg"},{"bike_id":"67eb8721-b3b8-4086-9ffc-60ca7e1b0555","system_id":"levelo_inurba_marseille","lat":43.28412,"lon":5.34982,"is_reserved":false,"is_disabled":false,"rental_uris":{"android":"levelo://app?vid=67eb8721-b3b8-4086-9ffc-60ca7e1b0555","ios":"levelo://app?vid=67eb8721-b3b8-4086-9ffc-60ca7e1b0555"},"vehicle_type_id":"4","last_reported":1758294574,"current_range_meters":14000,"station_id":"ce4bhbh2rcd13ifvqepg","pricing_plan_id":"cebpf4jnsgd1na2vs0mg"},{"bike_id":"931664d9-a1f9-4b23-9426-5b3082bf7d09","system_id":"levelo_inurba_marseille","lat":43.3093,"lon":5.40135,"is_reserved":false,"is_disabled":true,"rental_uris":{"android":"levelo://app?vid=931664d9-a1f9-4b23-9426-5b3082bf7d09","ios":"levelo://app?vid=931664d9-a1f9-4b23-9426-5b3082bf7d09"},"vehicle_type_id":"4","last_reported":1758294574,"current_range_meters":14400,"station_id":"ce4bgvp2rcd13ifvqct0","pricing_plan_id":"cebpf4jnsgd1na2vs0mg"},{"bike_id":"ae82ef14-958e-42fb-9056-adf28084632d","system_id":"levelo_inurba_marseille","lat":43.284122,"lon":5.34971,"is_reserved":false,"is_disabled":false,"rental_uris":{"android":"levelo://app?vid=ae82ef14-958e-42fb-9056-adf28084632d","ios":"levelo://app?vid=ae82ef14-958e-42fb-9056-adf28084632d"},"vehicle_type_id":"4","last_reported":1758294574,"current_range_meters":14800,"station_id":"","pricing_plan_id":"cebpf4jnsgd1na2vs0mg"},{"bike_id":"518eef5b-9e3c-4b06-94a9-56e70af9d262","system_id":"levelo_inurba_marseille","lat":43.30798,"lon":5.38139,"is_reserved":false,"is_disabled":true,"rental_uris":{"android":"levelo://app?vid=518eef5b-9e3c-4b06-94a9-56e70af9d262","ios":"levelo://app?vid=518eef5b-9e3c-4b06-94a9-56e70af9d262"},"vehicle_type_id":"4","last_reported":1758294574,"current_range_meters":14800,"station_id":"ce4bgt12rcd13ifvqce0","pricing_plan_id":"cebpf4jnsgd1na2vs0mg"},{"bike_id":"ae921d16-2a14-4563-870d-f94c1f58308d","system_id":"levelo_inurba_marseille","lat":43.30353,"lon":5.41875,"is_reserved":false,"is_disabled":false,"rental_uris":{"android":"levelo://app?vid=ae921d16-2a14-4563-870d-f94c1f58308d","ios":"levelo://app?vid=ae921d16-2a14-4563-870d-f94c1f58308d"},"vehicle_type_id":"4","last_reported":1758294574,"current_range_meters":15200,"station_id":"ce4bhop2rcd13ifvqh7g","pricing_plan_id":"cebpf4jnsgd1na2vs0mg"},{"bike_id":"f85a8c4d-f9d0-4136-9b57-8bfb28db950c","system_id":"levelo_inurba_marseille","lat":43.31897,"lon":5.37448,"is_reserved":false,"is_disabled":false,"rental_uris":{"android":"levelo://app?vid=f85a8c4d-f9d0-4136-9b57-8bfb28db950c","ios":"levelo://app?vid=f85a8c4d-f9d0-4136-9b57-8bfb28db950c"},"vehicle_type_id":"4","last_reported":1758294574,"current_range_meters":15200,"station_id":"","pricing_plan_id":"cebpf4jnsgd1na2vs0mg"},{"bike_id":"b1aea033-d9a7-44a7-8a23-2e263bbc1dee","system_id":"levelo_inurba_marseille","lat":43.30486,"lon":5.36654,"is_reserved":false,"is_disabled":false,"rental_uris":{"android":"levelo://app?vid=b1aea033-d9a7-44a7-8a23-2e263bbc1dee","ios":"levelo://app?vid=b1aea033-d9a7-44a7-8a23-2e263bbc1dee"},"vehicle_type_id":"4","last_reported":1758294574,"current_range_meters":15200,"station_id":"","pricing_plan_id":"cebpf4jnsgd1na2vs0mg"},{"bike_id":"be5241fb-633d-4257-9866-651e9a04e1eb","system_id":"levelo_inurba_marseille","lat":43.31328,"lon":5.39746,"is_reserved":false,"is_disabled":false,"rental_uris":{"android":"levelo://app?vid=be5241fb-633d-4257-9866-651e9a04e1eb","ios":"levelo://app?vid=be5241fb-633d-4257-9866-651e9a04e1eb"},"vehicle_type_id":"4","last_reported":1758294574,"current_range_meters":14800,"station_id":"ce4bgvp2rcd13ifvqcu0","pricing_plan_id":"cebpf4jnsgd1na2vs0mg"},{"bike_id":"cce88db2-888e-41e0-aaa5-e4cfaba3e14d","system_id":"levelo_inurba_marseille","lat":43.26561,"lon":5.40327,"is_reserved":false,"is_disabled":false,"rental_uris":{"android":"levelo://app?vid=cce88db2-888e-41e0-aaa5-e4cfaba3e14d","ios":"levelo://app?vid=cce88db2-888e-41e0-aaa5-e4cfaba3e14d"},"vehicle_type_id":"4","last_reported":1758294574,"current_range_meters":15200,"station_id":"ce4bhmp2rcd13ifvqgng","pricing_plan_id":"cebpf4jnsgd1na2vs0mg"},{"bike_id":"e8d54df5-c4c1-4b1d-8011-6225bc73f6f6","system_id":"levelo_inurba_marseille","lat":43.28608,"lon":5.37067,"is_reserved":false,"is_disabled":false,"rental_uris":{"android":"levelo://app?vid=e8d54df5-c4c1-4b1d-8011-6225bc73f6f6","ios":"levelo://app?vid=e8d54df5-c4c1-4b1d-8011-6225bc73f6f6"},"vehicle_type_id":"4","last_reported":1758294574,"current_range_meters":15200,"station_id":"ce4bht12rcd13ifvqi60","pricing_plan_id":"cebpf4jnsgd1na2vs0mg"},{"bike_id":"291b4e3e-56d6-44b9-8d7c-6ba733401415","system_id":"levelo_inurba_marseille","lat":43.24145,"lon":5.36419,"is_reserved":false,"is_disabled":false,"rental_uris":{"android":"levelo://app?vid=291b4e3e-56d6-44b9-8d7c-6ba733401415","ios":"levelo://app?vid=291b4e3e-56d6-44b9-8d7c-6ba733401415"},"vehicle_type_id":"4","last_reported":1758294574,"current_range_meters":15200,"station_id":"cpo36qri1sfpv3e86is0","pricing_plan_id":"cebpf4jnsgd1na2vs0mg"},{"bike_id":"438ead59-de14-4fa0-a61d-03a70a4122ae","system_id":"levelo_inurba_marseille","lat":43.97277,"lon":4.89122,"is_reserved":false,"is_disabled":true,"rental_uris":{"android":"levelo://app?vid=438ead59-de14-4fa0-a61d-03a70a4122ae","ios":"levelo://app?vid=438ead59-de14-4fa0-a61d-03a70a4122ae"},"vehicle_type_id":"4","last_reported":1758294574,"current_range_meters":15200,"station_id":"","pricing_plan_id":"cebpf4jnsgd1na2vs0mg"},{"bike_id":"5ee5ed8e-e382-49b5-a1cd-4debf6217c67","system_id":"levelo_inurba_marseille","lat":43.28616,"lon":5.35093,"is_reserved":false,"is_disabled":false,"rental_uris":{"android":"levelo://app?vid=5ee5ed8e-e382-49b5-a1cd-4debf6217c67","ios":"levelo://app?vid=5ee5ed8e-e382-49b5-a1cd-4debf6217c67"},"vehicle_type_id":"4","last_reported":1758294574,"current_range_meters":15200,"station_id":"ce4bhch2rcd13ifvqeug","pricing_plan_id":"cebpf4jnsgd1na2vs0mg"},{"bike_id":"dccefeab-758e-4850-a415-f18571ed0a71","system_id":"levelo_inurba_marseille","lat":43.29532,"lon":5.38549,"is_reserved":false,"is_disabled":true,"rental_uris":{"android":"levelo://app?vid=dccefeab-758e-4850-a415-f18571ed0a71","ios":"levelo://app?vid=dccefeab-758e-4850-a415-f18571ed0a71"},"vehicle_type_id":"4","last_reported":1758294574,"current_range_meters":15200,"station_id":"ce4bgih2rcd13ifvqba0","pricing_plan_id":"cebpf4jnsgd1na2vs0mg"},{"bike_id":"9c0f2481-0a64-4644-b565-d9a7928dbf2e","system_id":"levelo_inurba_marseille","lat":43.2827,"lon":5.35062,"is_reserved":false,"is_disabled":false,"rental_uris":{"android":"levelo://app?vid=9c0f2481-0a64-4644-b565-d9a7928dbf2e","ios":"levelo://app?vid=9c0f2481-0a64-4644-b565-d9a7928dbf2e"},"vehicle_type_id":"4","last_reported":1758294574,"current_range_meters":15200,"station_id":"ce4bhbp2rcd13ifvqerg","pricing_plan_id":"cebpf4jnsgd1na2vs0mg"},{"bike_id":"86ff4ee4-378d-4697-aae5-15f4a0561a21","system_id":"levelo_inurba_marseille","lat":43.265576,"lon":5.372842,"is_reserved":false,"is_disabled":false,"rental_uris":{"android":"levelo://app?vid=86ff4ee4-378d-4697-aae5-15f4a0561a21","ios":"levelo://app?vid=86ff4ee4-378d-4697-aae5-15f4a0561a21"},"vehicle_type_id":"4","last_reported":1758294574,"current_range_meters":16000,"station_id":"ce4bhg12rcd13ifvqf70","pricing_plan_id":"cebpf4jnsgd1na2vs0mg"},{"bike_id":"0e84bab3-811d-41d9-a3ac-b1d35251d7b6","system_id":"levelo_inurba_marseille","lat":43.28409,"lon":5.34983,"is_reserved":false,"is_disabled":false,"rental_uris":{"android":"levelo://app?vid=0e84bab3-811d-41d9-a3ac-b1d35251d7b6","ios":"levelo://app?vid=0e84bab3-811d-41d9-a3ac-b1d35251d7b6"},"vehicle_type_id":"4","last_reported":1758294574,"current_range_meters":16000,"station_id":"ce4bhbh2rcd13ifvqepg","pricing_plan_id":"cebpf4jnsgd1na2vs0mg"},{"bike_id":"3c70ac7d-f6f1-4b32-a730-a5dfc2e234bf","system_id":"levelo_inurba_marseille","lat":43.29261,"lon":5.37627,"is_reserved":false,"is_disabled":true,"rental_uris":{"android":"levelo://app?vid=3c70ac7d-f6f1-4b32-a730-a5dfc2e234bf","ios":"levelo://app?vid=3c70ac7d-f6f1-4b32-a730-a5dfc2e234bf"},"vehicle_type_id":"4","last_reported":1758294574,"current_range_meters":16000,"station_id":"ce4bgi12rcd13ifvqb80","pricing_plan_id":"cebpf4jnsgd1na2vs0mg"},{"bike_id":"181471db-9a56-47f7-aff6-efac05048ea8","system_id":"levelo_inurba_marseille","lat":43.29884,"lon":5.39735,"is_reserved":false,"is_disabled":false,"rental_uris":{"android":"levelo://app?vid=181471db-9a56-47f7-aff6-efac05048ea8","ios":"levelo://app?vid=181471db-9a56-47f7-aff6-efac05048ea8"},"vehicle_type_id":"4","last_reported":1758294574,"current_range_meters":16000,"station_id":"ce4bh0h2rcd13ifvqd50","pricing_plan_id":"cebpf4jnsgd1na2vs0mg"},{"bike_id":"ce4825de-6bf4-4d37-88c3-484e2fe14d78","system_id":"levelo_inurba_marseille","lat":43.27369,"lon":5.3626,"is_reserved":false,"is_disabled":false,"rental_uris":{"android":"levelo://app?vid=ce4825de-6bf4-4d37-88c3-484e2fe14d78","ios":"levelo://app?vid=ce4825de-6bf4-4d37-88c3-484e2fe14d78"},"vehicle_type_id":"4","last_reported":1758294574,"current_range_meters":16000,"station_id":"ce4bhbh2rcd13ifvqeo0","pricing_plan_id":"cebpf4jnsgd1na2vs0mg"},{"bike_id":"29a4247c-829a-43e0-aab6-67a03dd26c4e","system_id":"levelo_inurba_marseille","lat":43.308,"lon":5.36898,"is_reserved":false,"is_disabled":false,"rental_uris":{"android":"levelo://app?vid=29a4247c-829a-43e0-aab6-67a03dd26c4e","ios":"levelo://app?vid=29a4247c-829a-43e0-aab6-67a03dd26c4e"},"vehicle_type_id":"4","last_reported":1758294574,"current_range_meters":16400,"station_id":"","pricing_plan_id":"cebpf4jnsgd1na2vs0mg"},{"bike_id":"047ede53-49e3-4863-984c-c2c4ea7ff1a3","system_id":"levelo_inurba_marseille","lat":43.272115,"lon":5.391899,"is_reserved":false,"is_disabled":false,"rental_uris":{"android":"levelo://app?vid=047ede53-49e3-4863-984c-c2c4ea7ff1a3","ios":"levelo://app?vid=047ede53-49e3-4863-984c-c2c4ea7ff1a3"},"vehicle_type_id":"4","last_reported":1758294574,"current_range_meters":16400,"station_id":"ce4bhhp2rcd13ifvqfm0","pricing_plan_id":"cebpf4jnsgd1na2vs0mg"},{"bike_id":"0da2d3b5-e953-4d12-a27a-a987ee8ec77b","system_id":"levelo_inurba_marseille","lat":43.31069,"lon":5.38352,"is_reserved":false,"is_disabled":false,"rental_uris":{"android":"levelo://app?vid=0da2d3b5-e953-4d12-a27a-a987ee8ec77b","ios":"levelo://app?vid=0da2d3b5-e953-4d12-a27a-a987ee8ec77b"},"vehicle_type_id":"4","last_reported":1758294574,"current_range_meters":16400,"station_id":"ce4bgv92rcd13ifvqcr0","pricing_plan_id":"cebpf4jnsgd1na2vs0mg"},{"bike_id":"c4706891-6ce1-4440-91ff-a3ecf2ff007e","system_id":"levelo_inurba_marseille","lat":43.26374,"lon":5.40075,"is_reserved":false,"is_disabled":false,"rental_uris":{"android":"levelo://app?vid=c4706891-6ce1-4440-91ff-a3ecf2ff007e","ios":"levelo://app?vid=c4706891-6ce1-4440-91ff-a3ecf2ff007e"},"vehicle_type_id":"4","last_reported":1758294574,"current_range_meters":16400,"station_id":"","pricing_plan_id":"cebpf4jnsgd1na2vs0mg"},{"bike_id":"6c9e5457-0b76-403b-90b6-e79dec7fd6e8","system_id":"levelo_inurba_marseille","lat":43.305932,"lon":5.393629,"is_reserved":false,"is_disabled":false,"rental_uris":{"android":"levelo://app?vid=6c9e5457-0b76-403b-90b6-e79dec7fd6e8","ios":"levelo://app?vid=6c9e5457-0b76-403b-90b6-e79dec7fd6e8"},"vehicle_type_id":"4","last_reported":1758294574,"current_range_meters":16000,"station_id":"ce4bh0p2rcd13ifvqd80","pricing_plan_id":"cebpf4jnsgd1na2vs0mg"},{"bike_id":"df0199ee-ab4f-48ab-bbe9-404b970e49dc","system_id":"levelo_inurba_marseille","lat":43.29062,"lon":5.37161,"is_reserved":false,"is_disabled":true,"rental_uris":{"android":"levelo://app?vid=df0199ee-ab4f-48ab-bbe9-404b970e49dc","ios":"levelo://app?vid=df0199ee-ab4f-48ab-bbe9-404b970e49dc"},"vehicle_type_id":"4","last_reported":1758294574,"current_range_meters":16400,"station_id":"ce4bh5p2rcd13ifvqe4g","pricing_plan_id":"cebpf4jnsgd1na2vs0mg"},{"bike_id":"8b3c1bb1-e3a1-43a9-8904-bfd6e05d3085","system_id":"levelo_inurba_marseille","lat":43.28273,"lon":5.35069,"is_reserved":false,"is_disabled":false,"rental_uris":{"android":"levelo://app?vid=8b3c1bb1-e3a1-43a9-8904-bfd6e05d3085","ios":"levelo://app?vid=8b3c1bb1-e3a1-43a9-8904-bfd6e05d3085"},"vehicle_type_id":"4","last_reported":1758294574,"current_range_meters":16400,"station_id":"ce4bhbp2rcd13ifvqerg","pricing_plan_id":"cebpf4jnsgd1na2vs0mg"},{"bike_id":"78c24488-0d0b-41ef-bc27-6284cf706d8b","system_id":"levelo_inurba_marseille","lat":43.30306,"lon":5.3689,"is_reserved":false,"is_disabled":false,"rental_uris":{"android":"levelo://app?vid=78c24488-0d0b-41ef-bc27-6284cf706d8b","ios":"levelo://app?vid=78c24488-0d0b-41ef-bc27-6284cf706d8b"},"vehicle_type_id":"4","last_reported":1758294574,"current_range_meters":16400,"station_id":"ce4bgqh2rcd13ifvqc5g","pricing_plan_id":"cebpf4jnsgd1na2vs0mg"},{"bike_id":"95c86560-f36c-41f9-8b75-2e5c5d626650","system_id":"levelo_inurba_marseille","lat":43.29278,"lon":5.36849,"is_reserved":false,"is_disabled":false,"rental_uris":{"android":"levelo://app?vid=95c86560-f36c-41f9-8b75-2e5c5d626650","ios":"levelo://app?vid=95c86560-f36c-41f9-8b75-2e5c5d626650"},"vehicle_type_id":"4","last_reported":1758294574,"current_range_meters":16400,"station_id":"ce4bhbp2rcd13ifvqesg","pricing_plan_id":"cebpf4jnsgd1na2vs0mg"},{"bike_id":"96507329-2880-46a8-8381-94c43398d8e1","system_id":"levelo_inurba_marseille","lat":43.32118,"lon":5.36756,"is_reserved":false,"is_disabled":false,"rental_uris":{"android":"levelo://app?vid=96507329-2880-46a8-8381-94c43398d8e1","ios":"levelo://app?vid=96507329-2880-46a8-8381-94c43398d8e1"},"vehicle_type_id":"4","last_reported":1758294574,"current_range_meters":16800,"station_id":"ce4bhrh2rcd13ifvqhug","pricing_plan_id":"cebpf4jnsgd1na2vs0mg"},{"bike_id":"4199a78e-e024-4aa0-add5-bfe6d6531bc4","system_id":"levelo_inurba_marseille","lat":43.24174,"lon":5.36374,"is_reserved":false,"is_disabled":false,"rental_uris":{"android":"levelo://app?vid=4199a78e-e024-4aa0-add5-bfe6d6531bc4","ios":"levelo://app?vid=4199a78e-e024-4aa0-add5-bfe6d6531bc4"},"vehicle_type_id":"4","last_reported":1758294574,"current_range_meters":16800,"station_id":"cpo36qri1sfpv3e86is0","pricing_plan_id":"cebpf4jnsgd1na2vs0mg"},{"bike_id":"393483e3-7683-4116-a5e4-443a848e57f2","system_id":"levelo_inurba_marseille","lat":43.27366,"lon":5.36249,"is_reserved":false,"is_disabled":false,"rental_uris":{"android":"levelo://app?vid=393483e3-7683-4116-a5e4-443a848e57f2","ios":"levelo://app?vid=393483e3-7683-4116-a5e4-443a848e57f2"},"vehicle_type_id":"4","last_reported":1758294574,"current_range_meters":16800,"station_id":"ce4bhbh2rcd13ifvqeo0","pricing_plan_id":"cebpf4jnsgd1na2vs0mg"},{"bike_id":"16e173e4-726e-418c-9c21-33d377db09c1","system_id":"levelo_inurba_marseille","lat":43.277902,"lon":5.407596,"is_reserved":false,"is_disabled":false,"rental_uris":{"android":"levelo://app?vid=16e173e4-726e-418c-9c21-33d377db09c1","ios":"levelo://app?vid=16e173e4-726e-418c-9c21-33d377db09c1"},"vehicle_type_id":"4","last_reported":1758294574,"current_range_meters":16800,"station_id":"ce4bhnh2rcd13ifvqgtg","pricing_plan_id":"cebpf4jnsgd1na2vs0mg"},{"bike_id":"5a010b65-1582-400b-b46f-644292f07b1c","system_id":"levelo_inurba_marseille","lat":43.29006,"lon":5.35612,"is_reserved":false,"is_disabled":false,"rental_uris":{"android":"levelo://app?vid=5a010b65-1582-400b-b46f-644292f07b1c","ios":"levelo://app?vid=5a010b65-1582-400b-b46f-644292f07b1c"},"vehicle_type_id":"4","last_reported":1758294574,"current_range_meters":16800,"station_id":"ce4bhb92rcd13ifvqen0","pricing_plan_id":"cebpf4jnsgd1na2vs0mg"},{"bike_id":"59a45dc2-4996-486b-bc88-a28f733c08e7","system_id":"levelo_inurba_marseille","lat":43.24173,"lon":5.36394,"is_reserved":false,"is_disabled":false,"rental_uris":{"android":"levelo://app?vid=59a45dc2-4996-486b-bc88-a28f733c08e7","ios":"levelo://app?vid=59a45dc2-4996-486b-bc88-a28f733c08e7"},"vehicle_type_id":"4","last_reported":1758294574,"current_range_meters":16800,"station_id":"cpo36qri1sfpv3e86is0","pricing_plan_id":"cebpf4jnsgd1na2vs0mg"},{"bike_id":"2118296b-8ada-4fa8-b601-0f32c42a09c8","system_id":"levelo_inurba_marseille","lat":43.25087,"lon":5.39524,"is_reserved":false,"is_disabled":false,"rental_uris":{"android":"levelo://app?vid=2118296b-8ada-4fa8-b601-0f32c42a09c8","ios":"levelo://app?vid=2118296b-8ada-4fa8-b601-0f32c42a09c8"},"vehicle_type_id":"4","last_reported":1758294574,"current_range_meters":16800,"station_id":"ce4bhm12rcd13ifvqgkg","pricing_plan_id":"cebpf4jnsgd1na2vs0mg"},{"bike_id":"835975a0-27c7-47e7-bc1c-b8ba0b505127","system_id":"levelo_inurba_marseille","lat":43.32564,"lon":5.37839,"is_reserved":false,"is_disabled":false,"rental_uris":{"android":"levelo://app?vid=835975a0-27c7-47e7-bc1c-b8ba0b505127","ios":"levelo://app?vid=835975a0-27c7-47e7-bc1c-b8ba0b505127"},"vehicle_type_id":"4","last_reported":1758294574,"current_range_meters":16800,"station_id":"","pricing_plan_id":"cebpf4jnsgd1na2vs0mg"},{"bike_id":"3a52b1c1-b6d1-44a4-92dd-86846d563ddb","system_id":"levelo_inurba_marseille","lat":43.29937,"lon":5.36547,"is_reserved":false,"is_disabled":false,"rental_uris":{"android":"levelo://app?vid=3a52b1c1-b6d1-44a4-92dd-86846d563ddb","ios":"levelo://app?vid=3a52b1c1-b6d1-44a4-92dd-86846d563ddb"},"vehicle_type_id":"4","last_reported":1758294574,"current_range_meters":16800,"station_id":"ce4bgm92rcd13ifvqbr0","pricing_plan_id":"cebpf4jnsgd1na2vs0mg"},{"bike_id":"43d57fd4-047e-4ac8-97e5-ec9b96239472","system_id":"levelo_inurba_marseille","lat":43.32932,"lon":5.39139,"is_reserved":false,"is_disabled":false,"rental_uris":{"android":"levelo://app?vid=43d57fd4-047e-4ac8-97e5-ec9b96239472","ios":"levelo://app?vid=43d57fd4-047e-4ac8-97e5-ec9b96239472"},"vehicle_type_id":"4","last_reported":1758294574,"current_range_meters":16800,"station_id":"","pricing_plan_id":"cebpf4jnsgd1na2vs0mg"},{"bike_id":"05c64fda-6f19-4ba0-9f9c-003f37153a52","system_id":"levelo_inurba_marseille","lat":43.28617,"lon":5.35105,"is_reserved":false,"is_disabled":false,"rental_uris":{"android":"levelo://app?vid=05c64fda-6f19-4ba0-9f9c-003f37153a52","ios":"levelo://app?vid=05c64fda-6f19-4ba0-9f9c-003f37153a52"},"vehicle_type_id":"4","last_reported":1758294574,"current_range_meters":16800,"station_id":"ce4bhch2rcd13ifvqeug","pricing_plan_id":"cebpf4jnsgd1na2vs0mg"},{"bike_id":"7f1be994-af2d-4c9a-807a-220e9a43367d","system_id":"levelo_inurba_marseille","lat":43.22926,"lon":5.35369,"is_reserved":false,"is_disabled":false,"rental_uris":{"android":"levelo://app?vid=7f1be994-af2d-4c9a-807a-220e9a43367d","ios":"levelo://app?vid=7f1be994-af2d-4c9a-807a-220e9a43367d"},"vehicle_type_id":"4","last_reported":1758294574,"current_range_meters":17200,"station_id":"cpo3532slgdg3j2ikp40","pricing_plan_id":"cebpf4jnsgd1na2vs0mg"},{"bike_id":"c2299ede-8e55-401f-8a16-52c14197fafe","system_id":"levelo_inurba_marseille","lat":43.23179,"lon":5.3997,"is_reserved":false,"is_disabled":false,"rental_uris":{"android":"levelo://app?vid=c2299ede-8e55-401f-8a16-52c14197fafe","ios":"levelo://app?vid=c2299ede-8e55-401f-8a16-52c14197fafe"},"vehicle_type_id":"4","last_reported":1758294574,"current_range_meters":16800,"station_id":"ce4bhn12rcd13ifvqgqg","pricing_plan_id":"cebpf4jnsgd1na2vs0mg"},{"bike_id":"46bb0d16-d452-4e67-8ebb-7c6f5e89c56e","system_id":"levelo_inurba_marseille","lat":43.28279,"lon":5.35058,"is_reserved":false,"is_disabled":false,"rental_uris":{"android":"levelo://app?vid=46bb0d16-d452-4e67-8ebb-7c6f5e89c56e","ios":"levelo://app?vid=46bb0d16-d452-4e67-8ebb-7c6f5e89c56e"},"vehicle_type_id":"4","last_reported":1758294574,"current_range_meters":17200,"station_id":"ce4bhbp2rcd13ifvqerg","pricing_plan_id":"cebpf4jnsgd1na2vs0mg"},{"bike_id":"af0490b6-c1c9-4895-8a15-568d23e0a730","system_id":"levelo_inurba_marseille","lat":43.28069,"lon":5.40778,"is_reserved":false,"is_disabled":false,"rental_uris":{"android":"levelo://app?vid=af0490b6-c1c9-4895-8a15-568d23e0a730","ios":"levelo://app?vid=af0490b6-c1c9-4895-8a15-568d23e0a730"},"vehicle_type_id":"4","last_reported":1758294574,"current_range_meters":17200,"station_id":"","pricing_plan_id":"cebpf4jnsgd1na2vs0mg"},{"bike_id":"9419ed86-7e04-49ed-9879-7b0739ad0b2d","system_id":"levelo_inurba_marseille","lat":43.28265,"lon":5.35056,"is_reserved":false,"is_disabled":false,"rental_uris":{"android":"levelo://app?vid=9419ed86-7e04-49ed-9879-7b0739ad0b2d","ios":"levelo://app?vid=9419ed86-7e04-49ed-9879-7b0739ad0b2d"},"vehicle_type_id":"4","last_reported":1758294574,"current_range_meters":17200,"station_id":"ce4bhbp2rcd13ifvqerg","pricing_plan_id":"cebpf4jnsgd1na2vs0mg"},{"bike_id":"de23f2a2-fd73-4652-a94a-28ffed57e47f","system_id":"levelo_inurba_marseille","lat":43.28262,"lon":5.35069,"is_reserved":false,"is_disabled":false,"rental_uris":{"android":"levelo://app?vid=de23f2a2-fd73-4652-a94a-28ffed57e47f","ios":"levelo://app?vid=de23f2a2-fd73-4652-a94a-28ffed57e47f"},"vehicle_type_id":"4","last_reported":1758294574,"current_range_meters":17200,"station_id":"ce4bhbp2rcd13ifvqerg","pricing_plan_id":"cebpf4jnsgd1na2vs0mg"},{"bike_id":"2d9bc2c2-2680-4643-89e6-4ccf3e02aee7","system_id":"levelo_inurba_marseille","lat":43.271417,"lon":5.409097,"is_reserved":false,"is_disabled":false,"rental_uris":{"android":"levelo://app?vid=2d9bc2c2-2680-4643-89e6-4ccf3e02aee7","ios":"levelo://app?vid=2d9bc2c2-2680-4643-89e6-4ccf3e02aee7"},"vehicle_type_id":"4","last_reported":1758294574,"current_range_meters":17200,"station_id":"ce4bhl12rcd13ifvqgf0","pricing_plan_id":"cebpf4jnsgd1na2vs0mg"},{"bike_id":"11f5b791-38b6-4186-ab5f-78582d4b3460","system_id":"levelo_inurba_marseille","lat":43.23058,"lon":5.35489,"is_reserved":false,"is_disabled":false,"rental_uris":{"android":"levelo://app?vid=11f5b791-38b6-4186-ab5f-78582d4b3460","ios":"levelo://app?vid=11f5b791-38b6-4186-ab5f-78582d4b3460"},"vehicle_type_id":"4","last_reported":1758294574,"current_range_meters":17200,"station_id":"cpo3342slgdg3j2ifvpg","pricing_plan_id":"cebpf4jnsgd1na2vs0mg"},{"bike_id":"30279a9d-e63a-446d-b6bf-61f4c5913911","system_id":"levelo_inurba_marseille","lat":43.28425,"lon":5.34986,"is_reserved":false,"is_disabled":false,"rental_uris":{"android":"levelo://app?vid=30279a9d-e63a-446d-b6bf-61f4c5913911","ios":"levelo://app?vid=30279a9d-e63a-446d-b6bf-61f4c5913911"},"vehicle_type_id":"4","last_reported":1758294574,"current_range_meters":17200,"station_id":"ce4bhbh2rcd13ifvqepg","pricing_plan_id":"cebpf4jnsgd1na2vs0mg"},{"bike_id":"bbb347f3-9377-427c-8245-eadb2dce5257","system_id":"levelo_inurba_marseille","lat":43.278388,"lon":5.407238,"is_reserved":false,"is_disabled":false,"rental_uris":{"android":"levelo://app?vid=bbb347f3-9377-427c-8245-eadb2dce5257","ios":"levelo://app?vid=bbb347f3-9377-427c-8245-eadb2dce5257"},"vehicle_type_id":"4","last_reported":1758294574,"current_range_meters":17600,"station_id":"ce4bhnh2rcd13ifvqgtg","pricing_plan_id":"cebpf4jnsgd1na2vs0mg"},{"bike_id":"18ee6c0b-455c-4048-9730-ff21dfdf35df","system_id":"levelo_inurba_marseille","lat":43.22576,"lon":5.41615,"is_reserved":false,"is_disabled":false,"rental_uris":{"android":"levelo://app?vid=18ee6c0b-455c-4048-9730-ff21dfdf35df","ios":"levelo://app?vid=18ee6c0b-455c-4048-9730-ff21dfdf35df"},"vehicle_type_id":"4","last_reported":1758294574,"current_range_meters":17600,"station_id":"st_d2o4gvlbi1j2169b742g","pricing_plan_id":"cebpf4jnsgd1na2vs0mg"},{"bike_id":"a9743bb2-1568-4e16-927e-acd26159a665","system_id":"levelo_inurba_marseille","lat":43.282831,"lon":5.350666,"is_reserved":false,"is_disabled":false,"rental_uris":{"android":"levelo://app?vid=a9743bb2-1568-4e16-927e-acd26159a665","ios":"levelo://app?vid=a9743bb2-1568-4e16-927e-acd26159a665"},"vehicle_type_id":"4","last_reported":1758294574,"current_range_meters":17600,"station_id":"ce4bhbp2rcd13ifvqerg","pricing_plan_id":"cebpf4jnsgd1na2vs0mg"},{"bike_id":"92fcd53f-6854-4cc0-8454-b3a9b71f0daa","system_id":"levelo_inurba_marseille","lat":43.28427,"lon":5.34983,"is_reserved":false,"is_disabled":false,"rental_uris":{"android":"levelo://app?vid=92fcd53f-6854-4cc0-8454-b3a9b71f0daa","ios":"levelo://app?vid=92fcd53f-6854-4cc0-8454-b3a9b71f0daa"},"vehicle_type_id":"4","last_reported":1758294574,"current_range_meters":17600,"station_id":"ce4bhbh2rcd13ifvqepg","pricing_plan_id":"cebpf4jnsgd1na2vs0mg"},{"bike_id":"05ca0aa0-5596-4971-a0c3-94e65df6bd50","system_id":"levelo_inurba_marseille","lat":43.22554,"lon":5.4162,"is_reserved":false,"is_disabled":false,"rental_uris":{"android":"levelo://app?vid=05ca0aa0-5596-4971-a0c3-94e65df6bd50","ios":"levelo://app?vid=05ca0aa0-5596-4971-a0c3-94e65df6bd50"},"vehicle_type_id":"4","last_reported":1758294574,"current_range_meters":17600,"station_id":"st_d2o4gvlbi1j2169b742g","pricing_plan_id":"cebpf4jnsgd1na2vs0mg"},{"bike_id":"55d1bc08-fd54-4a82-afc7-2adcaa7b1c4e","system_id":"levelo_inurba_marseille","lat":43.30045,"lon":5.37676,"is_reserved":false,"is_disabled":false,"rental_uris":{"android":"levelo://app?vid=55d1bc08-fd54-4a82-afc7-2adcaa7b1c4e","ios":"levelo://app?vid=55d1bc08-fd54-4a82-afc7-2adcaa7b1c4e"},"vehicle_type_id":"4","last_reported":1758294574,"current_range_meters":17600,"station_id":"","pricing_plan_id":"cebpf4jnsgd1na2vs0mg"},{"bike_id":"a4f9843f-ea8e-45f8-b814-3b6a01dd959b","system_id":"levelo_inurba_marseille","lat":43.23054,"lon":5.35498,"is_reserved":false,"is_disabled":false,"rental_uris":{"android":"levelo://app?vid=a4f9843f-ea8e-45f8-b814-3b6a01dd959b","ios":"levelo://app?vid=a4f9843f-ea8e-45f8-b814-3b6a01dd959b"},"vehicle_type_id":"4","last_reported":1758294574,"current_range_meters":18000,"station_id":"cpo3342slgdg3j2ifvpg","pricing_plan_id":"cebpf4jnsgd1na2vs0mg"},{"bike_id":"b810ec46-97ab-4356-95f9-0c9d02506d5a","system_id":"levelo_inurba_marseille","lat":43.24458,"lon":5.39039,"is_reserved":false,"is_disabled":false,"rental_uris":{"android":"levelo://app?vid=b810ec46-97ab-4356-95f9-0c9d02506d5a","ios":"levelo://app?vid=b810ec46-97ab-4356-95f9-0c9d02506d5a"},"vehicle_type_id":"4","last_reported":1758294574,"current_range_meters":18000,"station_id":"","pricing_plan_id":"cebpf4jnsgd1na2vs0mg"},{"bike_id":"13eb3edd-9f60-4741-ac45-2e7c3cc7d73c","system_id":"levelo_inurba_marseille","lat":43.284153,"lon":5.349814,"is_reserved":false,"is_disabled":false,"rental_uris":{"android":"levelo://app?vid=13eb3edd-9f60-4741-ac45-2e7c3cc7d73c","ios":"levelo://app?vid=13eb3edd-9f60-4741-ac45-2e7c3cc7d73c"},"vehicle_type_id":"4","last_reported":1758294574,"current_range_meters":18000,"station_id":"ce4bhbh2rcd13ifvqepg","pricing_plan_id":"cebpf4jnsgd1na2vs0mg"},{"bike_id":"0127ffc8-7bb9-4e49-b7a0-bbf8fde64480","system_id":"levelo_inurba_marseille","lat":43.28854,"lon":5.35845,"is_reserved":false,"is_disabled":false,"rental_uris":{"android":"levelo://app?vid=0127ffc8-7bb9-4e49-b7a0-bbf8fde64480","ios":"levelo://app?vid=0127ffc8-7bb9-4e49-b7a0-bbf8fde64480"},"vehicle_type_id":"4","last_reported":1758294574,"current_range_meters":18000,"station_id":"ce4bhb12rcd13ifvqem0","pricing_plan_id":"cebpf4jnsgd1na2vs0mg"},{"bike_id":"940f5d8a-dea1-461e-864c-ccd65bd91af3","system_id":"levelo_inurba_marseille","lat":43.28459,"lon":5.35881,"is_reserved":false,"is_disabled":false,"rental_uris":{"android":"levelo://app?vid=940f5d8a-dea1-461e-864c-ccd65bd91af3","ios":"levelo://app?vid=940f5d8a-dea1-461e-864c-ccd65bd91af3"},"vehicle_type_id":"4","last_reported":1758294574,"current_range_meters":18000,"station_id":"ce4bhah2rcd13ifvqei0","pricing_plan_id":"cebpf4jnsgd1na2vs0mg"},{"bike_id":"0b46d83f-20b5-4ec6-8e36-d61e3f88673f","system_id":"levelo_inurba_marseille","lat":43.28451,"lon":5.35891,"is_reserved":false,"is_disabled":false,"rental_uris":{"android":"levelo://app?vid=0b46d83f-20b5-4ec6-8e36-d61e3f88673f","ios":"levelo://app?vid=0b46d83f-20b5-4ec6-8e36-d61e3f88673f"},"vehicle_type_id":"4","last_reported":1758294574,"current_range_meters":18000,"station_id":"ce4bhah2rcd13ifvqei0","pricing_plan_id":"cebpf4jnsgd1na2vs0mg"},{"bike_id":"2a00cb84-e9e6-4781-804d-0494d7480777","system_id":"levelo_inurba_marseille","lat":43.22562,"lon":5.41634,"is_reserved":false,"is_disabled":false,"rental_uris":{"android":"levelo://app?vid=2a00cb84-e9e6-4781-804d-0494d7480777","ios":"levelo://app?vid=2a00cb84-e9e6-4781-804d-0494d7480777"},"vehicle_type_id":"4","last_reported":1758294574,"current_range_meters":18800,"station_id":"st_d2o4gvlbi1j2169b742g","pricing_plan_id":"cebpf4jnsgd1na2vs0mg"},{"bike_id":"0f7caa9f-1d1a-40d7-9b4a-2f8720e63681","system_id":"levelo_inurba_marseille","lat":43.30842,"lon":5.37534,"is_reserved":false,"is_disabled":false,"rental_uris":{"android":"levelo://app?vid=0f7caa9f-1d1a-40d7-9b4a-2f8720e63681","ios":"levelo://app?vid=0f7caa9f-1d1a-40d7-9b4a-2f8720e63681"},"vehicle_type_id":"4","last_reported":1758294574,"current_range_meters":18800,"station_id":"","pricing_plan_id":"cebpf4jnsgd1na2vs0mg"},{"bike_id":"6ba05728-4c35-471a-805d-37d037f6aa57","system_id":"levelo_inurba_marseille","lat":43.246527,"lon":5.388919,"is_reserved":false,"is_disabled":false,"rental_uris":{"android":"levelo://app?vid=6ba05728-4c35-471a-805d-37d037f6aa57","ios":"levelo://app?vid=6ba05728-4c35-471a-805d-37d037f6aa57"},"vehicle_type_id":"4","last_reported":1758294574,"current_range_meters":18000,"station_id":"ce4bhg12rcd13ifvqf60","pricing_plan_id":"cebpf4jnsgd1na2vs0mg"},{"bike_id":"2c734c36-442f-468e-ab47-e34ad5183e32","system_id":"levelo_inurba_marseille","lat":43.25772,"lon":5.41047,"is_reserved":false,"is_disabled":false,"rental_uris":{"android":"levelo://app?vid=2c734c36-442f-468e-ab47-e34ad5183e32","ios":"levelo://app?vid=2c734c36-442f-468e-ab47-e34ad5183e32"},"vehicle_type_id":"4","last_reported":1758294574,"current_range_meters":18800,"station_id":"","pricing_plan_id":"cebpf4jnsgd1na2vs0mg"},{"bike_id":"0fb288f4-910e-466f-a905-9345379e580d","system_id":"levelo_inurba_marseille","lat":43.27365,"lon":5.36255,"is_reserved":false,"is_disabled":false,"rental_uris":{"android":"levelo://app?vid=0fb288f4-910e-466f-a905-9345379e580d","ios":"levelo://app?vid=0fb288f4-910e-466f-a905-9345379e580d"},"vehicle_type_id":"4","last_reported":1758294574,"current_range_meters":18800,"station_id":"ce4bhbh2rcd13ifvqeo0","pricing_plan_id":"cebpf4jnsgd1na2vs0mg"},{"bike_id":"fdbee9c4-0db1-470e-b8e2-a0c6f35f731c","system_id":"levelo_inurba_marseille","lat":43.243908,"lon":5.37066,"is_reserved":false,"is_disabled":false,"rental_uris":{"android":"levelo://app?vid=fdbee9c4-0db1-470e-b8e2-a0c6f35f731c","ios":"levelo://app?vid=fdbee9c4-0db1-470e-b8e2-a0c6f35f731c"},"vehicle_type_id":"4","last_reported":1758294574,"current_range_meters":18000,"station_id":"ce4bhhh2rcd13ifvqfk0","pricing_plan_id":"cebpf4jnsgd1na2vs0mg"},{"bike_id":"acf25ff3-d71c-4414-88e2-948afc61700f","system_id":"levelo_inurba_marseille","lat":43.2872,"lon":5.36089,"is_reserved":false,"is_disabled":false,"rental_uris":{"android":"levelo://app?vid=acf25ff3-d71c-4414-88e2-948afc61700f","ios":"levelo://app?vid=acf25ff3-d71c-4414-88e2-948afc61700f"},"vehicle_type_id":"4","last_reported":1758294574,"current_range_meters":18000,"station_id":"cki0cbj6b192h4jlfktg","pricing_plan_id":"cebpf4jnsgd1na2vs0mg"},{"bike_id":"144a1f21-946d-467b-bb94-ca15581416c4","system_id":"levelo_inurba_marseille","lat":43.294365,"lon":5.397644,"is_reserved":false,"is_disabled":false,"rental_uris":{"android":"levelo://app?vid=144a1f21-946d-467b-bb94-ca15581416c4","ios":"levelo://app?vid=144a1f21-946d-467b-bb94-ca15581416c4"},"vehicle_type_id":"4","last_reported":1758294574,"current_range_meters":18800,"station_id":"ce4bh3h2rcd13ifvqdo0","pricing_plan_id":"cebpf4jnsgd1na2vs0mg"},{"bike_id":"8e047761-4cb2-4fa7-920f-ce3feb6390f9","system_id":"levelo_inurba_marseille","lat":43.33747,"lon":5.37477,"is_reserved":false,"is_disabled":false,"rental_uris":{"android":"levelo://app?vid=8e047761-4cb2-4fa7-920f-ce3feb6390f9","ios":"levelo://app?vid=8e047761-4cb2-4fa7-920f-ce3feb6390f9"},"vehicle_type_id":"4","last_reported":1758294574,"current_range_meters":18800,"station_id":"","pricing_plan_id":"cebpf4jnsgd1na2vs0mg"},{"bike_id":"a07a513e-e5a9-4481-8592-d991379bc662","system_id":"levelo_inurba_marseille","lat":43.337536,"lon":5.374536,"is_reserved":false,"is_disabled":false,"rental_uris":{"android":"levelo://app?vid=a07a513e-e5a9-4481-8592-d991379bc662","ios":"levelo://app?vid=a07a513e-e5a9-4481-8592-d991379bc662"},"vehicle_type_id":"4","last_reported":1758294574,"current_range_meters":18800,"station_id":"","pricing_plan_id":"cebpf4jnsgd1na2vs0mg"},{"bike_id":"68adab37-f5ad-4072-b58a-fe6c68285ca6","system_id":"levelo_inurba_marseille","lat":43.30597,"lon":5.37641,"is_reserved":false,"is_disabled":false,"rental_uris":{"android":"levelo://app?vid=68adab37-f5ad-4072-b58a-fe6c68285ca6","ios":"levelo://app?vid=68adab37-f5ad-4072-b58a-fe6c68285ca6"},"vehicle_type_id":"4","last_reported":1758294574,"current_range_meters":19200,"station_id":"","pricing_plan_id":"cebpf4jnsgd1na2vs0mg"},{"bike_id":"40847c7b-6921-4437-9239-af2638162524","system_id":"levelo_inurba_marseille","lat":43.24166,"lon":5.36387,"is_reserved":false,"is_disabled":false,"rental_uris":{"android":"levelo://app?vid=40847c7b-6921-4437-9239-af2638162524","ios":"levelo://app?vid=40847c7b-6921-4437-9239-af2638162524"},"vehicle_type_id":"4","last_reported":1758294574,"current_range_meters":19200,"station_id":"cpo36qri1sfpv3e86is0","pricing_plan_id":"cebpf4jnsgd1na2vs0mg"},{"bike_id":"b05ab237-5916-46ac-a2fb-5139a54b4b22","system_id":"levelo_inurba_marseille","lat":43.24155,"lon":5.36413,"is_reserved":false,"is_disabled":false,"rental_uris":{"android":"levelo://app?vid=b05ab237-5916-46ac-a2fb-5139a54b4b22","ios":"levelo://app?vid=b05ab237-5916-46ac-a2fb-5139a54b4b22"},"vehicle_type_id":"4","last_reported":1758294574,"current_range_meters":19200,"station_id":"cpo36qri1sfpv3e86is0","pricing_plan_id":"cebpf4jnsgd1na2vs0mg"},{"bike_id":"6d6d374c-da72-40bf-96f6-3fb947e9829c","system_id":"levelo_inurba_marseille","lat":43.323617,"lon":5.367461,"is_reserved":false,"is_disabled":false,"rental_uris":{"android":"levelo://app?vid=6d6d374c-da72-40bf-96f6-3fb947e9829c","ios":"levelo://app?vid=6d6d374c-da72-40bf-96f6-3fb947e9829c"},"vehicle_type_id":"4","last_reported":1758294574,"current_range_meters":19200,"station_id":"ce4bhsh2rcd13ifvqi2g","pricing_plan_id":"cebpf4jnsgd1na2vs0mg"},{"bike_id":"bc948571-9836-4de5-a533-eea92c0eff2f","system_id":"levelo_inurba_marseille","lat":43.28458,"lon":5.35891,"is_reserved":false,"is_disabled":false,"rental_uris":{"android":"levelo://app?vid=bc948571-9836-4de5-a533-eea92c0eff2f","ios":"levelo://app?vid=bc948571-9836-4de5-a533-eea92c0eff2f"},"vehicle_type_id":"4","last_reported":1758294574,"current_range_meters":19200,"station_id":"ce4bhah2rcd13ifvqei0","pricing_plan_id":"cebpf4jnsgd1na2vs0mg"},{"bike_id":"c6d61e38-8806-400e-84ed-44a45938eeab","system_id":"levelo_inurba_marseille","lat":43.30144,"lon":5.38831,"is_reserved":false,"is_disabled":false,"rental_uris":{"android":"levelo://app?vid=c6d61e38-8806-400e-84ed-44a45938eeab","ios":"levelo://app?vid=c6d61e38-8806-400e-84ed-44a45938eeab"},"vehicle_type_id":"4","last_reported":1758294574,"current_range_meters":19200,"station_id":"ce4bghh2rcd13ifvqb60","pricing_plan_id":"cebpf4jnsgd1na2vs0mg"},{"bike_id":"032527b8-eb78-445a-abe4-ee3c0d38da26","system_id":"levelo_inurba_marseille","lat":43.26225,"lon":5.37441,"is_reserved":false,"is_disabled":false,"rental_uris":{"android":"levelo://app?vid=032527b8-eb78-445a-abe4-ee3c0d38da26","ios":"levelo://app?vid=032527b8-eb78-445a-abe4-ee3c0d38da26"},"vehicle_type_id":"4","last_reported":1758294574,"current_range_meters":19600,"station_id":"","pricing_plan_id":"cebpf4jnsgd1na2vs0mg"},{"bike_id":"02ee8d1b-e05c-46d8-b945-37c0df5b262d","system_id":"levelo_inurba_marseille","lat":43.28147,"lon":5.42636,"is_reserved":false,"is_disabled":false,"rental_uris":{"android":"levelo://app?vid=02ee8d1b-e05c-46d8-b945-37c0df5b262d","ios":"levelo://app?vid=02ee8d1b-e05c-46d8-b945-37c0df5b262d"},"vehicle_type_id":"4","last_reported":1758294574,"current_range_meters":19600,"station_id":"ce4bhnh2rcd13ifvqgug","pricing_plan_id":"cebpf4jnsgd1na2vs0mg"},{"bike_id":"4ca22bd1-2b30-4038-a31e-ec625e4c5e4b","system_id":"levelo_inurba_marseille","lat":43.31501,"lon":5.37303,"is_reserved":false,"is_disabled":false,"rental_uris":{"android":"levelo://app?vid=4ca22bd1-2b30-4038-a31e-ec625e4c5e4b","ios":"levelo://app?vid=4ca22bd1-2b30-4038-a31e-ec625e4c5e4b"},"vehicle_type_id":"4","last_reported":1758294574,"current_range_meters":19600,"station_id":"ce4bgt12rcd13ifvqcd0","pricing_plan_id":"cebpf4jnsgd1na2vs0mg"},{"bike_id":"8a561682-45e7-4066-94ee-db8e9c7562be","system_id":"levelo_inurba_marseille","lat":43.27425,"lon":5.39421,"is_reserved":false,"is_disabled":false,"rental_uris":{"android":"levelo://app?vid=8a561682-45e7-4066-94ee-db8e9c7562be","ios":"levelo://app?vid=8a561682-45e7-4066-94ee-db8e9c7562be"},"vehicle_type_id":"4","last_reported":1758294574,"current_range_meters":19600,"station_id":"ce4bhdp2rcd13ifvqf20","pricing_plan_id":"cebpf4jnsgd1na2vs0mg"},{"bike_id":"bb2a7788-a830-467c-8f76-54a88a95cac4","system_id":"levelo_inurba_marseille","lat":43.27375,"lon":5.36252,"is_reserved":false,"is_disabled":false,"rental_uris":{"android":"levelo://app?vid=bb2a7788-a830-467c-8f76-54a88a95cac4","ios":"levelo://app?vid=bb2a7788-a830-467c-8f76-54a88a95cac4"},"vehicle_type_id":"4","last_reported":1758294574,"current_range_meters":19200,"station_id":"ce4bhbh2rcd13ifvqeo0","pricing_plan_id":"cebpf4jnsgd1na2vs0mg"},{"bike_id":"1e9132c2-2c35-43a8-8681-642f07493e9c","system_id":"levelo_inurba_marseille","lat":43.309,"lon":5.37195,"is_reserved":false,"is_disabled":false,"rental_uris":{"android":"levelo://app?vid=1e9132c2-2c35-43a8-8681-642f07493e9c","ios":"levelo://app?vid=1e9132c2-2c35-43a8-8681-642f07493e9c"},"vehicle_type_id":"4","last_reported":1758294574,"current_range_meters":19600,"station_id":"ce4bguh2rcd13ifvqckg","pricing_plan_id":"cebpf4jnsgd1na2vs0mg"},{"bike_id":"1f3692db-ff06-43ad-b318-6e6596925802","system_id":"levelo_inurba_marseille","lat":43.303,"lon":5.39203,"is_reserved":false,"is_disabled":false,"rental_uris":{"android":"levelo://app?vid=1f3692db-ff06-43ad-b318-6e6596925802","ios":"levelo://app?vid=1f3692db-ff06-43ad-b318-6e6596925802"},"vehicle_type_id":"4","last_reported":1758294574,"current_range_meters":20000,"station_id":"ce4bgkh2rcd13ifvqbk0","pricing_plan_id":"cebpf4jnsgd1na2vs0mg"},{"bike_id":"1bb7e844-ba19-4edf-ac55-c590c5337220","system_id":"levelo_inurba_marseille","lat":43.29009,"lon":5.35611,"is_reserved":false,"is_disabled":false,"rental_uris":{"android":"levelo://app?vid=1bb7e844-ba19-4edf-ac55-c590c5337220","ios":"levelo://app?vid=1bb7e844-ba19-4edf-ac55-c590c5337220"},"vehicle_type_id":"4","last_reported":1758294574,"current_range_meters":20000,"station_id":"ce4bhb92rcd13ifvqen0","pricing_plan_id":"cebpf4jnsgd1na2vs0mg"},{"bike_id":"c91574d5-472b-4daa-8e5f-81426bb1be19","system_id":"levelo_inurba_marseille","lat":43.29024,"lon":5.38645,"is_reserved":false,"is_disabled":false,"rental_uris":{"android":"levelo://app?vid=c91574d5-472b-4daa-8e5f-81426bb1be19","ios":"levelo://app?vid=c91574d5-472b-4daa-8e5f-81426bb1be19"},"vehicle_type_id":"4","last_reported":1758294574,"current_range_meters":20000,"station_id":"ce4bh4p2rcd13ifvqe0g","pricing_plan_id":"cebpf4jnsgd1na2vs0mg"},{"bike_id":"622e6da0-7ea0-4709-acc3-5fab7e337770","system_id":"levelo_inurba_marseille","lat":43.2994,"lon":5.36517,"is_reserved":false,"is_disabled":false,"rental_uris":{"android":"levelo://app?vid=622e6da0-7ea0-4709-acc3-5fab7e337770","ios":"levelo://app?vid=622e6da0-7ea0-4709-acc3-5fab7e337770"},"vehicle_type_id":"4","last_reported":1758294574,"current_range_meters":20000,"station_id":"ce4bgm92rcd13ifvqbr0","pricing_plan_id":"cebpf4jnsgd1na2vs0mg"},{"bike_id":"c2c62a4a-cf88-4786-a40f-00df1118e108","system_id":"levelo_inurba_marseille","lat":43.299519,"lon":5.413176,"is_reserved":false,"is_disabled":false,"rental_uris":{"android":"levelo://app?vid=c2c62a4a-cf88-4786-a40f-00df1118e108","ios":"levelo://app?vid=c2c62a4a-cf88-4786-a40f-00df1118e108"},"vehicle_type_id":"4","last_reported":1758294574,"current_range_meters":20400,"station_id":"ce4bhp12rcd13ifvqh9g","pricing_plan_id":"cebpf4jnsgd1na2vs0mg"},{"bike_id":"8d5311ae-9df1-4510-bc59-5bdcffd4c53c","system_id":"levelo_inurba_marseille","lat":43.305071,"lon":5.365382,"is_reserved":false,"is_disabled":false,"rental_uris":{"android":"levelo://app?vid=8d5311ae-9df1-4510-bc59-5bdcffd4c53c","ios":"levelo://app?vid=8d5311ae-9df1-4510-bc59-5bdcffd4c53c"},"vehicle_type_id":"4","last_reported":1758294574,"current_range_meters":20400,"station_id":"ce4bgs12rcd13ifvqcag","pricing_plan_id":"cebpf4jnsgd1na2vs0mg"},{"bike_id":"97514a44-1f4d-4ae1-a270-04ca7b75c621","system_id":"levelo_inurba_marseille","lat":43.28843,"lon":5.42517,"is_reserved":false,"is_disabled":false,"rental_uris":{"android":"levelo://app?vid=97514a44-1f4d-4ae1-a270-04ca7b75c621","ios":"levelo://app?vid=97514a44-1f4d-4ae1-a270-04ca7b75c621"},"vehicle_type_id":"4","last_reported":1758294574,"current_range_meters":20400,"station_id":"","pricing_plan_id":"cebpf4jnsgd1na2vs0mg"},{"bike_id":"350ecd1e-d3c9-4d77-b370-39417df324b3","system_id":"levelo_inurba_marseille","lat":43.29025,"lon":5.38137,"is_reserved":false,"is_disabled":true,"rental_uris":{"android":"levelo://app?vid=350ecd1e-d3c9-4d77-b370-39417df324b3","ios":"levelo://app?vid=350ecd1e-d3c9-4d77-b370-39417df324b3"},"vehicle_type_id":"4","last_reported":1758294574,"current_range_meters":20400,"station_id":"ce4bh4p2rcd13ifvqe1g","pricing_plan_id":"cebpf4jnsgd1na2vs0mg"},{"bike_id":"210b2c3c-2436-4ac2-b422-b6572b96181b","system_id":"levelo_inurba_marseille","lat":43.27374,"lon":5.36212,"is_reserved":false,"is_disabled":false,"rental_uris":{"android":"levelo://app?vid=210b2c3c-2436-4ac2-b422-b6572b96181b","ios":"levelo://app?vid=210b2c3c-2436-4ac2-b422-b6572b96181b"},"vehicle_type_id":"4","last_reported":1758294574,"current_range_meters":20400,"station_id":"ce4bhbh2rcd13ifvqeo0","pricing_plan_id":"cebpf4jnsgd1na2vs0mg"},{"bike_id":"5ff1f09d-563f-4c09-9fba-f5626761d01c","system_id":"levelo_inurba_marseille","lat":43.292248,"lon":5.360457,"is_reserved":false,"is_disabled":false,"rental_uris":{"android":"levelo://app?vid=5ff1f09d-563f-4c09-9fba-f5626761d01c","ios":"levelo://app?vid=5ff1f09d-563f-4c09-9fba-f5626761d01c"},"vehicle_type_id":"4","last_reported":1758294574,"current_range_meters":20400,"station_id":"ce4bhbh2rcd13ifvqeqg","pricing_plan_id":"cebpf4jnsgd1na2vs0mg"},{"bike_id":"b8af4056-fb36-4e39-a4f0-5cd179383459","system_id":"levelo_inurba_marseille","lat":43.32918,"lon":5.38949,"is_reserved":false,"is_disabled":false,"rental_uris":{"android":"levelo://app?vid=b8af4056-fb36-4e39-a4f0-5cd179383459","ios":"levelo://app?vid=b8af4056-fb36-4e39-a4f0-5cd179383459"},"vehicle_type_id":"4","last_reported":1758294574,"current_range_meters":20400,"station_id":"","pricing_plan_id":"cebpf4jnsgd1na2vs0mg"},{"bike_id":"d7de6ddb-d79e-4253-996c-2ead4e72dbd2","system_id":"levelo_inurba_marseille","lat":43.30188,"lon":5.36589,"is_reserved":false,"is_disabled":false,"rental_uris":{"android":"levelo://app?vid=d7de6ddb-d79e-4253-996c-2ead4e72dbd2","ios":"levelo://app?vid=d7de6ddb-d79e-4253-996c-2ead4e72dbd2"},"vehicle_type_id":"4","last_reported":1758294574,"current_range_meters":20800,"station_id":"ce4bgrh2rcd13ifvqc8g","pricing_plan_id":"cebpf4jnsgd1na2vs0mg"},{"bike_id":"7da38034-8b3b-41ec-b6f9-25e04de725a7","system_id":"levelo_inurba_marseille","lat":43.28416,"lon":5.34973,"is_reserved":false,"is_disabled":false,"rental_uris":{"android":"levelo://app?vid=7da38034-8b3b-41ec-b6f9-25e04de725a7","ios":"levelo://app?vid=7da38034-8b3b-41ec-b6f9-25e04de725a7"},"vehicle_type_id":"4","last_reported":1758294574,"current_range_meters":20800,"station_id":"ce4bhbh2rcd13ifvqepg","pricing_plan_id":"cebpf4jnsgd1na2vs0mg"},{"bike_id":"d7323b74-b77e-445a-b5a2-cb629bd426da","system_id":"levelo_inurba_marseille","lat":43.2846,"lon":5.35886,"is_reserved":false,"is_disabled":false,"rental_uris":{"android":"levelo://app?vid=d7323b74-b77e-445a-b5a2-cb629bd426da","ios":"levelo://app?vid=d7323b74-b77e-445a-b5a2-cb629bd426da"},"vehicle_type_id":"4","last_reported":1758294574,"current_range_meters":20800,"station_id":"ce4bhah2rcd13ifvqei0","pricing_plan_id":"cebpf4jnsgd1na2vs0mg"},{"bike_id":"33816d92-d91c-4d6a-beb5-b3b892b2bb5b","system_id":"levelo_inurba_marseille","lat":43.29633,"lon":5.40596,"is_reserved":false,"is_disabled":false,"rental_uris":{"android":"levelo://app?vid=33816d92-d91c-4d6a-beb5-b3b892b2bb5b","ios":"levelo://app?vid=33816d92-d91c-4d6a-beb5-b3b892b2bb5b"},"vehicle_type_id":"4","last_reported":1758294574,"current_range_meters":20800,"station_id":"ce4bh0h2rcd13ifvqd60","pricing_plan_id":"cebpf4jnsgd1na2vs0mg"},{"bike_id":"61165819-bf71-4800-9b07-96305d96c15f","system_id":"levelo_inurba_marseille","lat":43.30958,"lon":5.39033,"is_reserved":false,"is_disabled":true,"rental_uris":{"android":"levelo://app?vid=61165819-bf71-4800-9b07-96305d96c15f","ios":"levelo://app?vid=61165819-bf71-4800-9b07-96305d96c15f"},"vehicle_type_id":"4","last_reported":1758294574,"current_range_meters":20800,"station_id":"ce4bgup2rcd13ifvqco0","pricing_plan_id":"cebpf4jnsgd1na2vs0mg"},{"bike_id":"fea0b9ab-e56a-4d17-b022-7ad49fc3f7aa","system_id":"levelo_inurba_marseille","lat":43.317136,"lon":5.377613,"is_reserved":false,"is_disabled":false,"rental_uris":{"android":"levelo://app?vid=fea0b9ab-e56a-4d17-b022-7ad49fc3f7aa","ios":"levelo://app?vid=fea0b9ab-e56a-4d17-b022-7ad49fc3f7aa"},"vehicle_type_id":"4","last_reported":1758294574,"current_range_meters":20800,"station_id":"ce4bgth2rcd13ifvqch0","pricing_plan_id":"cebpf4jnsgd1na2vs0mg"},{"bike_id":"cf6753ae-f6ad-4897-b2f9-21e5f3820fa3","system_id":"levelo_inurba_marseille","lat":43.27372,"lon":5.36259,"is_reserved":false,"is_disabled":false,"rental_uris":{"android":"levelo://app?vid=cf6753ae-f6ad-4897-b2f9-21e5f3820fa3","ios":"levelo://app?vid=cf6753ae-f6ad-4897-b2f9-21e5f3820fa3"},"vehicle_type_id":"4","last_reported":1758294574,"current_range_meters":20800,"station_id":"ce4bhbh2rcd13ifvqeo0","pricing_plan_id":"cebpf4jnsgd1na2vs0mg"},{"bike_id":"2aa8a1a7-f511-485a-9ed8-1a5370056f9d","system_id":"levelo_inurba_marseille","lat":43.29877,"lon":5.43641,"is_reserved":false,"is_disabled":false,"rental_uris":{"android":"levelo://app?vid=2aa8a1a7-f511-485a-9ed8-1a5370056f9d","ios":"levelo://app?vid=2aa8a1a7-f511-485a-9ed8-1a5370056f9d"},"vehicle_type_id":"4","last_reported":1758294574,"current_range_meters":20400,"station_id":"ce4bhpp2rcd13ifvqhfg","pricing_plan_id":"cebpf4jnsgd1na2vs0mg"},{"bike_id":"76bbf107-7ec5-4826-b296-ab629ecd14ab","system_id":"levelo_inurba_marseille","lat":43.29847,"lon":5.42023,"is_reserved":false,"is_disabled":false,"rental_uris":{"android":"levelo://app?vid=76bbf107-7ec5-4826-b296-ab629ecd14ab","ios":"levelo://app?vid=76bbf107-7ec5-4826-b296-ab629ecd14ab"},"vehicle_type_id":"4","last_reported":1758294574,"current_range_meters":20800,"station_id":"","pricing_plan_id":"cebpf4jnsgd1na2vs0mg"},{"bike_id":"5e50f8dd-0c1e-4485-bce7-5d1481056275","system_id":"levelo_inurba_marseille","lat":43.29519,"lon":5.39039,"is_reserved":false,"is_disabled":false,"rental_uris":{"android":"levelo://app?vid=5e50f8dd-0c1e-4485-bce7-5d1481056275","ios":"levelo://app?vid=5e50f8dd-0c1e-4485-bce7-5d1481056275"},"vehicle_type_id":"4","last_reported":1758294574,"current_range_meters":21600,"station_id":"ce4bh3p2rcd13ifvqdp0","pricing_plan_id":"cebpf4jnsgd1na2vs0mg"},{"bike_id":"1d6512d2-0abe-496f-b56b-70823fb272b1","system_id":"levelo_inurba_marseille","lat":43.30176,"lon":5.3663,"is_reserved":false,"is_disabled":false,"rental_uris":{"android":"levelo://app?vid=1d6512d2-0abe-496f-b56b-70823fb272b1","ios":"levelo://app?vid=1d6512d2-0abe-496f-b56b-70823fb272b1"},"vehicle_type_id":"4","last_reported":1758294574,"current_range_meters":21600,"station_id":"ce4bgrh2rcd13ifvqc8g","pricing_plan_id":"cebpf4jnsgd1na2vs0mg"},{"bike_id":"e49b3b2e-06fb-409d-8596-45f445566e1b","system_id":"levelo_inurba_marseille","lat":43.28003,"lon":5.41667,"is_reserved":false,"is_disabled":false,"rental_uris":{"android":"levelo://app?vid=e49b3b2e-06fb-409d-8596-45f445566e1b","ios":"levelo://app?vid=e49b3b2e-06fb-409d-8596-45f445566e1b"},"vehicle_type_id":"4","last_reported":1758294574,"current_range_meters":21600,"station_id":"ce4bho12rcd13ifvqh1g","pricing_plan_id":"cebpf4jnsgd1na2vs0mg"},{"bike_id":"b5311cff-6175-498c-963c-f9e2e6a1000b","system_id":"levelo_inurba_marseille","lat":43.304657,"lon":5.379053,"is_reserved":false,"is_disabled":false,"rental_uris":{"android":"levelo://app?vid=b5311cff-6175-498c-963c-f9e2e6a1000b","ios":"levelo://app?vid=b5311cff-6175-498c-963c-f9e2e6a1000b"},"vehicle_type_id":"4","last_reported":1758294574,"current_range_meters":22000,"station_id":"ce4bgup2rcd13ifvqcn0","pricing_plan_id":"cebpf4jnsgd1na2vs0mg"},{"bike_id":"8d411ea8-b422-47a0-ab1a-7848bb3bfd37","system_id":"levelo_inurba_marseille","lat":43.29805,"lon":5.38102,"is_reserved":false,"is_disabled":false,"rental_uris":{"android":"levelo://app?vid=8d411ea8-b422-47a0-ab1a-7848bb3bfd37","ios":"levelo://app?vid=8d411ea8-b422-47a0-ab1a-7848bb3bfd37"},"vehicle_type_id":"4","last_reported":1758294574,"current_range_meters":22000,"station_id":"ce4bgip2rcd13ifvqbb0","pricing_plan_id":"cebpf4jnsgd1na2vs0mg"},{"bike_id":"e86857f8-f405-4657-b145-ec58ed187087","system_id":"levelo_inurba_marseille","lat":43.31484,"lon":5.3881,"is_reserved":false,"is_disabled":false,"rental_uris":{"android":"levelo://app?vid=e86857f8-f405-4657-b145-ec58ed187087","ios":"levelo://app?vid=e86857f8-f405-4657-b145-ec58ed187087"},"vehicle_type_id":"4","last_reported":1758294574,"current_range_meters":22000,"station_id":"ce4bgt92rcd13ifvqcf0","pricing_plan_id":"cebpf4jnsgd1na2vs0mg"},{"bike_id":"7c99a111-3e8a-4068-bbb3-f00131fc6a99","system_id":"levelo_inurba_marseille","lat":43.284169,"lon":5.349802,"is_reserved":false,"is_disabled":false,"rental_uris":{"android":"levelo://app?vid=7c99a111-3e8a-4068-bbb3-f00131fc6a99","ios":"levelo://app?vid=7c99a111-3e8a-4068-bbb3-f00131fc6a99"},"vehicle_type_id":"4","last_reported":1758294574,"current_range_meters":22000,"station_id":"ce4bhbh2rcd13ifvqepg","pricing_plan_id":"cebpf4jnsgd1na2vs0mg"},{"bike_id":"c163435f-43da-45bd-92af-74425e513726","system_id":"levelo_inurba_marseille","lat":43.29867,"lon":5.39739,"is_reserved":false,"is_disabled":false,"rental_uris":{"android":"levelo://app?vid=c163435f-43da-45bd-92af-74425e513726","ios":"levelo://app?vid=c163435f-43da-45bd-92af-74425e513726"},"vehicle_type_id":"4","last_reported":1758294574,"current_range_meters":22000,"station_id":"ce4bh0h2rcd13ifvqd50","pricing_plan_id":"cebpf4jnsgd1na2vs0mg"},{"bike_id":"4819d2dd-8251-4960-986d-7779f065b946","system_id":"levelo_inurba_marseille","lat":43.22922,"lon":5.3538,"is_reserved":false,"is_disabled":false,"rental_uris":{"android":"levelo://app?vid=4819d2dd-8251-4960-986d-7779f065b946","ios":"levelo://app?vid=4819d2dd-8251-4960-986d-7779f065b946"},"vehicle_type_id":"4","last_reported":1758294574,"current_range_meters":22000,"station_id":"cpo3532slgdg3j2ikp40","pricing_plan_id":"cebpf4jnsgd1na2vs0mg"},{"bike_id":"1d0b5d60-568f-4170-98dc-84bbc30b1c4e","system_id":"levelo_inurba_marseille","lat":43.28376,"lon":5.43838,"is_reserved":false,"is_disabled":false,"rental_uris":{"android":"levelo://app?vid=1d0b5d60-568f-4170-98dc-84bbc30b1c4e","ios":"levelo://app?vid=1d0b5d60-568f-4170-98dc-84bbc30b1c4e"},"vehicle_type_id":"4","last_reported":1758294574,"current_range_meters":22000,"station_id":"","pricing_plan_id":"cebpf4jnsgd1na2vs0mg"},{"bike_id":"3ee35834-5807-49b4-a2b1-4a0f29c611e4","system_id":"levelo_inurba_marseille","lat":43.29842,"lon":5.36269,"is_reserved":false,"is_disabled":false,"rental_uris":{"android":"levelo://app?vid=3ee35834-5807-49b4-a2b1-4a0f29c611e4","ios":"levelo://app?vid=3ee35834-5807-49b4-a2b1-4a0f29c611e4"},"vehicle_type_id":"4","last_reported":1758294574,"current_range_meters":22400,"station_id":"ce4bgpp2rcd13ifvqc3g","pricing_plan_id":"cebpf4jnsgd1na2vs0mg"},{"bike_id":"4285b55e-f758-46ee-a9c3-23ae977f817c","system_id":"levelo_inurba_marseille","lat":43.28616,"lon":5.3511,"is_reserved":false,"is_disabled":false,"rental_uris":{"android":"levelo://app?vid=4285b55e-f758-46ee-a9c3-23ae977f817c","ios":"levelo://app?vid=4285b55e-f758-46ee-a9c3-23ae977f817c"},