{"last_updated":1702649226,"ttl":30,"version":"2.2","data":{"bikes":[{"bike_id":"d3b466b2-eecf-4c0d-89d3-d13ebcd287f3","system_id":"levelo_inurba_marseille","lat":43.31341,"lon":5.367098,"is_reserved":false,"is_disabled":false,"rental_uris":{"android":"levelo://app?vid=d3b466b2-eecf-4c0d-89d3-d13ebcd287f3","ios":"levelo://app?vid=d3b466b2-eecf-4c0d-89d3-d13ebcd287f3"},"vehicle_type_id":"4","last_reported":1702649226,"current_range_meters":14400,"station_id":"ce4bgr92rcd13ifvqc6g","pricing_plan_id":"free"},{"bike_id":"c77789b9-4f3b-4e23-8aab-d21c099dc9f0","system_id":"levelo_inurba_marseille","lat":43.31341,"lon":5.367098,"is_reserved":false,"is_disabled":false,"rental_uris":{"android":"levelo://app?vid=c77789b9-4f3b-4e23-8aab-d21c099dc9f0","ios":"levelo://app?vid=c77789b9-4f3b-4e23-8aab-d21c099dc9f0"},"vehicle_type_id":"4","last_reported":1702649226,"current_range_meters":24400,"station_id":"ce4bgr92rcd13ifvqc6g","pricing_plan_id":"free"},{"bike_id":"4e4ce1ca-60c1-48b1-a6fe-29bac6729d91","system_id":"levelo_inurba_marseille","lat":43.313391,"lon":5.36706,"is_reserved":false,"is_disabled":false,"rental_uris":{"android":"levelo://app?vid=4e4ce1ca-60c1-48b1-a6fe-29bac6729d91","ios":"levelo://app?vid=4e4ce1ca-60c1-48b1-a6fe-29bac6729d91"},"vehicle_type_id":"4","last_reported":1702649226,"current_range_meters":16400,"station_id":"ce4bgr92rcd13ifvqc6g","pricing_plan_id":"free"},{"bike_id":"d35143eb-b469-458e-8d9d-bf6ac1fb675e","system_id":"levelo_inurba_marseille","lat":43.31222,"lon":5.36865,"is_reserved":false,"is_disabled":false,"rental_uris":{"android":"levelo://app?vid=d35143eb-b469-458e-8d9d-bf6ac1fb675e","ios":"levelo://app?vid=d35143eb-b469-458e-8d9d-bf6ac1fb675e"},"vehicle_type_id":"4","last_reported":1702649226,"current_range_meters":23600,"station_id":"ce4bgl92rcd13ifvqbq0","pricing_plan_id":"free"},{"bike_id":"f6bc8102-f11b-48e6-8af2-f00a69d60d6a","system_id":"levelo_inurba_marseille","lat":43.309039,"lon":5.371797,"is_reserved":false,"is_disabled":false,"rental_uris":{"android":"levelo://app?vid=f6bc8102-f11b-48e6-8af2-f00a69d60d6a","ios":"levelo://app?vid=f6bc8102-f11b-48e6-8af2-f00a69d60d6a"},"vehicle_type_id":"4","last_reported":1702649226,"current_range_meters":31200,"station_id":"ce4bguh2rcd13ifvqckg","pricing_plan_id":"free"},{"bike_id":"3f8b821f-e430-4a35-bf14-f8b6e777ea11","system_id":"levelo_inurba_marseille","lat":43.313939,"lon":5.375306,"is_reserved":false,"is_disabled":false,"rental_uris":{"android":"levelo://app?vid=3f8b821f-e430-4a35-bf14-f8b6e777ea11","ios":"levelo://app?vid=3f8b821f-e430-4a35-bf14-f8b6e777ea11"},"vehicle_type_id":"4","last_reported":1702649226,"current_range_meters":0,"station_id":"","pricing_plan_id":"free"},{"bike_id":"955e4ab2-16e5-44e8-a986-a2f50ff96c06","system_id":"levelo_inurba_marseille","lat":43.305382,"lon":5.365389,"is_reserved":false,"is_disabled":false,"rental_uris":{"android":"levelo://app?vid=955e4ab2-16e5-44e8-a986-a2f50ff96c06","ios":"levelo://app?vid=955e4ab2-16e5-44e8-a986-a2f50ff96c06"},"vehicle_type_id":"4","last_reported":1702649226,"current_range_meters":19200,"station_id":"","pricing_plan_id":"free"},{"bike_id":"8364a97e-ada6-4d08-b325-d5ff763b8962","system_id":"levelo_inurba_marseille","lat":43.30603,"lon":5.37231,"is_reserved":false,"is_disabled":false,"rental_uris":{"android":"levelo://app?vid=8364a97e-ada6-4d08-b325-d5ff763b8962","ios":"levelo://app?vid=8364a97e-ada6-4d08-b325-d5ff763b8962"},"vehicle_type_id":"4","last_reported":1702649226,"current_range_meters":6000,"station_id":"ce4bgqh2rcd13ifvqc4g","pricing_plan_id":"free"},{"bike_id":"0f778cab-de0b-49c1-a4b5-b4931c9d3948","system_id":"levelo_inurba_marseille","lat":43.311131,"lon":5.377651,"is_reserved":false,"is_disabled":false,"rental_uris":{"android":"levelo://app?vid=0f778cab-de0b-49c1-a4b5-b4931c9d3948","ios":"levelo://app?vid=0f778cab-de0b-49c1-a4b5-b4931c9d3948"},"vehicle_type_id":"4","last_reported":1702649226,"current_range_meters":29200,"station_id":"ce4bgt92rcd13ifvqcg0","pricing_plan_id":"free"},{"bike_id":"71c601da-0203-478c-a7c8-63f1c683fe0f","system_id":"levelo_inurba_marseille","lat":43.311125,"lon":5.377624,"is_reserved":false,"is_disabled":false,"rental_uris":{"android":"levelo://app?vid=71c601da-0203-478c-a7c8-63f1c683fe0f","ios":"levelo://app?vid=71c601da-0203-478c-a7c8-63f1c683fe0f"},"vehicle_type_id":"4","last_reported":1702649226,"current_range_meters":16800,"station_id":"ce4bgt92rcd13ifvqcg0","pricing_plan_id":"free"},{"bike_id":"26fc07da-f5a0-4bee-86e5-88b8e61dbf2d","system_id":"levelo_inurba_marseille","lat":43.31124,"lon":5.37774,"is_reserved":false,"is_disabled":false,"rental_uris":{"android":"levelo://app?vid=26fc07da-f5a0-4bee-86e5-88b8e61dbf2d","ios":"levelo://app?vid=26fc07da-f5a0-4bee-86e5-88b8e61dbf2d"},"vehicle_type_id":"4","last_reported":1702649226,"current_range_meters":8800,"station_id":"ce4bgt92rcd13ifvqcg0","pricing_plan_id":"free"},{"bike_id":"88d75294-9cfc-4cd5-abdd-f019468003fe","system_id":"levelo_inurba_marseille","lat":43.31113,"lon":5.37774,"is_reserved":false,"is_disabled":false,"rental_uris":{"android":"levelo://app?vid=88d75294-9cfc-4cd5-abdd-f019468003fe","ios":"levelo://app?vid=88d75294-9cfc-4cd5-abdd-f019468003fe"},"vehicle_type_id":"4","last_reported":1702649226,"current_range_meters":23200,"station_id":"ce4bgt92rcd13ifvqcg0","pricing_plan_id":"free"},{"bike_id":"3ec91cf5-53c2-462f-8dde-7225c525961e","system_id":"levelo_inurba_marseille","lat":43.31118,"lon":5.37777,"is_reserved":false,"is_disabled":false,"rental_uris":{"android":"levelo://app?vid=3ec91cf5-53c2-462f-8dde-7225c525961e","ios":"levelo://app?vid=3ec91cf5-53c2-462f-8dde-7225c525961e"},"vehicle_type_id":"4","last_reported":1702649226,"current_range_meters":14400,"station_id":"ce4bgt92rcd13ifvqcg0","pricing_plan_id":"free"},{"bike_id":"181f0090-699e-48a9-ad85-054e7cbbc19e","system_id":"levelo_inurba_marseille","lat":43.31117,"lon":5.37798,"is_reserved":false,"is_disabled":false,"rental_uris":{"android":"levelo://app?vid=181f0090-699e-48a9-ad85-054e7cbbc19e","ios":"levelo://app?vid=181f0090-699e-48a9-ad85-054e7cbbc19e"},"vehicle_type_id":"4","last_reported":1702649226,"current_range_meters":24000,"station_id":"ce4bgt92rcd13ifvqcg0","pricing_plan_id":"free"},{"bike_id":"a797dc8c-c7fd-46ad-b2fb-46f576d89eac","system_id":"levelo_inurba_marseille","lat":43.307945,"lon":5.376487,"is_reserved":false,"is_disabled":false,"rental_uris":{"android":"levelo://app?vid=a797dc8c-c7fd-46ad-b2fb-46f576d89eac","ios":"levelo://app?vid=a797dc8c-c7fd-46ad-b2fb-46f576d89eac"},"vehicle_type_id":"4","last_reported":1702649226,"current_range_meters":12000,"station_id":"ce4bgv92rcd13ifvqcq0","pricing_plan_id":"free"},{"bike_id":"0c1969d2-5d1a-4bda-bcb2-8adf5bc8c42c","system_id":"levelo_inurba_marseille","lat":43.307945,"lon":5.376487,"is_reserved":false,"is_disabled":false,"rental_uris":{"android":"levelo://app?vid=0c1969d2-5d1a-4bda-bcb2-8adf5bc8c42c","ios":"levelo://app?vid=0c1969d2-5d1a-4bda-bcb2-8adf5bc8c42c"},"vehicle_type_id":"4","last_reported":1702649226,"current_range_meters":24000,"station_id":"ce4bgv92rcd13ifvqcq0","pricing_plan_id":"free"},{"bike_id":"b92ea576-d5b0-4943-ad41-df2b9b8cdbcf","system_id":"levelo_inurba_marseille","lat":43.317075,"lon":5.377367,"is_reserved":false,"is_disabled":false,"rental_uris":{"android":"levelo://app?vid=b92ea576-d5b0-4943-ad41-df2b9b8cdbcf","ios":"levelo://app?vid=b92ea576-d5b0-4943-ad41-df2b9b8cdbcf"},"vehicle_type_id":"4","last_reported":1702649226,"current_range_meters":27200,"station_id":"ce4bgth2rcd13ifvqch0","pricing_plan_id":"free"},{"bike_id":"aa1194f3-20a8-4044-9420-7afd9ef77560","system_id":"levelo_inurba_marseille","lat":43.30304,"lon":5.368987,"is_reserved":false,"is_disabled":false,"rental_uris":{"android":"levelo://app?vid=aa1194f3-20a8-4044-9420-7afd9ef77560","ios":"levelo://app?vid=aa1194f3-20a8-4044-9420-7afd9ef77560"},"vehicle_type_id":"4","last_reported":1702649226,"current_range_meters":26800,"station_id":"ce4bgqh2rcd13ifvqc5g","pricing_plan_id":"free"},{"bike_id":"0f1ec8ec-18b5-4729-8d02-3b824b3e7c12","system_id":"levelo_inurba_marseille","lat":43.31533,"lon":5.38033,"is_reserved":false,"is_disabled":false,"rental_uris":{"android":"levelo://app?vid=0f1ec8ec-18b5-4729-8d02-3b824b3e7c12","ios":"levelo://app?vid=0f1ec8ec-18b5-4729-8d02-3b824b3e7c12"},"vehicle_type_id":"4","last_reported":1702649226,"current_range_meters":28000,"station_id":"ce4bhsp2rcd13ifvqi50","pricing_plan_id":"free"},{"bike_id":"4265c6ff-7e79-4ea1-921d-0e654ddba6aa","system_id":"levelo_inurba_marseille","lat":43.324771,"lon":5.36557,"is_reserved":false,"is_disabled":false,"rental_uris":{"android":"levelo://app?vid=4265c6ff-7e79-4ea1-921d-0e654ddba6aa","ios":"levelo://app?vid=4265c6ff-7e79-4ea1-921d-0e654ddba6aa"},"vehicle_type_id":"4","last_reported":1702649226,"current_range_meters":19600,"station_id":"ce4bhs12rcd13ifvqhvg","pricing_plan_id":"free"},{"bike_id":"88f7ea2a-62f7-4a88-9e9d-900940b4d7e5","system_id":"levelo_inurba_marseille","lat":43.324814,"lon":5.365492,"is_reserved":false,"is_disabled":false,"rental_uris":{"android":"levelo://app?vid=88f7ea2a-62f7-4a88-9e9d-900940b4d7e5","ios":"levelo://app?vid=88f7ea2a-62f7-4a88-9e9d-900940b4d7e5"},"vehicle_type_id":"4","last_reported":1702649226,"current_range_meters":20400,"station_id":"ce4bhs12rcd13ifvqhvg","pricing_plan_id":"free"},{"bike_id":"36eb7f1b-e120-4e23-821d-34fca9a67d75","system_id":"levelo_inurba_marseille","lat":43.30284,"lon":5.37694,"is_reserved":false,"is_disabled":false,"rental_uris":{"android":"levelo://app?vid=36eb7f1b-e120-4e23-821d-34fca9a67d75","ios":"levelo://app?vid=36eb7f1b-e120-4e23-821d-34fca9a67d75"},"vehicle_type_id":"4","last_reported":1702649226,"current_range_meters":0,"station_id":"ce4bguh2rcd13ifvqcj0","pricing_plan_id":"free"},{"bike_id":"e6a6e07f-e3c0-48c0-bc0a-d3d886c0d364","system_id":"levelo_inurba_marseille","lat":43.30142,"lon":5.37411,"is_reserved":false,"is_disabled":false,"rental_uris":{"android":"levelo://app?vid=e6a6e07f-e3c0-48c0-bc0a-d3d886c0d364","ios":"levelo://app?vid=e6a6e07f-e3c0-48c0-bc0a-d3d886c0d364"},"vehicle_type_id":"4","last_reported":1702649226,"current_range_meters":0,"station_id":"ce4bgs92rcd13ifvqcc0","pricing_plan_id":"free"},{"bike_id":"fdcd74e0-5fce-436e-805d-ade6ef010660","system_id":"levelo_inurba_marseille","lat":43.31995,"lon":5.38142,"is_reserved":false,"is_disabled":false,"rental_uris":{"android":"levelo://app?vid=fdcd74e0-5fce-436e-805d-ade6ef010660","ios":"levelo://app?vid=fdcd74e0-5fce-436e-805d-ade6ef010660"},"vehicle_type_id":"4","last_reported":1702649226,"current_range_meters":0,"station_id":"ce4bhr12rcd13ifvqhpg","pricing_plan_id":"free"},{"bike_id":"8bdc6fbf-63b7-40e7-8200-861b631a3042","system_id":"levelo_inurba_marseille","lat":43.313571,"lon":5.384829,"is_reserved":false,"is_disabled":false,"rental_uris":{"android":"levelo://app?vid=8bdc6fbf-63b7-40e7-8200-861b631a3042","ios":"levelo://app?vid=8bdc6fbf-63b7-40e7-8200-861b631a3042"},"vehicle_type_id":"4","last_reported":1702649226,"current_range_meters":16800,"station_id":"ce4bgt92rcd13ifvqcf0","pricing_plan_id":"free"},{"bike_id":"34c90e7b-7509-4aff-ba27-363a38fbfbba","system_id":"levelo_inurba_marseille","lat":43.299724,"lon":5.371829,"is_reserved":false,"is_disabled":false,"rental_uris":{"android":"levelo://app?vid=34c90e7b-7509-4aff-ba27-363a38fbfbba","ios":"levelo://app?vid=34c90e7b-7509-4aff-ba27-363a38fbfbba"},"vehicle_type_id":"4","last_reported":1702649226,"current_range_meters":9200,"station_id":"ce4bgr92rcd13ifvqc7g","pricing_plan_id":"free"},{"bike_id":"c4e77394-aef9-4077-b745-e99148625344","system_id":"levelo_inurba_marseille","lat":43.328371,"lon":5.366912,"is_reserved":false,"is_disabled":false,"rental_uris":{"android":"levelo://app?vid=c4e77394-aef9-4077-b745-e99148625344","ios":"levelo://app?vid=c4e77394-aef9-4077-b745-e99148625344"},"vehicle_type_id":"4","last_reported":1702649226,"current_range_meters":26400,"station_id":"ce4bhs92rcd13ifvqi0g","pricing_plan_id":"free"},{"bike_id":"e028ddd1-844b-448b-871d-d17622d14299","system_id":"levelo_inurba_marseille","lat":43.317557,"lon":5.390173,"is_reserved":false,"is_disabled":false,"rental_uris":{"android":"levelo://app?vid=e028ddd1-844b-448b-871d-d17622d14299","ios":"levelo://app?vid=e028ddd1-844b-448b-871d-d17622d14299"},"vehicle_type_id":"4","last_reported":1702649226,"current_range_meters":4800,"station_id":"ce4bhqp2rcd13ifvqhng","pricing_plan_id":"free"},{"bike_id":"6cf1b79b-2efc-442b-8d59-758dd0cbb3ee","system_id":"levelo_inurba_marseille","lat":43.317557,"lon":5.390173,"is_reserved":false,"is_disabled":false,"rental_uris":{"android":"levelo://app?vid=6cf1b79b-2efc-442b-8d59-758dd0cbb3ee","ios":"levelo://app?vid=6cf1b79b-2efc-442b-8d59-758dd0cbb3ee"},"vehicle_type_id":"4","last_reported":1702649226,"current_range_meters":20800,"station_id":"ce4bhqp2rcd13ifvqhng","pricing_plan_id":"free"},{"bike_id":"81f353ad-02a1-4fca-8738-3fd035caa843","system_id":"levelo_inurba_marseille","lat":43.297912,"lon":5.380956,"is_reserved":false,"is_disabled":false,"rental_uris":{"android":"levelo://app?vid=81f353ad-02a1-4fca-8738-3fd035caa843","ios":"levelo://app?vid=81f353ad-02a1-4fca-8738-3fd035caa843"},"vehicle_type_id":"4","last_reported":1702649226,"current_range_meters":18000,"station_id":"ce4bgip2rcd13ifvqbb0","pricing_plan_id":"free"},{"bike_id":"a0ae25bb-b58c-401f-99ff-b1a65b3bd9ef","system_id":"levelo_inurba_marseille","lat":43.32367,"lon":5.388836,"is_reserved":false,"is_disabled":false,"rental_uris":{"android":"levelo://app?vid=a0ae25bb-b58c-401f-99ff-b1a65b3bd9ef","ios":"levelo://app?vid=a0ae25bb-b58c-401f-99ff-b1a65b3bd9ef"},"vehicle_type_id":"4","last_reported":1702649226,"current_range_meters":4400,"station_id":"ce4bhqp2rcd13ifvqhog","pricing_plan_id":"free"},{"bike_id":"75309463-d4d6-4bd3-8303-6e5dc878317d","system_id":"levelo_inurba_marseille","lat":43.29601,"lon":5.381084,"is_reserved":false,"is_disabled":false,"rental_uris":{"android":"levelo://app?vid=75309463-d4d6-4bd3-8303-6e5dc878317d","ios":"levelo://app?vid=75309463-d4d6-4bd3-8303-6e5dc878317d"},"vehicle_type_id":"4","last_reported":1702649226,"current_range_meters":0,"station_id":"ce4bgl12rcd13ifvqbo0","pricing_plan_id":"free"},{"bike_id":"20e372f9-8c0c-4eb3-a717-bbfa6a7adedb","system_id":"levelo_inurba_marseille","lat":43.293259,"lon":5.371586,"is_reserved":false,"is_disabled":false,"rental_uris":{"android":"levelo://app?vid=20e372f9-8c0c-4eb3-a717-bbfa6a7adedb","ios":"levelo://app?vid=20e372f9-8c0c-4eb3-a717-bbfa6a7adedb"},"vehicle_type_id":"4","last_reported":1702649226,"current_range_meters":11200,"station_id":"ce4bgh92rcd13ifvqb40","pricing_plan_id":"free"},{"bike_id":"689f5bee-3151-47af-a342-07dbaf5c6627","system_id":"levelo_inurba_marseille","lat":43.305994,"lon":5.393687,"is_reserved":false,"is_disabled":false,"rental_uris":{"android":"levelo://app?vid=689f5bee-3151-47af-a342-07dbaf5c6627","ios":"levelo://app?vid=689f5bee-3151-47af-a342-07dbaf5c6627"},"vehicle_type_id":"4","last_reported":1702649226,"current_range_meters":4800,"station_id":"ce4bh0p2rcd13ifvqd80","pricing_plan_id":"free"},{"bike_id":"3857ff4b-fa51-4b5e-8d6a-0f5daf9b6387","system_id":"levelo_inurba_marseille","lat":43.2936,"lon":5.37835,"is_reserved":false,"is_disabled":false,"rental_uris":{"android":"levelo://app?vid=3857ff4b-fa51-4b5e-8d6a-0f5daf9b6387","ios":"levelo://app?vid=3857ff4b-fa51-4b5e-8d6a-0f5daf9b6387"},"vehicle_type_id":"4","last_reported":1702649226,"current_range_meters":21200,"station_id":"ce4bgjh2rcd13ifvqbf0","pricing_plan_id":"free"},{"bike_id":"cefa2ff1-3dd1-4d07-acca-0a4e3051a600","system_id":"levelo_inurba_marseille","lat":43.29883,"lon":5.38895,"is_reserved":false,"is_disabled":false,"rental_uris":{"android":"levelo://app?vid=cefa2ff1-3dd1-4d07-acca-0a4e3051a600","ios":"levelo://app?vid=cefa2ff1-3dd1-4d07-acca-0a4e3051a600"},"vehicle_type_id":"4","last_reported":1702649226,"current_range_meters":18400,"station_id":"","pricing_plan_id":"free"},{"bike_id":"75dd54e4-daf2-47a8-9763-49670eb9861a","system_id":"levelo_inurba_marseille","lat":43.29251,"lon":5.37601,"is_reserved":false,"is_disabled":false,"rental_uris":{"android":"levelo://app?vid=75dd54e4-daf2-47a8-9763-49670eb9861a","ios":"levelo://app?vid=75dd54e4-daf2-47a8-9763-49670eb9861a"},"vehicle_type_id":"4","last_reported":1702649226,"current_range_meters":0,"station_id":"ce4bgi12rcd13ifvqb80","pricing_plan_id":"free"},{"bike_id":"1a66543f-21d0-478d-8e8e-b69a4c3b13a4","system_id":"levelo_inurba_marseille","lat":43.2988,"lon":5.3891,"is_reserved":false,"is_disabled":false,"rental_uris":{"android":"levelo://app?vid=1a66543f-21d0-478d-8e8e-b69a4c3b13a4","ios":"levelo://app?vid=1a66543f-21d0-478d-8e8e-b69a4c3b13a4"},"vehicle_type_id":"4","last_reported":1702649226,"current_range_meters":7600,"station_id":"","pricing_plan_id":"free"},{"bike_id":"0e08c411-59e0-40ad-8557-4bc93697058b","system_id":"levelo_inurba_marseille","lat":43.313291,"lon":5.396838,"is_reserved":false,"is_disabled":false,"rental_uris":{"android":"levelo://app?vid=0e08c411-59e0-40ad-8557-4bc93697058b","ios":"levelo://app?vid=0e08c411-59e0-40ad-8557-4bc93697058b"},"vehicle_type_id":"4","last_reported":1702649226,"current_range_meters":19200,"station_id":"ce4bgvp2rcd13ifvqcu0","pricing_plan_id":"free"},{"bike_id":"49b516e7-1d61-4098-8bb5-d9d9b694a7fb","system_id":"levelo_inurba_marseille","lat":43.309038,"lon":5.396546,"is_reserved":false,"is_disabled":false,"rental_uris":{"android":"levelo://app?vid=49b516e7-1d61-4098-8bb5-d9d9b694a7fb","ios":"levelo://app?vid=49b516e7-1d61-4098-8bb5-d9d9b694a7fb"},"vehicle_type_id":"4","last_reported":1702649226,"current_range_meters":15600,"station_id":"ce4bh012rcd13ifvqcv0","pricing_plan_id":"free"},{"bike_id":"b474909e-7fb0-4e5d-8b31-75306c27fc23","system_id":"levelo_inurba_marseille","lat":43.313291,"lon":5.396838,"is_reserved":false,"is_disabled":false,"rental_uris":{"android":"levelo://app?vid=b474909e-7fb0-4e5d-8b31-75306c27fc23","ios":"levelo://app?vid=b474909e-7fb0-4e5d-8b31-75306c27fc23"},"vehicle_type_id":"4","last_reported":1702649226,"current_range_meters":13200,"station_id":"ce4bgvp2rcd13ifvqcu0","pricing_plan_id":"free"},{"bike_id":"39b12fe0-e769-43d9-a6b5-a19998d75a44","system_id":"levelo_inurba_marseille","lat":43.29529,"lon":5.385581,"is_reserved":false,"is_disabled":false,"rental_uris":{"android":"levelo://app?vid=39b12fe0-e769-43d9-a6b5-a19998d75a44","ios":"levelo://app?vid=39b12fe0-e769-43d9-a6b5-a19998d75a44"},"vehicle_type_id":"4","last_reported":1702649226,"current_range_meters":24000,"station_id":"ce4bgih2rcd13ifvqba0","pricing_plan_id":"free"},{"bike_id":"14abb80d-0860-4a33-a791-61a6d1be9196","system_id":"levelo_inurba_marseille","lat":43.29529,"lon":5.385581,"is_reserved":false,"is_disabled":false,"rental_uris":{"android":"levelo://app?vid=14abb80d-0860-4a33-a791-61a6d1be9196","ios":"levelo://app?vid=14abb80d-0860-4a33-a791-61a6d1be9196"},"vehicle_type_id":"4","last_reported":1702649226,"current_range_meters":25200,"station_id":"ce4bgih2rcd13ifvqba0","pricing_plan_id":"free"},{"bike_id":"3946e5f3-b90f-4b08-9055-e2f262f69054","system_id":"levelo_inurba_marseille","lat":43.302008,"lon":5.394694,"is_reserved":false,"is_disabled":false,"rental_uris":{"android":"levelo://app?vid=3946e5f3-b90f-4b08-9055-e2f262f69054","ios":"levelo://app?vid=3946e5f3-b90f-4b08-9055-e2f262f69054"},"vehicle_type_id":"4","last_reported":1702649226,"current_range_meters":11600,"station_id":"ce4bh0p2rcd13ifvqd70","pricing_plan_id":"free"},{"bike_id":"291ab322-23aa-4269-96ba-3a52ef8ab632","system_id":"levelo_inurba_marseille","lat":43.290631,"lon":5.359244,"is_reserved":false,"is_disabled":false,"rental_uris":{"android":"levelo://app?vid=291ab322-23aa-4269-96ba-3a52ef8ab632","ios":"levelo://app?vid=291ab322-23aa-4269-96ba-3a52ef8ab632"},"vehicle_type_id":"4","last_reported":1702649226,"current_range_meters":22400,"station_id":"ce4bha92rcd13ifvqeg0","pricing_plan_id":"free"},{"bike_id":"52154a12-bfbf-47d6-8bc0-085779bf7f12","system_id":"levelo_inurba_marseille","lat":43.304274,"lon":5.397513,"is_reserved":false,"is_disabled":false,"rental_uris":{"android":"levelo://app?vid=52154a12-bfbf-47d6-8bc0-085779bf7f12","ios":"levelo://app?vid=52154a12-bfbf-47d6-8bc0-085779bf7f12"},"vehicle_type_id":"4","last_reported":1702649226,"current_range_meters":12400,"station_id":"ce4bh092rcd13ifvqd20","pricing_plan_id":"free"},{"bike_id":"d670efb1-efdf-42e6-83af-fe750cac2ec7","system_id":"levelo_inurba_marseille","lat":43.29339,"lon":5.3863,"is_reserved":false,"is_disabled":false,"rental_uris":{"android":"levelo://app?vid=d670efb1-efdf-42e6-83af-fe750cac2ec7","ios":"levelo://app?vid=d670efb1-efdf-42e6-83af-fe750cac2ec7"},"vehicle_type_id":"4","last_reported":1702649226,"current_range_meters":13200,"station_id":"","pricing_plan_id":"free"},{"bike_id":"f2c160a8-4c8e-4357-a555-9fdd0cb55b4f","system_id":"levelo_inurba_marseille","lat":43.330442,"lon":5.389148,"is_reserved":false,"is_disabled":false,"rental_uris":{"android":"levelo://app?vid=f2c160a8-4c8e-4357-a555-9fdd0cb55b4f","ios":"levelo://app?vid=f2c160a8-4c8e-4357-a555-9fdd0cb55b4f"},"vehicle_type_id":"4","last_reported":1702649226,"current_range_meters":20800,"station_id":"ce4bhr92rcd13ifvqhrg","pricing_plan_id":"free"},{"bike_id":"66cab315-7050-43cb-97b1-3e6c71b127ff","system_id":"levelo_inurba_marseille","lat":43.290104,"lon":5.356111,"is_reserved":false,"is_disabled":false,"rental_uris":{"android":"levelo://app?vid=66cab315-7050-43cb-97b1-3e6c71b127ff","ios":"levelo://app?vid=66cab315-7050-43cb-97b1-3e6c71b127ff"},"vehicle_type_id":"4","last_reported":1702649226,"current_range_meters":19600,"station_id":"ce4bhb92rcd13ifvqen0","pricing_plan_id":"free"},{"bike_id":"cdf60634-bf66-4bc2-8880-77071d9990a6","system_id":"levelo_inurba_marseille","lat":43.290995,"lon":5.381361,"is_reserved":false,"is_disabled":false,"rental_uris":{"android":"levelo://app?vid=cdf60634-bf66-4bc2-8880-77071d9990a6","ios":"levelo://app?vid=cdf60634-bf66-4bc2-8880-77071d9990a6"},"vehicle_type_id":"4","last_reported":1702649226,"current_range_meters":17600,"station_id":"ce4bh512rcd13ifvqe2g","pricing_plan_id":"free"},{"bike_id":"f485fa79-9f4e-454c-98b2-03cdc4c608ff","system_id":"levelo_inurba_marseille","lat":43.29784,"lon":5.39318,"is_reserved":false,"is_disabled":false,"rental_uris":{"android":"levelo://app?vid=f485fa79-9f4e-454c-98b2-03cdc4c608ff","ios":"levelo://app?vid=f485fa79-9f4e-454c-98b2-03cdc4c608ff"},"vehicle_type_id":"4","last_reported":1702649226,"current_range_meters":23600,"station_id":"chh1huq6cuj3fo74tm60","pricing_plan_id":"free"},{"bike_id":"d3b7762c-f55d-4e25-bdc8-dbc106c50bb9","system_id":"levelo_inurba_marseille","lat":43.297815,"lon":5.393548,"is_reserved":false,"is_disabled":false,"rental_uris":{"android":"levelo://app?vid=d3b7762c-f55d-4e25-bdc8-dbc106c50bb9","ios":"levelo://app?vid=d3b7762c-f55d-4e25-bdc8-dbc106c50bb9"},"vehicle_type_id":"4","last_reported":1702649226,"current_range_meters":24800,"station_id":"chh1huq6cuj3fo74tm60","pricing_plan_id":"free"},{"bike_id":"c09bce3e-eccd-45ad-82ba-cc4820e65bfe","system_id":"levelo_inurba_marseille","lat":43.297797,"lon":5.39338,"is_reserved":false,"is_disabled":false,"rental_uris":{"android":"levelo://app?vid=c09bce3e-eccd-45ad-82ba-cc4820e65bfe","ios":"levelo://app?vid=c09bce3e-eccd-45ad-82ba-cc4820e65bfe"},"vehicle_type_id":"4","last_reported":1702649226,"current_range_meters":28400,"station_id":"chh1huq6cuj3fo74tm60","pricing_plan_id":"free"},{"bike_id":"e1e27c99-2a2f-47f1-a907-5c884a04679a","system_id":"levelo_inurba_marseille","lat":43.297815,"lon":5.393548,"is_reserved":false,"is_disabled":false,"rental_uris":{"android":"levelo://app?vid=e1e27c99-2a2f-47f1-a907-5c884a04679a","ios":"levelo://app?vid=e1e27c99-2a2f-47f1-a907-5c884a04679a"},"vehicle_type_id":"4","last_reported":1702649226,"current_range_meters":31200,"station_id":"chh1huq6cuj3fo74tm60","pricing_plan_id":"free"},{"bike_id":"a2bb45f8-bd0d-4609-8433-439b54d15c03","system_id":"levelo_inurba_marseille","lat":43.29777,"lon":5.39343,"is_reserved":false,"is_disabled":false,"rental_uris":{"android":"levelo://app?vid=a2bb45f8-bd0d-4609-8433-439b54d15c03","ios":"levelo://app?vid=a2bb45f8-bd0d-4609-8433-439b54d15c03"},"vehicle_type_id":"4","last_reported":1702649226,"current_range_meters":15200,"station_id":"chh1huq6cuj3fo74tm60","pricing_plan_id":"free"},{"bike_id":"af52a690-d296-4db3-b5d6-a5c277ffd4c5","system_id":"levelo_inurba_marseille","lat":43.295169,"lon":5.390426,"is_reserved":false,"is_disabled":false,"rental_uris":{"android":"levelo://app?vid=af52a690-d296-4db3-b5d6-a5c277ffd4c5","ios":"levelo://app?vid=af52a690-d296-4db3-b5d6-a5c277ffd4c5"},"vehicle_type_id":"4","last_reported":1702649226,"current_range_meters":2400,"station_id":"ce4bh3p2rcd13ifvqdp0","pricing_plan_id":"free"},{"bike_id":"1131f92a-300a-468b-b6ee-6d5624b76830","system_id":"levelo_inurba_marseille","lat":43.289743,"lon":5.378304,"is_reserved":false,"is_disabled":false,"rental_uris":{"android":"levelo://app?vid=1131f92a-300a-468b-b6ee-6d5624b76830","ios":"levelo://app?vid=1131f92a-300a-468b-b6ee-6d5624b76830"},"vehicle_type_id":"4","last_reported":1702649226,"current_range_meters":27600,"station_id":"ce4bh9p2rcd13ifvqed0","pricing_plan_id":"free"},{"bike_id":"ba0ee73b-c5f1-4cef-a929-860bc019b7de","system_id":"levelo_inurba_marseille","lat":43.312609,"lon":5.401662,"is_reserved":false,"is_disabled":false,"rental_uris":{"android":"levelo://app?vid=ba0ee73b-c5f1-4cef-a929-860bc019b7de","ios":"levelo://app?vid=ba0ee73b-c5f1-4cef-a929-860bc019b7de"},"vehicle_type_id":"4","last_reported":1702649226,"current_range_meters":24400,"station_id":"ce4bh092rcd13ifvqd30","pricing_plan_id":"free"},{"bike_id":"ed19437a-d6d7-4d1d-819b-a7276991b5a4","system_id":"levelo_inurba_marseille","lat":43.309371,"lon":5.401449,"is_reserved":false,"is_disabled":false,"rental_uris":{"android":"levelo://app?vid=ed19437a-d6d7-4d1d-819b-a7276991b5a4","ios":"levelo://app?vid=ed19437a-d6d7-4d1d-819b-a7276991b5a4"},"vehicle_type_id":"4","last_reported":1702649226,"current_range_meters":17200,"station_id":"ce4bgvp2rcd13ifvqct0","pricing_plan_id":"free"},{"bike_id":"af8344d5-149f-4eab-a1dd-a58a6b7a3980","system_id":"levelo_inurba_marseille","lat":43.337428,"lon":5.3749,"is_reserved":false,"is_disabled":false,"rental_uris":{"android":"levelo://app?vid=af8344d5-149f-4eab-a1dd-a58a6b7a3980","ios":"levelo://app?vid=af8344d5-149f-4eab-a1dd-a58a6b7a3980"},"vehicle_type_id":"4","last_reported":1702649226,"current_range_meters":29200,"station_id":"","pricing_plan_id":"free"},{"bike_id":"776e672b-b934-4408-9adc-be65c947c4dd","system_id":"levelo_inurba_marseille","lat":43.30642,"lon":5.401031,"is_reserved":false,"is_disabled":false,"rental_uris":{"android":"levelo://app?vid=776e672b-b934-4408-9adc-be65c947c4dd","ios":"levelo://app?vid=776e672b-b934-4408-9adc-be65c947c4dd"},"vehicle_type_id":"4","last_reported":1702649226,"current_range_meters":30000,"station_id":"ce4bh112rcd13ifvqda0","pricing_plan_id":"free"},{"bike_id":"92af84d5-bb95-4c8f-ab4a-8dbabb37679f","system_id":"levelo_inurba_marseille","lat":43.309371,"lon":5.401449,"is_reserved":false,"is_disabled":false,"rental_uris":{"android":"levelo://app?vid=92af84d5-bb95-4c8f-ab4a-8dbabb37679f","ios":"levelo://app?vid=92af84d5-bb95-4c8f-ab4a-8dbabb37679f"},"vehicle_type_id":"4","last_reported":1702649226,"current_range_meters":3600,"station_id":"ce4bgvp2rcd13ifvqct0","pricing_plan_id":"free"},{"bike_id":"aa42caf2-8d18-4d70-b9b6-989d20c938bf","system_id":"levelo_inurba_marseille","lat":43.30929,"lon":5.40151,"is_reserved":false,"is_disabled":false,"rental_uris":{"android":"levelo://app?vid=aa42caf2-8d18-4d70-b9b6-989d20c938bf","ios":"levelo://app?vid=aa42caf2-8d18-4d70-b9b6-989d20c938bf"},"vehicle_type_id":"4","last_reported":1702649226,"current_range_meters":4400,"station_id":"ce4bgvp2rcd13ifvqct0","pricing_plan_id":"free"},{"bike_id":"14a69ade-af37-42af-ba03-1d96289a5599","system_id":"levelo_inurba_marseille","lat":43.30642,"lon":5.401031,"is_reserved":false,"is_disabled":false,"rental_uris":{"android":"levelo://app?vid=14a69ade-af37-42af-ba03-1d96289a5599","ios":"levelo://app?vid=14a69ade-af37-42af-ba03-1d96289a5599"},"vehicle_type_id":"4","last_reported":1702649226,"current_range_meters":22400,"station_id":"ce4bh112rcd13ifvqda0","pricing_plan_id":"free"},{"bike_id":"e6533872-bfd6-4009-bf18-4ad359d0f0f7","system_id":"levelo_inurba_marseille","lat":43.30642,"lon":5.401031,"is_reserved":false,"is_disabled":false,"rental_uris":{"android":"levelo://app?vid=e6533872-bfd6-4009-bf18-4ad359d0f0f7","ios":"levelo://app?vid=e6533872-bfd6-4009-bf18-4ad359d0f0f7"},"vehicle_type_id":"4","last_reported":1702649226,"current_range_meters":23600,"station_id":"ce4bh112rcd13ifvqda0","pricing_plan_id":"free"},{"bike_id":"930bba3a-4350-44cf-bb9b-310a6cbdb5ef","system_id":"levelo_inurba_marseille","lat":43.337571,"lon":5.374556,"is_reserved":false,"is_disabled":false,"rental_uris":{"android":"levelo://app?vid=930bba3a-4350-44cf-bb9b-310a6cbdb5ef","ios":"levelo://app?vid=930bba3a-4350-44cf-bb9b-310a6cbdb5ef"},"vehicle_type_id":"4","last_reported":1702649226,"current_range_meters":28400,"station_id":"","pricing_plan_id":"free"},{"bike_id":"3eb423de-39d7-428f-a2f6-e087a5939827","system_id":"levelo_inurba_marseille","lat":43.30642,"lon":5.401031,"is_reserved":false,"is_disabled":false,"rental_uris":{"android":"levelo://app?vid=3eb423de-39d7-428f-a2f6-e087a5939827","ios":"levelo://app?vid=3eb423de-39d7-428f-a2f6-e087a5939827"},"vehicle_type_id":"4","last_reported":1702649226,"current_range_meters":31600,"station_id":"ce4bh112rcd13ifvqda0","pricing_plan_id":"free"},{"bike_id":"5de09532-e49e-465d-90eb-4a455137ae51","system_id":"levelo_inurba_marseille","lat":43.30642,"lon":5.401031,"is_reserved":false,"is_disabled":false,"rental_uris":{"android":"levelo://app?vid=5de09532-e49e-465d-90eb-4a455137ae51","ios":"levelo://app?vid=5de09532-e49e-465d-90eb-4a455137ae51"},"vehicle_type_id":"4","last_reported":1702649226,"current_range_meters":29600,"station_id":"ce4bh112rcd13ifvqda0","pricing_plan_id":"free"},{"bike_id":"20b2b192-bdc0-4ef6-9e4d-c2811a2b0b11","system_id":"levelo_inurba_marseille","lat":43.306412,"lon":5.401035,"is_reserved":false,"is_disabled":false,"rental_uris":{"android":"levelo://app?vid=20b2b192-bdc0-4ef6-9e4d-c2811a2b0b11","ios":"levelo://app?vid=20b2b192-bdc0-4ef6-9e4d-c2811a2b0b11"},"vehicle_type_id":"4","last_reported":1702649226,"current_range_meters":28000,"station_id":"ce4bh112rcd13ifvqda0","pricing_plan_id":"free"},{"bike_id":"cc72efbe-e4ab-41bc-91c0-19880824bb53","system_id":"levelo_inurba_marseille","lat":43.306412,"lon":5.401035,"is_reserved":false,"is_disabled":false,"rental_uris":{"android":"levelo://app?vid=cc72efbe-e4ab-41bc-91c0-19880824bb53","ios":"levelo://app?vid=cc72efbe-e4ab-41bc-91c0-19880824bb53"},"vehicle_type_id":"4","last_reported":1702649226,"current_range_meters":24800,"station_id":"ce4bh112rcd13ifvqda0","pricing_plan_id":"free"},{"bike_id":"729e99d2-d3b5-4a46-9d23-f7baf4fffd6d","system_id":"levelo_inurba_marseille","lat":43.33764,"lon":5.37452,"is_reserved":false,"is_disabled":false,"rental_uris":{"android":"levelo://app?vid=729e99d2-d3b5-4a46-9d23-f7baf4fffd6d","ios":"levelo://app?vid=729e99d2-d3b5-4a46-9d23-f7baf4fffd6d"},"vehicle_type_id":"4","last_reported":1702649226,"current_range_meters":26400,"station_id":"","pricing_plan_id":"free"},{"bike_id":"44b5f216-a7b6-4c19-8600-d0fc7a6dee0a","system_id":"levelo_inurba_marseille","lat":43.33762,"lon":5.37473,"is_reserved":false,"is_disabled":false,"rental_uris":{"android":"levelo://app?vid=44b5f216-a7b6-4c19-8600-d0fc7a6dee0a","ios":"levelo://app?vid=44b5f216-a7b6-4c19-8600-d0fc7a6dee0a"},"vehicle_type_id":"4","last_reported":1702649226,"current_range_meters":22800,"station_id":"","pricing_plan_id":"free"},{"bike_id":"9128feaf-36b8-4e63-849f-ccc68f896dc0","system_id":"levelo_inurba_marseille","lat":43.337626,"lon":5.374724,"is_reserved":false,"is_disabled":false,"rental_uris":{"android":"levelo://app?vid=9128feaf-36b8-4e63-849f-ccc68f896dc0","ios":"levelo://app?vid=9128feaf-36b8-4e63-849f-ccc68f896dc0"},"vehicle_type_id":"4","last_reported":1702649226,"current_range_meters":31200,"station_id":"","pricing_plan_id":"free"},{"bike_id":"c4dcd648-45d4-4a62-8bc1-646dd07d9239","system_id":"levelo_inurba_marseille","lat":43.33764,"lon":5.37466,"is_reserved":false,"is_disabled":false,"rental_uris":{"android":"levelo://app?vid=c4dcd648-45d4-4a62-8bc1-646dd07d9239","ios":"levelo://app?vid=c4dcd648-45d4-4a62-8bc1-646dd07d9239"},"vehicle_type_id":"4","last_reported":1702649226,"current_range_meters":23600,"station_id":"","pricing_plan_id":"free"},{"bike_id":"311dc96d-7d73-4978-a127-e7b08583f324","system_id":"levelo_inurba_marseille","lat":43.30642,"lon":5.401031,"is_reserved":false,"is_disabled":false,"rental_uris":{"android":"levelo://app?vid=311dc96d-7d73-4978-a127-e7b08583f324","ios":"levelo://app?vid=311dc96d-7d73-4978-a127-e7b08583f324"},"vehicle_type_id":"4","last_reported":1702649226,"current_range_meters":30000,"station_id":"ce4bh112rcd13ifvqda0","pricing_plan_id":"free"},{"bike_id":"61c15dd7-c22d-4166-ab67-9cfd8dd6b530","system_id":"levelo_inurba_marseille","lat":43.301117,"lon":5.398795,"is_reserved":false,"is_disabled":false,"rental_uris":{"android":"levelo://app?vid=61c15dd7-c22d-4166-ab67-9cfd8dd6b530","ios":"levelo://app?vid=61c15dd7-c22d-4166-ab67-9cfd8dd6b530"},"vehicle_type_id":"4","last_reported":1702649226,"current_range_meters":26800,"station_id":"ce4bh0h2rcd13ifvqd40","pricing_plan_id":"free"},{"bike_id":"da99b4b1-8b2d-45cf-95f7-d52a8ecde203","system_id":"levelo_inurba_marseille","lat":43.286591,"lon":5.363346,"is_reserved":false,"is_disabled":false,"rental_uris":{"android":"levelo://app?vid=da99b4b1-8b2d-45cf-95f7-d52a8ecde203","ios":"levelo://app?vid=da99b4b1-8b2d-45cf-95f7-d52a8ecde203"},"vehicle_type_id":"4","last_reported":1702649226,"current_range_meters":6400,"station_id":"ce4bhah2rcd13ifvqej0","pricing_plan_id":"free"},{"bike_id":"e436103c-86a7-4891-a5d5-0cd4b3adbca0","system_id":"levelo_inurba_marseille","lat":43.286593,"lon":5.363346,"is_reserved":false,"is_disabled":false,"rental_uris":{"android":"levelo://app?vid=e436103c-86a7-4891-a5d5-0cd4b3adbca0","ios":"levelo://app?vid=e436103c-86a7-4891-a5d5-0cd4b3adbca0"},"vehicle_type_id":"4","last_reported":1702649226,"current_range_meters":20400,"station_id":"ce4bhah2rcd13ifvqej0","pricing_plan_id":"free"},{"bike_id":"0e2cfffd-0bbc-4354-ab7b-331a4245f611","system_id":"levelo_inurba_marseille","lat":43.298681,"lon":5.397225,"is_reserved":false,"is_disabled":false,"rental_uris":{"android":"levelo://app?vid=0e2cfffd-0bbc-4354-ab7b-331a4245f611","ios":"levelo://app?vid=0e2cfffd-0bbc-4354-ab7b-331a4245f611"},"vehicle_type_id":"4","last_reported":1702649226,"current_range_meters":14000,"station_id":"ce4bh0h2rcd13ifvqd50","pricing_plan_id":"free"},{"bike_id":"f5884cca-6176-45e0-9f6b-d45476423ba4","system_id":"levelo_inurba_marseille","lat":43.298681,"lon":5.397225,"is_reserved":false,"is_disabled":false,"rental_uris":{"android":"levelo://app?vid=f5884cca-6176-45e0-9f6b-d45476423ba4","ios":"levelo://app?vid=f5884cca-6176-45e0-9f6b-d45476423ba4"},"vehicle_type_id":"4","last_reported":1702649226,"current_range_meters":30000,"station_id":"ce4bh0h2rcd13ifvqd50","pricing_plan_id":"free"},{"bike_id":"b567583f-942e-4e00-812a-ddb26260e5c1","system_id":"levelo_inurba_marseille","lat":43.295194,"lon":5.39397,"is_reserved":false,"is_disabled":false,"rental_uris":{"android":"levelo://app?vid=b567583f-942e-4e00-812a-ddb26260e5c1","ios":"levelo://app?vid=b567583f-942e-4e00-812a-ddb26260e5c1"},"vehicle_type_id":"4","last_reported":1702649226,"current_range_meters":22800,"station_id":"ce4bh292rcd13ifvqdf0","pricing_plan_id":"free"},{"bike_id":"8a1be1e0-fe52-464f-a4b8-798ebc77f1da","system_id":"levelo_inurba_marseille","lat":43.28698,"lon":5.3739,"is_reserved":false,"is_disabled":false,"rental_uris":{"android":"levelo://app?vid=8a1be1e0-fe52-464f-a4b8-798ebc77f1da","ios":"levelo://app?vid=8a1be1e0-fe52-464f-a4b8-798ebc77f1da"},"vehicle_type_id":"4","last_reported":1702649226,"current_range_meters":26000,"station_id":"ce4bh3p2rcd13ifvqdq0","pricing_plan_id":"free"},{"bike_id":"ba6716e1-068c-4fc5-8c1f-f40947473517","system_id":"levelo_inurba_marseille","lat":43.295196,"lon":5.39397,"is_reserved":false,"is_disabled":false,"rental_uris":{"android":"levelo://app?vid=ba6716e1-068c-4fc5-8c1f-f40947473517","ios":"levelo://app?vid=ba6716e1-068c-4fc5-8c1f-f40947473517"},"vehicle_type_id":"4","last_reported":1702649226,"current_range_meters":11600,"station_id":"ce4bh292rcd13ifvqdf0","pricing_plan_id":"free"},{"bike_id":"8c5233c2-907f-4562-9616-2b34b1dd5cd2","system_id":"levelo_inurba_marseille","lat":43.289307,"lon":5.38406,"is_reserved":false,"is_disabled":false,"rental_uris":{"android":"levelo://app?vid=8c5233c2-907f-4562-9616-2b34b1dd5cd2","ios":"levelo://app?vid=8c5233c2-907f-4562-9616-2b34b1dd5cd2"},"vehicle_type_id":"4","last_reported":1702649226,"current_range_meters":18000,"station_id":"ce4bh612rcd13ifvqe6g","pricing_plan_id":"free"},{"bike_id":"d636d58b-287d-4a56-91ca-00b573ce32f5","system_id":"levelo_inurba_marseille","lat":43.28927,"lon":5.38406,"is_reserved":false,"is_disabled":false,"rental_uris":{"android":"levelo://app?vid=d636d58b-287d-4a56-91ca-00b573ce32f5","ios":"levelo://app?vid=d636d58b-287d-4a56-91ca-00b573ce32f5"},"vehicle_type_id":"4","last_reported":1702649226,"current_range_meters":20800,"station_id":"ce4bh612rcd13ifvqe6g","pricing_plan_id":"free"},{"bike_id":"6bfc590f-6d1d-40e2-bdea-e3661e4d3d38","system_id":"levelo_inurba_marseille","lat":43.289307,"lon":5.38406,"is_reserved":false,"is_disabled":false,"rental_uris":{"android":"levelo://app?vid=6bfc590f-6d1d-40e2-bdea-e3661e4d3d38","ios":"levelo://app?vid=6bfc590f-6d1d-40e2-bdea-e3661e4d3d38"},"vehicle_type_id":"4","last_reported":1702649226,"current_range_meters":31200,"station_id":"ce4bh612rcd13ifvqe6g","pricing_plan_id":"free"},{"bike_id":"e8838c20-9e71-4ffd-aefe-6cb4211e1e4a","system_id":"levelo_inurba_marseille","lat":43.302759,"lon":5.400793,"is_reserved":false,"is_disabled":false,"rental_uris":{"android":"levelo://app?vid=e8838c20-9e71-4ffd-aefe-6cb4211e1e4a","ios":"levelo://app?vid=e8838c20-9e71-4ffd-aefe-6cb4211e1e4a"},"vehicle_type_id":"4","last_reported":1702649226,"current_range_meters":25600,"station_id":"ce4bgvh2rcd13ifvqcs0","pricing_plan_id":"free"},{"bike_id":"1e85403f-7ca8-405d-a246-889a74ad5ae3","system_id":"levelo_inurba_marseille","lat":43.302759,"lon":5.400793,"is_reserved":false,"is_disabled":false,"rental_uris":{"android":"levelo://app?vid=1e85403f-7ca8-405d-a246-889a74ad5ae3","ios":"levelo://app?vid=1e85403f-7ca8-405d-a246-889a74ad5ae3"},"vehicle_type_id":"4","last_reported":1702649226,"current_range_meters":15200,"station_id":"ce4bgvh2rcd13ifvqcs0","pricing_plan_id":"free"},{"bike_id":"b4b90901-b0a0-458b-853d-533b431e974c","system_id":"levelo_inurba_marseille","lat":43.289307,"lon":5.38406,"is_reserved":false,"is_disabled":false,"rental_uris":{"android":"levelo://app?vid=b4b90901-b0a0-458b-853d-533b431e974c","ios":"levelo://app?vid=b4b90901-b0a0-458b-853d-533b431e974c"},"vehicle_type_id":"4","last_reported":1702649226,"current_range_meters":28000,"station_id":"ce4bh612rcd13ifvqe6g","pricing_plan_id":"free"},{"bike_id":"ff84aa82-7207-41ca-b4cb-1d9a03eb613f","system_id":"levelo_inurba_marseille","lat":43.302759,"lon":5.400793,"is_reserved":false,"is_disabled":false,"rental_uris":{"android":"levelo://app?vid=ff84aa82-7207-41ca-b4cb-1d9a03eb613f","ios":"levelo://app?vid=ff84aa82-7207-41ca-b4cb-1d9a03eb613f"},"vehicle_type_id":"4","last_reported":1702649226,"current_range_meters":8000,"station_id":"ce4bgvh2rcd13ifvqcs0","pricing_plan_id":"free"},{"bike_id":"f8d8b07e-49ea-4d85-84a5-a3de4d37a834","system_id":"levelo_inurba_marseille","lat":43.302759,"lon":5.400793,"is_reserved":false,"is_disabled":false,"rental_uris":{"android":"levelo://app?vid=f8d8b07e-49ea-4d85-84a5-a3de4d37a834","ios":"levelo://app?vid=f8d8b07e-49ea-4d85-84a5-a3de4d37a834"},"vehicle_type_id":"4","last_reported":1702649226,"current_range_meters":31200,"station_id":"ce4bgvh2rcd13ifvqcs0","pricing_plan_id":"free"},{"bike_id":"e934740a-3759-419c-8d54-4249cabcc475","system_id":"levelo_inurba_marseille","lat":43.302759,"lon":5.400793,"is_reserved":false,"is_disabled":false,"rental_uris":{"android":"levelo://app?vid=e934740a-3759-419c-8d54-4249cabcc475","ios":"levelo://app?vid=e934740a-3759-419c-8d54-4249cabcc475"},"vehicle_type_id":"4","last_reported":1702649226,"current_range_meters":19600,"station_id":"ce4bgvh2rcd13ifvqcs0","pricing_plan_id":"free"},{"bike_id":"cffe57f8-e2bf-4029-a5ca-eac7569e060d","system_id":"levelo_inurba_marseille","lat":43.286039,"lon":5.370679,"is_reserved":false,"is_disabled":false,"rental_uris":{"android":"levelo://app?vid=cffe57f8-e2bf-4029-a5ca-eac7569e060d","ios":"levelo://app?vid=cffe57f8-e2bf-4029-a5ca-eac7569e060d"},"vehicle_type_id":"4","last_reported":1702649226,"current_range_meters":15200,"station_id":"ce4bht12rcd13ifvqi60","pricing_plan_id":"free"},{"bike_id":"ee4ae394-f750-4cbc-a9da-a3343530cfea","system_id":"levelo_inurba_marseille","lat":43.28837,"lon":5.38249,"is_reserved":false,"is_disabled":false,"rental_uris":{"android":"levelo://app?vid=ee4ae394-f750-4cbc-a9da-a3343530cfea","ios":"levelo://app?vid=ee4ae394-f750-4cbc-a9da-a3343530cfea"},"vehicle_type_id":"4","last_reported":1702649226,"current_range_meters":0,"station_id":"","pricing_plan_id":"free"},{"bike_id":"6a5a6d03-4ad4-4de7-9b29-64b101a2f883","system_id":"levelo_inurba_marseille","lat":43.291994,"lon":5.392907,"is_reserved":false,"is_disabled":false,"rental_uris":{"android":"levelo://app?vid=6a5a6d03-4ad4-4de7-9b29-64b101a2f883","ios":"levelo://app?vid=6a5a6d03-4ad4-4de7-9b29-64b101a2f883"},"vehicle_type_id":"4","last_reported":1702649226,"current_range_meters":28000,"station_id":"ce4bh192rcd13ifvqdd0","pricing_plan_id":"free"},{"bike_id":"31f29a92-25b9-43c4-9237-f0ec28955d69","system_id":"levelo_inurba_marseille","lat":43.284534,"lon":5.358662,"is_reserved":false,"is_disabled":false,"rental_uris":{"android":"levelo://app?vid=31f29a92-25b9-43c4-9237-f0ec28955d69","ios":"levelo://app?vid=31f29a92-25b9-43c4-9237-f0ec28955d69"},"vehicle_type_id":"4","last_reported":1702649226,"current_range_meters":22800,"station_id":"ce4bhah2rcd13ifvqei0","pricing_plan_id":"free"},{"bike_id":"67e8b6a7-735d-4835-bcf0-344df3c8250f","system_id":"levelo_inurba_marseille","lat":43.294314,"lon":5.397498,"is_reserved":false,"is_disabled":false,"rental_uris":{"android":"levelo://app?vid=67e8b6a7-735d-4835-bcf0-344df3c8250f","ios":"levelo://app?vid=67e8b6a7-735d-4835-bcf0-344df3c8250f"},"vehicle_type_id":"4","last_reported":1702649226,"current_range_meters":8400,"station_id":"ce4bh3h2rcd13ifvqdo0","pricing_plan_id":"free"},{"bike_id":"445860ae-5254-47bb-a315-a8fb14ad5624","system_id":"levelo_inurba_marseille","lat":43.285848,"lon":5.350787,"is_reserved":false,"is_disabled":false,"rental_uris":{"android":"levelo://app?vid=445860ae-5254-47bb-a315-a8fb14ad5624","ios":"levelo://app?vid=445860ae-5254-47bb-a315-a8fb14ad5624"},"vehicle_type_id":"4","last_reported":1702649226,"current_range_meters":5600,"station_id":"ce4bhch2rcd13ifvqeug","pricing_plan_id":"free"},{"bike_id":"e67bd5ba-ae4d-421b-9c1e-f5b794698f4b","system_id":"levelo_inurba_marseille","lat":43.286595,"lon":5.386795,"is_reserved":false,"is_disabled":false,"rental_uris":{"android":"levelo://app?vid=e67bd5ba-ae4d-421b-9c1e-f5b794698f4b","ios":"levelo://app?vid=e67bd5ba-ae4d-421b-9c1e-f5b794698f4b"},"vehicle_type_id":"4","last_reported":1702649226,"current_range_meters":19600,"station_id":"ce4bh492rcd13ifvqdug","pricing_plan_id":"free"},{"bike_id":"2ef266d7-5ad8-4a72-b96f-fb7994bc4fbf","system_id":"levelo_inurba_marseille","lat":43.286675,"lon":5.386645,"is_reserved":false,"is_disabled":false,"rental_uris":{"android":"levelo://app?vid=2ef266d7-5ad8-4a72-b96f-fb7994bc4fbf","ios":"levelo://app?vid=2ef266d7-5ad8-4a72-b96f-fb7994bc4fbf"},"vehicle_type_id":"4","last_reported":1702649226,"current_range_meters":5200,"station_id":"ce4bh492rcd13ifvqdug","pricing_plan_id":"free"},{"bike_id":"3c6dc98e-aa40-4668-8e35-73cc7969ce50","system_id":"levelo_inurba_marseille","lat":43.319179,"lon":5.407725,"is_reserved":false,"is_disabled":false,"rental_uris":{"android":"levelo://app?vid=3c6dc98e-aa40-4668-8e35-73cc7969ce50","ios":"levelo://app?vid=3c6dc98e-aa40-4668-8e35-73cc7969ce50"},"vehicle_type_id":"4","last_reported":1702649226,"current_range_meters":31200,"station_id":"ce4bhq12rcd13ifvqhig","pricing_plan_id":"free"},{"bike_id":"57e4a576-4e09-4df8-89b5-2681bceb45c7","system_id":"levelo_inurba_marseille","lat":43.318811,"lon":5.407402,"is_reserved":false,"is_disabled":false,"rental_uris":{"android":"levelo://app?vid=57e4a576-4e09-4df8-89b5-2681bceb45c7","ios":"levelo://app?vid=57e4a576-4e09-4df8-89b5-2681bceb45c7"},"vehicle_type_id":"4","last_reported":1702649226,"current_range_meters":12000,"station_id":"","pricing_plan_id":"free"},{"bike_id":"f3fcf217-4796-4d58-a2a4-0cb5ac61533e","system_id":"levelo_inurba_marseille","lat":43.33717,"lon":5.391857,"is_reserved":false,"is_disabled":false,"rental_uris":{"android":"levelo://app?vid=f3fcf217-4796-4d58-a2a4-0cb5ac61533e","ios":"levelo://app?vid=f3fcf217-4796-4d58-a2a4-0cb5ac61533e"},"vehicle_type_id":"4","last_reported":1702649226,"current_range_meters":30800,"station_id":"ce4bhr92rcd13ifvqhsg","pricing_plan_id":"free"},{"bike_id":"7dad4481-4867-4557-8614-5bf9a8d365e1","system_id":"levelo_inurba_marseille","lat":43.337168,"lon":5.391825,"is_reserved":false,"is_disabled":false,"rental_uris":{"android":"levelo://app?vid=7dad4481-4867-4557-8614-5bf9a8d365e1","ios":"levelo://app?vid=7dad4481-4867-4557-8614-5bf9a8d365e1"},"vehicle_type_id":"4","last_reported":1702649226,"current_range_meters":19600,"station_id":"ce4bhr92rcd13ifvqhsg","pricing_plan_id":"free"},{"bike_id":"60cb716e-6890-413c-af5d-762bc7bfab6a","system_id":"levelo_inurba_marseille","lat":43.297946,"lon":5.404063,"is_reserved":false,"is_disabled":false,"rental_uris":{"android":"levelo://app?vid=60cb716e-6890-413c-af5d-762bc7bfab6a","ios":"levelo://app?vid=60cb716e-6890-413c-af5d-762bc7bfab6a"},"vehicle_type_id":"4","last_reported":1702649226,"current_range_meters":26000,"station_id":"ce4bh112rcd13ifvqd90","pricing_plan_id":"free"},{"bike_id":"49c8c0de-7a20-460c-a907-08ed12fbcc10","system_id":"levelo_inurba_marseille","lat":43.283498,"lon":5.380948,"is_reserved":false,"is_disabled":false,"rental_uris":{"android":"levelo://app?vid=49c8c0de-7a20-460c-a907-08ed12fbcc10","ios":"levelo://app?vid=49c8c0de-7a20-460c-a907-08ed12fbcc10"},"vehicle_type_id":"4","last_reported":1702649226,"current_range_meters":10000,"station_id":"ce4bh412rcd13ifvqdr0","pricing_plan_id":"free"},{"bike_id":"9f680a83-7cd1-44c3-a4ef-070b8757e355","system_id":"levelo_inurba_marseille","lat":43.283498,"lon":5.380948,"is_reserved":false,"is_disabled":false,"rental_uris":{"android":"levelo://app?vid=9f680a83-7cd1-44c3-a4ef-070b8757e355","ios":"levelo://app?vid=9f680a83-7cd1-44c3-a4ef-070b8757e355"},"vehicle_type_id":"4","last_reported":1702649226,"current_range_meters":5200,"station_id":"ce4bh412rcd13ifvqdr0","pricing_plan_id":"free"},{"bike_id":"d31e4a5b-a00e-4e61-a060-6d07f3084037","system_id":"levelo_inurba_marseille","lat":43.284219,"lon":5.3497,"is_reserved":false,"is_disabled":false,"rental_uris":{"android":"levelo://app?vid=d31e4a5b-a00e-4e61-a060-6d07f3084037","ios":"levelo://app?vid=d31e4a5b-a00e-4e61-a060-6d07f3084037"},"vehicle_type_id":"4","last_reported":1702649226,"current_range_meters":22800,"station_id":"ce4bhbh2rcd13ifvqepg","pricing_plan_id":"free"},{"bike_id":"1673000d-0cf2-4f76-b938-f1265f83aa84","system_id":"levelo_inurba_marseille","lat":43.28412,"lon":5.34994,"is_reserved":false,"is_disabled":false,"rental_uris":{"android":"levelo://app?vid=1673000d-0cf2-4f76-b938-f1265f83aa84","ios":"levelo://app?vid=1673000d-0cf2-4f76-b938-f1265f83aa84"},"vehicle_type_id":"4","last_reported":1702649226,"current_range_meters":28800,"station_id":"ce4bhbh2rcd13ifvqepg","pricing_plan_id":"free"},{"bike_id":"a677344d-ff20-4a5c-8acc-1f988e1ff3db","system_id":"levelo_inurba_marseille","lat":43.282754,"lon":5.350519,"is_reserved":false,"is_disabled":false,"rental_uris":{"android":"levelo://app?vid=a677344d-ff20-4a5c-8acc-1f988e1ff3db","ios":"levelo://app?vid=a677344d-ff20-4a5c-8acc-1f988e1ff3db"},"vehicle_type_id":"4","last_reported":1702649226,"current_range_meters":21600,"station_id":"ce4bhbp2rcd13ifvqerg","pricing_plan_id":"free"},{"bike_id":"f1b81c94-2522-47fc-b22d-534de8fae010","system_id":"levelo_inurba_marseille","lat":43.282744,"lon":5.350533,"is_reserved":false,"is_disabled":false,"rental_uris":{"android":"levelo://app?vid=f1b81c94-2522-47fc-b22d-534de8fae010","ios":"levelo://app?vid=f1b81c94-2522-47fc-b22d-534de8fae010"},"vehicle_type_id":"4","last_reported":1702649226,"current_range_meters":31200,"station_id":"ce4bhbp2rcd13ifvqerg","pricing_plan_id":"free"},{"bike_id":"1e635aa2-6b9b-43ac-a2c8-c120dbe69eb7","system_id":"levelo_inurba_marseille","lat":43.283502,"lon":5.386471,"is_reserved":false,"is_disabled":false,"rental_uris":{"android":"levelo://app?vid=1e635aa2-6b9b-43ac-a2c8-c120dbe69eb7","ios":"levelo://app?vid=1e635aa2-6b9b-43ac-a2c8-c120dbe69eb7"},"vehicle_type_id":"4","last_reported":1702649226,"current_range_meters":19600,"station_id":"ce4bh492rcd13ifvqdvg","pricing_plan_id":"free"},{"bike_id":"4c1e1aab-5149-45c7-ae73-bb9dec55d7e2","system_id":"levelo_inurba_marseille","lat":43.282744,"lon":5.350533,"is_reserved":false,"is_disabled":false,"rental_uris":{"android":"levelo://app?vid=4c1e1aab-5149-45c7-ae73-bb9dec55d7e2","ios":"levelo://app?vid=4c1e1aab-5149-45c7-ae73-bb9dec55d7e2"},"vehicle_type_id":"4","last_reported":1702649226,"current_range_meters":13600,"station_id":"ce4bhbp2rcd13ifvqerg","pricing_plan_id":"free"},{"bike_id":"32b7ff22-b8d6-4897-89ba-e8fc311c14b5","system_id":"levelo_inurba_marseille","lat":43.282744,"lon":5.350533,"is_reserved":false,"is_disabled":false,"rental_uris":{"android":"levelo://app?vid=32b7ff22-b8d6-4897-89ba-e8fc311c14b5","ios":"levelo://app?vid=32b7ff22-b8d6-4897-89ba-e8fc311c14b5"},"vehicle_type_id":"4","last_reported":1702649226,"current_range_meters":13600,"station_id":"ce4bhbp2rcd13ifvqerg","pricing_plan_id":"free"},{"bike_id":"4f52be2d-23db-460b-9309-5d50cbd09dfc","system_id":"levelo_inurba_marseille","lat":43.282754,"lon":5.350519,"is_reserved":false,"is_disabled":false,"rental_uris":{"android":"levelo://app?vid=4f52be2d-23db-460b-9309-5d50cbd09dfc","ios":"levelo://app?vid=4f52be2d-23db-460b-9309-5d50cbd09dfc"},"vehicle_type_id":"4","last_reported":1702649226,"current_range_meters":22400,"station_id":"ce4bhbp2rcd13ifvqerg","pricing_plan_id":"free"},{"bike_id":"f7a9f6a5-89eb-42a5-926e-f977a8f541da","system_id":"levelo_inurba_marseille","lat":43.282754,"lon":5.350519,"is_reserved":false,"is_disabled":false,"rental_uris":{"android":"levelo://app?vid=f7a9f6a5-89eb-42a5-926e-f977a8f541da","ios":"levelo://app?vid=f7a9f6a5-89eb-42a5-926e-f977a8f541da"},"vehicle_type_id":"4","last_reported":1702649226,"current_range_meters":21200,"station_id":"ce4bhbp2rcd13ifvqerg","pricing_plan_id":"free"},{"bike_id":"d1e94677-31d4-44ea-8239-23f2f432050f","system_id":"levelo_inurba_marseille","lat":43.282744,"lon":5.350533,"is_reserved":false,"is_disabled":false,"rental_uris":{"android":"levelo://app?vid=d1e94677-31d4-44ea-8239-23f2f432050f","ios":"levelo://app?vid=d1e94677-31d4-44ea-8239-23f2f432050f"},"vehicle_type_id":"4","last_reported":1702649226,"current_range_meters":16800,"station_id":"ce4bhbp2rcd13ifvqerg","pricing_plan_id":"free"},{"bike_id":"bc0b1c4c-e914-4505-811a-a510fbee0de6","system_id":"levelo_inurba_marseille","lat":43.28039,"lon":5.369297,"is_reserved":false,"is_disabled":false,"rental_uris":{"android":"levelo://app?vid=bc0b1c4c-e914-4505-811a-a510fbee0de6","ios":"levelo://app?vid=bc0b1c4c-e914-4505-811a-a510fbee0de6"},"vehicle_type_id":"4","last_reported":1702649226,"current_range_meters":2400,"station_id":"ce4bha12rcd13ifvqef0","pricing_plan_id":"free"},{"bike_id":"4fd73b75-1c97-4343-b994-392a26228067","system_id":"levelo_inurba_marseille","lat":43.283502,"lon":5.386471,"is_reserved":false,"is_disabled":false,"rental_uris":{"android":"levelo://app?vid=4fd73b75-1c97-4343-b994-392a26228067","ios":"levelo://app?vid=4fd73b75-1c97-4343-b994-392a26228067"},"vehicle_type_id":"4","last_reported":1702649226,"current_range_meters":30400,"station_id":"ce4bh492rcd13ifvqdvg","pricing_plan_id":"free"},{"bike_id":"078aaffb-b8bb-4f7a-be72-f9410dd16633","system_id":"levelo_inurba_marseille","lat":43.28035,"lon":5.36946,"is_reserved":false,"is_disabled":false,"rental_uris":{"android":"levelo://app?vid=078aaffb-b8bb-4f7a-be72-f9410dd16633","ios":"levelo://app?vid=078aaffb-b8bb-4f7a-be72-f9410dd16633"},"vehicle_type_id":"4","last_reported":1702649226,"current_range_meters":16000,"station_id":"ce4bha12rcd13ifvqef0","pricing_plan_id":"free"},{"bike_id":"8fb47eb9-d1de-47c3-9a4f-063d68d00739","system_id":"levelo_inurba_marseille","lat":43.280382,"lon":5.369291,"is_reserved":false,"is_disabled":false,"rental_uris":{"android":"levelo://app?vid=8fb47eb9-d1de-47c3-9a4f-063d68d00739","ios":"levelo://app?vid=8fb47eb9-d1de-47c3-9a4f-063d68d00739"},"vehicle_type_id":"4","last_reported":1702649226,"current_range_meters":30000,"station_id":"ce4bha12rcd13ifvqef0","pricing_plan_id":"free"},{"bike_id":"62c32a41-5c85-445e-a62d-27f8a6e615c9","system_id":"levelo_inurba_marseille","lat":43.280382,"lon":5.369291,"is_reserved":false,"is_disabled":false,"rental_uris":{"android":"levelo://app?vid=62c32a41-5c85-445e-a62d-27f8a6e615c9","ios":"levelo://app?vid=62c32a41-5c85-445e-a62d-27f8a6e615c9"},"vehicle_type_id":"4","last_reported":1702649226,"current_range_meters":20800,"station_id":"ce4bha12rcd13ifvqef0","pricing_plan_id":"free"},{"bike_id":"329bd0ce-cd8f-4268-a0f9-c5304fb1f856","system_id":"levelo_inurba_marseille","lat":43.280382,"lon":5.369291,"is_reserved":false,"is_disabled":false,"rental_uris":{"android":"levelo://app?vid=329bd0ce-cd8f-4268-a0f9-c5304fb1f856","ios":"levelo://app?vid=329bd0ce-cd8f-4268-a0f9-c5304fb1f856"},"vehicle_type_id":"4","last_reported":1702649226,"current_range_meters":28000,"station_id":"ce4bha12rcd13ifvqef0","pricing_plan_id":"free"},{"bike_id":"8fd319bc-7b48-46e6-8646-aa676a210461","system_id":"levelo_inurba_marseille","lat":43.29033,"lon":5.39974,"is_reserved":false,"is_disabled":false,"rental_uris":{"android":"levelo://app?vid=8fd319bc-7b48-46e6-8646-aa676a210461","ios":"levelo://app?vid=8fd319bc-7b48-46e6-8646-aa676a210461"},"vehicle_type_id":"4","last_reported":1702649226,"current_range_meters":0,"station_id":"ce4bh392rcd13ifvqdm0","pricing_plan_id":"free"},{"bike_id":"2bf3b229-ec85-45bc-9d1d-ae51091dc62b","system_id":"levelo_inurba_marseille","lat":43.290412,"lon":5.399633,"is_reserved":false,"is_disabled":false,"rental_uris":{"android":"levelo://app?vid=2bf3b229-ec85-45bc-9d1d-ae51091dc62b","ios":"levelo://app?vid=2bf3b229-ec85-45bc-9d1d-ae51091dc62b"},"vehicle_type_id":"4","last_reported":1702649226,"current_range_meters":16000,"station_id":"ce4bh392rcd13ifvqdm0","pricing_plan_id":"free"},{"bike_id":"e127a606-c1bf-4f5e-a310-8af35f882e39","system_id":"levelo_inurba_marseille","lat":43.281044,"lon":5.378308,"is_reserved":false,"is_disabled":false,"rental_uris":{"android":"levelo://app?vid=e127a606-c1bf-4f5e-a310-8af35f882e39","ios":"levelo://app?vid=e127a606-c1bf-4f5e-a310-8af35f882e39"},"vehicle_type_id":"4","last_reported":1702649226,"current_range_meters":20400,"station_id":"ce4bha12rcd13ifvqee0","pricing_plan_id":"free"},{"bike_id":"9b544339-9c42-4dc9-a03f-6e48b062cd2b","system_id":"levelo_inurba_marseille","lat":43.281044,"lon":5.378308,"is_reserved":false,"is_disabled":false,"rental_uris":{"android":"levelo://app?vid=9b544339-9c42-4dc9-a03f-6e48b062cd2b","ios":"levelo://app?vid=9b544339-9c42-4dc9-a03f-6e48b062cd2b"},"vehicle_type_id":"4","last_reported":1702649226,"current_range_meters":26400,"station_id":"ce4bha12rcd13ifvqee0","pricing_plan_id":"free"},{"bike_id":"a3f26adb-87f9-4051-acf4-9e65a094c829","system_id":"levelo_inurba_marseille","lat":43.281044,"lon":5.378308,"is_reserved":false,"is_disabled":false,"rental_uris":{"android":"levelo://app?vid=a3f26adb-87f9-4051-acf4-9e65a094c829","ios":"levelo://app?vid=a3f26adb-87f9-4051-acf4-9e65a094c829"},"vehicle_type_id":"4","last_reported":1702649226,"current_range_meters":21600,"station_id":"ce4bha12rcd13ifvqee0","pricing_plan_id":"free"},{"bike_id":"da2a5cb9-b297-482f-858c-8c68c645541e","system_id":"levelo_inurba_marseille","lat":43.304188,"lon":5.412904,"is_reserved":false,"is_disabled":false,"rental_uris":{"android":"levelo://app?vid=da2a5cb9-b297-482f-858c-8c68c645541e","ios":"levelo://app?vid=da2a5cb9-b297-482f-858c-8c68c645541e"},"vehicle_type_id":"4","last_reported":1702649226,"current_range_meters":26400,"station_id":"ce4bhop2rcd13ifvqh8g","pricing_plan_id":"free"},{"bike_id":"860ee692-0d24-4d36-a08b-4ef63bc894f0","system_id":"levelo_inurba_marseille","lat":43.304188,"lon":5.412904,"is_reserved":false,"is_disabled":false,"rental_uris":{"android":"levelo://app?vid=860ee692-0d24-4d36-a08b-4ef63bc894f0","ios":"levelo://app?vid=860ee692-0d24-4d36-a08b-4ef63bc894f0"},"vehicle_type_id":"4","last_reported":1702649226,"current_range_meters":27200,"station_id":"ce4bhop2rcd13ifvqh8g","pricing_plan_id":"free"},{"bike_id":"21c5618d-7559-4926-a59a-b4477c11d53e","system_id":"levelo_inurba_marseille","lat":43.325233,"lon":5.414318,"is_reserved":false,"is_disabled":false,"rental_uris":{"android":"levelo://app?vid=21c5618d-7559-4926-a59a-b4477c11d53e","ios":"levelo://app?vid=21c5618d-7559-4926-a59a-b4477c11d53e"},"vehicle_type_id":"4","last_reported":1702649226,"current_range_meters":20400,"station_id":"ce4bhq12rcd13ifvqhhg","pricing_plan_id":"free"},{"bike_id":"ab3544c6-b5e4-4474-b68e-2d5686065610","system_id":"levelo_inurba_marseille","lat":43.292569,"lon":5.409107,"is_reserved":false,"is_disabled":false,"rental_uris":{"android":"levelo://app?vid=ab3544c6-b5e4-4474-b68e-2d5686065610","ios":"levelo://app?vid=ab3544c6-b5e4-4474-b68e-2d5686065610"},"vehicle_type_id":"4","last_reported":1702649226,"current_range_meters":22800,"station_id":"ce4bh192rcd13ifvqdc0","pricing_plan_id":"free"},{"bike_id":"58e9943b-43f5-4d87-96b8-329d761359b6","system_id":"levelo_inurba_marseille","lat":43.325233,"lon":5.414318,"is_reserved":false,"is_disabled":false,"rental_uris":{"android":"levelo://app?vid=58e9943b-43f5-4d87-96b8-329d761359b6","ios":"levelo://app?vid=58e9943b-43f5-4d87-96b8-329d761359b6"},"vehicle_type_id":"4","last_reported":1702649226,"current_range_meters":27600,"station_id":"ce4bhq12rcd13ifvqhhg","pricing_plan_id":"free"},{"bike_id":"a5cbaf04-a340-4ffe-9ea4-8e1797af7aad","system_id":"levelo_inurba_marseille","lat":43.276184,"lon":5.361147,"is_reserved":false,"is_disabled":false,"rental_uris":{"android":"levelo://app?vid=a5cbaf04-a340-4ffe-9ea4-8e1797af7aad","ios":"levelo://app?vid=a5cbaf04-a340-4ffe-9ea4-8e1797af7aad"},"vehicle_type_id":"4","last_reported":1702649226,"current_range_meters":22400,"station_id":"ce4bgj92rcd13ifvqbe0","pricing_plan_id":"free"},{"bike_id":"eb38936c-02f3-470b-8b58-806f919c6349","system_id":"levelo_inurba_marseille","lat":43.27618,"lon":5.361009,"is_reserved":false,"is_disabled":false,"rental_uris":{"android":"levelo://app?vid=eb38936c-02f3-470b-8b58-806f919c6349","ios":"levelo://app?vid=eb38936c-02f3-470b-8b58-806f919c6349"},"vehicle_type_id":"4","last_reported":1702649226,"current_range_meters":14800,"station_id":"ce4bgj92rcd13ifvqbe0","pricing_plan_id":"free"},{"bike_id":"b9def0b0-172d-4a02-81cf-3e92d02d27d0","system_id":"levelo_inurba_marseille","lat":43.27618,"lon":5.361009,"is_reserved":false,"is_disabled":false,"rental_uris":{"android":"levelo://app?vid=b9def0b0-172d-4a02-81cf-3e92d02d27d0","ios":"levelo://app?vid=b9def0b0-172d-4a02-81cf-3e92d02d27d0"},"vehicle_type_id":"4","last_reported":1702649226,"current_range_meters":25200,"station_id":"ce4bgj92rcd13ifvqbe0","pricing_plan_id":"free"},{"bike_id":"c40aebd4-c148-4d4d-9243-dcfaa5c4b14c","system_id":"levelo_inurba_marseille","lat":43.27611,"lon":5.3611,"is_reserved":false,"is_disabled":false,"rental_uris":{"android":"levelo://app?vid=c40aebd4-c148-4d4d-9243-dcfaa5c4b14c","ios":"levelo://app?vid=c40aebd4-c148-4d4d-9243-dcfaa5c4b14c"},"vehicle_type_id":"4","last_reported":1702649226,"current_range_meters":14400,"station_id":"ce4bgj92rcd13ifvqbe0","pricing_plan_id":"free"},{"bike_id":"85967ac3-c8bf-4c4d-9f65-8f46db69571a","system_id":"levelo_inurba_marseille","lat":43.276179,"lon":5.361009,"is_reserved":false,"is_disabled":false,"rental_uris":{"android":"levelo://app?vid=85967ac3-c8bf-4c4d-9f65-8f46db69571a","ios":"levelo://app?vid=85967ac3-c8bf-4c4d-9f65-8f46db69571a"},"vehicle_type_id":"4","last_reported":1702649226,"current_range_meters":12400,"station_id":"ce4bgj92rcd13ifvqbe0","pricing_plan_id":"free"},{"bike_id":"b45fcc83-f567-467f-8883-5b06d887fc0c","system_id":"levelo_inurba_marseille","lat":43.280784,"lon":5.396622,"is_reserved":false,"is_disabled":false,"rental_uris":{"android":"levelo://app?vid=b45fcc83-f567-467f-8883-5b06d887fc0c","ios":"levelo://app?vid=b45fcc83-f567-467f-8883-5b06d887fc0c"},"vehicle_type_id":"4","last_reported":1702649226,"current_range_meters":28000,"station_id":"ce4bho12rcd13ifvqh2g","pricing_plan_id":"free"},{"bike_id":"8e1e848d-d96b-4302-ada5-5df8b44d4656","system_id":"levelo_inurba_marseille","lat":43.30358,"lon":5.41881,"is_reserved":false,"is_disabled":false,"rental_uris":{"android":"levelo://app?vid=8e1e848d-d96b-4302-ada5-5df8b44d4656","ios":"levelo://app?vid=8e1e848d-d96b-4302-ada5-5df8b44d4656"},"vehicle_type_id":"4","last_reported":1702649226,"current_range_meters":17600,"station_id":"ce4bhop2rcd13ifvqh7g","pricing_plan_id":"free"},{"bike_id":"aadedbe2-bffb-476b-be82-0b40bfceca3f","system_id":"levelo_inurba_marseille","lat":43.278401,"lon":5.392152,"is_reserved":false,"is_disabled":false,"rental_uris":{"android":"levelo://app?vid=aadedbe2-bffb-476b-be82-0b40bfceca3f","ios":"levelo://app?vid=aadedbe2-bffb-476b-be82-0b40bfceca3f"},"vehicle_type_id":"4","last_reported":1702649226,"current_range_meters":26000,"station_id":"ce4bhjp2rcd13ifvqga0","pricing_plan_id":"free"},{"bike_id":"3bce963e-4ff0-44ae-911c-664b1b6677df","system_id":"levelo_inurba_marseille","lat":43.27377,"lon":5.36249,"is_reserved":false,"is_disabled":false,"rental_uris":{"android":"levelo://app?vid=3bce963e-4ff0-44ae-911c-664b1b6677df","ios":"levelo://app?vid=3bce963e-4ff0-44ae-911c-664b1b6677df"},"vehicle_type_id":"4","last_reported":1702649226,"current_range_meters":20000,"station_id":"ce4bhbh2rcd13ifvqeo0","pricing_plan_id":"free"},{"bike_id":"f46b8131-d934-4d08-8783-3a4977f7a16d","system_id":"levelo_inurba_marseille","lat":43.273613,"lon":5.362705,"is_reserved":false,"is_disabled":false,"rental_uris":{"android":"levelo://app?vid=f46b8131-d934-4d08-8783-3a4977f7a16d","ios":"levelo://app?vid=f46b8131-d934-4d08-8783-3a4977f7a16d"},"vehicle_type_id":"4","last_reported":1702649226,"current_range_meters":30800,"station_id":"ce4bhbh2rcd13ifvqeo0","pricing_plan_id":"free"},{"bike_id":"6470a7a2-1349-4ea5-b7c9-64e4a4a46249","system_id":"levelo_inurba_marseille","lat":43.273609,"lon":5.362708,"is_reserved":false,"is_disabled":false,"rental_uris":{"android":"levelo://app?vid=6470a7a2-1349-4ea5-b7c9-64e4a4a46249","ios":"levelo://app?vid=6470a7a2-1349-4ea5-b7c9-64e4a4a46249"},"vehicle_type_id":"4","last_reported":1702649226,"current_range_meters":28000,"station_id":"ce4bhbh2rcd13ifvqeo0","pricing_plan_id":"free"},{"bike_id":"d1d17a65-03ce-4489-acd4-06452176afb5","system_id":"levelo_inurba_marseille","lat":43.273613,"lon":5.362705,"is_reserved":false,"is_disabled":false,"rental_uris":{"android":"levelo://app?vid=d1d17a65-03ce-4489-acd4-06452176afb5","ios":"levelo://app?vid=d1d17a65-03ce-4489-acd4-06452176afb5"},"vehicle_type_id":"4","last_reported":1702649226,"current_range_meters":26800,"station_id":"ce4bhbh2rcd13ifvqeo0","pricing_plan_id":"free"},{"bike_id":"cc79dc90-adb8-4eed-8de7-3ef24447b85c","system_id":"levelo_inurba_marseille","lat":43.275625,"lon":5.384392,"is_reserved":false,"is_disabled":false,"rental_uris":{"android":"levelo://app?vid=cc79dc90-adb8-4eed-8de7-3ef24447b85c","ios":"levelo://app?vid=cc79dc90-adb8-4eed-8de7-3ef24447b85c"},"vehicle_type_id":"4","last_reported":1702649226,"current_range_meters":17200,"station_id":"ce4bhh92rcd13ifvqfi0","pricing_plan_id":"free"},{"bike_id":"3424c548-55f0-4012-abba-01ad45cc42fd","system_id":"levelo_inurba_marseille","lat":43.275625,"lon":5.384392,"is_reserved":false,"is_disabled":false,"rental_uris":{"android":"levelo://app?vid=3424c548-55f0-4012-abba-01ad45cc42fd","ios":"levelo://app?vid=3424c548-55f0-4012-abba-01ad45cc42fd"},"vehicle_type_id":"4","last_reported":1702649226,"current_range_meters":31200,"station_id":"ce4bhh92rcd13ifvqfi0","pricing_plan_id":"free"},{"bike_id":"221d63e7-23e0-465d-b284-e6263b22e20a","system_id":"levelo_inurba_marseille","lat":43.273609,"lon":5.362708,"is_reserved":false,"is_disabled":false,"rental_uris":{"android":"levelo://app?vid=221d63e7-23e0-465d-b284-e6263b22e20a","ios":"levelo://app?vid=221d63e7-23e0-465d-b284-e6263b22e20a"},"vehicle_type_id":"4","last_reported":1702649226,"current_range_meters":26400,"station_id":"ce4bhbh2rcd13ifvqeo0","pricing_plan_id":"free"},{"bike_id":"e925b3d1-1a08-4c4b-beb4-4c15019c4a47","system_id":"levelo_inurba_marseille","lat":43.310785,"lon":5.424305,"is_reserved":false,"is_disabled":false,"rental_uris":{"android":"levelo://app?vid=e925b3d1-1a08-4c4b-beb4-4c15019c4a47","ios":"levelo://app?vid=e925b3d1-1a08-4c4b-beb4-4c15019c4a47"},"vehicle_type_id":"4","last_reported":1702649226,"current_range_meters":28000,"station_id":"ce4bhp92rcd13ifvqhag","pricing_plan_id":"free"},{"bike_id":"3ca2c2d2-99b0-4aa6-a05d-e30f02e6a7fb","system_id":"levelo_inurba_marseille","lat":43.276092,"lon":5.395289,"is_reserved":false,"is_disabled":false,"rental_uris":{"android":"levelo://app?vid=3ca2c2d2-99b0-4aa6-a05d-e30f02e6a7fb","ios":"levelo://app?vid=3ca2c2d2-99b0-4aa6-a05d-e30f02e6a7fb"},"vehicle_type_id":"4","last_reported":1702649226,"current_range_meters":27600,"station_id":"","pricing_plan_id":"free"},{"bike_id":"f2d1ad7f-637b-4cf8-ad7c-5a2add2d74ab","system_id":"levelo_inurba_marseille","lat":43.273125,"lon":5.390731,"is_reserved":false,"is_disabled":false,"rental_uris":{"android":"levelo://app?vid=f2d1ad7f-637b-4cf8-ad7c-5a2add2d74ab","ios":"levelo://app?vid=f2d1ad7f-637b-4cf8-ad7c-5a2add2d74ab"},"vehicle_type_id":"4","last_reported":1702649226,"current_range_meters":17600,"station_id":"ce4bhgp2rcd13ifvqfe0","pricing_plan_id":"free"},{"bike_id":"597fbaac-2c9e-4e5e-a77f-b7b4e6511ada","system_id":"levelo_inurba_marseille","lat":43.273125,"lon":5.390731,"is_reserved":false,"is_disabled":false,"rental_uris":{"android":"levelo://app?vid=597fbaac-2c9e-4e5e-a77f-b7b4e6511ada","ios":"levelo://app?vid=597fbaac-2c9e-4e5e-a77f-b7b4e6511ada"},"vehicle_type_id":"4","last_reported":1702649226,"current_range_meters":20400,"station_id":"ce4bhgp2rcd13ifvqfe0","pricing_plan_id":"free"},{"bike_id":"122f24dc-cfb5-4915-ad6a-6e9a49375afe","system_id":"levelo_inurba_marseille","lat":43.273125,"lon":5.390731,"is_reserved":false,"is_disabled":false,"rental_uris":{"android":"levelo://app?vid=122f24dc-cfb5-4915-ad6a-6e9a49375afe","ios":"levelo://app?vid=122f24dc-cfb5-4915-ad6a-6e9a49375afe"},"vehicle_type_id":"4","last_reported":1702649226,"current_range_meters":28800,"station_id":"ce4bhgp2rcd13ifvqfe0","pricing_plan_id":"free"},{"bike_id":"7d5d398d-7f48-4644-bc9a-aac17e82ee2f","system_id":"levelo_inurba_marseille","lat":43.274103,"lon":5.394016,"is_reserved":false,"is_disabled":false,"rental_uris":{"android":"levelo://app?vid=7d5d398d-7f48-4644-bc9a-aac17e82ee2f","ios":"levelo://app?vid=7d5d398d-7f48-4644-bc9a-aac17e82ee2f"},"vehicle_type_id":"4","last_reported":1702649226,"current_range_meters":26400,"station_id":"ce4bhdp2rcd13ifvqf20","pricing_plan_id":"free"},{"bike_id":"b47c6f1a-56ac-43e2-8683-faadbcdafbd6","system_id":"levelo_inurba_marseille","lat":43.274099,"lon":5.394019,"is_reserved":false,"is_disabled":false,"rental_uris":{"android":"levelo://app?vid=b47c6f1a-56ac-43e2-8683-faadbcdafbd6","ios":"levelo://app?vid=b47c6f1a-56ac-43e2-8683-faadbcdafbd6"},"vehicle_type_id":"4","last_reported":1702649226,"current_range_meters":28400,"station_id":"ce4bhdp2rcd13ifvqf20","pricing_plan_id":"free"},{"bike_id":"a7863f6b-776e-4daa-b931-d7ecbe1a71ad","system_id":"levelo_inurba_marseille","lat":43.2955,"lon":5.42267,"is_reserved":false,"is_disabled":false,"rental_uris":{"android":"levelo://app?vid=a7863f6b-776e-4daa-b931-d7ecbe1a71ad","ios":"levelo://app?vid=a7863f6b-776e-4daa-b931-d7ecbe1a71ad"},"vehicle_type_id":"4","last_reported":1702649226,"current_range_meters":21200,"station_id":"ce4bhph2rcd13ifvqhdg","pricing_plan_id":"free"},{"bike_id":"5a1b5282-2b51-4d9c-bacd-5818412db10f","system_id":"levelo_inurba_marseille","lat":43.29556,"lon":5.422835,"is_reserved":false,"is_disabled":false,"rental_uris":{"android":"levelo://app?vid=5a1b5282-2b51-4d9c-bacd-5818412db10f","ios":"levelo://app?vid=5a1b5282-2b51-4d9c-bacd-5818412db10f"},"vehicle_type_id":"4","last_reported":1702649226,"current_range_meters":19200,"station_id":"ce4bhph2rcd13ifvqhdg","pricing_plan_id":"free"},{"bike_id":"87ef0344-46f3-4177-bd98-7f9a177a470d","system_id":"levelo_inurba_marseille","lat":43.295523,"lon":5.422926,"is_reserved":false,"is_disabled":false,"rental_uris":{"android":"levelo://app?vid=87ef0344-46f3-4177-bd98-7f9a177a470d","ios":"levelo://app?vid=87ef0344-46f3-4177-bd98-7f9a177a470d"},"vehicle_type_id":"4","last_reported":1702649226,"current_range_meters":16400,"station_id":"ce4bhph2rcd13ifvqhdg","pricing_plan_id":"free"},{"bike_id":"69f8ad0f-2459-47c5-93c3-15dea485ac8b","system_id":"levelo_inurba_marseille","lat":43.295511,"lon":5.422926,"is_reserved":false,"is_disabled":false,"rental_uris":{"android":"levelo://app?vid=69f8ad0f-2459-47c5-93c3-15dea485ac8b","ios":"levelo://app?vid=69f8ad0f-2459-47c5-93c3-15dea485ac8b"},"vehicle_type_id":"4","last_reported":1702649226,"current_range_meters":25200,"station_id":"ce4bhph2rcd13ifvqhdg","pricing_plan_id":"free"},{"bike_id":"0fdd36e0-a97d-4931-83bd-dc41afbd80cb","system_id":"levelo_inurba_marseille","lat":43.295511,"lon":5.422926,"is_reserved":false,"is_disabled":false,"rental_uris":{"android":"levelo://app?vid=0fdd36e0-a97d-4931-83bd-dc41afbd80cb","ios":"levelo://app?vid=0fdd36e0-a97d-4931-83bd-dc41afbd80cb"},"vehicle_type_id":"4","last_reported":1702649226,"current_range_meters":25600,"station_id":"ce4bhph2rcd13ifvqhdg","pricing_plan_id":"free"},{"bike_id":"1d2472e2-350f-44fa-a627-38e6bb5829da","system_id":"levelo_inurba_marseille","lat":43.295511,"lon":5.422926,"is_reserved":false,"is_disabled":false,"rental_uris":{"android":"levelo://app?vid=1d2472e2-350f-44fa-a627-38e6bb5829da","ios":"levelo://app?vid=1d2472e2-350f-44fa-a627-38e6bb5829da"},"vehicle_type_id":"4","last_reported":1702649226,"current_range_meters":31200,"station_id":"ce4bhph2rcd13ifvqhdg","pricing_plan_id":"free"},{"bike_id":"b85a87d9-2e84-43d5-8e46-be9b53a9a634","system_id":"levelo_inurba_marseille","lat":43.272124,"lon":5.391768,"is_reserved":false,"is_disabled":false,"rental_uris":{"android":"levelo://app?vid=b85a87d9-2e84-43d5-8e46-be9b53a9a634","ios":"levelo://app?vid=b85a87d9-2e84-43d5-8e46-be9b53a9a634"},"vehicle_type_id":"4","last_reported":1702649226,"current_range_meters":10400,"station_id":"ce4bhhp2rcd13ifvqfm0","pricing_plan_id":"free"},{"bike_id":"33a7f4d2-5e35-4cf7-bd7c-11e2791bb4ff","system_id":"levelo_inurba_marseille","lat":43.272116,"lon":5.391763,"is_reserved":false,"is_disabled":false,"rental_uris":{"android":"levelo://app?vid=33a7f4d2-5e35-4cf7-bd7c-11e2791bb4ff","ios":"levelo://app?vid=33a7f4d2-5e35-4cf7-bd7c-11e2791bb4ff"},"vehicle_type_id":"4","last_reported":1702649226,"current_range_meters":14800,"station_id":"ce4bhhp2rcd13ifvqfm0","pricing_plan_id":"free"},{"bike_id":"37ce3ccb-9dde-4a43-b03a-fa47d9bfd267","system_id":"levelo_inurba_marseille","lat":43.272116,"lon":5.391763,"is_reserved":false,"is_disabled":false,"rental_uris":{"android":"levelo://app?vid=37ce3ccb-9dde-4a43-b03a-fa47d9bfd267","ios":"levelo://app?vid=37ce3ccb-9dde-4a43-b03a-fa47d9bfd267"},"vehicle_type_id":"4","last_reported":1702649226,"current_range_meters":28800,"station_id":"ce4bhhp2rcd13ifvqfm0","pricing_plan_id":"free"},{"bike_id":"65828be5-d27d-44c8-9ca2-dc34bef29c49","system_id":"levelo_inurba_marseille","lat":43.269319,"lon":5.389397,"is_reserved":false,"is_disabled":false,"rental_uris":{"android":"levelo://app?vid=65828be5-d27d-44c8-9ca2-dc34bef29c49","ios":"levelo://app?vid=65828be5-d27d-44c8-9ca2-dc34bef29c49"},"vehicle_type_id":"4","last_reported":1702649226,"current_range_meters":26400,"station_id":"ce4bhhh2rcd13ifvqfl0","pricing_plan_id":"free"},{"bike_id":"15da28b7-4e6f-4fbf-ad99-ecdff5d5f42b","system_id":"levelo_inurba_marseille","lat":43.26681,"lon":5.382694,"is_reserved":false,"is_disabled":false,"rental_uris":{"android":"levelo://app?vid=15da28b7-4e6f-4fbf-ad99-ecdff5d5f42b","ios":"levelo://app?vid=15da28b7-4e6f-4fbf-ad99-ecdff5d5f42b"},"vehicle_type_id":"4","last_reported":1702649226,"current_range_meters":13600,"station_id":"ce4bhg92rcd13ifvqf90","pricing_plan_id":"free"},{"bike_id":"5bdeb62f-3697-4a8d-a2b6-0d9d785d06a4","system_id":"levelo_inurba_marseille","lat":43.265563,"lon":5.372855,"is_reserved":false,"is_disabled":false,"rental_uris":{"android":"levelo://app?vid=5bdeb62f-3697-4a8d-a2b6-0d9d785d06a4","ios":"levelo://app?vid=5bdeb62f-3697-4a8d-a2b6-0d9d785d06a4"},"vehicle_type_id":"4","last_reported":1702649226,"current_range_meters":30400,"station_id":"ce4bhg12rcd13ifvqf70","pricing_plan_id":"free"},{"bike_id":"85d35529-d1d0-458f-b533-26d63f105ee7","system_id":"levelo_inurba_marseille","lat":43.26552,"lon":5.37284,"is_reserved":false,"is_disabled":false,"rental_uris":{"android":"levelo://app?vid=85d35529-d1d0-458f-b533-26d63f105ee7","ios":"levelo://app?vid=85d35529-d1d0-458f-b533-26d63f105ee7"},"vehicle_type_id":"4","last_reported":1702649226,"current_range_meters":17600,"station_id":"ce4bhg12rcd13ifvqf70","pricing_plan_id":"free"},{"bike_id":"233e4d84-6e5c-4e53-ae5b-241ab43f5062","system_id":"levelo_inurba_marseille","lat":43.26812,"lon":5.38927,"is_reserved":false,"is_disabled":false,"rental_uris":{"android":"levelo://app?vid=233e4d84-6e5c-4e53-ae5b-241ab43f5062","ios":"levelo://app?vid=233e4d84-6e5c-4e53-ae5b-241ab43f5062"},"vehicle_type_id":"4","last_reported":1702649226,"current_range_meters":4000,"station_id":"","pricing_plan_id":"free"},{"bike_id":"b6935412-31e1-41e1-a689-17c96605e87c","system_id":"levelo_inurba_marseille","lat":43.27996,"lon":5.416624,"is_reserved":false,"is_disabled":false,"rental_uris":{"android":"levelo://app?vid=b6935412-31e1-41e1-a689-17c96605e87c","ios":"levelo://app?vid=b6935412-31e1-41e1-a689-17c96605e87c"},"vehicle_type_id":"4","last_reported":1702649226,"current_range_meters":25200,"station_id":"ce4bho12rcd13ifvqh1g","pricing_plan_id":"free"},{"bike_id":"0d413430-92c8-414d-bf50-e2da0eb11ff6","system_id":"levelo_inurba_marseille","lat":43.267966,"lon":5.393976,"is_reserved":false,"is_disabled":false,"rental_uris":{"android":"levelo://app?vid=0d413430-92c8-414d-bf50-e2da0eb11ff6","ios":"levelo://app?vid=0d413430-92c8-414d-bf50-e2da0eb11ff6"},"vehicle_type_id":"4","last_reported":1702649226,"current_range_meters":10000,"station_id":"ce4bhh12rcd13ifvqfg0","pricing_plan_id":"free"},{"bike_id":"bf8f5dd4-d4c1-4c31-bc36-7cf3cb3b2851","system_id":"levelo_inurba_marseille","lat":43.2656,"lon":5.39018,"is_reserved":false,"is_disabled":false,"rental_uris":{"android":"levelo://app?vid=bf8f5dd4-d4c1-4c31-bc36-7cf3cb3b2851","ios":"levelo://app?vid=bf8f5dd4-d4c1-4c31-bc36-7cf3cb3b2851"},"vehicle_type_id":"4","last_reported":1702649226,"current_range_meters":9200,"station_id":"ce4bhe12rcd13ifvqf30","pricing_plan_id":"free"},{"bike_id":"f95ff617-ec60-406a-8c0f-4886f88b641f","system_id":"levelo_inurba_marseille","lat":43.26949,"lon":5.40262,"is_reserved":false,"is_disabled":false,"rental_uris":{"android":"levelo://app?vid=f95ff617-ec60-406a-8c0f-4886f88b641f","ios":"levelo://app?vid=f95ff617-ec60-406a-8c0f-4886f88b641f"},"vehicle_type_id":"4","last_reported":1702649226,"current_range_meters":25200,"station_id":"cjm6bp8fraef2m0cb0m0","pricing_plan_id":"free"},{"bike_id":"3652688a-0213-4356-ba0d-3dbd7095da77","system_id":"levelo_inurba_marseille","lat":43.261865,"lon":5.374452,"is_reserved":false,"is_disabled":false,"rental_uris":{"android":"levelo://app?vid=3652688a-0213-4356-ba0d-3dbd7095da77","ios":"levelo://app?vid=3652688a-0213-4356-ba0d-3dbd7095da77"},"vehicle_type_id":"4","last_reported":1702649226,"current_range_meters":1600,"station_id":"","pricing_plan_id":"free"},{"bike_id":"28bc9fc0-e13c-4149-8180-51b78c1a19fc","system_id":"levelo_inurba_marseille","lat":43.261782,"lon":5.374515,"is_reserved":false,"is_disabled":false,"rental_uris":{"android":"levelo://app?vid=28bc9fc0-e13c-4149-8180-51b78c1a19fc","ios":"levelo://app?vid=28bc9fc0-e13c-4149-8180-51b78c1a19fc"},"vehicle_type_id":"4","last_reported":1702649226,"current_range_meters":12400,"station_id":"ce4bhgp2rcd13ifvqfc0","pricing_plan_id":"free"},{"bike_id":"756d9af0-f6ee-442d-b086-e291603e6255","system_id":"levelo_inurba_marseille","lat":43.26202,"lon":5.379299,"is_reserved":false,"is_disabled":false,"rental_uris":{"android":"levelo://app?vid=756d9af0-f6ee-442d-b086-e291603e6255","ios":"levelo://app?vid=756d9af0-f6ee-442d-b086-e291603e6255"},"vehicle_type_id":"4","last_reported":1702649226,"current_range_meters":26800,"station_id":"ce4bhjp2rcd13ifvqg90","pricing_plan_id":"free"},{"bike_id":"5d3f594c-9b0e-418e-807f-31b01190d134","system_id":"levelo_inurba_marseille","lat":43.28994,"lon":5.43051,"is_reserved":false,"is_disabled":false,"rental_uris":{"android":"levelo://app?vid=5d3f594c-9b0e-418e-807f-31b01190d134","ios":"levelo://app?vid=5d3f594c-9b0e-418e-807f-31b01190d134"},"vehicle_type_id":"4","last_reported":1702649226,"current_range_meters":18000,"station_id":"","pricing_plan_id":"free"},{"bike_id":"458b6ceb-e0e8-449e-9d54-718ca1726bcf","system_id":"levelo_inurba_marseille","lat":43.271388,"lon":5.409269,"is_reserved":false,"is_disabled":false,"rental_uris":{"android":"levelo://app?vid=458b6ceb-e0e8-449e-9d54-718ca1726bcf","ios":"levelo://app?vid=458b6ceb-e0e8-449e-9d54-718ca1726bcf"},"vehicle_type_id":"4","last_reported":1702649226,"current_range_meters":31200,"station_id":"ce4bhl12rcd13ifvqgf0","pricing_plan_id":"free"},{"bike_id":"4f5e81de-99fa-45dd-8c6f-518136894451","system_id":"levelo_inurba_marseille","lat":43.267959,"lon":5.402687,"is_reserved":false,"is_disabled":false,"rental_uris":{"android":"levelo://app?vid=4f5e81de-99fa-45dd-8c6f-518136894451","ios":"levelo://app?vid=4f5e81de-99fa-45dd-8c6f-518136894451"},"vehicle_type_id":"4","last_reported":1702649226,"current_range_meters":30400,"station_id":"ce501612rcd8frsf0b60","pricing_plan_id":"free"},{"bike_id":"4510633c-6100-41ad-9855-e4f0def2a04e","system_id":"levelo_inurba_marseille","lat":43.29901,"lon":5.43665,"is_reserved":false,"is_disabled":false,"rental_uris":{"android":"levelo://app?vid=4510633c-6100-41ad-9855-e4f0def2a04e","ios":"levelo://app?vid=4510633c-6100-41ad-9855-e4f0def2a04e"},"vehicle_type_id":"4","last_reported":1702649226,"current_range_meters":19600,"station_id":"ce4bhpp2rcd13ifvqhfg","pricing_plan_id":"free"},{"bike_id":"630427f7-e730-4e0f-8688-7218f3a79974","system_id":"levelo_inurba_marseille","lat":43.260219,"lon":5.37546,"is_reserved":false,"is_disabled":false,"rental_uris":{"android":"levelo://app?vid=630427f7-e730-4e0f-8688-7218f3a79974","ios":"levelo://app?vid=630427f7-e730-4e0f-8688-7218f3a79974"},"vehicle_type_id":"4","last_reported":1702649226,"current_range_meters":21200,"station_id":"ce4bhgh2rcd13ifvqfa0","pricing_plan_id":"free"},{"bike_id":"e7158be3-94c5-48fc-94b5-9027884a80cf","system_id":"levelo_inurba_marseille","lat":43.260219,"lon":5.37546,"is_reserved":false,"is_disabled":false,"rental_uris":{"android":"levelo://app?vid=e7158be3-94c5-48fc-94b5-9027884a80cf","ios":"levelo://app?vid=e7158be3-94c5-48fc-94b5-9027884a80cf"},"vehicle_type_id":"4","last_reported":1702649226,"current_range_meters":14400,"station_id":"ce4bhgh2rcd13ifvqfa0","pricing_plan_id":"free"},{"bike_id":"4aa78966-3d76-4600-b8eb-de302916698d","system_id":"levelo_inurba_marseille","lat":43.2607,"lon":5.393983,"is_reserved":false,"is_disabled":false,"rental_uris":{"android":"levelo://app?vid=4aa78966-3d76-4600-b8eb-de302916698d","ios":"levelo://app?vid=4aa78966-3d76-4600-b8eb-de302916698d"},"vehicle_type_id":"4","last_reported":1702649226,"current_range_meters":23600,"station_id":"ce4bhh92rcd13ifvqfj0","pricing_plan_id":"free"},{"bike_id":"b05c99d1-dea1-48a1-98b5-594df4485c50","system_id":"levelo_inurba_marseille","lat":43.275028,"lon":5.424534,"is_reserved":false,"is_disabled":false,"rental_uris":{"android":"levelo://app?vid=b05c99d1-dea1-48a1-98b5-594df4485c50","ios":"levelo://app?vid=b05c99d1-dea1-48a1-98b5-594df4485c50"},"vehicle_type_id":"4","last_reported":1702649226,"current_range_meters":14800,"station_id":"ce4bhn92rcd13ifvqgrg","pricing_plan_id":"free"},{"bike_id":"aec449ad-230b-435d-a3b4-cc992316700d","system_id":"levelo_inurba_marseille","lat":43.258658,"lon":5.398935,"is_reserved":false,"is_disabled":false,"rental_uris":{"android":"levelo://app?vid=aec449ad-230b-435d-a3b4-cc992316700d","ios":"levelo://app?vid=aec449ad-230b-435d-a3b4-cc992316700d"},"vehicle_type_id":"4","last_reported":1702649226,"current_range_meters":23200,"station_id":"ce4bhl92rcd13ifvqghg","pricing_plan_id":"free"},{"bike_id":"9f2be9ac-5156-4917-ac32-77a822ce004c","system_id":"levelo_inurba_marseille","lat":43.258658,"lon":5.398935,"is_reserved":false,"is_disabled":false,"rental_uris":{"android":"levelo://app?vid=9f2be9ac-5156-4917-ac32-77a822ce004c","ios":"levelo://app?vid=9f2be9ac-5156-4917-ac32-77a822ce004c"},"vehicle_type_id":"4","last_reported":1702649226,"current_range_meters":27600,"station_id":"ce4bhl92rcd13ifvqghg","pricing_plan_id":"free"},{"bike_id":"6ac9f128-ddfa-4e31-a487-dd14c456b374","system_id":"levelo_inurba_marseille","lat":43.259009,"lon":5.40929,"is_reserved":false,"is_disabled":false,"rental_uris":{"android":"levelo://app?vid=6ac9f128-ddfa-4e31-a487-dd14c456b374","ios":"levelo://app?vid=6ac9f128-ddfa-4e31-a487-dd14c456b374"},"vehicle_type_id":"4","last_reported":1702649226,"current_range_meters":6800,"station_id":"ce4bhm92rcd13ifvqglg","pricing_plan_id":"free"},{"bike_id":"db140ae3-05d1-43cc-a7cb-19fe416166e3","system_id":"levelo_inurba_marseille","lat":43.25933,"lon":5.40911,"is_reserved":false,"is_disabled":false,"rental_uris":{"android":"levelo://app?vid=db140ae3-05d1-43cc-a7cb-19fe416166e3","ios":"levelo://app?vid=db140ae3-05d1-43cc-a7cb-19fe416166e3"},"vehicle_type_id":"4","last_reported":1702649226,"current_range_meters":10800,"station_id":"ce4bhm92rcd13ifvqglg","pricing_plan_id":"free"},{"bike_id":"b0f80740-e3e1-420c-9fab-1084f4861ab8","system_id":"levelo_inurba_marseille","lat":43.25933,"lon":5.40911,"is_reserved":false,"is_disabled":false,"rental_uris":{"android":"levelo://app?vid=b0f80740-e3e1-420c-9fab-1084f4861ab8","ios":"levelo://app?vid=b0f80740-e3e1-420c-9fab-1084f4861ab8"},"vehicle_type_id":"4","last_reported":1702649226,"current_range_meters":22400,"station_id":"ce4bhm92rcd13ifvqglg","pricing_plan_id":"free"},{"bike_id":"640714f5-618c-4118-bfeb-63a862712304","system_id":"levelo_inurba_marseille","lat":43.259009,"lon":5.40929,"is_reserved":false,"is_disabled":false,"rental_uris":{"android":"levelo://app?vid=640714f5-618c-4118-bfeb-63a862712304","ios":"levelo://app?vid=640714f5-618c-4118-bfeb-63a862712304"},"vehicle_type_id":"4","last_reported":1702649226,"current_range_meters":22000,"station_id":"ce4bhm92rcd13ifvqglg","pricing_plan_id":"free"},{"bike_id":"d28c65bc-d342-46f2-b902-a5cff4c69d91","system_id":"levelo_inurba_marseille","lat":43.2507,"lon":5.38816,"is_reserved":false,"is_disabled":false,"rental_uris":{"android":"levelo://app?vid=d28c65bc-d342-46f2-b902-a5cff4c69d91","ios":"levelo://app?vid=d28c65bc-d342-46f2-b902-a5cff4c69d91"},"vehicle_type_id":"4","last_reported":1702649226,"current_range_meters":12400,"station_id":"","pricing_plan_id":"free"},{"bike_id":"30f27992-ba7e-43f7-aa91-a4e7136a79eb","system_id":"levelo_inurba_marseille","lat":43.257079,"lon":5.411051,"is_reserved":false,"is_disabled":false,"rental_uris":{"android":"levelo://app?vid=30f27992-ba7e-43f7-aa91-a4e7136a79eb","ios":"levelo://app?vid=30f27992-ba7e-43f7-aa91-a4e7136a79eb"},"vehicle_type_id":"4","last_reported":1702649226,"current_range_meters":22400,"station_id":"ce4bhkp2rcd13ifvqgd0","pricing_plan_id":"free"},{"bike_id":"36055a51-5a34-47f1-96fe-daf072616fe9","system_id":"levelo_inurba_marseille","lat":43.257079,"lon":5.411051,"is_reserved":false,"is_disabled":false,"rental_uris":{"android":"levelo://app?vid=36055a51-5a34-47f1-96fe-daf072616fe9","ios":"levelo://app?vid=36055a51-5a34-47f1-96fe-daf072616fe9"},"vehicle_type_id":"4","last_reported":1702649226,"current_range_meters":23200,"station_id":"ce4bhkp2rcd13ifvqgd0","pricing_plan_id":"free"},{"bike_id":"04ae7f63-ffaf-4142-bc00-2f642009b15f","system_id":"levelo_inurba_marseille","lat":43.250009,"lon":5.389195,"is_reserved":false,"is_disabled":false,"rental_uris":{"android":"levelo://app?vid=04ae7f63-ffaf-4142-bc00-2f642009b15f","ios":"levelo://app?vid=04ae7f63-ffaf-4142-bc00-2f642009b15f"},"vehicle_type_id":"4","last_reported":1702649226,"current_range_meters":30000,"station_id":"ce4bhgp2rcd13ifvqfd0","pricing_plan_id":"free"},{"bike_id":"2c11c190-21ec-4203-b875-abfb481984fd","system_id":"levelo_inurba_marseille","lat":43.250023,"lon":5.38919,"is_reserved":false,"is_disabled":false,"rental_uris":{"android":"levelo://app?vid=2c11c190-21ec-4203-b875-abfb481984fd","ios":"levelo://app?vid=2c11c190-21ec-4203-b875-abfb481984fd"},"vehicle_type_id":"4","last_reported":1702649226,"current_range_meters":10800,"station_id":"ce4bhgp2rcd13ifvqfd0","pricing_plan_id":"free"},{"bike_id":"1fb7882f-5e9d-48c4-b9e2-b8d99c568ff0","system_id":"levelo_inurba_marseille","lat":43.2479,"lon":5.374457,"is_reserved":false,"is_disabled":false,"rental_uris":{"android":"levelo://app?vid=1fb7882f-5e9d-48c4-b9e2-b8d99c568ff0","ios":"levelo://app?vid=1fb7882f-5e9d-48c4-b9e2-b8d99c568ff0"},"vehicle_type_id":"4","last_reported":1702649226,"current_range_meters":30800,"station_id":"ce4bhgh2rcd13ifvqfb0","pricing_plan_id":"free"},{"bike_id":"3f67c8ae-edeb-47be-a0df-9dd2feebc7ba","system_id":"levelo_inurba_marseille","lat":43.2479,"lon":5.374457,"is_reserved":false,"is_disabled":false,"rental_uris":{"android":"levelo://app?vid=3f67c8ae-edeb-47be-a0df-9dd2feebc7ba","ios":"levelo://app?vid=3f67c8ae-edeb-47be-a0df-9dd2feebc7ba"},"vehicle_type_id":"4","last_reported":1702649226,"current_range_meters":23200,"station_id":"ce4bhgh2rcd13ifvqfb0","pricing_plan_id":"free"},{"bike_id":"cba238a8-08b0-46a1-9fbe-8a54aa9e8ef9","system_id":"levelo_inurba_marseille","lat":43.25102,"lon":5.403214,"is_reserved":false,"is_disabled":false,"rental_uris":{"android":"levelo://app?vid=cba238a8-08b0-46a1-9fbe-8a54aa9e8ef9","ios":"levelo://app?vid=cba238a8-08b0-46a1-9fbe-8a54aa9e8ef9"},"vehicle_type_id":"4","last_reported":1702649226,"current_range_meters":10400,"station_id":"ce4bhlh2rcd13ifvqgig","pricing_plan_id":"free"},{"bike_id":"fc90f639-d189-4d89-8476-2bed5bafc080","system_id":"levelo_inurba_marseille","lat":43.243884,"lon":5.370737,"is_reserved":false,"is_disabled":false,"rental_uris":{"android":"levelo://app?vid=fc90f639-d189-4d89-8476-2bed5bafc080","ios":"levelo://app?vid=fc90f639-d189-4d89-8476-2bed5bafc080"},"vehicle_type_id":"4","last_reported":1702649226,"current_range_meters":25600,"station_id":"ce4bhhh2rcd13ifvqfk0","pricing_plan_id":"free"},{"bike_id":"8eeee171-fe5f-4155-aca4-33366dd64596","system_id":"levelo_inurba_marseille","lat":43.245581,"lon":5.395069,"is_reserved":false,"is_disabled":false,"rental_uris":{"android":"levelo://app?vid=8eeee171-fe5f-4155-aca4-33366dd64596","ios":"levelo://app?vid=8eeee171-fe5f-4155-aca4-33366dd64596"},"vehicle_type_id":"4","last_reported":1702649226,"current_range_meters":27200,"station_id":"ce4bhlp2rcd13ifvqgjg","pricing_plan_id":"free"},{"bike_id":"8c112bac-5f5a-407d-8532-bc3c79605cd8","system_id":"levelo_inurba_marseille","lat":43.239588,"lon":5.366238,"is_reserved":false,"is_disabled":false,"rental_uris":{"android":"levelo://app?vid=8c112bac-5f5a-407d-8532-bc3c79605cd8","ios":"levelo://app?vid=8c112bac-5f5a-407d-8532-bc3c79605cd8"},"vehicle_type_id":"4","last_reported":1702649226,"current_range_meters":29200,"station_id":"ce4bhi12rcd13ifvqfp0","pricing_plan_id":"free"},{"bike_id":"ddc8afbb-a0e6-44a5-a496-5227a15afed7","system_id":"levelo_inurba_marseille","lat":43.239588,"lon":5.366238,"is_reserved":false,"is_disabled":false,"rental_uris":{"android":"levelo://app?vid=ddc8afbb-a0e6-44a5-a496-5227a15afed7","ios":"levelo://app?vid=ddc8afbb-a0e6-44a5-a496-5227a15afed7"},"vehicle_type_id":"4","last_reported":1702649226,"current_range_meters":30000,"station_id":"ce4bhi12rcd13ifvqfp0","pricing_plan_id":"free"},{"bike_id":"95c8a932-e26c-4c1a-9e1d-6067881604d9","system_id":"levelo_inurba_marseille","lat":43.239588,"lon":5.366238,"is_reserved":false,"is_disabled":false,"rental_uris":{"android":"levelo://app?vid=95c8a932-e26c-4c1a-9e1d-6067881604d9","ios":"levelo://app?vid=95c8a932-e26c-4c1a-9e1d-6067881604d9"},"vehicle_type_id":"4","last_reported":1702649226,"current_range_meters":28800,"station_id":"ce4bhi12rcd13ifvqfp0","pricing_plan_id":"free"},{"bike_id":"c48ea454-a24a-4afe-a818-744ca7d241da","system_id":"levelo_inurba_marseille","lat":43.239588,"lon":5.366238,"is_reserved":false,"is_disabled":false,"rental_uris":{"android":"levelo://app?vid=c48ea454-a24a-4afe-a818-744ca7d241da","ios":"levelo://app?vid=c48ea454-a24a-4afe-a818-744ca7d241da"},"vehicle_type_id":"4","last_reported":1702649226,"current_range_meters":0,"station_id":"ce4bhi12rcd13ifvqfp0","pricing_plan_id":"free"},{"bike_id":"1107bf4b-97fd-46d0-9616-e9b1aa05f68d","system_id":"levelo_inurba_marseille","lat":43.241782,"lon":5.397261,"is_reserved":false,"is_disabled":false,"rental_uris":{"android":"levelo://app?vid=1107bf4b-97fd-46d0-9616-e9b1aa05f68d","ios":"levelo://app?vid=1107bf4b-97fd-46d0-9616-e9b1aa05f68d"},"vehicle_type_id":"4","last_reported":1702649226,"current_range_meters":20000,"station_id":"ce4bhn12rcd13ifvqgpg","pricing_plan_id":"free"},{"bike_id":"f500303a-8ac6-445d-adc7-107959ea5aff","system_id":"levelo_inurba_marseille","lat":43.23196,"lon":5.35555,"is_reserved":false,"is_disabled":false,"rental_uris":{"android":"levelo://app?vid=f500303a-8ac6-445d-adc7-107959ea5aff","ios":"levelo://app?vid=f500303a-8ac6-445d-adc7-107959ea5aff"},"vehicle_type_id":"4","last_reported":1702649226,"current_range_meters":29600,"station_id":"ce4bhu92rcd13ifvqi70","pricing_plan_id":"free"},{"bike_id":"9117ba78-efb0-4f4b-992f-bae6baeaec6c","system_id":"levelo_inurba_marseille","lat":43.231919,"lon":5.355532,"is_reserved":false,"is_disabled":false,"rental_uris":{"android":"levelo://app?vid=9117ba78-efb0-4f4b-992f-bae6baeaec6c","ios":"levelo://app?vid=9117ba78-efb0-4f4b-992f-bae6baeaec6c"},"vehicle_type_id":"4","last_reported":1702649226,"current_range_meters":14000,"station_id":"ce4bhu92rcd13ifvqi70","pricing_plan_id":"free"},{"bike_id":"6159a088-b370-48df-b5da-9c5aafd142ff","system_id":"levelo_inurba_marseille","lat":43.231923,"lon":5.355545,"is_reserved":false,"is_disabled":false,"rental_uris":{"android":"levelo://app?vid=6159a088-b370-48df-b5da-9c5aafd142ff","ios":"levelo://app?vid=6159a088-b370-48df-b5da-9c5aafd142ff"},"vehicle_type_id":"4","last_reported":1702649226,"current_range_meters":7600,"station_id":"ce4bhu92rcd13ifvqi70","pricing_plan_id":"free"},{"bike_id":"0e924b74-307d-4e15-a720-7d8a2aa09be1","system_id":"levelo_inurba_marseille","lat":43.231919,"lon":5.355532,"is_reserved":false,"is_disabled":false,"rental_uris":{"android":"levelo://app?vid=0e924b74-307d-4e15-a720-7d8a2aa09be1","ios":"levelo://app?vid=0e924b74-307d-4e15-a720-7d8a2aa09be1"},"vehicle_type_id":"4","last_reported":1702649226,"current_range_meters":28000,"station_id":"ce4bhu92rcd13ifvqi70","pricing_plan_id":"free"},{"bike_id":"c1429ef9-64a4-4967-b791-1805b200879e","system_id":"levelo_inurba_marseille","lat":43.231923,"lon":5.355545,"is_reserved":false,"is_disabled":false,"rental_uris":{"android":"levelo://app?vid=c1429ef9-64a4-4967-b791-1805b200879e","ios":"levelo://app?vid=c1429ef9-64a4-4967-b791-1805b200879e"},"vehicle_type_id":"4","last_reported":1702649226,"current_range_meters":21600,"station_id":"ce4bhu92rcd13ifvqi70","pricing_plan_id":"free"},{"bike_id":"547672b1-18af-4711-b9a3-86e73cab70b4","system_id":"levelo_inurba_marseille","lat":43.23193,"lon":5.35552,"is_reserved":false,"is_disabled":false,"rental_uris":{"android":"levelo://app?vid=547672b1-18af-4711-b9a3-86e73cab70b4","ios":"levelo://app?vid=547672b1-18af-4711-b9a3-86e73cab70b4"},"vehicle_type_id":"4","last_reported":1702649226,"current_range_meters":20800,"station_id":"ce4bhu92rcd13ifvqi70","pricing_plan_id":"free"},{"bike_id":"160d3fcc-bd25-4280-b137-d9379b2a4d30","system_id":"levelo_inurba_marseille","lat":43.23192,"lon":5.35551,"is_reserved":false,"is_disabled":false,"rental_uris":{"android":"levelo://app?vid=160d3fcc-bd25-4280-b137-d9379b2a4d30","ios":"levelo://app?vid=160d3fcc-bd25-4280-b137-d9379b2a4d30"},"vehicle_type_id":"4","last_reported":1702649226,"current_range_meters":19200,"station_id":"ce4bhu92rcd13ifvqi70","pricing_plan_id":"free"},{"bike_id":"1c152701-4b2a-4bae-9910-af52ecb96d7d","system_id":"levelo_inurba_marseille","lat":43.23192,"lon":5.35543,"is_reserved":false,"is_disabled":false,"rental_uris":{"android":"levelo://app?vid=1c152701-4b2a-4bae-9910-af52ecb96d7d","ios":"levelo://app?vid=1c152701-4b2a-4bae-9910-af52ecb96d7d"},"vehicle_type_id":"4","last_reported":1702649226,"current_range_meters":15600,"station_id":"ce4bhu92rcd13ifvqi70","pricing_plan_id":"free"},{"bike_id":"5c56cc11-c1ca-430f-b898-95a1151d8a21","system_id":"levelo_inurba_marseille","lat":43.23191,"lon":5.35547,"is_reserved":false,"is_disabled":false,"rental_uris":{"android":"levelo://app?vid=5c56cc11-c1ca-430f-b898-95a1151d8a21","ios":"levelo://app?vid=5c56cc11-c1ca-430f-b898-95a1151d8a21"},"vehicle_type_id":"4","last_reported":1702649226,"current_range_meters":27200,"station_id":"ce4bhu92rcd13ifvqi70","pricing_plan_id":"free"},{"bike_id":"81e904a9-3da5-429d-9d59-11820eabd019","system_id":"levelo_inurba_marseille","lat":43.231919,"lon":5.355532,"is_reserved":false,"is_disabled":false,"rental_uris":{"android":"levelo://app?vid=81e904a9-3da5-429d-9d59-11820eabd019","ios":"levelo://app?vid=81e904a9-3da5-429d-9d59-11820eabd019"},"vehicle_type_id":"4","last_reported":1702649226,"current_range_meters":30800,"station_id":"ce4bhu92rcd13ifvqi70","pricing_plan_id":"free"},{"bike_id":"d657bd16-ddba-486a-8e03-61a1863435fa","system_id":"levelo_inurba_marseille","lat":43.231794,"lon":5.400052,"is_reserved":false,"is_disabled":false,"rental_uris":{"android":"levelo://app?vid=d657bd16-ddba-486a-8e03-61a1863435fa","ios":"levelo://app?vid=d657bd16-ddba-486a-8e03-61a1863435fa"},"vehicle_type_id":"4","last_reported":1702649226,"current_range_meters":31200,"station_id":"ce4bhn12rcd13ifvqgqg","pricing_plan_id":"free"},{"bike_id":"cab54a8b-8c2b-4907-9642-4192bb0aa817","system_id":"levelo_inurba_marseille","lat":43.231793,"lon":5.400044,"is_reserved":false,"is_disabled":false,"rental_uris":{"android":"levelo://app?vid=cab54a8b-8c2b-4907-9642-4192bb0aa817","ios":"levelo://app?vid=cab54a8b-8c2b-4907-9642-4192bb0aa817"},"vehicle_type_id":"4","last_reported":1702649226,"current_range_meters":24000,"station_id":"ce4bhn12rcd13ifvqgqg","pricing_plan_id":"free"},{"bike_id":"9ea1be43-fefe-4b43-a11d-aef0c1b7e1e5","system_id":"levelo_inurba_marseille","lat":43.231794,"lon":5.400052,"is_reserved":false,"is_disabled":false,"rental_uris":{"android":"levelo://app?vid=9ea1be43-fefe-4b43-a11d-aef0c1b7e1e5","ios":"levelo://app?vid=9ea1be43-fefe-4b43-a11d-aef0c1b7e1e5"},"vehicle_type_id":"4","last_reported":1702649226,"current_range_meters":30400,"station_id":"ce4bhn12rcd13ifvqgqg","pricing_plan_id":"free"},{"bike_id":"00c445cb-0138-4348-9c79-227e92a5a936","system_id":"levelo_inurba_marseille","lat":43.2315,"lon":5.43717,"is_reserved":false,"is_disabled":false,"rental_uris":{"android":"levelo://app?vid=00c445cb-0138-4348-9c79-227e92a5a936","ios":"levelo://app?vid=00c445cb-0138-4348-9c79-227e92a5a936"},"vehicle_type_id":"4","last_reported":1702649226,"current_range_meters":13200,"station_id":"ce4bhmp2rcd13ifvqgog","pricing_plan_id":"free"}]}}