{"last_updated":1731323254,"ttl":60,"version":"2.2","data":{"bikes":[{"bike_id":"721fbd53-b0c5-4b4d-8347-51c88d10df20","system_id":"levelo_inurba_marseille","lat":43.24807,"lon":5.37451,"is_reserved":false,"is_disabled":false,"rental_uris":{"android":"levelo://app?vid=721fbd53-b0c5-4b4d-8347-51c88d10df20","ios":"levelo://app?vid=721fbd53-b0c5-4b4d-8347-51c88d10df20"},"vehicle_type_id":"4","last_reported":1731323254,"current_range_meters":36400,"station_id":"ce4bhgh2rcd13ifvqfb0","pricing_plan_id":"cebpf4jnsgd1na2vs0mg"},{"bike_id":"55f338da-564d-4339-bcb5-5d0a4b68c4e6","system_id":"levelo_inurba_marseille","lat":43.31067,"lon":5.40092,"is_reserved":false,"is_disabled":false,"rental_uris":{"android":"levelo://app?vid=55f338da-564d-4339-bcb5-5d0a4b68c4e6","ios":"levelo://app?vid=55f338da-564d-4339-bcb5-5d0a4b68c4e6"},"vehicle_type_id":"4","last_reported":1731323254,"current_range_meters":5600,"station_id":"","pricing_plan_id":"cebpf4jnsgd1na2vs0mg"},{"bike_id":"c53d3702-81f6-4381-b998-2f654d36886a","system_id":"levelo_inurba_marseille","lat":43.28259,"lon":5.35065,"is_reserved":false,"is_disabled":false,"rental_uris":{"android":"levelo://app?vid=c53d3702-81f6-4381-b998-2f654d36886a","ios":"levelo://app?vid=c53d3702-81f6-4381-b998-2f654d36886a"},"vehicle_type_id":"4","last_reported":1731323254,"current_range_meters":28800,"station_id":"ce4bhbp2rcd13ifvqerg","pricing_plan_id":"cebpf4jnsgd1na2vs0mg"},{"bike_id":"99018ac9-c2a2-4cb6-a769-f8628271ce5d","system_id":"levelo_inurba_marseille","lat":43.25003,"lon":5.38928,"is_reserved":false,"is_disabled":false,"rental_uris":{"android":"levelo://app?vid=99018ac9-c2a2-4cb6-a769-f8628271ce5d","ios":"levelo://app?vid=99018ac9-c2a2-4cb6-a769-f8628271ce5d"},"vehicle_type_id":"4","last_reported":1731323254,"current_range_meters":34000,"station_id":"ce4bhgp2rcd13ifvqfd0","pricing_plan_id":"cebpf4jnsgd1na2vs0mg"},{"bike_id":"799c57a5-480b-45b1-8c6f-37c8415a7992","system_id":"levelo_inurba_marseille","lat":43.29941,"lon":5.36548,"is_reserved":false,"is_disabled":false,"rental_uris":{"android":"levelo://app?vid=799c57a5-480b-45b1-8c6f-37c8415a7992","ios":"levelo://app?vid=799c57a5-480b-45b1-8c6f-37c8415a7992"},"vehicle_type_id":"4","last_reported":1731323254,"current_range_meters":38800,"station_id":"ce4bgm92rcd13ifvqbr0","pricing_plan_id":"cebpf4jnsgd1na2vs0mg"},{"bike_id":"4fef4701-0d86-4e0c-9971-790a51913c3c","system_id":"levelo_inurba_marseille","lat":43.23192,"lon":5.39989,"is_reserved":false,"is_disabled":false,"rental_uris":{"android":"levelo://app?vid=4fef4701-0d86-4e0c-9971-790a51913c3c","ios":"levelo://app?vid=4fef4701-0d86-4e0c-9971-790a51913c3c"},"vehicle_type_id":"4","last_reported":1731323254,"current_range_meters":14400,"station_id":"ce4bhn12rcd13ifvqgqg","pricing_plan_id":"cebpf4jnsgd1na2vs0mg"},{"bike_id":"5daf7e81-adca-4c69-ac49-7439dac41928","system_id":"levelo_inurba_marseille","lat":43.29552,"lon":5.42285,"is_reserved":false,"is_disabled":false,"rental_uris":{"android":"levelo://app?vid=5daf7e81-adca-4c69-ac49-7439dac41928","ios":"levelo://app?vid=5daf7e81-adca-4c69-ac49-7439dac41928"},"vehicle_type_id":"4","last_reported":1731323254,"current_range_meters":38400,"station_id":"ce4bhph2rcd13ifvqhdg","pricing_plan_id":"cebpf4jnsgd1na2vs0mg"},{"bike_id":"a07d3715-191d-4818-8627-5ef4575f62dd","system_id":"levelo_inurba_marseille","lat":43.2998,"lon":5.37179,"is_reserved":false,"is_disabled":false,"rental_uris":{"android":"levelo://app?vid=a07d3715-191d-4818-8627-5ef4575f62dd","ios":"levelo://app?vid=a07d3715-191d-4818-8627-5ef4575f62dd"},"vehicle_type_id":"4","last_reported":1731323254,"current_range_meters":39200,"station_id":"ce4bgr92rcd13ifvqc7g","pricing_plan_id":"cebpf4jnsgd1na2vs0mg"},{"bike_id":"38fe4533-648b-464d-af35-88f6e9c85b52","system_id":"levelo_inurba_marseille","lat":43.25869,"lon":5.39902,"is_reserved":false,"is_disabled":false,"rental_uris":{"android":"levelo://app?vid=38fe4533-648b-464d-af35-88f6e9c85b52","ios":"levelo://app?vid=38fe4533-648b-464d-af35-88f6e9c85b52"},"vehicle_type_id":"4","last_reported":1731323254,"current_range_meters":28800,"station_id":"ce4bhl92rcd13ifvqghg","pricing_plan_id":"cebpf4jnsgd1na2vs0mg"},{"bike_id":"b0436c84-a4da-4a3d-a57d-7a1a7366a2ae","system_id":"levelo_inurba_marseille","lat":43.28005,"lon":5.40003,"is_reserved":false,"is_disabled":false,"rental_uris":{"android":"levelo://app?vid=b0436c84-a4da-4a3d-a57d-7a1a7366a2ae","ios":"levelo://app?vid=b0436c84-a4da-4a3d-a57d-7a1a7366a2ae"},"vehicle_type_id":"4","last_reported":1731323254,"current_range_meters":38400,"station_id":"ce4bho92rcd13ifvqh4g","pricing_plan_id":"cebpf4jnsgd1na2vs0mg"},{"bike_id":"c5fbc992-37e6-4bc3-b7bf-85d16a572268","system_id":"levelo_inurba_marseille","lat":43.26202,"lon":5.37931,"is_reserved":false,"is_disabled":false,"rental_uris":{"android":"levelo://app?vid=c5fbc992-37e6-4bc3-b7bf-85d16a572268","ios":"levelo://app?vid=c5fbc992-37e6-4bc3-b7bf-85d16a572268"},"vehicle_type_id":"4","last_reported":1731323254,"current_range_meters":30000,"station_id":"ce4bhjp2rcd13ifvqg90","pricing_plan_id":"cebpf4jnsgd1na2vs0mg"},{"bike_id":"6d0d5526-2b6c-4eee-93d6-42c07dbe7b80","system_id":"levelo_inurba_marseille","lat":43.25502,"lon":5.37651,"is_reserved":false,"is_disabled":false,"rental_uris":{"android":"levelo://app?vid=6d0d5526-2b6c-4eee-93d6-42c07dbe7b80","ios":"levelo://app?vid=6d0d5526-2b6c-4eee-93d6-42c07dbe7b80"},"vehicle_type_id":"4","last_reported":1731323254,"current_range_meters":38800,"station_id":"ce4bhh12rcd13ifvqff0","pricing_plan_id":"cebpf4jnsgd1na2vs0mg"},{"bike_id":"74e108c5-7ac1-4be4-9da0-0a8cd9518f6e","system_id":"levelo_inurba_marseille","lat":43.301538,"lon":5.380867,"is_reserved":false,"is_disabled":false,"rental_uris":{"android":"levelo://app?vid=74e108c5-7ac1-4be4-9da0-0a8cd9518f6e","ios":"levelo://app?vid=74e108c5-7ac1-4be4-9da0-0a8cd9518f6e"},"vehicle_type_id":"4","last_reported":1731323254,"current_range_meters":11600,"station_id":"ce4bgjp2rcd13ifvqbh0","pricing_plan_id":"cebpf4jnsgd1na2vs0mg"},{"bike_id":"e43a5e0f-0485-493b-bc1a-9216f5988eb3","system_id":"levelo_inurba_marseille","lat":43.31219,"lon":5.36856,"is_reserved":false,"is_disabled":false,"rental_uris":{"android":"levelo://app?vid=e43a5e0f-0485-493b-bc1a-9216f5988eb3","ios":"levelo://app?vid=e43a5e0f-0485-493b-bc1a-9216f5988eb3"},"vehicle_type_id":"4","last_reported":1731323254,"current_range_meters":35200,"station_id":"ce4bgl92rcd13ifvqbq0","pricing_plan_id":"cebpf4jnsgd1na2vs0mg"},{"bike_id":"e01c4be5-4087-488f-8cc7-72e0b228c508","system_id":"levelo_inurba_marseille","lat":43.28266,"lon":5.35064,"is_reserved":false,"is_disabled":false,"rental_uris":{"android":"levelo://app?vid=e01c4be5-4087-488f-8cc7-72e0b228c508","ios":"levelo://app?vid=e01c4be5-4087-488f-8cc7-72e0b228c508"},"vehicle_type_id":"4","last_reported":1731323254,"current_range_meters":24000,"station_id":"ce4bhbp2rcd13ifvqerg","pricing_plan_id":"cebpf4jnsgd1na2vs0mg"},{"bike_id":"e190c251-c1a2-4778-a47b-9401734e23d6","system_id":"levelo_inurba_marseille","lat":43.26782,"lon":5.39413,"is_reserved":false,"is_disabled":false,"rental_uris":{"android":"levelo://app?vid=e190c251-c1a2-4778-a47b-9401734e23d6","ios":"levelo://app?vid=e190c251-c1a2-4778-a47b-9401734e23d6"},"vehicle_type_id":"4","last_reported":1731323254,"current_range_meters":36000,"station_id":"ce4bhh12rcd13ifvqfg0","pricing_plan_id":"cebpf4jnsgd1na2vs0mg"},{"bike_id":"9919db7a-8b4f-4220-becb-f54e10b5b1b8","system_id":"levelo_inurba_marseille","lat":43.23058,"lon":5.35492,"is_reserved":false,"is_disabled":false,"rental_uris":{"android":"levelo://app?vid=9919db7a-8b4f-4220-becb-f54e10b5b1b8","ios":"levelo://app?vid=9919db7a-8b4f-4220-becb-f54e10b5b1b8"},"vehicle_type_id":"4","last_reported":1731323254,"current_range_meters":36800,"station_id":"cpo3342slgdg3j2ifvpg","pricing_plan_id":"cebpf4jnsgd1na2vs0mg"},{"bike_id":"bb785616-26a0-4eb0-931b-17957df5cea3","system_id":"levelo_inurba_marseille","lat":43.29556,"lon":5.42291,"is_reserved":false,"is_disabled":false,"rental_uris":{"android":"levelo://app?vid=bb785616-26a0-4eb0-931b-17957df5cea3","ios":"levelo://app?vid=bb785616-26a0-4eb0-931b-17957df5cea3"},"vehicle_type_id":"4","last_reported":1731323254,"current_range_meters":38800,"station_id":"ce4bhph2rcd13ifvqhdg","pricing_plan_id":"cebpf4jnsgd1na2vs0mg"},{"bike_id":"1ec31f50-d96c-47c6-9806-96f227089cd4","system_id":"levelo_inurba_marseille","lat":43.27491,"lon":5.42449,"is_reserved":false,"is_disabled":false,"rental_uris":{"android":"levelo://app?vid=1ec31f50-d96c-47c6-9806-96f227089cd4","ios":"levelo://app?vid=1ec31f50-d96c-47c6-9806-96f227089cd4"},"vehicle_type_id":"4","last_reported":1731323254,"current_range_meters":37600,"station_id":"ce4bhn92rcd13ifvqgrg","pricing_plan_id":"cebpf4jnsgd1na2vs0mg"},{"bike_id":"2e615b9f-6908-489d-89ae-ceb9f8fe9221","system_id":"levelo_inurba_marseille","lat":43.30142,"lon":5.37424,"is_reserved":false,"is_disabled":false,"rental_uris":{"android":"levelo://app?vid=2e615b9f-6908-489d-89ae-ceb9f8fe9221","ios":"levelo://app?vid=2e615b9f-6908-489d-89ae-ceb9f8fe9221"},"vehicle_type_id":"4","last_reported":1731323254,"current_range_meters":38800,"station_id":"ce4bgs92rcd13ifvqcc0","pricing_plan_id":"cebpf4jnsgd1na2vs0mg"},{"bike_id":"2ee32fd1-f8f7-4cea-a813-14501e29cb92","system_id":"levelo_inurba_marseille","lat":43.31706,"lon":5.43709,"is_reserved":false,"is_disabled":false,"rental_uris":{"android":"levelo://app?vid=2ee32fd1-f8f7-4cea-a813-14501e29cb92","ios":"levelo://app?vid=2ee32fd1-f8f7-4cea-a813-14501e29cb92"},"vehicle_type_id":"4","last_reported":1731323254,"current_range_meters":36800,"station_id":"ce4bhp92rcd13ifvqhcg","pricing_plan_id":"cebpf4jnsgd1na2vs0mg"},{"bike_id":"2d34e423-bb55-4544-8a2c-59861c4ab1c5","system_id":"levelo_inurba_marseille","lat":43.28402,"lon":5.37511,"is_reserved":false,"is_disabled":false,"rental_uris":{"android":"levelo://app?vid=2d34e423-bb55-4544-8a2c-59861c4ab1c5","ios":"levelo://app?vid=2d34e423-bb55-4544-8a2c-59861c4ab1c5"},"vehicle_type_id":"4","last_reported":1731323254,"current_range_meters":28800,"station_id":"ce4bh412rcd13ifvqds0","pricing_plan_id":"cebpf4jnsgd1na2vs0mg"},{"bike_id":"8b949a42-149c-4b95-8499-b2f5cd111d1a","system_id":"levelo_inurba_marseille","lat":43.32343,"lon":5.40614,"is_reserved":false,"is_disabled":false,"rental_uris":{"android":"levelo://app?vid=8b949a42-149c-4b95-8499-b2f5cd111d1a","ios":"levelo://app?vid=8b949a42-149c-4b95-8499-b2f5cd111d1a"},"vehicle_type_id":"4","last_reported":1731323254,"current_range_meters":7200,"station_id":"ce4bhq92rcd13ifvqhjg","pricing_plan_id":"cebpf4jnsgd1na2vs0mg"},{"bike_id":"f5d0728e-c2a6-4853-a678-5aab097c4db3","system_id":"levelo_inurba_marseille","lat":43.28105,"lon":5.37832,"is_reserved":false,"is_disabled":false,"rental_uris":{"android":"levelo://app?vid=f5d0728e-c2a6-4853-a678-5aab097c4db3","ios":"levelo://app?vid=f5d0728e-c2a6-4853-a678-5aab097c4db3"},"vehicle_type_id":"4","last_reported":1731323254,"current_range_meters":27600,"station_id":"ce4bha12rcd13ifvqee0","pricing_plan_id":"cebpf4jnsgd1na2vs0mg"},{"bike_id":"504107e1-b958-483c-880e-16213edb01f2","system_id":"levelo_inurba_marseille","lat":43.25575,"lon":5.38229,"is_reserved":false,"is_disabled":false,"rental_uris":{"android":"levelo://app?vid=504107e1-b958-483c-880e-16213edb01f2","ios":"levelo://app?vid=504107e1-b958-483c-880e-16213edb01f2"},"vehicle_type_id":"4","last_reported":1731323254,"current_range_meters":20400,"station_id":"ce4bhih2rcd13ifvqfs0","pricing_plan_id":"cebpf4jnsgd1na2vs0mg"},{"bike_id":"0448c062-1b7c-4d5e-9a19-e85cd883f589","system_id":"levelo_inurba_marseille","lat":43.29916,"lon":5.3747,"is_reserved":false,"is_disabled":false,"rental_uris":{"android":"levelo://app?vid=0448c062-1b7c-4d5e-9a19-e85cd883f589","ios":"levelo://app?vid=0448c062-1b7c-4d5e-9a19-e85cd883f589"},"vehicle_type_id":"4","last_reported":1731323254,"current_range_meters":26800,"station_id":"ce4bgjh2rcd13ifvqbg0","pricing_plan_id":"cebpf4jnsgd1na2vs0mg"},{"bike_id":"9f440e3d-aef8-4e7a-aa25-f1770b25f168","system_id":"levelo_inurba_marseille","lat":43.29294,"lon":5.37465,"is_reserved":false,"is_disabled":false,"rental_uris":{"android":"levelo://app?vid=9f440e3d-aef8-4e7a-aa25-f1770b25f168","ios":"levelo://app?vid=9f440e3d-aef8-4e7a-aa25-f1770b25f168"},"vehicle_type_id":"4","last_reported":1731323254,"current_range_meters":31200,"station_id":"ce4bgi12rcd13ifvqb70","pricing_plan_id":"cebpf4jnsgd1na2vs0mg"},{"bike_id":"d3e5df87-ca60-4ef0-824c-537838e5094e","system_id":"levelo_inurba_marseille","lat":43.30529,"lon":5.36701,"is_reserved":false,"is_disabled":false,"rental_uris":{"android":"levelo://app?vid=d3e5df87-ca60-4ef0-824c-537838e5094e","ios":"levelo://app?vid=d3e5df87-ca60-4ef0-824c-537838e5094e"},"vehicle_type_id":"4","last_reported":1731323254,"current_range_meters":37600,"station_id":"ce4bgrp2rcd13ifvqc9g","pricing_plan_id":"cebpf4jnsgd1na2vs0mg"},{"bike_id":"9b3427b5-8835-4521-9768-5d8a9529e3ab","system_id":"levelo_inurba_marseille","lat":43.25497,"lon":5.37651,"is_reserved":false,"is_disabled":false,"rental_uris":{"android":"levelo://app?vid=9b3427b5-8835-4521-9768-5d8a9529e3ab","ios":"levelo://app?vid=9b3427b5-8835-4521-9768-5d8a9529e3ab"},"vehicle_type_id":"4","last_reported":1731323254,"current_range_meters":39200,"station_id":"ce4bhh12rcd13ifvqff0","pricing_plan_id":"cebpf4jnsgd1na2vs0mg"},{"bike_id":"01df0911-efd4-4ffc-a096-97c78c71f1ba","system_id":"levelo_inurba_marseille","lat":43.296906,"lon":5.374594,"is_reserved":false,"is_disabled":false,"rental_uris":{"android":"levelo://app?vid=01df0911-efd4-4ffc-a096-97c78c71f1ba","ios":"levelo://app?vid=01df0911-efd4-4ffc-a096-97c78c71f1ba"},"vehicle_type_id":"4","last_reported":1731323254,"current_range_meters":36800,"station_id":"ce4bgop2rcd13ifvqc1g","pricing_plan_id":"cebpf4jnsgd1na2vs0mg"},{"bike_id":"bd2ad73c-7a9a-4dd2-92f6-ef8a1b15ea47","system_id":"levelo_inurba_marseille","lat":43.29374,"lon":5.37268,"is_reserved":false,"is_disabled":false,"rental_uris":{"android":"levelo://app?vid=bd2ad73c-7a9a-4dd2-92f6-ef8a1b15ea47","ios":"levelo://app?vid=bd2ad73c-7a9a-4dd2-92f6-ef8a1b15ea47"},"vehicle_type_id":"4","last_reported":1731323254,"current_range_meters":34800,"station_id":"ce4bhbh2rcd13ifvqepg","pricing_plan_id":"cebpf4jnsgd1na2vs0mg"},{"bike_id":"b81ee9db-87fc-45da-a598-7bae9bbe6aed","system_id":"levelo_inurba_marseille","lat":43.27173,"lon":5.40994,"is_reserved":false,"is_disabled":false,"rental_uris":{"android":"levelo://app?vid=b81ee9db-87fc-45da-a598-7bae9bbe6aed","ios":"levelo://app?vid=b81ee9db-87fc-45da-a598-7bae9bbe6aed"},"vehicle_type_id":"4","last_reported":1731323254,"current_range_meters":29600,"station_id":"ce4bhl12rcd13ifvqgf0","pricing_plan_id":"cebpf4jnsgd1na2vs0mg"},{"bike_id":"3fcbfdbc-1ea5-49cd-aec3-4e1bfaa4b761","system_id":"levelo_inurba_marseille","lat":43.30481,"lon":5.37912,"is_reserved":false,"is_disabled":false,"rental_uris":{"android":"levelo://app?vid=3fcbfdbc-1ea5-49cd-aec3-4e1bfaa4b761","ios":"levelo://app?vid=3fcbfdbc-1ea5-49cd-aec3-4e1bfaa4b761"},"vehicle_type_id":"4","last_reported":1731323254,"current_range_meters":38400,"station_id":"ce4bgup2rcd13ifvqcn0","pricing_plan_id":"cebpf4jnsgd1na2vs0mg"},{"bike_id":"f669496d-fae4-44fd-8a51-586e76ca89f8","system_id":"levelo_inurba_marseille","lat":43.23195,"lon":5.35555,"is_reserved":false,"is_disabled":false,"rental_uris":{"android":"levelo://app?vid=f669496d-fae4-44fd-8a51-586e76ca89f8","ios":"levelo://app?vid=f669496d-fae4-44fd-8a51-586e76ca89f8"},"vehicle_type_id":"4","last_reported":1731323254,"current_range_meters":16400,"station_id":"ce4bhu92rcd13ifvqi70","pricing_plan_id":"cebpf4jnsgd1na2vs0mg"},{"bike_id":"333a8fd1-0af5-4d2d-8e99-f8610bc57a84","system_id":"levelo_inurba_marseille","lat":43.2396,"lon":5.36639,"is_reserved":false,"is_disabled":false,"rental_uris":{"android":"levelo://app?vid=333a8fd1-0af5-4d2d-8e99-f8610bc57a84","ios":"levelo://app?vid=333a8fd1-0af5-4d2d-8e99-f8610bc57a84"},"vehicle_type_id":"4","last_reported":1731323254,"current_range_meters":10800,"station_id":"ce4bhi12rcd13ifvqfp0","pricing_plan_id":"cebpf4jnsgd1na2vs0mg"},{"bike_id":"caa4ebb5-3a21-48d5-9d02-42556976ddfa","system_id":"levelo_inurba_marseille","lat":43.26803,"lon":5.40267,"is_reserved":false,"is_disabled":false,"rental_uris":{"android":"levelo://app?vid=caa4ebb5-3a21-48d5-9d02-42556976ddfa","ios":"levelo://app?vid=caa4ebb5-3a21-48d5-9d02-42556976ddfa"},"vehicle_type_id":"4","last_reported":1731323254,"current_range_meters":19600,"station_id":"ce501612rcd8frsf0b60","pricing_plan_id":"cebpf4jnsgd1na2vs0mg"},{"bike_id":"1b801f9e-f843-4459-baf9-f66996adf626","system_id":"levelo_inurba_marseille","lat":43.32363,"lon":5.38875,"is_reserved":false,"is_disabled":false,"rental_uris":{"android":"levelo://app?vid=1b801f9e-f843-4459-baf9-f66996adf626","ios":"levelo://app?vid=1b801f9e-f843-4459-baf9-f66996adf626"},"vehicle_type_id":"4","last_reported":1731323254,"current_range_meters":19600,"station_id":"ce4bhqp2rcd13ifvqhog","pricing_plan_id":"cebpf4jnsgd1na2vs0mg"},{"bike_id":"f2f2ad49-af25-4b8e-8e5a-253d5f2d2ed5","system_id":"levelo_inurba_marseille","lat":43.28411,"lon":5.34982,"is_reserved":false,"is_disabled":false,"rental_uris":{"android":"levelo://app?vid=f2f2ad49-af25-4b8e-8e5a-253d5f2d2ed5","ios":"levelo://app?vid=f2f2ad49-af25-4b8e-8e5a-253d5f2d2ed5"},"vehicle_type_id":"4","last_reported":1731323254,"current_range_meters":32000,"station_id":"ce4bhbh2rcd13ifvqepg","pricing_plan_id":"cebpf4jnsgd1na2vs0mg"},{"bike_id":"2972f759-c98e-4fe7-9758-85d215895273","system_id":"levelo_inurba_marseille","lat":43.23958,"lon":5.36622,"is_reserved":false,"is_disabled":false,"rental_uris":{"android":"levelo://app?vid=2972f759-c98e-4fe7-9758-85d215895273","ios":"levelo://app?vid=2972f759-c98e-4fe7-9758-85d215895273"},"vehicle_type_id":"4","last_reported":1731323254,"current_range_meters":30800,"station_id":"ce4bhi12rcd13ifvqfp0","pricing_plan_id":"cebpf4jnsgd1na2vs0mg"},{"bike_id":"7caca810-d26c-40aa-88d0-45d5685da385","system_id":"levelo_inurba_marseille","lat":43.2707,"lon":5.42278,"is_reserved":false,"is_disabled":false,"rental_uris":{"android":"levelo://app?vid=7caca810-d26c-40aa-88d0-45d5685da385","ios":"levelo://app?vid=7caca810-d26c-40aa-88d0-45d5685da385"},"vehicle_type_id":"4","last_reported":1731323254,"current_range_meters":10000,"station_id":"ce4bhk92rcd13ifvqgb0","pricing_plan_id":"cebpf4jnsgd1na2vs0mg"},{"bike_id":"e0182193-fbf2-407b-8cdf-f40e07e0e9af","system_id":"levelo_inurba_marseille","lat":43.30146,"lon":5.37415,"is_reserved":false,"is_disabled":false,"rental_uris":{"android":"levelo://app?vid=e0182193-fbf2-407b-8cdf-f40e07e0e9af","ios":"levelo://app?vid=e0182193-fbf2-407b-8cdf-f40e07e0e9af"},"vehicle_type_id":"4","last_reported":1731323254,"current_range_meters":27600,"station_id":"ce4bgs92rcd13ifvqcc0","pricing_plan_id":"cebpf4jnsgd1na2vs0mg"},{"bike_id":"d991c531-cfc0-41a7-9caa-4637229fb265","system_id":"levelo_inurba_marseille","lat":43.29974,"lon":5.37175,"is_reserved":false,"is_disabled":false,"rental_uris":{"android":"levelo://app?vid=d991c531-cfc0-41a7-9caa-4637229fb265","ios":"levelo://app?vid=d991c531-cfc0-41a7-9caa-4637229fb265"},"vehicle_type_id":"4","last_reported":1731323254,"current_range_meters":19600,"station_id":"ce4bgr92rcd13ifvqc7g","pricing_plan_id":"cebpf4jnsgd1na2vs0mg"},{"bike_id":"b70e5e0c-b305-497b-a613-678833a2146e","system_id":"levelo_inurba_marseille","lat":43.23151,"lon":5.43726,"is_reserved":false,"is_disabled":false,"rental_uris":{"android":"levelo://app?vid=b70e5e0c-b305-497b-a613-678833a2146e","ios":"levelo://app?vid=b70e5e0c-b305-497b-a613-678833a2146e"},"vehicle_type_id":"4","last_reported":1731323254,"current_range_meters":14000,"station_id":"ce4bhmp2rcd13ifvqgog","pricing_plan_id":"cebpf4jnsgd1na2vs0mg"},{"bike_id":"7f3e1ff6-1483-4b12-acd5-3838fb7f84bf","system_id":"levelo_inurba_marseille","lat":43.23966,"lon":5.36628,"is_reserved":false,"is_disabled":false,"rental_uris":{"android":"levelo://app?vid=7f3e1ff6-1483-4b12-acd5-3838fb7f84bf","ios":"levelo://app?vid=7f3e1ff6-1483-4b12-acd5-3838fb7f84bf"},"vehicle_type_id":"4","last_reported":1731323254,"current_range_meters":17200,"station_id":"ce4bhi12rcd13ifvqfp0","pricing_plan_id":"cebpf4jnsgd1na2vs0mg"},{"bike_id":"b362994f-45f6-4692-aee4-529517e46b75","system_id":"levelo_inurba_marseille","lat":43.24069,"lon":5.37764,"is_reserved":false,"is_disabled":false,"rental_uris":{"android":"levelo://app?vid=b362994f-45f6-4692-aee4-529517e46b75","ios":"levelo://app?vid=b362994f-45f6-4692-aee4-529517e46b75"},"vehicle_type_id":"4","last_reported":1731323254,"current_range_meters":8400,"station_id":"ce4bhnp2rcd13ifvqgvg","pricing_plan_id":"cebpf4jnsgd1na2vs0mg"},{"bike_id":"3a74e668-c81c-4ede-a059-9116e8f90e9b","system_id":"levelo_inurba_marseille","lat":43.2315,"lon":5.43711,"is_reserved":false,"is_disabled":false,"rental_uris":{"android":"levelo://app?vid=3a74e668-c81c-4ede-a059-9116e8f90e9b","ios":"levelo://app?vid=3a74e668-c81c-4ede-a059-9116e8f90e9b"},"vehicle_type_id":"4","last_reported":1731323254,"current_range_meters":9200,"station_id":"ce4bhmp2rcd13ifvqgog","pricing_plan_id":"cebpf4jnsgd1na2vs0mg"},{"bike_id":"98f9e0b4-cc8e-4aab-a124-4b8e925a15d6","system_id":"levelo_inurba_marseille","lat":43.30319,"lon":5.36896,"is_reserved":false,"is_disabled":false,"rental_uris":{"android":"levelo://app?vid=98f9e0b4-cc8e-4aab-a124-4b8e925a15d6","ios":"levelo://app?vid=98f9e0b4-cc8e-4aab-a124-4b8e925a15d6"},"vehicle_type_id":"4","last_reported":1731323254,"current_range_meters":38400,"station_id":"ce4bgqh2rcd13ifvqc5g","pricing_plan_id":"cebpf4jnsgd1na2vs0mg"},{"bike_id":"b7af9e15-375a-4144-a04e-631555547d55","system_id":"levelo_inurba_marseille","lat":43.25005,"lon":5.38933,"is_reserved":false,"is_disabled":false,"rental_uris":{"android":"levelo://app?vid=b7af9e15-375a-4144-a04e-631555547d55","ios":"levelo://app?vid=b7af9e15-375a-4144-a04e-631555547d55"},"vehicle_type_id":"4","last_reported":1731323254,"current_range_meters":14000,"station_id":"ce4bhgp2rcd13ifvqfd0","pricing_plan_id":"cebpf4jnsgd1na2vs0mg"},{"bike_id":"eb7f2906-b458-476c-9daa-9e60c1ee4455","system_id":"levelo_inurba_marseille","lat":43.28155,"lon":5.42634,"is_reserved":false,"is_disabled":false,"rental_uris":{"android":"levelo://app?vid=eb7f2906-b458-476c-9daa-9e60c1ee4455","ios":"levelo://app?vid=eb7f2906-b458-476c-9daa-9e60c1ee4455"},"vehicle_type_id":"4","last_reported":1731323254,"current_range_meters":38800,"station_id":"ce4bhnh2rcd13ifvqgug","pricing_plan_id":"cebpf4jnsgd1na2vs0mg"},{"bike_id":"253356f7-26d6-4e01-be18-b70450141aab","system_id":"levelo_inurba_marseille","lat":43.30881,"lon":5.37189,"is_reserved":false,"is_disabled":false,"rental_uris":{"android":"levelo://app?vid=253356f7-26d6-4e01-be18-b70450141aab","ios":"levelo://app?vid=253356f7-26d6-4e01-be18-b70450141aab"},"vehicle_type_id":"4","last_reported":1731323254,"current_range_meters":38400,"station_id":"ce4bguh2rcd13ifvqckg","pricing_plan_id":"cebpf4jnsgd1na2vs0mg"},{"bike_id":"949be156-5135-4165-ac65-f1b97aca7e21","system_id":"levelo_inurba_marseille","lat":43.29366,"lon":5.37829,"is_reserved":false,"is_disabled":false,"rental_uris":{"android":"levelo://app?vid=949be156-5135-4165-ac65-f1b97aca7e21","ios":"levelo://app?vid=949be156-5135-4165-ac65-f1b97aca7e21"},"vehicle_type_id":"4","last_reported":1731323254,"current_range_meters":30000,"station_id":"ce4bgjh2rcd13ifvqbf0","pricing_plan_id":"cebpf4jnsgd1na2vs0mg"},{"bike_id":"606120ec-c12c-47f4-b7e9-0220feacd55e","system_id":"levelo_inurba_marseille","lat":43.25868,"lon":5.39898,"is_reserved":false,"is_disabled":false,"rental_uris":{"android":"levelo://app?vid=606120ec-c12c-47f4-b7e9-0220feacd55e","ios":"levelo://app?vid=606120ec-c12c-47f4-b7e9-0220feacd55e"},"vehicle_type_id":"4","last_reported":1731323254,"current_range_meters":39200,"station_id":"ce4bhl92rcd13ifvqghg","pricing_plan_id":"cebpf4jnsgd1na2vs0mg"},{"bike_id":"e89c6bde-386d-4587-b9ad-c7268bb38eed","system_id":"levelo_inurba_marseille","lat":43.331085,"lon":5.406681,"is_reserved":false,"is_disabled":false,"rental_uris":{"android":"levelo://app?vid=e89c6bde-386d-4587-b9ad-c7268bb38eed","ios":"levelo://app?vid=e89c6bde-386d-4587-b9ad-c7268bb38eed"},"vehicle_type_id":"4","last_reported":1731323254,"current_range_meters":9600,"station_id":"","pricing_plan_id":"cebpf4jnsgd1na2vs0mg"},{"bike_id":"a8411e45-d741-49af-bae3-6b83ebf0b203","system_id":"levelo_inurba_marseille","lat":43.27496,"lon":5.42455,"is_reserved":false,"is_disabled":false,"rental_uris":{"android":"levelo://app?vid=a8411e45-d741-49af-bae3-6b83ebf0b203","ios":"levelo://app?vid=a8411e45-d741-49af-bae3-6b83ebf0b203"},"vehicle_type_id":"4","last_reported":1731323254,"current_range_meters":38800,"station_id":"ce4bhn92rcd13ifvqgrg","pricing_plan_id":"cebpf4jnsgd1na2vs0mg"},{"bike_id":"4c821173-a17b-49e1-98f6-728f4310447d","system_id":"levelo_inurba_marseille","lat":43.30467,"lon":5.37899,"is_reserved":false,"is_disabled":false,"rental_uris":{"android":"levelo://app?vid=4c821173-a17b-49e1-98f6-728f4310447d","ios":"levelo://app?vid=4c821173-a17b-49e1-98f6-728f4310447d"},"vehicle_type_id":"4","last_reported":1731323254,"current_range_meters":22800,"station_id":"ce4bgup2rcd13ifvqcn0","pricing_plan_id":"cebpf4jnsgd1na2vs0mg"},{"bike_id":"f5f7adb1-08a0-41e5-84f8-4eacbb87fa6f","system_id":"levelo_inurba_marseille","lat":43.23961,"lon":5.3664,"is_reserved":false,"is_disabled":false,"rental_uris":{"android":"levelo://app?vid=f5f7adb1-08a0-41e5-84f8-4eacbb87fa6f","ios":"levelo://app?vid=f5f7adb1-08a0-41e5-84f8-4eacbb87fa6f"},"vehicle_type_id":"4","last_reported":1731323254,"current_range_meters":38000,"station_id":"ce4bhi12rcd13ifvqfp0","pricing_plan_id":"cebpf4jnsgd1na2vs0mg"},{"bike_id":"851779bb-3e79-4286-ac84-8245b0f01285","system_id":"levelo_inurba_marseille","lat":43.24548,"lon":5.39533,"is_reserved":false,"is_disabled":false,"rental_uris":{"android":"levelo://app?vid=851779bb-3e79-4286-ac84-8245b0f01285","ios":"levelo://app?vid=851779bb-3e79-4286-ac84-8245b0f01285"},"vehicle_type_id":"4","last_reported":1731323254,"current_range_meters":38800,"station_id":"ce4bhlp2rcd13ifvqgjg","pricing_plan_id":"cebpf4jnsgd1na2vs0mg"},{"bike_id":"c8bb073a-8665-4e1f-8f4c-13394d33d8df","system_id":"levelo_inurba_marseille","lat":43.33601,"lon":5.41016,"is_reserved":false,"is_disabled":false,"rental_uris":{"android":"levelo://app?vid=c8bb073a-8665-4e1f-8f4c-13394d33d8df","ios":"levelo://app?vid=c8bb073a-8665-4e1f-8f4c-13394d33d8df"},"vehicle_type_id":"4","last_reported":1731323254,"current_range_meters":8000,"station_id":"ce4bhqh2rcd13ifvqhmg","pricing_plan_id":"cebpf4jnsgd1na2vs0mg"},{"bike_id":"22fde622-bda5-436c-8007-ac73ff8037b3","system_id":"levelo_inurba_marseille","lat":43.27992,"lon":5.41661,"is_reserved":false,"is_disabled":false,"rental_uris":{"android":"levelo://app?vid=22fde622-bda5-436c-8007-ac73ff8037b3","ios":"levelo://app?vid=22fde622-bda5-436c-8007-ac73ff8037b3"},"vehicle_type_id":"4","last_reported":1731323254,"current_range_meters":36400,"station_id":"ce4bho12rcd13ifvqh1g","pricing_plan_id":"cebpf4jnsgd1na2vs0mg"},{"bike_id":"c28c30a0-39dd-4299-a220-222985df9d05","system_id":"levelo_inurba_marseille","lat":43.34141,"lon":5.40908,"is_reserved":false,"is_disabled":false,"rental_uris":{"android":"levelo://app?vid=c28c30a0-39dd-4299-a220-222985df9d05","ios":"levelo://app?vid=c28c30a0-39dd-4299-a220-222985df9d05"},"vehicle_type_id":"4","last_reported":1731323254,"current_range_meters":30400,"station_id":"ce4bhqh2rcd13ifvqhlg","pricing_plan_id":"cebpf4jnsgd1na2vs0mg"},{"bike_id":"bab57586-1b68-4e15-84e9-7d7b9cdc5bab","system_id":"levelo_inurba_marseille","lat":43.30316,"lon":5.36896,"is_reserved":false,"is_disabled":false,"rental_uris":{"android":"levelo://app?vid=bab57586-1b68-4e15-84e9-7d7b9cdc5bab","ios":"levelo://app?vid=bab57586-1b68-4e15-84e9-7d7b9cdc5bab"},"vehicle_type_id":"4","last_reported":1731323254,"current_range_meters":38800,"station_id":"ce4bgqh2rcd13ifvqc5g","pricing_plan_id":"cebpf4jnsgd1na2vs0mg"},{"bike_id":"648af618-d796-41bb-902d-536b8f04c605","system_id":"levelo_inurba_marseille","lat":43.25105,"lon":5.40324,"is_reserved":false,"is_disabled":false,"rental_uris":{"android":"levelo://app?vid=648af618-d796-41bb-902d-536b8f04c605","ios":"levelo://app?vid=648af618-d796-41bb-902d-536b8f04c605"},"vehicle_type_id":"4","last_reported":1731323254,"current_range_meters":26800,"station_id":"ce4bhlh2rcd13ifvqgig","pricing_plan_id":"cebpf4jnsgd1na2vs0mg"},{"bike_id":"85e2f4f3-6aa2-4c02-8cb0-3f10017cc61a","system_id":"levelo_inurba_marseille","lat":43.25084,"lon":5.39519,"is_reserved":false,"is_disabled":false,"rental_uris":{"android":"levelo://app?vid=85e2f4f3-6aa2-4c02-8cb0-3f10017cc61a","ios":"levelo://app?vid=85e2f4f3-6aa2-4c02-8cb0-3f10017cc61a"},"vehicle_type_id":"4","last_reported":1731323254,"current_range_meters":39200,"station_id":"ce4bhm12rcd13ifvqgkg","pricing_plan_id":"cebpf4jnsgd1na2vs0mg"},{"bike_id":"3d6ab80a-d16b-4bfc-b98e-9b75f8902807","system_id":"levelo_inurba_marseille","lat":43.28263,"lon":5.35071,"is_reserved":false,"is_disabled":false,"rental_uris":{"android":"levelo://app?vid=3d6ab80a-d16b-4bfc-b98e-9b75f8902807","ios":"levelo://app?vid=3d6ab80a-d16b-4bfc-b98e-9b75f8902807"},"vehicle_type_id":"4","last_reported":1731323254,"current_range_meters":34000,"station_id":"ce4bhbp2rcd13ifvqerg","pricing_plan_id":"cebpf4jnsgd1na2vs0mg"},{"bike_id":"a0ae6efb-6341-427c-bfeb-5eb3fe0d1703","system_id":"levelo_inurba_marseille","lat":43.29842,"lon":5.3627,"is_reserved":false,"is_disabled":false,"rental_uris":{"android":"levelo://app?vid=a0ae6efb-6341-427c-bfeb-5eb3fe0d1703","ios":"levelo://app?vid=a0ae6efb-6341-427c-bfeb-5eb3fe0d1703"},"vehicle_type_id":"4","last_reported":1731323254,"current_range_meters":34000,"station_id":"ce4bgpp2rcd13ifvqc3g","pricing_plan_id":"cebpf4jnsgd1na2vs0mg"},{"bike_id":"d841ae1d-b7b1-49eb-8172-7252499a6ffa","system_id":"levelo_inurba_marseille","lat":43.28857,"lon":5.35856,"is_reserved":false,"is_disabled":false,"rental_uris":{"android":"levelo://app?vid=d841ae1d-b7b1-49eb-8172-7252499a6ffa","ios":"levelo://app?vid=d841ae1d-b7b1-49eb-8172-7252499a6ffa"},"vehicle_type_id":"4","last_reported":1731323254,"current_range_meters":29600,"station_id":"ce4bhb12rcd13ifvqem0","pricing_plan_id":"cebpf4jnsgd1na2vs0mg"},{"bike_id":"1348ab3b-862b-4b63-9222-197e3ceb49e1","system_id":"levelo_inurba_marseille","lat":43.25491,"lon":5.37645,"is_reserved":false,"is_disabled":false,"rental_uris":{"android":"levelo://app?vid=1348ab3b-862b-4b63-9222-197e3ceb49e1","ios":"levelo://app?vid=1348ab3b-862b-4b63-9222-197e3ceb49e1"},"vehicle_type_id":"4","last_reported":1731323254,"current_range_meters":10800,"station_id":"ce4bhh12rcd13ifvqff0","pricing_plan_id":"cebpf4jnsgd1na2vs0mg"},{"bike_id":"3bddd245-b324-4ae8-8ca6-ac07b644ccbd","system_id":"levelo_inurba_marseille","lat":43.21258,"lon":5.35284,"is_reserved":false,"is_disabled":false,"rental_uris":{"android":"levelo://app?vid=3bddd245-b324-4ae8-8ca6-ac07b644ccbd","ios":"levelo://app?vid=3bddd245-b324-4ae8-8ca6-ac07b644ccbd"},"vehicle_type_id":"4","last_reported":1731323254,"current_range_meters":31200,"station_id":"","pricing_plan_id":"cebpf4jnsgd1na2vs0mg"},{"bike_id":"1738d94f-8cb1-44cf-affb-0b3bc5528744","system_id":"levelo_inurba_marseille","lat":43.31725,"lon":5.42399,"is_reserved":false,"is_disabled":false,"rental_uris":{"android":"levelo://app?vid=1738d94f-8cb1-44cf-affb-0b3bc5528744","ios":"levelo://app?vid=1738d94f-8cb1-44cf-affb-0b3bc5528744"},"vehicle_type_id":"4","last_reported":1731323254,"current_range_meters":20800,"station_id":"ce4bhp92rcd13ifvqhbg","pricing_plan_id":"cebpf4jnsgd1na2vs0mg"},{"bike_id":"d0fd0389-6692-47be-a2a9-f5c9e8502e9f","system_id":"levelo_inurba_marseille","lat":43.2962,"lon":5.3773,"is_reserved":false,"is_disabled":false,"rental_uris":{"android":"levelo://app?vid=d0fd0389-6692-47be-a2a9-f5c9e8502e9f","ios":"levelo://app?vid=d0fd0389-6692-47be-a2a9-f5c9e8502e9f"},"vehicle_type_id":"4","last_reported":1731323254,"current_range_meters":24000,"station_id":"ce4bgi92rcd13ifvqb90","pricing_plan_id":"cebpf4jnsgd1na2vs0mg"},{"bike_id":"90184c26-7e75-4998-a5bd-cb2d5d6ee56e","system_id":"levelo_inurba_marseille","lat":43.30905,"lon":5.36853,"is_reserved":false,"is_disabled":false,"rental_uris":{"android":"levelo://app?vid=90184c26-7e75-4998-a5bd-cb2d5d6ee56e","ios":"levelo://app?vid=90184c26-7e75-4998-a5bd-cb2d5d6ee56e"},"vehicle_type_id":"4","last_reported":1731323254,"current_range_meters":37600,"station_id":"ce4bgn92rcd13ifvqbvg","pricing_plan_id":"cebpf4jnsgd1na2vs0mg"},{"bike_id":"47c8651c-41a7-4b07-b3d0-de53e215e982","system_id":"levelo_inurba_marseille","lat":43.33603,"lon":5.41031,"is_reserved":false,"is_disabled":false,"rental_uris":{"android":"levelo://app?vid=47c8651c-41a7-4b07-b3d0-de53e215e982","ios":"levelo://app?vid=47c8651c-41a7-4b07-b3d0-de53e215e982"},"vehicle_type_id":"4","last_reported":1731323254,"current_range_meters":11600,"station_id":"ce4bhqh2rcd13ifvqhmg","pricing_plan_id":"cebpf4jnsgd1na2vs0mg"},{"bike_id":"f81cd738-baec-413c-a2f3-d11e4b18cfd5","system_id":"levelo_inurba_marseille","lat":43.27316,"lon":5.39063,"is_reserved":false,"is_disabled":false,"rental_uris":{"android":"levelo://app?vid=f81cd738-baec-413c-a2f3-d11e4b18cfd5","ios":"levelo://app?vid=f81cd738-baec-413c-a2f3-d11e4b18cfd5"},"vehicle_type_id":"4","last_reported":1731323254,"current_range_meters":25200,"station_id":"ce4bhgp2rcd13ifvqfe0","pricing_plan_id":"cebpf4jnsgd1na2vs0mg"},{"bike_id":"625e1995-b00f-42c2-82c5-28168c1b3c12","system_id":"levelo_inurba_marseille","lat":43.28262,"lon":5.35062,"is_reserved":false,"is_disabled":false,"rental_uris":{"android":"levelo://app?vid=625e1995-b00f-42c2-82c5-28168c1b3c12","ios":"levelo://app?vid=625e1995-b00f-42c2-82c5-28168c1b3c12"},"vehicle_type_id":"4","last_reported":1731323254,"current_range_meters":26800,"station_id":"ce4bhbp2rcd13ifvqerg","pricing_plan_id":"cebpf4jnsgd1na2vs0mg"},{"bike_id":"89a934bf-3f12-402e-a4e4-ef91851cbf7b","system_id":"levelo_inurba_marseille","lat":43.25587,"lon":5.38242,"is_reserved":false,"is_disabled":false,"rental_uris":{"android":"levelo://app?vid=89a934bf-3f12-402e-a4e4-ef91851cbf7b","ios":"levelo://app?vid=89a934bf-3f12-402e-a4e4-ef91851cbf7b"},"vehicle_type_id":"4","last_reported":1731323254,"current_range_meters":35600,"station_id":"ce4bhih2rcd13ifvqfs0","pricing_plan_id":"cebpf4jnsgd1na2vs0mg"},{"bike_id":"0901061a-fba2-4f52-82d0-8df26fe68b7b","system_id":"levelo_inurba_marseille","lat":43.29228,"lon":5.38372,"is_reserved":false,"is_disabled":false,"rental_uris":{"android":"levelo://app?vid=0901061a-fba2-4f52-82d0-8df26fe68b7b","ios":"levelo://app?vid=0901061a-fba2-4f52-82d0-8df26fe68b7b"},"vehicle_type_id":"4","last_reported":1731323254,"current_range_meters":14800,"station_id":"ce4bh692rcd13ifvqea0","pricing_plan_id":"cebpf4jnsgd1na2vs0mg"},{"bike_id":"b8cdbc72-fb69-4a3a-8350-1fcbc7da926b","system_id":"levelo_inurba_marseille","lat":43.25869,"lon":5.39893,"is_reserved":false,"is_disabled":false,"rental_uris":{"android":"levelo://app?vid=b8cdbc72-fb69-4a3a-8350-1fcbc7da926b","ios":"levelo://app?vid=b8cdbc72-fb69-4a3a-8350-1fcbc7da926b"},"vehicle_type_id":"4","last_reported":1731323254,"current_range_meters":37600,"station_id":"ce4bhl92rcd13ifvqghg","pricing_plan_id":"cebpf4jnsgd1na2vs0mg"},{"bike_id":"ca6bc757-afb2-47ae-8348-d50290e625d2","system_id":"levelo_inurba_marseille","lat":43.24806,"lon":5.37451,"is_reserved":false,"is_disabled":false,"rental_uris":{"android":"levelo://app?vid=ca6bc757-afb2-47ae-8348-d50290e625d2","ios":"levelo://app?vid=ca6bc757-afb2-47ae-8348-d50290e625d2"},"vehicle_type_id":"4","last_reported":1731323254,"current_range_meters":30000,"station_id":"ce4bhgh2rcd13ifvqfb0","pricing_plan_id":"cebpf4jnsgd1na2vs0mg"},{"bike_id":"bdf00644-feeb-4cfc-b7e7-a0b3e87216f9","system_id":"levelo_inurba_marseille","lat":43.23197,"lon":5.35551,"is_reserved":false,"is_disabled":false,"rental_uris":{"android":"levelo://app?vid=bdf00644-feeb-4cfc-b7e7-a0b3e87216f9","ios":"levelo://app?vid=bdf00644-feeb-4cfc-b7e7-a0b3e87216f9"},"vehicle_type_id":"4","last_reported":1731323254,"current_range_meters":37600,"station_id":"ce4bhu92rcd13ifvqi70","pricing_plan_id":"cebpf4jnsgd1na2vs0mg"},{"bike_id":"b7be4a98-cbde-46fb-9668-ebdb296d0759","system_id":"levelo_inurba_marseille","lat":43.26495,"lon":5.39543,"is_reserved":false,"is_disabled":false,"rental_uris":{"android":"levelo://app?vid=b7be4a98-cbde-46fb-9668-ebdb296d0759","ios":"levelo://app?vid=b7be4a98-cbde-46fb-9668-ebdb296d0759"},"vehicle_type_id":"4","last_reported":1731323254,"current_range_meters":38400,"station_id":"ce4bhi12rcd13ifvqfq0","pricing_plan_id":"cebpf4jnsgd1na2vs0mg"},{"bike_id":"00079633-0204-49b0-9404-0f1d9390baca","system_id":"levelo_inurba_marseille","lat":43.24797,"lon":5.37447,"is_reserved":false,"is_disabled":false,"rental_uris":{"android":"levelo://app?vid=00079633-0204-49b0-9404-0f1d9390baca","ios":"levelo://app?vid=00079633-0204-49b0-9404-0f1d9390baca"},"vehicle_type_id":"4","last_reported":1731323254,"current_range_meters":38800,"station_id":"ce4bhgh2rcd13ifvqfb0","pricing_plan_id":"cebpf4jnsgd1na2vs0mg"},{"bike_id":"4eb6d45c-aa83-4519-b6ef-80ee653fc16f","system_id":"levelo_inurba_marseille","lat":43.28276,"lon":5.37404,"is_reserved":false,"is_disabled":false,"rental_uris":{"android":"levelo://app?vid=4eb6d45c-aa83-4519-b6ef-80ee653fc16f","ios":"levelo://app?vid=4eb6d45c-aa83-4519-b6ef-80ee653fc16f"},"vehicle_type_id":"4","last_reported":1731323254,"current_range_meters":24000,"station_id":"ce4bha12rcd13ifvqee0","pricing_plan_id":"cebpf4jnsgd1na2vs0mg"},{"bike_id":"8d40a143-a513-4ea2-81b9-ed28a8caffa3","system_id":"levelo_inurba_marseille","lat":43.2917,"lon":5.37162,"is_reserved":false,"is_disabled":false,"rental_uris":{"android":"levelo://app?vid=8d40a143-a513-4ea2-81b9-ed28a8caffa3","ios":"levelo://app?vid=8d40a143-a513-4ea2-81b9-ed28a8caffa3"},"vehicle_type_id":"4","last_reported":1731323254,"current_range_meters":29600,"station_id":"ce4bha92rcd13ifvqeh0","pricing_plan_id":"cebpf4jnsgd1na2vs0mg"},{"bike_id":"dede69f2-868e-4441-a1b3-d66148d1a57d","system_id":"levelo_inurba_marseille","lat":43.3046,"lon":5.37903,"is_reserved":false,"is_disabled":false,"rental_uris":{"android":"levelo://app?vid=dede69f2-868e-4441-a1b3-d66148d1a57d","ios":"levelo://app?vid=dede69f2-868e-4441-a1b3-d66148d1a57d"},"vehicle_type_id":"4","last_reported":1731323254,"current_range_meters":22800,"station_id":"ce4bgup2rcd13ifvqcn0","pricing_plan_id":"cebpf4jnsgd1na2vs0mg"},{"bike_id":"d205b9f3-5ec8-4dc0-bbd8-2595e44a413e","system_id":"levelo_inurba_marseille","lat":43.27062,"lon":5.4226,"is_reserved":false,"is_disabled":false,"rental_uris":{"android":"levelo://app?vid=d205b9f3-5ec8-4dc0-bbd8-2595e44a413e","ios":"levelo://app?vid=d205b9f3-5ec8-4dc0-bbd8-2595e44a413e"},"vehicle_type_id":"4","last_reported":1731323254,"current_range_meters":36400,"station_id":"ce4bhk92rcd13ifvqgb0","pricing_plan_id":"cebpf4jnsgd1na2vs0mg"},{"bike_id":"e7edad55-5481-412e-a2e7-f98a65efe8b7","system_id":"levelo_inurba_marseille","lat":43.28099,"lon":5.37842,"is_reserved":false,"is_disabled":false,"rental_uris":{"android":"levelo://app?vid=e7edad55-5481-412e-a2e7-f98a65efe8b7","ios":"levelo://app?vid=e7edad55-5481-412e-a2e7-f98a65efe8b7"},"vehicle_type_id":"4","last_reported":1731323254,"current_range_meters":38800,"station_id":"ce4bha12rcd13ifvqee0","pricing_plan_id":"cebpf4jnsgd1na2vs0mg"},{"bike_id":"3615fb7d-f831-4187-804b-4054b774290b","system_id":"levelo_inurba_marseille","lat":43.29703,"lon":5.36607,"is_reserved":false,"is_disabled":false,"rental_uris":{"android":"levelo://app?vid=3615fb7d-f831-4187-804b-4054b774290b","ios":"levelo://app?vid=3615fb7d-f831-4187-804b-4054b774290b"},"vehicle_type_id":"4","last_reported":1731323254,"current_range_meters":28800,"station_id":"ce4bgn12rcd13ifvqbt0","pricing_plan_id":"cebpf4jnsgd1na2vs0mg"},{"bike_id":"d1cc468e-c8d9-4d2b-9113-bdb1fbee9584","system_id":"levelo_inurba_marseille","lat":43.31763,"lon":5.39018,"is_reserved":false,"is_disabled":false,"rental_uris":{"android":"levelo://app?vid=d1cc468e-c8d9-4d2b-9113-bdb1fbee9584","ios":"levelo://app?vid=d1cc468e-c8d9-4d2b-9113-bdb1fbee9584"},"vehicle_type_id":"4","last_reported":1731323254,"current_range_meters":39200,"station_id":"ce4bhqp2rcd13ifvqhng","pricing_plan_id":"cebpf4jnsgd1na2vs0mg"},{"bike_id":"548ed87b-7009-4e9c-b761-1919e1d50d42","system_id":"levelo_inurba_marseille","lat":43.3044,"lon":5.38889,"is_reserved":false,"is_disabled":false,"rental_uris":{"android":"levelo://app?vid=548ed87b-7009-4e9c-b761-1919e1d50d42","ios":"levelo://app?vid=548ed87b-7009-4e9c-b761-1919e1d50d42"},"vehicle_type_id":"4","last_reported":1731323254,"current_range_meters":33600,"station_id":"ce4bgk12rcd13ifvqbi0","pricing_plan_id":"cebpf4jnsgd1na2vs0mg"},{"bike_id":"aa0291c1-4876-4602-ac95-4ad886ad690d","system_id":"levelo_inurba_marseille","lat":43.2984,"lon":5.36266,"is_reserved":false,"is_disabled":false,"rental_uris":{"android":"levelo://app?vid=aa0291c1-4876-4602-ac95-4ad886ad690d","ios":"levelo://app?vid=aa0291c1-4876-4602-ac95-4ad886ad690d"},"vehicle_type_id":"4","last_reported":1731323254,"current_range_meters":26000,"station_id":"ce4bgpp2rcd13ifvqc3g","pricing_plan_id":"cebpf4jnsgd1na2vs0mg"},{"bike_id":"3415faaa-c111-4a6c-a879-a8c962906233","system_id":"levelo_inurba_marseille","lat":43.27052,"lon":5.40266,"is_reserved":false,"is_disabled":false,"rental_uris":{"android":"levelo://app?vid=3415faaa-c111-4a6c-a879-a8c962906233","ios":"levelo://app?vid=3415faaa-c111-4a6c-a879-a8c962906233"},"vehicle_type_id":"4","last_reported":1731323254,"current_range_meters":38400,"station_id":"ce4bhk92rcd13ifvqgc0","pricing_plan_id":"cebpf4jnsgd1na2vs0mg"},{"bike_id":"181fa628-fd06-4339-88f4-5d411c857699","system_id":"levelo_inurba_marseille","lat":43.27067,"lon":5.42277,"is_reserved":false,"is_disabled":false,"rental_uris":{"android":"levelo://app?vid=181fa628-fd06-4339-88f4-5d411c857699","ios":"levelo://app?vid=181fa628-fd06-4339-88f4-5d411c857699"},"vehicle_type_id":"4","last_reported":1731323254,"current_range_meters":37600,"station_id":"ce4bhk92rcd13ifvqgb0","pricing_plan_id":"cebpf4jnsgd1na2vs0mg"},{"bike_id":"e18d5717-101f-4212-9a59-c22c86957640","system_id":"levelo_inurba_marseille","lat":43.2606,"lon":5.39397,"is_reserved":false,"is_disabled":false,"rental_uris":{"android":"levelo://app?vid=e18d5717-101f-4212-9a59-c22c86957640","ios":"levelo://app?vid=e18d5717-101f-4212-9a59-c22c86957640"},"vehicle_type_id":"4","last_reported":1731323254,"current_range_meters":18800,"station_id":"ce4bhh92rcd13ifvqfj0","pricing_plan_id":"cebpf4jnsgd1na2vs0mg"},{"bike_id":"9a5eb101-92a2-4eeb-93bd-8d070d90c1ea","system_id":"levelo_inurba_marseille","lat":43.30435,"lon":5.42531,"is_reserved":false,"is_disabled":false,"rental_uris":{"android":"levelo://app?vid=9a5eb101-92a2-4eeb-93bd-8d070d90c1ea","ios":"levelo://app?vid=9a5eb101-92a2-4eeb-93bd-8d070d90c1ea"},"vehicle_type_id":"4","last_reported":1731323254,"current_range_meters":8000,"station_id":"","pricing_plan_id":"cebpf4jnsgd1na2vs0mg"},{"bike_id":"bc8e8179-f595-4f58-93a9-eead0c98d7f7","system_id":"levelo_inurba_marseille","lat":43.25867,"lon":5.39898,"is_reserved":false,"is_disabled":false,"rental_uris":{"android":"levelo://app?vid=bc8e8179-f595-4f58-93a9-eead0c98d7f7","ios":"levelo://app?vid=bc8e8179-f595-4f58-93a9-eead0c98d7f7"},"vehicle_type_id":"4","last_reported":1731323254,"current_range_meters":37600,"station_id":"ce4bhl92rcd13ifvqghg","pricing_plan_id":"cebpf4jnsgd1na2vs0mg"},{"bike_id":"5574c5c0-6884-4d99-8cb9-177fa8d343fc","system_id":"levelo_inurba_marseille","lat":43.30404,"lon":5.41288,"is_reserved":false,"is_disabled":false,"rental_uris":{"android":"levelo://app?vid=5574c5c0-6884-4d99-8cb9-177fa8d343fc","ios":"levelo://app?vid=5574c5c0-6884-4d99-8cb9-177fa8d343fc"},"vehicle_type_id":"4","last_reported":1731323254,"current_range_meters":3600,"station_id":"ce4bhop2rcd13ifvqh8g","pricing_plan_id":"cebpf4jnsgd1na2vs0mg"},{"bike_id":"4c39aa19-0c48-4846-ae4a-17bcc31d5e1d","system_id":"levelo_inurba_marseille","lat":43.3236,"lon":5.38881,"is_reserved":false,"is_disabled":false,"rental_uris":{"android":"levelo://app?vid=4c39aa19-0c48-4846-ae4a-17bcc31d5e1d","ios":"levelo://app?vid=4c39aa19-0c48-4846-ae4a-17bcc31d5e1d"},"vehicle_type_id":"4","last_reported":1731323254,"current_range_meters":8800,"station_id":"ce4bhqp2rcd13ifvqhog","pricing_plan_id":"cebpf4jnsgd1na2vs0mg"},{"bike_id":"f4585d59-a540-4848-ab36-49cdfb0a349c","system_id":"levelo_inurba_marseille","lat":43.24176,"lon":5.364005,"is_reserved":false,"is_disabled":false,"rental_uris":{"android":"levelo://app?vid=f4585d59-a540-4848-ab36-49cdfb0a349c","ios":"levelo://app?vid=f4585d59-a540-4848-ab36-49cdfb0a349c"},"vehicle_type_id":"4","last_reported":1731323254,"current_range_meters":24000,"station_id":"","pricing_plan_id":"cebpf4jnsgd1na2vs0mg"},{"bike_id":"bc5d945c-0c4c-4fab-90f7-72bc8d55d57f","system_id":"levelo_inurba_marseille","lat":43.30416,"lon":5.41274,"is_reserved":false,"is_disabled":false,"rental_uris":{"android":"levelo://app?vid=bc5d945c-0c4c-4fab-90f7-72bc8d55d57f","ios":"levelo://app?vid=bc5d945c-0c4c-4fab-90f7-72bc8d55d57f"},"vehicle_type_id":"4","last_reported":1731323254,"current_range_meters":22400,"station_id":"ce4bhop2rcd13ifvqh8g","pricing_plan_id":"cebpf4jnsgd1na2vs0mg"},{"bike_id":"4e9da362-ae4c-40bd-acbc-ca6d266e9f96","system_id":"levelo_inurba_marseille","lat":43.317099,"lon":5.377413,"is_reserved":false,"is_disabled":false,"rental_uris":{"android":"levelo://app?vid=4e9da362-ae4c-40bd-acbc-ca6d266e9f96","ios":"levelo://app?vid=4e9da362-ae4c-40bd-acbc-ca6d266e9f96"},"vehicle_type_id":"4","last_reported":1731323254,"current_range_meters":38400,"station_id":"ce4bgth2rcd13ifvqch0","pricing_plan_id":"cebpf4jnsgd1na2vs0mg"},{"bike_id":"f6ff179b-1403-41ed-b07c-bcec15c36f53","system_id":"levelo_inurba_marseille","lat":43.29839,"lon":5.36264,"is_reserved":false,"is_disabled":false,"rental_uris":{"android":"levelo://app?vid=f6ff179b-1403-41ed-b07c-bcec15c36f53","ios":"levelo://app?vid=f6ff179b-1403-41ed-b07c-bcec15c36f53"},"vehicle_type_id":"4","last_reported":1731323254,"current_range_meters":38800,"station_id":"ce4bgpp2rcd13ifvqc3g","pricing_plan_id":"cebpf4jnsgd1na2vs0mg"},{"bike_id":"1e7fd650-28c5-42ee-9922-4070c0acdb85","system_id":"levelo_inurba_marseille","lat":43.27497,"lon":5.42447,"is_reserved":false,"is_disabled":false,"rental_uris":{"android":"levelo://app?vid=1e7fd650-28c5-42ee-9922-4070c0acdb85","ios":"levelo://app?vid=1e7fd650-28c5-42ee-9922-4070c0acdb85"},"vehicle_type_id":"4","last_reported":1731323254,"current_range_meters":36000,"station_id":"ce4bhn92rcd13ifvqgrg","pricing_plan_id":"cebpf4jnsgd1na2vs0mg"},{"bike_id":"df4d4a2d-0dd8-4a35-a62e-896f9889e29b","system_id":"levelo_inurba_marseille","lat":43.24079,"lon":5.37753,"is_reserved":false,"is_disabled":false,"rental_uris":{"android":"levelo://app?vid=df4d4a2d-0dd8-4a35-a62e-896f9889e29b","ios":"levelo://app?vid=df4d4a2d-0dd8-4a35-a62e-896f9889e29b"},"vehicle_type_id":"4","last_reported":1731323254,"current_range_meters":24400,"station_id":"ce4bhnp2rcd13ifvqgvg","pricing_plan_id":"cebpf4jnsgd1na2vs0mg"},{"bike_id":"a11c2804-62a6-4cd9-b859-70a01ca86762","system_id":"levelo_inurba_marseille","lat":43.30192,"lon":5.36619,"is_reserved":false,"is_disabled":false,"rental_uris":{"android":"levelo://app?vid=a11c2804-62a6-4cd9-b859-70a01ca86762","ios":"levelo://app?vid=a11c2804-62a6-4cd9-b859-70a01ca86762"},"vehicle_type_id":"4","last_reported":1731323254,"current_range_meters":31200,"station_id":"ce4bgrh2rcd13ifvqc8g","pricing_plan_id":"cebpf4jnsgd1na2vs0mg"},{"bike_id":"8c01b859-3348-4e71-a57e-a9a192b67414","system_id":"levelo_inurba_marseille","lat":43.29022,"lon":5.38641,"is_reserved":false,"is_disabled":false,"rental_uris":{"android":"levelo://app?vid=8c01b859-3348-4e71-a57e-a9a192b67414","ios":"levelo://app?vid=8c01b859-3348-4e71-a57e-a9a192b67414"},"vehicle_type_id":"4","last_reported":1731323254,"current_range_meters":19200,"station_id":"ce4bh4p2rcd13ifvqe0g","pricing_plan_id":"cebpf4jnsgd1na2vs0mg"},{"bike_id":"a5379cc8-aca3-463b-9c9c-1562c0ff3ffe","system_id":"levelo_inurba_marseille","lat":43.24391,"lon":5.37052,"is_reserved":false,"is_disabled":false,"rental_uris":{"android":"levelo://app?vid=a5379cc8-aca3-463b-9c9c-1562c0ff3ffe","ios":"levelo://app?vid=a5379cc8-aca3-463b-9c9c-1562c0ff3ffe"},"vehicle_type_id":"4","last_reported":1731323254,"current_range_meters":32000,"station_id":"ce4bhhh2rcd13ifvqfk0","pricing_plan_id":"cebpf4jnsgd1na2vs0mg"},{"bike_id":"391e4db2-8c26-4444-8f14-5811c313c9b9","system_id":"levelo_inurba_marseille","lat":43.29306,"lon":5.37176,"is_reserved":false,"is_disabled":false,"rental_uris":{"android":"levelo://app?vid=391e4db2-8c26-4444-8f14-5811c313c9b9","ios":"levelo://app?vid=391e4db2-8c26-4444-8f14-5811c313c9b9"},"vehicle_type_id":"4","last_reported":1731323254,"current_range_meters":38400,"station_id":"ce4bgh92rcd13ifvqb40","pricing_plan_id":"cebpf4jnsgd1na2vs0mg"},{"bike_id":"c86f9753-23bf-4b0b-99f7-a3303d896d97","system_id":"levelo_inurba_marseille","lat":43.23184,"lon":5.39979,"is_reserved":false,"is_disabled":false,"rental_uris":{"android":"levelo://app?vid=c86f9753-23bf-4b0b-99f7-a3303d896d97","ios":"levelo://app?vid=c86f9753-23bf-4b0b-99f7-a3303d896d97"},"vehicle_type_id":"4","last_reported":1731323254,"current_range_meters":38800,"station_id":"ce4bhn12rcd13ifvqgqg","pricing_plan_id":"cebpf4jnsgd1na2vs0mg"},{"bike_id":"afad5a49-0283-4fbf-b99c-9b8e783caf18","system_id":"levelo_inurba_marseille","lat":43.30602,"lon":5.37215,"is_reserved":false,"is_disabled":false,"rental_uris":{"android":"levelo://app?vid=afad5a49-0283-4fbf-b99c-9b8e783caf18","ios":"levelo://app?vid=afad5a49-0283-4fbf-b99c-9b8e783caf18"},"vehicle_type_id":"4","last_reported":1731323254,"current_range_meters":38800,"station_id":"ce4bgqh2rcd13ifvqc4g","pricing_plan_id":"cebpf4jnsgd1na2vs0mg"},{"bike_id":"edde4862-c1fc-4a12-b386-f996da4d75ae","system_id":"levelo_inurba_marseille","lat":43.27073,"lon":5.42275,"is_reserved":false,"is_disabled":false,"rental_uris":{"android":"levelo://app?vid=edde4862-c1fc-4a12-b386-f996da4d75ae","ios":"levelo://app?vid=edde4862-c1fc-4a12-b386-f996da4d75ae"},"vehicle_type_id":"4","last_reported":1731323254,"current_range_meters":32800,"station_id":"ce4bhk92rcd13ifvqgb0","pricing_plan_id":"cebpf4jnsgd1na2vs0mg"},{"bike_id":"07704a86-dbed-425a-854d-11b1a4e3d84c","system_id":"levelo_inurba_marseille","lat":43.33753,"lon":5.37447,"is_reserved":false,"is_disabled":false,"rental_uris":{"android":"levelo://app?vid=07704a86-dbed-425a-854d-11b1a4e3d84c","ios":"levelo://app?vid=07704a86-dbed-425a-854d-11b1a4e3d84c"},"vehicle_type_id":"4","last_reported":1731323254,"current_range_meters":25600,"station_id":"","pricing_plan_id":"cebpf4jnsgd1na2vs0mg"},{"bike_id":"5eb98245-bce3-4138-a00d-434ad59401f1","system_id":"levelo_inurba_marseille","lat":43.30525,"lon":5.36711,"is_reserved":false,"is_disabled":false,"rental_uris":{"android":"levelo://app?vid=5eb98245-bce3-4138-a00d-434ad59401f1","ios":"levelo://app?vid=5eb98245-bce3-4138-a00d-434ad59401f1"},"vehicle_type_id":"4","last_reported":1731323254,"current_range_meters":34800,"station_id":"ce4bgrp2rcd13ifvqc9g","pricing_plan_id":"cebpf4jnsgd1na2vs0mg"},{"bike_id":"14d20505-09c3-49e6-b487-149678ce51b5","system_id":"levelo_inurba_marseille","lat":43.23196,"lon":5.35549,"is_reserved":false,"is_disabled":false,"rental_uris":{"android":"levelo://app?vid=14d20505-09c3-49e6-b487-149678ce51b5","ios":"levelo://app?vid=14d20505-09c3-49e6-b487-149678ce51b5"},"vehicle_type_id":"4","last_reported":1731323254,"current_range_meters":24400,"station_id":"ce4bhu92rcd13ifvqi70","pricing_plan_id":"cebpf4jnsgd1na2vs0mg"},{"bike_id":"e74a6936-064f-43b8-bf17-de4334240e1f","system_id":"levelo_inurba_marseille","lat":43.2846,"lon":5.35894,"is_reserved":false,"is_disabled":false,"rental_uris":{"android":"levelo://app?vid=e74a6936-064f-43b8-bf17-de4334240e1f","ios":"levelo://app?vid=e74a6936-064f-43b8-bf17-de4334240e1f"},"vehicle_type_id":"4","last_reported":1731323254,"current_range_meters":38800,"station_id":"ce4bhah2rcd13ifvqei0","pricing_plan_id":"cebpf4jnsgd1na2vs0mg"},{"bike_id":"d2bd9332-8f9b-4e5f-b0ca-5e8e4a76daca","system_id":"levelo_inurba_marseille","lat":43.27618,"lon":5.36098,"is_reserved":false,"is_disabled":false,"rental_uris":{"android":"levelo://app?vid=d2bd9332-8f9b-4e5f-b0ca-5e8e4a76daca","ios":"levelo://app?vid=d2bd9332-8f9b-4e5f-b0ca-5e8e4a76daca"},"vehicle_type_id":"4","last_reported":1731323254,"current_range_meters":30400,"station_id":"ce4bgj92rcd13ifvqbe0","pricing_plan_id":"cebpf4jnsgd1na2vs0mg"},{"bike_id":"5a250740-4f25-4c09-b074-a9fd5a02278a","system_id":"levelo_inurba_marseille","lat":43.30548,"lon":5.36693,"is_reserved":false,"is_disabled":false,"rental_uris":{"android":"levelo://app?vid=5a250740-4f25-4c09-b074-a9fd5a02278a","ios":"levelo://app?vid=5a250740-4f25-4c09-b074-a9fd5a02278a"},"vehicle_type_id":"4","last_reported":1731323254,"current_range_meters":39200,"station_id":"ce4bgrp2rcd13ifvqc9g","pricing_plan_id":"cebpf4jnsgd1na2vs0mg"},{"bike_id":"3157a5a2-f26b-49fa-9ccb-0a3d12d0d255","system_id":"levelo_inurba_marseille","lat":43.31885,"lon":5.40732,"is_reserved":false,"is_disabled":false,"rental_uris":{"android":"levelo://app?vid=3157a5a2-f26b-49fa-9ccb-0a3d12d0d255","ios":"levelo://app?vid=3157a5a2-f26b-49fa-9ccb-0a3d12d0d255"},"vehicle_type_id":"4","last_reported":1731323254,"current_range_meters":39200,"station_id":"ce4bhq12rcd13ifvqhig","pricing_plan_id":"cebpf4jnsgd1na2vs0mg"},{"bike_id":"de953a33-eeda-4c1b-ae57-cc39222606a3","system_id":"levelo_inurba_marseille","lat":43.30101,"lon":5.39083,"is_reserved":false,"is_disabled":false,"rental_uris":{"android":"levelo://app?vid=de953a33-eeda-4c1b-ae57-cc39222606a3","ios":"levelo://app?vid=de953a33-eeda-4c1b-ae57-cc39222606a3"},"vehicle_type_id":"4","last_reported":1731323254,"current_range_meters":39200,"station_id":"ce4bh192rcd13ifvqdb0","pricing_plan_id":"cebpf4jnsgd1na2vs0mg"},{"bike_id":"223cb3dc-89db-437f-a733-d8ba2fd6c352","system_id":"levelo_inurba_marseille","lat":43.28269,"lon":5.35065,"is_reserved":false,"is_disabled":false,"rental_uris":{"android":"levelo://app?vid=223cb3dc-89db-437f-a733-d8ba2fd6c352","ios":"levelo://app?vid=223cb3dc-89db-437f-a733-d8ba2fd6c352"},"vehicle_type_id":"4","last_reported":1731323254,"current_range_meters":30400,"station_id":"ce4bhbp2rcd13ifvqerg","pricing_plan_id":"cebpf4jnsgd1na2vs0mg"},{"bike_id":"baac3be3-010c-4ab7-b814-2af962c842f8","system_id":"levelo_inurba_marseille","lat":43.28361,"lon":5.37523,"is_reserved":false,"is_disabled":false,"rental_uris":{"android":"levelo://app?vid=baac3be3-010c-4ab7-b814-2af962c842f8","ios":"levelo://app?vid=baac3be3-010c-4ab7-b814-2af962c842f8"},"vehicle_type_id":"4","last_reported":1731323254,"current_range_meters":21600,"station_id":"ce4bh412rcd13ifvqds0","pricing_plan_id":"cebpf4jnsgd1na2vs0mg"},{"bike_id":"c1e70269-c155-460e-aa50-d5a936cbf590","system_id":"levelo_inurba_marseille","lat":43.23066,"lon":5.3549,"is_reserved":false,"is_disabled":false,"rental_uris":{"android":"levelo://app?vid=c1e70269-c155-460e-aa50-d5a936cbf590","ios":"levelo://app?vid=c1e70269-c155-460e-aa50-d5a936cbf590"},"vehicle_type_id":"4","last_reported":1731323254,"current_range_meters":36000,"station_id":"cpo3342slgdg3j2ifvpg","pricing_plan_id":"cebpf4jnsgd1na2vs0mg"},{"bike_id":"034f36be-cee5-403d-9ff8-2605b17e6610","system_id":"levelo_inurba_marseille","lat":43.26024,"lon":5.37548,"is_reserved":false,"is_disabled":false,"rental_uris":{"android":"levelo://app?vid=034f36be-cee5-403d-9ff8-2605b17e6610","ios":"levelo://app?vid=034f36be-cee5-403d-9ff8-2605b17e6610"},"vehicle_type_id":"4","last_reported":1731323254,"current_range_meters":19600,"station_id":"ce4bhgh2rcd13ifvqfa0","pricing_plan_id":"cebpf4jnsgd1na2vs0mg"},{"bike_id":"969227a2-98bf-4ab5-b6d3-e479d8b3607b","system_id":"levelo_inurba_marseille","lat":43.3153,"lon":5.38027,"is_reserved":false,"is_disabled":false,"rental_uris":{"android":"levelo://app?vid=969227a2-98bf-4ab5-b6d3-e479d8b3607b","ios":"levelo://app?vid=969227a2-98bf-4ab5-b6d3-e479d8b3607b"},"vehicle_type_id":"4","last_reported":1731323254,"current_range_meters":23200,"station_id":"ce4bhsp2rcd13ifvqi50","pricing_plan_id":"cebpf4jnsgd1na2vs0mg"},{"bike_id":"f5293701-df9b-4a3c-bf61-d686249e5d80","system_id":"levelo_inurba_marseille","lat":43.25865,"lon":5.39899,"is_reserved":false,"is_disabled":false,"rental_uris":{"android":"levelo://app?vid=f5293701-df9b-4a3c-bf61-d686249e5d80","ios":"levelo://app?vid=f5293701-df9b-4a3c-bf61-d686249e5d80"},"vehicle_type_id":"4","last_reported":1731323254,"current_range_meters":32800,"station_id":"ce4bhl92rcd13ifvqghg","pricing_plan_id":"cebpf4jnsgd1na2vs0mg"},{"bike_id":"a6a82fe6-b5ad-4b6d-89bd-5011bee16a93","system_id":"levelo_inurba_marseille","lat":43.31353,"lon":5.367,"is_reserved":false,"is_disabled":false,"rental_uris":{"android":"levelo://app?vid=a6a82fe6-b5ad-4b6d-89bd-5011bee16a93","ios":"levelo://app?vid=a6a82fe6-b5ad-4b6d-89bd-5011bee16a93"},"vehicle_type_id":"4","last_reported":1731323254,"current_range_meters":20800,"station_id":"ce4bgr92rcd13ifvqc6g","pricing_plan_id":"cebpf4jnsgd1na2vs0mg"},{"bike_id":"b0a25a7c-0d25-4b72-ab41-b48adedeb0e0","system_id":"levelo_inurba_marseille","lat":43.29831,"lon":5.36275,"is_reserved":false,"is_disabled":false,"rental_uris":{"android":"levelo://app?vid=b0a25a7c-0d25-4b72-ab41-b48adedeb0e0","ios":"levelo://app?vid=b0a25a7c-0d25-4b72-ab41-b48adedeb0e0"},"vehicle_type_id":"4","last_reported":1731323254,"current_range_meters":39200,"station_id":"ce4bgpp2rcd13ifvqc3g","pricing_plan_id":"cebpf4jnsgd1na2vs0mg"},{"bike_id":"f231988b-c677-4d61-8d18-d58a52fe96b5","system_id":"levelo_inurba_marseille","lat":43.25504,"lon":5.37654,"is_reserved":false,"is_disabled":false,"rental_uris":{"android":"levelo://app?vid=f231988b-c677-4d61-8d18-d58a52fe96b5","ios":"levelo://app?vid=f231988b-c677-4d61-8d18-d58a52fe96b5"},"vehicle_type_id":"4","last_reported":1731323254,"current_range_meters":38800,"station_id":"ce4bhh12rcd13ifvqff0","pricing_plan_id":"cebpf4jnsgd1na2vs0mg"},{"bike_id":"05b62862-8331-49c7-8a0f-0d0121269a5e","system_id":"levelo_inurba_marseille","lat":43.28416,"lon":5.34982,"is_reserved":false,"is_disabled":false,"rental_uris":{"android":"levelo://app?vid=05b62862-8331-49c7-8a0f-0d0121269a5e","ios":"levelo://app?vid=05b62862-8331-49c7-8a0f-0d0121269a5e"},"vehicle_type_id":"4","last_reported":1731323254,"current_range_meters":38800,"station_id":"ce4bhbh2rcd13ifvqepg","pricing_plan_id":"cebpf4jnsgd1na2vs0mg"},{"bike_id":"e4eae8e9-f8a7-4c29-a50d-a756facfcacb","system_id":"levelo_inurba_marseille","lat":43.2968,"lon":5.37289,"is_reserved":false,"is_disabled":false,"rental_uris":{"android":"levelo://app?vid=e4eae8e9-f8a7-4c29-a50d-a756facfcacb","ios":"levelo://app?vid=e4eae8e9-f8a7-4c29-a50d-a756facfcacb"},"vehicle_type_id":"4","last_reported":1731323254,"current_range_meters":37600,"station_id":"ce4bgk12rcd13ifvqbj0","pricing_plan_id":"cebpf4jnsgd1na2vs0mg"},{"bike_id":"7eef07dc-658e-42b3-8a87-dbb3f2b84cec","system_id":"levelo_inurba_marseille","lat":43.28665,"lon":5.386672,"is_reserved":false,"is_disabled":false,"rental_uris":{"android":"levelo://app?vid=7eef07dc-658e-42b3-8a87-dbb3f2b84cec","ios":"levelo://app?vid=7eef07dc-658e-42b3-8a87-dbb3f2b84cec"},"vehicle_type_id":"4","last_reported":1731323254,"current_range_meters":30800,"station_id":"ce4bh492rcd13ifvqdug","pricing_plan_id":"cebpf4jnsgd1na2vs0mg"},{"bike_id":"85f3ddc3-1af9-4244-a6e8-4949da19964c","system_id":"levelo_inurba_marseille","lat":43.2707,"lon":5.42272,"is_reserved":false,"is_disabled":false,"rental_uris":{"android":"levelo://app?vid=85f3ddc3-1af9-4244-a6e8-4949da19964c","ios":"levelo://app?vid=85f3ddc3-1af9-4244-a6e8-4949da19964c"},"vehicle_type_id":"4","last_reported":1731323254,"current_range_meters":38000,"station_id":"ce4bhk92rcd13ifvqgb0","pricing_plan_id":"cebpf4jnsgd1na2vs0mg"},{"bike_id":"0ddc6cef-4a19-42a6-95a0-b546207e9d35","system_id":"levelo_inurba_marseille","lat":43.23193,"lon":5.35553,"is_reserved":false,"is_disabled":false,"rental_uris":{"android":"levelo://app?vid=0ddc6cef-4a19-42a6-95a0-b546207e9d35","ios":"levelo://app?vid=0ddc6cef-4a19-42a6-95a0-b546207e9d35"},"vehicle_type_id":"4","last_reported":1731323254,"current_range_meters":31200,"station_id":"ce4bhu92rcd13ifvqi70","pricing_plan_id":"cebpf4jnsgd1na2vs0mg"},{"bike_id":"6d72a493-11da-48b3-be50-fd384c9287b5","system_id":"levelo_inurba_marseille","lat":43.29849,"lon":5.36287,"is_reserved":false,"is_disabled":false,"rental_uris":{"android":"levelo://app?vid=6d72a493-11da-48b3-be50-fd384c9287b5","ios":"levelo://app?vid=6d72a493-11da-48b3-be50-fd384c9287b5"},"vehicle_type_id":"4","last_reported":1731323254,"current_range_meters":32400,"station_id":"ce4bgpp2rcd13ifvqc3g","pricing_plan_id":"cebpf4jnsgd1na2vs0mg"},{"bike_id":"19608c97-0dae-4ae7-82aa-31513ae5dca0","system_id":"levelo_inurba_marseille","lat":43.31325,"lon":5.39688,"is_reserved":false,"is_disabled":false,"rental_uris":{"android":"levelo://app?vid=19608c97-0dae-4ae7-82aa-31513ae5dca0","ios":"levelo://app?vid=19608c97-0dae-4ae7-82aa-31513ae5dca0"},"vehicle_type_id":"4","last_reported":1731323254,"current_range_meters":32400,"station_id":"ce4bgvp2rcd13ifvqcu0","pricing_plan_id":"cebpf4jnsgd1na2vs0mg"},{"bike_id":"9b9f7aa2-b6f7-415d-80a9-b15becf8142e","system_id":"levelo_inurba_marseille","lat":43.29569,"lon":5.37509,"is_reserved":false,"is_disabled":false,"rental_uris":{"android":"levelo://app?vid=9b9f7aa2-b6f7-415d-80a9-b15becf8142e","ios":"levelo://app?vid=9b9f7aa2-b6f7-415d-80a9-b15becf8142e"},"vehicle_type_id":"4","last_reported":1731323254,"current_range_meters":38000,"station_id":"ce4bgh92rcd13ifvqb50","pricing_plan_id":"cebpf4jnsgd1na2vs0mg"},{"bike_id":"dac021be-548c-4b6a-9a70-535acb3e6011","system_id":"levelo_inurba_marseille","lat":43.29896,"lon":5.43661,"is_reserved":false,"is_disabled":false,"rental_uris":{"android":"levelo://app?vid=dac021be-548c-4b6a-9a70-535acb3e6011","ios":"levelo://app?vid=dac021be-548c-4b6a-9a70-535acb3e6011"},"vehicle_type_id":"4","last_reported":1731323254,"current_range_meters":38800,"station_id":"ce4bhpp2rcd13ifvqhfg","pricing_plan_id":"cebpf4jnsgd1na2vs0mg"},{"bike_id":"fecdd1f9-9ba9-40fe-8ffd-765c3531dbdd","system_id":"levelo_inurba_marseille","lat":43.26558,"lon":5.39005,"is_reserved":false,"is_disabled":false,"rental_uris":{"android":"levelo://app?vid=fecdd1f9-9ba9-40fe-8ffd-765c3531dbdd","ios":"levelo://app?vid=fecdd1f9-9ba9-40fe-8ffd-765c3531dbdd"},"vehicle_type_id":"4","last_reported":1731323254,"current_range_meters":38800,"station_id":"ce4bhe12rcd13ifvqf30","pricing_plan_id":"cebpf4jnsgd1na2vs0mg"},{"bike_id":"82ce0d1a-35aa-4501-b8b0-471c54595dce","system_id":"levelo_inurba_marseille","lat":43.23967,"lon":5.3663,"is_reserved":false,"is_disabled":false,"rental_uris":{"android":"levelo://app?vid=82ce0d1a-35aa-4501-b8b0-471c54595dce","ios":"levelo://app?vid=82ce0d1a-35aa-4501-b8b0-471c54595dce"},"vehicle_type_id":"4","last_reported":1731323254,"current_range_meters":24800,"station_id":"ce4bhi12rcd13ifvqfp0","pricing_plan_id":"cebpf4jnsgd1na2vs0mg"},{"bike_id":"817e9135-f248-4cc1-8820-67b2629e906a","system_id":"levelo_inurba_marseille","lat":43.26803,"lon":5.40265,"is_reserved":false,"is_disabled":false,"rental_uris":{"android":"levelo://app?vid=817e9135-f248-4cc1-8820-67b2629e906a","ios":"levelo://app?vid=817e9135-f248-4cc1-8820-67b2629e906a"},"vehicle_type_id":"4","last_reported":1731323254,"current_range_meters":33600,"station_id":"ce501612rcd8frsf0b60","pricing_plan_id":"cebpf4jnsgd1na2vs0mg"},{"bike_id":"b2fd0916-e46b-428f-a30e-067850d8a24a","system_id":"levelo_inurba_marseille","lat":43.30136,"lon":5.37405,"is_reserved":false,"is_disabled":false,"rental_uris":{"android":"levelo://app?vid=b2fd0916-e46b-428f-a30e-067850d8a24a","ios":"levelo://app?vid=b2fd0916-e46b-428f-a30e-067850d8a24a"},"vehicle_type_id":"4","last_reported":1731323254,"current_range_meters":28000,"station_id":"ce4bgs92rcd13ifvqcc0","pricing_plan_id":"cebpf4jnsgd1na2vs0mg"},{"bike_id":"85849e39-f38e-4437-afbd-f8d706fa4b32","system_id":"levelo_inurba_marseille","lat":43.28408,"lon":5.3498,"is_reserved":false,"is_disabled":false,"rental_uris":{"android":"levelo://app?vid=85849e39-f38e-4437-afbd-f8d706fa4b32","ios":"levelo://app?vid=85849e39-f38e-4437-afbd-f8d706fa4b32"},"vehicle_type_id":"4","last_reported":1731323254,"current_range_meters":32400,"station_id":"ce4bhbh2rcd13ifvqepg","pricing_plan_id":"cebpf4jnsgd1na2vs0mg"},{"bike_id":"cf9aba8e-16f9-4582-ad53-0d8f645170b3","system_id":"levelo_inurba_marseille","lat":43.26497,"lon":5.39538,"is_reserved":false,"is_disabled":false,"rental_uris":{"android":"levelo://app?vid=cf9aba8e-16f9-4582-ad53-0d8f645170b3","ios":"levelo://app?vid=cf9aba8e-16f9-4582-ad53-0d8f645170b3"},"vehicle_type_id":"4","last_reported":1731323254,"current_range_meters":38400,"station_id":"ce4bhi12rcd13ifvqfq0","pricing_plan_id":"cebpf4jnsgd1na2vs0mg"},{"bike_id":"d5990e19-0551-4ad3-8c2a-d80513ba61ae","system_id":"levelo_inurba_marseille","lat":43.23194,"lon":5.35552,"is_reserved":false,"is_disabled":false,"rental_uris":{"android":"levelo://app?vid=d5990e19-0551-4ad3-8c2a-d80513ba61ae","ios":"levelo://app?vid=d5990e19-0551-4ad3-8c2a-d80513ba61ae"},"vehicle_type_id":"4","last_reported":1731323254,"current_range_meters":39200,"station_id":"ce4bhu92rcd13ifvqi70","pricing_plan_id":"cebpf4jnsgd1na2vs0mg"},{"bike_id":"b5458877-781c-4d95-b7be-1bb7bc00841b","system_id":"levelo_inurba_marseille","lat":43.31078,"lon":5.38353,"is_reserved":false,"is_disabled":false,"rental_uris":{"android":"levelo://app?vid=b5458877-781c-4d95-b7be-1bb7bc00841b","ios":"levelo://app?vid=b5458877-781c-4d95-b7be-1bb7bc00841b"},"vehicle_type_id":"4","last_reported":1731323254,"current_range_meters":29600,"station_id":"ce4bgv92rcd13ifvqcr0","pricing_plan_id":"cebpf4jnsgd1na2vs0mg"},{"bike_id":"b2f3adca-b446-441d-a1ab-5903c30fd432","system_id":"levelo_inurba_marseille","lat":43.33772,"lon":5.37447,"is_reserved":false,"is_disabled":false,"rental_uris":{"android":"levelo://app?vid=b2f3adca-b446-441d-a1ab-5903c30fd432","ios":"levelo://app?vid=b2f3adca-b446-441d-a1ab-5903c30fd432"},"vehicle_type_id":"4","last_reported":1731323254,"current_range_meters":11200,"station_id":"","pricing_plan_id":"cebpf4jnsgd1na2vs0mg"},{"bike_id":"f8a80f2d-b549-46ec-a2ef-7f7a2490b738","system_id":"levelo_inurba_marseille","lat":43.26793,"lon":5.39411,"is_reserved":false,"is_disabled":false,"rental_uris":{"android":"levelo://app?vid=f8a80f2d-b549-46ec-a2ef-7f7a2490b738","ios":"levelo://app?vid=f8a80f2d-b549-46ec-a2ef-7f7a2490b738"},"vehicle_type_id":"4","last_reported":1731323254,"current_range_meters":38800,"station_id":"ce4bhh12rcd13ifvqfg0","pricing_plan_id":"cebpf4jnsgd1na2vs0mg"},{"bike_id":"2bdf9060-9eaa-4055-aa8b-ae8cd81f6e98","system_id":"levelo_inurba_marseille","lat":43.27073,"lon":5.42275,"is_reserved":false,"is_disabled":false,"rental_uris":{"android":"levelo://app?vid=2bdf9060-9eaa-4055-aa8b-ae8cd81f6e98","ios":"levelo://app?vid=2bdf9060-9eaa-4055-aa8b-ae8cd81f6e98"},"vehicle_type_id":"4","last_reported":1731323254,"current_range_meters":10800,"station_id":"ce4bhk92rcd13ifvqgb0","pricing_plan_id":"cebpf4jnsgd1na2vs0mg"},{"bike_id":"31bf0ce0-2a44-48b4-8f24-37f7a3336033","system_id":"levelo_inurba_marseille","lat":43.26063,"lon":5.39396,"is_reserved":false,"is_disabled":false,"rental_uris":{"android":"levelo://app?vid=31bf0ce0-2a44-48b4-8f24-37f7a3336033","ios":"levelo://app?vid=31bf0ce0-2a44-48b4-8f24-37f7a3336033"},"vehicle_type_id":"4","last_reported":1731323254,"current_range_meters":3200,"station_id":"ce4bhh92rcd13ifvqfj0","pricing_plan_id":"cebpf4jnsgd1na2vs0mg"},{"bike_id":"8148020f-1c2c-4fe4-8adc-b4b937986edf","system_id":"levelo_inurba_marseille","lat":43.34065,"lon":5.40969,"is_reserved":false,"is_disabled":false,"rental_uris":{"android":"levelo://app?vid=8148020f-1c2c-4fe4-8adc-b4b937986edf","ios":"levelo://app?vid=8148020f-1c2c-4fe4-8adc-b4b937986edf"},"vehicle_type_id":"4","last_reported":1731323254,"current_range_meters":36800,"station_id":"","pricing_plan_id":"cebpf4jnsgd1na2vs0mg"},{"bike_id":"e47c613c-4cef-45c8-a866-399ed6a00191","system_id":"levelo_inurba_marseille","lat":43.30133,"lon":5.38778,"is_reserved":false,"is_disabled":false,"rental_uris":{"android":"levelo://app?vid=e47c613c-4cef-45c8-a866-399ed6a00191","ios":"levelo://app?vid=e47c613c-4cef-45c8-a866-399ed6a00191"},"vehicle_type_id":"4","last_reported":1731323254,"current_range_meters":25600,"station_id":"ce4bghh2rcd13ifvqb60","pricing_plan_id":"cebpf4jnsgd1na2vs0mg"},{"bike_id":"9ab3b81e-4cd0-44e1-aa28-4461d425e0c0","system_id":"levelo_inurba_marseille","lat":43.3266,"lon":5.40985,"is_reserved":false,"is_disabled":false,"rental_uris":{"android":"levelo://app?vid=9ab3b81e-4cd0-44e1-aa28-4461d425e0c0","ios":"levelo://app?vid=9ab3b81e-4cd0-44e1-aa28-4461d425e0c0"},"vehicle_type_id":"4","last_reported":1731323254,"current_range_meters":32800,"station_id":"ce4bhpp2rcd13ifvqhgg","pricing_plan_id":"cebpf4jnsgd1na2vs0mg"},{"bike_id":"5db18729-071a-4ade-b100-b0408232c49a","system_id":"levelo_inurba_marseille","lat":43.29919,"lon":5.37483,"is_reserved":false,"is_disabled":false,"rental_uris":{"android":"levelo://app?vid=5db18729-071a-4ade-b100-b0408232c49a","ios":"levelo://app?vid=5db18729-071a-4ade-b100-b0408232c49a"},"vehicle_type_id":"4","last_reported":1731323254,"current_range_meters":38800,"station_id":"ce4bgjh2rcd13ifvqbg0","pricing_plan_id":"cebpf4jnsgd1na2vs0mg"},{"bike_id":"bedfe257-ec8e-44aa-a6ac-c456d43815ff","system_id":"levelo_inurba_marseille","lat":43.336046,"lon":5.410145,"is_reserved":false,"is_disabled":false,"rental_uris":{"android":"levelo://app?vid=bedfe257-ec8e-44aa-a6ac-c456d43815ff","ios":"levelo://app?vid=bedfe257-ec8e-44aa-a6ac-c456d43815ff"},"vehicle_type_id":"4","last_reported":1731323254,"current_range_meters":38800,"station_id":"ce4bhqh2rcd13ifvqhmg","pricing_plan_id":"cebpf4jnsgd1na2vs0mg"},{"bike_id":"ac659186-70a1-4190-99a4-216b54d87779","system_id":"levelo_inurba_marseille","lat":43.23155,"lon":5.437,"is_reserved":false,"is_disabled":false,"rental_uris":{"android":"levelo://app?vid=ac659186-70a1-4190-99a4-216b54d87779","ios":"levelo://app?vid=ac659186-70a1-4190-99a4-216b54d87779"},"vehicle_type_id":"4","last_reported":1731323254,"current_range_meters":36400,"station_id":"ce4bhmp2rcd13ifvqgog","pricing_plan_id":"cebpf4jnsgd1na2vs0mg"},{"bike_id":"b72ca6e7-47e9-42be-9a97-b74e22acdc0e","system_id":"levelo_inurba_marseille","lat":43.32104,"lon":5.36772,"is_reserved":false,"is_disabled":false,"rental_uris":{"android":"levelo://app?vid=b72ca6e7-47e9-42be-9a97-b74e22acdc0e","ios":"levelo://app?vid=b72ca6e7-47e9-42be-9a97-b74e22acdc0e"},"vehicle_type_id":"4","last_reported":1731323254,"current_range_meters":31200,"station_id":"ce4bhrh2rcd13ifvqhug","pricing_plan_id":"cebpf4jnsgd1na2vs0mg"},{"bike_id":"8a7d7b1e-982f-49c0-bd8e-441dbd59b8a9","system_id":"levelo_inurba_marseille","lat":43.31369,"lon":5.367133,"is_reserved":false,"is_disabled":false,"rental_uris":{"android":"levelo://app?vid=8a7d7b1e-982f-49c0-bd8e-441dbd59b8a9","ios":"levelo://app?vid=8a7d7b1e-982f-49c0-bd8e-441dbd59b8a9"},"vehicle_type_id":"4","last_reported":1731323254,"current_range_meters":36800,"station_id":"ce4bgr92rcd13ifvqc6g","pricing_plan_id":"cebpf4jnsgd1na2vs0mg"},{"bike_id":"0df8bb59-b428-49af-9f16-568e84e6042c","system_id":"levelo_inurba_marseille","lat":43.24068,"lon":5.3776,"is_reserved":false,"is_disabled":false,"rental_uris":{"android":"levelo://app?vid=0df8bb59-b428-49af-9f16-568e84e6042c","ios":"levelo://app?vid=0df8bb59-b428-49af-9f16-568e84e6042c"},"vehicle_type_id":"4","last_reported":1731323254,"current_range_meters":30000,"station_id":"ce4bhnp2rcd13ifvqgvg","pricing_plan_id":"cebpf4jnsgd1na2vs0mg"},{"bike_id":"9d41cd61-533c-4420-b35d-c42d4354af1c","system_id":"levelo_inurba_marseille","lat":43.28245,"lon":5.35057,"is_reserved":false,"is_disabled":false,"rental_uris":{"android":"levelo://app?vid=9d41cd61-533c-4420-b35d-c42d4354af1c","ios":"levelo://app?vid=9d41cd61-533c-4420-b35d-c42d4354af1c"},"vehicle_type_id":"4","last_reported":1731323254,"current_range_meters":15200,"station_id":"ce4bhgh2rcd13ifvqfa0","pricing_plan_id":"cebpf4jnsgd1na2vs0mg"},{"bike_id":"e261fa72-7d32-4fb1-88c4-7333a1bbba14","system_id":"levelo_inurba_marseille","lat":43.26781,"lon":5.39413,"is_reserved":false,"is_disabled":false,"rental_uris":{"android":"levelo://app?vid=e261fa72-7d32-4fb1-88c4-7333a1bbba14","ios":"levelo://app?vid=e261fa72-7d32-4fb1-88c4-7333a1bbba14"},"vehicle_type_id":"4","last_reported":1731323254,"current_range_meters":38800,"station_id":"ce4bhh12rcd13ifvqfg0","pricing_plan_id":"cebpf4jnsgd1na2vs0mg"},{"bike_id":"2a9df905-d575-406b-9572-e562326b7921","system_id":"levelo_inurba_marseille","lat":43.30255,"lon":5.40053,"is_reserved":false,"is_disabled":false,"rental_uris":{"android":"levelo://app?vid=2a9df905-d575-406b-9572-e562326b7921","ios":"levelo://app?vid=2a9df905-d575-406b-9572-e562326b7921"},"vehicle_type_id":"4","last_reported":1731323254,"current_range_meters":31200,"station_id":"ce4bgvh2rcd13ifvqcs0","pricing_plan_id":"cebpf4jnsgd1na2vs0mg"},{"bike_id":"fae85e4f-de2d-4364-a7f5-880f0689af5c","system_id":"levelo_inurba_marseille","lat":43.30183,"lon":5.36608,"is_reserved":false,"is_disabled":false,"rental_uris":{"android":"levelo://app?vid=fae85e4f-de2d-4364-a7f5-880f0689af5c","ios":"levelo://app?vid=fae85e4f-de2d-4364-a7f5-880f0689af5c"},"vehicle_type_id":"4","last_reported":1731323254,"current_range_meters":9200,"station_id":"ce4bgrh2rcd13ifvqc8g","pricing_plan_id":"cebpf4jnsgd1na2vs0mg"},{"bike_id":"21f510aa-ff64-4616-94ba-d046981bc27a","system_id":"levelo_inurba_marseille","lat":43.28402,"lon":5.37519,"is_reserved":false,"is_disabled":false,"rental_uris":{"android":"levelo://app?vid=21f510aa-ff64-4616-94ba-d046981bc27a","ios":"levelo://app?vid=21f510aa-ff64-4616-94ba-d046981bc27a"},"vehicle_type_id":"4","last_reported":1731323254,"current_range_meters":38800,"station_id":"ce4bh412rcd13ifvqds0","pricing_plan_id":"cebpf4jnsgd1na2vs0mg"},{"bike_id":"901a8ee9-a86a-49aa-b9b0-44d3ae03326a","system_id":"levelo_inurba_marseille","lat":43.31714,"lon":5.43702,"is_reserved":false,"is_disabled":false,"rental_uris":{"android":"levelo://app?vid=901a8ee9-a86a-49aa-b9b0-44d3ae03326a","ios":"levelo://app?vid=901a8ee9-a86a-49aa-b9b0-44d3ae03326a"},"vehicle_type_id":"4","last_reported":1731323254,"current_range_meters":8400,"station_id":"ce4bhp92rcd13ifvqhcg","pricing_plan_id":"cebpf4jnsgd1na2vs0mg"},{"bike_id":"52a71ef5-8ef7-4a13-9edb-b931936b8cfb","system_id":"levelo_inurba_marseille","lat":43.33726,"lon":5.39186,"is_reserved":false,"is_disabled":false,"rental_uris":{"android":"levelo://app?vid=52a71ef5-8ef7-4a13-9edb-b931936b8cfb","ios":"levelo://app?vid=52a71ef5-8ef7-4a13-9edb-b931936b8cfb"},"vehicle_type_id":"4","last_reported":1731323254,"current_range_meters":30800,"station_id":"ce4bhr92rcd13ifvqhsg","pricing_plan_id":"cebpf4jnsgd1na2vs0mg"},{"bike_id":"f51901d5-f297-4260-8491-7be7250cd569","system_id":"levelo_inurba_marseille","lat":43.26566,"lon":5.38998,"is_reserved":false,"is_disabled":false,"rental_uris":{"android":"levelo://app?vid=f51901d5-f297-4260-8491-7be7250cd569","ios":"levelo://app?vid=f51901d5-f297-4260-8491-7be7250cd569"},"vehicle_type_id":"4","last_reported":1731323254,"current_range_meters":24000,"station_id":"ce4bhe12rcd13ifvqf30","pricing_plan_id":"cebpf4jnsgd1na2vs0mg"},{"bike_id":"effe6a52-fd80-4e1d-a183-e0e0f1622037","system_id":"levelo_inurba_marseille","lat":43.31993,"lon":5.38148,"is_reserved":false,"is_disabled":false,"rental_uris":{"android":"levelo://app?vid=effe6a52-fd80-4e1d-a183-e0e0f1622037","ios":"levelo://app?vid=effe6a52-fd80-4e1d-a183-e0e0f1622037"},"vehicle_type_id":"4","last_reported":1731323254,"current_range_meters":28800,"station_id":"ce4bhr12rcd13ifvqhpg","pricing_plan_id":"cebpf4jnsgd1na2vs0mg"},{"bike_id":"c4230652-9dc7-46f6-acab-5e8d71ec9409","system_id":"levelo_inurba_marseille","lat":43.26932,"lon":5.38921,"is_reserved":false,"is_disabled":false,"rental_uris":{"android":"levelo://app?vid=c4230652-9dc7-46f6-acab-5e8d71ec9409","ios":"levelo://app?vid=c4230652-9dc7-46f6-acab-5e8d71ec9409"},"vehicle_type_id":"4","last_reported":1731323254,"current_range_meters":32000,"station_id":"ce4bhhh2rcd13ifvqfl0","pricing_plan_id":"cebpf4jnsgd1na2vs0mg"},{"bike_id":"ac0c247f-afb1-4fde-8602-a85a4e1a48cc","system_id":"levelo_inurba_marseille","lat":43.32654,"lon":5.4099,"is_reserved":false,"is_disabled":false,"rental_uris":{"android":"levelo://app?vid=ac0c247f-afb1-4fde-8602-a85a4e1a48cc","ios":"levelo://app?vid=ac0c247f-afb1-4fde-8602-a85a4e1a48cc"},"vehicle_type_id":"4","last_reported":1731323254,"current_range_meters":37600,"station_id":"ce4bhpp2rcd13ifvqhgg","pricing_plan_id":"cebpf4jnsgd1na2vs0mg"},{"bike_id":"7688bd19-3d11-406e-84d9-9c8cd611bb73","system_id":"levelo_inurba_marseille","lat":43.28156,"lon":5.42629,"is_reserved":false,"is_disabled":false,"rental_uris":{"android":"levelo://app?vid=7688bd19-3d11-406e-84d9-9c8cd611bb73","ios":"levelo://app?vid=7688bd19-3d11-406e-84d9-9c8cd611bb73"},"vehicle_type_id":"4","last_reported":1731323254,"current_range_meters":38000,"station_id":"ce4bhnh2rcd13ifvqgug","pricing_plan_id":"cebpf4jnsgd1na2vs0mg"},{"bike_id":"c74a236a-3f2a-4617-8ca8-47c166434983","system_id":"levelo_inurba_marseille","lat":43.28152,"lon":5.42642,"is_reserved":false,"is_disabled":false,"rental_uris":{"android":"levelo://app?vid=c74a236a-3f2a-4617-8ca8-47c166434983","ios":"levelo://app?vid=c74a236a-3f2a-4617-8ca8-47c166434983"},"vehicle_type_id":"4","last_reported":1731323254,"current_range_meters":33600,"station_id":"ce4bhnh2rcd13ifvqgug","pricing_plan_id":"cebpf4jnsgd1na2vs0mg"},{"bike_id":"45704ee0-86f5-40df-a999-9835f4d217e2","system_id":"levelo_inurba_marseille","lat":43.30535,"lon":5.36703,"is_reserved":false,"is_disabled":false,"rental_uris":{"android":"levelo://app?vid=45704ee0-86f5-40df-a999-9835f4d217e2","ios":"levelo://app?vid=45704ee0-86f5-40df-a999-9835f4d217e2"},"vehicle_type_id":"4","last_reported":1731323254,"current_range_meters":38800,"station_id":"ce4bgrp2rcd13ifvqc9g","pricing_plan_id":"cebpf4jnsgd1na2vs0mg"},{"bike_id":"10854acd-bc01-4b81-976f-338cd3da6243","system_id":"levelo_inurba_marseille","lat":43.25105,"lon":5.40324,"is_reserved":false,"is_disabled":false,"rental_uris":{"android":"levelo://app?vid=10854acd-bc01-4b81-976f-338cd3da6243","ios":"levelo://app?vid=10854acd-bc01-4b81-976f-338cd3da6243"},"vehicle_type_id":"4","last_reported":1731323254,"current_range_meters":38800,"station_id":"ce4bhlh2rcd13ifvqgig","pricing_plan_id":"cebpf4jnsgd1na2vs0mg"},{"bike_id":"81c3c706-55d5-4515-bcda-e2c7ffc6d53f","system_id":"levelo_inurba_marseille","lat":43.30801,"lon":5.43513,"is_reserved":false,"is_disabled":false,"rental_uris":{"android":"levelo://app?vid=81c3c706-55d5-4515-bcda-e2c7ffc6d53f","ios":"levelo://app?vid=81c3c706-55d5-4515-bcda-e2c7ffc6d53f"},"vehicle_type_id":"4","last_reported":1731323254,"current_range_meters":38800,"station_id":"ce4bhph2rcd13ifvqheg","pricing_plan_id":"cebpf4jnsgd1na2vs0mg"},{"bike_id":"16edd5e5-0497-4831-bb6b-d18eb7e92293","system_id":"levelo_inurba_marseille","lat":43.24808,"lon":5.37453,"is_reserved":false,"is_disabled":false,"rental_uris":{"android":"levelo://app?vid=16edd5e5-0497-4831-bb6b-d18eb7e92293","ios":"levelo://app?vid=16edd5e5-0497-4831-bb6b-d18eb7e92293"},"vehicle_type_id":"4","last_reported":1731323254,"current_range_meters":24800,"station_id":"ce4bhgh2rcd13ifvqfb0","pricing_plan_id":"cebpf4jnsgd1na2vs0mg"},{"bike_id":"feb86f62-2c80-4064-8e38-33c5534046da","system_id":"levelo_inurba_marseille","lat":43.28197,"lon":5.39921,"is_reserved":false,"is_disabled":false,"rental_uris":{"android":"levelo://app?vid=feb86f62-2c80-4064-8e38-33c5534046da","ios":"levelo://app?vid=feb86f62-2c80-4064-8e38-33c5534046da"},"vehicle_type_id":"4","last_reported":1731323254,"current_range_meters":16800,"station_id":"","pricing_plan_id":"cebpf4jnsgd1na2vs0mg"},{"bike_id":"e4668a9c-7db4-4140-ae91-c11fb3580077","system_id":"levelo_inurba_marseille","lat":43.2799,"lon":5.41664,"is_reserved":false,"is_disabled":false,"rental_uris":{"android":"levelo://app?vid=e4668a9c-7db4-4140-ae91-c11fb3580077","ios":"levelo://app?vid=e4668a9c-7db4-4140-ae91-c11fb3580077"},"vehicle_type_id":"4","last_reported":1731323254,"current_range_meters":25600,"station_id":"ce4bho12rcd13ifvqh1g","pricing_plan_id":"cebpf4jnsgd1na2vs0mg"},{"bike_id":"a2e0dbd8-6bb6-4f58-81e6-a5bb2ebfdca4","system_id":"levelo_inurba_marseille","lat":43.23194,"lon":5.35553,"is_reserved":false,"is_disabled":false,"rental_uris":{"android":"levelo://app?vid=a2e0dbd8-6bb6-4f58-81e6-a5bb2ebfdca4","ios":"levelo://app?vid=a2e0dbd8-6bb6-4f58-81e6-a5bb2ebfdca4"},"vehicle_type_id":"4","last_reported":1731323254,"current_range_meters":38800,"station_id":"ce4bhu92rcd13ifvqi70","pricing_plan_id":"cebpf4jnsgd1na2vs0mg"},{"bike_id":"1ffeff18-7c61-4ed0-b0fe-34a4ca7bc3d5","system_id":"levelo_inurba_marseille","lat":43.30957,"lon":5.39039,"is_reserved":false,"is_disabled":false,"rental_uris":{"android":"levelo://app?vid=1ffeff18-7c61-4ed0-b0fe-34a4ca7bc3d5","ios":"levelo://app?vid=1ffeff18-7c61-4ed0-b0fe-34a4ca7bc3d5"},"vehicle_type_id":"4","last_reported":1731323254,"current_range_meters":16400,"station_id":"","pricing_plan_id":"cebpf4jnsgd1na2vs0mg"},{"bike_id":"9e3f5526-dc45-4ee1-9c8e-05c036614c5b","system_id":"levelo_inurba_marseille","lat":43.248,"lon":5.37455,"is_reserved":false,"is_disabled":false,"rental_uris":{"android":"levelo://app?vid=9e3f5526-dc45-4ee1-9c8e-05c036614c5b","ios":"levelo://app?vid=9e3f5526-dc45-4ee1-9c8e-05c036614c5b"},"vehicle_type_id":"4","last_reported":1731323254,"current_range_meters":36800,"station_id":"ce4bhgh2rcd13ifvqfb0","pricing_plan_id":"cebpf4jnsgd1na2vs0mg"},{"bike_id":"d34bf5b5-25e3-4cbb-9654-ea9ef4a468a2","system_id":"levelo_inurba_marseille","lat":43.23962,"lon":5.36632,"is_reserved":false,"is_disabled":false,"rental_uris":{"android":"levelo://app?vid=d34bf5b5-25e3-4cbb-9654-ea9ef4a468a2","ios":"levelo://app?vid=d34bf5b5-25e3-4cbb-9654-ea9ef4a468a2"},"vehicle_type_id":"4","last_reported":1731323254,"current_range_meters":21600,"station_id":"ce4bhi12rcd13ifvqfp0","pricing_plan_id":"cebpf4jnsgd1na2vs0mg"},{"bike_id":"ab2a664c-93a2-484e-b5f9-981e6a4f4ccf","system_id":"levelo_inurba_marseille","lat":43.25862,"lon":5.39904,"is_reserved":false,"is_disabled":false,"rental_uris":{"android":"levelo://app?vid=ab2a664c-93a2-484e-b5f9-981e6a4f4ccf","ios":"levelo://app?vid=ab2a664c-93a2-484e-b5f9-981e6a4f4ccf"},"vehicle_type_id":"4","last_reported":1731323254,"current_range_meters":32800,"station_id":"ce4bhl92rcd13ifvqghg","pricing_plan_id":"cebpf4jnsgd1na2vs0mg"},{"bike_id":"f9d6f522-b8e8-45ab-ab43-51afd3e311d2","system_id":"levelo_inurba_marseille","lat":43.3135,"lon":5.36712,"is_reserved":false,"is_disabled":false,"rental_uris":{"android":"levelo://app?vid=f9d6f522-b8e8-45ab-ab43-51afd3e311d2","ios":"levelo://app?vid=f9d6f522-b8e8-45ab-ab43-51afd3e311d2"},"vehicle_type_id":"4","last_reported":1731323254,"current_range_meters":37600,"station_id":"ce4bgr92rcd13ifvqc6g","pricing_plan_id":"cebpf4jnsgd1na2vs0mg"},{"bike_id":"19781bd1-7c8d-4a05-8c58-ccd6096ac1e3","system_id":"levelo_inurba_marseille","lat":43.29027,"lon":5.37554,"is_reserved":false,"is_disabled":false,"rental_uris":{"android":"levelo://app?vid=19781bd1-7c8d-4a05-8c58-ccd6096ac1e3","ios":"levelo://app?vid=19781bd1-7c8d-4a05-8c58-ccd6096ac1e3"},"vehicle_type_id":"4","last_reported":1731323254,"current_range_meters":35600,"station_id":"ce4bh692rcd13ifvqe90","pricing_plan_id":"cebpf4jnsgd1na2vs0mg"},{"bike_id":"cdfbc247-da95-4467-b8de-f60c866cf66a","system_id":"levelo_inurba_marseille","lat":43.29555,"lon":5.42284,"is_reserved":false,"is_disabled":false,"rental_uris":{"android":"levelo://app?vid=cdfbc247-da95-4467-b8de-f60c866cf66a","ios":"levelo://app?vid=cdfbc247-da95-4467-b8de-f60c866cf66a"},"vehicle_type_id":"4","last_reported":1731323254,"current_range_meters":11600,"station_id":"ce4bhph2rcd13ifvqhdg","pricing_plan_id":"cebpf4jnsgd1na2vs0mg"},{"bike_id":"7ca74166-6ab5-495b-9696-584d02466e1d","system_id":"levelo_inurba_marseille","lat":43.33599,"lon":5.41019,"is_reserved":false,"is_disabled":false,"rental_uris":{"android":"levelo://app?vid=7ca74166-6ab5-495b-9696-584d02466e1d","ios":"levelo://app?vid=7ca74166-6ab5-495b-9696-584d02466e1d"},"vehicle_type_id":"4","last_reported":1731323254,"current_range_meters":13600,"station_id":"ce4bhqh2rcd13ifvqhmg","pricing_plan_id":"cebpf4jnsgd1na2vs0mg"},{"bike_id":"0e1b6e24-8ebe-441d-ac01-cf4aede805b5","system_id":"levelo_inurba_marseille","lat":43.28262,"lon":5.35061,"is_reserved":false,"is_disabled":false,"rental_uris":{"android":"levelo://app?vid=0e1b6e24-8ebe-441d-ac01-cf4aede805b5","ios":"levelo://app?vid=0e1b6e24-8ebe-441d-ac01-cf4aede805b5"},"vehicle_type_id":"4","last_reported":1731323254,"current_range_meters":30800,"station_id":"ce4bhbp2rcd13ifvqerg","pricing_plan_id":"cebpf4jnsgd1na2vs0mg"},{"bike_id":"81f3e9b3-4549-421b-9e28-6aa927ceae6f","system_id":"levelo_inurba_marseille","lat":43.30465,"lon":5.37913,"is_reserved":false,"is_disabled":false,"rental_uris":{"android":"levelo://app?vid=81f3e9b3-4549-421b-9e28-6aa927ceae6f","ios":"levelo://app?vid=81f3e9b3-4549-421b-9e28-6aa927ceae6f"},"vehicle_type_id":"4","last_reported":1731323254,"current_range_meters":30800,"station_id":"ce4bgup2rcd13ifvqcn0","pricing_plan_id":"cebpf4jnsgd1na2vs0mg"},{"bike_id":"4ec64de8-7fe0-47cf-b20d-6779a023e615","system_id":"levelo_inurba_marseille","lat":43.26495,"lon":5.3955,"is_reserved":false,"is_disabled":false,"rental_uris":{"android":"levelo://app?vid=4ec64de8-7fe0-47cf-b20d-6779a023e615","ios":"levelo://app?vid=4ec64de8-7fe0-47cf-b20d-6779a023e615"},"vehicle_type_id":"4","last_reported":1731323254,"current_range_meters":39200,"station_id":"ce4bhi12rcd13ifvqfq0","pricing_plan_id":"cebpf4jnsgd1na2vs0mg"},{"bike_id":"7d7fc58e-790d-40dd-a4f3-0ca32ebc6ff0","system_id":"levelo_inurba_marseille","lat":43.3302,"lon":5.39035,"is_reserved":false,"is_disabled":false,"rental_uris":{"android":"levelo://app?vid=7d7fc58e-790d-40dd-a4f3-0ca32ebc6ff0","ios":"levelo://app?vid=7d7fc58e-790d-40dd-a4f3-0ca32ebc6ff0"},"vehicle_type_id":"4","last_reported":1731323254,"current_range_meters":38800,"station_id":"ce4bhr92rcd13ifvqhrg","pricing_plan_id":"cebpf4jnsgd1na2vs0mg"},{"bike_id":"bc823753-5863-4a0c-a4f7-f302332dcf13","system_id":"levelo_inurba_marseille","lat":43.297338,"lon":5.380351,"is_reserved":false,"is_disabled":false,"rental_uris":{"android":"levelo://app?vid=bc823753-5863-4a0c-a4f7-f302332dcf13","ios":"levelo://app?vid=bc823753-5863-4a0c-a4f7-f302332dcf13"},"vehicle_type_id":"4","last_reported":1731323254,"current_range_meters":35600,"station_id":"ce4bhhh2rcd13ifvqfl0","pricing_plan_id":"cebpf4jnsgd1na2vs0mg"},{"bike_id":"496c4adf-6bcf-4e52-b951-ac9fa9431531","system_id":"levelo_inurba_marseille","lat":43.30141,"lon":5.37418,"is_reserved":false,"is_disabled":false,"rental_uris":{"android":"levelo://app?vid=496c4adf-6bcf-4e52-b951-ac9fa9431531","ios":"levelo://app?vid=496c4adf-6bcf-4e52-b951-ac9fa9431531"},"vehicle_type_id":"4","last_reported":1731323254,"current_range_meters":33600,"station_id":"ce4bgs92rcd13ifvqcc0","pricing_plan_id":"cebpf4jnsgd1na2vs0mg"},{"bike_id":"b16943e1-6e4b-4767-8789-7da828786277","system_id":"levelo_inurba_marseille","lat":43.34179,"lon":5.38602,"is_reserved":false,"is_disabled":false,"rental_uris":{"android":"levelo://app?vid=b16943e1-6e4b-4767-8789-7da828786277","ios":"levelo://app?vid=b16943e1-6e4b-4767-8789-7da828786277"},"vehicle_type_id":"4","last_reported":1731323254,"current_range_meters":14000,"station_id":"","pricing_plan_id":"cebpf4jnsgd1na2vs0mg"},{"bike_id":"8ddd264a-b043-4729-a13d-707fc33607bf","system_id":"levelo_inurba_marseille","lat":43.26061,"lon":5.39399,"is_reserved":false,"is_disabled":false,"rental_uris":{"android":"levelo://app?vid=8ddd264a-b043-4729-a13d-707fc33607bf","ios":"levelo://app?vid=8ddd264a-b043-4729-a13d-707fc33607bf"},"vehicle_type_id":"4","last_reported":1731323254,"current_range_meters":39200,"station_id":"ce4bhh92rcd13ifvqfj0","pricing_plan_id":"cebpf4jnsgd1na2vs0mg"},{"bike_id":"a3a018f7-41e6-4222-9b13-31aca335a5de","system_id":"levelo_inurba_marseille","lat":43.2998,"lon":5.37178,"is_reserved":false,"is_disabled":false,"rental_uris":{"android":"levelo://app?vid=a3a018f7-41e6-4222-9b13-31aca335a5de","ios":"levelo://app?vid=a3a018f7-41e6-4222-9b13-31aca335a5de"},"vehicle_type_id":"4","last_reported":1731323254,"current_range_meters":38000,"station_id":"ce4bgr92rcd13ifvqc7g","pricing_plan_id":"cebpf4jnsgd1na2vs0mg"},{"bike_id":"eabf1e72-9c75-49e7-a6a0-99f49f2dfe93","system_id":"levelo_inurba_marseille","lat":43.27902,"lon":5.3801,"is_reserved":false,"is_disabled":false,"rental_uris":{"android":"levelo://app?vid=eabf1e72-9c75-49e7-a6a0-99f49f2dfe93","ios":"levelo://app?vid=eabf1e72-9c75-49e7-a6a0-99f49f2dfe93"},"vehicle_type_id":"4","last_reported":1731323254,"current_range_meters":10000,"station_id":"ce4bhf92rcd13ifvqf50","pricing_plan_id":"cebpf4jnsgd1na2vs0mg"},{"bike_id":"0acccacb-5c5e-4293-af73-a3ca4b76801a","system_id":"levelo_inurba_marseille","lat":43.27951,"lon":5.41047,"is_reserved":false,"is_disabled":false,"rental_uris":{"android":"levelo://app?vid=0acccacb-5c5e-4293-af73-a3ca4b76801a","ios":"levelo://app?vid=0acccacb-5c5e-4293-af73-a3ca4b76801a"},"vehicle_type_id":"4","last_reported":1731323254,"current_range_meters":8800,"station_id":"ce4bhnp2rcd13ifvqh0g","pricing_plan_id":"cebpf4jnsgd1na2vs0mg"},{"bike_id":"5484c8c1-d39f-4d36-af30-bf9767c080c3","system_id":"levelo_inurba_marseille","lat":43.25002,"lon":5.38928,"is_reserved":false,"is_disabled":false,"rental_uris":{"android":"levelo://app?vid=5484c8c1-d39f-4d36-af30-bf9767c080c3","ios":"levelo://app?vid=5484c8c1-d39f-4d36-af30-bf9767c080c3"},"vehicle_type_id":"4","last_reported":1731323254,"current_range_meters":38800,"station_id":"ce4bhgp2rcd13ifvqfd0","pricing_plan_id":"cebpf4jnsgd1na2vs0mg"},{"bike_id":"8c48d3f2-3007-45a0-b8c2-67ae4b7603f3","system_id":"levelo_inurba_marseille","lat":43.25495,"lon":5.37649,"is_reserved":false,"is_disabled":false,"rental_uris":{"android":"levelo://app?vid=8c48d3f2-3007-45a0-b8c2-67ae4b7603f3","ios":"levelo://app?vid=8c48d3f2-3007-45a0-b8c2-67ae4b7603f3"},"vehicle_type_id":"4","last_reported":1731323254,"current_range_meters":35200,"station_id":"ce4bhh12rcd13ifvqff0","pricing_plan_id":"cebpf4jnsgd1na2vs0mg"},{"bike_id":"034ba016-6715-4249-a358-5d5a5d22db28","system_id":"levelo_inurba_marseille","lat":43.27954,"lon":5.41048,"is_reserved":false,"is_disabled":false,"rental_uris":{"android":"levelo://app?vid=034ba016-6715-4249-a358-5d5a5d22db28","ios":"levelo://app?vid=034ba016-6715-4249-a358-5d5a5d22db28"},"vehicle_type_id":"4","last_reported":1731323254,"current_range_meters":17600,"station_id":"ce4bhnp2rcd13ifvqh0g","pricing_plan_id":"cebpf4jnsgd1na2vs0mg"},{"bike_id":"a6d14fd8-6ac0-4e50-a9b0-2792821bb255","system_id":"levelo_inurba_marseille","lat":43.32334,"lon":5.40626,"is_reserved":false,"is_disabled":false,"rental_uris":{"android":"levelo://app?vid=a6d14fd8-6ac0-4e50-a9b0-2792821bb255","ios":"levelo://app?vid=a6d14fd8-6ac0-4e50-a9b0-2792821bb255"},"vehicle_type_id":"4","last_reported":1731323254,"current_range_meters":10000,"station_id":"ce4bhq92rcd13ifvqhjg","pricing_plan_id":"cebpf4jnsgd1na2vs0mg"},{"bike_id":"099b4713-533f-4885-990d-46711f582187","system_id":"levelo_inurba_marseille","lat":43.31721,"lon":5.42399,"is_reserved":false,"is_disabled":false,"rental_uris":{"android":"levelo://app?vid=099b4713-533f-4885-990d-46711f582187","ios":"levelo://app?vid=099b4713-533f-4885-990d-46711f582187"},"vehicle_type_id":"4","last_reported":1731323254,"current_range_meters":18000,"station_id":"ce4bhp92rcd13ifvqhbg","pricing_plan_id":"cebpf4jnsgd1na2vs0mg"},{"bike_id":"ac107f88-cb4e-4e0d-bc80-1f9223d6554b","system_id":"levelo_inurba_marseille","lat":43.25581,"lon":5.38236,"is_reserved":false,"is_disabled":false,"rental_uris":{"android":"levelo://app?vid=ac107f88-cb4e-4e0d-bc80-1f9223d6554b","ios":"levelo://app?vid=ac107f88-cb4e-4e0d-bc80-1f9223d6554b"},"vehicle_type_id":"4","last_reported":1731323254,"current_range_meters":38800,"station_id":"ce4bhih2rcd13ifvqfs0","pricing_plan_id":"cebpf4jnsgd1na2vs0mg"},{"bike_id":"6fa90877-f6be-45c8-aee9-caf644627a1c","system_id":"levelo_inurba_marseille","lat":43.33282,"lon":5.39529,"is_reserved":false,"is_disabled":false,"rental_uris":{"android":"levelo://app?vid=6fa90877-f6be-45c8-aee9-caf644627a1c","ios":"levelo://app?vid=6fa90877-f6be-45c8-aee9-caf644627a1c"},"vehicle_type_id":"4","last_reported":1731323254,"current_range_meters":15200,"station_id":"","pricing_plan_id":"cebpf4jnsgd1na2vs0mg"},{"bike_id":"a347c9be-d588-4eb0-b9e9-73e02db827dd","system_id":"levelo_inurba_marseille","lat":43.28956,"lon":5.36459,"is_reserved":false,"is_disabled":false,"rental_uris":{"android":"levelo://app?vid=a347c9be-d588-4eb0-b9e9-73e02db827dd","ios":"levelo://app?vid=a347c9be-d588-4eb0-b9e9-73e02db827dd"},"vehicle_type_id":"4","last_reported":1731323254,"current_range_meters":27600,"station_id":"","pricing_plan_id":"cebpf4jnsgd1na2vs0mg"},{"bike_id":"2a66e680-7e29-4b45-80ef-f3d487a6c23f","system_id":"levelo_inurba_marseille","lat":43.3093,"lon":5.40146,"is_reserved":false,"is_disabled":false,"rental_uris":{"android":"levelo://app?vid=2a66e680-7e29-4b45-80ef-f3d487a6c23f","ios":"levelo://app?vid=2a66e680-7e29-4b45-80ef-f3d487a6c23f"},"vehicle_type_id":"4","last_reported":1731323254,"current_range_meters":38800,"station_id":"ce4bgvp2rcd13ifvqct0","pricing_plan_id":"cebpf4jnsgd1na2vs0mg"},{"bike_id":"c64fdf34-ff0b-4e61-bc76-c773e8a402db","system_id":"levelo_inurba_marseille","lat":43.26773,"lon":5.39422,"is_reserved":false,"is_disabled":false,"rental_uris":{"android":"levelo://app?vid=c64fdf34-ff0b-4e61-bc76-c773e8a402db","ios":"levelo://app?vid=c64fdf34-ff0b-4e61-bc76-c773e8a402db"},"vehicle_type_id":"4","last_reported":1731323254,"current_range_meters":38800,"station_id":"ce4bhh12rcd13ifvqfg0","pricing_plan_id":"cebpf4jnsgd1na2vs0mg"},{"bike_id":"875e919c-a90b-474a-8a0d-7e099dbd6862","system_id":"levelo_inurba_marseille","lat":43.28608,"lon":5.37066,"is_reserved":false,"is_disabled":false,"rental_uris":{"android":"levelo://app?vid=875e919c-a90b-474a-8a0d-7e099dbd6862","ios":"levelo://app?vid=875e919c-a90b-474a-8a0d-7e099dbd6862"},"vehicle_type_id":"4","last_reported":1731323254,"current_range_meters":31200,"station_id":"ce4bht12rcd13ifvqi60","pricing_plan_id":"cebpf4jnsgd1na2vs0mg"},{"bike_id":"19a63b7e-6946-44b4-8a9c-0cbf66ad6350","system_id":"levelo_inurba_marseille","lat":43.30933,"lon":5.38245,"is_reserved":false,"is_disabled":false,"rental_uris":{"android":"levelo://app?vid=19a63b7e-6946-44b4-8a9c-0cbf66ad6350","ios":"levelo://app?vid=19a63b7e-6946-44b4-8a9c-0cbf66ad6350"},"vehicle_type_id":"4","last_reported":1731323254,"current_range_meters":26800,"station_id":"ce4bhqp2rcd13ifvqhng","pricing_plan_id":"cebpf4jnsgd1na2vs0mg"},{"bike_id":"fab79938-510c-4093-9a69-02c483512556","system_id":"levelo_inurba_marseille","lat":43.29553,"lon":5.42277,"is_reserved":false,"is_disabled":false,"rental_uris":{"android":"levelo://app?vid=fab79938-510c-4093-9a69-02c483512556","ios":"levelo://app?vid=fab79938-510c-4093-9a69-02c483512556"},"vehicle_type_id":"4","last_reported":1731323254,"current_range_meters":31200,"station_id":"ce4bhph2rcd13ifvqhdg","pricing_plan_id":"cebpf4jnsgd1na2vs0mg"},{"bike_id":"919b8114-8455-4c55-ad8f-2d74f8ad5173","system_id":"levelo_inurba_marseille","lat":43.28263,"lon":5.35051,"is_reserved":false,"is_disabled":false,"rental_uris":{"android":"levelo://app?vid=919b8114-8455-4c55-ad8f-2d74f8ad5173","ios":"levelo://app?vid=919b8114-8455-4c55-ad8f-2d74f8ad5173"},"vehicle_type_id":"4","last_reported":1731323254,"current_range_meters":31200,"station_id":"ce4bhbp2rcd13ifvqerg","pricing_plan_id":"cebpf4jnsgd1na2vs0mg"},{"bike_id":"ce56e011-3499-47a7-9be3-f3863f6a2003","system_id":"levelo_inurba_marseille","lat":43.30543,"lon":5.36712,"is_reserved":false,"is_disabled":false,"rental_uris":{"android":"levelo://app?vid=ce56e011-3499-47a7-9be3-f3863f6a2003","ios":"levelo://app?vid=ce56e011-3499-47a7-9be3-f3863f6a2003"},"vehicle_type_id":"4","last_reported":1731323254,"current_range_meters":25600,"station_id":"ce4bgrp2rcd13ifvqc9g","pricing_plan_id":"cebpf4jnsgd1na2vs0mg"},{"bike_id":"defc3f91-0e20-4f36-862e-dd9891d2e2de","system_id":"levelo_inurba_marseille","lat":43.26802,"lon":5.40268,"is_reserved":false,"is_disabled":false,"rental_uris":{"android":"levelo://app?vid=defc3f91-0e20-4f36-862e-dd9891d2e2de","ios":"levelo://app?vid=defc3f91-0e20-4f36-862e-dd9891d2e2de"},"vehicle_type_id":"4","last_reported":1731323254,"current_range_meters":38800,"station_id":"ce501612rcd8frsf0b60","pricing_plan_id":"cebpf4jnsgd1na2vs0mg"},{"bike_id":"524830da-6fac-4992-9216-3cf9bc773db9","system_id":"levelo_inurba_marseille","lat":43.27906,"lon":5.38013,"is_reserved":false,"is_disabled":false,"rental_uris":{"android":"levelo://app?vid=524830da-6fac-4992-9216-3cf9bc773db9","ios":"levelo://app?vid=524830da-6fac-4992-9216-3cf9bc773db9"},"vehicle_type_id":"4","last_reported":1731323254,"current_range_meters":36400,"station_id":"ce4bhf92rcd13ifvqf50","pricing_plan_id":"cebpf4jnsgd1na2vs0mg"},{"bike_id":"95a29b49-7218-4ae2-8a20-f16d50246826","system_id":"levelo_inurba_marseille","lat":43.31711,"lon":5.43709,"is_reserved":false,"is_disabled":false,"rental_uris":{"android":"levelo://app?vid=95a29b49-7218-4ae2-8a20-f16d50246826","ios":"levelo://app?vid=95a29b49-7218-4ae2-8a20-f16d50246826"},"vehicle_type_id":"4","last_reported":1731323254,"current_range_meters":38800,"station_id":"ce4bhp92rcd13ifvqhcg","pricing_plan_id":"cebpf4jnsgd1na2vs0mg"},{"bike_id":"be8d4783-5c7f-42e8-a5c2-d03bee020a7d","system_id":"levelo_inurba_marseille","lat":43.24385,"lon":5.37055,"is_reserved":false,"is_disabled":false,"rental_uris":{"android":"levelo://app?vid=be8d4783-5c7f-42e8-a5c2-d03bee020a7d","ios":"levelo://app?vid=be8d4783-5c7f-42e8-a5c2-d03bee020a7d"},"vehicle_type_id":"4","last_reported":1731323254,"current_range_meters":38800,"station_id":"ce4bhhh2rcd13ifvqfk0","pricing_plan_id":"cebpf4jnsgd1na2vs0mg"},{"bike_id":"d4a84b74-1db0-4b3d-a1a1-5e5049f76316","system_id":"levelo_inurba_marseille","lat":43.28268,"lon":5.35071,"is_reserved":false,"is_disabled":false,"rental_uris":{"android":"levelo://app?vid=d4a84b74-1db0-4b3d-a1a1-5e5049f76316","ios":"levelo://app?vid=d4a84b74-1db0-4b3d-a1a1-5e5049f76316"},"vehicle_type_id":"4","last_reported":1731323254,"current_range_meters":36000,"station_id":"ce4bhbp2rcd13ifvqerg","pricing_plan_id":"cebpf4jnsgd1na2vs0mg"},{"bike_id":"41afe010-b401-4c44-92e0-366e9d037d11","system_id":"levelo_inurba_marseille","lat":43.29527,"lon":5.38544,"is_reserved":false,"is_disabled":false,"rental_uris":{"android":"levelo://app?vid=41afe010-b401-4c44-92e0-366e9d037d11","ios":"levelo://app?vid=41afe010-b401-4c44-92e0-366e9d037d11"},"vehicle_type_id":"4","last_reported":1731323254,"current_range_meters":28000,"station_id":"ce4bgih2rcd13ifvqba0","pricing_plan_id":"cebpf4jnsgd1na2vs0mg"},{"bike_id":"537256ee-18b9-4e44-8f63-02c6657718e5","system_id":"levelo_inurba_marseille","lat":43.34143,"lon":5.40897,"is_reserved":false,"is_disabled":false,"rental_uris":{"android":"levelo://app?vid=537256ee-18b9-4e44-8f63-02c6657718e5","ios":"levelo://app?vid=537256ee-18b9-4e44-8f63-02c6657718e5"},"vehicle_type_id":"4","last_reported":1731323254,"current_range_meters":38000,"station_id":"ce4bhqh2rcd13ifvqhlg","pricing_plan_id":"cebpf4jnsgd1na2vs0mg"},{"bike_id":"91d27678-9fb5-4cf2-a1c3-8861feddf228","system_id":"levelo_inurba_marseille","lat":43.2319,"lon":5.35552,"is_reserved":false,"is_disabled":false,"rental_uris":{"android":"levelo://app?vid=91d27678-9fb5-4cf2-a1c3-8861feddf228","ios":"levelo://app?vid=91d27678-9fb5-4cf2-a1c3-8861feddf228"},"vehicle_type_id":"4","last_reported":1731323254,"current_range_meters":37600,"station_id":"ce4bhu92rcd13ifvqi70","pricing_plan_id":"cebpf4jnsgd1na2vs0mg"},