{"last_updated":1733839784,"ttl":60,"version":"2.2","data":{"bikes":[{"bike_id":"cc832c36-3383-49a4-b52c-5913dffcd510","system_id":"levelo_inurba_marseille","lat":43.305337,"lon":5.367158,"is_reserved":false,"is_disabled":false,"rental_uris":{"android":"levelo://app?vid=cc832c36-3383-49a4-b52c-5913dffcd510","ios":"levelo://app?vid=cc832c36-3383-49a4-b52c-5913dffcd510"},"vehicle_type_id":"4","last_reported":1733839784,"current_range_meters":38800,"station_id":"ce4bgrp2rcd13ifvqc9g","pricing_plan_id":"cebpf4jnsgd1na2vs0mg"},{"bike_id":"125dec9f-331d-4aae-81df-831e528b1e4c","system_id":"levelo_inurba_marseille","lat":43.25716,"lon":5.41112,"is_reserved":false,"is_disabled":false,"rental_uris":{"android":"levelo://app?vid=125dec9f-331d-4aae-81df-831e528b1e4c","ios":"levelo://app?vid=125dec9f-331d-4aae-81df-831e528b1e4c"},"vehicle_type_id":"4","last_reported":1733839784,"current_range_meters":37600,"station_id":"ce4bhkp2rcd13ifvqgd0","pricing_plan_id":"cebpf4jnsgd1na2vs0mg"},{"bike_id":"9e840671-2878-4845-b8fb-114afd1f4bc9","system_id":"levelo_inurba_marseille","lat":43.26686,"lon":5.38274,"is_reserved":false,"is_disabled":true,"rental_uris":{"android":"levelo://app?vid=9e840671-2878-4845-b8fb-114afd1f4bc9","ios":"levelo://app?vid=9e840671-2878-4845-b8fb-114afd1f4bc9"},"vehicle_type_id":"4","last_reported":1733839784,"current_range_meters":1200,"station_id":"ce4bhg92rcd13ifvqf90","pricing_plan_id":"cebpf4jnsgd1na2vs0mg"},{"bike_id":"394315b9-0931-485c-a5af-347e05251cbc","system_id":"levelo_inurba_marseille","lat":43.26954,"lon":5.38637,"is_reserved":false,"is_disabled":false,"rental_uris":{"android":"levelo://app?vid=394315b9-0931-485c-a5af-347e05251cbc","ios":"levelo://app?vid=394315b9-0931-485c-a5af-347e05251cbc"},"vehicle_type_id":"4","last_reported":1733839784,"current_range_meters":30000,"station_id":"ce4bhh92rcd13ifvqfh0","pricing_plan_id":"cebpf4jnsgd1na2vs0mg"},{"bike_id":"8e029eaf-e104-4c5d-858d-6cd39de73d09","system_id":"levelo_inurba_marseille","lat":43.24148,"lon":5.36381,"is_reserved":false,"is_disabled":false,"rental_uris":{"android":"levelo://app?vid=8e029eaf-e104-4c5d-858d-6cd39de73d09","ios":"levelo://app?vid=8e029eaf-e104-4c5d-858d-6cd39de73d09"},"vehicle_type_id":"4","last_reported":1733839784,"current_range_meters":16400,"station_id":"cpo36qri1sfpv3e86is0","pricing_plan_id":"cebpf4jnsgd1na2vs0mg"},{"bike_id":"1492b045-9850-454a-9552-3dcd89cb51f7","system_id":"levelo_inurba_marseille","lat":43.2997,"lon":5.37169,"is_reserved":false,"is_disabled":false,"rental_uris":{"android":"levelo://app?vid=1492b045-9850-454a-9552-3dcd89cb51f7","ios":"levelo://app?vid=1492b045-9850-454a-9552-3dcd89cb51f7"},"vehicle_type_id":"4","last_reported":1733839784,"current_range_meters":30000,"station_id":"ce4bgr92rcd13ifvqc7g","pricing_plan_id":"cebpf4jnsgd1na2vs0mg"},{"bike_id":"9fd0ac7c-0144-46a0-b1b2-f558ffbf21a2","system_id":"levelo_inurba_marseille","lat":43.24999,"lon":5.38941,"is_reserved":false,"is_disabled":false,"rental_uris":{"android":"levelo://app?vid=9fd0ac7c-0144-46a0-b1b2-f558ffbf21a2","ios":"levelo://app?vid=9fd0ac7c-0144-46a0-b1b2-f558ffbf21a2"},"vehicle_type_id":"4","last_reported":1733839784,"current_range_meters":33600,"station_id":"ce4bhgp2rcd13ifvqfd0","pricing_plan_id":"cebpf4jnsgd1na2vs0mg"},{"bike_id":"9c4df75c-1ede-4918-9948-a643626f5a02","system_id":"levelo_inurba_marseille","lat":43.29627,"lon":5.37153,"is_reserved":false,"is_disabled":false,"rental_uris":{"android":"levelo://app?vid=9c4df75c-1ede-4918-9948-a643626f5a02","ios":"levelo://app?vid=9c4df75c-1ede-4918-9948-a643626f5a02"},"vehicle_type_id":"4","last_reported":1733839784,"current_range_meters":38400,"station_id":"ce4bgnh2rcd13ifvqc0g","pricing_plan_id":"cebpf4jnsgd1na2vs0mg"},{"bike_id":"42330192-d9ea-44e9-ab4c-525b82fbd288","system_id":"levelo_inurba_marseille","lat":43.26211,"lon":5.37446,"is_reserved":false,"is_disabled":false,"rental_uris":{"android":"levelo://app?vid=42330192-d9ea-44e9-ab4c-525b82fbd288","ios":"levelo://app?vid=42330192-d9ea-44e9-ab4c-525b82fbd288"},"vehicle_type_id":"4","last_reported":1733839784,"current_range_meters":6400,"station_id":"ce4bhgp2rcd13ifvqfc0","pricing_plan_id":"cebpf4jnsgd1na2vs0mg"},{"bike_id":"014914cf-eb98-4b5d-8cd3-12a67a219c23","system_id":"levelo_inurba_marseille","lat":43.33616,"lon":5.41037,"is_reserved":false,"is_disabled":true,"rental_uris":{"android":"levelo://app?vid=014914cf-eb98-4b5d-8cd3-12a67a219c23","ios":"levelo://app?vid=014914cf-eb98-4b5d-8cd3-12a67a219c23"},"vehicle_type_id":"4","last_reported":1733839784,"current_range_meters":38000,"station_id":"ce4bhqh2rcd13ifvqhmg","pricing_plan_id":"cebpf4jnsgd1na2vs0mg"},{"bike_id":"bbfe7042-3668-421a-b9b3-1a1c7c7a355e","system_id":"levelo_inurba_marseille","lat":43.28713,"lon":5.37934,"is_reserved":false,"is_disabled":false,"rental_uris":{"android":"levelo://app?vid=bbfe7042-3668-421a-b9b3-1a1c7c7a355e","ios":"levelo://app?vid=bbfe7042-3668-421a-b9b3-1a1c7c7a355e"},"vehicle_type_id":"4","last_reported":1733839784,"current_range_meters":38800,"station_id":"ce4bh9p2rcd13ifvqec0","pricing_plan_id":"cebpf4jnsgd1na2vs0mg"},{"bike_id":"09d536fd-ea45-4e0b-b9ab-99cdb0bdacbb","system_id":"levelo_inurba_marseille","lat":43.27203,"lon":5.39181,"is_reserved":false,"is_disabled":false,"rental_uris":{"android":"levelo://app?vid=09d536fd-ea45-4e0b-b9ab-99cdb0bdacbb","ios":"levelo://app?vid=09d536fd-ea45-4e0b-b9ab-99cdb0bdacbb"},"vehicle_type_id":"4","last_reported":1733839784,"current_range_meters":30000,"station_id":"ce4bhhp2rcd13ifvqfm0","pricing_plan_id":"cebpf4jnsgd1na2vs0mg"},{"bike_id":"8bd642b2-0279-44c7-9ee2-fc3b57332c83","system_id":"levelo_inurba_marseille","lat":43.27455,"lon":5.40073,"is_reserved":false,"is_disabled":true,"rental_uris":{"android":"levelo://app?vid=8bd642b2-0279-44c7-9ee2-fc3b57332c83","ios":"levelo://app?vid=8bd642b2-0279-44c7-9ee2-fc3b57332c83"},"vehicle_type_id":"4","last_reported":1733839784,"current_range_meters":0,"station_id":"","pricing_plan_id":"cebpf4jnsgd1na2vs0mg"},{"bike_id":"59b0b34c-6f92-4349-9ebf-bf641fd76061","system_id":"levelo_inurba_marseille","lat":43.27069,"lon":5.42279,"is_reserved":false,"is_disabled":true,"rental_uris":{"android":"levelo://app?vid=59b0b34c-6f92-4349-9ebf-bf641fd76061","ios":"levelo://app?vid=59b0b34c-6f92-4349-9ebf-bf641fd76061"},"vehicle_type_id":"4","last_reported":1733839784,"current_range_meters":31200,"station_id":"ce4bhk92rcd13ifvqgb0","pricing_plan_id":"cebpf4jnsgd1na2vs0mg"},{"bike_id":"1daaf570-94ab-4915-b18f-ae2ea09b7933","system_id":"levelo_inurba_marseille","lat":43.27495,"lon":5.4245,"is_reserved":false,"is_disabled":false,"rental_uris":{"android":"levelo://app?vid=1daaf570-94ab-4915-b18f-ae2ea09b7933","ios":"levelo://app?vid=1daaf570-94ab-4915-b18f-ae2ea09b7933"},"vehicle_type_id":"4","last_reported":1733839784,"current_range_meters":16400,"station_id":"ce4bhn92rcd13ifvqgrg","pricing_plan_id":"cebpf4jnsgd1na2vs0mg"},{"bike_id":"f09914a1-032a-4233-965f-c73f49a269ba","system_id":"levelo_inurba_marseille","lat":43.337444,"lon":5.374475,"is_reserved":false,"is_disabled":true,"rental_uris":{"android":"levelo://app?vid=f09914a1-032a-4233-965f-c73f49a269ba","ios":"levelo://app?vid=f09914a1-032a-4233-965f-c73f49a269ba"},"vehicle_type_id":"4","last_reported":1733839784,"current_range_meters":0,"station_id":"","pricing_plan_id":"cebpf4jnsgd1na2vs0mg"},{"bike_id":"76525433-6ea2-4692-9f86-be767bddfa70","system_id":"levelo_inurba_marseille","lat":43.29372,"lon":5.37848,"is_reserved":false,"is_disabled":false,"rental_uris":{"android":"levelo://app?vid=76525433-6ea2-4692-9f86-be767bddfa70","ios":"levelo://app?vid=76525433-6ea2-4692-9f86-be767bddfa70"},"vehicle_type_id":"4","last_reported":1733839784,"current_range_meters":39200,"station_id":"ce4bgjh2rcd13ifvqbf0","pricing_plan_id":"cebpf4jnsgd1na2vs0mg"},{"bike_id":"1c7f3745-3640-4246-8c6e-6909d31b63ca","system_id":"levelo_inurba_marseille","lat":43.296986,"lon":5.366378,"is_reserved":false,"is_disabled":false,"rental_uris":{"android":"levelo://app?vid=1c7f3745-3640-4246-8c6e-6909d31b63ca","ios":"levelo://app?vid=1c7f3745-3640-4246-8c6e-6909d31b63ca"},"vehicle_type_id":"4","last_reported":1733839784,"current_range_meters":30000,"station_id":"ce4bgn12rcd13ifvqbt0","pricing_plan_id":"cebpf4jnsgd1na2vs0mg"},{"bike_id":"f6ceca24-19af-4ed8-b20b-dad7699688ae","system_id":"levelo_inurba_marseille","lat":43.32479,"lon":5.36574,"is_reserved":false,"is_disabled":true,"rental_uris":{"android":"levelo://app?vid=f6ceca24-19af-4ed8-b20b-dad7699688ae","ios":"levelo://app?vid=f6ceca24-19af-4ed8-b20b-dad7699688ae"},"vehicle_type_id":"4","last_reported":1733839784,"current_range_meters":24000,"station_id":"ce4bhs12rcd13ifvqhvg","pricing_plan_id":"cebpf4jnsgd1na2vs0mg"},{"bike_id":"587ca0bf-d6ab-4a58-b723-ecebc1988841","system_id":"levelo_inurba_marseille","lat":43.24387,"lon":5.37064,"is_reserved":false,"is_disabled":false,"rental_uris":{"android":"levelo://app?vid=587ca0bf-d6ab-4a58-b723-ecebc1988841","ios":"levelo://app?vid=587ca0bf-d6ab-4a58-b723-ecebc1988841"},"vehicle_type_id":"4","last_reported":1733839784,"current_range_meters":10800,"station_id":"ce4bhhh2rcd13ifvqfk0","pricing_plan_id":"cebpf4jnsgd1na2vs0mg"},{"bike_id":"db94f93e-1a6d-4830-8de3-e394317acd3b","system_id":"levelo_inurba_marseille","lat":43.32472,"lon":5.365616,"is_reserved":false,"is_disabled":false,"rental_uris":{"android":"levelo://app?vid=db94f93e-1a6d-4830-8de3-e394317acd3b","ios":"levelo://app?vid=db94f93e-1a6d-4830-8de3-e394317acd3b"},"vehicle_type_id":"4","last_reported":1733839784,"current_range_meters":8400,"station_id":"ce4bhs12rcd13ifvqhvg","pricing_plan_id":"cebpf4jnsgd1na2vs0mg"},{"bike_id":"5373c92d-953c-423c-96cc-dc3b9e339c0a","system_id":"levelo_inurba_marseille","lat":43.2894,"lon":5.36393,"is_reserved":false,"is_disabled":true,"rental_uris":{"android":"levelo://app?vid=5373c92d-953c-423c-96cc-dc3b9e339c0a","ios":"levelo://app?vid=5373c92d-953c-423c-96cc-dc3b9e339c0a"},"vehicle_type_id":"4","last_reported":1733839784,"current_range_meters":800,"station_id":"ce4bhc92rcd13ifvqetg","pricing_plan_id":"cebpf4jnsgd1na2vs0mg"},{"bike_id":"d7bcfa7e-f25e-4840-bd88-c0c9180270a5","system_id":"levelo_inurba_marseille","lat":43.25936,"lon":5.409,"is_reserved":false,"is_disabled":true,"rental_uris":{"android":"levelo://app?vid=d7bcfa7e-f25e-4840-bd88-c0c9180270a5","ios":"levelo://app?vid=d7bcfa7e-f25e-4840-bd88-c0c9180270a5"},"vehicle_type_id":"4","last_reported":1733839784,"current_range_meters":0,"station_id":"ce4bhm92rcd13ifvqglg","pricing_plan_id":"cebpf4jnsgd1na2vs0mg"},{"bike_id":"4623dcd7-40d3-471f-b9ac-75c58fba4eab","system_id":"levelo_inurba_marseille","lat":43.2847,"lon":5.38535,"is_reserved":false,"is_disabled":false,"rental_uris":{"android":"levelo://app?vid=4623dcd7-40d3-471f-b9ac-75c58fba4eab","ios":"levelo://app?vid=4623dcd7-40d3-471f-b9ac-75c58fba4eab"},"vehicle_type_id":"4","last_reported":1733839784,"current_range_meters":24000,"station_id":"ce4bh8p2rcd13ifvqeb0","pricing_plan_id":"cebpf4jnsgd1na2vs0mg"},{"bike_id":"c7275229-5d28-4992-9503-6be138059468","system_id":"levelo_inurba_marseille","lat":43.30426,"lon":5.38894,"is_reserved":false,"is_disabled":false,"rental_uris":{"android":"levelo://app?vid=c7275229-5d28-4992-9503-6be138059468","ios":"levelo://app?vid=c7275229-5d28-4992-9503-6be138059468"},"vehicle_type_id":"4","last_reported":1733839784,"current_range_meters":32800,"station_id":"ce4bgk12rcd13ifvqbi0","pricing_plan_id":"cebpf4jnsgd1na2vs0mg"},{"bike_id":"9798a14a-cd61-47ed-aaf1-b8c85e3fdb91","system_id":"levelo_inurba_marseille","lat":43.28931,"lon":5.36631,"is_reserved":false,"is_disabled":true,"rental_uris":{"android":"levelo://app?vid=9798a14a-cd61-47ed-aaf1-b8c85e3fdb91","ios":"levelo://app?vid=9798a14a-cd61-47ed-aaf1-b8c85e3fdb91"},"vehicle_type_id":"4","last_reported":1733839784,"current_range_meters":6000,"station_id":"ce4bhap2rcd13ifvqek0","pricing_plan_id":"cebpf4jnsgd1na2vs0mg"},{"bike_id":"75701b26-361c-41a5-86cc-cb78b6f05388","system_id":"levelo_inurba_marseille","lat":43.2593,"lon":5.40911,"is_reserved":false,"is_disabled":true,"rental_uris":{"android":"levelo://app?vid=75701b26-361c-41a5-86cc-cb78b6f05388","ios":"levelo://app?vid=75701b26-361c-41a5-86cc-cb78b6f05388"},"vehicle_type_id":"4","last_reported":1733839784,"current_range_meters":32400,"station_id":"ce4bhm92rcd13ifvqglg","pricing_plan_id":"cebpf4jnsgd1na2vs0mg"},{"bike_id":"724c48f1-2175-4730-9579-aceff44261ff","system_id":"levelo_inurba_marseille","lat":43.24164,"lon":5.3974,"is_reserved":false,"is_disabled":false,"rental_uris":{"android":"levelo://app?vid=724c48f1-2175-4730-9579-aceff44261ff","ios":"levelo://app?vid=724c48f1-2175-4730-9579-aceff44261ff"},"vehicle_type_id":"4","last_reported":1733839784,"current_range_meters":38800,"station_id":"ce4bhn12rcd13ifvqgpg","pricing_plan_id":"cebpf4jnsgd1na2vs0mg"},{"bike_id":"98307136-80a4-466f-817c-d269e3457acc","system_id":"levelo_inurba_marseille","lat":43.32223,"lon":5.37634,"is_reserved":false,"is_disabled":false,"rental_uris":{"android":"levelo://app?vid=98307136-80a4-466f-817c-d269e3457acc","ios":"levelo://app?vid=98307136-80a4-466f-817c-d269e3457acc"},"vehicle_type_id":"4","last_reported":1733839784,"current_range_meters":33200,"station_id":"","pricing_plan_id":"cebpf4jnsgd1na2vs0mg"},{"bike_id":"85eddad4-a349-43e9-bfa5-7e95d3e8a627","system_id":"levelo_inurba_marseille","lat":43.2901,"lon":5.38131,"is_reserved":false,"is_disabled":false,"rental_uris":{"android":"levelo://app?vid=85eddad4-a349-43e9-bfa5-7e95d3e8a627","ios":"levelo://app?vid=85eddad4-a349-43e9-bfa5-7e95d3e8a627"},"vehicle_type_id":"4","last_reported":1733839784,"current_range_meters":38000,"station_id":"ce4bh4p2rcd13ifvqe1g","pricing_plan_id":"cebpf4jnsgd1na2vs0mg"},{"bike_id":"d1bdcee4-3d65-4af4-a341-e1d2febdfb0e","system_id":"levelo_inurba_marseille","lat":43.32368,"lon":5.38885,"is_reserved":false,"is_disabled":false,"rental_uris":{"android":"levelo://app?vid=d1bdcee4-3d65-4af4-a341-e1d2febdfb0e","ios":"levelo://app?vid=d1bdcee4-3d65-4af4-a341-e1d2febdfb0e"},"vehicle_type_id":"4","last_reported":1733839784,"current_range_meters":20400,"station_id":"ce4bhqp2rcd13ifvqhog","pricing_plan_id":"cebpf4jnsgd1na2vs0mg"},{"bike_id":"319869f4-99bc-4522-8d5b-967f014b196c","system_id":"levelo_inurba_marseille","lat":43.27206,"lon":5.39176,"is_reserved":false,"is_disabled":false,"rental_uris":{"android":"levelo://app?vid=319869f4-99bc-4522-8d5b-967f014b196c","ios":"levelo://app?vid=319869f4-99bc-4522-8d5b-967f014b196c"},"vehicle_type_id":"4","last_reported":1733839784,"current_range_meters":8400,"station_id":"ce4bhhp2rcd13ifvqfm0","pricing_plan_id":"cebpf4jnsgd1na2vs0mg"},{"bike_id":"48a59ca1-7bd9-4a2e-8452-da8893672a4e","system_id":"levelo_inurba_marseille","lat":43.29443,"lon":5.39746,"is_reserved":false,"is_disabled":false,"rental_uris":{"android":"levelo://app?vid=48a59ca1-7bd9-4a2e-8452-da8893672a4e","ios":"levelo://app?vid=48a59ca1-7bd9-4a2e-8452-da8893672a4e"},"vehicle_type_id":"4","last_reported":1733839784,"current_range_meters":38800,"station_id":"ce4bh3h2rcd13ifvqdo0","pricing_plan_id":"cebpf4jnsgd1na2vs0mg"},{"bike_id":"62307f1f-293b-489b-b062-bb705f21ae77","system_id":"levelo_inurba_marseille","lat":43.24178,"lon":5.39726,"is_reserved":false,"is_disabled":false,"rental_uris":{"android":"levelo://app?vid=62307f1f-293b-489b-b062-bb705f21ae77","ios":"levelo://app?vid=62307f1f-293b-489b-b062-bb705f21ae77"},"vehicle_type_id":"4","last_reported":1733839784,"current_range_meters":26000,"station_id":"ce4bhn12rcd13ifvqgpg","pricing_plan_id":"cebpf4jnsgd1na2vs0mg"},{"bike_id":"70f78fa9-dcd4-4689-8e2c-4f75c1c55c52","system_id":"levelo_inurba_marseille","lat":43.29572,"lon":5.37514,"is_reserved":false,"is_disabled":false,"rental_uris":{"android":"levelo://app?vid=70f78fa9-dcd4-4689-8e2c-4f75c1c55c52","ios":"levelo://app?vid=70f78fa9-dcd4-4689-8e2c-4f75c1c55c52"},"vehicle_type_id":"4","last_reported":1733839784,"current_range_meters":11600,"station_id":"ce4bgh92rcd13ifvqb50","pricing_plan_id":"cebpf4jnsgd1na2vs0mg"},{"bike_id":"2f3968e7-9336-4ee4-ba78-8e92c0a818cc","system_id":"levelo_inurba_marseille","lat":43.31322,"lon":5.36647,"is_reserved":false,"is_disabled":true,"rental_uris":{"android":"levelo://app?vid=2f3968e7-9336-4ee4-ba78-8e92c0a818cc","ios":"levelo://app?vid=2f3968e7-9336-4ee4-ba78-8e92c0a818cc"},"vehicle_type_id":"4","last_reported":1733839784,"current_range_meters":0,"station_id":"","pricing_plan_id":"cebpf4jnsgd1na2vs0mg"},{"bike_id":"3f489432-3255-4691-85ac-003ae441796e","system_id":"levelo_inurba_marseille","lat":43.28716,"lon":5.37924,"is_reserved":false,"is_disabled":false,"rental_uris":{"android":"levelo://app?vid=3f489432-3255-4691-85ac-003ae441796e","ios":"levelo://app?vid=3f489432-3255-4691-85ac-003ae441796e"},"vehicle_type_id":"4","last_reported":1733839784,"current_range_meters":38800,"station_id":"ce4bh9p2rcd13ifvqec0","pricing_plan_id":"cebpf4jnsgd1na2vs0mg"},{"bike_id":"e5aac24b-8acb-4dfb-985c-85170e7397ed","system_id":"levelo_inurba_marseille","lat":43.33604,"lon":5.41036,"is_reserved":false,"is_disabled":true,"rental_uris":{"android":"levelo://app?vid=e5aac24b-8acb-4dfb-985c-85170e7397ed","ios":"levelo://app?vid=e5aac24b-8acb-4dfb-985c-85170e7397ed"},"vehicle_type_id":"4","last_reported":1733839784,"current_range_meters":38800,"station_id":"ce4bhqh2rcd13ifvqhmg","pricing_plan_id":"cebpf4jnsgd1na2vs0mg"},{"bike_id":"ce12a7b0-19f4-4644-8671-c4d4f1297f67","system_id":"levelo_inurba_marseille","lat":43.30908,"lon":5.36842,"is_reserved":false,"is_disabled":false,"rental_uris":{"android":"levelo://app?vid=ce12a7b0-19f4-4644-8671-c4d4f1297f67","ios":"levelo://app?vid=ce12a7b0-19f4-4644-8671-c4d4f1297f67"},"vehicle_type_id":"4","last_reported":1733839784,"current_range_meters":38800,"station_id":"ce4bgn92rcd13ifvqbvg","pricing_plan_id":"cebpf4jnsgd1na2vs0mg"},{"bike_id":"7f0b121b-7748-43bd-b861-318cbdf6fb69","system_id":"levelo_inurba_marseille","lat":43.28449,"lon":5.35889,"is_reserved":false,"is_disabled":true,"rental_uris":{"android":"levelo://app?vid=7f0b121b-7748-43bd-b861-318cbdf6fb69","ios":"levelo://app?vid=7f0b121b-7748-43bd-b861-318cbdf6fb69"},"vehicle_type_id":"4","last_reported":1733839784,"current_range_meters":38800,"station_id":"ce4bhah2rcd13ifvqei0","pricing_plan_id":"cebpf4jnsgd1na2vs0mg"},{"bike_id":"6583aefc-6815-4bd5-8f5c-a9c5d794f47e","system_id":"levelo_inurba_marseille","lat":43.30461,"lon":5.37893,"is_reserved":false,"is_disabled":false,"rental_uris":{"android":"levelo://app?vid=6583aefc-6815-4bd5-8f5c-a9c5d794f47e","ios":"levelo://app?vid=6583aefc-6815-4bd5-8f5c-a9c5d794f47e"},"vehicle_type_id":"4","last_reported":1733839784,"current_range_meters":8400,"station_id":"","pricing_plan_id":"cebpf4jnsgd1na2vs0mg"},{"bike_id":"78711c2a-505e-42d7-917e-cbcebded6deb","system_id":"levelo_inurba_marseille","lat":43.24179,"lon":5.3973,"is_reserved":false,"is_disabled":false,"rental_uris":{"android":"levelo://app?vid=78711c2a-505e-42d7-917e-cbcebded6deb","ios":"levelo://app?vid=78711c2a-505e-42d7-917e-cbcebded6deb"},"vehicle_type_id":"4","last_reported":1733839784,"current_range_meters":26800,"station_id":"ce4bhn12rcd13ifvqgpg","pricing_plan_id":"cebpf4jnsgd1na2vs0mg"},{"bike_id":"a822604e-5a8f-4665-b875-586d39d61022","system_id":"levelo_inurba_marseille","lat":43.32472,"lon":5.36556,"is_reserved":false,"is_disabled":false,"rental_uris":{"android":"levelo://app?vid=a822604e-5a8f-4665-b875-586d39d61022","ios":"levelo://app?vid=a822604e-5a8f-4665-b875-586d39d61022"},"vehicle_type_id":"4","last_reported":1733839784,"current_range_meters":29600,"station_id":"ce4bhs12rcd13ifvqhvg","pricing_plan_id":"cebpf4jnsgd1na2vs0mg"},{"bike_id":"f8ceed41-8e84-4f15-9880-d6d9f6302759","system_id":"levelo_inurba_marseille","lat":43.33609,"lon":5.4103,"is_reserved":false,"is_disabled":false,"rental_uris":{"android":"levelo://app?vid=f8ceed41-8e84-4f15-9880-d6d9f6302759","ios":"levelo://app?vid=f8ceed41-8e84-4f15-9880-d6d9f6302759"},"vehicle_type_id":"4","last_reported":1733839784,"current_range_meters":38800,"station_id":"ce4bhqh2rcd13ifvqhmg","pricing_plan_id":"cebpf4jnsgd1na2vs0mg"},{"bike_id":"4b4d44dc-b9bf-4d20-8f04-e64035e9e255","system_id":"levelo_inurba_marseille","lat":43.27425,"lon":5.39413,"is_reserved":false,"is_disabled":false,"rental_uris":{"android":"levelo://app?vid=4b4d44dc-b9bf-4d20-8f04-e64035e9e255","ios":"levelo://app?vid=4b4d44dc-b9bf-4d20-8f04-e64035e9e255"},"vehicle_type_id":"4","last_reported":1733839784,"current_range_meters":19200,"station_id":"ce4bhdp2rcd13ifvqf20","pricing_plan_id":"cebpf4jnsgd1na2vs0mg"},{"bike_id":"bdf75ba9-3b9a-4d82-948b-a442942b60c1","system_id":"levelo_inurba_marseille","lat":43.29523,"lon":5.37505,"is_reserved":false,"is_disabled":false,"rental_uris":{"android":"levelo://app?vid=bdf75ba9-3b9a-4d82-948b-a442942b60c1","ios":"levelo://app?vid=bdf75ba9-3b9a-4d82-948b-a442942b60c1"},"vehicle_type_id":"4","last_reported":1733839784,"current_range_meters":16000,"station_id":"ce4bgkp2rcd13ifvqbmg","pricing_plan_id":"cebpf4jnsgd1na2vs0mg"},{"bike_id":"50819b88-4c21-4fd5-b7c3-c22399800dca","system_id":"levelo_inurba_marseille","lat":43.30254,"lon":5.40079,"is_reserved":false,"is_disabled":false,"rental_uris":{"android":"levelo://app?vid=50819b88-4c21-4fd5-b7c3-c22399800dca","ios":"levelo://app?vid=50819b88-4c21-4fd5-b7c3-c22399800dca"},"vehicle_type_id":"4","last_reported":1733839784,"current_range_meters":28400,"station_id":"ce4bgvh2rcd13ifvqcs0","pricing_plan_id":"cebpf4jnsgd1na2vs0mg"},{"bike_id":"12add500-ea1f-403d-bb3c-de83ce61c6f3","system_id":"levelo_inurba_marseille","lat":43.28921,"lon":5.36646,"is_reserved":false,"is_disabled":true,"rental_uris":{"android":"levelo://app?vid=12add500-ea1f-403d-bb3c-de83ce61c6f3","ios":"levelo://app?vid=12add500-ea1f-403d-bb3c-de83ce61c6f3"},"vehicle_type_id":"4","last_reported":1733839784,"current_range_meters":35600,"station_id":"ce4bhap2rcd13ifvqek0","pricing_plan_id":"cebpf4jnsgd1na2vs0mg"},{"bike_id":"ab1765a6-6c00-420c-b72e-88228cba39da","system_id":"levelo_inurba_marseille","lat":43.27125,"lon":5.40953,"is_reserved":false,"is_disabled":false,"rental_uris":{"android":"levelo://app?vid=ab1765a6-6c00-420c-b72e-88228cba39da","ios":"levelo://app?vid=ab1765a6-6c00-420c-b72e-88228cba39da"},"vehicle_type_id":"4","last_reported":1733839784,"current_range_meters":36800,"station_id":"","pricing_plan_id":"cebpf4jnsgd1na2vs0mg"},{"bike_id":"c901a794-496e-44e0-9d84-45e9988be1b0","system_id":"levelo_inurba_marseille","lat":43.27181,"lon":5.40993,"is_reserved":false,"is_disabled":false,"rental_uris":{"android":"levelo://app?vid=c901a794-496e-44e0-9d84-45e9988be1b0","ios":"levelo://app?vid=c901a794-496e-44e0-9d84-45e9988be1b0"},"vehicle_type_id":"4","last_reported":1733839784,"current_range_meters":38800,"station_id":"ce4bhl12rcd13ifvqgf0","pricing_plan_id":"cebpf4jnsgd1na2vs0mg"},{"bike_id":"e997469b-c09d-4265-8ac9-928ed5aaab97","system_id":"levelo_inurba_marseille","lat":43.26947,"lon":5.38632,"is_reserved":false,"is_disabled":true,"rental_uris":{"android":"levelo://app?vid=e997469b-c09d-4265-8ac9-928ed5aaab97","ios":"levelo://app?vid=e997469b-c09d-4265-8ac9-928ed5aaab97"},"vehicle_type_id":"4","last_reported":1733839784,"current_range_meters":0,"station_id":"ce4bhh92rcd13ifvqfh0","pricing_plan_id":"cebpf4jnsgd1na2vs0mg"},{"bike_id":"35a9e972-3d70-4c02-b4d2-95bd849e6ce8","system_id":"levelo_inurba_marseille","lat":43.27054,"lon":5.40258,"is_reserved":false,"is_disabled":false,"rental_uris":{"android":"levelo://app?vid=35a9e972-3d70-4c02-b4d2-95bd849e6ce8","ios":"levelo://app?vid=35a9e972-3d70-4c02-b4d2-95bd849e6ce8"},"vehicle_type_id":"4","last_reported":1733839784,"current_range_meters":24400,"station_id":"ce4bhk92rcd13ifvqgc0","pricing_plan_id":"cebpf4jnsgd1na2vs0mg"},{"bike_id":"ce93eba4-a260-4242-bfd1-eb4a1083d4a6","system_id":"levelo_inurba_marseille","lat":43.27359,"lon":5.36249,"is_reserved":false,"is_disabled":false,"rental_uris":{"android":"levelo://app?vid=ce93eba4-a260-4242-bfd1-eb4a1083d4a6","ios":"levelo://app?vid=ce93eba4-a260-4242-bfd1-eb4a1083d4a6"},"vehicle_type_id":"4","last_reported":1733839784,"current_range_meters":38800,"station_id":"ce4bhbh2rcd13ifvqeo0","pricing_plan_id":"cebpf4jnsgd1na2vs0mg"},{"bike_id":"d233d534-dd4b-447b-8675-3b41067b9ac6","system_id":"levelo_inurba_marseille","lat":43.29039,"lon":5.3592,"is_reserved":false,"is_disabled":false,"rental_uris":{"android":"levelo://app?vid=d233d534-dd4b-447b-8675-3b41067b9ac6","ios":"levelo://app?vid=d233d534-dd4b-447b-8675-3b41067b9ac6"},"vehicle_type_id":"4","last_reported":1733839784,"current_range_meters":30000,"station_id":"ce4bha92rcd13ifvqeg0","pricing_plan_id":"cebpf4jnsgd1na2vs0mg"},{"bike_id":"dd93c396-3e53-4e62-b4e2-c81714e6c408","system_id":"levelo_inurba_marseille","lat":43.29371,"lon":5.37846,"is_reserved":false,"is_disabled":false,"rental_uris":{"android":"levelo://app?vid=dd93c396-3e53-4e62-b4e2-c81714e6c408","ios":"levelo://app?vid=dd93c396-3e53-4e62-b4e2-c81714e6c408"},"vehicle_type_id":"4","last_reported":1733839784,"current_range_meters":39200,"station_id":"ce4bgjh2rcd13ifvqbf0","pricing_plan_id":"cebpf4jnsgd1na2vs0mg"},{"bike_id":"c1af07c0-ed11-49c8-aa2e-1104638a28b7","system_id":"levelo_inurba_marseille","lat":43.23067,"lon":5.3549,"is_reserved":false,"is_disabled":false,"rental_uris":{"android":"levelo://app?vid=c1af07c0-ed11-49c8-aa2e-1104638a28b7","ios":"levelo://app?vid=c1af07c0-ed11-49c8-aa2e-1104638a28b7"},"vehicle_type_id":"4","last_reported":1733839784,"current_range_meters":19200,"station_id":"cpo3342slgdg3j2ifvpg","pricing_plan_id":"cebpf4jnsgd1na2vs0mg"},{"bike_id":"f2a32e5a-a0bf-44b1-a42d-de2e881e7239","system_id":"levelo_inurba_marseille","lat":43.27063,"lon":5.40258,"is_reserved":false,"is_disabled":false,"rental_uris":{"android":"levelo://app?vid=f2a32e5a-a0bf-44b1-a42d-de2e881e7239","ios":"levelo://app?vid=f2a32e5a-a0bf-44b1-a42d-de2e881e7239"},"vehicle_type_id":"4","last_reported":1733839784,"current_range_meters":20000,"station_id":"ce4bhk92rcd13ifvqgc0","pricing_plan_id":"cebpf4jnsgd1na2vs0mg"},{"bike_id":"f9261bfc-6f51-46f7-896c-5f4644f17d84","system_id":"levelo_inurba_marseille","lat":43.26806,"lon":5.4027,"is_reserved":false,"is_disabled":false,"rental_uris":{"android":"levelo://app?vid=f9261bfc-6f51-46f7-896c-5f4644f17d84","ios":"levelo://app?vid=f9261bfc-6f51-46f7-896c-5f4644f17d84"},"vehicle_type_id":"4","last_reported":1733839784,"current_range_meters":21600,"station_id":"ce501612rcd8frsf0b60","pricing_plan_id":"cebpf4jnsgd1na2vs0mg"},{"bike_id":"329d88e5-f0e9-47c7-a2de-be18455e4424","system_id":"levelo_inurba_marseille","lat":43.30888,"lon":5.39655,"is_reserved":false,"is_disabled":false,"rental_uris":{"android":"levelo://app?vid=329d88e5-f0e9-47c7-a2de-be18455e4424","ios":"levelo://app?vid=329d88e5-f0e9-47c7-a2de-be18455e4424"},"vehicle_type_id":"4","last_reported":1733839784,"current_range_meters":34800,"station_id":"ce4bh012rcd13ifvqcv0","pricing_plan_id":"cebpf4jnsgd1na2vs0mg"},{"bike_id":"711a86c3-f65a-43f0-b048-c5dec986f5d0","system_id":"levelo_inurba_marseille","lat":43.30427,"lon":5.39756,"is_reserved":false,"is_disabled":false,"rental_uris":{"android":"levelo://app?vid=711a86c3-f65a-43f0-b048-c5dec986f5d0","ios":"levelo://app?vid=711a86c3-f65a-43f0-b048-c5dec986f5d0"},"vehicle_type_id":"4","last_reported":1733839784,"current_range_meters":36800,"station_id":"ce4bh092rcd13ifvqd20","pricing_plan_id":"cebpf4jnsgd1na2vs0mg"},{"bike_id":"6f5aafc4-06b9-4dba-b612-5d926167490b","system_id":"levelo_inurba_marseille","lat":43.32477,"lon":5.36582,"is_reserved":false,"is_disabled":true,"rental_uris":{"android":"levelo://app?vid=6f5aafc4-06b9-4dba-b612-5d926167490b","ios":"levelo://app?vid=6f5aafc4-06b9-4dba-b612-5d926167490b"},"vehicle_type_id":"4","last_reported":1733839784,"current_range_meters":0,"station_id":"ce4bhs12rcd13ifvqhvg","pricing_plan_id":"cebpf4jnsgd1na2vs0mg"},{"bike_id":"cbc7068b-5c25-41e2-96c9-01451e348e9f","system_id":"levelo_inurba_marseille","lat":43.33023,"lon":5.39045,"is_reserved":false,"is_disabled":false,"rental_uris":{"android":"levelo://app?vid=cbc7068b-5c25-41e2-96c9-01451e348e9f","ios":"levelo://app?vid=cbc7068b-5c25-41e2-96c9-01451e348e9f"},"vehicle_type_id":"4","last_reported":1733839784,"current_range_meters":37600,"station_id":"ce4bhr92rcd13ifvqhrg","pricing_plan_id":"cebpf4jnsgd1na2vs0mg"},{"bike_id":"bb8ace08-a4e9-4b2e-a5d0-0567640d33a3","system_id":"levelo_inurba_marseille","lat":43.30424,"lon":5.41288,"is_reserved":false,"is_disabled":false,"rental_uris":{"android":"levelo://app?vid=bb8ace08-a4e9-4b2e-a5d0-0567640d33a3","ios":"levelo://app?vid=bb8ace08-a4e9-4b2e-a5d0-0567640d33a3"},"vehicle_type_id":"4","last_reported":1733839784,"current_range_meters":25600,"station_id":"ce4bhop2rcd13ifvqh8g","pricing_plan_id":"cebpf4jnsgd1na2vs0mg"},{"bike_id":"043ba095-e8b0-42cb-9b18-a2f9c55b217c","system_id":"levelo_inurba_marseille","lat":43.295282,"lon":5.37485,"is_reserved":false,"is_disabled":false,"rental_uris":{"android":"levelo://app?vid=043ba095-e8b0-42cb-9b18-a2f9c55b217c","ios":"levelo://app?vid=043ba095-e8b0-42cb-9b18-a2f9c55b217c"},"vehicle_type_id":"4","last_reported":1733839784,"current_range_meters":26800,"station_id":"ce4bgkp2rcd13ifvqbmg","pricing_plan_id":"cebpf4jnsgd1na2vs0mg"},{"bike_id":"a12f9396-1099-4c99-9f2a-20e5913a9fd9","system_id":"levelo_inurba_marseille","lat":43.29308,"lon":5.3717,"is_reserved":false,"is_disabled":false,"rental_uris":{"android":"levelo://app?vid=a12f9396-1099-4c99-9f2a-20e5913a9fd9","ios":"levelo://app?vid=a12f9396-1099-4c99-9f2a-20e5913a9fd9"},"vehicle_type_id":"4","last_reported":1733839784,"current_range_meters":22000,"station_id":"ce4bgh92rcd13ifvqb40","pricing_plan_id":"cebpf4jnsgd1na2vs0mg"},{"bike_id":"74ddbdc3-b082-4f44-a075-38dfc2e6b2cd","system_id":"levelo_inurba_marseille","lat":43.24167,"lon":5.36387,"is_reserved":false,"is_disabled":false,"rental_uris":{"android":"levelo://app?vid=74ddbdc3-b082-4f44-a075-38dfc2e6b2cd","ios":"levelo://app?vid=74ddbdc3-b082-4f44-a075-38dfc2e6b2cd"},"vehicle_type_id":"4","last_reported":1733839784,"current_range_meters":22400,"station_id":"cpo36qri1sfpv3e86is0","pricing_plan_id":"cebpf4jnsgd1na2vs0mg"},{"bike_id":"8cdf3b94-daa7-41f1-a546-c8290899fb14","system_id":"levelo_inurba_marseille","lat":43.25581,"lon":5.38225,"is_reserved":false,"is_disabled":false,"rental_uris":{"android":"levelo://app?vid=8cdf3b94-daa7-41f1-a546-c8290899fb14","ios":"levelo://app?vid=8cdf3b94-daa7-41f1-a546-c8290899fb14"},"vehicle_type_id":"4","last_reported":1733839784,"current_range_meters":38800,"station_id":"ce4bhih2rcd13ifvqfs0","pricing_plan_id":"cebpf4jnsgd1na2vs0mg"},{"bike_id":"4864a75f-0ec2-4613-ad88-144020ebe916","system_id":"levelo_inurba_marseille","lat":43.30354,"lon":5.41878,"is_reserved":false,"is_disabled":true,"rental_uris":{"android":"levelo://app?vid=4864a75f-0ec2-4613-ad88-144020ebe916","ios":"levelo://app?vid=4864a75f-0ec2-4613-ad88-144020ebe916"},"vehicle_type_id":"4","last_reported":1733839784,"current_range_meters":38400,"station_id":"ce4bhop2rcd13ifvqh7g","pricing_plan_id":"cebpf4jnsgd1na2vs0mg"},{"bike_id":"9cd79aab-6f4c-4919-b570-803a9e8b35c5","system_id":"levelo_inurba_marseille","lat":43.30464,"lon":5.36709,"is_reserved":false,"is_disabled":true,"rental_uris":{"android":"levelo://app?vid=9cd79aab-6f4c-4919-b570-803a9e8b35c5","ios":"levelo://app?vid=9cd79aab-6f4c-4919-b570-803a9e8b35c5"},"vehicle_type_id":"4","last_reported":1733839784,"current_range_meters":24000,"station_id":"","pricing_plan_id":"cebpf4jnsgd1na2vs0mg"},{"bike_id":"4d63aa36-4d44-4851-9310-f52393147b17","system_id":"levelo_inurba_marseille","lat":43.30898,"lon":5.37182,"is_reserved":false,"is_disabled":false,"rental_uris":{"android":"levelo://app?vid=4d63aa36-4d44-4851-9310-f52393147b17","ios":"levelo://app?vid=4d63aa36-4d44-4851-9310-f52393147b17"},"vehicle_type_id":"4","last_reported":1733839784,"current_range_meters":36400,"station_id":"ce4bguh2rcd13ifvqckg","pricing_plan_id":"cebpf4jnsgd1na2vs0mg"},{"bike_id":"95381e5f-d6b7-4d89-ada8-652b4e8fa3ed","system_id":"levelo_inurba_marseille","lat":43.250865,"lon":5.395319,"is_reserved":false,"is_disabled":true,"rental_uris":{"android":"levelo://app?vid=95381e5f-d6b7-4d89-ada8-652b4e8fa3ed","ios":"levelo://app?vid=95381e5f-d6b7-4d89-ada8-652b4e8fa3ed"},"vehicle_type_id":"4","last_reported":1733839784,"current_range_meters":14000,"station_id":"ce4bhm12rcd13ifvqgkg","pricing_plan_id":"cebpf4jnsgd1na2vs0mg"},{"bike_id":"b2776574-dab9-4112-97f2-ebd7012c69c1","system_id":"levelo_inurba_marseille","lat":43.26681,"lon":5.38267,"is_reserved":false,"is_disabled":false,"rental_uris":{"android":"levelo://app?vid=b2776574-dab9-4112-97f2-ebd7012c69c1","ios":"levelo://app?vid=b2776574-dab9-4112-97f2-ebd7012c69c1"},"vehicle_type_id":"4","last_reported":1733839784,"current_range_meters":12400,"station_id":"ce4bhg92rcd13ifvqf90","pricing_plan_id":"cebpf4jnsgd1na2vs0mg"},{"bike_id":"d70f4757-102b-4d21-92ee-22c6ee521683","system_id":"levelo_inurba_marseille","lat":43.30779,"lon":5.37654,"is_reserved":false,"is_disabled":false,"rental_uris":{"android":"levelo://app?vid=d70f4757-102b-4d21-92ee-22c6ee521683","ios":"levelo://app?vid=d70f4757-102b-4d21-92ee-22c6ee521683"},"vehicle_type_id":"4","last_reported":1733839784,"current_range_meters":38800,"station_id":"ce4bgv92rcd13ifvqcq0","pricing_plan_id":"cebpf4jnsgd1na2vs0mg"},{"bike_id":"fe68567f-0222-4d3e-bb2c-477f94019173","system_id":"levelo_inurba_marseille","lat":43.26058,"lon":5.39396,"is_reserved":false,"is_disabled":false,"rental_uris":{"android":"levelo://app?vid=fe68567f-0222-4d3e-bb2c-477f94019173","ios":"levelo://app?vid=fe68567f-0222-4d3e-bb2c-477f94019173"},"vehicle_type_id":"4","last_reported":1733839784,"current_range_meters":38800,"station_id":"ce4bhh92rcd13ifvqfj0","pricing_plan_id":"cebpf4jnsgd1na2vs0mg"},{"bike_id":"f97ddc52-5758-4192-8ca1-71254ad1a77e","system_id":"levelo_inurba_marseille","lat":43.26196,"lon":5.37452,"is_reserved":false,"is_disabled":false,"rental_uris":{"android":"levelo://app?vid=f97ddc52-5758-4192-8ca1-71254ad1a77e","ios":"levelo://app?vid=f97ddc52-5758-4192-8ca1-71254ad1a77e"},"vehicle_type_id":"4","last_reported":1733839784,"current_range_meters":38800,"station_id":"ce4bhgp2rcd13ifvqfc0","pricing_plan_id":"cebpf4jnsgd1na2vs0mg"},{"bike_id":"11e86528-eb6b-4391-86a5-9b1822d069a4","system_id":"levelo_inurba_marseille","lat":43.278805,"lon":5.388003,"is_reserved":false,"is_disabled":true,"rental_uris":{"android":"levelo://app?vid=11e86528-eb6b-4391-86a5-9b1822d069a4","ios":"levelo://app?vid=11e86528-eb6b-4391-86a5-9b1822d069a4"},"vehicle_type_id":"4","last_reported":1733839784,"current_range_meters":0,"station_id":"","pricing_plan_id":"cebpf4jnsgd1na2vs0mg"},{"bike_id":"6cc6805f-c0ca-4585-bdf1-b5a0339762b0","system_id":"levelo_inurba_marseille","lat":43.29027,"lon":5.42744,"is_reserved":false,"is_disabled":true,"rental_uris":{"android":"levelo://app?vid=6cc6805f-c0ca-4585-bdf1-b5a0339762b0","ios":"levelo://app?vid=6cc6805f-c0ca-4585-bdf1-b5a0339762b0"},"vehicle_type_id":"4","last_reported":1733839784,"current_range_meters":0,"station_id":"","pricing_plan_id":"cebpf4jnsgd1na2vs0mg"},{"bike_id":"a478bcff-2af8-4db5-8351-cdbe6b849a6d","system_id":"levelo_inurba_marseille","lat":43.33762,"lon":5.37483,"is_reserved":false,"is_disabled":true,"rental_uris":{"android":"levelo://app?vid=a478bcff-2af8-4db5-8351-cdbe6b849a6d","ios":"levelo://app?vid=a478bcff-2af8-4db5-8351-cdbe6b849a6d"},"vehicle_type_id":"4","last_reported":1733839784,"current_range_meters":0,"station_id":"","pricing_plan_id":"cebpf4jnsgd1na2vs0mg"},{"bike_id":"ba49e68c-6062-4c0f-9a57-98cf34dedcad","system_id":"levelo_inurba_marseille","lat":43.30561,"lon":5.367,"is_reserved":false,"is_disabled":false,"rental_uris":{"android":"levelo://app?vid=ba49e68c-6062-4c0f-9a57-98cf34dedcad","ios":"levelo://app?vid=ba49e68c-6062-4c0f-9a57-98cf34dedcad"},"vehicle_type_id":"4","last_reported":1733839784,"current_range_meters":38800,"station_id":"ce4bgrp2rcd13ifvqc9g","pricing_plan_id":"cebpf4jnsgd1na2vs0mg"},{"bike_id":"e069ac01-6fd1-4791-b354-d75427625257","system_id":"levelo_inurba_marseille","lat":43.25002,"lon":5.38934,"is_reserved":false,"is_disabled":false,"rental_uris":{"android":"levelo://app?vid=e069ac01-6fd1-4791-b354-d75427625257","ios":"levelo://app?vid=e069ac01-6fd1-4791-b354-d75427625257"},"vehicle_type_id":"4","last_reported":1733839784,"current_range_meters":18000,"station_id":"ce4bhgp2rcd13ifvqfd0","pricing_plan_id":"cebpf4jnsgd1na2vs0mg"},{"bike_id":"9f03dca4-237a-49dc-8f4b-3b6a07909c99","system_id":"levelo_inurba_marseille","lat":43.23194,"lon":5.35555,"is_reserved":false,"is_disabled":false,"rental_uris":{"android":"levelo://app?vid=9f03dca4-237a-49dc-8f4b-3b6a07909c99","ios":"levelo://app?vid=9f03dca4-237a-49dc-8f4b-3b6a07909c99"},"vehicle_type_id":"4","last_reported":1733839784,"current_range_meters":37600,"station_id":"ce4bhu92rcd13ifvqi70","pricing_plan_id":"cebpf4jnsgd1na2vs0mg"},{"bike_id":"d0e9b0d9-b932-4d84-83c8-f81795e05f31","system_id":"levelo_inurba_marseille","lat":43.28489,"lon":5.38431,"is_reserved":false,"is_disabled":true,"rental_uris":{"android":"levelo://app?vid=d0e9b0d9-b932-4d84-83c8-f81795e05f31","ios":"levelo://app?vid=d0e9b0d9-b932-4d84-83c8-f81795e05f31"},"vehicle_type_id":"4","last_reported":1733839784,"current_range_meters":3600,"station_id":"ce4bh512rcd13ifvqe3g","pricing_plan_id":"cebpf4jnsgd1na2vs0mg"},{"bike_id":"5419ad88-f623-44a9-ab30-b9e6667f8ffd","system_id":"levelo_inurba_marseille","lat":43.33722,"lon":5.39179,"is_reserved":false,"is_disabled":false,"rental_uris":{"android":"levelo://app?vid=5419ad88-f623-44a9-ab30-b9e6667f8ffd","ios":"levelo://app?vid=5419ad88-f623-44a9-ab30-b9e6667f8ffd"},"vehicle_type_id":"4","last_reported":1733839784,"current_range_meters":17600,"station_id":"ce4bhr92rcd13ifvqhsg","pricing_plan_id":"cebpf4jnsgd1na2vs0mg"},{"bike_id":"721609ec-ab7e-4bda-94ac-18443a204b9b","system_id":"levelo_inurba_marseille","lat":43.29612,"lon":5.37734,"is_reserved":false,"is_disabled":false,"rental_uris":{"android":"levelo://app?vid=721609ec-ab7e-4bda-94ac-18443a204b9b","ios":"levelo://app?vid=721609ec-ab7e-4bda-94ac-18443a204b9b"},"vehicle_type_id":"4","last_reported":1733839784,"current_range_meters":21600,"station_id":"ce4bgi92rcd13ifvqb90","pricing_plan_id":"cebpf4jnsgd1na2vs0mg"},{"bike_id":"83b6b782-7a31-4565-97b3-6a04d71b2269","system_id":"levelo_inurba_marseille","lat":43.28855,"lon":5.35862,"is_reserved":false,"is_disabled":false,"rental_uris":{"android":"levelo://app?vid=83b6b782-7a31-4565-97b3-6a04d71b2269","ios":"levelo://app?vid=83b6b782-7a31-4565-97b3-6a04d71b2269"},"vehicle_type_id":"4","last_reported":1733839784,"current_range_meters":11200,"station_id":"ce4bhb12rcd13ifvqem0","pricing_plan_id":"cebpf4jnsgd1na2vs0mg"},{"bike_id":"e28898d1-55b6-4a3f-be71-fe4562455159","system_id":"levelo_inurba_marseille","lat":43.28709,"lon":5.37946,"is_reserved":false,"is_disabled":false,"rental_uris":{"android":"levelo://app?vid=e28898d1-55b6-4a3f-be71-fe4562455159","ios":"levelo://app?vid=e28898d1-55b6-4a3f-be71-fe4562455159"},"vehicle_type_id":"4","last_reported":1733839784,"current_range_meters":18800,"station_id":"ce4bh9p2rcd13ifvqec0","pricing_plan_id":"cebpf4jnsgd1na2vs0mg"},{"bike_id":"714bea3f-3955-4017-be44-d1cf69fd3f38","system_id":"levelo_inurba_marseille","lat":43.34146,"lon":5.409,"is_reserved":false,"is_disabled":false,"rental_uris":{"android":"levelo://app?vid=714bea3f-3955-4017-be44-d1cf69fd3f38","ios":"levelo://app?vid=714bea3f-3955-4017-be44-d1cf69fd3f38"},"vehicle_type_id":"4","last_reported":1733839784,"current_range_meters":38800,"station_id":"ce4bhqh2rcd13ifvqhlg","pricing_plan_id":"cebpf4jnsgd1na2vs0mg"},{"bike_id":"1f79d3c5-4a16-4992-bfa2-d0413e34b4f6","system_id":"levelo_inurba_marseille","lat":43.26031,"lon":5.37552,"is_reserved":false,"is_disabled":false,"rental_uris":{"android":"levelo://app?vid=1f79d3c5-4a16-4992-bfa2-d0413e34b4f6","ios":"levelo://app?vid=1f79d3c5-4a16-4992-bfa2-d0413e34b4f6"},"vehicle_type_id":"4","last_reported":1733839784,"current_range_meters":38800,"station_id":"ce4bhgh2rcd13ifvqfa0","pricing_plan_id":"cebpf4jnsgd1na2vs0mg"},{"bike_id":"ee739c14-eced-4faf-ab9e-1ec31882d03e","system_id":"levelo_inurba_marseille","lat":43.2873,"lon":5.361,"is_reserved":false,"is_disabled":false,"rental_uris":{"android":"levelo://app?vid=ee739c14-eced-4faf-ab9e-1ec31882d03e","ios":"levelo://app?vid=ee739c14-eced-4faf-ab9e-1ec31882d03e"},"vehicle_type_id":"4","last_reported":1733839784,"current_range_meters":31200,"station_id":"cki0cbj6b192h4jlfktg","pricing_plan_id":"cebpf4jnsgd1na2vs0mg"},{"bike_id":"a500288c-061a-402d-9fed-8e7727c89003","system_id":"levelo_inurba_marseille","lat":43.2872,"lon":5.3609,"is_reserved":false,"is_disabled":true,"rental_uris":{"android":"levelo://app?vid=a500288c-061a-402d-9fed-8e7727c89003","ios":"levelo://app?vid=a500288c-061a-402d-9fed-8e7727c89003"},"vehicle_type_id":"4","last_reported":1733839784,"current_range_meters":0,"station_id":"cki0cbj6b192h4jlfktg","pricing_plan_id":"cebpf4jnsgd1na2vs0mg"},{"bike_id":"a7ea9ae5-4db2-4fd6-a405-d887f48ee93a","system_id":"levelo_inurba_marseille","lat":43.31228,"lon":5.36855,"is_reserved":false,"is_disabled":false,"rental_uris":{"android":"levelo://app?vid=a7ea9ae5-4db2-4fd6-a405-d887f48ee93a","ios":"levelo://app?vid=a7ea9ae5-4db2-4fd6-a405-d887f48ee93a"},"vehicle_type_id":"4","last_reported":1733839784,"current_range_meters":20000,"station_id":"ce4bgl92rcd13ifvqbq0","pricing_plan_id":"cebpf4jnsgd1na2vs0mg"},{"bike_id":"b351457a-7608-4e26-bb1a-1f31921348a9","system_id":"levelo_inurba_marseille","lat":43.31485,"lon":5.37313,"is_reserved":false,"is_disabled":false,"rental_uris":{"android":"levelo://app?vid=b351457a-7608-4e26-bb1a-1f31921348a9","ios":"levelo://app?vid=b351457a-7608-4e26-bb1a-1f31921348a9"},"vehicle_type_id":"4","last_reported":1733839784,"current_range_meters":22800,"station_id":"ce4bgt12rcd13ifvqcd0","pricing_plan_id":"cebpf4jnsgd1na2vs0mg"},{"bike_id":"35182e8d-da34-4d0c-83dd-2ad2344aa1c5","system_id":"levelo_inurba_marseille","lat":43.29301,"lon":5.37143,"is_reserved":false,"is_disabled":false,"rental_uris":{"android":"levelo://app?vid=35182e8d-da34-4d0c-83dd-2ad2344aa1c5","ios":"levelo://app?vid=35182e8d-da34-4d0c-83dd-2ad2344aa1c5"},"vehicle_type_id":"4","last_reported":1733839784,"current_range_meters":25600,"station_id":"ce4bgh92rcd13ifvqb40","pricing_plan_id":"cebpf4jnsgd1na2vs0mg"},{"bike_id":"c8277b74-2972-4fd8-b3c2-d088abc45999","system_id":"levelo_inurba_marseille","lat":43.28052,"lon":5.36893,"is_reserved":false,"is_disabled":false,"rental_uris":{"android":"levelo://app?vid=c8277b74-2972-4fd8-b3c2-d088abc45999","ios":"levelo://app?vid=c8277b74-2972-4fd8-b3c2-d088abc45999"},"vehicle_type_id":"4","last_reported":1733839784,"current_range_meters":7200,"station_id":"ce4bha12rcd13ifvqef0","pricing_plan_id":"cebpf4jnsgd1na2vs0mg"},{"bike_id":"eb3a783b-eb33-4079-bc9f-329051dc4f58","system_id":"levelo_inurba_marseille","lat":43.27314,"lon":5.39075,"is_reserved":false,"is_disabled":false,"rental_uris":{"android":"levelo://app?vid=eb3a783b-eb33-4079-bc9f-329051dc4f58","ios":"levelo://app?vid=eb3a783b-eb33-4079-bc9f-329051dc4f58"},"vehicle_type_id":"4","last_reported":1733839784,"current_range_meters":38400,"station_id":"ce4bhgp2rcd13ifvqfe0","pricing_plan_id":"cebpf4jnsgd1na2vs0mg"},{"bike_id":"b0a46ba0-c8bc-4621-808f-2274c3b3257e","system_id":"levelo_inurba_marseille","lat":43.32288,"lon":5.38293,"is_reserved":false,"is_disabled":false,"rental_uris":{"android":"levelo://app?vid=b0a46ba0-c8bc-4621-808f-2274c3b3257e","ios":"levelo://app?vid=b0a46ba0-c8bc-4621-808f-2274c3b3257e"},"vehicle_type_id":"4","last_reported":1733839784,"current_range_meters":38800,"station_id":"ce4bhr12rcd13ifvqhqg","pricing_plan_id":"cebpf4jnsgd1na2vs0mg"},{"bike_id":"72369e3c-7a31-4199-a732-76fa73093ac4","system_id":"levelo_inurba_marseille","lat":43.31359,"lon":5.3674,"is_reserved":false,"is_disabled":true,"rental_uris":{"android":"levelo://app?vid=72369e3c-7a31-4199-a732-76fa73093ac4","ios":"levelo://app?vid=72369e3c-7a31-4199-a732-76fa73093ac4"},"vehicle_type_id":"4","last_reported":1733839784,"current_range_meters":24000,"station_id":"ce4bgr92rcd13ifvqc6g","pricing_plan_id":"cebpf4jnsgd1na2vs0mg"},{"bike_id":"558af6f7-939d-4eed-b57a-f91d7f178f85","system_id":"levelo_inurba_marseille","lat":43.28004,"lon":5.4001,"is_reserved":false,"is_disabled":false,"rental_uris":{"android":"levelo://app?vid=558af6f7-939d-4eed-b57a-f91d7f178f85","ios":"levelo://app?vid=558af6f7-939d-4eed-b57a-f91d7f178f85"},"vehicle_type_id":"4","last_reported":1733839784,"current_range_meters":13600,"station_id":"ce4bho92rcd13ifvqh4g","pricing_plan_id":"cebpf4jnsgd1na2vs0mg"},{"bike_id":"a95431d3-e026-4a2f-99d3-156cd6ee0b05","system_id":"levelo_inurba_marseille","lat":43.25727,"lon":5.41102,"is_reserved":false,"is_disabled":false,"rental_uris":{"android":"levelo://app?vid=a95431d3-e026-4a2f-99d3-156cd6ee0b05","ios":"levelo://app?vid=a95431d3-e026-4a2f-99d3-156cd6ee0b05"},"vehicle_type_id":"4","last_reported":1733839784,"current_range_meters":6000,"station_id":"ce4bhkp2rcd13ifvqgd0","pricing_plan_id":"cebpf4jnsgd1na2vs0mg"},{"bike_id":"7f12f0cd-5e82-4271-b806-39c27b43cd03","system_id":"levelo_inurba_marseille","lat":43.28418,"lon":5.37515,"is_reserved":false,"is_disabled":true,"rental_uris":{"android":"levelo://app?vid=7f12f0cd-5e82-4271-b806-39c27b43cd03","ios":"levelo://app?vid=7f12f0cd-5e82-4271-b806-39c27b43cd03"},"vehicle_type_id":"4","last_reported":1733839784,"current_range_meters":0,"station_id":"ce4bh412rcd13ifvqds0","pricing_plan_id":"cebpf4jnsgd1na2vs0mg"},{"bike_id":"067d4f8e-eded-4040-9b89-eb14aebc4852","system_id":"levelo_inurba_marseille","lat":43.29899,"lon":5.43669,"is_reserved":false,"is_disabled":false,"rental_uris":{"android":"levelo://app?vid=067d4f8e-eded-4040-9b89-eb14aebc4852","ios":"levelo://app?vid=067d4f8e-eded-4040-9b89-eb14aebc4852"},"vehicle_type_id":"4","last_reported":1733839784,"current_range_meters":33200,"station_id":"ce4bhpp2rcd13ifvqhfg","pricing_plan_id":"cebpf4jnsgd1na2vs0mg"},{"bike_id":"13da5b08-3fb9-4842-938e-75db524517e2","system_id":"levelo_inurba_marseille","lat":43.29895,"lon":5.3884,"is_reserved":false,"is_disabled":false,"rental_uris":{"android":"levelo://app?vid=13da5b08-3fb9-4842-938e-75db524517e2","ios":"levelo://app?vid=13da5b08-3fb9-4842-938e-75db524517e2"},"vehicle_type_id":"4","last_reported":1733839784,"current_range_meters":38800,"station_id":"ce4bh392rcd13ifvqdl0","pricing_plan_id":"cebpf4jnsgd1na2vs0mg"},{"bike_id":"da1aefdb-caf1-4155-81fa-858ff49c920b","system_id":"levelo_inurba_marseille","lat":43.26212,"lon":5.37441,"is_reserved":false,"is_disabled":false,"rental_uris":{"android":"levelo://app?vid=da1aefdb-caf1-4155-81fa-858ff49c920b","ios":"levelo://app?vid=da1aefdb-caf1-4155-81fa-858ff49c920b"},"vehicle_type_id":"4","last_reported":1733839784,"current_range_meters":38800,"station_id":"ce4bhgp2rcd13ifvqfc0","pricing_plan_id":"cebpf4jnsgd1na2vs0mg"},{"bike_id":"58f7a6d1-6021-436c-8218-bb2e6abc92cd","system_id":"levelo_inurba_marseille","lat":43.29037,"lon":5.37567,"is_reserved":false,"is_disabled":false,"rental_uris":{"android":"levelo://app?vid=58f7a6d1-6021-436c-8218-bb2e6abc92cd","ios":"levelo://app?vid=58f7a6d1-6021-436c-8218-bb2e6abc92cd"},"vehicle_type_id":"4","last_reported":1733839784,"current_range_meters":38400,"station_id":"ce4bh692rcd13ifvqe90","pricing_plan_id":"cebpf4jnsgd1na2vs0mg"},{"bike_id":"0c767091-cf4b-4054-924d-7d33de14cc68","system_id":"levelo_inurba_marseille","lat":43.26952,"lon":5.38633,"is_reserved":false,"is_disabled":false,"rental_uris":{"android":"levelo://app?vid=0c767091-cf4b-4054-924d-7d33de14cc68","ios":"levelo://app?vid=0c767091-cf4b-4054-924d-7d33de14cc68"},"vehicle_type_id":"4","last_reported":1733839784,"current_range_meters":6400,"station_id":"ce4bhh92rcd13ifvqfh0","pricing_plan_id":"cebpf4jnsgd1na2vs0mg"},{"bike_id":"896d4ccf-3d83-4122-b2f2-1a77a517b0e7","system_id":"levelo_inurba_marseille","lat":43.23959,"lon":5.36644,"is_reserved":false,"is_disabled":false,"rental_uris":{"android":"levelo://app?vid=896d4ccf-3d83-4122-b2f2-1a77a517b0e7","ios":"levelo://app?vid=896d4ccf-3d83-4122-b2f2-1a77a517b0e7"},"vehicle_type_id":"4","last_reported":1733839784,"current_range_meters":38800,"station_id":"ce4bhi12rcd13ifvqfp0","pricing_plan_id":"cebpf4jnsgd1na2vs0mg"},{"bike_id":"5ab05328-df2c-4301-8359-efac20f401a3","system_id":"levelo_inurba_marseille","lat":43.2937,"lon":5.37868,"is_reserved":false,"is_disabled":true,"rental_uris":{"android":"levelo://app?vid=5ab05328-df2c-4301-8359-efac20f401a3","ios":"levelo://app?vid=5ab05328-df2c-4301-8359-efac20f401a3"},"vehicle_type_id":"4","last_reported":1733839784,"current_range_meters":30400,"station_id":"ce4bgjh2rcd13ifvqbf0","pricing_plan_id":"cebpf4jnsgd1na2vs0mg"},{"bike_id":"0bbc7e70-83dc-43ab-88d3-42a91cb386cf","system_id":"levelo_inurba_marseille","lat":43.30607,"lon":5.37231,"is_reserved":false,"is_disabled":false,"rental_uris":{"android":"levelo://app?vid=0bbc7e70-83dc-43ab-88d3-42a91cb386cf","ios":"levelo://app?vid=0bbc7e70-83dc-43ab-88d3-42a91cb386cf"},"vehicle_type_id":"4","last_reported":1733839784,"current_range_meters":20800,"station_id":"ce4bgqh2rcd13ifvqc4g","pricing_plan_id":"cebpf4jnsgd1na2vs0mg"},{"bike_id":"1b1dabf7-f316-44f9-98cc-bcd3d7bae561","system_id":"levelo_inurba_marseille","lat":43.24388,"lon":5.37062,"is_reserved":false,"is_disabled":false,"rental_uris":{"android":"levelo://app?vid=1b1dabf7-f316-44f9-98cc-bcd3d7bae561","ios":"levelo://app?vid=1b1dabf7-f316-44f9-98cc-bcd3d7bae561"},"vehicle_type_id":"4","last_reported":1733839784,"current_range_meters":18000,"station_id":"ce4bhhh2rcd13ifvqfk0","pricing_plan_id":"cebpf4jnsgd1na2vs0mg"},{"bike_id":"69199c35-b7ff-4c6a-8943-7eaccef64ef4","system_id":"levelo_inurba_marseille","lat":43.27054,"lon":5.4026,"is_reserved":false,"is_disabled":false,"rental_uris":{"android":"levelo://app?vid=69199c35-b7ff-4c6a-8943-7eaccef64ef4","ios":"levelo://app?vid=69199c35-b7ff-4c6a-8943-7eaccef64ef4"},"vehicle_type_id":"4","last_reported":1733839784,"current_range_meters":32000,"station_id":"ce4bhk92rcd13ifvqgc0","pricing_plan_id":"cebpf4jnsgd1na2vs0mg"},{"bike_id":"1288c2d3-7ff2-43a7-ada7-ee6ef6c439f6","system_id":"levelo_inurba_marseille","lat":43.24805,"lon":5.37455,"is_reserved":false,"is_disabled":false,"rental_uris":{"android":"levelo://app?vid=1288c2d3-7ff2-43a7-ada7-ee6ef6c439f6","ios":"levelo://app?vid=1288c2d3-7ff2-43a7-ada7-ee6ef6c439f6"},"vehicle_type_id":"4","last_reported":1733839784,"current_range_meters":38800,"station_id":"ce4bhgh2rcd13ifvqfb0","pricing_plan_id":"cebpf4jnsgd1na2vs0mg"},{"bike_id":"71ede6cb-3773-4924-948e-77ec53727c8f","system_id":"levelo_inurba_marseille","lat":43.31753,"lon":5.37549,"is_reserved":false,"is_disabled":false,"rental_uris":{"android":"levelo://app?vid=71ede6cb-3773-4924-948e-77ec53727c8f","ios":"levelo://app?vid=71ede6cb-3773-4924-948e-77ec53727c8f"},"vehicle_type_id":"4","last_reported":1733839784,"current_range_meters":38000,"station_id":"","pricing_plan_id":"cebpf4jnsgd1na2vs0mg"},{"bike_id":"532aa608-f112-4e85-9a1c-4bbd195000d1","system_id":"levelo_inurba_marseille","lat":43.2942,"lon":5.38624,"is_reserved":false,"is_disabled":false,"rental_uris":{"android":"levelo://app?vid=532aa608-f112-4e85-9a1c-4bbd195000d1","ios":"levelo://app?vid=532aa608-f112-4e85-9a1c-4bbd195000d1"},"vehicle_type_id":"4","last_reported":1733839784,"current_range_meters":12000,"station_id":"ce4bh2h2rcd13ifvqdh0","pricing_plan_id":"cebpf4jnsgd1na2vs0mg"},{"bike_id":"3252d2d0-c1d6-484e-9d55-1152a8078dd3","system_id":"levelo_inurba_marseille","lat":43.29021,"lon":5.35929,"is_reserved":false,"is_disabled":false,"rental_uris":{"android":"levelo://app?vid=3252d2d0-c1d6-484e-9d55-1152a8078dd3","ios":"levelo://app?vid=3252d2d0-c1d6-484e-9d55-1152a8078dd3"},"vehicle_type_id":"4","last_reported":1733839784,"current_range_meters":38000,"station_id":"ce4bha92rcd13ifvqeg0","pricing_plan_id":"cebpf4jnsgd1na2vs0mg"},{"bike_id":"cf3b933e-7080-4775-b6de-4bada7bc9705","system_id":"levelo_inurba_marseille","lat":43.29313,"lon":5.37177,"is_reserved":false,"is_disabled":false,"rental_uris":{"android":"levelo://app?vid=cf3b933e-7080-4775-b6de-4bada7bc9705","ios":"levelo://app?vid=cf3b933e-7080-4775-b6de-4bada7bc9705"},"vehicle_type_id":"4","last_reported":1733839784,"current_range_meters":38800,"station_id":"ce4bgh92rcd13ifvqb40","pricing_plan_id":"cebpf4jnsgd1na2vs0mg"},{"bike_id":"78eaf38f-9f21-4944-8605-55eac1ceeaf0","system_id":"levelo_inurba_marseille","lat":43.28706,"lon":5.37942,"is_reserved":false,"is_disabled":false,"rental_uris":{"android":"levelo://app?vid=78eaf38f-9f21-4944-8605-55eac1ceeaf0","ios":"levelo://app?vid=78eaf38f-9f21-4944-8605-55eac1ceeaf0"},"vehicle_type_id":"4","last_reported":1733839784,"current_range_meters":24800,"station_id":"ce4bh9p2rcd13ifvqec0","pricing_plan_id":"cebpf4jnsgd1na2vs0mg"},{"bike_id":"845a1e5f-8df3-4e13-a702-8b68ebdb22c7","system_id":"levelo_inurba_marseille","lat":43.31365,"lon":5.36702,"is_reserved":false,"is_disabled":false,"rental_uris":{"android":"levelo://app?vid=845a1e5f-8df3-4e13-a702-8b68ebdb22c7","ios":"levelo://app?vid=845a1e5f-8df3-4e13-a702-8b68ebdb22c7"},"vehicle_type_id":"4","last_reported":1733839784,"current_range_meters":33200,"station_id":"ce4bgr92rcd13ifvqc6g","pricing_plan_id":"cebpf4jnsgd1na2vs0mg"},{"bike_id":"8e5bf1b6-f15d-4d83-a7d2-25e9044b762e","system_id":"levelo_inurba_marseille","lat":43.28722,"lon":5.37944,"is_reserved":false,"is_disabled":false,"rental_uris":{"android":"levelo://app?vid=8e5bf1b6-f15d-4d83-a7d2-25e9044b762e","ios":"levelo://app?vid=8e5bf1b6-f15d-4d83-a7d2-25e9044b762e"},"vehicle_type_id":"4","last_reported":1733839784,"current_range_meters":16400,"station_id":"ce4bh9p2rcd13ifvqec0","pricing_plan_id":"cebpf4jnsgd1na2vs0mg"},{"bike_id":"9e533191-da82-438a-a837-b070786255db","system_id":"levelo_inurba_marseille","lat":43.23964,"lon":5.36636,"is_reserved":false,"is_disabled":false,"rental_uris":{"android":"levelo://app?vid=9e533191-da82-438a-a837-b070786255db","ios":"levelo://app?vid=9e533191-da82-438a-a837-b070786255db"},"vehicle_type_id":"4","last_reported":1733839784,"current_range_meters":37600,"station_id":"ce4bhi12rcd13ifvqfp0","pricing_plan_id":"cebpf4jnsgd1na2vs0mg"},{"bike_id":"f1e1b83c-6b4c-4d52-9b3f-becfd8274a79","system_id":"levelo_inurba_marseille","lat":43.24998,"lon":5.38938,"is_reserved":false,"is_disabled":false,"rental_uris":{"android":"levelo://app?vid=f1e1b83c-6b4c-4d52-9b3f-becfd8274a79","ios":"levelo://app?vid=f1e1b83c-6b4c-4d52-9b3f-becfd8274a79"},"vehicle_type_id":"4","last_reported":1733839784,"current_range_meters":38800,"station_id":"ce4bhgp2rcd13ifvqfd0","pricing_plan_id":"cebpf4jnsgd1na2vs0mg"},{"bike_id":"be2932e9-b9ec-4de9-b906-f26df2926dfe","system_id":"levelo_inurba_marseille","lat":43.29013,"lon":5.35578,"is_reserved":false,"is_disabled":false,"rental_uris":{"android":"levelo://app?vid=be2932e9-b9ec-4de9-b906-f26df2926dfe","ios":"levelo://app?vid=be2932e9-b9ec-4de9-b906-f26df2926dfe"},"vehicle_type_id":"4","last_reported":1733839784,"current_range_meters":39200,"station_id":"ce4bhb92rcd13ifvqen0","pricing_plan_id":"cebpf4jnsgd1na2vs0mg"},{"bike_id":"e0251b32-b340-44b9-a685-42a1e27fe71d","system_id":"levelo_inurba_marseille","lat":43.25733,"lon":5.41097,"is_reserved":false,"is_disabled":true,"rental_uris":{"android":"levelo://app?vid=e0251b32-b340-44b9-a685-42a1e27fe71d","ios":"levelo://app?vid=e0251b32-b340-44b9-a685-42a1e27fe71d"},"vehicle_type_id":"4","last_reported":1733839784,"current_range_meters":0,"station_id":"ce4bhkp2rcd13ifvqgd0","pricing_plan_id":"cebpf4jnsgd1na2vs0mg"},{"bike_id":"1557c875-5266-4855-9c3c-573b1ec229ea","system_id":"levelo_inurba_marseille","lat":43.28858,"lon":5.39325,"is_reserved":false,"is_disabled":false,"rental_uris":{"android":"levelo://app?vid=1557c875-5266-4855-9c3c-573b1ec229ea","ios":"levelo://app?vid=1557c875-5266-4855-9c3c-573b1ec229ea"},"vehicle_type_id":"4","last_reported":1733839784,"current_range_meters":9600,"station_id":"ce4bh2p2rcd13ifvqdi0","pricing_plan_id":"cebpf4jnsgd1na2vs0mg"},{"bike_id":"097d539c-2fb0-4695-9c7a-c109fd16c513","system_id":"levelo_inurba_marseille","lat":43.2707,"lon":5.42281,"is_reserved":false,"is_disabled":false,"rental_uris":{"android":"levelo://app?vid=097d539c-2fb0-4695-9c7a-c109fd16c513","ios":"levelo://app?vid=097d539c-2fb0-4695-9c7a-c109fd16c513"},"vehicle_type_id":"4","last_reported":1733839784,"current_range_meters":38800,"station_id":"ce4bhk92rcd13ifvqgb0","pricing_plan_id":"cebpf4jnsgd1na2vs0mg"},{"bike_id":"b135bff0-8e87-4e47-af7a-2fa72d222280","system_id":"levelo_inurba_marseille","lat":43.25725,"lon":5.41112,"is_reserved":false,"is_disabled":true,"rental_uris":{"android":"levelo://app?vid=b135bff0-8e87-4e47-af7a-2fa72d222280","ios":"levelo://app?vid=b135bff0-8e87-4e47-af7a-2fa72d222280"},"vehicle_type_id":"4","last_reported":1733839784,"current_range_meters":33200,"station_id":"ce4bhkp2rcd13ifvqgd0","pricing_plan_id":"cebpf4jnsgd1na2vs0mg"},{"bike_id":"c42b2296-ca51-41a6-a821-1be4c7ee1688","system_id":"levelo_inurba_marseille","lat":43.29267,"lon":5.36859,"is_reserved":false,"is_disabled":false,"rental_uris":{"android":"levelo://app?vid=c42b2296-ca51-41a6-a821-1be4c7ee1688","ios":"levelo://app?vid=c42b2296-ca51-41a6-a821-1be4c7ee1688"},"vehicle_type_id":"4","last_reported":1733839784,"current_range_meters":38000,"station_id":"ce4bhbp2rcd13ifvqesg","pricing_plan_id":"cebpf4jnsgd1na2vs0mg"},{"bike_id":"09e8f3a7-5e09-4c1d-acc9-e200de530ef1","system_id":"levelo_inurba_marseille","lat":43.23156,"lon":5.43703,"is_reserved":false,"is_disabled":false,"rental_uris":{"android":"levelo://app?vid=09e8f3a7-5e09-4c1d-acc9-e200de530ef1","ios":"levelo://app?vid=09e8f3a7-5e09-4c1d-acc9-e200de530ef1"},"vehicle_type_id":"4","last_reported":1733839784,"current_range_meters":38800,"station_id":"ce4bhmp2rcd13ifvqgog","pricing_plan_id":"cebpf4jnsgd1na2vs0mg"},{"bike_id":"9b7c9aa6-2218-4fc5-ad0e-37ca3ac63a35","system_id":"levelo_inurba_marseille","lat":43.286755,"lon":5.38658,"is_reserved":false,"is_disabled":false,"rental_uris":{"android":"levelo://app?vid=9b7c9aa6-2218-4fc5-ad0e-37ca3ac63a35","ios":"levelo://app?vid=9b7c9aa6-2218-4fc5-ad0e-37ca3ac63a35"},"vehicle_type_id":"4","last_reported":1733839784,"current_range_meters":27200,"station_id":"ce4bh492rcd13ifvqdug","pricing_plan_id":"cebpf4jnsgd1na2vs0mg"},{"bike_id":"fdb6ac21-fda5-4a26-8f69-3af8499d4884","system_id":"levelo_inurba_marseille","lat":43.26502,"lon":5.39535,"is_reserved":false,"is_disabled":false,"rental_uris":{"android":"levelo://app?vid=fdb6ac21-fda5-4a26-8f69-3af8499d4884","ios":"levelo://app?vid=fdb6ac21-fda5-4a26-8f69-3af8499d4884"},"vehicle_type_id":"4","last_reported":1733839784,"current_range_meters":10000,"station_id":"ce4bhi12rcd13ifvqfq0","pricing_plan_id":"cebpf4jnsgd1na2vs0mg"},{"bike_id":"584c80ce-c5a2-411c-9dfa-e29ad71a5677","system_id":"levelo_inurba_marseille","lat":43.2408,"lon":5.37752,"is_reserved":false,"is_disabled":false,"rental_uris":{"android":"levelo://app?vid=584c80ce-c5a2-411c-9dfa-e29ad71a5677","ios":"levelo://app?vid=584c80ce-c5a2-411c-9dfa-e29ad71a5677"},"vehicle_type_id":"4","last_reported":1733839784,"current_range_meters":39200,"station_id":"ce4bhnp2rcd13ifvqgvg","pricing_plan_id":"cebpf4jnsgd1na2vs0mg"},{"bike_id":"e79ce07b-2fcc-4f79-84d2-2199ce1172a0","system_id":"levelo_inurba_marseille","lat":43.26785,"lon":5.39411,"is_reserved":false,"is_disabled":false,"rental_uris":{"android":"levelo://app?vid=e79ce07b-2fcc-4f79-84d2-2199ce1172a0","ios":"levelo://app?vid=e79ce07b-2fcc-4f79-84d2-2199ce1172a0"},"vehicle_type_id":"4","last_reported":1733839784,"current_range_meters":32000,"station_id":"ce4bhh12rcd13ifvqfg0","pricing_plan_id":"cebpf4jnsgd1na2vs0mg"},{"bike_id":"1b2d4db1-cec0-4376-9abf-f3b964e5dcb7","system_id":"levelo_inurba_marseille","lat":43.23195,"lon":5.35551,"is_reserved":false,"is_disabled":false,"rental_uris":{"android":"levelo://app?vid=1b2d4db1-cec0-4376-9abf-f3b964e5dcb7","ios":"levelo://app?vid=1b2d4db1-cec0-4376-9abf-f3b964e5dcb7"},"vehicle_type_id":"4","last_reported":1733839784,"current_range_meters":38800,"station_id":"ce4bhu92rcd13ifvqi70","pricing_plan_id":"cebpf4jnsgd1na2vs0mg"},{"bike_id":"50b96d84-714a-4478-b262-7b0e6d9632bb","system_id":"levelo_inurba_marseille","lat":43.2841,"lon":5.34992,"is_reserved":false,"is_disabled":false,"rental_uris":{"android":"levelo://app?vid=50b96d84-714a-4478-b262-7b0e6d9632bb","ios":"levelo://app?vid=50b96d84-714a-4478-b262-7b0e6d9632bb"},"vehicle_type_id":"4","last_reported":1733839784,"current_range_meters":27600,"station_id":"ce4bhbh2rcd13ifvqepg","pricing_plan_id":"cebpf4jnsgd1na2vs0mg"},{"bike_id":"250067ad-4061-4d3b-abcb-afdebfcfdab8","system_id":"levelo_inurba_marseille","lat":43.30645,"lon":5.40101,"is_reserved":false,"is_disabled":true,"rental_uris":{"android":"levelo://app?vid=250067ad-4061-4d3b-abcb-afdebfcfdab8","ios":"levelo://app?vid=250067ad-4061-4d3b-abcb-afdebfcfdab8"},"vehicle_type_id":"4","last_reported":1733839784,"current_range_meters":0,"station_id":"ce4bh112rcd13ifvqda0","pricing_plan_id":"cebpf4jnsgd1na2vs0mg"},{"bike_id":"e867e4df-bdaf-4905-9f4f-695c75d7fdb0","system_id":"levelo_inurba_marseille","lat":43.26218,"lon":5.37436,"is_reserved":false,"is_disabled":false,"rental_uris":{"android":"levelo://app?vid=e867e4df-bdaf-4905-9f4f-695c75d7fdb0","ios":"levelo://app?vid=e867e4df-bdaf-4905-9f4f-695c75d7fdb0"},"vehicle_type_id":"4","last_reported":1733839784,"current_range_meters":38800,"station_id":"ce4bhgp2rcd13ifvqfc0","pricing_plan_id":"cebpf4jnsgd1na2vs0mg"},{"bike_id":"5bccc409-5e21-416d-a4e2-e6cf2d146d35","system_id":"levelo_inurba_marseille","lat":43.24178,"lon":5.39731,"is_reserved":false,"is_disabled":false,"rental_uris":{"android":"levelo://app?vid=5bccc409-5e21-416d-a4e2-e6cf2d146d35","ios":"levelo://app?vid=5bccc409-5e21-416d-a4e2-e6cf2d146d35"},"vehicle_type_id":"4","last_reported":1733839784,"current_range_meters":22400,"station_id":"ce4bhn12rcd13ifvqgpg","pricing_plan_id":"cebpf4jnsgd1na2vs0mg"},{"bike_id":"a93d597d-7bb5-4059-9f01-65e24fdedf8f","system_id":"levelo_inurba_marseille","lat":43.273118,"lon":5.390823,"is_reserved":false,"is_disabled":false,"rental_uris":{"android":"levelo://app?vid=a93d597d-7bb5-4059-9f01-65e24fdedf8f","ios":"levelo://app?vid=a93d597d-7bb5-4059-9f01-65e24fdedf8f"},"vehicle_type_id":"4","last_reported":1733839784,"current_range_meters":27200,"station_id":"ce4bhgp2rcd13ifvqfe0","pricing_plan_id":"cebpf4jnsgd1na2vs0mg"},{"bike_id":"5d9d33ed-3cf9-4f40-bcf4-4fd075009d99","system_id":"levelo_inurba_marseille","lat":43.2694,"lon":5.40255,"is_reserved":false,"is_disabled":false,"rental_uris":{"android":"levelo://app?vid=5d9d33ed-3cf9-4f40-bcf4-4fd075009d99","ios":"levelo://app?vid=5d9d33ed-3cf9-4f40-bcf4-4fd075009d99"},"vehicle_type_id":"4","last_reported":1733839784,"current_range_meters":38800,"station_id":"cjm6bp8fraef2m0cb0m0","pricing_plan_id":"cebpf4jnsgd1na2vs0mg"},{"bike_id":"e2e5fff8-dab3-4021-a87d-3c7c833d47d1","system_id":"levelo_inurba_marseille","lat":43.26206,"lon":5.37459,"is_reserved":false,"is_disabled":true,"rental_uris":{"android":"levelo://app?vid=e2e5fff8-dab3-4021-a87d-3c7c833d47d1","ios":"levelo://app?vid=e2e5fff8-dab3-4021-a87d-3c7c833d47d1"},"vehicle_type_id":"4","last_reported":1733839784,"current_range_meters":8800,"station_id":"ce4bhgp2rcd13ifvqfc0","pricing_plan_id":"cebpf4jnsgd1na2vs0mg"},{"bike_id":"e927f7a0-7245-4bfb-a44a-db2e4bc13c63","system_id":"levelo_inurba_marseille","lat":43.2702,"lon":5.4028,"is_reserved":false,"is_disabled":false,"rental_uris":{"android":"levelo://app?vid=e927f7a0-7245-4bfb-a44a-db2e4bc13c63","ios":"levelo://app?vid=e927f7a0-7245-4bfb-a44a-db2e4bc13c63"},"vehicle_type_id":"4","last_reported":1733839784,"current_range_meters":16000,"station_id":"ce4bhl12rcd13ifvqgf0","pricing_plan_id":"cebpf4jnsgd1na2vs0mg"},{"bike_id":"2cee94d4-c6c4-4b4a-ab5f-0ba8c0b9ea97","system_id":"levelo_inurba_marseille","lat":43.28854,"lon":5.39313,"is_reserved":false,"is_disabled":false,"rental_uris":{"android":"levelo://app?vid=2cee94d4-c6c4-4b4a-ab5f-0ba8c0b9ea97","ios":"levelo://app?vid=2cee94d4-c6c4-4b4a-ab5f-0ba8c0b9ea97"},"vehicle_type_id":"4","last_reported":1733839784,"current_range_meters":28000,"station_id":"ce4bh2p2rcd13ifvqdi0","pricing_plan_id":"cebpf4jnsgd1na2vs0mg"},{"bike_id":"86f347dc-de06-4ad2-bcb3-3a2bb69dfdf7","system_id":"levelo_inurba_marseille","lat":43.298,"lon":5.40402,"is_reserved":false,"is_disabled":false,"rental_uris":{"android":"levelo://app?vid=86f347dc-de06-4ad2-bcb3-3a2bb69dfdf7","ios":"levelo://app?vid=86f347dc-de06-4ad2-bcb3-3a2bb69dfdf7"},"vehicle_type_id":"4","last_reported":1733839784,"current_range_meters":37600,"station_id":"ce4bh112rcd13ifvqd90","pricing_plan_id":"cebpf4jnsgd1na2vs0mg"},{"bike_id":"caa4e893-3f91-405a-9e01-7f82a3c352da","system_id":"levelo_inurba_marseille","lat":43.337444,"lon":5.374475,"is_reserved":false,"is_disabled":false,"rental_uris":{"android":"levelo://app?vid=caa4e893-3f91-405a-9e01-7f82a3c352da","ios":"levelo://app?vid=caa4e893-3f91-405a-9e01-7f82a3c352da"},"vehicle_type_id":"4","last_reported":1733839784,"current_range_meters":22800,"station_id":"ce4bhb92rcd13ifvqen0","pricing_plan_id":"cebpf4jnsgd1na2vs0mg"},{"bike_id":"4dbc0102-fa7f-4abb-a08e-385424c87296","system_id":"levelo_inurba_marseille","lat":43.33728,"lon":5.39187,"is_reserved":false,"is_disabled":false,"rental_uris":{"android":"levelo://app?vid=4dbc0102-fa7f-4abb-a08e-385424c87296","ios":"levelo://app?vid=4dbc0102-fa7f-4abb-a08e-385424c87296"},"vehicle_type_id":"4","last_reported":1733839784,"current_range_meters":24800,"station_id":"ce4bhr92rcd13ifvqhsg","pricing_plan_id":"cebpf4jnsgd1na2vs0mg"},{"bike_id":"be03ba72-7ab5-41de-9564-2a9f4ed8a7ff","system_id":"levelo_inurba_marseille","lat":43.29096,"lon":5.38142,"is_reserved":false,"is_disabled":true,"rental_uris":{"android":"levelo://app?vid=be03ba72-7ab5-41de-9564-2a9f4ed8a7ff","ios":"levelo://app?vid=be03ba72-7ab5-41de-9564-2a9f4ed8a7ff"},"vehicle_type_id":"4","last_reported":1733839784,"current_range_meters":23200,"station_id":"ce4bh512rcd13ifvqe2g","pricing_plan_id":"cebpf4jnsgd1na2vs0mg"},{"bike_id":"669b6d1e-f6dd-4724-8744-4ce425f10f3c","system_id":"levelo_inurba_marseille","lat":43.28102,"lon":5.37848,"is_reserved":false,"is_disabled":false,"rental_uris":{"android":"levelo://app?vid=669b6d1e-f6dd-4724-8744-4ce425f10f3c","ios":"levelo://app?vid=669b6d1e-f6dd-4724-8744-4ce425f10f3c"},"vehicle_type_id":"4","last_reported":1733839784,"current_range_meters":30800,"station_id":"ce4bha12rcd13ifvqee0","pricing_plan_id":"cebpf4jnsgd1na2vs0mg"},{"bike_id":"6415661e-64f6-4777-ba80-c62b7c863a53","system_id":"levelo_inurba_marseille","lat":43.30253,"lon":5.40072,"is_reserved":false,"is_disabled":false,"rental_uris":{"android":"levelo://app?vid=6415661e-64f6-4777-ba80-c62b7c863a53","ios":"levelo://app?vid=6415661e-64f6-4777-ba80-c62b7c863a53"},"vehicle_type_id":"4","last_reported":1733839784,"current_range_meters":18800,"station_id":"ce4bgvh2rcd13ifvqcs0","pricing_plan_id":"cebpf4jnsgd1na2vs0mg"},{"bike_id":"d345a10d-b2ad-4419-b605-cf8a94771a9d","system_id":"levelo_inurba_marseille","lat":43.30645,"lon":5.40084,"is_reserved":false,"is_disabled":false,"rental_uris":{"android":"levelo://app?vid=d345a10d-b2ad-4419-b605-cf8a94771a9d","ios":"levelo://app?vid=d345a10d-b2ad-4419-b605-cf8a94771a9d"},"vehicle_type_id":"4","last_reported":1733839784,"current_range_meters":38800,"station_id":"ce4bh112rcd13ifvqda0","pricing_plan_id":"cebpf4jnsgd1na2vs0mg"},{"bike_id":"3c73ed84-a8bd-40cb-8e87-c831744ddcf7","system_id":"levelo_inurba_marseille","lat":43.32368,"lon":5.38884,"is_reserved":false,"is_disabled":false,"rental_uris":{"android":"levelo://app?vid=3c73ed84-a8bd-40cb-8e87-c831744ddcf7","ios":"levelo://app?vid=3c73ed84-a8bd-40cb-8e87-c831744ddcf7"},"vehicle_type_id":"4","last_reported":1733839784,"current_range_meters":24800,"station_id":"ce4bhqp2rcd13ifvqhog","pricing_plan_id":"cebpf4jnsgd1na2vs0mg"},{"bike_id":"b037feb9-28a7-4a3c-a1b9-888657427b00","system_id":"levelo_inurba_marseille","lat":43.28926,"lon":5.38402,"is_reserved":false,"is_disabled":false,"rental_uris":{"android":"levelo://app?vid=b037feb9-28a7-4a3c-a1b9-888657427b00","ios":"levelo://app?vid=b037feb9-28a7-4a3c-a1b9-888657427b00"},"vehicle_type_id":"4","last_reported":1733839784,"current_range_meters":14400,"station_id":"ce4bh612rcd13ifvqe6g","pricing_plan_id":"cebpf4jnsgd1na2vs0mg"},{"bike_id":"92776eba-131c-4b48-a10b-fbf8faca77cb","system_id":"levelo_inurba_marseille","lat":43.26055,"lon":5.39388,"is_reserved":false,"is_disabled":false,"rental_uris":{"android":"levelo://app?vid=92776eba-131c-4b48-a10b-fbf8faca77cb","ios":"levelo://app?vid=92776eba-131c-4b48-a10b-fbf8faca77cb"},"vehicle_type_id":"4","last_reported":1733839784,"current_range_meters":36800,"station_id":"ce4bhh92rcd13ifvqfj0","pricing_plan_id":"cebpf4jnsgd1na2vs0mg"},{"bike_id":"eb4e32cd-a02d-4e92-a013-1fdc0dd71ccb","system_id":"levelo_inurba_marseille","lat":43.324799,"lon":5.365716,"is_reserved":false,"is_disabled":true,"rental_uris":{"android":"levelo://app?vid=eb4e32cd-a02d-4e92-a013-1fdc0dd71ccb","ios":"levelo://app?vid=eb4e32cd-a02d-4e92-a013-1fdc0dd71ccb"},"vehicle_type_id":"4","last_reported":1733839784,"current_range_meters":0,"station_id":"","pricing_plan_id":"cebpf4jnsgd1na2vs0mg"},{"bike_id":"ad24f16e-2206-4a3c-9b57-73b59ffe17ba","system_id":"levelo_inurba_marseille","lat":43.24164,"lon":5.36383,"is_reserved":false,"is_disabled":false,"rental_uris":{"android":"levelo://app?vid=ad24f16e-2206-4a3c-9b57-73b59ffe17ba","ios":"levelo://app?vid=ad24f16e-2206-4a3c-9b57-73b59ffe17ba"},"vehicle_type_id":"4","last_reported":1733839784,"current_range_meters":35200,"station_id":"cpo36qri1sfpv3e86is0","pricing_plan_id":"cebpf4jnsgd1na2vs0mg"},{"bike_id":"88558e7a-f10a-48d8-bad6-2f5edbdb23e8","system_id":"levelo_inurba_marseille","lat":43.2961,"lon":5.37733,"is_reserved":false,"is_disabled":false,"rental_uris":{"android":"levelo://app?vid=88558e7a-f10a-48d8-bad6-2f5edbdb23e8","ios":"levelo://app?vid=88558e7a-f10a-48d8-bad6-2f5edbdb23e8"},"vehicle_type_id":"4","last_reported":1733839784,"current_range_meters":38800,"station_id":"ce4bgi92rcd13ifvqb90","pricing_plan_id":"cebpf4jnsgd1na2vs0mg"},{"bike_id":"421506d5-d95d-431f-b235-21732b1927af","system_id":"levelo_inurba_marseille","lat":43.30874,"lon":5.39654,"is_reserved":false,"is_disabled":false,"rental_uris":{"android":"levelo://app?vid=421506d5-d95d-431f-b235-21732b1927af","ios":"levelo://app?vid=421506d5-d95d-431f-b235-21732b1927af"},"vehicle_type_id":"4","last_reported":1733839784,"current_range_meters":38800,"station_id":"ce4bh012rcd13ifvqcv0","pricing_plan_id":"cebpf4jnsgd1na2vs0mg"},{"bike_id":"d3d42cfe-1d54-4447-8a19-3bac5e63201c","system_id":"levelo_inurba_marseille","lat":43.2867,"lon":5.38659,"is_reserved":false,"is_disabled":false,"rental_uris":{"android":"levelo://app?vid=d3d42cfe-1d54-4447-8a19-3bac5e63201c","ios":"levelo://app?vid=d3d42cfe-1d54-4447-8a19-3bac5e63201c"},"vehicle_type_id":"4","last_reported":1733839784,"current_range_meters":28400,"station_id":"ce4bh492rcd13ifvqdug","pricing_plan_id":"cebpf4jnsgd1na2vs0mg"},{"bike_id":"fdccdfdc-9e02-42d3-bb31-3127ff0c6309","system_id":"levelo_inurba_marseille","lat":43.2594,"lon":5.40904,"is_reserved":false,"is_disabled":true,"rental_uris":{"android":"levelo://app?vid=fdccdfdc-9e02-42d3-bb31-3127ff0c6309","ios":"levelo://app?vid=fdccdfdc-9e02-42d3-bb31-3127ff0c6309"},"vehicle_type_id":"4","last_reported":1733839784,"current_range_meters":30800,"station_id":"ce4bhm92rcd13ifvqglg","pricing_plan_id":"cebpf4jnsgd1na2vs0mg"},{"bike_id":"7e4b75fb-d48f-494e-b5ff-034bdaff153c","system_id":"levelo_inurba_marseille","lat":43.28478,"lon":5.38558,"is_reserved":false,"is_disabled":false,"rental_uris":{"android":"levelo://app?vid=7e4b75fb-d48f-494e-b5ff-034bdaff153c","ios":"levelo://app?vid=7e4b75fb-d48f-494e-b5ff-034bdaff153c"},"vehicle_type_id":"4","last_reported":1733839784,"current_range_meters":23200,"station_id":"ce4bh8p2rcd13ifvqeb0","pricing_plan_id":"cebpf4jnsgd1na2vs0mg"},{"bike_id":"26924fb9-4179-4abe-8b03-e0d47c141d92","system_id":"levelo_inurba_marseille","lat":43.27172,"lon":5.40996,"is_reserved":false,"is_disabled":false,"rental_uris":{"android":"levelo://app?vid=26924fb9-4179-4abe-8b03-e0d47c141d92","ios":"levelo://app?vid=26924fb9-4179-4abe-8b03-e0d47c141d92"},"vehicle_type_id":"4","last_reported":1733839784,"current_range_meters":26800,"station_id":"ce4bhl12rcd13ifvqgf0","pricing_plan_id":"cebpf4jnsgd1na2vs0mg"},{"bike_id":"0b7f2c07-73bd-4229-9bb0-e1d393ad46f2","system_id":"levelo_inurba_marseille","lat":43.24082,"lon":5.37752,"is_reserved":false,"is_disabled":false,"rental_uris":{"android":"levelo://app?vid=0b7f2c07-73bd-4229-9bb0-e1d393ad46f2","ios":"levelo://app?vid=0b7f2c07-73bd-4229-9bb0-e1d393ad46f2"},"vehicle_type_id":"4","last_reported":1733839784,"current_range_meters":25200,"station_id":"ce4bhnp2rcd13ifvqgvg","pricing_plan_id":"cebpf4jnsgd1na2vs0mg"},{"bike_id":"f0eb5d07-ccd5-4342-8d92-3c17f0ee7a02","system_id":"levelo_inurba_marseille","lat":43.29801,"lon":5.3811,"is_reserved":false,"is_disabled":false,"rental_uris":{"android":"levelo://app?vid=f0eb5d07-ccd5-4342-8d92-3c17f0ee7a02","ios":"levelo://app?vid=f0eb5d07-ccd5-4342-8d92-3c17f0ee7a02"},"vehicle_type_id":"4","last_reported":1733839784,"current_range_meters":39200,"station_id":"ce4bgip2rcd13ifvqbb0","pricing_plan_id":"cebpf4jnsgd1na2vs0mg"},{"bike_id":"7bdec345-eeec-47c0-a1aa-d0b0f44ab6d1","system_id":"levelo_inurba_marseille","lat":43.32662,"lon":5.40985,"is_reserved":false,"is_disabled":true,"rental_uris":{"android":"levelo://app?vid=7bdec345-eeec-47c0-a1aa-d0b0f44ab6d1","ios":"levelo://app?vid=7bdec345-eeec-47c0-a1aa-d0b0f44ab6d1"},"vehicle_type_id":"4","last_reported":1733839784,"current_range_meters":38400,"station_id":"ce4bhpp2rcd13ifvqhgg","pricing_plan_id":"cebpf4jnsgd1na2vs0mg"},{"bike_id":"7868e371-6317-42ed-9690-0d5a44796cd2","system_id":"levelo_inurba_marseille","lat":43.25721,"lon":5.41109,"is_reserved":false,"is_disabled":false,"rental_uris":{"android":"levelo://app?vid=7868e371-6317-42ed-9690-0d5a44796cd2","ios":"levelo://app?vid=7868e371-6317-42ed-9690-0d5a44796cd2"},"vehicle_type_id":"4","last_reported":1733839784,"current_range_meters":6400,"station_id":"ce4bhkp2rcd13ifvqgd0","pricing_plan_id":"cebpf4jnsgd1na2vs0mg"},{"bike_id":"7c2d763f-4f63-4636-bb5b-ecd1b420e8ec","system_id":"levelo_inurba_marseille","lat":43.29079,"lon":5.3717,"is_reserved":false,"is_disabled":false,"rental_uris":{"android":"levelo://app?vid=7c2d763f-4f63-4636-bb5b-ecd1b420e8ec","ios":"levelo://app?vid=7c2d763f-4f63-4636-bb5b-ecd1b420e8ec"},"vehicle_type_id":"4","last_reported":1733839784,"current_range_meters":24800,"station_id":"ce4bh5p2rcd13ifvqe4g","pricing_plan_id":"cebpf4jnsgd1na2vs0mg"},{"bike_id":"6cfeac0c-0701-4ec7-b4e2-7946428bf4b5","system_id":"levelo_inurba_marseille","lat":43.31222,"lon":5.36866,"is_reserved":false,"is_disabled":false,"rental_uris":{"android":"levelo://app?vid=6cfeac0c-0701-4ec7-b4e2-7946428bf4b5","ios":"levelo://app?vid=6cfeac0c-0701-4ec7-b4e2-7946428bf4b5"},"vehicle_type_id":"4","last_reported":1733839784,"current_range_meters":38000,"station_id":"ce4bgl92rcd13ifvqbq0","pricing_plan_id":"cebpf4jnsgd1na2vs0mg"},{"bike_id":"e56a6e39-bd42-464a-881e-5ab9a67ff515","system_id":"levelo_inurba_marseille","lat":43.28463,"lon":5.35895,"is_reserved":false,"is_disabled":false,"rental_uris":{"android":"levelo://app?vid=e56a6e39-bd42-464a-881e-5ab9a67ff515","ios":"levelo://app?vid=e56a6e39-bd42-464a-881e-5ab9a67ff515"},"vehicle_type_id":"4","last_reported":1733839784,"current_range_meters":26800,"station_id":"ce4bhah2rcd13ifvqei0","pricing_plan_id":"cebpf4jnsgd1na2vs0mg"},{"bike_id":"c758d2e6-4cef-4394-80e2-cb12ac93859a","system_id":"levelo_inurba_marseille","lat":43.25,"lon":5.38929,"is_reserved":false,"is_disabled":false,"rental_uris":{"android":"levelo://app?vid=c758d2e6-4cef-4394-80e2-cb12ac93859a","ios":"levelo://app?vid=c758d2e6-4cef-4394-80e2-cb12ac93859a"},"vehicle_type_id":"4","last_reported":1733839784,"current_range_meters":36400,"station_id":"ce4bhgp2rcd13ifvqfd0","pricing_plan_id":"cebpf4jnsgd1na2vs0mg"},{"bike_id":"0ccd581d-9c76-4795-b702-2d923b116e9d","system_id":"levelo_inurba_marseille","lat":43.27176,"lon":5.40987,"is_reserved":false,"is_disabled":false,"rental_uris":{"android":"levelo://app?vid=0ccd581d-9c76-4795-b702-2d923b116e9d","ios":"levelo://app?vid=0ccd581d-9c76-4795-b702-2d923b116e9d"},"vehicle_type_id":"4","last_reported":1733839784,"current_range_meters":30800,"station_id":"ce4bhl12rcd13ifvqgf0","pricing_plan_id":"cebpf4jnsgd1na2vs0mg"},{"bike_id":"2684a9a9-a238-443e-998b-500ca33c17f8","system_id":"levelo_inurba_marseille","lat":43.257247,"lon":5.411122,"is_reserved":false,"is_disabled":false,"rental_uris":{"android":"levelo://app?vid=2684a9a9-a238-443e-998b-500ca33c17f8","ios":"levelo://app?vid=2684a9a9-a238-443e-998b-500ca33c17f8"},"vehicle_type_id":"4","last_reported":1733839784,"current_range_meters":7200,"station_id":"ce4bhkp2rcd13ifvqgd0","pricing_plan_id":"cebpf4jnsgd1na2vs0mg"},{"bike_id":"cda007dd-06bb-4a86-b841-00a7ca3fac29","system_id":"levelo_inurba_marseille","lat":43.31516,"lon":5.38906,"is_reserved":false,"is_disabled":false,"rental_uris":{"android":"levelo://app?vid=cda007dd-06bb-4a86-b841-00a7ca3fac29","ios":"levelo://app?vid=cda007dd-06bb-4a86-b841-00a7ca3fac29"},"vehicle_type_id":"4","last_reported":1733839784,"current_range_meters":20400,"station_id":"ce4bhqp2rcd13ifvqhng","pricing_plan_id":"cebpf4jnsgd1na2vs0mg"},{"bike_id":"95d8628d-10b1-47e7-9a42-9b126ec315c6","system_id":"levelo_inurba_marseille","lat":43.2319,"lon":5.35572,"is_reserved":false,"is_disabled":false,"rental_uris":{"android":"levelo://app?vid=95d8628d-10b1-47e7-9a42-9b126ec315c6","ios":"levelo://app?vid=95d8628d-10b1-47e7-9a42-9b126ec315c6"},"vehicle_type_id":"4","last_reported":1733839784,"current_range_meters":24400,"station_id":"ce4bhu92rcd13ifvqi70","pricing_plan_id":"cebpf4jnsgd1na2vs0mg"},{"bike_id":"ff157558-4762-4775-8ebe-d59ef36bd776","system_id":"levelo_inurba_marseille","lat":43.26554,"lon":5.37302,"is_reserved":false,"is_disabled":false,"rental_uris":{"android":"levelo://app?vid=ff157558-4762-4775-8ebe-d59ef36bd776","ios":"levelo://app?vid=ff157558-4762-4775-8ebe-d59ef36bd776"},"vehicle_type_id":"4","last_reported":1733839784,"current_range_meters":13600,"station_id":"ce4bhg12rcd13ifvqf70","pricing_plan_id":"cebpf4jnsgd1na2vs0mg"},{"bike_id":"55fb5cce-a387-4942-8b44-0194802fccc0","system_id":"levelo_inurba_marseille","lat":43.32056,"lon":5.41543,"is_reserved":false,"is_disabled":false,"rental_uris":{"android":"levelo://app?vid=55fb5cce-a387-4942-8b44-0194802fccc0","ios":"levelo://app?vid=55fb5cce-a387-4942-8b44-0194802fccc0"},"vehicle_type_id":"4","last_reported":1733839784,"current_range_meters":9200,"station_id":"ce4bhq92rcd13ifvqhkg","pricing_plan_id":"cebpf4jnsgd1na2vs0mg"},{"bike_id":"f3913043-72ae-4fb5-9ce8-a8a23602c53e","system_id":"levelo_inurba_marseille","lat":43.29554,"lon":5.42289,"is_reserved":false,"is_disabled":true,"rental_uris":{"android":"levelo://app?vid=f3913043-72ae-4fb5-9ce8-a8a23602c53e","ios":"levelo://app?vid=f3913043-72ae-4fb5-9ce8-a8a23602c53e"},"vehicle_type_id":"4","last_reported":1733839784,"current_range_meters":2000,"station_id":"ce4bhph2rcd13ifvqhdg","pricing_plan_id":"cebpf4jnsgd1na2vs0mg"},{"bike_id":"570bad79-da0a-4f0e-bd71-fcfb4fde31b3","system_id":"levelo_inurba_marseille","lat":43.23968,"lon":5.36633,"is_reserved":false,"is_disabled":true,"rental_uris":{"android":"levelo://app?vid=570bad79-da0a-4f0e-bd71-fcfb4fde31b3","ios":"levelo://app?vid=570bad79-da0a-4f0e-bd71-fcfb4fde31b3"},"vehicle_type_id":"4","last_reported":1733839784,"current_range_meters":32800,"station_id":"ce4bhi12rcd13ifvqfp0","pricing_plan_id":"cebpf4jnsgd1na2vs0mg"},{"bike_id":"0f20b602-7b45-4989-92b6-4d1c64ab5468","system_id":"levelo_inurba_marseille","lat":43.26554,"lon":5.3729,"is_reserved":false,"is_disabled":false,"rental_uris":{"android":"levelo://app?vid=0f20b602-7b45-4989-92b6-4d1c64ab5468","ios":"levelo://app?vid=0f20b602-7b45-4989-92b6-4d1c64ab5468"},"vehicle_type_id":"4","last_reported":1733839784,"current_range_meters":33200,"station_id":"ce4bhg12rcd13ifvqf70","pricing_plan_id":"cebpf4jnsgd1na2vs0mg"},{"bike_id":"07315b1b-6a65-4714-97ad-f44e965e0217","system_id":"levelo_inurba_marseille","lat":43.24076,"lon":5.37744,"is_reserved":false,"is_disabled":false,"rental_uris":{"android":"levelo://app?vid=07315b1b-6a65-4714-97ad-f44e965e0217","ios":"levelo://app?vid=07315b1b-6a65-4714-97ad-f44e965e0217"},"vehicle_type_id":"4","last_reported":1733839784,"current_range_meters":9600,"station_id":"ce4bhnp2rcd13ifvqgvg","pricing_plan_id":"cebpf4jnsgd1na2vs0mg"},{"bike_id":"a137d7c7-faef-4058-8263-868184c3ace6","system_id":"levelo_inurba_marseille","lat":43.30546,"lon":5.36677,"is_reserved":false,"is_disabled":false,"rental_uris":{"android":"levelo://app?vid=a137d7c7-faef-4058-8263-868184c3ace6","ios":"levelo://app?vid=a137d7c7-faef-4058-8263-868184c3ace6"},"vehicle_type_id":"4","last_reported":1733839784,"current_range_meters":17600,"station_id":"ce4bgrp2rcd13ifvqc9g","pricing_plan_id":"cebpf4jnsgd1na2vs0mg"},{"bike_id":"8f223178-6a38-4832-a975-4b3ff773e01b","system_id":"levelo_inurba_marseille","lat":43.2737,"lon":5.3626,"is_reserved":false,"is_disabled":false,"rental_uris":{"android":"levelo://app?vid=8f223178-6a38-4832-a975-4b3ff773e01b","ios":"levelo://app?vid=8f223178-6a38-4832-a975-4b3ff773e01b"},"vehicle_type_id":"4","last_reported":1733839784,"current_range_meters":37600,"station_id":"ce4bhbh2rcd13ifvqeo0","pricing_plan_id":"cebpf4jnsgd1na2vs0mg"},{"bike_id":"e2077a36-a0f9-4016-a166-f444580cd4fc","system_id":"levelo_inurba_marseille","lat":43.28154,"lon":5.42647,"is_reserved":false,"is_disabled":false,"rental_uris":{"android":"levelo://app?vid=e2077a36-a0f9-4016-a166-f444580cd4fc","ios":"levelo://app?vid=e2077a36-a0f9-4016-a166-f444580cd4fc"},"vehicle_type_id":"4","last_reported":1733839784,"current_range_meters":29600,"station_id":"ce4bhnh2rcd13ifvqgug","pricing_plan_id":"cebpf4jnsgd1na2vs0mg"},{"bike_id":"e19bbcd4-547c-4c48-9d1e-941b58bfe99b","system_id":"levelo_inurba_marseille","lat":43.31354,"lon":5.36695,"is_reserved":false,"is_disabled":false,"rental_uris":{"android":"levelo://app?vid=e19bbcd4-547c-4c48-9d1e-941b58bfe99b","ios":"levelo://app?vid=e19bbcd4-547c-4c48-9d1e-941b58bfe99b"},"vehicle_type_id":"4","last_reported":1733839784,"current_range_meters":38000,"station_id":"ce4bgr92rcd13ifvqc6g","pricing_plan_id":"cebpf4jnsgd1na2vs0mg"},{"bike_id":"b8e7f883-5b9b-422d-81e9-d00c2442da3b","system_id":"levelo_inurba_marseille","lat":43.23064,"lon":5.35494,"is_reserved":false,"is_disabled":false,"rental_uris":{"android":"levelo://app?vid=b8e7f883-5b9b-422d-81e9-d00c2442da3b","ios":"levelo://app?vid=b8e7f883-5b9b-422d-81e9-d00c2442da3b"},"vehicle_type_id":"4","last_reported":1733839784,"current_range_meters":36400,"station_id":"cpo3342slgdg3j2ifvpg","pricing_plan_id":"cebpf4jnsgd1na2vs0mg"},{"bike_id":"6dff49f5-9a34-43d2-84bd-2e85915eccf9","system_id":"levelo_inurba_marseille","lat":43.32549,"lon":5.41435,"is_reserved":false,"is_disabled":false,"rental_uris":{"android":"levelo://app?vid=6dff49f5-9a34-43d2-84bd-2e85915eccf9","ios":"levelo://app?vid=6dff49f5-9a34-43d2-84bd-2e85915eccf9"},"vehicle_type_id":"4","last_reported":1733839784,"current_range_meters":36000,"station_id":"ce4bhq12rcd13ifvqhhg","pricing_plan_id":"cebpf4jnsgd1na2vs0mg"},{"bike_id":"c1598c12-4bef-4141-a99f-8dd71c41b81d","system_id":"levelo_inurba_marseille","lat":43.24183,"lon":5.39729,"is_reserved":false,"is_disabled":false,"rental_uris":{"android":"levelo://app?vid=c1598c12-4bef-4141-a99f-8dd71c41b81d","ios":"levelo://app?vid=c1598c12-4bef-4141-a99f-8dd71c41b81d"},"vehicle_type_id":"4","last_reported":1733839784,"current_range_meters":38800,"station_id":"ce4bhn12rcd13ifvqgpg","pricing_plan_id":"cebpf4jnsgd1na2vs0mg"},{"bike_id":"2336b855-aed5-4e43-aa5a-a01ccfa8f161","system_id":"levelo_inurba_marseille","lat":43.28733,"lon":5.37938,"is_reserved":false,"is_disabled":false,"rental_uris":{"android":"levelo://app?vid=2336b855-aed5-4e43-aa5a-a01ccfa8f161","ios":"levelo://app?vid=2336b855-aed5-4e43-aa5a-a01ccfa8f161"},"vehicle_type_id":"4","last_reported":1733839784,"current_range_meters":29600,"station_id":"ce4bh9p2rcd13ifvqec0","pricing_plan_id":"cebpf4jnsgd1na2vs0mg"},{"bike_id":"aac345db-d41e-475c-a96f-986bffa1163f","system_id":"levelo_inurba_marseille","lat":43.29616,"lon":5.37713,"is_reserved":false,"is_disabled":true,"rental_uris":{"android":"levelo://app?vid=aac345db-d41e-475c-a96f-986bffa1163f","ios":"levelo://app?vid=aac345db-d41e-475c-a96f-986bffa1163f"},"vehicle_type_id":"4","last_reported":1733839784,"current_range_meters":28000,"station_id":"ce4bgi92rcd13ifvqb90","pricing_plan_id":"cebpf4jnsgd1na2vs0mg"},{"bike_id":"22278a0c-fce9-4173-a71c-65b84f5754ef","system_id":"levelo_inurba_marseille","lat":43.28728,"lon":5.36089,"is_reserved":false,"is_disabled":false,"rental_uris":{"android":"levelo://app?vid=22278a0c-fce9-4173-a71c-65b84f5754ef","ios":"levelo://app?vid=22278a0c-fce9-4173-a71c-65b84f5754ef"},"vehicle_type_id":"4","last_reported":1733839784,"current_range_meters":28000,"station_id":"cki0cbj6b192h4jlfktg","pricing_plan_id":"cebpf4jnsgd1na2vs0mg"},{"bike_id":"56a21b46-febe-4794-80c1-58fd5e97ca18","system_id":"levelo_inurba_marseille","lat":43.27493,"lon":5.42453,"is_reserved":false,"is_disabled":false,"rental_uris":{"android":"levelo://app?vid=56a21b46-febe-4794-80c1-58fd5e97ca18","ios":"levelo://app?vid=56a21b46-febe-4794-80c1-58fd5e97ca18"},"vehicle_type_id":"4","last_reported":1733839784,"current_range_meters":26800,"station_id":"ce4bhn92rcd13ifvqgrg","pricing_plan_id":"cebpf4jnsgd1na2vs0mg"},{"bike_id":"a0b44e86-9121-4df3-b62a-0fc9a0d1110c","system_id":"levelo_inurba_marseille","lat":43.2306,"lon":5.35495,"is_reserved":false,"is_disabled":false,"rental_uris":{"android":"levelo://app?vid=a0b44e86-9121-4df3-b62a-0fc9a0d1110c","ios":"levelo://app?vid=a0b44e86-9121-4df3-b62a-0fc9a0d1110c"},"vehicle_type_id":"4","last_reported":1733839784,"current_range_meters":36400,"station_id":"cpo3342slgdg3j2ifvpg","pricing_plan_id":"cebpf4jnsgd1na2vs0mg"},{"bike_id":"aa7106be-51b3-4739-9d23-4c1312cad3ba","system_id":"levelo_inurba_marseille","lat":43.29984,"lon":5.3719,"is_reserved":false,"is_disabled":false,"rental_uris":{"android":"levelo://app?vid=aa7106be-51b3-4739-9d23-4c1312cad3ba","ios":"levelo://app?vid=aa7106be-51b3-4739-9d23-4c1312cad3ba"},"vehicle_type_id":"4","last_reported":1733839784,"current_range_meters":38800,"station_id":"ce4bgr92rcd13ifvqc7g","pricing_plan_id":"cebpf4jnsgd1na2vs0mg"},{"bike_id":"705baa2e-0732-4bc6-aee2-0aa20427dd11","system_id":"levelo_inurba_marseille","lat":43.292938,"lon":5.374702,"is_reserved":false,"is_disabled":false,"rental_uris":{"android":"levelo://app?vid=705baa2e-0732-4bc6-aee2-0aa20427dd11","ios":"levelo://app?vid=705baa2e-0732-4bc6-aee2-0aa20427dd11"},"vehicle_type_id":"4","last_reported":1733839784,"current_range_meters":26000,"station_id":"ce4bgi12rcd13ifvqb70","pricing_plan_id":"cebpf4jnsgd1na2vs0mg"},{"bike_id":"7bf913d9-a3c4-4599-8d55-d226644c68a3","system_id":"levelo_inurba_marseille","lat":43.26946,"lon":5.40243,"is_reserved":false,"is_disabled":false,"rental_uris":{"android":"levelo://app?vid=7bf913d9-a3c4-4599-8d55-d226644c68a3","ios":"levelo://app?vid=7bf913d9-a3c4-4599-8d55-d226644c68a3"},"vehicle_type_id":"4","last_reported":1733839784,"current_range_meters":17200,"station_id":"cjm6bp8fraef2m0cb0m0","pricing_plan_id":"cebpf4jnsgd1na2vs0mg"},{"bike_id":"127262d1-6a7c-4722-a817-f0ae38c2b2d7","system_id":"levelo_inurba_marseille","lat":43.25492,"lon":5.37648,"is_reserved":false,"is_disabled":false,"rental_uris":{"android":"levelo://app?vid=127262d1-6a7c-4722-a817-f0ae38c2b2d7","ios":"levelo://app?vid=127262d1-6a7c-4722-a817-f0ae38c2b2d7"},"vehicle_type_id":"4","last_reported":1733839784,"current_range_meters":38800,"station_id":"ce4bhh12rcd13ifvqff0","pricing_plan_id":"cebpf4jnsgd1na2vs0mg"},{"bike_id":"895451d5-ff92-4b0e-9e8d-7661df26407e","system_id":"levelo_inurba_marseille","lat":43.26062,"lon":5.39399,"is_reserved":false,"is_disabled":false,"rental_uris":{"android":"levelo://app?vid=895451d5-ff92-4b0e-9e8d-7661df26407e","ios":"levelo://app?vid=895451d5-ff92-4b0e-9e8d-7661df26407e"},"vehicle_type_id":"4","last_reported":1733839784,"current_range_meters":36800,"station_id":"ce4bhh92rcd13ifvqfj0","pricing_plan_id":"cebpf4jnsgd1na2vs0mg"},{"bike_id":"eab7c24e-3533-4637-b397-5e46bc48ccfd","system_id":"levelo_inurba_marseille","lat":43.23144,"lon":5.43726,"is_reserved":false,"is_disabled":true,"rental_uris":{"android":"levelo://app?vid=eab7c24e-3533-4637-b397-5e46bc48ccfd","ios":"levelo://app?vid=eab7c24e-3533-4637-b397-5e46bc48ccfd"},"vehicle_type_id":"4","last_reported":1733839784,"current_range_meters":5600,"station_id":"ce4bhmp2rcd13ifvqgog","pricing_plan_id":"cebpf4jnsgd1na2vs0mg"},{"bike_id":"59f42535-058f-475a-82f1-9d693002a3d4","system_id":"levelo_inurba_marseille","lat":43.29621,"lon":5.37151,"is_reserved":false,"is_disabled":false,"rental_uris":{"android":"levelo://app?vid=59f42535-058f-475a-82f1-9d693002a3d4","ios":"levelo://app?vid=59f42535-058f-475a-82f1-9d693002a3d4"},"vehicle_type_id":"4","last_reported":1733839784,"current_range_meters":37600,"station_id":"ce4bgnh2rcd13ifvqc0g","pricing_plan_id":"cebpf4jnsgd1na2vs0mg"},{"bike_id":"84cb717c-3ecc-4880-972c-6ca5c688368a","system_id":"levelo_inurba_marseille","lat":43.32482,"lon":5.36565,"is_reserved":false,"is_disabled":true,"rental_uris":{"android":"levelo://app?vid=84cb717c-3ecc-4880-972c-6ca5c688368a","ios":"levelo://app?vid=84cb717c-3ecc-4880-972c-6ca5c688368a"},"vehicle_type_id":"4","last_reported":1733839784,"current_range_meters":0,"station_id":"ce4bhs12rcd13ifvqhvg","pricing_plan_id":"cebpf4jnsgd1na2vs0mg"},{"bike_id":"1a1a3793-ce6b-4b4d-a90e-de9922760978","system_id":"levelo_inurba_marseille","lat":43.28411,"lon":5.3751,"is_reserved":false,"is_disabled":false,"rental_uris":{"android":"levelo://app?vid=1a1a3793-ce6b-4b4d-a90e-de9922760978","ios":"levelo://app?vid=1a1a3793-ce6b-4b4d-a90e-de9922760978"},"vehicle_type_id":"4","last_reported":1733839784,"current_range_meters":35600,"station_id":"ce4bh412rcd13ifvqds0","pricing_plan_id":"cebpf4jnsgd1na2vs0mg"},{"bike_id":"9de0c71d-b792-4243-8201-95a1a775fae2","system_id":"levelo_inurba_marseille","lat":43.30783,"lon":5.37656,"is_reserved":false,"is_disabled":false,"rental_uris":{"android":"levelo://app?vid=9de0c71d-b792-4243-8201-95a1a775fae2","ios":"levelo://app?vid=9de0c71d-b792-4243-8201-95a1a775fae2"},"vehicle_type_id":"4","last_reported":1733839784,"current_range_meters":27600,"station_id":"ce4bgv92rcd13ifvqcq0","pricing_plan_id":"cebpf4jnsgd1na2vs0mg"},{"bike_id":"7f739767-6908-4c49-adbc-724120315dbc","system_id":"levelo_inurba_marseille","lat":43.28463,"lon":5.3589,"is_reserved":false,"is_disabled":false,"rental_uris":{"android":"levelo://app?vid=7f739767-6908-4c49-adbc-724120315dbc","ios":"levelo://app?vid=7f739767-6908-4c49-adbc-724120315dbc"},"vehicle_type_id":"4","last_reported":1733839784,"current_range_meters":38800,"station_id":"ce4bhah2rcd13ifvqei0","pricing_plan_id":"cebpf4jnsgd1na2vs0mg"},{"bike_id":"8aae5af6-ba42-4409-86dd-ffa22585a2c5","system_id":"levelo_inurba_marseille","lat":43.28938,"lon":5.36391,"is_reserved":false,"is_disabled":false,"rental_uris":{"android":"levelo://app?vid=8aae5af6-ba42-4409-86dd-ffa22585a2c5","ios":"levelo://app?vid=8aae5af6-ba42-4409-86dd-ffa22585a2c5"},"vehicle_type_id":"4","last_reported":1733839784,"current_range_meters":7200,"station_id":"ce4bhc92rcd13ifvqetg","pricing_plan_id":"cebpf4jnsgd1na2vs0mg"},{"bike_id":"962a96b4-3298-40d0-92e0-1b449f02c0fe","system_id":"levelo_inurba_marseille","lat":43.25494,"lon":5.37647,"is_reserved":false,"is_disabled":true,"rental_uris":{"android":"levelo://app?vid=962a96b4-3298-40d0-92e0-1b449f02c0fe","ios":"levelo://app?vid=962a96b4-3298-40d0-92e0-1b449f02c0fe"},"vehicle_type_id":"4","last_reported":1733839784,"current_range_meters":36400,"station_id":"ce4bhh12rcd13ifvqff0","pricing_plan_id":"cebpf4jnsgd1na2vs0mg"},{"bike_id":"e9623358-1bc1-4de1-8e49-76e6e80de6d4","system_id":"levelo_inurba_marseille","lat":43.31449,"lon":5.37503,"is_reserved":false,"is_disabled":false,"rental_uris":{"android":"levelo://app?vid=e9623358-1bc1-4de1-8e49-76e6e80de6d4","ios":"levelo://app?vid=e9623358-1bc1-4de1-8e49-76e6e80de6d4"},"vehicle_type_id":"4","last_reported":1733839784,"current_range_meters":28800,"station_id":"ce4bgt12rcd13ifvqcd0","pricing_plan_id":"cebpf4jnsgd1na2vs0mg"},{"bike_id":"8fdc9d46-e387-4f1b-bf20-f751779fef35","system_id":"levelo_inurba_marseille","lat":43.31219,"lon":5.36859,"is_reserved":false,"is_disabled":false,"rental_uris":{"android":"levelo://app?vid=8fdc9d46-e387-4f1b-bf20-f751779fef35","ios":"levelo://app?vid=8fdc9d46-e387-4f1b-bf20-f751779fef35"},"vehicle_type_id":"4","last_reported":1733839784,"current_range_meters":38800,"station_id":"ce4bgl92rcd13ifvqbq0","pricing_plan_id":"cebpf4jnsgd1na2vs0mg"},{"bike_id":"ba5e4c54-9e0f-419d-acd3-894b4507a88b","system_id":"levelo_inurba_marseille","lat":43.23055,"lon":5.35487,"is_reserved":false,"is_disabled":false,"rental_uris":{"android":"levelo://app?vid=ba5e4c54-9e0f-419d-acd3-894b4507a88b","ios":"levelo://app?vid=ba5e4c54-9e0f-419d-acd3-894b4507a88b"},"vehicle_type_id":"4","last_reported":1733839784,"current_range_meters":25600,"station_id":"cpo3342slgdg3j2ifvpg","pricing_plan_id":"cebpf4jnsgd1na2vs0mg"},{"bike_id":"60563027-a966-4fc0-9cf0-f098562c76eb","system_id":"levelo_inurba_marseille","lat":43.28942,"lon":5.36642,"is_reserved":false,"is_disabled":false,"rental_uris":{"android":"levelo://app?vid=60563027-a966-4fc0-9cf0-f098562c76eb","ios":"levelo://app?vid=60563027-a966-4fc0-9cf0-f098562c76eb"},"vehicle_type_id":"4","last_reported":1733839784,"current_range_meters":27200,"station_id":"ce4bhap2rcd13ifvqek0","pricing_plan_id":"cebpf4jnsgd1na2vs0mg"},{"bike_id":"e11e5398-2b26-4eb7-9ef7-831791928bde","system_id":"levelo_inurba_marseille","lat":43.31364,"lon":5.36704,"is_reserved":false,"is_disabled":false,"rental_uris":{"android":"levelo://app?vid=e11e5398-2b26-4eb7-9ef7-831791928bde","ios":"levelo://app?vid=e11e5398-2b26-4eb7-9ef7-831791928bde"},"vehicle_type_id":"4","last_reported":1733839784,"current_range_meters":38800,"station_id":"ce4bgr92rcd13ifvqc6g","pricing_plan_id":"cebpf4jnsgd1na2vs0mg"},{"bike_id":"fffa14be-58a4-4d6c-9582-c535b5f77ae9","system_id":"levelo_inurba_marseille","lat":43.27373,"lon":5.36266,"is_reserved":false,"is_disabled":false,"rental_uris":{"android":"levelo://app?vid=fffa14be-58a4-4d6c-9582-c535b5f77ae9","ios":"levelo://app?vid=fffa14be-58a4-4d6c-9582-c535b5f77ae9"},"vehicle_type_id":"4","last_reported":1733839784,"current_range_meters":38800,"station_id":"ce4bhbh2rcd13ifvqeo0","pricing_plan_id":"cebpf4jnsgd1na2vs0mg"},{"bike_id":"155e4552-adf3-45a5-aa6c-6e25fcaf05e5","system_id":"levelo_inurba_marseille","lat":43.27177,"lon":5.40992,"is_reserved":false,"is_disabled":false,"rental_uris":{"android":"levelo://app?vid=155e4552-adf3-45a5-aa6c-6e25fcaf05e5","ios":"levelo://app?vid=155e4552-adf3-45a5-aa6c-6e25fcaf05e5"},"vehicle_type_id":"4","last_reported":1733839784,"current_range_meters":39200,"station_id":"ce4bhl12rcd13ifvqgf0","pricing_plan_id":"cebpf4jnsgd1na2vs0mg"},{"bike_id":"3933b701-ca82-4b18-a882-72a61c67a1e4","system_id":"levelo_inurba_marseille","lat":43.24392,"lon":5.3706,"is_reserved":false,"is_disabled":true,"rental_uris":{"android":"levelo://app?vid=3933b701-ca82-4b18-a882-72a61c67a1e4","ios":"levelo://app?vid=3933b701-ca82-4b18-a882-72a61c67a1e4"},"vehicle_type_id":"4","last_reported":1733839784,"current_range_meters":37600,"station_id":"ce4bhhh2rcd13ifvqfk0","pricing_plan_id":"cebpf4jnsgd1na2vs0mg"},{"bike_id":"5607461a-1c3a-4753-81b6-4b18ff1a2491","system_id":"levelo_inurba_marseille","lat":43.31716,"lon":5.37764,"is_reserved":false,"is_disabled":false,"rental_uris":{"android":"levelo://app?vid=5607461a-1c3a-4753-81b6-4b18ff1a2491","ios":"levelo://app?vid=5607461a-1c3a-4753-81b6-4b18ff1a2491"},"vehicle_type_id":"4","last_reported":1733839784,"current_range_meters":39200,"station_id":"ce4bgth2rcd13ifvqch0","pricing_plan_id":"cebpf4jnsgd1na2vs0mg"},{"bike_id":"3ac9185e-9b03-41f1-907c-092d1ee49d0f","system_id":"levelo_inurba_marseille","lat":43.30886,"lon":5.39658,"is_reserved":false,"is_disabled":false,"rental_uris":{"android":"levelo://app?vid=3ac9185e-9b03-41f1-907c-092d1ee49d0f","ios":"levelo://app?vid=3ac9185e-9b03-41f1-907c-092d1ee49d0f"},"vehicle_type_id":"4","last_reported":1733839784,"current_range_meters":19200,"station_id":"ce4bh012rcd13ifvqcv0","pricing_plan_id":"cebpf4jnsgd1na2vs0mg"},{"bike_id":"9582d053-95a3-4b6b-b966-9f8cbd6f715a","system_id":"levelo_inurba_marseille","lat":43.28035,"lon":5.3695,"is_reserved":false,"is_disabled":false,"rental_uris":{"android":"levelo://app?vid=9582d053-95a3-4b6b-b966-9f8cbd6f715a","ios":"levelo://app?vid=9582d053-95a3-4b6b-b966-9f8cbd6f715a"},"vehicle_type_id":"4","last_reported":1733839784,"current_range_meters":16000,"station_id":"ce4bha12rcd13ifvqef0","pricing_plan_id":"cebpf4jnsgd1na2vs0mg"},{"bike_id":"26735c37-81d8-482e-928e-442b12c4ba7a","system_id":"levelo_inurba_marseille","lat":43.29287,"lon":5.38463,"is_reserved":false,"is_disabled":false,"rental_uris":{"android":"levelo://app?vid=26735c37-81d8-482e-928e-442b12c4ba7a","ios":"levelo://app?vid=26735c37-81d8-482e-928e-442b12c4ba7a"},"vehicle_type_id":"4","last_reported":1733839784,"current_range_meters":38800,"station_id":"ce4bh692rcd13ifvqea0","pricing_plan_id":"cebpf4jnsgd1na2vs0mg"},{"bike_id":"a4ccdeed-8eef-4e82-b7b4-6eb8a801bc5a","system_id":"levelo_inurba_marseille","lat":43.28726,"lon":5.36088,"is_reserved":false,"is_disabled":false,"rental_uris":{"android":"levelo://app?vid=a4ccdeed-8eef-4e82-b7b4-6eb8a801bc5a","ios":"levelo://app?vid=a4ccdeed-8eef-4e82-b7b4-6eb8a801bc5a"},"vehicle_type_id":"4","last_reported":1733839784,"current_range_meters":6800,"station_id":"cki0cbj6b192h4jlfktg","pricing_plan_id":"cebpf4jnsgd1na2vs0mg"},{"bike_id":"4f7e8dca-3f20-40df-b36e-95db5a0cd868","system_id":"levelo_inurba_marseille","lat":43.2998,"lon":5.37181,"is_reserved":false,"is_disabled":false,"rental_uris":{"android":"levelo://app?vid=4f7e8dca-3f20-40df-b36e-95db5a0cd868","ios":"levelo://app?vid=4f7e8dca-3f20-40df-b36e-95db5a0cd868"},"vehicle_type_id":"4","last_reported":1733839784,"current_range_meters":30400,"station_id":"ce4bgr92rcd13ifvqc7g","pricing_plan_id":"cebpf4jnsgd1na2vs0mg"},{"bike_id":"e9d62a61-c3f2-4a3a-9928-e6d3c3a376b5","system_id":"levelo_inurba_marseille","lat":43.29247,"lon":5.40897,"is_reserved":false,"is_disabled":false,"rental_uris":{"android":"levelo://app?vid=e9d62a61-c3f2-4a3a-9928-e6d3c3a376b5","ios":"levelo://app?vid=e9d62a61-c3f2-4a3a-9928-e6d3c3a376b5"},"vehicle_type_id":"4","last_reported":1733839784,"current_range_meters":16800,"station_id":"ce4bh192rcd13ifvqdc0","pricing_plan_id":"cebpf4jnsgd1na2vs0mg"},{"bike_id":"e2f53572-0b48-4281-832d-10b6aad4a00e","system_id":"levelo_inurba_marseille","lat":43.30966,"lon":5.39037,"is_reserved":false,"is_disabled":false,"rental_uris":{"android":"levelo://app?vid=e2f53572-0b48-4281-832d-10b6aad4a00e","ios":"levelo://app?vid=e2f53572-0b48-4281-832d-10b6aad4a00e"},"vehicle_type_id":"4","last_reported":1733839784,"current_range_meters":3200,"station_id":"","pricing_plan_id":"cebpf4jnsgd1na2vs0mg"},{"bike_id":"e1fda08d-d206-439e-bb5b-f0e13b88697c","system_id":"levelo_inurba_marseille","lat":43.305328,"lon":5.36541,"is_reserved":false,"is_disabled":false,"rental_uris":{"android":"levelo://app?vid=e1fda08d-d206-439e-bb5b-f0e13b88697c","ios":"levelo://app?vid=e1fda08d-d206-439e-bb5b-f0e13b88697c"},"vehicle_type_id":"4","last_reported":1733839784,"current_range_meters":26800,"station_id":"ce4bgs12rcd13ifvqcag","pricing_plan_id":"cebpf4jnsgd1na2vs0mg"},