{"last_updated":1717229367,"ttl":30,"version":"2.2","data":{"bikes":[{"bike_id":"043419a9-e56c-4792-aeea-ba1e5c15ca57","system_id":"levelo_inurba_marseille","lat":43.31341,"lon":5.367098,"is_reserved":false,"is_disabled":false,"rental_uris":{"android":"levelo://app?vid=043419a9-e56c-4792-aeea-ba1e5c15ca57","ios":"levelo://app?vid=043419a9-e56c-4792-aeea-ba1e5c15ca57"},"vehicle_type_id":"4","last_reported":1717229367,"current_range_meters":22000,"station_id":"ce4bgr92rcd13ifvqc6g","pricing_plan_id":"cebpf4jnsgd1na2vs0mg"},{"bike_id":"1c4f6a57-1319-42f7-a555-a827f7fb9698","system_id":"levelo_inurba_marseille","lat":43.31341,"lon":5.367098,"is_reserved":false,"is_disabled":false,"rental_uris":{"android":"levelo://app?vid=1c4f6a57-1319-42f7-a555-a827f7fb9698","ios":"levelo://app?vid=1c4f6a57-1319-42f7-a555-a827f7fb9698"},"vehicle_type_id":"4","last_reported":1717229367,"current_range_meters":31200,"station_id":"ce4bgr92rcd13ifvqc6g","pricing_plan_id":"cebpf4jnsgd1na2vs0mg"},{"bike_id":"d2e43702-a31b-4260-8c1f-bc6828413646","system_id":"levelo_inurba_marseille","lat":43.313391,"lon":5.36706,"is_reserved":false,"is_disabled":false,"rental_uris":{"android":"levelo://app?vid=d2e43702-a31b-4260-8c1f-bc6828413646","ios":"levelo://app?vid=d2e43702-a31b-4260-8c1f-bc6828413646"},"vehicle_type_id":"4","last_reported":1717229367,"current_range_meters":28400,"station_id":"ce4bgr92rcd13ifvqc6g","pricing_plan_id":"cebpf4jnsgd1na2vs0mg"},{"bike_id":"a2cade4a-5cc2-46ab-a055-040efad205ec","system_id":"levelo_inurba_marseille","lat":43.309076,"lon":5.368465,"is_reserved":false,"is_disabled":false,"rental_uris":{"android":"levelo://app?vid=a2cade4a-5cc2-46ab-a055-040efad205ec","ios":"levelo://app?vid=a2cade4a-5cc2-46ab-a055-040efad205ec"},"vehicle_type_id":"4","last_reported":1717229367,"current_range_meters":31200,"station_id":"ce4bgn92rcd13ifvqbvg","pricing_plan_id":"cebpf4jnsgd1na2vs0mg"},{"bike_id":"3f85f90c-3bb0-431c-b62b-9fc12e74cc34","system_id":"levelo_inurba_marseille","lat":43.309076,"lon":5.368465,"is_reserved":false,"is_disabled":false,"rental_uris":{"android":"levelo://app?vid=3f85f90c-3bb0-431c-b62b-9fc12e74cc34","ios":"levelo://app?vid=3f85f90c-3bb0-431c-b62b-9fc12e74cc34"},"vehicle_type_id":"4","last_reported":1717229367,"current_range_meters":31200,"station_id":"ce4bgn92rcd13ifvqbvg","pricing_plan_id":"cebpf4jnsgd1na2vs0mg"},{"bike_id":"beb435bf-5db9-4ddb-a9bf-4768e8aab4ba","system_id":"levelo_inurba_marseille","lat":43.309076,"lon":5.368465,"is_reserved":false,"is_disabled":false,"rental_uris":{"android":"levelo://app?vid=beb435bf-5db9-4ddb-a9bf-4768e8aab4ba","ios":"levelo://app?vid=beb435bf-5db9-4ddb-a9bf-4768e8aab4ba"},"vehicle_type_id":"4","last_reported":1717229367,"current_range_meters":18000,"station_id":"ce4bgn92rcd13ifvqbvg","pricing_plan_id":"cebpf4jnsgd1na2vs0mg"},{"bike_id":"63f0c23e-4ee2-4f95-88af-e28c357f3392","system_id":"levelo_inurba_marseille","lat":43.309076,"lon":5.368465,"is_reserved":false,"is_disabled":false,"rental_uris":{"android":"levelo://app?vid=63f0c23e-4ee2-4f95-88af-e28c357f3392","ios":"levelo://app?vid=63f0c23e-4ee2-4f95-88af-e28c357f3392"},"vehicle_type_id":"4","last_reported":1717229367,"current_range_meters":13600,"station_id":"ce4bgn92rcd13ifvqbvg","pricing_plan_id":"cebpf4jnsgd1na2vs0mg"},{"bike_id":"7313d4a7-bb28-4f56-9d01-61208bdcfc9e","system_id":"levelo_inurba_marseille","lat":43.309076,"lon":5.368465,"is_reserved":false,"is_disabled":false,"rental_uris":{"android":"levelo://app?vid=7313d4a7-bb28-4f56-9d01-61208bdcfc9e","ios":"levelo://app?vid=7313d4a7-bb28-4f56-9d01-61208bdcfc9e"},"vehicle_type_id":"4","last_reported":1717229367,"current_range_meters":31200,"station_id":"ce4bgn92rcd13ifvqbvg","pricing_plan_id":"cebpf4jnsgd1na2vs0mg"},{"bike_id":"23c61773-f22c-4d0e-ac4a-ad7114eb22ad","system_id":"levelo_inurba_marseille","lat":43.309076,"lon":5.368465,"is_reserved":false,"is_disabled":false,"rental_uris":{"android":"levelo://app?vid=23c61773-f22c-4d0e-ac4a-ad7114eb22ad","ios":"levelo://app?vid=23c61773-f22c-4d0e-ac4a-ad7114eb22ad"},"vehicle_type_id":"4","last_reported":1717229367,"current_range_meters":6800,"station_id":"ce4bgn92rcd13ifvqbvg","pricing_plan_id":"cebpf4jnsgd1na2vs0mg"},{"bike_id":"7a4e7fea-c376-4c77-9d8f-70097ed8f178","system_id":"levelo_inurba_marseille","lat":43.30891,"lon":5.37192,"is_reserved":false,"is_disabled":false,"rental_uris":{"android":"levelo://app?vid=7a4e7fea-c376-4c77-9d8f-70097ed8f178","ios":"levelo://app?vid=7a4e7fea-c376-4c77-9d8f-70097ed8f178"},"vehicle_type_id":"4","last_reported":1717229367,"current_range_meters":28800,"station_id":"ce4bguh2rcd13ifvqckg","pricing_plan_id":"cebpf4jnsgd1na2vs0mg"},{"bike_id":"133fe887-3aa5-4547-8e4d-0c252ed7b3b6","system_id":"levelo_inurba_marseille","lat":43.309034,"lon":5.371783,"is_reserved":false,"is_disabled":false,"rental_uris":{"android":"levelo://app?vid=133fe887-3aa5-4547-8e4d-0c252ed7b3b6","ios":"levelo://app?vid=133fe887-3aa5-4547-8e4d-0c252ed7b3b6"},"vehicle_type_id":"4","last_reported":1717229367,"current_range_meters":30400,"station_id":"ce4bguh2rcd13ifvqckg","pricing_plan_id":"cebpf4jnsgd1na2vs0mg"},{"bike_id":"aa57e733-9f0d-4911-8ab8-17ff37ab66fa","system_id":"levelo_inurba_marseille","lat":43.309034,"lon":5.371783,"is_reserved":false,"is_disabled":false,"rental_uris":{"android":"levelo://app?vid=aa57e733-9f0d-4911-8ab8-17ff37ab66fa","ios":"levelo://app?vid=aa57e733-9f0d-4911-8ab8-17ff37ab66fa"},"vehicle_type_id":"4","last_reported":1717229367,"current_range_meters":16000,"station_id":"ce4bguh2rcd13ifvqckg","pricing_plan_id":"cebpf4jnsgd1na2vs0mg"},{"bike_id":"5e455f3a-9f4c-450f-95f0-dae57e09e72b","system_id":"levelo_inurba_marseille","lat":43.305712,"lon":5.365641,"is_reserved":false,"is_disabled":false,"rental_uris":{"android":"levelo://app?vid=5e455f3a-9f4c-450f-95f0-dae57e09e72b","ios":"levelo://app?vid=5e455f3a-9f4c-450f-95f0-dae57e09e72b"},"vehicle_type_id":"4","last_reported":1717229367,"current_range_meters":28000,"station_id":"ce4bgs12rcd13ifvqcag","pricing_plan_id":"cebpf4jnsgd1na2vs0mg"},{"bike_id":"089d8493-392d-49e2-ab81-acf0ca8bd5d5","system_id":"levelo_inurba_marseille","lat":43.305714,"lon":5.365633,"is_reserved":false,"is_disabled":false,"rental_uris":{"android":"levelo://app?vid=089d8493-392d-49e2-ab81-acf0ca8bd5d5","ios":"levelo://app?vid=089d8493-392d-49e2-ab81-acf0ca8bd5d5"},"vehicle_type_id":"4","last_reported":1717229367,"current_range_meters":22000,"station_id":"ce4bgs12rcd13ifvqcag","pricing_plan_id":"cebpf4jnsgd1na2vs0mg"},{"bike_id":"3fa46350-1828-46c0-85f1-b8351660d73e","system_id":"levelo_inurba_marseille","lat":43.305712,"lon":5.365641,"is_reserved":false,"is_disabled":false,"rental_uris":{"android":"levelo://app?vid=3fa46350-1828-46c0-85f1-b8351660d73e","ios":"levelo://app?vid=3fa46350-1828-46c0-85f1-b8351660d73e"},"vehicle_type_id":"4","last_reported":1717229367,"current_range_meters":10800,"station_id":"ce4bgs12rcd13ifvqcag","pricing_plan_id":"cebpf4jnsgd1na2vs0mg"},{"bike_id":"c411d41e-1a85-4380-b7a9-cadb978c9a99","system_id":"levelo_inurba_marseille","lat":43.305712,"lon":5.365641,"is_reserved":false,"is_disabled":false,"rental_uris":{"android":"levelo://app?vid=c411d41e-1a85-4380-b7a9-cadb978c9a99","ios":"levelo://app?vid=c411d41e-1a85-4380-b7a9-cadb978c9a99"},"vehicle_type_id":"4","last_reported":1717229367,"current_range_meters":31600,"station_id":"ce4bgs12rcd13ifvqcag","pricing_plan_id":"cebpf4jnsgd1na2vs0mg"},{"bike_id":"5b4308e6-8d8b-44e0-b0de-833b7dabf97e","system_id":"levelo_inurba_marseille","lat":43.30537,"lon":5.367345,"is_reserved":false,"is_disabled":false,"rental_uris":{"android":"levelo://app?vid=5b4308e6-8d8b-44e0-b0de-833b7dabf97e","ios":"levelo://app?vid=5b4308e6-8d8b-44e0-b0de-833b7dabf97e"},"vehicle_type_id":"4","last_reported":1717229367,"current_range_meters":18400,"station_id":"ce4bgrp2rcd13ifvqc9g","pricing_plan_id":"cebpf4jnsgd1na2vs0mg"},{"bike_id":"89889898-eae7-40c5-a79a-389d04ad713d","system_id":"levelo_inurba_marseille","lat":43.305712,"lon":5.365641,"is_reserved":false,"is_disabled":false,"rental_uris":{"android":"levelo://app?vid=89889898-eae7-40c5-a79a-389d04ad713d","ios":"levelo://app?vid=89889898-eae7-40c5-a79a-389d04ad713d"},"vehicle_type_id":"4","last_reported":1717229367,"current_range_meters":25600,"station_id":"ce4bgs12rcd13ifvqcag","pricing_plan_id":"cebpf4jnsgd1na2vs0mg"},{"bike_id":"a1341cb1-115c-4ffb-8340-6b1783b90a6c","system_id":"levelo_inurba_marseille","lat":43.305712,"lon":5.365641,"is_reserved":false,"is_disabled":false,"rental_uris":{"android":"levelo://app?vid=a1341cb1-115c-4ffb-8340-6b1783b90a6c","ios":"levelo://app?vid=a1341cb1-115c-4ffb-8340-6b1783b90a6c"},"vehicle_type_id":"4","last_reported":1717229367,"current_range_meters":8000,"station_id":"ce4bgs12rcd13ifvqcag","pricing_plan_id":"cebpf4jnsgd1na2vs0mg"},{"bike_id":"dfeb4fef-c0fc-468d-9b8a-f6d36be5dede","system_id":"levelo_inurba_marseille","lat":43.305712,"lon":5.365641,"is_reserved":false,"is_disabled":false,"rental_uris":{"android":"levelo://app?vid=dfeb4fef-c0fc-468d-9b8a-f6d36be5dede","ios":"levelo://app?vid=dfeb4fef-c0fc-468d-9b8a-f6d36be5dede"},"vehicle_type_id":"4","last_reported":1717229367,"current_range_meters":24000,"station_id":"ce4bgs12rcd13ifvqcag","pricing_plan_id":"cebpf4jnsgd1na2vs0mg"},{"bike_id":"8f793f4b-7c84-4752-b4eb-98229dd911e9","system_id":"levelo_inurba_marseille","lat":43.305712,"lon":5.365641,"is_reserved":false,"is_disabled":false,"rental_uris":{"android":"levelo://app?vid=8f793f4b-7c84-4752-b4eb-98229dd911e9","ios":"levelo://app?vid=8f793f4b-7c84-4752-b4eb-98229dd911e9"},"vehicle_type_id":"4","last_reported":1717229367,"current_range_meters":14000,"station_id":"ce4bgs12rcd13ifvqcag","pricing_plan_id":"cebpf4jnsgd1na2vs0mg"},{"bike_id":"9a6262e4-ed9e-4f88-8826-07682d77ee4a","system_id":"levelo_inurba_marseille","lat":43.305712,"lon":5.365641,"is_reserved":false,"is_disabled":false,"rental_uris":{"android":"levelo://app?vid=9a6262e4-ed9e-4f88-8826-07682d77ee4a","ios":"levelo://app?vid=9a6262e4-ed9e-4f88-8826-07682d77ee4a"},"vehicle_type_id":"4","last_reported":1717229367,"current_range_meters":17200,"station_id":"ce4bgs12rcd13ifvqcag","pricing_plan_id":"cebpf4jnsgd1na2vs0mg"},{"bike_id":"9c272a10-ce06-4571-8a6a-f651d645e90e","system_id":"levelo_inurba_marseille","lat":43.305712,"lon":5.365641,"is_reserved":false,"is_disabled":false,"rental_uris":{"android":"levelo://app?vid=9c272a10-ce06-4571-8a6a-f651d645e90e","ios":"levelo://app?vid=9c272a10-ce06-4571-8a6a-f651d645e90e"},"vehicle_type_id":"4","last_reported":1717229367,"current_range_meters":4800,"station_id":"ce4bgs12rcd13ifvqcag","pricing_plan_id":"cebpf4jnsgd1na2vs0mg"},{"bike_id":"c8d064ae-fadd-4224-9d3d-4b277c4375a5","system_id":"levelo_inurba_marseille","lat":43.305712,"lon":5.365641,"is_reserved":false,"is_disabled":false,"rental_uris":{"android":"levelo://app?vid=c8d064ae-fadd-4224-9d3d-4b277c4375a5","ios":"levelo://app?vid=c8d064ae-fadd-4224-9d3d-4b277c4375a5"},"vehicle_type_id":"4","last_reported":1717229367,"current_range_meters":23600,"station_id":"ce4bgs12rcd13ifvqcag","pricing_plan_id":"cebpf4jnsgd1na2vs0mg"},{"bike_id":"3d0ef972-15cb-4bfc-a584-7fe978947e4e","system_id":"levelo_inurba_marseille","lat":43.305712,"lon":5.365641,"is_reserved":false,"is_disabled":false,"rental_uris":{"android":"levelo://app?vid=3d0ef972-15cb-4bfc-a584-7fe978947e4e","ios":"levelo://app?vid=3d0ef972-15cb-4bfc-a584-7fe978947e4e"},"vehicle_type_id":"4","last_reported":1717229367,"current_range_meters":17600,"station_id":"ce4bgs12rcd13ifvqcag","pricing_plan_id":"cebpf4jnsgd1na2vs0mg"},{"bike_id":"61554f4f-daeb-4629-91d2-dcc2af21764b","system_id":"levelo_inurba_marseille","lat":43.305714,"lon":5.365633,"is_reserved":false,"is_disabled":false,"rental_uris":{"android":"levelo://app?vid=61554f4f-daeb-4629-91d2-dcc2af21764b","ios":"levelo://app?vid=61554f4f-daeb-4629-91d2-dcc2af21764b"},"vehicle_type_id":"4","last_reported":1717229367,"current_range_meters":26400,"station_id":"ce4bgs12rcd13ifvqcag","pricing_plan_id":"cebpf4jnsgd1na2vs0mg"},{"bike_id":"25ffa8f7-23f0-4882-b909-03d0e883206e","system_id":"levelo_inurba_marseille","lat":43.305706,"lon":5.365654,"is_reserved":false,"is_disabled":false,"rental_uris":{"android":"levelo://app?vid=25ffa8f7-23f0-4882-b909-03d0e883206e","ios":"levelo://app?vid=25ffa8f7-23f0-4882-b909-03d0e883206e"},"vehicle_type_id":"4","last_reported":1717229367,"current_range_meters":30000,"station_id":"ce4bgs12rcd13ifvqcag","pricing_plan_id":"cebpf4jnsgd1na2vs0mg"},{"bike_id":"e2dddba5-37d0-4171-9e7b-33e4ac40ba97","system_id":"levelo_inurba_marseille","lat":43.305714,"lon":5.365633,"is_reserved":false,"is_disabled":false,"rental_uris":{"android":"levelo://app?vid=e2dddba5-37d0-4171-9e7b-33e4ac40ba97","ios":"levelo://app?vid=e2dddba5-37d0-4171-9e7b-33e4ac40ba97"},"vehicle_type_id":"4","last_reported":1717229367,"current_range_meters":27200,"station_id":"ce4bgs12rcd13ifvqcag","pricing_plan_id":"cebpf4jnsgd1na2vs0mg"},{"bike_id":"f8d00452-e3bf-407a-bf3f-532b77694f30","system_id":"levelo_inurba_marseille","lat":43.305714,"lon":5.365633,"is_reserved":false,"is_disabled":false,"rental_uris":{"android":"levelo://app?vid=f8d00452-e3bf-407a-bf3f-532b77694f30","ios":"levelo://app?vid=f8d00452-e3bf-407a-bf3f-532b77694f30"},"vehicle_type_id":"4","last_reported":1717229367,"current_range_meters":7200,"station_id":"ce4bgs12rcd13ifvqcag","pricing_plan_id":"cebpf4jnsgd1na2vs0mg"},{"bike_id":"9b4cae85-007b-451c-87a2-fa3faad2aed4","system_id":"levelo_inurba_marseille","lat":43.305714,"lon":5.365633,"is_reserved":false,"is_disabled":false,"rental_uris":{"android":"levelo://app?vid=9b4cae85-007b-451c-87a2-fa3faad2aed4","ios":"levelo://app?vid=9b4cae85-007b-451c-87a2-fa3faad2aed4"},"vehicle_type_id":"4","last_reported":1717229367,"current_range_meters":30000,"station_id":"ce4bgs12rcd13ifvqcag","pricing_plan_id":"cebpf4jnsgd1na2vs0mg"},{"bike_id":"ebbb41fc-be9c-4a23-87e4-fa349246ac52","system_id":"levelo_inurba_marseille","lat":43.305706,"lon":5.365654,"is_reserved":false,"is_disabled":false,"rental_uris":{"android":"levelo://app?vid=ebbb41fc-be9c-4a23-87e4-fa349246ac52","ios":"levelo://app?vid=ebbb41fc-be9c-4a23-87e4-fa349246ac52"},"vehicle_type_id":"4","last_reported":1717229367,"current_range_meters":25600,"station_id":"ce4bgs12rcd13ifvqcag","pricing_plan_id":"cebpf4jnsgd1na2vs0mg"},{"bike_id":"bdd50a54-6764-42af-8a15-da38c3f9a80c","system_id":"levelo_inurba_marseille","lat":43.305706,"lon":5.365654,"is_reserved":false,"is_disabled":false,"rental_uris":{"android":"levelo://app?vid=bdd50a54-6764-42af-8a15-da38c3f9a80c","ios":"levelo://app?vid=bdd50a54-6764-42af-8a15-da38c3f9a80c"},"vehicle_type_id":"4","last_reported":1717229367,"current_range_meters":18400,"station_id":"ce4bgs12rcd13ifvqcag","pricing_plan_id":"cebpf4jnsgd1na2vs0mg"},{"bike_id":"287e0403-4859-488d-8395-96f4cbf6ef72","system_id":"levelo_inurba_marseille","lat":43.305706,"lon":5.365654,"is_reserved":false,"is_disabled":false,"rental_uris":{"android":"levelo://app?vid=287e0403-4859-488d-8395-96f4cbf6ef72","ios":"levelo://app?vid=287e0403-4859-488d-8395-96f4cbf6ef72"},"vehicle_type_id":"4","last_reported":1717229367,"current_range_meters":26800,"station_id":"ce4bgs12rcd13ifvqcag","pricing_plan_id":"cebpf4jnsgd1na2vs0mg"},{"bike_id":"7c64c7c0-bc18-4f37-8aa4-8df9645288c6","system_id":"levelo_inurba_marseille","lat":43.305706,"lon":5.365654,"is_reserved":false,"is_disabled":false,"rental_uris":{"android":"levelo://app?vid=7c64c7c0-bc18-4f37-8aa4-8df9645288c6","ios":"levelo://app?vid=7c64c7c0-bc18-4f37-8aa4-8df9645288c6"},"vehicle_type_id":"4","last_reported":1717229367,"current_range_meters":24400,"station_id":"ce4bgs12rcd13ifvqcag","pricing_plan_id":"cebpf4jnsgd1na2vs0mg"},{"bike_id":"14fcb77b-b7db-4cef-8beb-ae3d84867573","system_id":"levelo_inurba_marseille","lat":43.305714,"lon":5.365633,"is_reserved":false,"is_disabled":false,"rental_uris":{"android":"levelo://app?vid=14fcb77b-b7db-4cef-8beb-ae3d84867573","ios":"levelo://app?vid=14fcb77b-b7db-4cef-8beb-ae3d84867573"},"vehicle_type_id":"4","last_reported":1717229367,"current_range_meters":29200,"station_id":"ce4bgs12rcd13ifvqcag","pricing_plan_id":"cebpf4jnsgd1na2vs0mg"},{"bike_id":"a59ffc42-a111-4ce0-bcea-41cf4342028c","system_id":"levelo_inurba_marseille","lat":43.305706,"lon":5.365654,"is_reserved":false,"is_disabled":false,"rental_uris":{"android":"levelo://app?vid=a59ffc42-a111-4ce0-bcea-41cf4342028c","ios":"levelo://app?vid=a59ffc42-a111-4ce0-bcea-41cf4342028c"},"vehicle_type_id":"4","last_reported":1717229367,"current_range_meters":20400,"station_id":"ce4bgs12rcd13ifvqcag","pricing_plan_id":"cebpf4jnsgd1na2vs0mg"},{"bike_id":"f9ac54cf-7fd6-4956-975c-0d1630c6ae6b","system_id":"levelo_inurba_marseille","lat":43.305706,"lon":5.365654,"is_reserved":false,"is_disabled":false,"rental_uris":{"android":"levelo://app?vid=f9ac54cf-7fd6-4956-975c-0d1630c6ae6b","ios":"levelo://app?vid=f9ac54cf-7fd6-4956-975c-0d1630c6ae6b"},"vehicle_type_id":"4","last_reported":1717229367,"current_range_meters":24800,"station_id":"ce4bgs12rcd13ifvqcag","pricing_plan_id":"cebpf4jnsgd1na2vs0mg"},{"bike_id":"e98afb49-01f4-47e4-8854-2227813c199e","system_id":"levelo_inurba_marseille","lat":43.30537,"lon":5.367345,"is_reserved":false,"is_disabled":false,"rental_uris":{"android":"levelo://app?vid=e98afb49-01f4-47e4-8854-2227813c199e","ios":"levelo://app?vid=e98afb49-01f4-47e4-8854-2227813c199e"},"vehicle_type_id":"4","last_reported":1717229367,"current_range_meters":26800,"station_id":"ce4bgrp2rcd13ifvqc9g","pricing_plan_id":"cebpf4jnsgd1na2vs0mg"},{"bike_id":"866c40d8-39fe-46da-b177-90ce28cbd94d","system_id":"levelo_inurba_marseille","lat":43.305706,"lon":5.365654,"is_reserved":false,"is_disabled":false,"rental_uris":{"android":"levelo://app?vid=866c40d8-39fe-46da-b177-90ce28cbd94d","ios":"levelo://app?vid=866c40d8-39fe-46da-b177-90ce28cbd94d"},"vehicle_type_id":"4","last_reported":1717229367,"current_range_meters":28400,"station_id":"ce4bgs12rcd13ifvqcag","pricing_plan_id":"cebpf4jnsgd1na2vs0mg"},{"bike_id":"ac84e857-0081-4654-b0ff-9dc411ebbc8b","system_id":"levelo_inurba_marseille","lat":43.305989,"lon":5.37225,"is_reserved":false,"is_disabled":false,"rental_uris":{"android":"levelo://app?vid=ac84e857-0081-4654-b0ff-9dc411ebbc8b","ios":"levelo://app?vid=ac84e857-0081-4654-b0ff-9dc411ebbc8b"},"vehicle_type_id":"4","last_reported":1717229367,"current_range_meters":16400,"station_id":"ce4bgqh2rcd13ifvqc4g","pricing_plan_id":"cebpf4jnsgd1na2vs0mg"},{"bike_id":"0bdf819e-a678-4ff6-beb0-6877d36c1bd3","system_id":"levelo_inurba_marseille","lat":43.311125,"lon":5.377624,"is_reserved":false,"is_disabled":false,"rental_uris":{"android":"levelo://app?vid=0bdf819e-a678-4ff6-beb0-6877d36c1bd3","ios":"levelo://app?vid=0bdf819e-a678-4ff6-beb0-6877d36c1bd3"},"vehicle_type_id":"4","last_reported":1717229367,"current_range_meters":25200,"station_id":"ce4bgt92rcd13ifvqcg0","pricing_plan_id":"cebpf4jnsgd1na2vs0mg"},{"bike_id":"6c86a4ff-3702-4c12-95d2-8ca69cd6dc4b","system_id":"levelo_inurba_marseille","lat":43.311131,"lon":5.377651,"is_reserved":false,"is_disabled":false,"rental_uris":{"android":"levelo://app?vid=6c86a4ff-3702-4c12-95d2-8ca69cd6dc4b","ios":"levelo://app?vid=6c86a4ff-3702-4c12-95d2-8ca69cd6dc4b"},"vehicle_type_id":"4","last_reported":1717229367,"current_range_meters":30800,"station_id":"ce4bgt92rcd13ifvqcg0","pricing_plan_id":"cebpf4jnsgd1na2vs0mg"},{"bike_id":"b034c36c-37b6-4d84-a9d7-109386f033f4","system_id":"levelo_inurba_marseille","lat":43.311125,"lon":5.377624,"is_reserved":false,"is_disabled":false,"rental_uris":{"android":"levelo://app?vid=b034c36c-37b6-4d84-a9d7-109386f033f4","ios":"levelo://app?vid=b034c36c-37b6-4d84-a9d7-109386f033f4"},"vehicle_type_id":"4","last_reported":1717229367,"current_range_meters":24800,"station_id":"ce4bgt92rcd13ifvqcg0","pricing_plan_id":"cebpf4jnsgd1na2vs0mg"},{"bike_id":"cc5ed443-65af-4ad3-8b02-66241d96ee98","system_id":"levelo_inurba_marseille","lat":43.311125,"lon":5.377624,"is_reserved":false,"is_disabled":false,"rental_uris":{"android":"levelo://app?vid=cc5ed443-65af-4ad3-8b02-66241d96ee98","ios":"levelo://app?vid=cc5ed443-65af-4ad3-8b02-66241d96ee98"},"vehicle_type_id":"4","last_reported":1717229367,"current_range_meters":28000,"station_id":"ce4bgt92rcd13ifvqcg0","pricing_plan_id":"cebpf4jnsgd1na2vs0mg"},{"bike_id":"49c1288f-4ffe-4a9e-97a8-548f12fe39f7","system_id":"levelo_inurba_marseille","lat":43.311125,"lon":5.377624,"is_reserved":false,"is_disabled":false,"rental_uris":{"android":"levelo://app?vid=49c1288f-4ffe-4a9e-97a8-548f12fe39f7","ios":"levelo://app?vid=49c1288f-4ffe-4a9e-97a8-548f12fe39f7"},"vehicle_type_id":"4","last_reported":1717229367,"current_range_meters":28400,"station_id":"ce4bgt92rcd13ifvqcg0","pricing_plan_id":"cebpf4jnsgd1na2vs0mg"},{"bike_id":"e24481d7-9122-4b2d-94de-73a90a77b46d","system_id":"levelo_inurba_marseille","lat":43.311131,"lon":5.377651,"is_reserved":false,"is_disabled":false,"rental_uris":{"android":"levelo://app?vid=e24481d7-9122-4b2d-94de-73a90a77b46d","ios":"levelo://app?vid=e24481d7-9122-4b2d-94de-73a90a77b46d"},"vehicle_type_id":"4","last_reported":1717229367,"current_range_meters":28400,"station_id":"ce4bgt92rcd13ifvqcg0","pricing_plan_id":"cebpf4jnsgd1na2vs0mg"},{"bike_id":"7e4eefeb-36a1-4d17-8b79-2d429e888fc1","system_id":"levelo_inurba_marseille","lat":43.307945,"lon":5.376487,"is_reserved":false,"is_disabled":false,"rental_uris":{"android":"levelo://app?vid=7e4eefeb-36a1-4d17-8b79-2d429e888fc1","ios":"levelo://app?vid=7e4eefeb-36a1-4d17-8b79-2d429e888fc1"},"vehicle_type_id":"4","last_reported":1717229367,"current_range_meters":15200,"station_id":"ce4bgv92rcd13ifvqcq0","pricing_plan_id":"cebpf4jnsgd1na2vs0mg"},{"bike_id":"9fc8237b-1b79-4e7b-b78e-ec1099239f0e","system_id":"levelo_inurba_marseille","lat":43.307945,"lon":5.376487,"is_reserved":false,"is_disabled":false,"rental_uris":{"android":"levelo://app?vid=9fc8237b-1b79-4e7b-b78e-ec1099239f0e","ios":"levelo://app?vid=9fc8237b-1b79-4e7b-b78e-ec1099239f0e"},"vehicle_type_id":"4","last_reported":1717229367,"current_range_meters":14400,"station_id":"ce4bgv92rcd13ifvqcq0","pricing_plan_id":"cebpf4jnsgd1na2vs0mg"},{"bike_id":"f8fe5a38-ef2d-4cc1-82ec-39177b73d96f","system_id":"levelo_inurba_marseille","lat":43.3078,"lon":5.37648,"is_reserved":false,"is_disabled":false,"rental_uris":{"android":"levelo://app?vid=f8fe5a38-ef2d-4cc1-82ec-39177b73d96f","ios":"levelo://app?vid=f8fe5a38-ef2d-4cc1-82ec-39177b73d96f"},"vehicle_type_id":"4","last_reported":1717229367,"current_range_meters":30800,"station_id":"ce4bgv92rcd13ifvqcq0","pricing_plan_id":"cebpf4jnsgd1na2vs0mg"},{"bike_id":"834f1dfd-e29f-46e1-9feb-f2a5edb633e1","system_id":"levelo_inurba_marseille","lat":43.307945,"lon":5.376487,"is_reserved":false,"is_disabled":false,"rental_uris":{"android":"levelo://app?vid=834f1dfd-e29f-46e1-9feb-f2a5edb633e1","ios":"levelo://app?vid=834f1dfd-e29f-46e1-9feb-f2a5edb633e1"},"vehicle_type_id":"4","last_reported":1717229367,"current_range_meters":24800,"station_id":"ce4bgv92rcd13ifvqcq0","pricing_plan_id":"cebpf4jnsgd1na2vs0mg"},{"bike_id":"fb5d8605-6a15-4c62-bbb5-b5253b7ac4eb","system_id":"levelo_inurba_marseille","lat":43.307945,"lon":5.376487,"is_reserved":false,"is_disabled":false,"rental_uris":{"android":"levelo://app?vid=fb5d8605-6a15-4c62-bbb5-b5253b7ac4eb","ios":"levelo://app?vid=fb5d8605-6a15-4c62-bbb5-b5253b7ac4eb"},"vehicle_type_id":"4","last_reported":1717229367,"current_range_meters":11200,"station_id":"ce4bgv92rcd13ifvqcq0","pricing_plan_id":"cebpf4jnsgd1na2vs0mg"},{"bike_id":"e25bf541-1d6b-47ff-aa68-02c591251dbc","system_id":"levelo_inurba_marseille","lat":43.307847,"lon":5.376578,"is_reserved":false,"is_disabled":false,"rental_uris":{"android":"levelo://app?vid=e25bf541-1d6b-47ff-aa68-02c591251dbc","ios":"levelo://app?vid=e25bf541-1d6b-47ff-aa68-02c591251dbc"},"vehicle_type_id":"4","last_reported":1717229367,"current_range_meters":8800,"station_id":"ce4bgv92rcd13ifvqcq0","pricing_plan_id":"cebpf4jnsgd1na2vs0mg"},{"bike_id":"21d40e1e-60a1-4a21-b08f-3bd28dfcccfc","system_id":"levelo_inurba_marseille","lat":43.307822,"lon":5.376557,"is_reserved":false,"is_disabled":false,"rental_uris":{"android":"levelo://app?vid=21d40e1e-60a1-4a21-b08f-3bd28dfcccfc","ios":"levelo://app?vid=21d40e1e-60a1-4a21-b08f-3bd28dfcccfc"},"vehicle_type_id":"4","last_reported":1717229367,"current_range_meters":10400,"station_id":"ce4bgv92rcd13ifvqcq0","pricing_plan_id":"cebpf4jnsgd1na2vs0mg"},{"bike_id":"7ec118a6-8aa1-4f5a-9b91-557ff3e5c16d","system_id":"levelo_inurba_marseille","lat":43.307945,"lon":5.376487,"is_reserved":false,"is_disabled":false,"rental_uris":{"android":"levelo://app?vid=7ec118a6-8aa1-4f5a-9b91-557ff3e5c16d","ios":"levelo://app?vid=7ec118a6-8aa1-4f5a-9b91-557ff3e5c16d"},"vehicle_type_id":"4","last_reported":1717229367,"current_range_meters":30800,"station_id":"ce4bgv92rcd13ifvqcq0","pricing_plan_id":"cebpf4jnsgd1na2vs0mg"},{"bike_id":"3a465d6a-80a7-4260-80c0-9d3e9228b564","system_id":"levelo_inurba_marseille","lat":43.307945,"lon":5.376487,"is_reserved":false,"is_disabled":false,"rental_uris":{"android":"levelo://app?vid=3a465d6a-80a7-4260-80c0-9d3e9228b564","ios":"levelo://app?vid=3a465d6a-80a7-4260-80c0-9d3e9228b564"},"vehicle_type_id":"4","last_reported":1717229367,"current_range_meters":31200,"station_id":"ce4bgv92rcd13ifvqcq0","pricing_plan_id":"cebpf4jnsgd1na2vs0mg"},{"bike_id":"8c5f5404-1c00-435f-8766-614cef28d23c","system_id":"levelo_inurba_marseille","lat":43.3078,"lon":5.37656,"is_reserved":false,"is_disabled":false,"rental_uris":{"android":"levelo://app?vid=8c5f5404-1c00-435f-8766-614cef28d23c","ios":"levelo://app?vid=8c5f5404-1c00-435f-8766-614cef28d23c"},"vehicle_type_id":"4","last_reported":1717229367,"current_range_meters":26000,"station_id":"ce4bgv92rcd13ifvqcq0","pricing_plan_id":"cebpf4jnsgd1na2vs0mg"},{"bike_id":"34910ff9-09b5-4faa-ab23-747b49428da5","system_id":"levelo_inurba_marseille","lat":43.30785,"lon":5.37661,"is_reserved":false,"is_disabled":false,"rental_uris":{"android":"levelo://app?vid=34910ff9-09b5-4faa-ab23-747b49428da5","ios":"levelo://app?vid=34910ff9-09b5-4faa-ab23-747b49428da5"},"vehicle_type_id":"4","last_reported":1717229367,"current_range_meters":27200,"station_id":"ce4bgv92rcd13ifvqcq0","pricing_plan_id":"cebpf4jnsgd1na2vs0mg"},{"bike_id":"45b6fe65-529f-46da-b66e-769233535609","system_id":"levelo_inurba_marseille","lat":43.307945,"lon":5.376487,"is_reserved":false,"is_disabled":false,"rental_uris":{"android":"levelo://app?vid=45b6fe65-529f-46da-b66e-769233535609","ios":"levelo://app?vid=45b6fe65-529f-46da-b66e-769233535609"},"vehicle_type_id":"4","last_reported":1717229367,"current_range_meters":22000,"station_id":"ce4bgv92rcd13ifvqcq0","pricing_plan_id":"cebpf4jnsgd1na2vs0mg"},{"bike_id":"077deac4-756f-4636-990a-db6d70f90559","system_id":"levelo_inurba_marseille","lat":43.30782,"lon":5.37659,"is_reserved":false,"is_disabled":false,"rental_uris":{"android":"levelo://app?vid=077deac4-756f-4636-990a-db6d70f90559","ios":"levelo://app?vid=077deac4-756f-4636-990a-db6d70f90559"},"vehicle_type_id":"4","last_reported":1717229367,"current_range_meters":15200,"station_id":"ce4bgv92rcd13ifvqcq0","pricing_plan_id":"cebpf4jnsgd1na2vs0mg"},{"bike_id":"f7432f81-e7de-4cec-b20c-3686e220f319","system_id":"levelo_inurba_marseille","lat":43.307945,"lon":5.376487,"is_reserved":false,"is_disabled":false,"rental_uris":{"android":"levelo://app?vid=f7432f81-e7de-4cec-b20c-3686e220f319","ios":"levelo://app?vid=f7432f81-e7de-4cec-b20c-3686e220f319"},"vehicle_type_id":"4","last_reported":1717229367,"current_range_meters":30000,"station_id":"ce4bgv92rcd13ifvqcq0","pricing_plan_id":"cebpf4jnsgd1na2vs0mg"},{"bike_id":"145a64d9-7f1f-4331-99b6-2d8739830da7","system_id":"levelo_inurba_marseille","lat":43.307945,"lon":5.376487,"is_reserved":false,"is_disabled":false,"rental_uris":{"android":"levelo://app?vid=145a64d9-7f1f-4331-99b6-2d8739830da7","ios":"levelo://app?vid=145a64d9-7f1f-4331-99b6-2d8739830da7"},"vehicle_type_id":"4","last_reported":1717229367,"current_range_meters":26800,"station_id":"ce4bgv92rcd13ifvqcq0","pricing_plan_id":"cebpf4jnsgd1na2vs0mg"},{"bike_id":"ec6a4a43-347e-420c-9efa-4e80acd7096b","system_id":"levelo_inurba_marseille","lat":43.317075,"lon":5.377367,"is_reserved":false,"is_disabled":false,"rental_uris":{"android":"levelo://app?vid=ec6a4a43-347e-420c-9efa-4e80acd7096b","ios":"levelo://app?vid=ec6a4a43-347e-420c-9efa-4e80acd7096b"},"vehicle_type_id":"4","last_reported":1717229367,"current_range_meters":22800,"station_id":"ce4bgth2rcd13ifvqch0","pricing_plan_id":"cebpf4jnsgd1na2vs0mg"},{"bike_id":"9eb2a296-552b-49af-991a-9526812cbbca","system_id":"levelo_inurba_marseille","lat":43.292311,"lon":5.360731,"is_reserved":false,"is_disabled":false,"rental_uris":{"android":"levelo://app?vid=9eb2a296-552b-49af-991a-9526812cbbca","ios":"levelo://app?vid=9eb2a296-552b-49af-991a-9526812cbbca"},"vehicle_type_id":"4","last_reported":1717229367,"current_range_meters":20000,"station_id":"ce4bhbh2rcd13ifvqeqg","pricing_plan_id":"cebpf4jnsgd1na2vs0mg"},{"bike_id":"6992c66d-db77-49db-8599-1bf34139f180","system_id":"levelo_inurba_marseille","lat":43.315289,"lon":5.380349,"is_reserved":false,"is_disabled":false,"rental_uris":{"android":"levelo://app?vid=6992c66d-db77-49db-8599-1bf34139f180","ios":"levelo://app?vid=6992c66d-db77-49db-8599-1bf34139f180"},"vehicle_type_id":"4","last_reported":1717229367,"current_range_meters":4400,"station_id":"ce4bhsp2rcd13ifvqi50","pricing_plan_id":"cebpf4jnsgd1na2vs0mg"},{"bike_id":"01ac695e-8b54-427c-9ac9-11785b8fcfad","system_id":"levelo_inurba_marseille","lat":43.315289,"lon":5.380349,"is_reserved":false,"is_disabled":false,"rental_uris":{"android":"levelo://app?vid=01ac695e-8b54-427c-9ac9-11785b8fcfad","ios":"levelo://app?vid=01ac695e-8b54-427c-9ac9-11785b8fcfad"},"vehicle_type_id":"4","last_reported":1717229367,"current_range_meters":21600,"station_id":"ce4bhsp2rcd13ifvqi50","pricing_plan_id":"cebpf4jnsgd1na2vs0mg"},{"bike_id":"8898bb05-6689-45d4-b3d6-05d8cc3f462f","system_id":"levelo_inurba_marseille","lat":43.315289,"lon":5.380349,"is_reserved":false,"is_disabled":false,"rental_uris":{"android":"levelo://app?vid=8898bb05-6689-45d4-b3d6-05d8cc3f462f","ios":"levelo://app?vid=8898bb05-6689-45d4-b3d6-05d8cc3f462f"},"vehicle_type_id":"4","last_reported":1717229367,"current_range_meters":30800,"station_id":"ce4bhsp2rcd13ifvqi50","pricing_plan_id":"cebpf4jnsgd1na2vs0mg"},{"bike_id":"8728bad3-19f4-4f2f-9465-f318d5e7c623","system_id":"levelo_inurba_marseille","lat":43.301939,"lon":5.366286,"is_reserved":false,"is_disabled":false,"rental_uris":{"android":"levelo://app?vid=8728bad3-19f4-4f2f-9465-f318d5e7c623","ios":"levelo://app?vid=8728bad3-19f4-4f2f-9465-f318d5e7c623"},"vehicle_type_id":"4","last_reported":1717229367,"current_range_meters":22000,"station_id":"ce4bgrh2rcd13ifvqc8g","pricing_plan_id":"cebpf4jnsgd1na2vs0mg"},{"bike_id":"cd92b3e1-e0e1-4639-bc30-c46b2ebee373","system_id":"levelo_inurba_marseille","lat":43.301939,"lon":5.366286,"is_reserved":false,"is_disabled":false,"rental_uris":{"android":"levelo://app?vid=cd92b3e1-e0e1-4639-bc30-c46b2ebee373","ios":"levelo://app?vid=cd92b3e1-e0e1-4639-bc30-c46b2ebee373"},"vehicle_type_id":"4","last_reported":1717229367,"current_range_meters":17600,"station_id":"ce4bgrh2rcd13ifvqc8g","pricing_plan_id":"cebpf4jnsgd1na2vs0mg"},{"bike_id":"f975f3e7-3224-4049-9596-83670dcaea0c","system_id":"levelo_inurba_marseille","lat":43.30257,"lon":5.37441,"is_reserved":false,"is_disabled":false,"rental_uris":{"android":"levelo://app?vid=f975f3e7-3224-4049-9596-83670dcaea0c","ios":"levelo://app?vid=f975f3e7-3224-4049-9596-83670dcaea0c"},"vehicle_type_id":"4","last_reported":1717229367,"current_range_meters":28400,"station_id":"","pricing_plan_id":"cebpf4jnsgd1na2vs0mg"},{"bike_id":"04334ee7-d52f-4cc8-8094-da52845aad68","system_id":"levelo_inurba_marseille","lat":43.29573,"lon":5.367355,"is_reserved":false,"is_disabled":false,"rental_uris":{"android":"levelo://app?vid=04334ee7-d52f-4cc8-8094-da52845aad68","ios":"levelo://app?vid=04334ee7-d52f-4cc8-8094-da52845aad68"},"vehicle_type_id":"4","last_reported":1717229367,"current_range_meters":17600,"station_id":"ce4bgph2rcd13ifvqc2g","pricing_plan_id":"cebpf4jnsgd1na2vs0mg"},{"bike_id":"f5918225-b917-4282-a0fc-e70bfa0abb9f","system_id":"levelo_inurba_marseille","lat":43.308012,"lon":5.381511,"is_reserved":false,"is_disabled":false,"rental_uris":{"android":"levelo://app?vid=f5918225-b917-4282-a0fc-e70bfa0abb9f","ios":"levelo://app?vid=f5918225-b917-4282-a0fc-e70bfa0abb9f"},"vehicle_type_id":"4","last_reported":1717229367,"current_range_meters":25200,"station_id":"ce4bgt12rcd13ifvqce0","pricing_plan_id":"cebpf4jnsgd1na2vs0mg"},{"bike_id":"f7681ffa-fede-4693-ab88-9d2e20f853d8","system_id":"levelo_inurba_marseille","lat":43.304606,"lon":5.379026,"is_reserved":false,"is_disabled":false,"rental_uris":{"android":"levelo://app?vid=f7681ffa-fede-4693-ab88-9d2e20f853d8","ios":"levelo://app?vid=f7681ffa-fede-4693-ab88-9d2e20f853d8"},"vehicle_type_id":"4","last_reported":1717229367,"current_range_meters":24000,"station_id":"ce4bgup2rcd13ifvqcn0","pricing_plan_id":"cebpf4jnsgd1na2vs0mg"},{"bike_id":"bb98a51d-2330-45b0-b6ac-78dc65bf0e16","system_id":"levelo_inurba_marseille","lat":43.304705,"lon":5.379005,"is_reserved":false,"is_disabled":false,"rental_uris":{"android":"levelo://app?vid=bb98a51d-2330-45b0-b6ac-78dc65bf0e16","ios":"levelo://app?vid=bb98a51d-2330-45b0-b6ac-78dc65bf0e16"},"vehicle_type_id":"4","last_reported":1717229367,"current_range_meters":11600,"station_id":"ce4bgup2rcd13ifvqcn0","pricing_plan_id":"cebpf4jnsgd1na2vs0mg"},{"bike_id":"81d08325-066d-4c27-b051-ab35cd373396","system_id":"levelo_inurba_marseille","lat":43.304606,"lon":5.379026,"is_reserved":false,"is_disabled":false,"rental_uris":{"android":"levelo://app?vid=81d08325-066d-4c27-b051-ab35cd373396","ios":"levelo://app?vid=81d08325-066d-4c27-b051-ab35cd373396"},"vehicle_type_id":"4","last_reported":1717229367,"current_range_meters":23600,"station_id":"ce4bgup2rcd13ifvqcn0","pricing_plan_id":"cebpf4jnsgd1na2vs0mg"},{"bike_id":"b5afe5fd-422a-4278-b0ad-a757e538dc57","system_id":"levelo_inurba_marseille","lat":43.304606,"lon":5.379026,"is_reserved":false,"is_disabled":false,"rental_uris":{"android":"levelo://app?vid=b5afe5fd-422a-4278-b0ad-a757e538dc57","ios":"levelo://app?vid=b5afe5fd-422a-4278-b0ad-a757e538dc57"},"vehicle_type_id":"4","last_reported":1717229367,"current_range_meters":26000,"station_id":"ce4bgup2rcd13ifvqcn0","pricing_plan_id":"cebpf4jnsgd1na2vs0mg"},{"bike_id":"567e0345-b6f8-45dd-bba5-489bce59f106","system_id":"levelo_inurba_marseille","lat":43.304606,"lon":5.379026,"is_reserved":false,"is_disabled":false,"rental_uris":{"android":"levelo://app?vid=567e0345-b6f8-45dd-bba5-489bce59f106","ios":"levelo://app?vid=567e0345-b6f8-45dd-bba5-489bce59f106"},"vehicle_type_id":"4","last_reported":1717229367,"current_range_meters":17600,"station_id":"ce4bgup2rcd13ifvqcn0","pricing_plan_id":"cebpf4jnsgd1na2vs0mg"},{"bike_id":"616a74cf-b77d-4528-b3b2-1d6b3ba0d723","system_id":"levelo_inurba_marseille","lat":43.304601,"lon":5.378997,"is_reserved":false,"is_disabled":false,"rental_uris":{"android":"levelo://app?vid=616a74cf-b77d-4528-b3b2-1d6b3ba0d723","ios":"levelo://app?vid=616a74cf-b77d-4528-b3b2-1d6b3ba0d723"},"vehicle_type_id":"4","last_reported":1717229367,"current_range_meters":26800,"station_id":"ce4bgup2rcd13ifvqcn0","pricing_plan_id":"cebpf4jnsgd1na2vs0mg"},{"bike_id":"8283de5c-1640-4f25-8672-e09c63c7bdaa","system_id":"levelo_inurba_marseille","lat":43.30464,"lon":5.37906,"is_reserved":false,"is_disabled":false,"rental_uris":{"android":"levelo://app?vid=8283de5c-1640-4f25-8672-e09c63c7bdaa","ios":"levelo://app?vid=8283de5c-1640-4f25-8672-e09c63c7bdaa"},"vehicle_type_id":"4","last_reported":1717229367,"current_range_meters":16400,"station_id":"ce4bgup2rcd13ifvqcn0","pricing_plan_id":"cebpf4jnsgd1na2vs0mg"},{"bike_id":"e1fa7a61-ab47-40fb-835d-d85db6bbc2ef","system_id":"levelo_inurba_marseille","lat":43.30459,"lon":5.379,"is_reserved":false,"is_disabled":false,"rental_uris":{"android":"levelo://app?vid=e1fa7a61-ab47-40fb-835d-d85db6bbc2ef","ios":"levelo://app?vid=e1fa7a61-ab47-40fb-835d-d85db6bbc2ef"},"vehicle_type_id":"4","last_reported":1717229367,"current_range_meters":24000,"station_id":"ce4bgup2rcd13ifvqcn0","pricing_plan_id":"cebpf4jnsgd1na2vs0mg"},{"bike_id":"fe4a2d04-95c7-4bdf-91b4-6b842392b1ca","system_id":"levelo_inurba_marseille","lat":43.304606,"lon":5.379026,"is_reserved":false,"is_disabled":false,"rental_uris":{"android":"levelo://app?vid=fe4a2d04-95c7-4bdf-91b4-6b842392b1ca","ios":"levelo://app?vid=fe4a2d04-95c7-4bdf-91b4-6b842392b1ca"},"vehicle_type_id":"4","last_reported":1717229367,"current_range_meters":24400,"station_id":"ce4bgup2rcd13ifvqcn0","pricing_plan_id":"cebpf4jnsgd1na2vs0mg"},{"bike_id":"24511d53-b8ea-4e4e-bb2f-5ebdf2ac7519","system_id":"levelo_inurba_marseille","lat":43.304606,"lon":5.379026,"is_reserved":false,"is_disabled":false,"rental_uris":{"android":"levelo://app?vid=24511d53-b8ea-4e4e-bb2f-5ebdf2ac7519","ios":"levelo://app?vid=24511d53-b8ea-4e4e-bb2f-5ebdf2ac7519"},"vehicle_type_id":"4","last_reported":1717229367,"current_range_meters":30000,"station_id":"ce4bgup2rcd13ifvqcn0","pricing_plan_id":"cebpf4jnsgd1na2vs0mg"},{"bike_id":"9cfa3d82-fca6-49db-ba1d-1871783e8843","system_id":"levelo_inurba_marseille","lat":43.304606,"lon":5.379026,"is_reserved":false,"is_disabled":false,"rental_uris":{"android":"levelo://app?vid=9cfa3d82-fca6-49db-ba1d-1871783e8843","ios":"levelo://app?vid=9cfa3d82-fca6-49db-ba1d-1871783e8843"},"vehicle_type_id":"4","last_reported":1717229367,"current_range_meters":6800,"station_id":"ce4bgup2rcd13ifvqcn0","pricing_plan_id":"cebpf4jnsgd1na2vs0mg"},{"bike_id":"86fd0c4e-56f0-4ba9-a20d-65ef58ac3527","system_id":"levelo_inurba_marseille","lat":43.304606,"lon":5.379026,"is_reserved":false,"is_disabled":false,"rental_uris":{"android":"levelo://app?vid=86fd0c4e-56f0-4ba9-a20d-65ef58ac3527","ios":"levelo://app?vid=86fd0c4e-56f0-4ba9-a20d-65ef58ac3527"},"vehicle_type_id":"4","last_reported":1717229367,"current_range_meters":4400,"station_id":"ce4bgup2rcd13ifvqcn0","pricing_plan_id":"cebpf4jnsgd1na2vs0mg"},{"bike_id":"37284bf9-4551-4297-9e7d-8ce030639762","system_id":"levelo_inurba_marseille","lat":43.304594,"lon":5.379046,"is_reserved":false,"is_disabled":false,"rental_uris":{"android":"levelo://app?vid=37284bf9-4551-4297-9e7d-8ce030639762","ios":"levelo://app?vid=37284bf9-4551-4297-9e7d-8ce030639762"},"vehicle_type_id":"4","last_reported":1717229367,"current_range_meters":26000,"station_id":"ce4bgup2rcd13ifvqcn0","pricing_plan_id":"cebpf4jnsgd1na2vs0mg"},{"bike_id":"ea7f6242-ea56-42ce-b532-262e6b3554f2","system_id":"levelo_inurba_marseille","lat":43.304606,"lon":5.379026,"is_reserved":false,"is_disabled":false,"rental_uris":{"android":"levelo://app?vid=ea7f6242-ea56-42ce-b532-262e6b3554f2","ios":"levelo://app?vid=ea7f6242-ea56-42ce-b532-262e6b3554f2"},"vehicle_type_id":"4","last_reported":1717229367,"current_range_meters":8000,"station_id":"ce4bgup2rcd13ifvqcn0","pricing_plan_id":"cebpf4jnsgd1na2vs0mg"},{"bike_id":"d7dd3cdb-a059-42dc-b0f5-91a733f1062c","system_id":"levelo_inurba_marseille","lat":43.304606,"lon":5.379026,"is_reserved":false,"is_disabled":false,"rental_uris":{"android":"levelo://app?vid=d7dd3cdb-a059-42dc-b0f5-91a733f1062c","ios":"levelo://app?vid=d7dd3cdb-a059-42dc-b0f5-91a733f1062c"},"vehicle_type_id":"4","last_reported":1717229367,"current_range_meters":26400,"station_id":"ce4bgup2rcd13ifvqcn0","pricing_plan_id":"cebpf4jnsgd1na2vs0mg"},{"bike_id":"3ffc0cd4-6416-4705-8674-b0f11f54925d","system_id":"levelo_inurba_marseille","lat":43.304606,"lon":5.379026,"is_reserved":false,"is_disabled":false,"rental_uris":{"android":"levelo://app?vid=3ffc0cd4-6416-4705-8674-b0f11f54925d","ios":"levelo://app?vid=3ffc0cd4-6416-4705-8674-b0f11f54925d"},"vehicle_type_id":"4","last_reported":1717229367,"current_range_meters":28800,"station_id":"ce4bgup2rcd13ifvqcn0","pricing_plan_id":"cebpf4jnsgd1na2vs0mg"},{"bike_id":"bcbe4e8c-399a-4c3a-ad31-e31bd96e25bf","system_id":"levelo_inurba_marseille","lat":43.324771,"lon":5.36557,"is_reserved":false,"is_disabled":false,"rental_uris":{"android":"levelo://app?vid=bcbe4e8c-399a-4c3a-ad31-e31bd96e25bf","ios":"levelo://app?vid=bcbe4e8c-399a-4c3a-ad31-e31bd96e25bf"},"vehicle_type_id":"4","last_reported":1717229367,"current_range_meters":19600,"station_id":"ce4bhs12rcd13ifvqhvg","pricing_plan_id":"cebpf4jnsgd1na2vs0mg"},{"bike_id":"2242da11-6b4a-4b31-b270-366b44a82a0e","system_id":"levelo_inurba_marseille","lat":43.324771,"lon":5.36557,"is_reserved":false,"is_disabled":false,"rental_uris":{"android":"levelo://app?vid=2242da11-6b4a-4b31-b270-366b44a82a0e","ios":"levelo://app?vid=2242da11-6b4a-4b31-b270-366b44a82a0e"},"vehicle_type_id":"4","last_reported":1717229367,"current_range_meters":30400,"station_id":"ce4bhs12rcd13ifvqhvg","pricing_plan_id":"cebpf4jnsgd1na2vs0mg"},{"bike_id":"1168bd22-4c27-482e-a2c6-71cd8c84fa7c","system_id":"levelo_inurba_marseille","lat":43.324799,"lon":5.365774,"is_reserved":false,"is_disabled":false,"rental_uris":{"android":"levelo://app?vid=1168bd22-4c27-482e-a2c6-71cd8c84fa7c","ios":"levelo://app?vid=1168bd22-4c27-482e-a2c6-71cd8c84fa7c"},"vehicle_type_id":"4","last_reported":1717229367,"current_range_meters":30000,"station_id":"ce4bhs12rcd13ifvqhvg","pricing_plan_id":"cebpf4jnsgd1na2vs0mg"},{"bike_id":"b3abe369-de9c-4992-ad31-8ddb8e01ed56","system_id":"levelo_inurba_marseille","lat":43.324771,"lon":5.36557,"is_reserved":false,"is_disabled":false,"rental_uris":{"android":"levelo://app?vid=b3abe369-de9c-4992-ad31-8ddb8e01ed56","ios":"levelo://app?vid=b3abe369-de9c-4992-ad31-8ddb8e01ed56"},"vehicle_type_id":"4","last_reported":1717229367,"current_range_meters":26000,"station_id":"ce4bhs12rcd13ifvqhvg","pricing_plan_id":"cebpf4jnsgd1na2vs0mg"},{"bike_id":"01238045-fe5d-4ccb-8b42-14fac70d90fa","system_id":"levelo_inurba_marseille","lat":43.324771,"lon":5.36557,"is_reserved":false,"is_disabled":false,"rental_uris":{"android":"levelo://app?vid=01238045-fe5d-4ccb-8b42-14fac70d90fa","ios":"levelo://app?vid=01238045-fe5d-4ccb-8b42-14fac70d90fa"},"vehicle_type_id":"4","last_reported":1717229367,"current_range_meters":22400,"station_id":"ce4bhs12rcd13ifvqhvg","pricing_plan_id":"cebpf4jnsgd1na2vs0mg"},{"bike_id":"e7b5d43e-79e3-471c-8dbb-1d88bd546cd5","system_id":"levelo_inurba_marseille","lat":43.324771,"lon":5.36557,"is_reserved":false,"is_disabled":false,"rental_uris":{"android":"levelo://app?vid=e7b5d43e-79e3-471c-8dbb-1d88bd546cd5","ios":"levelo://app?vid=e7b5d43e-79e3-471c-8dbb-1d88bd546cd5"},"vehicle_type_id":"4","last_reported":1717229367,"current_range_meters":16800,"station_id":"ce4bhs12rcd13ifvqhvg","pricing_plan_id":"cebpf4jnsgd1na2vs0mg"},{"bike_id":"09a23f3e-71cb-406c-a41d-682846d49308","system_id":"levelo_inurba_marseille","lat":43.324771,"lon":5.36557,"is_reserved":false,"is_disabled":false,"rental_uris":{"android":"levelo://app?vid=09a23f3e-71cb-406c-a41d-682846d49308","ios":"levelo://app?vid=09a23f3e-71cb-406c-a41d-682846d49308"},"vehicle_type_id":"4","last_reported":1717229367,"current_range_meters":20400,"station_id":"ce4bhs12rcd13ifvqhvg","pricing_plan_id":"cebpf4jnsgd1na2vs0mg"},{"bike_id":"0cce203b-70e1-4c12-bec8-e995b59c42de","system_id":"levelo_inurba_marseille","lat":43.324771,"lon":5.36557,"is_reserved":false,"is_disabled":false,"rental_uris":{"android":"levelo://app?vid=0cce203b-70e1-4c12-bec8-e995b59c42de","ios":"levelo://app?vid=0cce203b-70e1-4c12-bec8-e995b59c42de"},"vehicle_type_id":"4","last_reported":1717229367,"current_range_meters":14000,"station_id":"ce4bhs12rcd13ifvqhvg","pricing_plan_id":"cebpf4jnsgd1na2vs0mg"},{"bike_id":"eb2d2cd5-5719-48fd-baeb-76763242735d","system_id":"levelo_inurba_marseille","lat":43.324771,"lon":5.36557,"is_reserved":false,"is_disabled":false,"rental_uris":{"android":"levelo://app?vid=eb2d2cd5-5719-48fd-baeb-76763242735d","ios":"levelo://app?vid=eb2d2cd5-5719-48fd-baeb-76763242735d"},"vehicle_type_id":"4","last_reported":1717229367,"current_range_meters":18400,"station_id":"ce4bhs12rcd13ifvqhvg","pricing_plan_id":"cebpf4jnsgd1na2vs0mg"},{"bike_id":"43164aca-1fb2-448b-8cee-a63ae8cc3f73","system_id":"levelo_inurba_marseille","lat":43.324771,"lon":5.36557,"is_reserved":false,"is_disabled":false,"rental_uris":{"android":"levelo://app?vid=43164aca-1fb2-448b-8cee-a63ae8cc3f73","ios":"levelo://app?vid=43164aca-1fb2-448b-8cee-a63ae8cc3f73"},"vehicle_type_id":"4","last_reported":1717229367,"current_range_meters":20000,"station_id":"ce4bhs12rcd13ifvqhvg","pricing_plan_id":"cebpf4jnsgd1na2vs0mg"},{"bike_id":"8f725bc6-2b21-4c69-98ac-9a834b5b7e0a","system_id":"levelo_inurba_marseille","lat":43.310715,"lon":5.383435,"is_reserved":false,"is_disabled":false,"rental_uris":{"android":"levelo://app?vid=8f725bc6-2b21-4c69-98ac-9a834b5b7e0a","ios":"levelo://app?vid=8f725bc6-2b21-4c69-98ac-9a834b5b7e0a"},"vehicle_type_id":"4","last_reported":1717229367,"current_range_meters":20400,"station_id":"ce4bgv92rcd13ifvqcr0","pricing_plan_id":"cebpf4jnsgd1na2vs0mg"},{"bike_id":"e96e55cb-7eb8-43e9-9875-2e1da14f77ce","system_id":"levelo_inurba_marseille","lat":43.31068,"lon":5.3835,"is_reserved":false,"is_disabled":false,"rental_uris":{"android":"levelo://app?vid=e96e55cb-7eb8-43e9-9875-2e1da14f77ce","ios":"levelo://app?vid=e96e55cb-7eb8-43e9-9875-2e1da14f77ce"},"vehicle_type_id":"4","last_reported":1717229367,"current_range_meters":19600,"station_id":"ce4bgv92rcd13ifvqcr0","pricing_plan_id":"cebpf4jnsgd1na2vs0mg"},{"bike_id":"ef66b0cf-f1a2-4b74-8684-f5ed80685a0f","system_id":"levelo_inurba_marseille","lat":43.310672,"lon":5.383513,"is_reserved":false,"is_disabled":false,"rental_uris":{"android":"levelo://app?vid=ef66b0cf-f1a2-4b74-8684-f5ed80685a0f","ios":"levelo://app?vid=ef66b0cf-f1a2-4b74-8684-f5ed80685a0f"},"vehicle_type_id":"4","last_reported":1717229367,"current_range_meters":27200,"station_id":"ce4bgv92rcd13ifvqcr0","pricing_plan_id":"cebpf4jnsgd1na2vs0mg"},{"bike_id":"3f7523b2-7000-4c20-8361-e4983d008981","system_id":"levelo_inurba_marseille","lat":43.310636,"lon":5.383536,"is_reserved":false,"is_disabled":false,"rental_uris":{"android":"levelo://app?vid=3f7523b2-7000-4c20-8361-e4983d008981","ios":"levelo://app?vid=3f7523b2-7000-4c20-8361-e4983d008981"},"vehicle_type_id":"4","last_reported":1717229367,"current_range_meters":23200,"station_id":"ce4bgv92rcd13ifvqcr0","pricing_plan_id":"cebpf4jnsgd1na2vs0mg"},{"bike_id":"198d1757-eeec-41b4-9e1e-8203df3ebed2","system_id":"levelo_inurba_marseille","lat":43.302784,"lon":5.377158,"is_reserved":false,"is_disabled":false,"rental_uris":{"android":"levelo://app?vid=198d1757-eeec-41b4-9e1e-8203df3ebed2","ios":"levelo://app?vid=198d1757-eeec-41b4-9e1e-8203df3ebed2"},"vehicle_type_id":"4","last_reported":1717229367,"current_range_meters":28400,"station_id":"ce4bguh2rcd13ifvqcj0","pricing_plan_id":"cebpf4jnsgd1na2vs0mg"},{"bike_id":"6b1dc5a8-1b3a-4d8e-baa7-cf1ad8bc7a77","system_id":"levelo_inurba_marseille","lat":43.302784,"lon":5.377158,"is_reserved":false,"is_disabled":false,"rental_uris":{"android":"levelo://app?vid=6b1dc5a8-1b3a-4d8e-baa7-cf1ad8bc7a77","ios":"levelo://app?vid=6b1dc5a8-1b3a-4d8e-baa7-cf1ad8bc7a77"},"vehicle_type_id":"4","last_reported":1717229367,"current_range_meters":31200,"station_id":"ce4bguh2rcd13ifvqcj0","pricing_plan_id":"cebpf4jnsgd1na2vs0mg"},{"bike_id":"2b11e702-4485-4948-9a09-9fa5d4146138","system_id":"levelo_inurba_marseille","lat":43.302784,"lon":5.377158,"is_reserved":false,"is_disabled":false,"rental_uris":{"android":"levelo://app?vid=2b11e702-4485-4948-9a09-9fa5d4146138","ios":"levelo://app?vid=2b11e702-4485-4948-9a09-9fa5d4146138"},"vehicle_type_id":"4","last_reported":1717229367,"current_range_meters":18400,"station_id":"ce4bguh2rcd13ifvqcj0","pricing_plan_id":"cebpf4jnsgd1na2vs0mg"},{"bike_id":"75d21c0d-1881-4db4-b6b9-f623845995b5","system_id":"levelo_inurba_marseille","lat":43.302784,"lon":5.377158,"is_reserved":false,"is_disabled":false,"rental_uris":{"android":"levelo://app?vid=75d21c0d-1881-4db4-b6b9-f623845995b5","ios":"levelo://app?vid=75d21c0d-1881-4db4-b6b9-f623845995b5"},"vehicle_type_id":"4","last_reported":1717229367,"current_range_meters":28800,"station_id":"ce4bguh2rcd13ifvqcj0","pricing_plan_id":"cebpf4jnsgd1na2vs0mg"},{"bike_id":"5ca9fa73-68d3-4c87-afa5-b5ac53b74ddd","system_id":"levelo_inurba_marseille","lat":43.302784,"lon":5.377158,"is_reserved":false,"is_disabled":false,"rental_uris":{"android":"levelo://app?vid=5ca9fa73-68d3-4c87-afa5-b5ac53b74ddd","ios":"levelo://app?vid=5ca9fa73-68d3-4c87-afa5-b5ac53b74ddd"},"vehicle_type_id":"4","last_reported":1717229367,"current_range_meters":24400,"station_id":"ce4bguh2rcd13ifvqcj0","pricing_plan_id":"cebpf4jnsgd1na2vs0mg"},{"bike_id":"c3747205-f244-443d-b668-67bd28e1d686","system_id":"levelo_inurba_marseille","lat":43.302784,"lon":5.377158,"is_reserved":false,"is_disabled":false,"rental_uris":{"android":"levelo://app?vid=c3747205-f244-443d-b668-67bd28e1d686","ios":"levelo://app?vid=c3747205-f244-443d-b668-67bd28e1d686"},"vehicle_type_id":"4","last_reported":1717229367,"current_range_meters":23600,"station_id":"ce4bguh2rcd13ifvqcj0","pricing_plan_id":"cebpf4jnsgd1na2vs0mg"},{"bike_id":"09775ec6-60fd-478c-8c8e-a3b99bdb2d6d","system_id":"levelo_inurba_marseille","lat":43.302784,"lon":5.377158,"is_reserved":false,"is_disabled":false,"rental_uris":{"android":"levelo://app?vid=09775ec6-60fd-478c-8c8e-a3b99bdb2d6d","ios":"levelo://app?vid=09775ec6-60fd-478c-8c8e-a3b99bdb2d6d"},"vehicle_type_id":"4","last_reported":1717229367,"current_range_meters":7200,"station_id":"ce4bguh2rcd13ifvqcj0","pricing_plan_id":"cebpf4jnsgd1na2vs0mg"},{"bike_id":"9f040ab4-ddbf-4322-819a-c283ece058b6","system_id":"levelo_inurba_marseille","lat":43.30143,"lon":5.37413,"is_reserved":false,"is_disabled":false,"rental_uris":{"android":"levelo://app?vid=9f040ab4-ddbf-4322-819a-c283ece058b6","ios":"levelo://app?vid=9f040ab4-ddbf-4322-819a-c283ece058b6"},"vehicle_type_id":"4","last_reported":1717229367,"current_range_meters":21200,"station_id":"ce4bgs92rcd13ifvqcc0","pricing_plan_id":"cebpf4jnsgd1na2vs0mg"},{"bike_id":"d23d5735-218e-4a07-9dae-dc67aa2f1dd8","system_id":"levelo_inurba_marseille","lat":43.30139,"lon":5.37419,"is_reserved":false,"is_disabled":false,"rental_uris":{"android":"levelo://app?vid=d23d5735-218e-4a07-9dae-dc67aa2f1dd8","ios":"levelo://app?vid=d23d5735-218e-4a07-9dae-dc67aa2f1dd8"},"vehicle_type_id":"4","last_reported":1717229367,"current_range_meters":16000,"station_id":"ce4bgs92rcd13ifvqcc0","pricing_plan_id":"cebpf4jnsgd1na2vs0mg"},{"bike_id":"7015e5e6-0311-4b09-a9d6-0a677c5e15f1","system_id":"levelo_inurba_marseille","lat":43.301429,"lon":5.37413,"is_reserved":false,"is_disabled":false,"rental_uris":{"android":"levelo://app?vid=7015e5e6-0311-4b09-a9d6-0a677c5e15f1","ios":"levelo://app?vid=7015e5e6-0311-4b09-a9d6-0a677c5e15f1"},"vehicle_type_id":"4","last_reported":1717229367,"current_range_meters":23600,"station_id":"ce4bgs92rcd13ifvqcc0","pricing_plan_id":"cebpf4jnsgd1na2vs0mg"},{"bike_id":"7f583146-4757-4228-b3f5-11775036f66f","system_id":"levelo_inurba_marseille","lat":43.31982,"lon":5.38144,"is_reserved":false,"is_disabled":false,"rental_uris":{"android":"levelo://app?vid=7f583146-4757-4228-b3f5-11775036f66f","ios":"levelo://app?vid=7f583146-4757-4228-b3f5-11775036f66f"},"vehicle_type_id":"4","last_reported":1717229367,"current_range_meters":29600,"station_id":"ce4bhr12rcd13ifvqhpg","pricing_plan_id":"cebpf4jnsgd1na2vs0mg"},{"bike_id":"573b1bc5-fd22-4b6f-a1cf-c184004b3a92","system_id":"levelo_inurba_marseille","lat":43.31992,"lon":5.38139,"is_reserved":false,"is_disabled":false,"rental_uris":{"android":"levelo://app?vid=573b1bc5-fd22-4b6f-a1cf-c184004b3a92","ios":"levelo://app?vid=573b1bc5-fd22-4b6f-a1cf-c184004b3a92"},"vehicle_type_id":"4","last_reported":1717229367,"current_range_meters":14400,"station_id":"ce4bhr12rcd13ifvqhpg","pricing_plan_id":"cebpf4jnsgd1na2vs0mg"},{"bike_id":"ad242788-8c89-42bf-9f1e-e97d1e87ecb4","system_id":"levelo_inurba_marseille","lat":43.31987,"lon":5.38146,"is_reserved":false,"is_disabled":false,"rental_uris":{"android":"levelo://app?vid=ad242788-8c89-42bf-9f1e-e97d1e87ecb4","ios":"levelo://app?vid=ad242788-8c89-42bf-9f1e-e97d1e87ecb4"},"vehicle_type_id":"4","last_reported":1717229367,"current_range_meters":4000,"station_id":"ce4bhr12rcd13ifvqhpg","pricing_plan_id":"cebpf4jnsgd1na2vs0mg"},{"bike_id":"56792101-54a1-4ebd-83ef-9b399eb8b64f","system_id":"levelo_inurba_marseille","lat":43.319935,"lon":5.381699,"is_reserved":false,"is_disabled":false,"rental_uris":{"android":"levelo://app?vid=56792101-54a1-4ebd-83ef-9b399eb8b64f","ios":"levelo://app?vid=56792101-54a1-4ebd-83ef-9b399eb8b64f"},"vehicle_type_id":"4","last_reported":1717229367,"current_range_meters":19600,"station_id":"ce4bhr12rcd13ifvqhpg","pricing_plan_id":"cebpf4jnsgd1na2vs0mg"},{"bike_id":"3bba4408-ba64-40c9-b25d-fef51e266403","system_id":"levelo_inurba_marseille","lat":43.31989,"lon":5.38147,"is_reserved":false,"is_disabled":false,"rental_uris":{"android":"levelo://app?vid=3bba4408-ba64-40c9-b25d-fef51e266403","ios":"levelo://app?vid=3bba4408-ba64-40c9-b25d-fef51e266403"},"vehicle_type_id":"4","last_reported":1717229367,"current_range_meters":30000,"station_id":"ce4bhr12rcd13ifvqhpg","pricing_plan_id":"cebpf4jnsgd1na2vs0mg"},{"bike_id":"32a34a3b-b40e-471a-b8fa-4c98d8f5ba5b","system_id":"levelo_inurba_marseille","lat":43.313571,"lon":5.384829,"is_reserved":false,"is_disabled":false,"rental_uris":{"android":"levelo://app?vid=32a34a3b-b40e-471a-b8fa-4c98d8f5ba5b","ios":"levelo://app?vid=32a34a3b-b40e-471a-b8fa-4c98d8f5ba5b"},"vehicle_type_id":"4","last_reported":1717229367,"current_range_meters":28400,"station_id":"ce4bgt92rcd13ifvqcf0","pricing_plan_id":"cebpf4jnsgd1na2vs0mg"},{"bike_id":"e586f418-c51d-4d61-a922-aa7474d765c8","system_id":"levelo_inurba_marseille","lat":43.313571,"lon":5.384829,"is_reserved":false,"is_disabled":false,"rental_uris":{"android":"levelo://app?vid=e586f418-c51d-4d61-a922-aa7474d765c8","ios":"levelo://app?vid=e586f418-c51d-4d61-a922-aa7474d765c8"},"vehicle_type_id":"4","last_reported":1717229367,"current_range_meters":30000,"station_id":"ce4bgt92rcd13ifvqcf0","pricing_plan_id":"cebpf4jnsgd1na2vs0mg"},{"bike_id":"93a7fd48-acbb-4543-8163-47f4b1ae1f07","system_id":"levelo_inurba_marseille","lat":43.313571,"lon":5.384829,"is_reserved":false,"is_disabled":false,"rental_uris":{"android":"levelo://app?vid=93a7fd48-acbb-4543-8163-47f4b1ae1f07","ios":"levelo://app?vid=93a7fd48-acbb-4543-8163-47f4b1ae1f07"},"vehicle_type_id":"4","last_reported":1717229367,"current_range_meters":31200,"station_id":"ce4bgt92rcd13ifvqcf0","pricing_plan_id":"cebpf4jnsgd1na2vs0mg"},{"bike_id":"9993d5d8-18f0-4295-874a-955385af44e1","system_id":"levelo_inurba_marseille","lat":43.313571,"lon":5.384829,"is_reserved":false,"is_disabled":false,"rental_uris":{"android":"levelo://app?vid=9993d5d8-18f0-4295-874a-955385af44e1","ios":"levelo://app?vid=9993d5d8-18f0-4295-874a-955385af44e1"},"vehicle_type_id":"4","last_reported":1717229367,"current_range_meters":30400,"station_id":"ce4bgt92rcd13ifvqcf0","pricing_plan_id":"cebpf4jnsgd1na2vs0mg"},{"bike_id":"b47f1b4c-4805-45ba-a095-578bfdc54689","system_id":"levelo_inurba_marseille","lat":43.313571,"lon":5.384829,"is_reserved":false,"is_disabled":false,"rental_uris":{"android":"levelo://app?vid=b47f1b4c-4805-45ba-a095-578bfdc54689","ios":"levelo://app?vid=b47f1b4c-4805-45ba-a095-578bfdc54689"},"vehicle_type_id":"4","last_reported":1717229367,"current_range_meters":31200,"station_id":"ce4bgt92rcd13ifvqcf0","pricing_plan_id":"cebpf4jnsgd1na2vs0mg"},{"bike_id":"e09ff030-ce83-4666-9c59-409ce28214df","system_id":"levelo_inurba_marseille","lat":43.313571,"lon":5.384829,"is_reserved":false,"is_disabled":false,"rental_uris":{"android":"levelo://app?vid=e09ff030-ce83-4666-9c59-409ce28214df","ios":"levelo://app?vid=e09ff030-ce83-4666-9c59-409ce28214df"},"vehicle_type_id":"4","last_reported":1717229367,"current_range_meters":31600,"station_id":"ce4bgt92rcd13ifvqcf0","pricing_plan_id":"cebpf4jnsgd1na2vs0mg"},{"bike_id":"a5d52519-472d-405b-b6f3-cef1573d9e3e","system_id":"levelo_inurba_marseille","lat":43.313571,"lon":5.384829,"is_reserved":false,"is_disabled":false,"rental_uris":{"android":"levelo://app?vid=a5d52519-472d-405b-b6f3-cef1573d9e3e","ios":"levelo://app?vid=a5d52519-472d-405b-b6f3-cef1573d9e3e"},"vehicle_type_id":"4","last_reported":1717229367,"current_range_meters":14000,"station_id":"ce4bgt92rcd13ifvqcf0","pricing_plan_id":"cebpf4jnsgd1na2vs0mg"},{"bike_id":"b89d190c-9462-4521-9a69-e32f7e357939","system_id":"levelo_inurba_marseille","lat":43.313571,"lon":5.384829,"is_reserved":false,"is_disabled":false,"rental_uris":{"android":"levelo://app?vid=b89d190c-9462-4521-9a69-e32f7e357939","ios":"levelo://app?vid=b89d190c-9462-4521-9a69-e32f7e357939"},"vehicle_type_id":"4","last_reported":1717229367,"current_range_meters":31200,"station_id":"ce4bgt92rcd13ifvqcf0","pricing_plan_id":"cebpf4jnsgd1na2vs0mg"},{"bike_id":"e9e53cec-47bb-46e7-98fe-0238a85c0132","system_id":"levelo_inurba_marseille","lat":43.31367,"lon":5.385017,"is_reserved":false,"is_disabled":false,"rental_uris":{"android":"levelo://app?vid=e9e53cec-47bb-46e7-98fe-0238a85c0132","ios":"levelo://app?vid=e9e53cec-47bb-46e7-98fe-0238a85c0132"},"vehicle_type_id":"4","last_reported":1717229367,"current_range_meters":14400,"station_id":"ce4bgt92rcd13ifvqcf0","pricing_plan_id":"cebpf4jnsgd1na2vs0mg"},{"bike_id":"19a4ee11-a625-494d-9eea-df6ea2704628","system_id":"levelo_inurba_marseille","lat":43.313571,"lon":5.384829,"is_reserved":false,"is_disabled":false,"rental_uris":{"android":"levelo://app?vid=19a4ee11-a625-494d-9eea-df6ea2704628","ios":"levelo://app?vid=19a4ee11-a625-494d-9eea-df6ea2704628"},"vehicle_type_id":"4","last_reported":1717229367,"current_range_meters":24400,"station_id":"ce4bgt92rcd13ifvqcf0","pricing_plan_id":"cebpf4jnsgd1na2vs0mg"},{"bike_id":"8cc5da13-9fae-45a0-a8fa-53a200384b7d","system_id":"levelo_inurba_marseille","lat":43.313571,"lon":5.384829,"is_reserved":false,"is_disabled":false,"rental_uris":{"android":"levelo://app?vid=8cc5da13-9fae-45a0-a8fa-53a200384b7d","ios":"levelo://app?vid=8cc5da13-9fae-45a0-a8fa-53a200384b7d"},"vehicle_type_id":"4","last_reported":1717229367,"current_range_meters":28400,"station_id":"ce4bgt92rcd13ifvqcf0","pricing_plan_id":"cebpf4jnsgd1na2vs0mg"},{"bike_id":"fbab6a9e-c850-4d3c-8abb-8447beabac34","system_id":"levelo_inurba_marseille","lat":43.299222,"lon":5.365554,"is_reserved":false,"is_disabled":false,"rental_uris":{"android":"levelo://app?vid=fbab6a9e-c850-4d3c-8abb-8447beabac34","ios":"levelo://app?vid=fbab6a9e-c850-4d3c-8abb-8447beabac34"},"vehicle_type_id":"4","last_reported":1717229367,"current_range_meters":4800,"station_id":"ce4bgm92rcd13ifvqbr0","pricing_plan_id":"cebpf4jnsgd1na2vs0mg"},{"bike_id":"8bdf2957-c374-4083-a960-1dfead209cba","system_id":"levelo_inurba_marseille","lat":43.299222,"lon":5.365554,"is_reserved":false,"is_disabled":false,"rental_uris":{"android":"levelo://app?vid=8bdf2957-c374-4083-a960-1dfead209cba","ios":"levelo://app?vid=8bdf2957-c374-4083-a960-1dfead209cba"},"vehicle_type_id":"4","last_reported":1717229367,"current_range_meters":14400,"station_id":"ce4bgm92rcd13ifvqbr0","pricing_plan_id":"cebpf4jnsgd1na2vs0mg"},{"bike_id":"d49ee934-3194-45fe-82a4-90d65d2ba72e","system_id":"levelo_inurba_marseille","lat":43.299222,"lon":5.365554,"is_reserved":false,"is_disabled":false,"rental_uris":{"android":"levelo://app?vid=d49ee934-3194-45fe-82a4-90d65d2ba72e","ios":"levelo://app?vid=d49ee934-3194-45fe-82a4-90d65d2ba72e"},"vehicle_type_id":"4","last_reported":1717229367,"current_range_meters":24800,"station_id":"ce4bgm92rcd13ifvqbr0","pricing_plan_id":"cebpf4jnsgd1na2vs0mg"},{"bike_id":"80933dfe-33df-4e2e-b220-e6e3ed33f9d6","system_id":"levelo_inurba_marseille","lat":43.299222,"lon":5.365554,"is_reserved":false,"is_disabled":false,"rental_uris":{"android":"levelo://app?vid=80933dfe-33df-4e2e-b220-e6e3ed33f9d6","ios":"levelo://app?vid=80933dfe-33df-4e2e-b220-e6e3ed33f9d6"},"vehicle_type_id":"4","last_reported":1717229367,"current_range_meters":4800,"station_id":"ce4bgm92rcd13ifvqbr0","pricing_plan_id":"cebpf4jnsgd1na2vs0mg"},{"bike_id":"9cbdfa32-3721-4fb6-ae3f-9789000af0f1","system_id":"levelo_inurba_marseille","lat":43.299222,"lon":5.365554,"is_reserved":false,"is_disabled":false,"rental_uris":{"android":"levelo://app?vid=9cbdfa32-3721-4fb6-ae3f-9789000af0f1","ios":"levelo://app?vid=9cbdfa32-3721-4fb6-ae3f-9789000af0f1"},"vehicle_type_id":"4","last_reported":1717229367,"current_range_meters":19200,"station_id":"ce4bgm92rcd13ifvqbr0","pricing_plan_id":"cebpf4jnsgd1na2vs0mg"},{"bike_id":"f3a5bcf6-8c40-45b5-9c5e-4be2e0e6b109","system_id":"levelo_inurba_marseille","lat":43.299222,"lon":5.365554,"is_reserved":false,"is_disabled":false,"rental_uris":{"android":"levelo://app?vid=f3a5bcf6-8c40-45b5-9c5e-4be2e0e6b109","ios":"levelo://app?vid=f3a5bcf6-8c40-45b5-9c5e-4be2e0e6b109"},"vehicle_type_id":"4","last_reported":1717229367,"current_range_meters":8000,"station_id":"ce4bgm92rcd13ifvqbr0","pricing_plan_id":"cebpf4jnsgd1na2vs0mg"},{"bike_id":"8e0769b5-a4df-4ad8-a523-6f4f23ac7241","system_id":"levelo_inurba_marseille","lat":43.299222,"lon":5.365554,"is_reserved":false,"is_disabled":false,"rental_uris":{"android":"levelo://app?vid=8e0769b5-a4df-4ad8-a523-6f4f23ac7241","ios":"levelo://app?vid=8e0769b5-a4df-4ad8-a523-6f4f23ac7241"},"vehicle_type_id":"4","last_reported":1717229367,"current_range_meters":24000,"station_id":"ce4bgm92rcd13ifvqbr0","pricing_plan_id":"cebpf4jnsgd1na2vs0mg"},{"bike_id":"c4c7e900-a90d-41cb-9301-d69ed20889bb","system_id":"levelo_inurba_marseille","lat":43.299222,"lon":5.365554,"is_reserved":false,"is_disabled":false,"rental_uris":{"android":"levelo://app?vid=c4c7e900-a90d-41cb-9301-d69ed20889bb","ios":"levelo://app?vid=c4c7e900-a90d-41cb-9301-d69ed20889bb"},"vehicle_type_id":"4","last_reported":1717229367,"current_range_meters":10400,"station_id":"ce4bgm92rcd13ifvqbr0","pricing_plan_id":"cebpf4jnsgd1na2vs0mg"},{"bike_id":"1d4d4760-7c82-4c3d-b107-2ceae7da0efd","system_id":"levelo_inurba_marseille","lat":43.299222,"lon":5.365554,"is_reserved":false,"is_disabled":false,"rental_uris":{"android":"levelo://app?vid=1d4d4760-7c82-4c3d-b107-2ceae7da0efd","ios":"levelo://app?vid=1d4d4760-7c82-4c3d-b107-2ceae7da0efd"},"vehicle_type_id":"4","last_reported":1717229367,"current_range_meters":9600,"station_id":"ce4bgm92rcd13ifvqbr0","pricing_plan_id":"cebpf4jnsgd1na2vs0mg"},{"bike_id":"69fc39a0-e851-4c9c-b947-431accee4d9a","system_id":"levelo_inurba_marseille","lat":43.299222,"lon":5.365554,"is_reserved":false,"is_disabled":false,"rental_uris":{"android":"levelo://app?vid=69fc39a0-e851-4c9c-b947-431accee4d9a","ios":"levelo://app?vid=69fc39a0-e851-4c9c-b947-431accee4d9a"},"vehicle_type_id":"4","last_reported":1717229367,"current_range_meters":17200,"station_id":"ce4bgm92rcd13ifvqbr0","pricing_plan_id":"cebpf4jnsgd1na2vs0mg"},{"bike_id":"53c49662-35b6-4488-8c45-2e6a57e9ad1b","system_id":"levelo_inurba_marseille","lat":43.299222,"lon":5.365554,"is_reserved":false,"is_disabled":false,"rental_uris":{"android":"levelo://app?vid=53c49662-35b6-4488-8c45-2e6a57e9ad1b","ios":"levelo://app?vid=53c49662-35b6-4488-8c45-2e6a57e9ad1b"},"vehicle_type_id":"4","last_reported":1717229367,"current_range_meters":24800,"station_id":"ce4bgm92rcd13ifvqbr0","pricing_plan_id":"cebpf4jnsgd1na2vs0mg"},{"bike_id":"8093daad-64aa-4424-acb5-7277acc8a11f","system_id":"levelo_inurba_marseille","lat":43.305706,"lon":5.365654,"is_reserved":false,"is_disabled":false,"rental_uris":{"android":"levelo://app?vid=8093daad-64aa-4424-acb5-7277acc8a11f","ios":"levelo://app?vid=8093daad-64aa-4424-acb5-7277acc8a11f"},"vehicle_type_id":"4","last_reported":1717229367,"current_range_meters":28400,"station_id":"ce4bgs12rcd13ifvqcag","pricing_plan_id":"cebpf4jnsgd1na2vs0mg"},{"bike_id":"d4231061-b79d-4d94-97fe-00e79ea35966","system_id":"levelo_inurba_marseille","lat":43.311722,"lon":5.387247,"is_reserved":false,"is_disabled":false,"rental_uris":{"android":"levelo://app?vid=d4231061-b79d-4d94-97fe-00e79ea35966","ios":"levelo://app?vid=d4231061-b79d-4d94-97fe-00e79ea35966"},"vehicle_type_id":"4","last_reported":1717229367,"current_range_meters":5600,"station_id":"ce4bgv12rcd13ifvqcp0","pricing_plan_id":"cebpf4jnsgd1na2vs0mg"},{"bike_id":"47979ab3-2b44-4d82-b25d-acb0ab470592","system_id":"levelo_inurba_marseille","lat":43.298433,"lon":5.362774,"is_reserved":false,"is_disabled":false,"rental_uris":{"android":"levelo://app?vid=47979ab3-2b44-4d82-b25d-acb0ab470592","ios":"levelo://app?vid=47979ab3-2b44-4d82-b25d-acb0ab470592"},"vehicle_type_id":"4","last_reported":1717229367,"current_range_meters":9200,"station_id":"ce4bgpp2rcd13ifvqc3g","pricing_plan_id":"cebpf4jnsgd1na2vs0mg"},{"bike_id":"762e1ef7-8c2d-4c13-a619-d3a8e1875c25","system_id":"levelo_inurba_marseille","lat":43.298433,"lon":5.362774,"is_reserved":false,"is_disabled":false,"rental_uris":{"android":"levelo://app?vid=762e1ef7-8c2d-4c13-a619-d3a8e1875c25","ios":"levelo://app?vid=762e1ef7-8c2d-4c13-a619-d3a8e1875c25"},"vehicle_type_id":"4","last_reported":1717229367,"current_range_meters":22800,"station_id":"ce4bgpp2rcd13ifvqc3g","pricing_plan_id":"cebpf4jnsgd1na2vs0mg"},{"bike_id":"d19c12ca-2e94-49be-b1f1-49c8899ec80d","system_id":"levelo_inurba_marseille","lat":43.298433,"lon":5.362774,"is_reserved":false,"is_disabled":false,"rental_uris":{"android":"levelo://app?vid=d19c12ca-2e94-49be-b1f1-49c8899ec80d","ios":"levelo://app?vid=d19c12ca-2e94-49be-b1f1-49c8899ec80d"},"vehicle_type_id":"4","last_reported":1717229367,"current_range_meters":6000,"station_id":"ce4bgpp2rcd13ifvqc3g","pricing_plan_id":"cebpf4jnsgd1na2vs0mg"},{"bike_id":"94753fe8-5164-4dcf-9d15-69cc0c7becff","system_id":"levelo_inurba_marseille","lat":43.305364,"lon":5.384119,"is_reserved":false,"is_disabled":false,"rental_uris":{"android":"levelo://app?vid=94753fe8-5164-4dcf-9d15-69cc0c7becff","ios":"levelo://app?vid=94753fe8-5164-4dcf-9d15-69cc0c7becff"},"vehicle_type_id":"4","last_reported":1717229367,"current_range_meters":26400,"station_id":"ce4bgg92rcd13ifvqb30","pricing_plan_id":"cebpf4jnsgd1na2vs0mg"},{"bike_id":"50016562-dc16-4604-a74d-63846a23f2ec","system_id":"levelo_inurba_marseille","lat":43.305364,"lon":5.384119,"is_reserved":false,"is_disabled":false,"rental_uris":{"android":"levelo://app?vid=50016562-dc16-4604-a74d-63846a23f2ec","ios":"levelo://app?vid=50016562-dc16-4604-a74d-63846a23f2ec"},"vehicle_type_id":"4","last_reported":1717229367,"current_range_meters":11200,"station_id":"ce4bgg92rcd13ifvqb30","pricing_plan_id":"cebpf4jnsgd1na2vs0mg"},{"bike_id":"7c0279c4-785e-41cc-9875-11b1aa5697b0","system_id":"levelo_inurba_marseille","lat":43.29844,"lon":5.36273,"is_reserved":false,"is_disabled":false,"rental_uris":{"android":"levelo://app?vid=7c0279c4-785e-41cc-9875-11b1aa5697b0","ios":"levelo://app?vid=7c0279c4-785e-41cc-9875-11b1aa5697b0"},"vehicle_type_id":"4","last_reported":1717229367,"current_range_meters":28000,"station_id":"ce4bgpp2rcd13ifvqc3g","pricing_plan_id":"cebpf4jnsgd1na2vs0mg"},{"bike_id":"c8b9fb77-a15b-4d89-9f0e-216064374690","system_id":"levelo_inurba_marseille","lat":43.298433,"lon":5.362774,"is_reserved":false,"is_disabled":false,"rental_uris":{"android":"levelo://app?vid=c8b9fb77-a15b-4d89-9f0e-216064374690","ios":"levelo://app?vid=c8b9fb77-a15b-4d89-9f0e-216064374690"},"vehicle_type_id":"4","last_reported":1717229367,"current_range_meters":4400,"station_id":"ce4bgpp2rcd13ifvqc3g","pricing_plan_id":"cebpf4jnsgd1na2vs0mg"},{"bike_id":"268b50e5-92b3-42e1-813e-0d95ad612dc8","system_id":"levelo_inurba_marseille","lat":43.298433,"lon":5.362774,"is_reserved":false,"is_disabled":false,"rental_uris":{"android":"levelo://app?vid=268b50e5-92b3-42e1-813e-0d95ad612dc8","ios":"levelo://app?vid=268b50e5-92b3-42e1-813e-0d95ad612dc8"},"vehicle_type_id":"4","last_reported":1717229367,"current_range_meters":20400,"station_id":"ce4bgpp2rcd13ifvqc3g","pricing_plan_id":"cebpf4jnsgd1na2vs0mg"},{"bike_id":"35d1f0d9-c12a-4ffd-b70b-faff209c1c16","system_id":"levelo_inurba_marseille","lat":43.298433,"lon":5.362774,"is_reserved":false,"is_disabled":false,"rental_uris":{"android":"levelo://app?vid=35d1f0d9-c12a-4ffd-b70b-faff209c1c16","ios":"levelo://app?vid=35d1f0d9-c12a-4ffd-b70b-faff209c1c16"},"vehicle_type_id":"4","last_reported":1717229367,"current_range_meters":31200,"station_id":"ce4bgpp2rcd13ifvqc3g","pricing_plan_id":"cebpf4jnsgd1na2vs0mg"},{"bike_id":"aefab2e4-1cac-401e-ae3f-510f84c1bcb0","system_id":"levelo_inurba_marseille","lat":43.305364,"lon":5.384119,"is_reserved":false,"is_disabled":false,"rental_uris":{"android":"levelo://app?vid=aefab2e4-1cac-401e-ae3f-510f84c1bcb0","ios":"levelo://app?vid=aefab2e4-1cac-401e-ae3f-510f84c1bcb0"},"vehicle_type_id":"4","last_reported":1717229367,"current_range_meters":22400,"station_id":"ce4bgg92rcd13ifvqb30","pricing_plan_id":"cebpf4jnsgd1na2vs0mg"},{"bike_id":"dc6102c1-8748-49ac-8b78-3c247e76394d","system_id":"levelo_inurba_marseille","lat":43.298433,"lon":5.362774,"is_reserved":false,"is_disabled":false,"rental_uris":{"android":"levelo://app?vid=dc6102c1-8748-49ac-8b78-3c247e76394d","ios":"levelo://app?vid=dc6102c1-8748-49ac-8b78-3c247e76394d"},"vehicle_type_id":"4","last_reported":1717229367,"current_range_meters":25200,"station_id":"ce4bgpp2rcd13ifvqc3g","pricing_plan_id":"cebpf4jnsgd1na2vs0mg"},{"bike_id":"23102fce-097d-4244-aa5e-b07299baff14","system_id":"levelo_inurba_marseille","lat":43.305364,"lon":5.384119,"is_reserved":false,"is_disabled":false,"rental_uris":{"android":"levelo://app?vid=23102fce-097d-4244-aa5e-b07299baff14","ios":"levelo://app?vid=23102fce-097d-4244-aa5e-b07299baff14"},"vehicle_type_id":"4","last_reported":1717229367,"current_range_meters":22400,"station_id":"ce4bgg92rcd13ifvqb30","pricing_plan_id":"cebpf4jnsgd1na2vs0mg"},{"bike_id":"f454c5a6-0af1-4cdd-ad2c-6562fccee135","system_id":"levelo_inurba_marseille","lat":43.298433,"lon":5.362774,"is_reserved":false,"is_disabled":false,"rental_uris":{"android":"levelo://app?vid=f454c5a6-0af1-4cdd-ad2c-6562fccee135","ios":"levelo://app?vid=f454c5a6-0af1-4cdd-ad2c-6562fccee135"},"vehicle_type_id":"4","last_reported":1717229367,"current_range_meters":27600,"station_id":"ce4bgpp2rcd13ifvqc3g","pricing_plan_id":"cebpf4jnsgd1na2vs0mg"},{"bike_id":"917ecc7c-1e59-49f5-8454-55120c1a023d","system_id":"levelo_inurba_marseille","lat":43.298433,"lon":5.362774,"is_reserved":false,"is_disabled":false,"rental_uris":{"android":"levelo://app?vid=917ecc7c-1e59-49f5-8454-55120c1a023d","ios":"levelo://app?vid=917ecc7c-1e59-49f5-8454-55120c1a023d"},"vehicle_type_id":"4","last_reported":1717229367,"current_range_meters":30400,"station_id":"ce4bgpp2rcd13ifvqc3g","pricing_plan_id":"cebpf4jnsgd1na2vs0mg"},{"bike_id":"f319de5a-1b82-462f-8a87-193cb412c09f","system_id":"levelo_inurba_marseille","lat":43.298433,"lon":5.362774,"is_reserved":false,"is_disabled":false,"rental_uris":{"android":"levelo://app?vid=f319de5a-1b82-462f-8a87-193cb412c09f","ios":"levelo://app?vid=f319de5a-1b82-462f-8a87-193cb412c09f"},"vehicle_type_id":"4","last_reported":1717229367,"current_range_meters":26800,"station_id":"ce4bgpp2rcd13ifvqc3g","pricing_plan_id":"cebpf4jnsgd1na2vs0mg"},{"bike_id":"9d6f316b-a0ce-4ca0-ba59-706331ff3365","system_id":"levelo_inurba_marseille","lat":43.322872,"lon":5.382756,"is_reserved":false,"is_disabled":false,"rental_uris":{"android":"levelo://app?vid=9d6f316b-a0ce-4ca0-ba59-706331ff3365","ios":"levelo://app?vid=9d6f316b-a0ce-4ca0-ba59-706331ff3365"},"vehicle_type_id":"4","last_reported":1717229367,"current_range_meters":27600,"station_id":"ce4bhr12rcd13ifvqhqg","pricing_plan_id":"cebpf4jnsgd1na2vs0mg"},{"bike_id":"a957f1d3-073c-4b80-ad0c-c67398b30c5c","system_id":"levelo_inurba_marseille","lat":43.32289,"lon":5.38256,"is_reserved":false,"is_disabled":false,"rental_uris":{"android":"levelo://app?vid=a957f1d3-073c-4b80-ad0c-c67398b30c5c","ios":"levelo://app?vid=a957f1d3-073c-4b80-ad0c-c67398b30c5c"},"vehicle_type_id":"4","last_reported":1717229367,"current_range_meters":29600,"station_id":"ce4bhr12rcd13ifvqhqg","pricing_plan_id":"cebpf4jnsgd1na2vs0mg"},{"bike_id":"27d59a54-fdac-422f-bce7-b4bc5a4b3c7f","system_id":"levelo_inurba_marseille","lat":43.32289,"lon":5.38265,"is_reserved":false,"is_disabled":false,"rental_uris":{"android":"levelo://app?vid=27d59a54-fdac-422f-bce7-b4bc5a4b3c7f","ios":"levelo://app?vid=27d59a54-fdac-422f-bce7-b4bc5a4b3c7f"},"vehicle_type_id":"4","last_reported":1717229367,"current_range_meters":26000,"station_id":"ce4bhr12rcd13ifvqhqg","pricing_plan_id":"cebpf4jnsgd1na2vs0mg"},{"bike_id":"fb61b712-9731-47d5-b5e7-9904aa24e80f","system_id":"levelo_inurba_marseille","lat":43.322872,"lon":5.382756,"is_reserved":false,"is_disabled":false,"rental_uris":{"android":"levelo://app?vid=fb61b712-9731-47d5-b5e7-9904aa24e80f","ios":"levelo://app?vid=fb61b712-9731-47d5-b5e7-9904aa24e80f"},"vehicle_type_id":"4","last_reported":1717229367,"current_range_meters":31200,"station_id":"ce4bhr12rcd13ifvqhqg","pricing_plan_id":"cebpf4jnsgd1na2vs0mg"},{"bike_id":"10fb4334-c940-4455-979b-d3f1ca32e262","system_id":"levelo_inurba_marseille","lat":43.297774,"lon":5.370875,"is_reserved":false,"is_disabled":false,"rental_uris":{"android":"levelo://app?vid=10fb4334-c940-4455-979b-d3f1ca32e262","ios":"levelo://app?vid=10fb4334-c940-4455-979b-d3f1ca32e262"},"vehicle_type_id":"4","last_reported":1717229367,"current_range_meters":27600,"station_id":"ce4bgop2rcd13ifvqc1g","pricing_plan_id":"cebpf4jnsgd1na2vs0mg"},{"bike_id":"24693e01-653e-4636-98cb-8131cd9ffaf7","system_id":"levelo_inurba_marseille","lat":43.297163,"lon":5.365866,"is_reserved":false,"is_disabled":false,"rental_uris":{"android":"levelo://app?vid=24693e01-653e-4636-98cb-8131cd9ffaf7","ios":"levelo://app?vid=24693e01-653e-4636-98cb-8131cd9ffaf7"},"vehicle_type_id":"4","last_reported":1717229367,"current_range_meters":25600,"station_id":"ce4bgn12rcd13ifvqbt0","pricing_plan_id":"cebpf4jnsgd1na2vs0mg"},{"bike_id":"f951a26b-1311-45a3-81e6-145c3b93987a","system_id":"levelo_inurba_marseille","lat":43.296131,"lon":5.370773,"is_reserved":false,"is_disabled":false,"rental_uris":{"android":"levelo://app?vid=f951a26b-1311-45a3-81e6-145c3b93987a","ios":"levelo://app?vid=f951a26b-1311-45a3-81e6-145c3b93987a"},"vehicle_type_id":"4","last_reported":1717229367,"current_range_meters":26000,"station_id":"ce4bgnh2rcd13ifvqc0g","pricing_plan_id":"cebpf4jnsgd1na2vs0mg"},{"bike_id":"6ac3e371-0366-4995-8ea8-f6f084333a64","system_id":"levelo_inurba_marseille","lat":43.296131,"lon":5.370791,"is_reserved":false,"is_disabled":false,"rental_uris":{"android":"levelo://app?vid=6ac3e371-0366-4995-8ea8-f6f084333a64","ios":"levelo://app?vid=6ac3e371-0366-4995-8ea8-f6f084333a64"},"vehicle_type_id":"4","last_reported":1717229367,"current_range_meters":7200,"station_id":"ce4bgnh2rcd13ifvqc0g","pricing_plan_id":"cebpf4jnsgd1na2vs0mg"},{"bike_id":"4ee2f7cf-56d8-4cb1-bcea-f807f676fed5","system_id":"levelo_inurba_marseille","lat":43.29573,"lon":5.367355,"is_reserved":false,"is_disabled":false,"rental_uris":{"android":"levelo://app?vid=4ee2f7cf-56d8-4cb1-bcea-f807f676fed5","ios":"levelo://app?vid=4ee2f7cf-56d8-4cb1-bcea-f807f676fed5"},"vehicle_type_id":"4","last_reported":1717229367,"current_range_meters":24800,"station_id":"ce4bgph2rcd13ifvqc2g","pricing_plan_id":"cebpf4jnsgd1na2vs0mg"},{"bike_id":"cf47f753-d365-49b9-a68f-6c624c2ed438","system_id":"levelo_inurba_marseille","lat":43.296935,"lon":5.376544,"is_reserved":false,"is_disabled":false,"rental_uris":{"android":"levelo://app?vid=cf47f753-d365-49b9-a68f-6c624c2ed438","ios":"levelo://app?vid=cf47f753-d365-49b9-a68f-6c624c2ed438"},"vehicle_type_id":"4","last_reported":1717229367,"current_range_meters":12400,"station_id":"ce4bgkh2rcd13ifvqbl0","pricing_plan_id":"cebpf4jnsgd1na2vs0mg"},{"bike_id":"e94783bd-f8e2-4228-a56e-007802faac00","system_id":"levelo_inurba_marseille","lat":43.309589,"lon":5.390258,"is_reserved":false,"is_disabled":false,"rental_uris":{"android":"levelo://app?vid=e94783bd-f8e2-4228-a56e-007802faac00","ios":"levelo://app?vid=e94783bd-f8e2-4228-a56e-007802faac00"},"vehicle_type_id":"4","last_reported":1717229367,"current_range_meters":20400,"station_id":"ce4bgup2rcd13ifvqco0","pricing_plan_id":"cebpf4jnsgd1na2vs0mg"},{"bike_id":"fb0212c6-b03e-459d-9731-a426596c7462","system_id":"levelo_inurba_marseille","lat":43.30958,"lon":5.39033,"is_reserved":false,"is_disabled":false,"rental_uris":{"android":"levelo://app?vid=fb0212c6-b03e-459d-9731-a426596c7462","ios":"levelo://app?vid=fb0212c6-b03e-459d-9731-a426596c7462"},"vehicle_type_id":"4","last_reported":1717229367,"current_range_meters":0,"station_id":"ce4bgup2rcd13ifvqco0","pricing_plan_id":"cebpf4jnsgd1na2vs0mg"},{"bike_id":"88953cad-021e-4748-85e1-36fa09b65c28","system_id":"levelo_inurba_marseille","lat":43.296921,"lon":5.376579,"is_reserved":false,"is_disabled":false,"rental_uris":{"android":"levelo://app?vid=88953cad-021e-4748-85e1-36fa09b65c28","ios":"levelo://app?vid=88953cad-021e-4748-85e1-36fa09b65c28"},"vehicle_type_id":"4","last_reported":1717229367,"current_range_meters":18800,"station_id":"ce4bgkh2rcd13ifvqbl0","pricing_plan_id":"cebpf4jnsgd1na2vs0mg"},{"bike_id":"ea4a5687-784c-42fd-889e-97bb7aa21fc7","system_id":"levelo_inurba_marseille","lat":43.309589,"lon":5.390258,"is_reserved":false,"is_disabled":false,"rental_uris":{"android":"levelo://app?vid=ea4a5687-784c-42fd-889e-97bb7aa21fc7","ios":"levelo://app?vid=ea4a5687-784c-42fd-889e-97bb7aa21fc7"},"vehicle_type_id":"4","last_reported":1717229367,"current_range_meters":22800,"station_id":"ce4bgup2rcd13ifvqco0","pricing_plan_id":"cebpf4jnsgd1na2vs0mg"},{"bike_id":"2053593e-cf5c-4612-a43f-6db133edfe68","system_id":"levelo_inurba_marseille","lat":43.317557,"lon":5.390173,"is_reserved":false,"is_disabled":false,"rental_uris":{"android":"levelo://app?vid=2053593e-cf5c-4612-a43f-6db133edfe68","ios":"levelo://app?vid=2053593e-cf5c-4612-a43f-6db133edfe68"},"vehicle_type_id":"4","last_reported":1717229367,"current_range_meters":26400,"station_id":"ce4bhqp2rcd13ifvqhng","pricing_plan_id":"cebpf4jnsgd1na2vs0mg"},{"bike_id":"61f9a893-15a9-42ee-852c-96900c31e270","system_id":"levelo_inurba_marseille","lat":43.295748,"lon":5.37522,"is_reserved":false,"is_disabled":false,"rental_uris":{"android":"levelo://app?vid=61f9a893-15a9-42ee-852c-96900c31e270","ios":"levelo://app?vid=61f9a893-15a9-42ee-852c-96900c31e270"},"vehicle_type_id":"4","last_reported":1717229367,"current_range_meters":23200,"station_id":"ce4bgh92rcd13ifvqb50","pricing_plan_id":"cebpf4jnsgd1na2vs0mg"},{"bike_id":"39916075-c890-49e5-8166-854dcf931a03","system_id":"levelo_inurba_marseille","lat":43.295748,"lon":5.37522,"is_reserved":false,"is_disabled":false,"rental_uris":{"android":"levelo://app?vid=39916075-c890-49e5-8166-854dcf931a03","ios":"levelo://app?vid=39916075-c890-49e5-8166-854dcf931a03"},"vehicle_type_id":"4","last_reported":1717229367,"current_range_meters":6800,"station_id":"ce4bgh92rcd13ifvqb50","pricing_plan_id":"cebpf4jnsgd1na2vs0mg"},{"bike_id":"7738656b-4532-4107-bb50-2e8f5f3812cd","system_id":"levelo_inurba_marseille","lat":43.304274,"lon":5.388873,"is_reserved":false,"is_disabled":false,"rental_uris":{"android":"levelo://app?vid=7738656b-4532-4107-bb50-2e8f5f3812cd","ios":"levelo://app?vid=7738656b-4532-4107-bb50-2e8f5f3812cd"},"vehicle_type_id":"4","last_reported":1717229367,"current_range_meters":20800,"station_id":"ce4bgk12rcd13ifvqbi0","pricing_plan_id":"cebpf4jnsgd1na2vs0mg"},{"bike_id":"d33d1545-9ff8-4cbe-be6f-1e02d7465d44","system_id":"levelo_inurba_marseille","lat":43.29561,"lon":5.37509,"is_reserved":false,"is_disabled":false,"rental_uris":{"android":"levelo://app?vid=d33d1545-9ff8-4cbe-be6f-1e02d7465d44","ios":"levelo://app?vid=d33d1545-9ff8-4cbe-be6f-1e02d7465d44"},"vehicle_type_id":"4","last_reported":1717229367,"current_range_meters":29600,"station_id":"ce4bgh92rcd13ifvqb50","pricing_plan_id":"cebpf4jnsgd1na2vs0mg"},{"bike_id":"38820f27-e0d7-495d-8f13-46a315337060","system_id":"levelo_inurba_marseille","lat":43.29559,"lon":5.37513,"is_reserved":false,"is_disabled":false,"rental_uris":{"android":"levelo://app?vid=38820f27-e0d7-495d-8f13-46a315337060","ios":"levelo://app?vid=38820f27-e0d7-495d-8f13-46a315337060"},"vehicle_type_id":"4","last_reported":1717229367,"current_range_meters":12800,"station_id":"ce4bgh92rcd13ifvqb50","pricing_plan_id":"cebpf4jnsgd1na2vs0mg"},{"bike_id":"f37573f3-8e48-469e-900e-b4c284e75e40","system_id":"levelo_inurba_marseille","lat":43.295279,"lon":5.375048,"is_reserved":false,"is_disabled":false,"rental_uris":{"android":"levelo://app?vid=f37573f3-8e48-469e-900e-b4c284e75e40","ios":"levelo://app?vid=f37573f3-8e48-469e-900e-b4c284e75e40"},"vehicle_type_id":"4","last_reported":1717229367,"current_range_meters":10400,"station_id":"ce4bgkp2rcd13ifvqbmg","pricing_plan_id":"cebpf4jnsgd1na2vs0mg"},{"bike_id":"5f4105c4-bc64-45ba-8c91-ba39ef8e806e","system_id":"levelo_inurba_marseille","lat":43.296277,"lon":5.377108,"is_reserved":false,"is_disabled":false,"rental_uris":{"android":"levelo://app?vid=5f4105c4-bc64-45ba-8c91-ba39ef8e806e","ios":"levelo://app?vid=5f4105c4-bc64-45ba-8c91-ba39ef8e806e"},"vehicle_type_id":"4","last_reported":1717229367,"current_range_meters":31200,"station_id":"ce4bgi92rcd13ifvqb90","pricing_plan_id":"cebpf4jnsgd1na2vs0mg"},{"bike_id":"6179fa58-fec5-47bd-9d9f-6c958be40a8a","system_id":"levelo_inurba_marseille","lat":43.296263,"lon":5.377094,"is_reserved":false,"is_disabled":false,"rental_uris":{"android":"levelo://app?vid=6179fa58-fec5-47bd-9d9f-6c958be40a8a","ios":"levelo://app?vid=6179fa58-fec5-47bd-9d9f-6c958be40a8a"},"vehicle_type_id":"4","last_reported":1717229367,"current_range_meters":28400,"station_id":"ce4bgi92rcd13ifvqb90","pricing_plan_id":"cebpf4jnsgd1na2vs0mg"},{"bike_id":"7a29390c-82e8-4ce1-b796-be49c1c24f04","system_id":"levelo_inurba_marseille","lat":43.299724,"lon":5.384848,"is_reserved":false,"is_disabled":false,"rental_uris":{"android":"levelo://app?vid=7a29390c-82e8-4ce1-b796-be49c1c24f04","ios":"levelo://app?vid=7a29390c-82e8-4ce1-b796-be49c1c24f04"},"vehicle_type_id":"4","last_reported":1717229367,"current_range_meters":20000,"station_id":"ce4bgj92rcd13ifvqbd0","pricing_plan_id":"cebpf4jnsgd1na2vs0mg"},{"bike_id":"2b753826-e240-4c3c-9903-ecaef2916a1f","system_id":"levelo_inurba_marseille","lat":43.309589,"lon":5.390258,"is_reserved":false,"is_disabled":false,"rental_uris":{"android":"levelo://app?vid=2b753826-e240-4c3c-9903-ecaef2916a1f","ios":"levelo://app?vid=2b753826-e240-4c3c-9903-ecaef2916a1f"},"vehicle_type_id":"4","last_reported":1717229367,"current_range_meters":11600,"station_id":"ce4bgup2rcd13ifvqco0","pricing_plan_id":"cebpf4jnsgd1na2vs0mg"},{"bike_id":"566d727a-b1ee-44d2-8273-344263013c45","system_id":"levelo_inurba_marseille","lat":43.29368,"lon":5.369245,"is_reserved":false,"is_disabled":false,"rental_uris":{"android":"levelo://app?vid=566d727a-b1ee-44d2-8273-344263013c45","ios":"levelo://app?vid=566d727a-b1ee-44d2-8273-344263013c45"},"vehicle_type_id":"4","last_reported":1717229367,"current_range_meters":26000,"station_id":"ce4bha92rcd13ifvqeg0","pricing_plan_id":"cebpf4jnsgd1na2vs0mg"},{"bike_id":"4c878d66-8c54-44fc-ac2f-5b7170b0c831","system_id":"levelo_inurba_marseille","lat":43.32367,"lon":5.388836,"is_reserved":false,"is_disabled":false,"rental_uris":{"android":"levelo://app?vid=4c878d66-8c54-44fc-ac2f-5b7170b0c831","ios":"levelo://app?vid=4c878d66-8c54-44fc-ac2f-5b7170b0c831"},"vehicle_type_id":"4","last_reported":1717229367,"current_range_meters":18400,"station_id":"ce4bhqp2rcd13ifvqhog","pricing_plan_id":"cebpf4jnsgd1na2vs0mg"},{"bike_id":"c45391c6-940d-4d13-9a64-24d81ce916a8","system_id":"levelo_inurba_marseille","lat":43.32367,"lon":5.388836,"is_reserved":false,"is_disabled":false,"rental_uris":{"android":"levelo://app?vid=c45391c6-940d-4d13-9a64-24d81ce916a8","ios":"levelo://app?vid=c45391c6-940d-4d13-9a64-24d81ce916a8"},"vehicle_type_id":"4","last_reported":1717229367,"current_range_meters":14000,"station_id":"ce4bhqp2rcd13ifvqhog","pricing_plan_id":"cebpf4jnsgd1na2vs0mg"},{"bike_id":"eb7f873a-1d0f-417f-b022-72b45b88423e","system_id":"levelo_inurba_marseille","lat":43.32367,"lon":5.388836,"is_reserved":false,"is_disabled":false,"rental_uris":{"android":"levelo://app?vid=eb7f873a-1d0f-417f-b022-72b45b88423e","ios":"levelo://app?vid=eb7f873a-1d0f-417f-b022-72b45b88423e"},"vehicle_type_id":"4","last_reported":1717229367,"current_range_meters":6800,"station_id":"ce4bhqp2rcd13ifvqhog","pricing_plan_id":"cebpf4jnsgd1na2vs0mg"},{"bike_id":"6db9e6bd-d3eb-4d1e-9a03-9645a0aab946","system_id":"levelo_inurba_marseille","lat":43.32367,"lon":5.388836,"is_reserved":false,"is_disabled":false,"rental_uris":{"android":"levelo://app?vid=6db9e6bd-d3eb-4d1e-9a03-9645a0aab946","ios":"levelo://app?vid=6db9e6bd-d3eb-4d1e-9a03-9645a0aab946"},"vehicle_type_id":"4","last_reported":1717229367,"current_range_meters":3600,"station_id":"ce4bhqp2rcd13ifvqhog","pricing_plan_id":"cebpf4jnsgd1na2vs0mg"},{"bike_id":"f8a7ecd4-7c76-4372-935d-226a10f94b52","system_id":"levelo_inurba_marseille","lat":43.32367,"lon":5.388836,"is_reserved":false,"is_disabled":false,"rental_uris":{"android":"levelo://app?vid=f8a7ecd4-7c76-4372-935d-226a10f94b52","ios":"levelo://app?vid=f8a7ecd4-7c76-4372-935d-226a10f94b52"},"vehicle_type_id":"4","last_reported":1717229367,"current_range_meters":14800,"station_id":"ce4bhqp2rcd13ifvqhog","pricing_plan_id":"cebpf4jnsgd1na2vs0mg"},{"bike_id":"7ead773a-95be-4531-81b8-834d1203a7dc","system_id":"levelo_inurba_marseille","lat":43.32367,"lon":5.388836,"is_reserved":false,"is_disabled":false,"rental_uris":{"android":"levelo://app?vid=7ead773a-95be-4531-81b8-834d1203a7dc","ios":"levelo://app?vid=7ead773a-95be-4531-81b8-834d1203a7dc"},"vehicle_type_id":"4","last_reported":1717229367,"current_range_meters":30000,"station_id":"ce4bhqp2rcd13ifvqhog","pricing_plan_id":"cebpf4jnsgd1na2vs0mg"},{"bike_id":"cca36f60-b35c-44c1-ad93-71a7c16bbb9f","system_id":"levelo_inurba_marseille","lat":43.32367,"lon":5.388836,"is_reserved":false,"is_disabled":false,"rental_uris":{"android":"levelo://app?vid=cca36f60-b35c-44c1-ad93-71a7c16bbb9f","ios":"levelo://app?vid=cca36f60-b35c-44c1-ad93-71a7c16bbb9f"},"vehicle_type_id":"4","last_reported":1717229367,"current_range_meters":27200,"station_id":"ce4bhqp2rcd13ifvqhog","pricing_plan_id":"cebpf4jnsgd1na2vs0mg"},{"bike_id":"484605e0-df3e-45e4-8c65-19dc223ba231","system_id":"levelo_inurba_marseille","lat":43.32365,"lon":5.38889,"is_reserved":false,"is_disabled":false,"rental_uris":{"android":"levelo://app?vid=484605e0-df3e-45e4-8c65-19dc223ba231","ios":"levelo://app?vid=484605e0-df3e-45e4-8c65-19dc223ba231"},"vehicle_type_id":"4","last_reported":1717229367,"current_range_meters":16800,"station_id":"ce4bhqp2rcd13ifvqhog","pricing_plan_id":"cebpf4jnsgd1na2vs0mg"},{"bike_id":"eefdd17b-b8c8-4c4d-9838-098cad96718f","system_id":"levelo_inurba_marseille","lat":43.323697,"lon":5.388945,"is_reserved":false,"is_disabled":false,"rental_uris":{"android":"levelo://app?vid=eefdd17b-b8c8-4c4d-9838-098cad96718f","ios":"levelo://app?vid=eefdd17b-b8c8-4c4d-9838-098cad96718f"},"vehicle_type_id":"4","last_reported":1717229367,"current_range_meters":18000,"station_id":"ce4bhqp2rcd13ifvqhog","pricing_plan_id":"cebpf4jnsgd1na2vs0mg"},{"bike_id":"42e8e9ba-41f1-4529-8cdd-95836c460289","system_id":"levelo_inurba_marseille","lat":43.29601,"lon":5.381084,"is_reserved":false,"is_disabled":false,"rental_uris":{"android":"levelo://app?vid=42e8e9ba-41f1-4529-8cdd-95836c460289","ios":"levelo://app?vid=42e8e9ba-41f1-4529-8cdd-95836c460289"},"vehicle_type_id":"4","last_reported":1717229367,"current_range_meters":26000,"station_id":"ce4bgl12rcd13ifvqbo0","pricing_plan_id":"cebpf4jnsgd1na2vs0mg"},{"bike_id":"7d919fa3-a3b1-47d4-a0bc-68d10a004d62","system_id":"levelo_inurba_marseille","lat":43.29602,"lon":5.381084,"is_reserved":false,"is_disabled":false,"rental_uris":{"android":"levelo://app?vid=7d919fa3-a3b1-47d4-a0bc-68d10a004d62","ios":"levelo://app?vid=7d919fa3-a3b1-47d4-a0bc-68d10a004d62"},"vehicle_type_id":"4","last_reported":1717229367,"current_range_meters":28000,"station_id":"ce4bgl12rcd13ifvqbo0","pricing_plan_id":"cebpf4jnsgd1na2vs0mg"},{"bike_id":"b6b41fb9-dabf-430a-90cd-4d0a7cba47ac","system_id":"levelo_inurba_marseille","lat":43.293249,"lon":5.371578,"is_reserved":false,"is_disabled":false,"rental_uris":{"android":"levelo://app?vid=b6b41fb9-dabf-430a-90cd-4d0a7cba47ac","ios":"levelo://app?vid=b6b41fb9-dabf-430a-90cd-4d0a7cba47ac"},"vehicle_type_id":"4","last_reported":1717229367,"current_range_meters":26000,"station_id":"ce4bgh92rcd13ifvqb40","pricing_plan_id":"cebpf4jnsgd1na2vs0mg"},{"bike_id":"2444b013-84f7-41de-a410-a803643ad1ed","system_id":"levelo_inurba_marseille","lat":43.293259,"lon":5.371586,"is_reserved":false,"is_disabled":false,"rental_uris":{"android":"levelo://app?vid=2444b013-84f7-41de-a410-a803643ad1ed","ios":"levelo://app?vid=2444b013-84f7-41de-a410-a803643ad1ed"},"vehicle_type_id":"4","last_reported":1717229367,"current_range_meters":16800,"station_id":"ce4bgh92rcd13ifvqb40","pricing_plan_id":"cebpf4jnsgd1na2vs0mg"},{"bike_id":"c7a28e34-ce7c-4d2a-a69b-a427797ec300","system_id":"levelo_inurba_marseille","lat":43.292749,"lon":5.368402,"is_reserved":false,"is_disabled":false,"rental_uris":{"android":"levelo://app?vid=c7a28e34-ce7c-4d2a-a69b-a427797ec300","ios":"levelo://app?vid=c7a28e34-ce7c-4d2a-a69b-a427797ec300"},"vehicle_type_id":"4","last_reported":1717229367,"current_range_meters":16800,"station_id":"ce4bhbp2rcd13ifvqesg","pricing_plan_id":"cebpf4jnsgd1na2vs0mg"},{"bike_id":"fc6a868f-29fc-4e00-b326-29d7c3f25c47","system_id":"levelo_inurba_marseille","lat":43.29279,"lon":5.36853,"is_reserved":false,"is_disabled":false,"rental_uris":{"android":"levelo://app?vid=fc6a868f-29fc-4e00-b326-29d7c3f25c47","ios":"levelo://app?vid=fc6a868f-29fc-4e00-b326-29d7c3f25c47"},"vehicle_type_id":"4","last_reported":1717229367,"current_range_meters":26000,"station_id":"ce4bhbp2rcd13ifvqesg","pricing_plan_id":"cebpf4jnsgd1na2vs0mg"},{"bike_id":"ea104352-d7dd-4f3f-9105-35d14a7620d4","system_id":"levelo_inurba_marseille","lat":43.292771,"lon":5.368487,"is_reserved":false,"is_disabled":false,"rental_uris":{"android":"levelo://app?vid=ea104352-d7dd-4f3f-9105-35d14a7620d4","ios":"levelo://app?vid=ea104352-d7dd-4f3f-9105-35d14a7620d4"},"vehicle_type_id":"4","last_reported":1717229367,"current_range_meters":13600,"station_id":"ce4bhbp2rcd13ifvqesg","pricing_plan_id":"cebpf4jnsgd1na2vs0mg"},{"bike_id":"762aafd2-85bf-43aa-b29e-f21b1ddee404","system_id":"levelo_inurba_marseille","lat":43.306517,"lon":5.393071,"is_reserved":false,"is_disabled":false,"rental_uris":{"android":"levelo://app?vid=762aafd2-85bf-43aa-b29e-f21b1ddee404","ios":"levelo://app?vid=762aafd2-85bf-43aa-b29e-f21b1ddee404"},"vehicle_type_id":"4","last_reported":1717229367,"current_range_meters":10000,"station_id":"","pricing_plan_id":"cebpf4jnsgd1na2vs0mg"},{"bike_id":"ed78b1a2-94ae-45c0-966f-da740126259c","system_id":"levelo_inurba_marseille","lat":43.293259,"lon":5.371586,"is_reserved":false,"is_disabled":false,"rental_uris":{"android":"levelo://app?vid=ed78b1a2-94ae-45c0-966f-da740126259c","ios":"levelo://app?vid=ed78b1a2-94ae-45c0-966f-da740126259c"},"vehicle_type_id":"4","last_reported":1717229367,"current_range_meters":8000,"station_id":"ce4bgh92rcd13ifvqb40","pricing_plan_id":"cebpf4jnsgd1na2vs0mg"},{"bike_id":"0daa5a4d-6663-4b39-89a9-a0fadc16099e","system_id":"levelo_inurba_marseille","lat":43.29275,"lon":5.36842,"is_reserved":false,"is_disabled":false,"rental_uris":{"android":"levelo://app?vid=0daa5a4d-6663-4b39-89a9-a0fadc16099e","ios":"levelo://app?vid=0daa5a4d-6663-4b39-89a9-a0fadc16099e"},"vehicle_type_id":"4","last_reported":1717229367,"current_range_meters":24800,"station_id":"ce4bhbp2rcd13ifvqesg","pricing_plan_id":"cebpf4jnsgd1na2vs0mg"},{"bike_id":"d6cc68a1-e4f7-426f-a1f4-88063888d81c","system_id":"levelo_inurba_marseille","lat":43.292749,"lon":5.368402,"is_reserved":false,"is_disabled":false,"rental_uris":{"android":"levelo://app?vid=d6cc68a1-e4f7-426f-a1f4-88063888d81c","ios":"levelo://app?vid=d6cc68a1-e4f7-426f-a1f4-88063888d81c"},"vehicle_type_id":"4","last_reported":1717229367,"current_range_meters":28800,"station_id":"ce4bhbp2rcd13ifvqesg","pricing_plan_id":"cebpf4jnsgd1na2vs0mg"},{"bike_id":"3784e7a5-d21d-4796-b6bf-cd29767d1e42","system_id":"levelo_inurba_marseille","lat":43.292703,"lon":5.36856,"is_reserved":false,"is_disabled":false,"rental_uris":{"android":"levelo://app?vid=3784e7a5-d21d-4796-b6bf-cd29767d1e42","ios":"levelo://app?vid=3784e7a5-d21d-4796-b6bf-cd29767d1e42"},"vehicle_type_id":"4","last_reported":1717229367,"current_range_meters":16800,"station_id":"ce4bhbp2rcd13ifvqesg","pricing_plan_id":"cebpf4jnsgd1na2vs0mg"},{"bike_id":"24390d07-6256-4408-af48-7fd2468fe753","system_id":"levelo_inurba_marseille","lat":43.2927,"lon":5.3686,"is_reserved":false,"is_disabled":false,"rental_uris":{"android":"levelo://app?vid=24390d07-6256-4408-af48-7fd2468fe753","ios":"levelo://app?vid=24390d07-6256-4408-af48-7fd2468fe753"},"vehicle_type_id":"4","last_reported":1717229367,"current_range_meters":30000,"station_id":"ce4bhbp2rcd13ifvqesg","pricing_plan_id":"cebpf4jnsgd1na2vs0mg"},{"bike_id":"237eb81a-8b11-4b0a-b17a-5267340305c4","system_id":"levelo_inurba_marseille","lat":43.292749,"lon":5.368398,"is_reserved":false,"is_disabled":false,"rental_uris":{"android":"levelo://app?vid=237eb81a-8b11-4b0a-b17a-5267340305c4","ios":"levelo://app?vid=237eb81a-8b11-4b0a-b17a-5267340305c4"},"vehicle_type_id":"4","last_reported":1717229367,"current_range_meters":2000,"station_id":"ce4bhbp2rcd13ifvqesg","pricing_plan_id":"cebpf4jnsgd1na2vs0mg"},{"bike_id":"f87b5c90-7cf4-45e1-a7f2-a93a250f075e","system_id":"levelo_inurba_marseille","lat":43.29269,"lon":5.36855,"is_reserved":false,"is_disabled":false,"rental_uris":{"android":"levelo://app?vid=f87b5c90-7cf4-45e1-a7f2-a93a250f075e","ios":"levelo://app?vid=f87b5c90-7cf4-45e1-a7f2-a93a250f075e"},"vehicle_type_id":"4","last_reported":1717229367,"current_range_meters":27200,"station_id":"ce4bhbp2rcd13ifvqesg","pricing_plan_id":"cebpf4jnsgd1na2vs0mg"},{"bike_id":"185e3a87-cf91-44a2-8314-6b93e53a0478","system_id":"levelo_inurba_marseille","lat":43.293259,"lon":5.371586,"is_reserved":false,"is_disabled":false,"rental_uris":{"android":"levelo://app?vid=185e3a87-cf91-44a2-8314-6b93e53a0478","ios":"levelo://app?vid=185e3a87-cf91-44a2-8314-6b93e53a0478"},"vehicle_type_id":"4","last_reported":1717229367,"current_range_meters":20800,"station_id":"ce4bgh92rcd13ifvqb40","pricing_plan_id":"cebpf4jnsgd1na2vs0mg"},{"bike_id":"0157a088-2def-40e7-a3f3-3e7df69f0b7c","system_id":"levelo_inurba_marseille","lat":43.292749,"lon":5.368402,"is_reserved":false,"is_disabled":false,"rental_uris":{"android":"levelo://app?vid=0157a088-2def-40e7-a3f3-3e7df69f0b7c","ios":"levelo://app?vid=0157a088-2def-40e7-a3f3-3e7df69f0b7c"},"vehicle_type_id":"4","last_reported":1717229367,"current_range_meters":12800,"station_id":"ce4bhbp2rcd13ifvqesg","pricing_plan_id":"cebpf4jnsgd1na2vs0mg"},{"bike_id":"b0e80bb7-dec8-483d-8499-2d25a221db69","system_id":"levelo_inurba_marseille","lat":43.29265,"lon":5.36853,"is_reserved":false,"is_disabled":false,"rental_uris":{"android":"levelo://app?vid=b0e80bb7-dec8-483d-8499-2d25a221db69","ios":"levelo://app?vid=b0e80bb7-dec8-483d-8499-2d25a221db69"},"vehicle_type_id":"4","last_reported":1717229367,"current_range_meters":3200,"station_id":"ce4bhbp2rcd13ifvqesg","pricing_plan_id":"cebpf4jnsgd1na2vs0mg"},{"bike_id":"9aaf0777-262d-44a8-b99f-0a94fd0c510a","system_id":"levelo_inurba_marseille","lat":43.29264,"lon":5.36853,"is_reserved":false,"is_disabled":false,"rental_uris":{"android":"levelo://app?vid=9aaf0777-262d-44a8-b99f-0a94fd0c510a","ios":"levelo://app?vid=9aaf0777-262d-44a8-b99f-0a94fd0c510a"},"vehicle_type_id":"4","last_reported":1717229367,"current_range_meters":14000,"station_id":"ce4bhbp2rcd13ifvqesg","pricing_plan_id":"cebpf4jnsgd1na2vs0mg"},{"bike_id":"e34d1e32-ae2a-4898-a88c-cffefae1b9b9","system_id":"levelo_inurba_marseille","lat":43.292749,"lon":5.368402,"is_reserved":false,"is_disabled":false,"rental_uris":{"android":"levelo://app?vid=e34d1e32-ae2a-4898-a88c-cffefae1b9b9","ios":"levelo://app?vid=e34d1e32-ae2a-4898-a88c-cffefae1b9b9"},"vehicle_type_id":"4","last_reported":1717229367,"current_range_meters":12800,"station_id":"ce4bhbp2rcd13ifvqesg","pricing_plan_id":"cebpf4jnsgd1na2vs0mg"},{"bike_id":"85a9417a-2f70-475b-8c6a-7ac4c9b44244","system_id":"levelo_inurba_marseille","lat":43.293009,"lon":5.374584,"is_reserved":false,"is_disabled":false,"rental_uris":{"android":"levelo://app?vid=85a9417a-2f70-475b-8c6a-7ac4c9b44244","ios":"levelo://app?vid=85a9417a-2f70-475b-8c6a-7ac4c9b44244"},"vehicle_type_id":"4","last_reported":1717229367,"current_range_meters":20000,"station_id":"ce4bgi12rcd13ifvqb70","pricing_plan_id":"cebpf4jnsgd1na2vs0mg"},{"bike_id":"ef32aa07-6a0c-42ec-821d-5d9279463354","system_id":"levelo_inurba_marseille","lat":43.293009,"lon":5.374584,"is_reserved":false,"is_disabled":false,"rental_uris":{"android":"levelo://app?vid=ef32aa07-6a0c-42ec-821d-5d9279463354","ios":"levelo://app?vid=ef32aa07-6a0c-42ec-821d-5d9279463354"},"vehicle_type_id":"4","last_reported":1717229367,"current_range_meters":30000,"station_id":"ce4bgi12rcd13ifvqb70","pricing_plan_id":"cebpf4jnsgd1na2vs0mg"},{"bike_id":"93fc8d49-f6f2-47ca-b28d-b9ce5620a46a","system_id":"levelo_inurba_marseille","lat":43.293009,"lon":5.374584,"is_reserved":false,"is_disabled":false,"rental_uris":{"android":"levelo://app?vid=93fc8d49-f6f2-47ca-b28d-b9ce5620a46a","ios":"levelo://app?vid=93fc8d49-f6f2-47ca-b28d-b9ce5620a46a"},"vehicle_type_id":"4","last_reported":1717229367,"current_range_meters":16800,"station_id":"ce4bgi12rcd13ifvqb70","pricing_plan_id":"cebpf4jnsgd1na2vs0mg"},{"bike_id":"40ab25b8-5efc-4590-9e1f-561a322c7554","system_id":"levelo_inurba_marseille","lat":43.293009,"lon":5.374584,"is_reserved":false,"is_disabled":false,"rental_uris":{"android":"levelo://app?vid=40ab25b8-5efc-4590-9e1f-561a322c7554","ios":"levelo://app?vid=40ab25b8-5efc-4590-9e1f-561a322c7554"},"vehicle_type_id":"4","last_reported":1717229367,"current_range_meters":4800,"station_id":"ce4bgi12rcd13ifvqb70","pricing_plan_id":"cebpf4jnsgd1na2vs0mg"},{"bike_id":"5f72b804-6566-433b-a4b9-581258ffacba","system_id":"levelo_inurba_marseille","lat":43.293009,"lon":5.374584,"is_reserved":false,"is_disabled":false,"rental_uris":{"android":"levelo://app?vid=5f72b804-6566-433b-a4b9-581258ffacba","ios":"levelo://app?vid=5f72b804-6566-433b-a4b9-581258ffacba"},"vehicle_type_id":"4","last_reported":1717229367,"current_range_meters":20400,"station_id":"ce4bgi12rcd13ifvqb70","pricing_plan_id":"cebpf4jnsgd1na2vs0mg"},{"bike_id":"9a9f15f8-278d-4a09-aa8a-8f22cbdcd540","system_id":"levelo_inurba_marseille","lat":43.305994,"lon":5.393687,"is_reserved":false,"is_disabled":false,"rental_uris":{"android":"levelo://app?vid=9a9f15f8-278d-4a09-aa8a-8f22cbdcd540","ios":"levelo://app?vid=9a9f15f8-278d-4a09-aa8a-8f22cbdcd540"},"vehicle_type_id":"4","last_reported":1717229367,"current_range_meters":30400,"station_id":"ce4bh0p2rcd13ifvqd80","pricing_plan_id":"cebpf4jnsgd1na2vs0mg"},{"bike_id":"507b5d74-21e5-42e2-97a9-45a9f4f3d9ba","system_id":"levelo_inurba_marseille","lat":43.293009,"lon":5.374584,"is_reserved":false,"is_disabled":false,"rental_uris":{"android":"levelo://app?vid=507b5d74-21e5-42e2-97a9-45a9f4f3d9ba","ios":"levelo://app?vid=507b5d74-21e5-42e2-97a9-45a9f4f3d9ba"},"vehicle_type_id":"4","last_reported":1717229367,"current_range_meters":4000,"station_id":"ce4bgi12rcd13ifvqb70","pricing_plan_id":"cebpf4jnsgd1na2vs0mg"},{"bike_id":"cfc78c09-cff7-4a0b-8b7c-687b6d8c0958","system_id":"levelo_inurba_marseille","lat":43.293009,"lon":5.374584,"is_reserved":false,"is_disabled":false,"rental_uris":{"android":"levelo://app?vid=cfc78c09-cff7-4a0b-8b7c-687b6d8c0958","ios":"levelo://app?vid=cfc78c09-cff7-4a0b-8b7c-687b6d8c0958"},"vehicle_type_id":"4","last_reported":1717229367,"current_range_meters":23200,"station_id":"ce4bgi12rcd13ifvqb70","pricing_plan_id":"cebpf4jnsgd1na2vs0mg"},