{"last_updated":1768853623,"ttl":60,"version":"2.2","data":{"bikes":[{"bike_id":"4f2dd164-7013-43b2-a24e-bc13e5296f6a","system_id":"levelo_inurba_marseille","lat":43.2415,"lon":5.39722,"is_reserved":false,"is_disabled":false,"rental_uris":{"android":"levelo://app?vid=4f2dd164-7013-43b2-a24e-bc13e5296f6a","ios":"levelo://app?vid=4f2dd164-7013-43b2-a24e-bc13e5296f6a"},"vehicle_type_id":"4","last_reported":1768853624,"current_range_meters":2800,"station_id":"ce4bhn12rcd13ifvqgpg","pricing_plan_id":"cebpf4jnsgd1na2vs0mg"},{"bike_id":"ded7fa61-510e-4eba-97c7-e012506f37d3","system_id":"levelo_inurba_marseille","lat":43.25576,"lon":5.38236,"is_reserved":false,"is_disabled":false,"rental_uris":{"android":"levelo://app?vid=ded7fa61-510e-4eba-97c7-e012506f37d3","ios":"levelo://app?vid=ded7fa61-510e-4eba-97c7-e012506f37d3"},"vehicle_type_id":"4","last_reported":1768853624,"current_range_meters":2800,"station_id":"ce4bhih2rcd13ifvqfs0","pricing_plan_id":"cebpf4jnsgd1na2vs0mg"},{"bike_id":"647288bf-54fa-45ff-8ea0-facbe210c3f6","system_id":"levelo_inurba_marseille","lat":43.303264,"lon":5.404275,"is_reserved":false,"is_disabled":false,"rental_uris":{"android":"levelo://app?vid=647288bf-54fa-45ff-8ea0-facbe210c3f6","ios":"levelo://app?vid=647288bf-54fa-45ff-8ea0-facbe210c3f6"},"vehicle_type_id":"4","last_reported":1768853624,"current_range_meters":2800,"station_id":"ce4bh012rcd13ifvqd10","pricing_plan_id":"cebpf4jnsgd1na2vs0mg"},{"bike_id":"fdd115d7-6361-4f02-a3d2-cb509d5ad156","system_id":"levelo_inurba_marseille","lat":43.28364,"lon":5.38603,"is_reserved":false,"is_disabled":false,"rental_uris":{"android":"levelo://app?vid=fdd115d7-6361-4f02-a3d2-cb509d5ad156","ios":"levelo://app?vid=fdd115d7-6361-4f02-a3d2-cb509d5ad156"},"vehicle_type_id":"4","last_reported":1768853624,"current_range_meters":2800,"station_id":"ce4bh492rcd13ifvqdvg","pricing_plan_id":"cebpf4jnsgd1na2vs0mg"},{"bike_id":"415591d7-6852-426a-a156-4f4f75f55905","system_id":"levelo_inurba_marseille","lat":43.28359,"lon":5.38639,"is_reserved":false,"is_disabled":false,"rental_uris":{"android":"levelo://app?vid=415591d7-6852-426a-a156-4f4f75f55905","ios":"levelo://app?vid=415591d7-6852-426a-a156-4f4f75f55905"},"vehicle_type_id":"4","last_reported":1768853624,"current_range_meters":2800,"station_id":"ce4bh492rcd13ifvqdvg","pricing_plan_id":"cebpf4jnsgd1na2vs0mg"},{"bike_id":"7412c706-ad5c-4e88-bf64-50c742c87cb3","system_id":"levelo_inurba_marseille","lat":43.29196,"lon":5.39317,"is_reserved":false,"is_disabled":false,"rental_uris":{"android":"levelo://app?vid=7412c706-ad5c-4e88-bf64-50c742c87cb3","ios":"levelo://app?vid=7412c706-ad5c-4e88-bf64-50c742c87cb3"},"vehicle_type_id":"4","last_reported":1768853624,"current_range_meters":2800,"station_id":"ce4bh192rcd13ifvqdd0","pricing_plan_id":"cebpf4jnsgd1na2vs0mg"},{"bike_id":"c3bc9679-d913-4025-9698-6b90a9f1f44e","system_id":"levelo_inurba_marseille","lat":43.30928,"lon":5.40141,"is_reserved":false,"is_disabled":false,"rental_uris":{"android":"levelo://app?vid=c3bc9679-d913-4025-9698-6b90a9f1f44e","ios":"levelo://app?vid=c3bc9679-d913-4025-9698-6b90a9f1f44e"},"vehicle_type_id":"4","last_reported":1768853624,"current_range_meters":2800,"station_id":"ce4bgvp2rcd13ifvqct0","pricing_plan_id":"cebpf4jnsgd1na2vs0mg"},{"bike_id":"686cbb6b-5805-4425-b812-97572b6aaff4","system_id":"levelo_inurba_marseille","lat":43.26215,"lon":5.37444,"is_reserved":false,"is_disabled":false,"rental_uris":{"android":"levelo://app?vid=686cbb6b-5805-4425-b812-97572b6aaff4","ios":"levelo://app?vid=686cbb6b-5805-4425-b812-97572b6aaff4"},"vehicle_type_id":"4","last_reported":1768853624,"current_range_meters":3200,"station_id":"ce4bhgp2rcd13ifvqfc0","pricing_plan_id":"cebpf4jnsgd1na2vs0mg"},{"bike_id":"388f4c92-539c-4501-96e9-5f308a307179","system_id":"levelo_inurba_marseille","lat":43.31212,"lon":5.36881,"is_reserved":false,"is_disabled":false,"rental_uris":{"android":"levelo://app?vid=388f4c92-539c-4501-96e9-5f308a307179","ios":"levelo://app?vid=388f4c92-539c-4501-96e9-5f308a307179"},"vehicle_type_id":"4","last_reported":1768853624,"current_range_meters":3200,"station_id":"ce4bgl92rcd13ifvqbq0","pricing_plan_id":"cebpf4jnsgd1na2vs0mg"},{"bike_id":"cbfcf099-c545-44e9-852c-93ab5328e5c5","system_id":"levelo_inurba_marseille","lat":43.24178,"lon":5.397272,"is_reserved":false,"is_disabled":false,"rental_uris":{"android":"levelo://app?vid=cbfcf099-c545-44e9-852c-93ab5328e5c5","ios":"levelo://app?vid=cbfcf099-c545-44e9-852c-93ab5328e5c5"},"vehicle_type_id":"4","last_reported":1768853624,"current_range_meters":3200,"station_id":"ce4bhn12rcd13ifvqgpg","pricing_plan_id":"cebpf4jnsgd1na2vs0mg"},{"bike_id":"19fc464d-0d4d-48b4-9593-423f325faac5","system_id":"levelo_inurba_marseille","lat":43.22559,"lon":5.41622,"is_reserved":false,"is_disabled":false,"rental_uris":{"android":"levelo://app?vid=19fc464d-0d4d-48b4-9593-423f325faac5","ios":"levelo://app?vid=19fc464d-0d4d-48b4-9593-423f325faac5"},"vehicle_type_id":"4","last_reported":1768853624,"current_range_meters":3200,"station_id":"st_d2o4gvlbi1j2169b742g","pricing_plan_id":"cebpf4jnsgd1na2vs0mg"},{"bike_id":"f52db266-1287-475c-a94a-9b91756deae3","system_id":"levelo_inurba_marseille","lat":43.25851,"lon":5.39906,"is_reserved":false,"is_disabled":false,"rental_uris":{"android":"levelo://app?vid=f52db266-1287-475c-a94a-9b91756deae3","ios":"levelo://app?vid=f52db266-1287-475c-a94a-9b91756deae3"},"vehicle_type_id":"4","last_reported":1768853624,"current_range_meters":3200,"station_id":"ce4bhl92rcd13ifvqghg","pricing_plan_id":"cebpf4jnsgd1na2vs0mg"},{"bike_id":"cbb0217e-1162-4111-9529-6944c2f11a5b","system_id":"levelo_inurba_marseille","lat":43.28479,"lon":5.48395,"is_reserved":false,"is_disabled":false,"rental_uris":{"android":"levelo://app?vid=cbb0217e-1162-4111-9529-6944c2f11a5b","ios":"levelo://app?vid=cbb0217e-1162-4111-9529-6944c2f11a5b"},"vehicle_type_id":"4","last_reported":1768853624,"current_range_meters":3200,"station_id":"","pricing_plan_id":"cebpf4jnsgd1na2vs0mg"},{"bike_id":"3e542e2c-d19c-46d5-a93c-5ce7bb053717","system_id":"levelo_inurba_marseille","lat":43.24809,"lon":5.37477,"is_reserved":false,"is_disabled":false,"rental_uris":{"android":"levelo://app?vid=3e542e2c-d19c-46d5-a93c-5ce7bb053717","ios":"levelo://app?vid=3e542e2c-d19c-46d5-a93c-5ce7bb053717"},"vehicle_type_id":"4","last_reported":1768853624,"current_range_meters":3200,"station_id":"ce4bhgh2rcd13ifvqfb0","pricing_plan_id":"cebpf4jnsgd1na2vs0mg"},{"bike_id":"4a8856ad-7dc9-4f2c-9db0-7a501705d2a9","system_id":"levelo_inurba_marseille","lat":43.2558,"lon":5.38235,"is_reserved":false,"is_disabled":false,"rental_uris":{"android":"levelo://app?vid=4a8856ad-7dc9-4f2c-9db0-7a501705d2a9","ios":"levelo://app?vid=4a8856ad-7dc9-4f2c-9db0-7a501705d2a9"},"vehicle_type_id":"4","last_reported":1768853624,"current_range_meters":3200,"station_id":"ce4bhih2rcd13ifvqfs0","pricing_plan_id":"cebpf4jnsgd1na2vs0mg"},{"bike_id":"6e732b0b-6a90-42b3-949e-3a1856e3e817","system_id":"levelo_inurba_marseille","lat":43.284048,"lon":5.37515,"is_reserved":false,"is_disabled":false,"rental_uris":{"android":"levelo://app?vid=6e732b0b-6a90-42b3-949e-3a1856e3e817","ios":"levelo://app?vid=6e732b0b-6a90-42b3-949e-3a1856e3e817"},"vehicle_type_id":"4","last_reported":1768853624,"current_range_meters":3200,"station_id":"ce4bh412rcd13ifvqds0","pricing_plan_id":"cebpf4jnsgd1na2vs0mg"},{"bike_id":"e6ab20c9-a659-4902-bd62-abdf507eb375","system_id":"levelo_inurba_marseille","lat":43.2834,"lon":5.38113,"is_reserved":false,"is_disabled":false,"rental_uris":{"android":"levelo://app?vid=e6ab20c9-a659-4902-bd62-abdf507eb375","ios":"levelo://app?vid=e6ab20c9-a659-4902-bd62-abdf507eb375"},"vehicle_type_id":"4","last_reported":1768853624,"current_range_meters":3200,"station_id":"ce4bh412rcd13ifvqdr0","pricing_plan_id":"cebpf4jnsgd1na2vs0mg"},{"bike_id":"28b572ae-d394-4b45-9e6c-56714fae435c","system_id":"levelo_inurba_marseille","lat":43.30397,"lon":5.40968,"is_reserved":false,"is_disabled":false,"rental_uris":{"android":"levelo://app?vid=28b572ae-d394-4b45-9e6c-56714fae435c","ios":"levelo://app?vid=28b572ae-d394-4b45-9e6c-56714fae435c"},"vehicle_type_id":"4","last_reported":1768853624,"current_range_meters":3200,"station_id":"","pricing_plan_id":"cebpf4jnsgd1na2vs0mg"},{"bike_id":"a3ef314e-17ff-4b63-a41e-7a5b0c184673","system_id":"levelo_inurba_marseille","lat":43.29002,"lon":5.35605,"is_reserved":false,"is_disabled":false,"rental_uris":{"android":"levelo://app?vid=a3ef314e-17ff-4b63-a41e-7a5b0c184673","ios":"levelo://app?vid=a3ef314e-17ff-4b63-a41e-7a5b0c184673"},"vehicle_type_id":"4","last_reported":1768853624,"current_range_meters":3200,"station_id":"ce4bhb92rcd13ifvqen0","pricing_plan_id":"cebpf4jnsgd1na2vs0mg"},{"bike_id":"821c9dc0-d2d7-4ec0-ba6d-778137fbc9c5","system_id":"levelo_inurba_marseille","lat":43.21747,"lon":5.34601,"is_reserved":false,"is_disabled":false,"rental_uris":{"android":"levelo://app?vid=821c9dc0-d2d7-4ec0-ba6d-778137fbc9c5","ios":"levelo://app?vid=821c9dc0-d2d7-4ec0-ba6d-778137fbc9c5"},"vehicle_type_id":"4","last_reported":1768853624,"current_range_meters":3200,"station_id":"st_cvj6r9ubvosntc0bgbag","pricing_plan_id":"cebpf4jnsgd1na2vs0mg"},{"bike_id":"1efd8771-c3d5-49d2-a669-045ea31d0385","system_id":"levelo_inurba_marseille","lat":43.28436,"lon":5.39202,"is_reserved":false,"is_disabled":false,"rental_uris":{"android":"levelo://app?vid=1efd8771-c3d5-49d2-a669-045ea31d0385","ios":"levelo://app?vid=1efd8771-c3d5-49d2-a669-045ea31d0385"},"vehicle_type_id":"4","last_reported":1768853624,"current_range_meters":3200,"station_id":"ce4bhoh2rcd13ifvqh5g","pricing_plan_id":"cebpf4jnsgd1na2vs0mg"},{"bike_id":"e15e1e9a-07e3-422f-969a-2140bd654cc5","system_id":"levelo_inurba_marseille","lat":43.29876,"lon":5.38903,"is_reserved":false,"is_disabled":false,"rental_uris":{"android":"levelo://app?vid=e15e1e9a-07e3-422f-969a-2140bd654cc5","ios":"levelo://app?vid=e15e1e9a-07e3-422f-969a-2140bd654cc5"},"vehicle_type_id":"4","last_reported":1768853624,"current_range_meters":3200,"station_id":"ce4bh392rcd13ifvqdl0","pricing_plan_id":"cebpf4jnsgd1na2vs0mg"},{"bike_id":"ed7c339b-faef-438a-8ef5-b9ec1382e39d","system_id":"levelo_inurba_marseille","lat":43.28867,"lon":5.42531,"is_reserved":false,"is_disabled":false,"rental_uris":{"android":"levelo://app?vid=ed7c339b-faef-438a-8ef5-b9ec1382e39d","ios":"levelo://app?vid=ed7c339b-faef-438a-8ef5-b9ec1382e39d"},"vehicle_type_id":"4","last_reported":1768853624,"current_range_meters":3600,"station_id":"st_d3b462108ojc7389ooeg","pricing_plan_id":"cebpf4jnsgd1na2vs0mg"},{"bike_id":"9362b4b1-180e-47a2-9c96-46810859e36b","system_id":"levelo_inurba_marseille","lat":43.28618,"lon":5.35102,"is_reserved":false,"is_disabled":false,"rental_uris":{"android":"levelo://app?vid=9362b4b1-180e-47a2-9c96-46810859e36b","ios":"levelo://app?vid=9362b4b1-180e-47a2-9c96-46810859e36b"},"vehicle_type_id":"4","last_reported":1768853624,"current_range_meters":3600,"station_id":"ce4bhch2rcd13ifvqeug","pricing_plan_id":"cebpf4jnsgd1na2vs0mg"},{"bike_id":"ab5489bc-20fa-410c-92ad-1c61733680f6","system_id":"levelo_inurba_marseille","lat":43.31234,"lon":5.36845,"is_reserved":false,"is_disabled":false,"rental_uris":{"android":"levelo://app?vid=ab5489bc-20fa-410c-92ad-1c61733680f6","ios":"levelo://app?vid=ab5489bc-20fa-410c-92ad-1c61733680f6"},"vehicle_type_id":"4","last_reported":1768853624,"current_range_meters":3600,"station_id":"ce4bgl92rcd13ifvqbq0","pricing_plan_id":"cebpf4jnsgd1na2vs0mg"},{"bike_id":"921bac40-df7b-4f4b-af86-6fcd1357c8a9","system_id":"levelo_inurba_marseille","lat":43.29792,"lon":5.39347,"is_reserved":false,"is_disabled":false,"rental_uris":{"android":"levelo://app?vid=921bac40-df7b-4f4b-af86-6fcd1357c8a9","ios":"levelo://app?vid=921bac40-df7b-4f4b-af86-6fcd1357c8a9"},"vehicle_type_id":"4","last_reported":1768853624,"current_range_meters":3600,"station_id":"chh1huq6cuj3fo74tm60","pricing_plan_id":"cebpf4jnsgd1na2vs0mg"},{"bike_id":"5dc6f01a-593a-4aab-9283-e89a465b0c48","system_id":"levelo_inurba_marseille","lat":43.29531,"lon":5.38541,"is_reserved":false,"is_disabled":false,"rental_uris":{"android":"levelo://app?vid=5dc6f01a-593a-4aab-9283-e89a465b0c48","ios":"levelo://app?vid=5dc6f01a-593a-4aab-9283-e89a465b0c48"},"vehicle_type_id":"4","last_reported":1768853624,"current_range_meters":3600,"station_id":"ce4bgih2rcd13ifvqba0","pricing_plan_id":"cebpf4jnsgd1na2vs0mg"},{"bike_id":"4e504fb0-fe56-4573-bfbf-8013551c3d1e","system_id":"levelo_inurba_marseille","lat":43.22935,"lon":5.35364,"is_reserved":false,"is_disabled":false,"rental_uris":{"android":"levelo://app?vid=4e504fb0-fe56-4573-bfbf-8013551c3d1e","ios":"levelo://app?vid=4e504fb0-fe56-4573-bfbf-8013551c3d1e"},"vehicle_type_id":"4","last_reported":1768853624,"current_range_meters":3600,"station_id":"cpo3532slgdg3j2ikp40","pricing_plan_id":"cebpf4jnsgd1na2vs0mg"},{"bike_id":"4fbf0725-8587-4fe7-9ea7-29f4c621497d","system_id":"levelo_inurba_marseille","lat":43.28,"lon":5.40007,"is_reserved":false,"is_disabled":false,"rental_uris":{"android":"levelo://app?vid=4fbf0725-8587-4fe7-9ea7-29f4c621497d","ios":"levelo://app?vid=4fbf0725-8587-4fe7-9ea7-29f4c621497d"},"vehicle_type_id":"4","last_reported":1768853624,"current_range_meters":3600,"station_id":"ce4bho92rcd13ifvqh4g","pricing_plan_id":"cebpf4jnsgd1na2vs0mg"},{"bike_id":"990fe401-cb57-4086-98ac-c1591152a387","system_id":"levelo_inurba_marseille","lat":43.25582,"lon":5.38233,"is_reserved":false,"is_disabled":false,"rental_uris":{"android":"levelo://app?vid=990fe401-cb57-4086-98ac-c1591152a387","ios":"levelo://app?vid=990fe401-cb57-4086-98ac-c1591152a387"},"vehicle_type_id":"4","last_reported":1768853624,"current_range_meters":3600,"station_id":"ce4bhih2rcd13ifvqfs0","pricing_plan_id":"cebpf4jnsgd1na2vs0mg"},{"bike_id":"cd6c0d5f-54f3-4be9-b21d-d0441c9b0397","system_id":"levelo_inurba_marseille","lat":43.28475,"lon":5.48389,"is_reserved":false,"is_disabled":false,"rental_uris":{"android":"levelo://app?vid=cd6c0d5f-54f3-4be9-b21d-d0441c9b0397","ios":"levelo://app?vid=cd6c0d5f-54f3-4be9-b21d-d0441c9b0397"},"vehicle_type_id":"4","last_reported":1768853624,"current_range_meters":3600,"station_id":"st_d3svhcjqgbts73a3dn0g","pricing_plan_id":"cebpf4jnsgd1na2vs0mg"},{"bike_id":"b551ef05-f836-4853-960c-473fc7e36c29","system_id":"levelo_inurba_marseille","lat":43.28435,"lon":5.39196,"is_reserved":false,"is_disabled":false,"rental_uris":{"android":"levelo://app?vid=b551ef05-f836-4853-960c-473fc7e36c29","ios":"levelo://app?vid=b551ef05-f836-4853-960c-473fc7e36c29"},"vehicle_type_id":"4","last_reported":1768853624,"current_range_meters":3600,"station_id":"ce4bhoh2rcd13ifvqh5g","pricing_plan_id":"cebpf4jnsgd1na2vs0mg"},{"bike_id":"2243ea7a-5eee-4ee0-ba34-45f2b9359d7f","system_id":"levelo_inurba_marseille","lat":43.23781,"lon":5.36623,"is_reserved":false,"is_disabled":false,"rental_uris":{"android":"levelo://app?vid=2243ea7a-5eee-4ee0-ba34-45f2b9359d7f","ios":"levelo://app?vid=2243ea7a-5eee-4ee0-ba34-45f2b9359d7f"},"vehicle_type_id":"4","last_reported":1768853624,"current_range_meters":3600,"station_id":"st_d3nk18o9ro0c73en2l3g","pricing_plan_id":"cebpf4jnsgd1na2vs0mg"},{"bike_id":"b2032dcb-950a-42a8-a13f-76c2640904bf","system_id":"levelo_inurba_marseille","lat":43.28843,"lon":5.39307,"is_reserved":false,"is_disabled":false,"rental_uris":{"android":"levelo://app?vid=b2032dcb-950a-42a8-a13f-76c2640904bf","ios":"levelo://app?vid=b2032dcb-950a-42a8-a13f-76c2640904bf"},"vehicle_type_id":"4","last_reported":1768853624,"current_range_meters":3600,"station_id":"ce4bh2p2rcd13ifvqdi0","pricing_plan_id":"cebpf4jnsgd1na2vs0mg"},{"bike_id":"67c0872c-5188-4486-8452-c46c870a6be6","system_id":"levelo_inurba_marseille","lat":43.26059,"lon":5.39394,"is_reserved":false,"is_disabled":false,"rental_uris":{"android":"levelo://app?vid=67c0872c-5188-4486-8452-c46c870a6be6","ios":"levelo://app?vid=67c0872c-5188-4486-8452-c46c870a6be6"},"vehicle_type_id":"4","last_reported":1768853624,"current_range_meters":3600,"station_id":"ce4bhh92rcd13ifvqfj0","pricing_plan_id":"cebpf4jnsgd1na2vs0mg"},{"bike_id":"07310a62-98e8-47db-8be8-b7e734197082","system_id":"levelo_inurba_marseille","lat":43.24658,"lon":5.3814,"is_reserved":false,"is_disabled":false,"rental_uris":{"android":"levelo://app?vid=07310a62-98e8-47db-8be8-b7e734197082","ios":"levelo://app?vid=07310a62-98e8-47db-8be8-b7e734197082"},"vehicle_type_id":"4","last_reported":1768853624,"current_range_meters":3600,"station_id":"ce4bhih2rcd13ifvqfr0","pricing_plan_id":"cebpf4jnsgd1na2vs0mg"},{"bike_id":"e85c21ba-c433-43c9-bbf1-0495b1f8402b","system_id":"levelo_inurba_marseille","lat":43.31069,"lon":5.37175,"is_reserved":false,"is_disabled":false,"rental_uris":{"android":"levelo://app?vid=e85c21ba-c433-43c9-bbf1-0495b1f8402b","ios":"levelo://app?vid=e85c21ba-c433-43c9-bbf1-0495b1f8402b"},"vehicle_type_id":"4","last_reported":1768853624,"current_range_meters":3600,"station_id":"st_d4kl2rp97mjs73e7tdfg","pricing_plan_id":"cebpf4jnsgd1na2vs0mg"},{"bike_id":"b5adf723-77e9-4d55-9df0-fefae359ecf3","system_id":"levelo_inurba_marseille","lat":43.30297,"lon":5.39223,"is_reserved":false,"is_disabled":false,"rental_uris":{"android":"levelo://app?vid=b5adf723-77e9-4d55-9df0-fefae359ecf3","ios":"levelo://app?vid=b5adf723-77e9-4d55-9df0-fefae359ecf3"},"vehicle_type_id":"4","last_reported":1768853624,"current_range_meters":3600,"station_id":"ce4bgkh2rcd13ifvqbk0","pricing_plan_id":"cebpf4jnsgd1na2vs0mg"},{"bike_id":"a206c9a5-193f-456d-81eb-4bcf89997a0e","system_id":"levelo_inurba_marseille","lat":43.27807,"lon":5.40721,"is_reserved":false,"is_disabled":false,"rental_uris":{"android":"levelo://app?vid=a206c9a5-193f-456d-81eb-4bcf89997a0e","ios":"levelo://app?vid=a206c9a5-193f-456d-81eb-4bcf89997a0e"},"vehicle_type_id":"4","last_reported":1768853624,"current_range_meters":4000,"station_id":"ce4bhnh2rcd13ifvqgtg","pricing_plan_id":"cebpf4jnsgd1na2vs0mg"},{"bike_id":"17e67adc-d388-4e3d-a9ce-7e5849262d1f","system_id":"levelo_inurba_marseille","lat":43.285288,"lon":5.440981,"is_reserved":false,"is_disabled":false,"rental_uris":{"android":"levelo://app?vid=17e67adc-d388-4e3d-a9ce-7e5849262d1f","ios":"levelo://app?vid=17e67adc-d388-4e3d-a9ce-7e5849262d1f"},"vehicle_type_id":"4","last_reported":1768853624,"current_range_meters":4000,"station_id":"st_d3j3df2ikq2c7380ej80","pricing_plan_id":"cebpf4jnsgd1na2vs0mg"},{"bike_id":"810b34a8-b148-4e2d-8e9c-04f4b58eedc2","system_id":"levelo_inurba_marseille","lat":43.26044,"lon":5.3862,"is_reserved":false,"is_disabled":false,"rental_uris":{"android":"levelo://app?vid=810b34a8-b148-4e2d-8e9c-04f4b58eedc2","ios":"levelo://app?vid=810b34a8-b148-4e2d-8e9c-04f4b58eedc2"},"vehicle_type_id":"4","last_reported":1768853624,"current_range_meters":4000,"station_id":"","pricing_plan_id":"cebpf4jnsgd1na2vs0mg"},{"bike_id":"26358ecb-ac8c-418f-b2eb-c93d2f2c1384","system_id":"levelo_inurba_marseille","lat":43.24811,"lon":5.37464,"is_reserved":false,"is_disabled":false,"rental_uris":{"android":"levelo://app?vid=26358ecb-ac8c-418f-b2eb-c93d2f2c1384","ios":"levelo://app?vid=26358ecb-ac8c-418f-b2eb-c93d2f2c1384"},"vehicle_type_id":"4","last_reported":1768853624,"current_range_meters":4000,"station_id":"ce4bhgh2rcd13ifvqfb0","pricing_plan_id":"cebpf4jnsgd1na2vs0mg"},{"bike_id":"be565ace-e38a-45b3-9c8d-ac45411d29e9","system_id":"levelo_inurba_marseille","lat":43.31067,"lon":5.38348,"is_reserved":false,"is_disabled":false,"rental_uris":{"android":"levelo://app?vid=be565ace-e38a-45b3-9c8d-ac45411d29e9","ios":"levelo://app?vid=be565ace-e38a-45b3-9c8d-ac45411d29e9"},"vehicle_type_id":"4","last_reported":1768853624,"current_range_meters":4000,"station_id":"ce4bgv92rcd13ifvqcr0","pricing_plan_id":"cebpf4jnsgd1na2vs0mg"},{"bike_id":"500a807b-2dab-4995-a78d-d98aedb6eb89","system_id":"levelo_inurba_marseille","lat":43.27184,"lon":5.40991,"is_reserved":false,"is_disabled":false,"rental_uris":{"android":"levelo://app?vid=500a807b-2dab-4995-a78d-d98aedb6eb89","ios":"levelo://app?vid=500a807b-2dab-4995-a78d-d98aedb6eb89"},"vehicle_type_id":"4","last_reported":1768853624,"current_range_meters":4000,"station_id":"ce4bhl12rcd13ifvqgf0","pricing_plan_id":"cebpf4jnsgd1na2vs0mg"},{"bike_id":"a627aa1b-60f3-461d-ab59-5427a0b183ba","system_id":"levelo_inurba_marseille","lat":43.24174,"lon":5.39715,"is_reserved":false,"is_disabled":false,"rental_uris":{"android":"levelo://app?vid=a627aa1b-60f3-461d-ab59-5427a0b183ba","ios":"levelo://app?vid=a627aa1b-60f3-461d-ab59-5427a0b183ba"},"vehicle_type_id":"4","last_reported":1768853624,"current_range_meters":4000,"station_id":"ce4bhn12rcd13ifvqgpg","pricing_plan_id":"cebpf4jnsgd1na2vs0mg"},{"bike_id":"70a7dc42-7d3b-4b21-98fd-903a72003ea1","system_id":"levelo_inurba_marseille","lat":43.28974,"lon":5.37829,"is_reserved":false,"is_disabled":false,"rental_uris":{"android":"levelo://app?vid=70a7dc42-7d3b-4b21-98fd-903a72003ea1","ios":"levelo://app?vid=70a7dc42-7d3b-4b21-98fd-903a72003ea1"},"vehicle_type_id":"4","last_reported":1768853624,"current_range_meters":4000,"station_id":"ce4bh9p2rcd13ifvqed0","pricing_plan_id":"cebpf4jnsgd1na2vs0mg"},{"bike_id":"4177790e-6b94-4cdb-a7e9-946dc0b7d729","system_id":"levelo_inurba_marseille","lat":43.24118,"lon":5.3972,"is_reserved":false,"is_disabled":false,"rental_uris":{"android":"levelo://app?vid=4177790e-6b94-4cdb-a7e9-946dc0b7d729","ios":"levelo://app?vid=4177790e-6b94-4cdb-a7e9-946dc0b7d729"},"vehicle_type_id":"4","last_reported":1768853624,"current_range_meters":4000,"station_id":"","pricing_plan_id":"cebpf4jnsgd1na2vs0mg"},{"bike_id":"72d5dbbd-6d19-4f9e-b234-eb0c87c1870b","system_id":"levelo_inurba_marseille","lat":43.29776,"lon":5.39354,"is_reserved":false,"is_disabled":false,"rental_uris":{"android":"levelo://app?vid=72d5dbbd-6d19-4f9e-b234-eb0c87c1870b","ios":"levelo://app?vid=72d5dbbd-6d19-4f9e-b234-eb0c87c1870b"},"vehicle_type_id":"4","last_reported":1768853624,"current_range_meters":4000,"station_id":"chh1huq6cuj3fo74tm60","pricing_plan_id":"cebpf4jnsgd1na2vs0mg"},{"bike_id":"d8e726be-ef4a-406e-aa58-6f48c9676c61","system_id":"levelo_inurba_marseille","lat":43.28478,"lon":5.48379,"is_reserved":false,"is_disabled":false,"rental_uris":{"android":"levelo://app?vid=d8e726be-ef4a-406e-aa58-6f48c9676c61","ios":"levelo://app?vid=d8e726be-ef4a-406e-aa58-6f48c9676c61"},"vehicle_type_id":"4","last_reported":1768853624,"current_range_meters":4000,"station_id":"st_d3svhcjqgbts73a3dn0g","pricing_plan_id":"cebpf4jnsgd1na2vs0mg"},{"bike_id":"1221f2dd-cf20-4d5d-abe2-4b43510055fc","system_id":"levelo_inurba_marseille","lat":43.31485,"lon":5.37304,"is_reserved":false,"is_disabled":false,"rental_uris":{"android":"levelo://app?vid=1221f2dd-cf20-4d5d-abe2-4b43510055fc","ios":"levelo://app?vid=1221f2dd-cf20-4d5d-abe2-4b43510055fc"},"vehicle_type_id":"4","last_reported":1768853624,"current_range_meters":4000,"station_id":"ce4bgt12rcd13ifvqcd0","pricing_plan_id":"cebpf4jnsgd1na2vs0mg"},{"bike_id":"e7866689-ccae-434e-9735-0e85445c0a9a","system_id":"levelo_inurba_marseille","lat":43.27972,"lon":5.38525,"is_reserved":false,"is_disabled":false,"rental_uris":{"android":"levelo://app?vid=e7866689-ccae-434e-9735-0e85445c0a9a","ios":"levelo://app?vid=e7866689-ccae-434e-9735-0e85445c0a9a"},"vehicle_type_id":"4","last_reported":1768853624,"current_range_meters":4400,"station_id":"","pricing_plan_id":"cebpf4jnsgd1na2vs0mg"},{"bike_id":"4a8fa7c2-348e-4bdc-87b6-0a5b28b707c4","system_id":"levelo_inurba_marseille","lat":43.27385,"lon":5.362456,"is_reserved":false,"is_disabled":false,"rental_uris":{"android":"levelo://app?vid=4a8fa7c2-348e-4bdc-87b6-0a5b28b707c4","ios":"levelo://app?vid=4a8fa7c2-348e-4bdc-87b6-0a5b28b707c4"},"vehicle_type_id":"4","last_reported":1768853624,"current_range_meters":4400,"station_id":"ce4bhbh2rcd13ifvqeo0","pricing_plan_id":"cebpf4jnsgd1na2vs0mg"},{"bike_id":"ce832304-07e8-493b-9219-b4604d5125ea","system_id":"levelo_inurba_marseille","lat":43.25877,"lon":5.39911,"is_reserved":false,"is_disabled":false,"rental_uris":{"android":"levelo://app?vid=ce832304-07e8-493b-9219-b4604d5125ea","ios":"levelo://app?vid=ce832304-07e8-493b-9219-b4604d5125ea"},"vehicle_type_id":"4","last_reported":1768853624,"current_range_meters":4400,"station_id":"ce4bhl92rcd13ifvqghg","pricing_plan_id":"cebpf4jnsgd1na2vs0mg"},{"bike_id":"4d9635fb-63a8-4fed-8445-6853e971fca6","system_id":"levelo_inurba_marseille","lat":43.27948,"lon":5.41046,"is_reserved":false,"is_disabled":false,"rental_uris":{"android":"levelo://app?vid=4d9635fb-63a8-4fed-8445-6853e971fca6","ios":"levelo://app?vid=4d9635fb-63a8-4fed-8445-6853e971fca6"},"vehicle_type_id":"4","last_reported":1768853624,"current_range_meters":4400,"station_id":"ce4bhnp2rcd13ifvqh0g","pricing_plan_id":"cebpf4jnsgd1na2vs0mg"},{"bike_id":"0c80884c-9c03-40f4-a5db-26696ff4abea","system_id":"levelo_inurba_marseille","lat":43.30572,"lon":5.36503,"is_reserved":false,"is_disabled":false,"rental_uris":{"android":"levelo://app?vid=0c80884c-9c03-40f4-a5db-26696ff4abea","ios":"levelo://app?vid=0c80884c-9c03-40f4-a5db-26696ff4abea"},"vehicle_type_id":"4","last_reported":1768853624,"current_range_meters":4400,"station_id":"ce4bgs12rcd13ifvqcag","pricing_plan_id":"cebpf4jnsgd1na2vs0mg"},{"bike_id":"9149b9bf-0379-4933-8d49-fb09fb074be2","system_id":"levelo_inurba_marseille","lat":43.23195,"lon":5.35543,"is_reserved":false,"is_disabled":false,"rental_uris":{"android":"levelo://app?vid=9149b9bf-0379-4933-8d49-fb09fb074be2","ios":"levelo://app?vid=9149b9bf-0379-4933-8d49-fb09fb074be2"},"vehicle_type_id":"4","last_reported":1768853624,"current_range_meters":4400,"station_id":"ce4bhu92rcd13ifvqi70","pricing_plan_id":"cebpf4jnsgd1na2vs0mg"},{"bike_id":"cdbbe17f-42ee-42a0-8933-76317592653c","system_id":"levelo_inurba_marseille","lat":43.31333,"lon":5.39699,"is_reserved":false,"is_disabled":false,"rental_uris":{"android":"levelo://app?vid=cdbbe17f-42ee-42a0-8933-76317592653c","ios":"levelo://app?vid=cdbbe17f-42ee-42a0-8933-76317592653c"},"vehicle_type_id":"4","last_reported":1768853624,"current_range_meters":4400,"station_id":"ce4bgvp2rcd13ifvqcu0","pricing_plan_id":"cebpf4jnsgd1na2vs0mg"},{"bike_id":"df81daeb-fa82-46bb-b9e6-1a4d2a87b90a","system_id":"levelo_inurba_marseille","lat":43.23971,"lon":5.36618,"is_reserved":false,"is_disabled":false,"rental_uris":{"android":"levelo://app?vid=df81daeb-fa82-46bb-b9e6-1a4d2a87b90a","ios":"levelo://app?vid=df81daeb-fa82-46bb-b9e6-1a4d2a87b90a"},"vehicle_type_id":"4","last_reported":1768853624,"current_range_meters":4400,"station_id":"ce4bhi12rcd13ifvqfp0","pricing_plan_id":"cebpf4jnsgd1na2vs0mg"},{"bike_id":"362a0ae8-a2e7-42cc-abd5-2ef869d92a77","system_id":"levelo_inurba_marseille","lat":43.284677,"lon":5.483986,"is_reserved":false,"is_disabled":false,"rental_uris":{"android":"levelo://app?vid=362a0ae8-a2e7-42cc-abd5-2ef869d92a77","ios":"levelo://app?vid=362a0ae8-a2e7-42cc-abd5-2ef869d92a77"},"vehicle_type_id":"4","last_reported":1768853624,"current_range_meters":4400,"station_id":"","pricing_plan_id":"cebpf4jnsgd1na2vs0mg"},{"bike_id":"f0ffeb25-bfce-4362-b8b5-5e78daf84909","system_id":"levelo_inurba_marseille","lat":43.27835,"lon":5.39194,"is_reserved":false,"is_disabled":false,"rental_uris":{"android":"levelo://app?vid=f0ffeb25-bfce-4362-b8b5-5e78daf84909","ios":"levelo://app?vid=f0ffeb25-bfce-4362-b8b5-5e78daf84909"},"vehicle_type_id":"4","last_reported":1768853624,"current_range_meters":4400,"station_id":"ce4bhjp2rcd13ifvqga0","pricing_plan_id":"cebpf4jnsgd1na2vs0mg"},{"bike_id":"8cbbce97-3694-492e-ba8e-c21e8d482920","system_id":"levelo_inurba_marseille","lat":43.27944,"lon":5.41049,"is_reserved":false,"is_disabled":false,"rental_uris":{"android":"levelo://app?vid=8cbbce97-3694-492e-ba8e-c21e8d482920","ios":"levelo://app?vid=8cbbce97-3694-492e-ba8e-c21e8d482920"},"vehicle_type_id":"4","last_reported":1768853624,"current_range_meters":4400,"station_id":"ce4bhnp2rcd13ifvqh0g","pricing_plan_id":"cebpf4jnsgd1na2vs0mg"},{"bike_id":"c15b425d-809a-4cd3-8810-57b150a646cf","system_id":"levelo_inurba_marseille","lat":43.26062,"lon":5.39384,"is_reserved":false,"is_disabled":false,"rental_uris":{"android":"levelo://app?vid=c15b425d-809a-4cd3-8810-57b150a646cf","ios":"levelo://app?vid=c15b425d-809a-4cd3-8810-57b150a646cf"},"vehicle_type_id":"4","last_reported":1768853624,"current_range_meters":4800,"station_id":"ce4bhh92rcd13ifvqfj0","pricing_plan_id":"cebpf4jnsgd1na2vs0mg"},{"bike_id":"35df58ab-77a3-4070-9ec0-1c9995a3f5b6","system_id":"levelo_inurba_marseille","lat":43.25349,"lon":5.42183,"is_reserved":false,"is_disabled":false,"rental_uris":{"android":"levelo://app?vid=35df58ab-77a3-4070-9ec0-1c9995a3f5b6","ios":"levelo://app?vid=35df58ab-77a3-4070-9ec0-1c9995a3f5b6"},"vehicle_type_id":"4","last_reported":1768853624,"current_range_meters":4800,"station_id":"st_d2m65c5bi1j21697t3ng","pricing_plan_id":"cebpf4jnsgd1na2vs0mg"},{"bike_id":"a9183507-6636-4b9d-95bd-5e2af2c2a6fe","system_id":"levelo_inurba_marseille","lat":43.22949,"lon":5.3542,"is_reserved":false,"is_disabled":false,"rental_uris":{"android":"levelo://app?vid=a9183507-6636-4b9d-95bd-5e2af2c2a6fe","ios":"levelo://app?vid=a9183507-6636-4b9d-95bd-5e2af2c2a6fe"},"vehicle_type_id":"4","last_reported":1768853624,"current_range_meters":4800,"station_id":"cpo3532slgdg3j2ikp40","pricing_plan_id":"cebpf4jnsgd1na2vs0mg"},{"bike_id":"65d540a3-6b25-4335-8357-ca6e40a2c0bf","system_id":"levelo_inurba_marseille","lat":43.28485,"lon":5.38536,"is_reserved":false,"is_disabled":false,"rental_uris":{"android":"levelo://app?vid=65d540a3-6b25-4335-8357-ca6e40a2c0bf","ios":"levelo://app?vid=65d540a3-6b25-4335-8357-ca6e40a2c0bf"},"vehicle_type_id":"4","last_reported":1768853624,"current_range_meters":4800,"station_id":"ce4bh8p2rcd13ifvqeb0","pricing_plan_id":"cebpf4jnsgd1na2vs0mg"},{"bike_id":"2fbfe62a-db06-4932-8158-ef1d0b78abf4","system_id":"levelo_inurba_marseille","lat":43.25221,"lon":5.38037,"is_reserved":false,"is_disabled":false,"rental_uris":{"android":"levelo://app?vid=2fbfe62a-db06-4932-8158-ef1d0b78abf4","ios":"levelo://app?vid=2fbfe62a-db06-4932-8158-ef1d0b78abf4"},"vehicle_type_id":"4","last_reported":1768853624,"current_range_meters":4800,"station_id":"","pricing_plan_id":"cebpf4jnsgd1na2vs0mg"},{"bike_id":"4871afd3-006e-4c75-8ee0-284f94c4bdb5","system_id":"levelo_inurba_marseille","lat":43.30434,"lon":5.3974,"is_reserved":false,"is_disabled":false,"rental_uris":{"android":"levelo://app?vid=4871afd3-006e-4c75-8ee0-284f94c4bdb5","ios":"levelo://app?vid=4871afd3-006e-4c75-8ee0-284f94c4bdb5"},"vehicle_type_id":"4","last_reported":1768853624,"current_range_meters":4800,"station_id":"ce4bh092rcd13ifvqd20","pricing_plan_id":"cebpf4jnsgd1na2vs0mg"},{"bike_id":"c4e14ba6-9590-42e8-a0ad-bdab976a11ef","system_id":"levelo_inurba_marseille","lat":43.282621,"lon":5.350608,"is_reserved":false,"is_disabled":false,"rental_uris":{"android":"levelo://app?vid=c4e14ba6-9590-42e8-a0ad-bdab976a11ef","ios":"levelo://app?vid=c4e14ba6-9590-42e8-a0ad-bdab976a11ef"},"vehicle_type_id":"4","last_reported":1768853624,"current_range_meters":4800,"station_id":"ce4bhbp2rcd13ifvqerg","pricing_plan_id":"cebpf4jnsgd1na2vs0mg"},{"bike_id":"2e44fc02-404d-4c56-9bc6-3ccf2db7f515","system_id":"levelo_inurba_marseille","lat":43.29897,"lon":5.43652,"is_reserved":false,"is_disabled":false,"rental_uris":{"android":"levelo://app?vid=2e44fc02-404d-4c56-9bc6-3ccf2db7f515","ios":"levelo://app?vid=2e44fc02-404d-4c56-9bc6-3ccf2db7f515"},"vehicle_type_id":"4","last_reported":1768853624,"current_range_meters":4800,"station_id":"ce4bhpp2rcd13ifvqhfg","pricing_plan_id":"cebpf4jnsgd1na2vs0mg"},{"bike_id":"bc7ccd1b-bfee-4869-a3d2-39dfa3a48fb2","system_id":"levelo_inurba_marseille","lat":43.28402,"lon":5.37529,"is_reserved":false,"is_disabled":false,"rental_uris":{"android":"levelo://app?vid=bc7ccd1b-bfee-4869-a3d2-39dfa3a48fb2","ios":"levelo://app?vid=bc7ccd1b-bfee-4869-a3d2-39dfa3a48fb2"},"vehicle_type_id":"4","last_reported":1768853624,"current_range_meters":5600,"station_id":"ce4bh412rcd13ifvqds0","pricing_plan_id":"cebpf4jnsgd1na2vs0mg"},{"bike_id":"27830f58-caed-4d2c-8a2b-e7041c6557be","system_id":"levelo_inurba_marseille","lat":43.28462,"lon":5.35896,"is_reserved":false,"is_disabled":false,"rental_uris":{"android":"levelo://app?vid=27830f58-caed-4d2c-8a2b-e7041c6557be","ios":"levelo://app?vid=27830f58-caed-4d2c-8a2b-e7041c6557be"},"vehicle_type_id":"4","last_reported":1768853624,"current_range_meters":5600,"station_id":"ce4bhah2rcd13ifvqei0","pricing_plan_id":"cebpf4jnsgd1na2vs0mg"},{"bike_id":"db8ac07c-ba27-45a0-8e32-c442519bd63c","system_id":"levelo_inurba_marseille","lat":43.29964,"lon":5.37162,"is_reserved":false,"is_disabled":false,"rental_uris":{"android":"levelo://app?vid=db8ac07c-ba27-45a0-8e32-c442519bd63c","ios":"levelo://app?vid=db8ac07c-ba27-45a0-8e32-c442519bd63c"},"vehicle_type_id":"4","last_reported":1768853624,"current_range_meters":5600,"station_id":"","pricing_plan_id":"cebpf4jnsgd1na2vs0mg"},{"bike_id":"946882e2-1c7c-41d9-af64-47c95d7833f4","system_id":"levelo_inurba_marseille","lat":43.31755,"lon":5.39005,"is_reserved":false,"is_disabled":false,"rental_uris":{"android":"levelo://app?vid=946882e2-1c7c-41d9-af64-47c95d7833f4","ios":"levelo://app?vid=946882e2-1c7c-41d9-af64-47c95d7833f4"},"vehicle_type_id":"4","last_reported":1768853624,"current_range_meters":5600,"station_id":"ce4bhqp2rcd13ifvqhng","pricing_plan_id":"cebpf4jnsgd1na2vs0mg"},{"bike_id":"076970a1-4e6f-4125-84da-dd7c2322262c","system_id":"levelo_inurba_marseille","lat":43.29843,"lon":5.36289,"is_reserved":false,"is_disabled":false,"rental_uris":{"android":"levelo://app?vid=076970a1-4e6f-4125-84da-dd7c2322262c","ios":"levelo://app?vid=076970a1-4e6f-4125-84da-dd7c2322262c"},"vehicle_type_id":"4","last_reported":1768853624,"current_range_meters":5600,"station_id":"","pricing_plan_id":"cebpf4jnsgd1na2vs0mg"},{"bike_id":"82a972ff-c30f-4326-8a02-4f8fe3b37884","system_id":"levelo_inurba_marseille","lat":43.237749,"lon":5.366307,"is_reserved":false,"is_disabled":false,"rental_uris":{"android":"levelo://app?vid=82a972ff-c30f-4326-8a02-4f8fe3b37884","ios":"levelo://app?vid=82a972ff-c30f-4326-8a02-4f8fe3b37884"},"vehicle_type_id":"4","last_reported":1768853624,"current_range_meters":5600,"station_id":"st_d3nk18o9ro0c73en2l3g","pricing_plan_id":"cebpf4jnsgd1na2vs0mg"},{"bike_id":"07d71416-deb7-4cc7-9f86-0f69e2a32773","system_id":"levelo_inurba_marseille","lat":43.24173,"lon":5.39708,"is_reserved":false,"is_disabled":false,"rental_uris":{"android":"levelo://app?vid=07d71416-deb7-4cc7-9f86-0f69e2a32773","ios":"levelo://app?vid=07d71416-deb7-4cc7-9f86-0f69e2a32773"},"vehicle_type_id":"4","last_reported":1768853624,"current_range_meters":5600,"station_id":"ce4bhn12rcd13ifvqgpg","pricing_plan_id":"cebpf4jnsgd1na2vs0mg"},{"bike_id":"d46ba195-2d28-4c38-aa25-805415af83e7","system_id":"levelo_inurba_marseille","lat":43.29967,"lon":5.38471,"is_reserved":false,"is_disabled":true,"rental_uris":{"android":"levelo://app?vid=d46ba195-2d28-4c38-aa25-805415af83e7","ios":"levelo://app?vid=d46ba195-2d28-4c38-aa25-805415af83e7"},"vehicle_type_id":"4","last_reported":1768853624,"current_range_meters":5600,"station_id":"ce4bgj92rcd13ifvqbd0","pricing_plan_id":"cebpf4jnsgd1na2vs0mg"},{"bike_id":"5eaccc9d-2b69-4116-b8f4-6671095c29ff","system_id":"levelo_inurba_marseille","lat":43.28754,"lon":5.37134,"is_reserved":false,"is_disabled":false,"rental_uris":{"android":"levelo://app?vid=5eaccc9d-2b69-4116-b8f4-6671095c29ff","ios":"levelo://app?vid=5eaccc9d-2b69-4116-b8f4-6671095c29ff"},"vehicle_type_id":"4","last_reported":1768853624,"current_range_meters":5600,"station_id":"","pricing_plan_id":"cebpf4jnsgd1na2vs0mg"},{"bike_id":"db7ef3fe-8042-458f-98f0-bf32c553e4f2","system_id":"levelo_inurba_marseille","lat":43.3023,"lon":5.40064,"is_reserved":false,"is_disabled":false,"rental_uris":{"android":"levelo://app?vid=db7ef3fe-8042-458f-98f0-bf32c553e4f2","ios":"levelo://app?vid=db7ef3fe-8042-458f-98f0-bf32c553e4f2"},"vehicle_type_id":"4","last_reported":1768853624,"current_range_meters":5600,"station_id":"ce4bgvh2rcd13ifvqcs0","pricing_plan_id":"cebpf4jnsgd1na2vs0mg"},{"bike_id":"a47d2f2f-93ab-481b-b44f-0345cb20a93b","system_id":"levelo_inurba_marseille","lat":43.28921,"lon":5.38387,"is_reserved":false,"is_disabled":false,"rental_uris":{"android":"levelo://app?vid=a47d2f2f-93ab-481b-b44f-0345cb20a93b","ios":"levelo://app?vid=a47d2f2f-93ab-481b-b44f-0345cb20a93b"},"vehicle_type_id":"4","last_reported":1768853624,"current_range_meters":5600,"station_id":"ce4bh612rcd13ifvqe6g","pricing_plan_id":"cebpf4jnsgd1na2vs0mg"},{"bike_id":"ccc10866-0d2b-445e-85de-4df4eb117068","system_id":"levelo_inurba_marseille","lat":43.29544,"lon":5.39036,"is_reserved":false,"is_disabled":false,"rental_uris":{"android":"levelo://app?vid=ccc10866-0d2b-445e-85de-4df4eb117068","ios":"levelo://app?vid=ccc10866-0d2b-445e-85de-4df4eb117068"},"vehicle_type_id":"4","last_reported":1768853624,"current_range_meters":5600,"station_id":"ce4bh3p2rcd13ifvqdp0","pricing_plan_id":"cebpf4jnsgd1na2vs0mg"},{"bike_id":"d5dd060c-3afa-4f16-9d8f-3630c24efc3a","system_id":"levelo_inurba_marseille","lat":43.2916,"lon":5.38601,"is_reserved":false,"is_disabled":false,"rental_uris":{"android":"levelo://app?vid=d5dd060c-3afa-4f16-9d8f-3630c24efc3a","ios":"levelo://app?vid=d5dd060c-3afa-4f16-9d8f-3630c24efc3a"},"vehicle_type_id":"4","last_reported":1768853624,"current_range_meters":5600,"station_id":"","pricing_plan_id":"cebpf4jnsgd1na2vs0mg"},{"bike_id":"920c26d8-8ebc-4174-b996-b489c0a23e3d","system_id":"levelo_inurba_marseille","lat":43.24181,"lon":5.39703,"is_reserved":false,"is_disabled":false,"rental_uris":{"android":"levelo://app?vid=920c26d8-8ebc-4174-b996-b489c0a23e3d","ios":"levelo://app?vid=920c26d8-8ebc-4174-b996-b489c0a23e3d"},"vehicle_type_id":"4","last_reported":1768853624,"current_range_meters":5600,"station_id":"ce4bhn12rcd13ifvqgpg","pricing_plan_id":"cebpf4jnsgd1na2vs0mg"},{"bike_id":"d8bfb2e5-5baa-4794-9f56-3108e552202f","system_id":"levelo_inurba_marseille","lat":43.27792,"lon":5.40728,"is_reserved":false,"is_disabled":false,"rental_uris":{"android":"levelo://app?vid=d8bfb2e5-5baa-4794-9f56-3108e552202f","ios":"levelo://app?vid=d8bfb2e5-5baa-4794-9f56-3108e552202f"},"vehicle_type_id":"4","last_reported":1768853624,"current_range_meters":5600,"station_id":"ce4bhnh2rcd13ifvqgtg","pricing_plan_id":"cebpf4jnsgd1na2vs0mg"},{"bike_id":"6c7011e5-414c-4f5e-abe7-ae2f824bd5bd","system_id":"levelo_inurba_marseille","lat":43.25861,"lon":5.399,"is_reserved":false,"is_disabled":false,"rental_uris":{"android":"levelo://app?vid=6c7011e5-414c-4f5e-abe7-ae2f824bd5bd","ios":"levelo://app?vid=6c7011e5-414c-4f5e-abe7-ae2f824bd5bd"},"vehicle_type_id":"4","last_reported":1768853624,"current_range_meters":5600,"station_id":"ce4bhl92rcd13ifvqghg","pricing_plan_id":"cebpf4jnsgd1na2vs0mg"},{"bike_id":"dc3aed01-7444-4d81-8b59-d1a15aed744e","system_id":"levelo_inurba_marseille","lat":43.28346,"lon":5.38104,"is_reserved":false,"is_disabled":false,"rental_uris":{"android":"levelo://app?vid=dc3aed01-7444-4d81-8b59-d1a15aed744e","ios":"levelo://app?vid=dc3aed01-7444-4d81-8b59-d1a15aed744e"},"vehicle_type_id":"4","last_reported":1768853624,"current_range_meters":6000,"station_id":"ce4bh412rcd13ifvqdr0","pricing_plan_id":"cebpf4jnsgd1na2vs0mg"},{"bike_id":"a989bae0-89bc-4ea0-b3ef-798bd0316a43","system_id":"levelo_inurba_marseille","lat":43.28676,"lon":5.38659,"is_reserved":false,"is_disabled":false,"rental_uris":{"android":"levelo://app?vid=a989bae0-89bc-4ea0-b3ef-798bd0316a43","ios":"levelo://app?vid=a989bae0-89bc-4ea0-b3ef-798bd0316a43"},"vehicle_type_id":"4","last_reported":1768853624,"current_range_meters":6000,"station_id":"ce4bh492rcd13ifvqdug","pricing_plan_id":"cebpf4jnsgd1na2vs0mg"},{"bike_id":"fb5bd089-1d87-433b-a102-943632d05bb1","system_id":"levelo_inurba_marseille","lat":43.28675,"lon":5.38655,"is_reserved":false,"is_disabled":false,"rental_uris":{"android":"levelo://app?vid=fb5bd089-1d87-433b-a102-943632d05bb1","ios":"levelo://app?vid=fb5bd089-1d87-433b-a102-943632d05bb1"},"vehicle_type_id":"4","last_reported":1768853624,"current_range_meters":6000,"station_id":"ce4bh492rcd13ifvqdug","pricing_plan_id":"cebpf4jnsgd1na2vs0mg"},{"bike_id":"55134973-4332-436c-abb8-45c5b07e5b64","system_id":"levelo_inurba_marseille","lat":43.28723,"lon":5.36085,"is_reserved":false,"is_disabled":false,"rental_uris":{"android":"levelo://app?vid=55134973-4332-436c-abb8-45c5b07e5b64","ios":"levelo://app?vid=55134973-4332-436c-abb8-45c5b07e5b64"},"vehicle_type_id":"4","last_reported":1768853624,"current_range_meters":6000,"station_id":"cki0cbj6b192h4jlfktg","pricing_plan_id":"cebpf4jnsgd1na2vs0mg"},{"bike_id":"5f120a86-cc0b-40c7-9c31-6878b214f823","system_id":"levelo_inurba_marseille","lat":43.24816,"lon":5.37452,"is_reserved":false,"is_disabled":false,"rental_uris":{"android":"levelo://app?vid=5f120a86-cc0b-40c7-9c31-6878b214f823","ios":"levelo://app?vid=5f120a86-cc0b-40c7-9c31-6878b214f823"},"vehicle_type_id":"4","last_reported":1768853624,"current_range_meters":6000,"station_id":"ce4bhgh2rcd13ifvqfb0","pricing_plan_id":"cebpf4jnsgd1na2vs0mg"},{"bike_id":"22b863de-7052-47e1-9e7c-e78248bc65db","system_id":"levelo_inurba_marseille","lat":43.27961,"lon":5.38689,"is_reserved":false,"is_disabled":false,"rental_uris":{"android":"levelo://app?vid=22b863de-7052-47e1-9e7c-e78248bc65db","ios":"levelo://app?vid=22b863de-7052-47e1-9e7c-e78248bc65db"},"vehicle_type_id":"4","last_reported":1768853624,"current_range_meters":6000,"station_id":"ce4bhg12rcd13ifvqf80","pricing_plan_id":"cebpf4jnsgd1na2vs0mg"},{"bike_id":"82bc016e-ea5f-4e74-95db-96f538282223","system_id":"levelo_inurba_marseille","lat":43.298235,"lon":5.362191,"is_reserved":false,"is_disabled":false,"rental_uris":{"android":"levelo://app?vid=82bc016e-ea5f-4e74-95db-96f538282223","ios":"levelo://app?vid=82bc016e-ea5f-4e74-95db-96f538282223"},"vehicle_type_id":"4","last_reported":1768853624,"current_range_meters":6000,"station_id":"ce4bgpp2rcd13ifvqc3g","pricing_plan_id":"cebpf4jnsgd1na2vs0mg"},{"bike_id":"0be1b7c2-2a16-4cfb-b6c6-31dc9a4a8cf1","system_id":"levelo_inurba_marseille","lat":43.2784,"lon":5.40689,"is_reserved":false,"is_disabled":false,"rental_uris":{"android":"levelo://app?vid=0be1b7c2-2a16-4cfb-b6c6-31dc9a4a8cf1","ios":"levelo://app?vid=0be1b7c2-2a16-4cfb-b6c6-31dc9a4a8cf1"},"vehicle_type_id":"4","last_reported":1768853624,"current_range_meters":6000,"station_id":"ce4bhnh2rcd13ifvqgtg","pricing_plan_id":"cebpf4jnsgd1na2vs0mg"},{"bike_id":"24c89c87-4e34-4758-98ab-4279f78b4108","system_id":"levelo_inurba_marseille","lat":43.25815,"lon":5.39425,"is_reserved":false,"is_disabled":false,"rental_uris":{"android":"levelo://app?vid=24c89c87-4e34-4758-98ab-4279f78b4108","ios":"levelo://app?vid=24c89c87-4e34-4758-98ab-4279f78b4108"},"vehicle_type_id":"4","last_reported":1768853624,"current_range_meters":6000,"station_id":"ce4bhip2rcd13ifvqft0","pricing_plan_id":"cebpf4jnsgd1na2vs0mg"},{"bike_id":"f18bc030-feac-4290-98f5-ef3dbe2dffcf","system_id":"levelo_inurba_marseille","lat":43.26498,"lon":5.39543,"is_reserved":false,"is_disabled":false,"rental_uris":{"android":"levelo://app?vid=f18bc030-feac-4290-98f5-ef3dbe2dffcf","ios":"levelo://app?vid=f18bc030-feac-4290-98f5-ef3dbe2dffcf"},"vehicle_type_id":"4","last_reported":1768853624,"current_range_meters":6000,"station_id":"ce4bhi12rcd13ifvqfq0","pricing_plan_id":"cebpf4jnsgd1na2vs0mg"},{"bike_id":"cc98da82-e4c4-42c7-9f6a-c9c177b6cbc3","system_id":"levelo_inurba_marseille","lat":43.23142,"lon":5.43717,"is_reserved":false,"is_disabled":true,"rental_uris":{"android":"levelo://app?vid=cc98da82-e4c4-42c7-9f6a-c9c177b6cbc3","ios":"levelo://app?vid=cc98da82-e4c4-42c7-9f6a-c9c177b6cbc3"},"vehicle_type_id":"4","last_reported":1768853624,"current_range_meters":6000,"station_id":"ce4bhmp2rcd13ifvqgog","pricing_plan_id":"cebpf4jnsgd1na2vs0mg"},{"bike_id":"b37e263a-2196-4b4e-86d4-9f4a62e9f376","system_id":"levelo_inurba_marseille","lat":43.24072,"lon":5.37763,"is_reserved":false,"is_disabled":false,"rental_uris":{"android":"levelo://app?vid=b37e263a-2196-4b4e-86d4-9f4a62e9f376","ios":"levelo://app?vid=b37e263a-2196-4b4e-86d4-9f4a62e9f376"},"vehicle_type_id":"4","last_reported":1768853624,"current_range_meters":6000,"station_id":"ce4bhnp2rcd13ifvqgvg","pricing_plan_id":"cebpf4jnsgd1na2vs0mg"},{"bike_id":"d94b0719-67c8-4a98-823a-17ee81ceae99","system_id":"levelo_inurba_marseille","lat":43.27982,"lon":5.39987,"is_reserved":false,"is_disabled":false,"rental_uris":{"android":"levelo://app?vid=d94b0719-67c8-4a98-823a-17ee81ceae99","ios":"levelo://app?vid=d94b0719-67c8-4a98-823a-17ee81ceae99"},"vehicle_type_id":"4","last_reported":1768853624,"current_range_meters":6000,"station_id":"ce4bho92rcd13ifvqh4g","pricing_plan_id":"cebpf4jnsgd1na2vs0mg"},{"bike_id":"7bd35cf5-b7ea-4dc4-8a08-4a986b7ed8d0","system_id":"levelo_inurba_marseille","lat":43.29486,"lon":5.43305,"is_reserved":false,"is_disabled":false,"rental_uris":{"android":"levelo://app?vid=7bd35cf5-b7ea-4dc4-8a08-4a986b7ed8d0","ios":"levelo://app?vid=7bd35cf5-b7ea-4dc4-8a08-4a986b7ed8d0"},"vehicle_type_id":"4","last_reported":1768853624,"current_range_meters":6000,"station_id":"st_d3j5ugp08ojc73fj9d10","pricing_plan_id":"cebpf4jnsgd1na2vs0mg"},{"bike_id":"7203e830-a3e8-48b3-874d-a33c2d2d3056","system_id":"levelo_inurba_marseille","lat":43.33753,"lon":5.37462,"is_reserved":false,"is_disabled":false,"rental_uris":{"android":"levelo://app?vid=7203e830-a3e8-48b3-874d-a33c2d2d3056","ios":"levelo://app?vid=7203e830-a3e8-48b3-874d-a33c2d2d3056"},"vehicle_type_id":"4","last_reported":1768853624,"current_range_meters":6000,"station_id":"","pricing_plan_id":"cebpf4jnsgd1na2vs0mg"},{"bike_id":"0ffa3a37-1efe-4773-9c0c-0281daa15b60","system_id":"levelo_inurba_marseille","lat":43.25295,"lon":5.38034,"is_reserved":false,"is_disabled":false,"rental_uris":{"android":"levelo://app?vid=0ffa3a37-1efe-4773-9c0c-0281daa15b60","ios":"levelo://app?vid=0ffa3a37-1efe-4773-9c0c-0281daa15b60"},"vehicle_type_id":"4","last_reported":1768853624,"current_range_meters":6000,"station_id":"","pricing_plan_id":"cebpf4jnsgd1na2vs0mg"},{"bike_id":"4f51b952-0605-4d7e-b088-78f23898182f","system_id":"levelo_inurba_marseille","lat":43.2984,"lon":5.36338,"is_reserved":false,"is_disabled":false,"rental_uris":{"android":"levelo://app?vid=4f51b952-0605-4d7e-b088-78f23898182f","ios":"levelo://app?vid=4f51b952-0605-4d7e-b088-78f23898182f"},"vehicle_type_id":"4","last_reported":1768853624,"current_range_meters":6000,"station_id":"ce4bgpp2rcd13ifvqc3g","pricing_plan_id":"cebpf4jnsgd1na2vs0mg"},{"bike_id":"53d7389e-67e7-4845-ae5c-1cd339660b50","system_id":"levelo_inurba_marseille","lat":43.26577,"lon":5.40311,"is_reserved":false,"is_disabled":false,"rental_uris":{"android":"levelo://app?vid=53d7389e-67e7-4845-ae5c-1cd339660b50","ios":"levelo://app?vid=53d7389e-67e7-4845-ae5c-1cd339660b50"},"vehicle_type_id":"4","last_reported":1768853624,"current_range_meters":6000,"station_id":"ce4bhmp2rcd13ifvqgng","pricing_plan_id":"cebpf4jnsgd1na2vs0mg"},{"bike_id":"8ad38f65-7061-4db4-ab81-a3b040098a9a","system_id":"levelo_inurba_marseille","lat":43.27811,"lon":5.40723,"is_reserved":false,"is_disabled":false,"rental_uris":{"android":"levelo://app?vid=8ad38f65-7061-4db4-ab81-a3b040098a9a","ios":"levelo://app?vid=8ad38f65-7061-4db4-ab81-a3b040098a9a"},"vehicle_type_id":"4","last_reported":1768853624,"current_range_meters":6000,"station_id":"ce4bhnh2rcd13ifvqgtg","pricing_plan_id":"cebpf4jnsgd1na2vs0mg"},{"bike_id":"c0627a81-edf3-4c76-87d5-5fc1946102fe","system_id":"levelo_inurba_marseille","lat":43.28604,"lon":5.35092,"is_reserved":false,"is_disabled":false,"rental_uris":{"android":"levelo://app?vid=c0627a81-edf3-4c76-87d5-5fc1946102fe","ios":"levelo://app?vid=c0627a81-edf3-4c76-87d5-5fc1946102fe"},"vehicle_type_id":"4","last_reported":1768853624,"current_range_meters":6000,"station_id":"ce4bhch2rcd13ifvqeug","pricing_plan_id":"cebpf4jnsgd1na2vs0mg"},{"bike_id":"aa923d84-2a8d-41d4-b458-690f7c67f80e","system_id":"levelo_inurba_marseille","lat":43.24387,"lon":5.37058,"is_reserved":false,"is_disabled":false,"rental_uris":{"android":"levelo://app?vid=aa923d84-2a8d-41d4-b458-690f7c67f80e","ios":"levelo://app?vid=aa923d84-2a8d-41d4-b458-690f7c67f80e"},"vehicle_type_id":"4","last_reported":1768853624,"current_range_meters":6000,"station_id":"ce4bhhh2rcd13ifvqfk0","pricing_plan_id":"cebpf4jnsgd1na2vs0mg"},{"bike_id":"4a92c2f1-4bb2-4d33-9f61-54f5ec910f0f","system_id":"levelo_inurba_marseille","lat":43.24997,"lon":5.38926,"is_reserved":false,"is_disabled":false,"rental_uris":{"android":"levelo://app?vid=4a92c2f1-4bb2-4d33-9f61-54f5ec910f0f","ios":"levelo://app?vid=4a92c2f1-4bb2-4d33-9f61-54f5ec910f0f"},"vehicle_type_id":"4","last_reported":1768853624,"current_range_meters":6400,"station_id":"ce4bhgp2rcd13ifvqfd0","pricing_plan_id":"cebpf4jnsgd1na2vs0mg"},{"bike_id":"601c2709-22a4-464b-ac88-e378165071d7","system_id":"levelo_inurba_marseille","lat":43.253348,"lon":5.421664,"is_reserved":false,"is_disabled":false,"rental_uris":{"android":"levelo://app?vid=601c2709-22a4-464b-ac88-e378165071d7","ios":"levelo://app?vid=601c2709-22a4-464b-ac88-e378165071d7"},"vehicle_type_id":"4","last_reported":1768853624,"current_range_meters":6400,"station_id":"st_d2m65c5bi1j21697t3ng","pricing_plan_id":"cebpf4jnsgd1na2vs0mg"},{"bike_id":"5b2696e3-4023-43dc-90a6-9e0c0e41ee6d","system_id":"levelo_inurba_marseille","lat":43.29259,"lon":5.3845,"is_reserved":false,"is_disabled":false,"rental_uris":{"android":"levelo://app?vid=5b2696e3-4023-43dc-90a6-9e0c0e41ee6d","ios":"levelo://app?vid=5b2696e3-4023-43dc-90a6-9e0c0e41ee6d"},"vehicle_type_id":"4","last_reported":1768853624,"current_range_meters":6400,"station_id":"ce4bh692rcd13ifvqea0","pricing_plan_id":"cebpf4jnsgd1na2vs0mg"},{"bike_id":"e161674a-b7a5-47e5-b1ba-5b4fead9f0c6","system_id":"levelo_inurba_marseille","lat":43.27841,"lon":5.39207,"is_reserved":false,"is_disabled":false,"rental_uris":{"android":"levelo://app?vid=e161674a-b7a5-47e5-b1ba-5b4fead9f0c6","ios":"levelo://app?vid=e161674a-b7a5-47e5-b1ba-5b4fead9f0c6"},"vehicle_type_id":"4","last_reported":1768853624,"current_range_meters":6400,"station_id":"ce4bhjp2rcd13ifvqga0","pricing_plan_id":"cebpf4jnsgd1na2vs0mg"},{"bike_id":"50c47a6e-8921-4008-8c5d-86f87ed06be3","system_id":"levelo_inurba_marseille","lat":43.27994,"lon":5.40021,"is_reserved":false,"is_disabled":false,"rental_uris":{"android":"levelo://app?vid=50c47a6e-8921-4008-8c5d-86f87ed06be3","ios":"levelo://app?vid=50c47a6e-8921-4008-8c5d-86f87ed06be3"},"vehicle_type_id":"4","last_reported":1768853624,"current_range_meters":6400,"station_id":"ce4bho92rcd13ifvqh4g","pricing_plan_id":"cebpf4jnsgd1na2vs0mg"},{"bike_id":"aa734ba7-ce92-4c1b-86f8-f1622bce223c","system_id":"levelo_inurba_marseille","lat":43.2982,"lon":5.44074,"is_reserved":false,"is_disabled":true,"rental_uris":{"android":"levelo://app?vid=aa734ba7-ce92-4c1b-86f8-f1622bce223c","ios":"levelo://app?vid=aa734ba7-ce92-4c1b-86f8-f1622bce223c"},"vehicle_type_id":"4","last_reported":1768853624,"current_range_meters":6400,"station_id":"","pricing_plan_id":"cebpf4jnsgd1na2vs0mg"},{"bike_id":"4b5aa404-a223-4202-a9b4-4364010f0fb4","system_id":"levelo_inurba_marseille","lat":43.33758,"lon":5.37493,"is_reserved":false,"is_disabled":false,"rental_uris":{"android":"levelo://app?vid=4b5aa404-a223-4202-a9b4-4364010f0fb4","ios":"levelo://app?vid=4b5aa404-a223-4202-a9b4-4364010f0fb4"},"vehicle_type_id":"4","last_reported":1768853624,"current_range_meters":6400,"station_id":"","pricing_plan_id":"cebpf4jnsgd1na2vs0mg"},{"bike_id":"a2e52012-295b-4081-ba41-4daf4a0dd9bd","system_id":"levelo_inurba_marseille","lat":43.22935,"lon":5.35378,"is_reserved":false,"is_disabled":false,"rental_uris":{"android":"levelo://app?vid=a2e52012-295b-4081-ba41-4daf4a0dd9bd","ios":"levelo://app?vid=a2e52012-295b-4081-ba41-4daf4a0dd9bd"},"vehicle_type_id":"4","last_reported":1768853624,"current_range_meters":6400,"station_id":"cpo3532slgdg3j2ikp40","pricing_plan_id":"cebpf4jnsgd1na2vs0mg"},{"bike_id":"92030df9-3983-40dd-ae8e-c537cab0af80","system_id":"levelo_inurba_marseille","lat":43.264946,"lon":5.395401,"is_reserved":false,"is_disabled":false,"rental_uris":{"android":"levelo://app?vid=92030df9-3983-40dd-ae8e-c537cab0af80","ios":"levelo://app?vid=92030df9-3983-40dd-ae8e-c537cab0af80"},"vehicle_type_id":"4","last_reported":1768853624,"current_range_meters":6400,"station_id":"ce4bhi12rcd13ifvqfq0","pricing_plan_id":"cebpf4jnsgd1na2vs0mg"},{"bike_id":"26c84786-ea56-4889-90f0-5f5041e07aa2","system_id":"levelo_inurba_marseille","lat":43.28704,"lon":5.39982,"is_reserved":false,"is_disabled":false,"rental_uris":{"android":"levelo://app?vid=26c84786-ea56-4889-90f0-5f5041e07aa2","ios":"levelo://app?vid=26c84786-ea56-4889-90f0-5f5041e07aa2"},"vehicle_type_id":"4","last_reported":1768853624,"current_range_meters":6400,"station_id":"ce4bho92rcd13ifvqh3g","pricing_plan_id":"cebpf4jnsgd1na2vs0mg"},{"bike_id":"ccde8394-5d47-46d8-8ea9-18fdd8646a85","system_id":"levelo_inurba_marseille","lat":43.31255,"lon":5.36806,"is_reserved":false,"is_disabled":false,"rental_uris":{"android":"levelo://app?vid=ccde8394-5d47-46d8-8ea9-18fdd8646a85","ios":"levelo://app?vid=ccde8394-5d47-46d8-8ea9-18fdd8646a85"},"vehicle_type_id":"4","last_reported":1768853624,"current_range_meters":6400,"station_id":"ce4bgl92rcd13ifvqbq0","pricing_plan_id":"cebpf4jnsgd1na2vs0mg"},{"bike_id":"5cf4c09d-63ec-41cb-a180-1d5643b87bbe","system_id":"levelo_inurba_marseille","lat":43.26218,"lon":5.37453,"is_reserved":false,"is_disabled":false,"rental_uris":{"android":"levelo://app?vid=5cf4c09d-63ec-41cb-a180-1d5643b87bbe","ios":"levelo://app?vid=5cf4c09d-63ec-41cb-a180-1d5643b87bbe"},"vehicle_type_id":"4","last_reported":1768853624,"current_range_meters":6400,"station_id":"ce4bhgp2rcd13ifvqfc0","pricing_plan_id":"cebpf4jnsgd1na2vs0mg"},{"bike_id":"58922b42-b0dc-43fd-bf81-dd6ae427768e","system_id":"levelo_inurba_marseille","lat":43.2519,"lon":5.40078,"is_reserved":false,"is_disabled":false,"rental_uris":{"android":"levelo://app?vid=58922b42-b0dc-43fd-bf81-dd6ae427768e","ios":"levelo://app?vid=58922b42-b0dc-43fd-bf81-dd6ae427768e"},"vehicle_type_id":"4","last_reported":1768853624,"current_range_meters":6400,"station_id":"","pricing_plan_id":"cebpf4jnsgd1na2vs0mg"},{"bike_id":"49d54fe2-a918-4c1b-9e03-a3d4b19e7ed0","system_id":"levelo_inurba_marseille","lat":43.29161,"lon":5.37135,"is_reserved":false,"is_disabled":false,"rental_uris":{"android":"levelo://app?vid=49d54fe2-a918-4c1b-9e03-a3d4b19e7ed0","ios":"levelo://app?vid=49d54fe2-a918-4c1b-9e03-a3d4b19e7ed0"},"vehicle_type_id":"4","last_reported":1768853624,"current_range_meters":6400,"station_id":"ce4bha92rcd13ifvqeh0","pricing_plan_id":"cebpf4jnsgd1na2vs0mg"},{"bike_id":"5c5ed773-9a2f-4d81-84d1-2c029db4475e","system_id":"levelo_inurba_marseille","lat":43.30799,"lon":5.38147,"is_reserved":false,"is_disabled":false,"rental_uris":{"android":"levelo://app?vid=5c5ed773-9a2f-4d81-84d1-2c029db4475e","ios":"levelo://app?vid=5c5ed773-9a2f-4d81-84d1-2c029db4475e"},"vehicle_type_id":"4","last_reported":1768853624,"current_range_meters":6400,"station_id":"ce4bgt12rcd13ifvqce0","pricing_plan_id":"cebpf4jnsgd1na2vs0mg"},{"bike_id":"1f98d89c-8dec-45fe-8489-d4b0908ef42d","system_id":"levelo_inurba_marseille","lat":43.26557,"lon":5.3901,"is_reserved":false,"is_disabled":false,"rental_uris":{"android":"levelo://app?vid=1f98d89c-8dec-45fe-8489-d4b0908ef42d","ios":"levelo://app?vid=1f98d89c-8dec-45fe-8489-d4b0908ef42d"},"vehicle_type_id":"4","last_reported":1768853624,"current_range_meters":6400,"station_id":"ce4bhe12rcd13ifvqf30","pricing_plan_id":"cebpf4jnsgd1na2vs0mg"},{"bike_id":"0f04e703-1d97-4ec9-9d78-4934dc51f36a","system_id":"levelo_inurba_marseille","lat":43.31116,"lon":5.37739,"is_reserved":false,"is_disabled":false,"rental_uris":{"android":"levelo://app?vid=0f04e703-1d97-4ec9-9d78-4934dc51f36a","ios":"levelo://app?vid=0f04e703-1d97-4ec9-9d78-4934dc51f36a"},"vehicle_type_id":"4","last_reported":1768853624,"current_range_meters":6400,"station_id":"ce4bgt92rcd13ifvqcg0","pricing_plan_id":"cebpf4jnsgd1na2vs0mg"},{"bike_id":"f0570bff-c8b2-4469-91cd-b8e0bdf0fd60","system_id":"levelo_inurba_marseille","lat":43.28606,"lon":5.39887,"is_reserved":false,"is_disabled":false,"rental_uris":{"android":"levelo://app?vid=f0570bff-c8b2-4469-91cd-b8e0bdf0fd60","ios":"levelo://app?vid=f0570bff-c8b2-4469-91cd-b8e0bdf0fd60"},"vehicle_type_id":"4","last_reported":1768853624,"current_range_meters":6400,"station_id":"st_d4a7ka997mjs738ck50g","pricing_plan_id":"cebpf4jnsgd1na2vs0mg"},{"bike_id":"0aacd469-0b27-40e1-99a4-12c7f0582b16","system_id":"levelo_inurba_marseille","lat":43.28715,"lon":5.36091,"is_reserved":false,"is_disabled":false,"rental_uris":{"android":"levelo://app?vid=0aacd469-0b27-40e1-99a4-12c7f0582b16","ios":"levelo://app?vid=0aacd469-0b27-40e1-99a4-12c7f0582b16"},"vehicle_type_id":"4","last_reported":1768853624,"current_range_meters":6400,"station_id":"cki0cbj6b192h4jlfktg","pricing_plan_id":"cebpf4jnsgd1na2vs0mg"},{"bike_id":"bb222a75-25a1-4fae-89f9-e2c94f5fae83","system_id":"levelo_inurba_marseille","lat":43.295227,"lon":5.390226,"is_reserved":false,"is_disabled":false,"rental_uris":{"android":"levelo://app?vid=bb222a75-25a1-4fae-89f9-e2c94f5fae83","ios":"levelo://app?vid=bb222a75-25a1-4fae-89f9-e2c94f5fae83"},"vehicle_type_id":"4","last_reported":1768853624,"current_range_meters":6400,"station_id":"ce4bh0p2rcd13ifvqd70","pricing_plan_id":"cebpf4jnsgd1na2vs0mg"},{"bike_id":"72829d4f-7805-4cc1-a338-26ca4e177b0e","system_id":"levelo_inurba_marseille","lat":43.29022,"lon":5.38644,"is_reserved":false,"is_disabled":false,"rental_uris":{"android":"levelo://app?vid=72829d4f-7805-4cc1-a338-26ca4e177b0e","ios":"levelo://app?vid=72829d4f-7805-4cc1-a338-26ca4e177b0e"},"vehicle_type_id":"4","last_reported":1768853624,"current_range_meters":6400,"station_id":"ce4bh4p2rcd13ifvqe0g","pricing_plan_id":"cebpf4jnsgd1na2vs0mg"},{"bike_id":"5a1ea11e-0813-444a-a726-fb55e0ea8b42","system_id":"levelo_inurba_marseille","lat":43.299622,"lon":5.384889,"is_reserved":false,"is_disabled":false,"rental_uris":{"android":"levelo://app?vid=5a1ea11e-0813-444a-a726-fb55e0ea8b42","ios":"levelo://app?vid=5a1ea11e-0813-444a-a726-fb55e0ea8b42"},"vehicle_type_id":"4","last_reported":1768853624,"current_range_meters":6400,"station_id":"ce4bgj92rcd13ifvqbd0","pricing_plan_id":"cebpf4jnsgd1na2vs0mg"},{"bike_id":"369b0722-a4b8-4027-a4ac-c61f71d9f27d","system_id":"levelo_inurba_marseille","lat":43.29536,"lon":5.39416,"is_reserved":false,"is_disabled":false,"rental_uris":{"android":"levelo://app?vid=369b0722-a4b8-4027-a4ac-c61f71d9f27d","ios":"levelo://app?vid=369b0722-a4b8-4027-a4ac-c61f71d9f27d"},"vehicle_type_id":"4","last_reported":1768853624,"current_range_meters":6400,"station_id":"ce4bh292rcd13ifvqdf0","pricing_plan_id":"cebpf4jnsgd1na2vs0mg"},{"bike_id":"23130343-706e-4d89-bd20-e93b1b2ca952","system_id":"levelo_inurba_marseille","lat":43.30177,"lon":5.37978,"is_reserved":false,"is_disabled":false,"rental_uris":{"android":"levelo://app?vid=23130343-706e-4d89-bd20-e93b1b2ca952","ios":"levelo://app?vid=23130343-706e-4d89-bd20-e93b1b2ca952"},"vehicle_type_id":"4","last_reported":1768853624,"current_range_meters":6800,"station_id":"","pricing_plan_id":"cebpf4jnsgd1na2vs0mg"},{"bike_id":"de773d31-c0ae-4fe9-90d5-b0353b585a1e","system_id":"levelo_inurba_marseille","lat":43.265,"lon":5.39543,"is_reserved":false,"is_disabled":false,"rental_uris":{"android":"levelo://app?vid=de773d31-c0ae-4fe9-90d5-b0353b585a1e","ios":"levelo://app?vid=de773d31-c0ae-4fe9-90d5-b0353b585a1e"},"vehicle_type_id":"4","last_reported":1768853624,"current_range_meters":6800,"station_id":"","pricing_plan_id":"cebpf4jnsgd1na2vs0mg"},{"bike_id":"55a93059-46da-4326-b3f6-eca54949cf8d","system_id":"levelo_inurba_marseille","lat":43.27808,"lon":5.40709,"is_reserved":false,"is_disabled":false,"rental_uris":{"android":"levelo://app?vid=55a93059-46da-4326-b3f6-eca54949cf8d","ios":"levelo://app?vid=55a93059-46da-4326-b3f6-eca54949cf8d"},"vehicle_type_id":"4","last_reported":1768853624,"current_range_meters":6800,"station_id":"ce4bhnh2rcd13ifvqgtg","pricing_plan_id":"cebpf4jnsgd1na2vs0mg"},{"bike_id":"d16668c1-3494-42a0-89aa-a7fc6a4a19f9","system_id":"levelo_inurba_marseille","lat":43.2293,"lon":5.35367,"is_reserved":false,"is_disabled":false,"rental_uris":{"android":"levelo://app?vid=d16668c1-3494-42a0-89aa-a7fc6a4a19f9","ios":"levelo://app?vid=d16668c1-3494-42a0-89aa-a7fc6a4a19f9"},"vehicle_type_id":"4","last_reported":1768853624,"current_range_meters":6800,"station_id":"cpo3532slgdg3j2ikp40","pricing_plan_id":"cebpf4jnsgd1na2vs0mg"},{"bike_id":"8faa5eec-1572-4730-991d-d243800d03ee","system_id":"levelo_inurba_marseille","lat":43.30127,"lon":5.43116,"is_reserved":false,"is_disabled":false,"rental_uris":{"android":"levelo://app?vid=8faa5eec-1572-4730-991d-d243800d03ee","ios":"levelo://app?vid=8faa5eec-1572-4730-991d-d243800d03ee"},"vehicle_type_id":"4","last_reported":1768853624,"current_range_meters":6800,"station_id":"st_d3js3co5814s73ftftug","pricing_plan_id":"cebpf4jnsgd1na2vs0mg"},{"bike_id":"0352f83e-42c9-4b95-aab1-5eb895fe3a3d","system_id":"levelo_inurba_marseille","lat":43.22558,"lon":5.41614,"is_reserved":false,"is_disabled":false,"rental_uris":{"android":"levelo://app?vid=0352f83e-42c9-4b95-aab1-5eb895fe3a3d","ios":"levelo://app?vid=0352f83e-42c9-4b95-aab1-5eb895fe3a3d"},"vehicle_type_id":"4","last_reported":1768853624,"current_range_meters":6800,"station_id":"st_d2o4gvlbi1j2169b742g","pricing_plan_id":"cebpf4jnsgd1na2vs0mg"},{"bike_id":"4c18c049-62ae-469f-b2ed-484231c5fbdf","system_id":"levelo_inurba_marseille","lat":43.31073,"lon":5.38358,"is_reserved":false,"is_disabled":false,"rental_uris":{"android":"levelo://app?vid=4c18c049-62ae-469f-b2ed-484231c5fbdf","ios":"levelo://app?vid=4c18c049-62ae-469f-b2ed-484231c5fbdf"},"vehicle_type_id":"4","last_reported":1768853624,"current_range_meters":6800,"station_id":"ce4bgv92rcd13ifvqcr0","pricing_plan_id":"cebpf4jnsgd1na2vs0mg"},{"bike_id":"19875d50-7f43-4982-a2ad-e20b9e3adaa2","system_id":"levelo_inurba_marseille","lat":43.24951,"lon":5.40489,"is_reserved":false,"is_disabled":true,"rental_uris":{"android":"levelo://app?vid=19875d50-7f43-4982-a2ad-e20b9e3adaa2","ios":"levelo://app?vid=19875d50-7f43-4982-a2ad-e20b9e3adaa2"},"vehicle_type_id":"4","last_reported":1768853624,"current_range_meters":6800,"station_id":"st_d2ngiaodas8pm72gd1h0","pricing_plan_id":"cebpf4jnsgd1na2vs0mg"},{"bike_id":"5366dbe3-06f1-429a-b7b1-0a8d7ce37662","system_id":"levelo_inurba_marseille","lat":43.292658,"lon":5.408995,"is_reserved":false,"is_disabled":false,"rental_uris":{"android":"levelo://app?vid=5366dbe3-06f1-429a-b7b1-0a8d7ce37662","ios":"levelo://app?vid=5366dbe3-06f1-429a-b7b1-0a8d7ce37662"},"vehicle_type_id":"4","last_reported":1768853624,"current_range_meters":6800,"station_id":"ce4bh192rcd13ifvqdc0","pricing_plan_id":"cebpf4jnsgd1na2vs0mg"},{"bike_id":"24566be9-ade1-4d06-8609-5228ee715f52","system_id":"levelo_inurba_marseille","lat":43.29696,"lon":5.36601,"is_reserved":false,"is_disabled":false,"rental_uris":{"android":"levelo://app?vid=24566be9-ade1-4d06-8609-5228ee715f52","ios":"levelo://app?vid=24566be9-ade1-4d06-8609-5228ee715f52"},"vehicle_type_id":"4","last_reported":1768853624,"current_range_meters":6800,"station_id":"ce4bgn12rcd13ifvqbt0","pricing_plan_id":"cebpf4jnsgd1na2vs0mg"},{"bike_id":"ca08b23d-b54d-456f-9dc9-e5cc35a08fcc","system_id":"levelo_inurba_marseille","lat":43.28693,"lon":5.38668,"is_reserved":false,"is_disabled":false,"rental_uris":{"android":"levelo://app?vid=ca08b23d-b54d-456f-9dc9-e5cc35a08fcc","ios":"levelo://app?vid=ca08b23d-b54d-456f-9dc9-e5cc35a08fcc"},"vehicle_type_id":"4","last_reported":1768853624,"current_range_meters":6800,"station_id":"ce4bh492rcd13ifvqdug","pricing_plan_id":"cebpf4jnsgd1na2vs0mg"},{"bike_id":"5a47b597-eb88-4d0f-a0cc-dc9cf6057637","system_id":"levelo_inurba_marseille","lat":43.2465,"lon":5.38894,"is_reserved":false,"is_disabled":false,"rental_uris":{"android":"levelo://app?vid=5a47b597-eb88-4d0f-a0cc-dc9cf6057637","ios":"levelo://app?vid=5a47b597-eb88-4d0f-a0cc-dc9cf6057637"},"vehicle_type_id":"4","last_reported":1768853624,"current_range_meters":6800,"station_id":"ce4bhg12rcd13ifvqf60","pricing_plan_id":"cebpf4jnsgd1na2vs0mg"},{"bike_id":"1d96bc89-a55a-4036-8519-21c71a49b3da","system_id":"levelo_inurba_marseille","lat":43.31144,"lon":5.37972,"is_reserved":false,"is_disabled":false,"rental_uris":{"android":"levelo://app?vid=1d96bc89-a55a-4036-8519-21c71a49b3da","ios":"levelo://app?vid=1d96bc89-a55a-4036-8519-21c71a49b3da"},"vehicle_type_id":"4","last_reported":1768853624,"current_range_meters":6800,"station_id":"","pricing_plan_id":"cebpf4jnsgd1na2vs0mg"},{"bike_id":"fbe56d21-b8ca-48e6-a7e7-2db2bee715ee","system_id":"levelo_inurba_marseille","lat":43.2558,"lon":5.38228,"is_reserved":false,"is_disabled":false,"rental_uris":{"android":"levelo://app?vid=fbe56d21-b8ca-48e6-a7e7-2db2bee715ee","ios":"levelo://app?vid=fbe56d21-b8ca-48e6-a7e7-2db2bee715ee"},"vehicle_type_id":"4","last_reported":1768853624,"current_range_meters":6800,"station_id":"ce4bhih2rcd13ifvqfs0","pricing_plan_id":"cebpf4jnsgd1na2vs0mg"},{"bike_id":"032aecd2-ec21-44b6-8a45-d6109505bbde","system_id":"levelo_inurba_marseille","lat":43.24679,"lon":5.38151,"is_reserved":false,"is_disabled":false,"rental_uris":{"android":"levelo://app?vid=032aecd2-ec21-44b6-8a45-d6109505bbde","ios":"levelo://app?vid=032aecd2-ec21-44b6-8a45-d6109505bbde"},"vehicle_type_id":"4","last_reported":1768853624,"current_range_meters":6800,"station_id":"ce4bhih2rcd13ifvqfr0","pricing_plan_id":"cebpf4jnsgd1na2vs0mg"},{"bike_id":"3ca81cfa-8a3e-48fa-a409-545ea74d9f21","system_id":"levelo_inurba_marseille","lat":43.25329,"lon":5.42181,"is_reserved":false,"is_disabled":false,"rental_uris":{"android":"levelo://app?vid=3ca81cfa-8a3e-48fa-a409-545ea74d9f21","ios":"levelo://app?vid=3ca81cfa-8a3e-48fa-a409-545ea74d9f21"},"vehicle_type_id":"4","last_reported":1768853624,"current_range_meters":6800,"station_id":"st_d2m65c5bi1j21697t3ng","pricing_plan_id":"cebpf4jnsgd1na2vs0mg"},{"bike_id":"e7f15d55-45fa-49ba-b962-743927417de0","system_id":"levelo_inurba_marseille","lat":43.30424,"lon":5.39741,"is_reserved":false,"is_disabled":false,"rental_uris":{"android":"levelo://app?vid=e7f15d55-45fa-49ba-b962-743927417de0","ios":"levelo://app?vid=e7f15d55-45fa-49ba-b962-743927417de0"},"vehicle_type_id":"4","last_reported":1768853624,"current_range_meters":7200,"station_id":"ce4bh092rcd13ifvqd20","pricing_plan_id":"cebpf4jnsgd1na2vs0mg"},{"bike_id":"e696390d-8036-4f59-a8b6-4285efe55098","system_id":"levelo_inurba_marseille","lat":43.24651,"lon":5.38896,"is_reserved":false,"is_disabled":false,"rental_uris":{"android":"levelo://app?vid=e696390d-8036-4f59-a8b6-4285efe55098","ios":"levelo://app?vid=e696390d-8036-4f59-a8b6-4285efe55098"},"vehicle_type_id":"4","last_reported":1768853624,"current_range_meters":7200,"station_id":"ce4bhg12rcd13ifvqf60","pricing_plan_id":"cebpf4jnsgd1na2vs0mg"},{"bike_id":"526b8503-7faf-448a-b0f6-00cc94ab5971","system_id":"levelo_inurba_marseille","lat":43.24464,"lon":5.42546,"is_reserved":false,"is_disabled":false,"rental_uris":{"android":"levelo://app?vid=526b8503-7faf-448a-b0f6-00cc94ab5971","ios":"levelo://app?vid=526b8503-7faf-448a-b0f6-00cc94ab5971"},"vehicle_type_id":"4","last_reported":1768853624,"current_range_meters":7200,"station_id":"st_d4a3vfp97mjs738cd8kg","pricing_plan_id":"cebpf4jnsgd1na2vs0mg"},{"bike_id":"65fa859c-fd52-4fc1-bf24-0348f651f61b","system_id":"levelo_inurba_marseille","lat":43.27981,"lon":5.40003,"is_reserved":false,"is_disabled":false,"rental_uris":{"android":"levelo://app?vid=65fa859c-fd52-4fc1-bf24-0348f651f61b","ios":"levelo://app?vid=65fa859c-fd52-4fc1-bf24-0348f651f61b"},"vehicle_type_id":"4","last_reported":1768853624,"current_range_meters":7200,"station_id":"ce4bho92rcd13ifvqh4g","pricing_plan_id":"cebpf4jnsgd1na2vs0mg"},{"bike_id":"83c3c353-faa3-47ce-8bbc-59ab9c97b5cf","system_id":"levelo_inurba_marseille","lat":43.30632,"lon":5.37198,"is_reserved":false,"is_disabled":false,"rental_uris":{"android":"levelo://app?vid=83c3c353-faa3-47ce-8bbc-59ab9c97b5cf","ios":"levelo://app?vid=83c3c353-faa3-47ce-8bbc-59ab9c97b5cf"},"vehicle_type_id":"4","last_reported":1768853624,"current_range_meters":7200,"station_id":"ce4bgqh2rcd13ifvqc4g","pricing_plan_id":"cebpf4jnsgd1na2vs0mg"},{"bike_id":"110752dd-fcb0-4a44-8352-90ba14512a7e","system_id":"levelo_inurba_marseille","lat":43.28619,"lon":5.39896,"is_reserved":false,"is_disabled":false,"rental_uris":{"android":"levelo://app?vid=110752dd-fcb0-4a44-8352-90ba14512a7e","ios":"levelo://app?vid=110752dd-fcb0-4a44-8352-90ba14512a7e"},"vehicle_type_id":"4","last_reported":1768853624,"current_range_meters":7200,"station_id":"st_d4a7ka997mjs738ck50g","pricing_plan_id":"cebpf4jnsgd1na2vs0mg"},{"bike_id":"e30883dd-96d3-4b00-8b5d-c5c36c37f796","system_id":"levelo_inurba_marseille","lat":43.25577,"lon":5.38236,"is_reserved":false,"is_disabled":false,"rental_uris":{"android":"levelo://app?vid=e30883dd-96d3-4b00-8b5d-c5c36c37f796","ios":"levelo://app?vid=e30883dd-96d3-4b00-8b5d-c5c36c37f796"},"vehicle_type_id":"4","last_reported":1768853624,"current_range_meters":7200,"station_id":"ce4bhih2rcd13ifvqfs0","pricing_plan_id":"cebpf4jnsgd1na2vs0mg"},{"bike_id":"944690ea-f3d7-4e77-b795-63c34d099868","system_id":"levelo_inurba_marseille","lat":43.24471,"lon":5.42576,"is_reserved":false,"is_disabled":false,"rental_uris":{"android":"levelo://app?vid=944690ea-f3d7-4e77-b795-63c34d099868","ios":"levelo://app?vid=944690ea-f3d7-4e77-b795-63c34d099868"},"vehicle_type_id":"4","last_reported":1768853624,"current_range_meters":7200,"station_id":"st_d4a3vfp97mjs738cd8kg","pricing_plan_id":"cebpf4jnsgd1na2vs0mg"},{"bike_id":"160762cb-b0be-4eb4-9c86-0c44f320ab1f","system_id":"levelo_inurba_marseille","lat":43.24972,"lon":5.40505,"is_reserved":false,"is_disabled":false,"rental_uris":{"android":"levelo://app?vid=160762cb-b0be-4eb4-9c86-0c44f320ab1f","ios":"levelo://app?vid=160762cb-b0be-4eb4-9c86-0c44f320ab1f"},"vehicle_type_id":"4","last_reported":1768853624,"current_range_meters":7200,"station_id":"st_d2ngiaodas8pm72gd1h0","pricing_plan_id":"cebpf4jnsgd1na2vs0mg"},{"bike_id":"2aa92939-faa1-423c-a91d-f94f85acf3d9","system_id":"levelo_inurba_marseille","lat":43.317124,"lon":5.436972,"is_reserved":false,"is_disabled":false,"rental_uris":{"android":"levelo://app?vid=2aa92939-faa1-423c-a91d-f94f85acf3d9","ios":"levelo://app?vid=2aa92939-faa1-423c-a91d-f94f85acf3d9"},"vehicle_type_id":"4","last_reported":1768853624,"current_range_meters":7200,"station_id":"ce4bhp92rcd13ifvqhcg","pricing_plan_id":"cebpf4jnsgd1na2vs0mg"},{"bike_id":"66ee1d26-862e-4794-bbb2-afa9ee922c43","system_id":"levelo_inurba_marseille","lat":43.29788,"lon":5.39339,"is_reserved":false,"is_disabled":false,"rental_uris":{"android":"levelo://app?vid=66ee1d26-862e-4794-bbb2-afa9ee922c43","ios":"levelo://app?vid=66ee1d26-862e-4794-bbb2-afa9ee922c43"},"vehicle_type_id":"4","last_reported":1768853624,"current_range_meters":7200,"station_id":"chh1huq6cuj3fo74tm60","pricing_plan_id":"cebpf4jnsgd1na2vs0mg"},{"bike_id":"fac4e5af-2e82-475c-bc31-9567019eded6","system_id":"levelo_inurba_marseille","lat":43.25864,"lon":5.39904,"is_reserved":false,"is_disabled":false,"rental_uris":{"android":"levelo://app?vid=fac4e5af-2e82-475c-bc31-9567019eded6","ios":"levelo://app?vid=fac4e5af-2e82-475c-bc31-9567019eded6"},"vehicle_type_id":"4","last_reported":1768853624,"current_range_meters":7200,"station_id":"ce4bhl92rcd13ifvqghg","pricing_plan_id":"cebpf4jnsgd1na2vs0mg"},{"bike_id":"d9b02a63-6749-4e7c-a41c-f66a10e0384e","system_id":"levelo_inurba_marseille","lat":43.2318,"lon":5.39969,"is_reserved":false,"is_disabled":false,"rental_uris":{"android":"levelo://app?vid=d9b02a63-6749-4e7c-a41c-f66a10e0384e","ios":"levelo://app?vid=d9b02a63-6749-4e7c-a41c-f66a10e0384e"},"vehicle_type_id":"4","last_reported":1768853624,"current_range_meters":7200,"station_id":"ce4bhn12rcd13ifvqgqg","pricing_plan_id":"cebpf4jnsgd1na2vs0mg"},{"bike_id":"756d14e8-2c6b-4a78-909a-3065166b7627","system_id":"levelo_inurba_marseille","lat":43.30119,"lon":5.4309,"is_reserved":false,"is_disabled":false,"rental_uris":{"android":"levelo://app?vid=756d14e8-2c6b-4a78-909a-3065166b7627","ios":"levelo://app?vid=756d14e8-2c6b-4a78-909a-3065166b7627"},"vehicle_type_id":"4","last_reported":1768853624,"current_range_meters":8000,"station_id":"st_d3js3co5814s73ftftug","pricing_plan_id":"cebpf4jnsgd1na2vs0mg"},{"bike_id":"72531f71-d042-483c-a024-3dc9ad4c3b33","system_id":"levelo_inurba_marseille","lat":43.27999,"lon":5.40011,"is_reserved":false,"is_disabled":false,"rental_uris":{"android":"levelo://app?vid=72531f71-d042-483c-a024-3dc9ad4c3b33","ios":"levelo://app?vid=72531f71-d042-483c-a024-3dc9ad4c3b33"},"vehicle_type_id":"4","last_reported":1768853624,"current_range_meters":8000,"station_id":"ce4bho92rcd13ifvqh4g","pricing_plan_id":"cebpf4jnsgd1na2vs0mg"},{"bike_id":"b8fcd8cb-0594-4218-bff2-939b2eaa3365","system_id":"levelo_inurba_marseille","lat":43.27946,"lon":5.41037,"is_reserved":false,"is_disabled":false,"rental_uris":{"android":"levelo://app?vid=b8fcd8cb-0594-4218-bff2-939b2eaa3365","ios":"levelo://app?vid=b8fcd8cb-0594-4218-bff2-939b2eaa3365"},"vehicle_type_id":"4","last_reported":1768853624,"current_range_meters":8000,"station_id":"ce4bhnp2rcd13ifvqh0g","pricing_plan_id":"cebpf4jnsgd1na2vs0mg"},{"bike_id":"77a1140a-0d3b-41a6-b6b0-7d28a908c6be","system_id":"levelo_inurba_marseille","lat":43.24393,"lon":5.37069,"is_reserved":false,"is_disabled":false,"rental_uris":{"android":"levelo://app?vid=77a1140a-0d3b-41a6-b6b0-7d28a908c6be","ios":"levelo://app?vid=77a1140a-0d3b-41a6-b6b0-7d28a908c6be"},"vehicle_type_id":"4","last_reported":1768853624,"current_range_meters":8000,"station_id":"ce4bhhh2rcd13ifvqfk0","pricing_plan_id":"cebpf4jnsgd1na2vs0mg"},{"bike_id":"2a7e72c7-7fdf-46b5-8e98-fbe8666dc7c0","system_id":"levelo_inurba_marseille","lat":43.24808,"lon":5.37452,"is_reserved":false,"is_disabled":false,"rental_uris":{"android":"levelo://app?vid=2a7e72c7-7fdf-46b5-8e98-fbe8666dc7c0","ios":"levelo://app?vid=2a7e72c7-7fdf-46b5-8e98-fbe8666dc7c0"},"vehicle_type_id":"4","last_reported":1768853624,"current_range_meters":8000,"station_id":"ce4bhgh2rcd13ifvqfb0","pricing_plan_id":"cebpf4jnsgd1na2vs0mg"},{"bike_id":"dc8c1109-459c-4368-859d-186168c2462d","system_id":"levelo_inurba_marseille","lat":43.241669,"lon":5.363978,"is_reserved":false,"is_disabled":false,"rental_uris":{"android":"levelo://app?vid=dc8c1109-459c-4368-859d-186168c2462d","ios":"levelo://app?vid=dc8c1109-459c-4368-859d-186168c2462d"},"vehicle_type_id":"4","last_reported":1768853624,"current_range_meters":8000,"station_id":"cpo36qri1sfpv3e86is0","pricing_plan_id":"cebpf4jnsgd1na2vs0mg"},{"bike_id":"bc6c800a-6928-4bf7-8745-f31ca6747acf","system_id":"levelo_inurba_marseille","lat":43.323496,"lon":5.367318,"is_reserved":false,"is_disabled":false,"rental_uris":{"android":"levelo://app?vid=bc6c800a-6928-4bf7-8745-f31ca6747acf","ios":"levelo://app?vid=bc6c800a-6928-4bf7-8745-f31ca6747acf"},"vehicle_type_id":"4","last_reported":1768853624,"current_range_meters":8000,"station_id":"ce4bhsh2rcd13ifvqi2g","pricing_plan_id":"cebpf4jnsgd1na2vs0mg"},{"bike_id":"cda89745-8f54-4bf5-8360-8da5fc0056d3","system_id":"levelo_inurba_marseille","lat":43.310591,"lon":5.383395,"is_reserved":false,"is_disabled":false,"rental_uris":{"android":"levelo://app?vid=cda89745-8f54-4bf5-8360-8da5fc0056d3","ios":"levelo://app?vid=cda89745-8f54-4bf5-8360-8da5fc0056d3"},"vehicle_type_id":"4","last_reported":1768853624,"current_range_meters":8000,"station_id":"ce4bgv92rcd13ifvqcr0","pricing_plan_id":"cebpf4jnsgd1na2vs0mg"},{"bike_id":"2351e1c9-97c0-42ed-8ba7-93d168c64106","system_id":"levelo_inurba_marseille","lat":43.29751,"lon":5.42793,"is_reserved":false,"is_disabled":false,"rental_uris":{"android":"levelo://app?vid=2351e1c9-97c0-42ed-8ba7-93d168c64106","ios":"levelo://app?vid=2351e1c9-97c0-42ed-8ba7-93d168c64106"},"vehicle_type_id":"4","last_reported":1768853624,"current_range_meters":8000,"station_id":"st_d3md5207bmas73dh9klg","pricing_plan_id":"cebpf4jnsgd1na2vs0mg"},{"bike_id":"d264be04-6871-4fc7-afae-11fc7f008ade","system_id":"levelo_inurba_marseille","lat":43.29268,"lon":5.38438,"is_reserved":false,"is_disabled":false,"rental_uris":{"android":"levelo://app?vid=d264be04-6871-4fc7-afae-11fc7f008ade","ios":"levelo://app?vid=d264be04-6871-4fc7-afae-11fc7f008ade"},"vehicle_type_id":"4","last_reported":1768853624,"current_range_meters":8000,"station_id":"ce4bh692rcd13ifvqea0","pricing_plan_id":"cebpf4jnsgd1na2vs0mg"},{"bike_id":"26fa87a8-64e8-4574-88ad-3ef617745c36","system_id":"levelo_inurba_marseille","lat":43.27809,"lon":5.40697,"is_reserved":false,"is_disabled":false,"rental_uris":{"android":"levelo://app?vid=26fa87a8-64e8-4574-88ad-3ef617745c36","ios":"levelo://app?vid=26fa87a8-64e8-4574-88ad-3ef617745c36"},"vehicle_type_id":"4","last_reported":1768853624,"current_range_meters":8000,"station_id":"ce4bhnh2rcd13ifvqgtg","pricing_plan_id":"cebpf4jnsgd1na2vs0mg"},{"bike_id":"00a11bba-6bed-40ef-b4d7-f664207dbff5","system_id":"levelo_inurba_marseille","lat":43.25004,"lon":5.38933,"is_reserved":false,"is_disabled":false,"rental_uris":{"android":"levelo://app?vid=00a11bba-6bed-40ef-b4d7-f664207dbff5","ios":"levelo://app?vid=00a11bba-6bed-40ef-b4d7-f664207dbff5"},"vehicle_type_id":"4","last_reported":1768853624,"current_range_meters":8000,"station_id":"ce4bhgp2rcd13ifvqfd0","pricing_plan_id":"cebpf4jnsgd1na2vs0mg"},{"bike_id":"f949b1a8-0099-4897-af1c-b4c1c497f28f","system_id":"levelo_inurba_marseille","lat":43.25819,"lon":5.39453,"is_reserved":false,"is_disabled":false,"rental_uris":{"android":"levelo://app?vid=f949b1a8-0099-4897-af1c-b4c1c497f28f","ios":"levelo://app?vid=f949b1a8-0099-4897-af1c-b4c1c497f28f"},"vehicle_type_id":"4","last_reported":1768853624,"current_range_meters":8000,"station_id":"ce4bhip2rcd13ifvqft0","pricing_plan_id":"cebpf4jnsgd1na2vs0mg"},{"bike_id":"d0a70439-b068-41ba-bc8d-4fbe10ec4141","system_id":"levelo_inurba_marseille","lat":43.28152,"lon":5.42641,"is_reserved":false,"is_disabled":false,"rental_uris":{"android":"levelo://app?vid=d0a70439-b068-41ba-bc8d-4fbe10ec4141","ios":"levelo://app?vid=d0a70439-b068-41ba-bc8d-4fbe10ec4141"},"vehicle_type_id":"4","last_reported":1768853624,"current_range_meters":8000,"station_id":"ce4bhnh2rcd13ifvqgug","pricing_plan_id":"cebpf4jnsgd1na2vs0mg"},{"bike_id":"f650aff8-e742-48ca-8e77-f4fd3b3eebb9","system_id":"levelo_inurba_marseille","lat":43.26856,"lon":5.39584,"is_reserved":false,"is_disabled":false,"rental_uris":{"android":"levelo://app?vid=f650aff8-e742-48ca-8e77-f4fd3b3eebb9","ios":"levelo://app?vid=f650aff8-e742-48ca-8e77-f4fd3b3eebb9"},"vehicle_type_id":"4","last_reported":1768853624,"current_range_meters":8000,"station_id":"","pricing_plan_id":"cebpf4jnsgd1na2vs0mg"},{"bike_id":"33fa26f0-0d41-40f0-937f-42edd0fc6d0d","system_id":"levelo_inurba_marseille","lat":43.255881,"lon":5.382445,"is_reserved":false,"is_disabled":false,"rental_uris":{"android":"levelo://app?vid=33fa26f0-0d41-40f0-937f-42edd0fc6d0d","ios":"levelo://app?vid=33fa26f0-0d41-40f0-937f-42edd0fc6d0d"},"vehicle_type_id":"4","last_reported":1768853624,"current_range_meters":8000,"station_id":"ce4bhih2rcd13ifvqfs0","pricing_plan_id":"cebpf4jnsgd1na2vs0mg"},{"bike_id":"8b36c48c-cee1-407c-b4fc-9439f2de3d6a","system_id":"levelo_inurba_marseille","lat":43.29841,"lon":5.36263,"is_reserved":false,"is_disabled":false,"rental_uris":{"android":"levelo://app?vid=8b36c48c-cee1-407c-b4fc-9439f2de3d6a","ios":"levelo://app?vid=8b36c48c-cee1-407c-b4fc-9439f2de3d6a"},"vehicle_type_id":"4","last_reported":1768853624,"current_range_meters":8000,"station_id":"ce4bgpp2rcd13ifvqc3g","pricing_plan_id":"cebpf4jnsgd1na2vs0mg"},{"bike_id":"a2853d7e-9f09-429d-bb18-d81aadd54a33","system_id":"levelo_inurba_marseille","lat":43.31532,"lon":5.38022,"is_reserved":false,"is_disabled":false,"rental_uris":{"android":"levelo://app?vid=a2853d7e-9f09-429d-bb18-d81aadd54a33","ios":"levelo://app?vid=a2853d7e-9f09-429d-bb18-d81aadd54a33"},"vehicle_type_id":"4","last_reported":1768853624,"current_range_meters":8000,"station_id":"ce4bhsp2rcd13ifvqi50","pricing_plan_id":"cebpf4jnsgd1na2vs0mg"},{"bike_id":"f9521f2f-ef1d-4474-82c2-4520713c5b63","system_id":"levelo_inurba_marseille","lat":43.27999,"lon":5.41648,"is_reserved":false,"is_disabled":false,"rental_uris":{"android":"levelo://app?vid=f9521f2f-ef1d-4474-82c2-4520713c5b63","ios":"levelo://app?vid=f9521f2f-ef1d-4474-82c2-4520713c5b63"},"vehicle_type_id":"4","last_reported":1768853624,"current_range_meters":8000,"station_id":"ce4bho12rcd13ifvqh1g","pricing_plan_id":"cebpf4jnsgd1na2vs0mg"},{"bike_id":"bff75e7f-4a1a-426a-b08e-395e935c089a","system_id":"levelo_inurba_marseille","lat":43.24171,"lon":5.3973,"is_reserved":false,"is_disabled":false,"rental_uris":{"android":"levelo://app?vid=bff75e7f-4a1a-426a-b08e-395e935c089a","ios":"levelo://app?vid=bff75e7f-4a1a-426a-b08e-395e935c089a"},"vehicle_type_id":"4","last_reported":1768853624,"current_range_meters":8000,"station_id":"ce4bhn12rcd13ifvqgpg","pricing_plan_id":"cebpf4jnsgd1na2vs0mg"},{"bike_id":"b9eb4abf-1e15-4e70-9433-4b17890b2dca","system_id":"levelo_inurba_marseille","lat":43.26025,"lon":5.41732,"is_reserved":false,"is_disabled":false,"rental_uris":{"android":"levelo://app?vid=b9eb4abf-1e15-4e70-9433-4b17890b2dca","ios":"levelo://app?vid=b9eb4abf-1e15-4e70-9433-4b17890b2dca"},"vehicle_type_id":"4","last_reported":1768853624,"current_range_meters":8000,"station_id":"","pricing_plan_id":"cebpf4jnsgd1na2vs0mg"},{"bike_id":"9e5998a3-e8ec-4ff6-bdc2-90c25f4c041f","system_id":"levelo_inurba_marseille","lat":43.2583,"lon":5.39435,"is_reserved":false,"is_disabled":false,"rental_uris":{"android":"levelo://app?vid=9e5998a3-e8ec-4ff6-bdc2-90c25f4c041f","ios":"levelo://app?vid=9e5998a3-e8ec-4ff6-bdc2-90c25f4c041f"},"vehicle_type_id":"4","last_reported":1768853624,"current_range_meters":8000,"station_id":"ce4bhip2rcd13ifvqft0","pricing_plan_id":"cebpf4jnsgd1na2vs0mg"},{"bike_id":"423b8ad7-c0d5-4856-ae2d-74b887dec349","system_id":"levelo_inurba_marseille","lat":43.31228,"lon":5.37749,"is_reserved":false,"is_disabled":false,"rental_uris":{"android":"levelo://app?vid=423b8ad7-c0d5-4856-ae2d-74b887dec349","ios":"levelo://app?vid=423b8ad7-c0d5-4856-ae2d-74b887dec349"},"vehicle_type_id":"4","last_reported":1768853624,"current_range_meters":8000,"station_id":"","pricing_plan_id":"cebpf4jnsgd1na2vs0mg"},{"bike_id":"8c658bc6-ab44-4ca2-a587-eda41d0f49c2","system_id":"levelo_inurba_marseille","lat":43.3046,"lon":5.37898,"is_reserved":false,"is_disabled":false,"rental_uris":{"android":"levelo://app?vid=8c658bc6-ab44-4ca2-a587-eda41d0f49c2","ios":"levelo://app?vid=8c658bc6-ab44-4ca2-a587-eda41d0f49c2"},"vehicle_type_id":"4","last_reported":1768853624,"current_range_meters":8000,"station_id":"ce4bgup2rcd13ifvqcn0","pricing_plan_id":"cebpf4jnsgd1na2vs0mg"},{"bike_id":"d1656b93-1b71-4e85-bf98-22a1e92bb468","system_id":"levelo_inurba_marseille","lat":43.2889,"lon":5.42489,"is_reserved":false,"is_disabled":false,"rental_uris":{"android":"levelo://app?vid=d1656b93-1b71-4e85-bf98-22a1e92bb468","ios":"levelo://app?vid=d1656b93-1b71-4e85-bf98-22a1e92bb468"},"vehicle_type_id":"4","last_reported":1768853624,"current_range_meters":8000,"station_id":"st_d3b462108ojc7389ooeg","pricing_plan_id":"cebpf4jnsgd1na2vs0mg"},{"bike_id":"a7cca228-be87-4aa3-a01a-ba1536b3ec5b","system_id":"levelo_inurba_marseille","lat":43.2315,"lon":5.43716,"is_reserved":false,"is_disabled":false,"rental_uris":{"android":"levelo://app?vid=a7cca228-be87-4aa3-a01a-ba1536b3ec5b","ios":"levelo://app?vid=a7cca228-be87-4aa3-a01a-ba1536b3ec5b"},"vehicle_type_id":"4","last_reported":1768853624,"current_range_meters":8000,"station_id":"ce4bhmp2rcd13ifvqgog","pricing_plan_id":"cebpf4jnsgd1na2vs0mg"},{"bike_id":"d981dced-9bb5-422b-a10f-61f1c6f45c9c","system_id":"levelo_inurba_marseille","lat":43.28609,"lon":5.39865,"is_reserved":false,"is_disabled":false,"rental_uris":{"android":"levelo://app?vid=d981dced-9bb5-422b-a10f-61f1c6f45c9c","ios":"levelo://app?vid=d981dced-9bb5-422b-a10f-61f1c6f45c9c"},"vehicle_type_id":"4","last_reported":1768853624,"current_range_meters":8000,"station_id":"st_d4a7ka997mjs738ck50g","pricing_plan_id":"cebpf4jnsgd1na2vs0mg"},{"bike_id":"5ee0ab39-71a5-4182-a42c-e8c3fcb9e806","system_id":"levelo_inurba_marseille","lat":43.30424,"lon":5.38882,"is_reserved":false,"is_disabled":false,"rental_uris":{"android":"levelo://app?vid=5ee0ab39-71a5-4182-a42c-e8c3fcb9e806","ios":"levelo://app?vid=5ee0ab39-71a5-4182-a42c-e8c3fcb9e806"},"vehicle_type_id":"4","last_reported":1768853624,"current_range_meters":8000,"station_id":"ce4bgk12rcd13ifvqbi0","pricing_plan_id":"cebpf4jnsgd1na2vs0mg"},{"bike_id":"a8d2063b-b136-4ccb-ad44-f4ea411c2cb1","system_id":"levelo_inurba_marseille","lat":43.24629,"lon":5.43134,"is_reserved":false,"is_disabled":false,"rental_uris":{"android":"levelo://app?vid=a8d2063b-b136-4ccb-ad44-f4ea411c2cb1","ios":"levelo://app?vid=a8d2063b-b136-4ccb-ad44-f4ea411c2cb1"},"vehicle_type_id":"4","last_reported":1768853624,"current_range_meters":8400,"station_id":"st_d2m6c4gdas8pm72e190g","pricing_plan_id":"cebpf4jnsgd1na2vs0mg"},{"bike_id":"fc994a2b-0355-4a92-b6ad-9cee7a3878f1","system_id":"levelo_inurba_marseille","lat":43.26491,"lon":5.39549,"is_reserved":false,"is_disabled":false,"rental_uris":{"android":"levelo://app?vid=fc994a2b-0355-4a92-b6ad-9cee7a3878f1","ios":"levelo://app?vid=fc994a2b-0355-4a92-b6ad-9cee7a3878f1"},"vehicle_type_id":"4","last_reported":1768853624,"current_range_meters":8400,"station_id":"ce4bhi12rcd13ifvqfq0","pricing_plan_id":"cebpf4jnsgd1na2vs0mg"},{"bike_id":"d98680e2-8519-4eb7-88a9-6aba4c293400","system_id":"levelo_inurba_marseille","lat":43.27993,"lon":5.40006,"is_reserved":false,"is_disabled":false,"rental_uris":{"android":"levelo://app?vid=d98680e2-8519-4eb7-88a9-6aba4c293400","ios":"levelo://app?vid=d98680e2-8519-4eb7-88a9-6aba4c293400"},"vehicle_type_id":"4","last_reported":1768853624,"current_range_meters":8400,"station_id":"ce4bho92rcd13ifvqh4g","pricing_plan_id":"cebpf4jnsgd1na2vs0mg"},{"bike_id":"6e7007a4-50a4-410a-b7bd-d0ebb7830797","system_id":"levelo_inurba_marseille","lat":43.24201,"lon":5.39664,"is_reserved":false,"is_disabled":false,"rental_uris":{"android":"levelo://app?vid=6e7007a4-50a4-410a-b7bd-d0ebb7830797","ios":"levelo://app?vid=6e7007a4-50a4-410a-b7bd-d0ebb7830797"},"vehicle_type_id":"4","last_reported":1768853624,"current_range_meters":8400,"station_id":"","pricing_plan_id":"cebpf4jnsgd1na2vs0mg"},{"bike_id":"b413f672-6f60-41b8-8f68-1814f77da456","system_id":"levelo_inurba_marseille","lat":43.24175,"lon":5.36393,"is_reserved":false,"is_disabled":false,"rental_uris":{"android":"levelo://app?vid=b413f672-6f60-41b8-8f68-1814f77da456","ios":"levelo://app?vid=b413f672-6f60-41b8-8f68-1814f77da456"},"vehicle_type_id":"4","last_reported":1768853624,"current_range_meters":8400,"station_id":"cpo36qri1sfpv3e86is0","pricing_plan_id":"cebpf4jnsgd1na2vs0mg"},{"bike_id":"18af9eee-a946-4752-9d9d-709d962f533d","system_id":"levelo_inurba_marseille","lat":43.31712,"lon":5.43693,"is_reserved":false,"is_disabled":false,"rental_uris":{"android":"levelo://app?vid=18af9eee-a946-4752-9d9d-709d962f533d","ios":"levelo://app?vid=18af9eee-a946-4752-9d9d-709d962f533d"},"vehicle_type_id":"4","last_reported":1768853624,"current_range_meters":8400,"station_id":"ce4bhp92rcd13ifvqhcg","pricing_plan_id":"cebpf4jnsgd1na2vs0mg"},{"bike_id":"73a4e6a5-0c0f-409b-a59b-671187d7eeb4","system_id":"levelo_inurba_marseille","lat":43.24171,"lon":5.39729,"is_reserved":false,"is_disabled":false,"rental_uris":{"android":"levelo://app?vid=73a4e6a5-0c0f-409b-a59b-671187d7eeb4","ios":"levelo://app?vid=73a4e6a5-0c0f-409b-a59b-671187d7eeb4"},"vehicle_type_id":"4","last_reported":1768853624,"current_range_meters":8400,"station_id":"ce4bhn12rcd13ifvqgpg","pricing_plan_id":"cebpf4jnsgd1na2vs0mg"},{"bike_id":"b9127574-6b1e-4043-9224-ebb8aeabb571","system_id":"levelo_inurba_marseille","lat":43.30137,"lon":5.38789,"is_reserved":false,"is_disabled":true,"rental_uris":{"android":"levelo://app?vid=b9127574-6b1e-4043-9224-ebb8aeabb571","ios":"levelo://app?vid=b9127574-6b1e-4043-9224-ebb8aeabb571"},"vehicle_type_id":"4","last_reported":1768853624,"current_range_meters":8400,"station_id":"ce4bghh2rcd13ifvqb60","pricing_plan_id":"cebpf4jnsgd1na2vs0mg"},{"bike_id":"7eb7bc06-d60e-4a1a-8fa8-1625e2b2692a","system_id":"levelo_inurba_marseille","lat":43.29747,"lon":5.37338,"is_reserved":false,"is_disabled":false,"rental_uris":{"android":"levelo://app?vid=7eb7bc06-d60e-4a1a-8fa8-1625e2b2692a","ios":"levelo://app?vid=7eb7bc06-d60e-4a1a-8fa8-1625e2b2692a"},"vehicle_type_id":"4","last_reported":1768853624,"current_range_meters":8400,"station_id":"","pricing_plan_id":"cebpf4jnsgd1na2vs0mg"},{"bike_id":"5e92d24d-e32f-4d19-9059-007060e16202","system_id":"levelo_inurba_marseille","lat":43.29173,"lon":5.37137,"is_reserved":false,"is_disabled":false,"rental_uris":{"android":"levelo://app?vid=5e92d24d-e32f-4d19-9059-007060e16202","ios":"levelo://app?vid=5e92d24d-e32f-4d19-9059-007060e16202"},"vehicle_type_id":"4","last_reported":1768853624,"current_range_meters":8400,"station_id":"ce4bha92rcd13ifvqeh0","pricing_plan_id":"cebpf4jnsgd1na2vs0mg"},{"bike_id":"bc0686aa-660c-455d-85d7-5aeb7f5eefa4","system_id":"levelo_inurba_marseille","lat":43.26366,"lon":5.41078,"is_reserved":false,"is_disabled":false,"rental_uris":{"android":"levelo://app?vid=bc0686aa-660c-455d-85d7-5aeb7f5eefa4","ios":"levelo://app?vid=bc0686aa-660c-455d-85d7-5aeb7f5eefa4"},"vehicle_type_id":"4","last_reported":1768853624,"current_range_meters":8400,"station_id":"st_d4e5ca6na9uc73bfl5fg","pricing_plan_id":"cebpf4jnsgd1na2vs0mg"},{"bike_id":"90e30c61-c606-4ba6-adb5-183cc649b959","system_id":"levelo_inurba_marseille","lat":43.27948,"lon":5.41051,"is_reserved":false,"is_disabled":false,"rental_uris":{"android":"levelo://app?vid=90e30c61-c606-4ba6-adb5-183cc649b959","ios":"levelo://app?vid=90e30c61-c606-4ba6-adb5-183cc649b959"},"vehicle_type_id":"4","last_reported":1768853624,"current_range_meters":8400,"station_id":"ce4bhnp2rcd13ifvqh0g","pricing_plan_id":"cebpf4jnsgd1na2vs0mg"},{"bike_id":"c945f0ba-a485-4dbc-9c7e-745da3aefd34","system_id":"levelo_inurba_marseille","lat":43.27809,"lon":5.40718,"is_reserved":false,"is_disabled":false,"rental_uris":{"android":"levelo://app?vid=c945f0ba-a485-4dbc-9c7e-745da3aefd34","ios":"levelo://app?vid=c945f0ba-a485-4dbc-9c7e-745da3aefd34"},"vehicle_type_id":"4","last_reported":1768853624,"current_range_meters":8400,"station_id":"ce4bhnh2rcd13ifvqgtg","pricing_plan_id":"cebpf4jnsgd1na2vs0mg"},{"bike_id":"5efeb85a-b0f9-4de0-9295-125baf33b57f","system_id":"levelo_inurba_marseille","lat":43.24654,"lon":5.38886,"is_reserved":false,"is_disabled":false,"rental_uris":{"android":"levelo://app?vid=5efeb85a-b0f9-4de0-9295-125baf33b57f","ios":"levelo://app?vid=5efeb85a-b0f9-4de0-9295-125baf33b57f"},"vehicle_type_id":"4","last_reported":1768853624,"current_range_meters":8400,"station_id":"ce4bhg12rcd13ifvqf60","pricing_plan_id":"cebpf4jnsgd1na2vs0mg"},{"bike_id":"3cf4f121-47f1-4ab7-8209-fc71d72f0a66","system_id":"levelo_inurba_marseille","lat":43.31558,"lon":5.38008,"is_reserved":false,"is_disabled":false,"rental_uris":{"android":"levelo://app?vid=3cf4f121-47f1-4ab7-8209-fc71d72f0a66","ios":"levelo://app?vid=3cf4f121-47f1-4ab7-8209-fc71d72f0a66"},"vehicle_type_id":"4","last_reported":1768853624,"current_range_meters":8400,"station_id":"ce4bhsp2rcd13ifvqi50","pricing_plan_id":"cebpf4jnsgd1na2vs0mg"},{"bike_id":"aaef3ec1-41c8-4c84-860e-bea41a8299bc","system_id":"levelo_inurba_marseille","lat":43.22557,"lon":5.41633,"is_reserved":false,"is_disabled":false,"rental_uris":{"android":"levelo://app?vid=aaef3ec1-41c8-4c84-860e-bea41a8299bc","ios":"levelo://app?vid=aaef3ec1-41c8-4c84-860e-bea41a8299bc"},"vehicle_type_id":"4","last_reported":1768853624,"current_range_meters":8400,"station_id":"st_d2o4gvlbi1j2169b742g","pricing_plan_id":"cebpf4jnsgd1na2vs0mg"},{"bike_id":"918322d6-586a-4c0f-b02a-0ab493d7d1e2","system_id":"levelo_inurba_marseille","lat":43.31338,"lon":5.39709,"is_reserved":false,"is_disabled":false,"rental_uris":{"android":"levelo://app?vid=918322d6-586a-4c0f-b02a-0ab493d7d1e2","ios":"levelo://app?vid=918322d6-586a-4c0f-b02a-0ab493d7d1e2"},"vehicle_type_id":"4","last_reported":1768853624,"current_range_meters":8400,"station_id":"ce4bgvp2rcd13ifvqcu0","pricing_plan_id":"cebpf4jnsgd1na2vs0mg"},{"bike_id":"30a4fec0-552e-4f59-a219-04b536436fc8","system_id":"levelo_inurba_marseille","lat":43.237793,"lon":5.366329,"is_reserved":false,"is_disabled":false,"rental_uris":{"android":"levelo://app?vid=30a4fec0-552e-4f59-a219-04b536436fc8","ios":"levelo://app?vid=30a4fec0-552e-4f59-a219-04b536436fc8"},"vehicle_type_id":"4","last_reported":1768853624,"current_range_meters":8400,"station_id":"st_d3nk18o9ro0c73en2l3g","pricing_plan_id":"cebpf4jnsgd1na2vs0mg"},{"bike_id":"dc7f2cde-f394-4ae1-b0e4-a51d66aa1255","system_id":"levelo_inurba_marseille","lat":43.281476,"lon":5.431475,"is_reserved":false,"is_disabled":false,"rental_uris":{"android":"levelo://app?vid=dc7f2cde-f394-4ae1-b0e4-a51d66aa1255","ios":"levelo://app?vid=dc7f2cde-f394-4ae1-b0e4-a51d66aa1255"},"vehicle_type_id":"4","last_reported":1768853624,"current_range_meters":8400,"station_id":"","pricing_plan_id":"cebpf4jnsgd1na2vs0mg"},{"bike_id":"8dd29d92-f002-43aa-9b1f-4ab297c82f6b","system_id":"levelo_inurba_marseille","lat":43.2668,"lon":5.38265,"is_reserved":false,"is_disabled":false,"rental_uris":{"android":"levelo://app?vid=8dd29d92-f002-43aa-9b1f-4ab297c82f6b","ios":"levelo://app?vid=8dd29d92-f002-43aa-9b1f-4ab297c82f6b"},"vehicle_type_id":"4","last_reported":1768853624,"current_range_meters":8400,"station_id":"ce4bhg92rcd13ifvqf90","pricing_plan_id":"cebpf4jnsgd1na2vs0mg"},{"bike_id":"dc2a9558-abfe-4ddc-ba8f-278f09875a11","system_id":"levelo_inurba_marseille","lat":43.26567,"lon":5.39011,"is_reserved":false,"is_disabled":false,"rental_uris":{"android":"levelo://app?vid=dc2a9558-abfe-4ddc-ba8f-278f09875a11","ios":"levelo://app?vid=dc2a9558-abfe-4ddc-ba8f-278f09875a11"},"vehicle_type_id":"4","last_reported":1768853624,"current_range_meters":8400,"station_id":"ce4bhe12rcd13ifvqf30","pricing_plan_id":"cebpf4jnsgd1na2vs0mg"},{"bike_id":"34fa67cb-bca2-4f0a-bb16-9b715ad9f3e0","system_id":"levelo_inurba_marseille","lat":43.28678,"lon":5.38655,"is_reserved":false,"is_disabled":false,"rental_uris":{"android":"levelo://app?vid=34fa67cb-bca2-4f0a-bb16-9b715ad9f3e0","ios":"levelo://app?vid=34fa67cb-bca2-4f0a-bb16-9b715ad9f3e0"},"vehicle_type_id":"4","last_reported":1768853624,"current_range_meters":8400,"station_id":"ce4bh492rcd13ifvqdug","pricing_plan_id":"cebpf4jnsgd1na2vs0mg"},{"bike_id":"3a14c7b9-6735-4ad5-9121-0adfddf6b3dc","system_id":"levelo_inurba_marseille","lat":43.303195,"lon":5.404322,"is_reserved":false,"is_disabled":false,"rental_uris":{"android":"levelo://app?vid=3a14c7b9-6735-4ad5-9121-0adfddf6b3dc","ios":"levelo://app?vid=3a14c7b9-6735-4ad5-9121-0adfddf6b3dc"},"vehicle_type_id":"4","last_reported":1768853624,"current_range_meters":8400,"station_id":"ce4bh012rcd13ifvqd10","pricing_plan_id":"cebpf4jnsgd1na2vs0mg"},{"bike_id":"3c0bb7d7-7ea2-4502-a02e-c86beaa596bf","system_id":"levelo_inurba_marseille","lat":43.28914,"lon":5.38385,"is_reserved":false,"is_disabled":true,"rental_uris":{"android":"levelo://app?vid=3c0bb7d7-7ea2-4502-a02e-c86beaa596bf","ios":"levelo://app?vid=3c0bb7d7-7ea2-4502-a02e-c86beaa596bf"},"vehicle_type_id":"4","last_reported":1768853624,"current_range_meters":8400,"station_id":"ce4bh612rcd13ifvqe6g","pricing_plan_id":"cebpf4jnsgd1na2vs0mg"},{"bike_id":"9301d8e0-a074-4a72-a5e6-2c3547935f4f","system_id":"levelo_inurba_marseille","lat":43.27827,"lon":5.39196,"is_reserved":false,"is_disabled":false,"rental_uris":{"android":"levelo://app?vid=9301d8e0-a074-4a72-a5e6-2c3547935f4f","ios":"levelo://app?vid=9301d8e0-a074-4a72-a5e6-2c3547935f4f"},"vehicle_type_id":"4","last_reported":1768853624,"current_range_meters":8400,"station_id":"ce4bhjp2rcd13ifvqga0","pricing_plan_id":"cebpf4jnsgd1na2vs0mg"},{"bike_id":"108b0029-d01a-4933-8e88-16292523c45d","system_id":"levelo_inurba_marseille","lat":43.24646,"lon":5.38905,"is_reserved":false,"is_disabled":false,"rental_uris":{"android":"levelo://app?vid=108b0029-d01a-4933-8e88-16292523c45d","ios":"levelo://app?vid=108b0029-d01a-4933-8e88-16292523c45d"},"vehicle_type_id":"4","last_reported":1768853624,"current_range_meters":8400,"station_id":"ce4bhg12rcd13ifvqf60","pricing_plan_id":"cebpf4jnsgd1na2vs0mg"},{"bike_id":"1272ca26-8489-4856-86b5-29f469845629","system_id":"levelo_inurba_marseille","lat":43.29278,"lon":5.36857,"is_reserved":false,"is_disabled":false,"rental_uris":{"android":"levelo://app?vid=1272ca26-8489-4856-86b5-29f469845629","ios":"levelo://app?vid=1272ca26-8489-4856-86b5-29f469845629"},"vehicle_type_id":"4","last_reported":1768853624,"current_range_meters":8400,"station_id":"ce4bhbp2rcd13ifvqesg","pricing_plan_id":"cebpf4jnsgd1na2vs0mg"},{"bike_id":"9a6fa9d6-bd85-41a0-a1be-8f3bc0337c0a","system_id":"levelo_inurba_marseille","lat":43.24468,"lon":5.42548,"is_reserved":false,"is_disabled":false,"rental_uris":{"android":"levelo://app?vid=9a6fa9d6-bd85-41a0-a1be-8f3bc0337c0a","ios":"levelo://app?vid=9a6fa9d6-bd85-41a0-a1be-8f3bc0337c0a"},"vehicle_type_id":"4","last_reported":1768853624,"current_range_meters":8800,"station_id":"st_d4a3vfp97mjs738cd8kg","pricing_plan_id":"cebpf4jnsgd1na2vs0mg"},{"bike_id":"3a73d29d-19a3-4829-b646-774a893045f4","system_id":"levelo_inurba_marseille","lat":43.24438,"lon":5.42546,"is_reserved":false,"is_disabled":false,"rental_uris":{"android":"levelo://app?vid=3a73d29d-19a3-4829-b646-774a893045f4","ios":"levelo://app?vid=3a73d29d-19a3-4829-b646-774a893045f4"},"vehicle_type_id":"4","last_reported":1768853624,"current_range_meters":8800,"station_id":"st_d4a3vfp97mjs738cd8kg","pricing_plan_id":"cebpf4jnsgd1na2vs0mg"},{"bike_id":"b4d4d78b-c7ae-46d1-84aa-0c58c638c8ea","system_id":"levelo_inurba_marseille","lat":43.27994,"lon":5.41657,"is_reserved":false,"is_disabled":false,"rental_uris":{"android":"levelo://app?vid=b4d4d78b-c7ae-46d1-84aa-0c58c638c8ea","ios":"levelo://app?vid=b4d4d78b-c7ae-46d1-84aa-0c58c638c8ea"},"vehicle_type_id":"4","last_reported":1768853624,"current_range_meters":8800,"station_id":"ce4bho12rcd13ifvqh1g","pricing_plan_id":"cebpf4jnsgd1na2vs0mg"},{"bike_id":"d22ed065-4fe2-4b60-bef2-0ac8d0ec8e32","system_id":"levelo_inurba_marseille","lat":43.29517,"lon":5.39394,"is_reserved":false,"is_disabled":false,"rental_uris":{"android":"levelo://app?vid=d22ed065-4fe2-4b60-bef2-0ac8d0ec8e32","ios":"levelo://app?vid=d22ed065-4fe2-4b60-bef2-0ac8d0ec8e32"},"vehicle_type_id":"4","last_reported":1768853624,"current_range_meters":8800,"station_id":"ce4bh292rcd13ifvqdf0","pricing_plan_id":"cebpf4jnsgd1na2vs0mg"},{"bike_id":"a628d4f8-c579-4a83-9f43-a7561f247438","system_id":"levelo_inurba_marseille","lat":43.28415,"lon":5.39204,"is_reserved":false,"is_disabled":false,"rental_uris":{"android":"levelo://app?vid=a628d4f8-c579-4a83-9f43-a7561f247438","ios":"levelo://app?vid=a628d4f8-c579-4a83-9f43-a7561f247438"},"vehicle_type_id":"4","last_reported":1768853624,"current_range_meters":8800,"station_id":"ce4bhoh2rcd13ifvqh5g","pricing_plan_id":"cebpf4jnsgd1na2vs0mg"},{"bike_id":"826aeb2d-9384-4062-9da4-ff770f5b59dd","system_id":"levelo_inurba_marseille","lat":43.26071,"lon":5.39396,"is_reserved":false,"is_disabled":false,"rental_uris":{"android":"levelo://app?vid=826aeb2d-9384-4062-9da4-ff770f5b59dd","ios":"levelo://app?vid=826aeb2d-9384-4062-9da4-ff770f5b59dd"},"vehicle_type_id":"4","last_reported":1768853624,"current_range_meters":8800,"station_id":"ce4bhh92rcd13ifvqfj0","pricing_plan_id":"cebpf4jnsgd1na2vs0mg"},{"bike_id":"8919c64a-490f-4b7f-8223-889427db6dcb","system_id":"levelo_inurba_marseille","lat":43.29013,"lon":5.38637,"is_reserved":false,"is_disabled":false,"rental_uris":{"android":"levelo://app?vid=8919c64a-490f-4b7f-8223-889427db6dcb","ios":"levelo://app?vid=8919c64a-490f-4b7f-8223-889427db6dcb"},"vehicle_type_id":"4","last_reported":1768853624,"current_range_meters":8800,"station_id":"ce4bh4p2rcd13ifvqe0g","pricing_plan_id":"cebpf4jnsgd1na2vs0mg"},