{"last_updated":1736425079,"ttl":60,"version":"2.2","data":{"bikes":[{"bike_id":"f36f51aa-9d66-4624-9c23-1801ea1b734c","system_id":"levelo_inurba_marseille","lat":43.29516,"lon":5.39412,"is_reserved":false,"is_disabled":false,"rental_uris":{"android":"levelo://app?vid=f36f51aa-9d66-4624-9c23-1801ea1b734c","ios":"levelo://app?vid=f36f51aa-9d66-4624-9c23-1801ea1b734c"},"vehicle_type_id":"4","last_reported":1736425079,"current_range_meters":36000,"station_id":"ce4bh292rcd13ifvqdf0","pricing_plan_id":"cebpf4jnsgd1na2vs0mg"},{"bike_id":"dd9e4985-c802-454b-a5ad-227d583dd231","system_id":"levelo_inurba_marseille","lat":43.22932,"lon":5.35379,"is_reserved":false,"is_disabled":false,"rental_uris":{"android":"levelo://app?vid=dd9e4985-c802-454b-a5ad-227d583dd231","ios":"levelo://app?vid=dd9e4985-c802-454b-a5ad-227d583dd231"},"vehicle_type_id":"4","last_reported":1736425079,"current_range_meters":19200,"station_id":"cpo3532slgdg3j2ikp40","pricing_plan_id":"cebpf4jnsgd1na2vs0mg"},{"bike_id":"65096fe1-c0b0-472c-9b8b-23f2f5193511","system_id":"levelo_inurba_marseille","lat":43.29577,"lon":5.3751,"is_reserved":false,"is_disabled":false,"rental_uris":{"android":"levelo://app?vid=65096fe1-c0b0-472c-9b8b-23f2f5193511","ios":"levelo://app?vid=65096fe1-c0b0-472c-9b8b-23f2f5193511"},"vehicle_type_id":"4","last_reported":1736425079,"current_range_meters":30400,"station_id":"ce4bgh92rcd13ifvqb50","pricing_plan_id":"cebpf4jnsgd1na2vs0mg"},{"bike_id":"3d4cf351-e861-4a0a-aa76-5e2a06bb0d14","system_id":"levelo_inurba_marseille","lat":43.26956,"lon":5.38629,"is_reserved":false,"is_disabled":false,"rental_uris":{"android":"levelo://app?vid=3d4cf351-e861-4a0a-aa76-5e2a06bb0d14","ios":"levelo://app?vid=3d4cf351-e861-4a0a-aa76-5e2a06bb0d14"},"vehicle_type_id":"4","last_reported":1736425079,"current_range_meters":18000,"station_id":"ce4bhh92rcd13ifvqfh0","pricing_plan_id":"cebpf4jnsgd1na2vs0mg"},{"bike_id":"bd79f785-a877-4813-8d8f-22c9692def75","system_id":"levelo_inurba_marseille","lat":43.30549,"lon":5.36707,"is_reserved":false,"is_disabled":false,"rental_uris":{"android":"levelo://app?vid=bd79f785-a877-4813-8d8f-22c9692def75","ios":"levelo://app?vid=bd79f785-a877-4813-8d8f-22c9692def75"},"vehicle_type_id":"4","last_reported":1736425079,"current_range_meters":38800,"station_id":"ce4bgrp2rcd13ifvqc9g","pricing_plan_id":"cebpf4jnsgd1na2vs0mg"},{"bike_id":"079a2489-d193-414b-8b47-82e93bfb4b65","system_id":"levelo_inurba_marseille","lat":43.288896,"lon":5.380124,"is_reserved":false,"is_disabled":false,"rental_uris":{"android":"levelo://app?vid=079a2489-d193-414b-8b47-82e93bfb4b65","ios":"levelo://app?vid=079a2489-d193-414b-8b47-82e93bfb4b65"},"vehicle_type_id":"4","last_reported":1736425079,"current_range_meters":32800,"station_id":"","pricing_plan_id":"cebpf4jnsgd1na2vs0mg"},{"bike_id":"38b313e7-9a2f-452f-bdb8-d453ae7237a3","system_id":"levelo_inurba_marseille","lat":43.275,"lon":5.42455,"is_reserved":false,"is_disabled":false,"rental_uris":{"android":"levelo://app?vid=38b313e7-9a2f-452f-bdb8-d453ae7237a3","ios":"levelo://app?vid=38b313e7-9a2f-452f-bdb8-d453ae7237a3"},"vehicle_type_id":"4","last_reported":1736425079,"current_range_meters":38400,"station_id":"ce4bhn92rcd13ifvqgrg","pricing_plan_id":"cebpf4jnsgd1na2vs0mg"},{"bike_id":"4db8df72-e91e-4df3-bbfd-430afaeb23e0","system_id":"levelo_inurba_marseille","lat":43.26957,"lon":5.38632,"is_reserved":false,"is_disabled":false,"rental_uris":{"android":"levelo://app?vid=4db8df72-e91e-4df3-bbfd-430afaeb23e0","ios":"levelo://app?vid=4db8df72-e91e-4df3-bbfd-430afaeb23e0"},"vehicle_type_id":"4","last_reported":1736425079,"current_range_meters":36800,"station_id":"ce4bhh92rcd13ifvqfh0","pricing_plan_id":"cebpf4jnsgd1na2vs0mg"},{"bike_id":"e2d53db8-d93b-4c95-b584-3d29df9b1325","system_id":"levelo_inurba_marseille","lat":43.32478,"lon":5.36572,"is_reserved":false,"is_disabled":false,"rental_uris":{"android":"levelo://app?vid=e2d53db8-d93b-4c95-b584-3d29df9b1325","ios":"levelo://app?vid=e2d53db8-d93b-4c95-b584-3d29df9b1325"},"vehicle_type_id":"4","last_reported":1736425079,"current_range_meters":35200,"station_id":"ce4bhs12rcd13ifvqhvg","pricing_plan_id":"cebpf4jnsgd1na2vs0mg"},{"bike_id":"c25da445-2bd6-4668-92d8-67b9db836116","system_id":"levelo_inurba_marseille","lat":43.305945,"lon":5.374145,"is_reserved":false,"is_disabled":false,"rental_uris":{"android":"levelo://app?vid=c25da445-2bd6-4668-92d8-67b9db836116","ios":"levelo://app?vid=c25da445-2bd6-4668-92d8-67b9db836116"},"vehicle_type_id":"4","last_reported":1736425079,"current_range_meters":39200,"station_id":"ce4bgqh2rcd13ifvqc4g","pricing_plan_id":"cebpf4jnsgd1na2vs0mg"},{"bike_id":"04ec267b-172c-4ae8-9840-d2882657cc57","system_id":"levelo_inurba_marseille","lat":43.27497,"lon":5.42457,"is_reserved":false,"is_disabled":false,"rental_uris":{"android":"levelo://app?vid=04ec267b-172c-4ae8-9840-d2882657cc57","ios":"levelo://app?vid=04ec267b-172c-4ae8-9840-d2882657cc57"},"vehicle_type_id":"4","last_reported":1736425079,"current_range_meters":33600,"station_id":"ce4bhn92rcd13ifvqgrg","pricing_plan_id":"cebpf4jnsgd1na2vs0mg"},{"bike_id":"051ee3d7-17a2-401e-9bd5-08261edf66ab","system_id":"levelo_inurba_marseille","lat":43.25922,"lon":5.4087,"is_reserved":false,"is_disabled":false,"rental_uris":{"android":"levelo://app?vid=051ee3d7-17a2-401e-9bd5-08261edf66ab","ios":"levelo://app?vid=051ee3d7-17a2-401e-9bd5-08261edf66ab"},"vehicle_type_id":"4","last_reported":1736425079,"current_range_meters":22400,"station_id":"ce4bhm92rcd13ifvqglg","pricing_plan_id":"cebpf4jnsgd1na2vs0mg"},{"bike_id":"d23714aa-23ba-4c07-a078-d9a54a6e2804","system_id":"levelo_inurba_marseille","lat":43.30952,"lon":5.39044,"is_reserved":false,"is_disabled":false,"rental_uris":{"android":"levelo://app?vid=d23714aa-23ba-4c07-a078-d9a54a6e2804","ios":"levelo://app?vid=d23714aa-23ba-4c07-a078-d9a54a6e2804"},"vehicle_type_id":"4","last_reported":1736425079,"current_range_meters":38800,"station_id":"ce4bgup2rcd13ifvqco0","pricing_plan_id":"cebpf4jnsgd1na2vs0mg"},{"bike_id":"bf887147-63c1-446c-9415-5e82581b5a97","system_id":"levelo_inurba_marseille","lat":43.3031,"lon":5.37698,"is_reserved":false,"is_disabled":false,"rental_uris":{"android":"levelo://app?vid=bf887147-63c1-446c-9415-5e82581b5a97","ios":"levelo://app?vid=bf887147-63c1-446c-9415-5e82581b5a97"},"vehicle_type_id":"4","last_reported":1736425079,"current_range_meters":38800,"station_id":"ce4bguh2rcd13ifvqcj0","pricing_plan_id":"cebpf4jnsgd1na2vs0mg"},{"bike_id":"362f1a0a-9eaa-4f01-9e56-417b4d73066a","system_id":"levelo_inurba_marseille","lat":43.25005,"lon":5.38926,"is_reserved":false,"is_disabled":false,"rental_uris":{"android":"levelo://app?vid=362f1a0a-9eaa-4f01-9e56-417b4d73066a","ios":"levelo://app?vid=362f1a0a-9eaa-4f01-9e56-417b4d73066a"},"vehicle_type_id":"4","last_reported":1736425079,"current_range_meters":26800,"station_id":"ce4bhgp2rcd13ifvqfd0","pricing_plan_id":"cebpf4jnsgd1na2vs0mg"},{"bike_id":"ece82557-6569-4215-9027-5b44a37fe52e","system_id":"levelo_inurba_marseille","lat":43.29102,"lon":5.37936,"is_reserved":false,"is_disabled":true,"rental_uris":{"android":"levelo://app?vid=ece82557-6569-4215-9027-5b44a37fe52e","ios":"levelo://app?vid=ece82557-6569-4215-9027-5b44a37fe52e"},"vehicle_type_id":"4","last_reported":1736425079,"current_range_meters":0,"station_id":"","pricing_plan_id":"cebpf4jnsgd1na2vs0mg"},{"bike_id":"27867ec6-dc38-4e93-906a-9fa049ef4236","system_id":"levelo_inurba_marseille","lat":43.30539,"lon":5.3672,"is_reserved":false,"is_disabled":false,"rental_uris":{"android":"levelo://app?vid=27867ec6-dc38-4e93-906a-9fa049ef4236","ios":"levelo://app?vid=27867ec6-dc38-4e93-906a-9fa049ef4236"},"vehicle_type_id":"4","last_reported":1736425079,"current_range_meters":38800,"station_id":"ce4bgrp2rcd13ifvqc9g","pricing_plan_id":"cebpf4jnsgd1na2vs0mg"},{"bike_id":"f4256393-3a4a-431c-a5ee-1a5b389117d2","system_id":"levelo_inurba_marseille","lat":43.25572,"lon":5.40922,"is_reserved":false,"is_disabled":false,"rental_uris":{"android":"levelo://app?vid=f4256393-3a4a-431c-a5ee-1a5b389117d2","ios":"levelo://app?vid=f4256393-3a4a-431c-a5ee-1a5b389117d2"},"vehicle_type_id":"4","last_reported":1736425079,"current_range_meters":22400,"station_id":"","pricing_plan_id":"cebpf4jnsgd1na2vs0mg"},{"bike_id":"8d526d6f-8142-465d-9fcd-842b36057e72","system_id":"levelo_inurba_marseille","lat":43.30104,"lon":5.39083,"is_reserved":false,"is_disabled":false,"rental_uris":{"android":"levelo://app?vid=8d526d6f-8142-465d-9fcd-842b36057e72","ios":"levelo://app?vid=8d526d6f-8142-465d-9fcd-842b36057e72"},"vehicle_type_id":"4","last_reported":1736425079,"current_range_meters":30400,"station_id":"ce4bh192rcd13ifvqdb0","pricing_plan_id":"cebpf4jnsgd1na2vs0mg"},{"bike_id":"1fee3b5e-4ccd-4ec7-919c-c7ad2a7db682","system_id":"levelo_inurba_marseille","lat":43.25081,"lon":5.39497,"is_reserved":false,"is_disabled":false,"rental_uris":{"android":"levelo://app?vid=1fee3b5e-4ccd-4ec7-919c-c7ad2a7db682","ios":"levelo://app?vid=1fee3b5e-4ccd-4ec7-919c-c7ad2a7db682"},"vehicle_type_id":"4","last_reported":1736425079,"current_range_meters":8400,"station_id":"ce4bhm12rcd13ifvqgkg","pricing_plan_id":"cebpf4jnsgd1na2vs0mg"},{"bike_id":"269e3f58-dd4c-495c-a072-9614a2e0d44a","system_id":"levelo_inurba_marseille","lat":43.30962,"lon":5.39079,"is_reserved":false,"is_disabled":false,"rental_uris":{"android":"levelo://app?vid=269e3f58-dd4c-495c-a072-9614a2e0d44a","ios":"levelo://app?vid=269e3f58-dd4c-495c-a072-9614a2e0d44a"},"vehicle_type_id":"4","last_reported":1736425079,"current_range_meters":35600,"station_id":"ce4bgup2rcd13ifvqco0","pricing_plan_id":"cebpf4jnsgd1na2vs0mg"},{"bike_id":"004c2ac5-7f25-4e48-8a80-9a02537f6ba6","system_id":"levelo_inurba_marseille","lat":43.32114,"lon":5.36776,"is_reserved":false,"is_disabled":false,"rental_uris":{"android":"levelo://app?vid=004c2ac5-7f25-4e48-8a80-9a02537f6ba6","ios":"levelo://app?vid=004c2ac5-7f25-4e48-8a80-9a02537f6ba6"},"vehicle_type_id":"4","last_reported":1736425079,"current_range_meters":12800,"station_id":"ce4bhrh2rcd13ifvqhug","pricing_plan_id":"cebpf4jnsgd1na2vs0mg"},{"bike_id":"f3dafba6-bb1d-43f0-a7c6-de53f3e87ed1","system_id":"levelo_inurba_marseille","lat":43.30957,"lon":5.39035,"is_reserved":false,"is_disabled":false,"rental_uris":{"android":"levelo://app?vid=f3dafba6-bb1d-43f0-a7c6-de53f3e87ed1","ios":"levelo://app?vid=f3dafba6-bb1d-43f0-a7c6-de53f3e87ed1"},"vehicle_type_id":"4","last_reported":1736425079,"current_range_meters":36800,"station_id":"ce4bgup2rcd13ifvqco0","pricing_plan_id":"cebpf4jnsgd1na2vs0mg"},{"bike_id":"99ed20f4-03db-4a39-a00a-188ecb3fb63a","system_id":"levelo_inurba_marseille","lat":43.23147,"lon":5.43701,"is_reserved":false,"is_disabled":false,"rental_uris":{"android":"levelo://app?vid=99ed20f4-03db-4a39-a00a-188ecb3fb63a","ios":"levelo://app?vid=99ed20f4-03db-4a39-a00a-188ecb3fb63a"},"vehicle_type_id":"4","last_reported":1736425079,"current_range_meters":9200,"station_id":"ce4bhmp2rcd13ifvqgog","pricing_plan_id":"cebpf4jnsgd1na2vs0mg"},{"bike_id":"4cafad38-00be-4601-91dc-17b0c3e0e753","system_id":"levelo_inurba_marseille","lat":43.2869,"lon":5.38664,"is_reserved":false,"is_disabled":false,"rental_uris":{"android":"levelo://app?vid=4cafad38-00be-4601-91dc-17b0c3e0e753","ios":"levelo://app?vid=4cafad38-00be-4601-91dc-17b0c3e0e753"},"vehicle_type_id":"4","last_reported":1736425079,"current_range_meters":23200,"station_id":"ce4bh492rcd13ifvqdug","pricing_plan_id":"cebpf4jnsgd1na2vs0mg"},{"bike_id":"8716db54-126d-408a-8960-149e8432745d","system_id":"levelo_inurba_marseille","lat":43.25932,"lon":5.40897,"is_reserved":false,"is_disabled":false,"rental_uris":{"android":"levelo://app?vid=8716db54-126d-408a-8960-149e8432745d","ios":"levelo://app?vid=8716db54-126d-408a-8960-149e8432745d"},"vehicle_type_id":"4","last_reported":1736425079,"current_range_meters":35200,"station_id":"ce4bhm92rcd13ifvqglg","pricing_plan_id":"cebpf4jnsgd1na2vs0mg"},{"bike_id":"3822296a-0cc9-4764-9266-1aa59db203b4","system_id":"levelo_inurba_marseille","lat":43.28154,"lon":5.42662,"is_reserved":false,"is_disabled":false,"rental_uris":{"android":"levelo://app?vid=3822296a-0cc9-4764-9266-1aa59db203b4","ios":"levelo://app?vid=3822296a-0cc9-4764-9266-1aa59db203b4"},"vehicle_type_id":"4","last_reported":1736425079,"current_range_meters":26000,"station_id":"ce4bhnh2rcd13ifvqgug","pricing_plan_id":"cebpf4jnsgd1na2vs0mg"},{"bike_id":"c59c87e6-421d-4251-89bb-d94aa90ce9ad","system_id":"levelo_inurba_marseille","lat":43.23149,"lon":5.43714,"is_reserved":false,"is_disabled":true,"rental_uris":{"android":"levelo://app?vid=c59c87e6-421d-4251-89bb-d94aa90ce9ad","ios":"levelo://app?vid=c59c87e6-421d-4251-89bb-d94aa90ce9ad"},"vehicle_type_id":"4","last_reported":1736425079,"current_range_meters":400,"station_id":"ce4bhmp2rcd13ifvqgog","pricing_plan_id":"cebpf4jnsgd1na2vs0mg"},{"bike_id":"28124403-4641-4134-9690-2e14fdffce01","system_id":"levelo_inurba_marseille","lat":43.29692,"lon":5.37296,"is_reserved":false,"is_disabled":false,"rental_uris":{"android":"levelo://app?vid=28124403-4641-4134-9690-2e14fdffce01","ios":"levelo://app?vid=28124403-4641-4134-9690-2e14fdffce01"},"vehicle_type_id":"4","last_reported":1736425079,"current_range_meters":38000,"station_id":"ce4bgk12rcd13ifvqbj0","pricing_plan_id":"cebpf4jnsgd1na2vs0mg"},{"bike_id":"50f8ee15-cb32-4521-b4fa-58b41ff9f783","system_id":"levelo_inurba_marseille","lat":43.275,"lon":5.4245,"is_reserved":false,"is_disabled":false,"rental_uris":{"android":"levelo://app?vid=50f8ee15-cb32-4521-b4fa-58b41ff9f783","ios":"levelo://app?vid=50f8ee15-cb32-4521-b4fa-58b41ff9f783"},"vehicle_type_id":"4","last_reported":1736425079,"current_range_meters":19200,"station_id":"ce4bhn92rcd13ifvqgrg","pricing_plan_id":"cebpf4jnsgd1na2vs0mg"},{"bike_id":"1993da4c-22e5-43ae-a5b2-f5be3ed8f937","system_id":"levelo_inurba_marseille","lat":43.33646,"lon":5.4094,"is_reserved":false,"is_disabled":false,"rental_uris":{"android":"levelo://app?vid=1993da4c-22e5-43ae-a5b2-f5be3ed8f937","ios":"levelo://app?vid=1993da4c-22e5-43ae-a5b2-f5be3ed8f937"},"vehicle_type_id":"4","last_reported":1736425079,"current_range_meters":31200,"station_id":"","pricing_plan_id":"cebpf4jnsgd1na2vs0mg"},{"bike_id":"47f1fc2e-bc7c-48d8-9ed4-1e38f7e1b242","system_id":"levelo_inurba_marseille","lat":43.25078,"lon":5.39507,"is_reserved":false,"is_disabled":false,"rental_uris":{"android":"levelo://app?vid=47f1fc2e-bc7c-48d8-9ed4-1e38f7e1b242","ios":"levelo://app?vid=47f1fc2e-bc7c-48d8-9ed4-1e38f7e1b242"},"vehicle_type_id":"4","last_reported":1736425079,"current_range_meters":10000,"station_id":"ce4bhm12rcd13ifvqgkg","pricing_plan_id":"cebpf4jnsgd1na2vs0mg"},{"bike_id":"6fa4a0b7-3bc7-4cab-82aa-608d21b68d70","system_id":"levelo_inurba_marseille","lat":43.32958,"lon":5.39087,"is_reserved":false,"is_disabled":false,"rental_uris":{"android":"levelo://app?vid=6fa4a0b7-3bc7-4cab-82aa-608d21b68d70","ios":"levelo://app?vid=6fa4a0b7-3bc7-4cab-82aa-608d21b68d70"},"vehicle_type_id":"4","last_reported":1736425079,"current_range_meters":37600,"station_id":"ce4bhr92rcd13ifvqhrg","pricing_plan_id":"cebpf4jnsgd1na2vs0mg"},{"bike_id":"8815ea20-2de3-4244-9a40-5811d82508db","system_id":"levelo_inurba_marseille","lat":43.26858,"lon":5.40955,"is_reserved":false,"is_disabled":false,"rental_uris":{"android":"levelo://app?vid=8815ea20-2de3-4244-9a40-5811d82508db","ios":"levelo://app?vid=8815ea20-2de3-4244-9a40-5811d82508db"},"vehicle_type_id":"4","last_reported":1736425079,"current_range_meters":22400,"station_id":"","pricing_plan_id":"cebpf4jnsgd1na2vs0mg"},{"bike_id":"7dbfaf48-d8ed-490a-9aa7-fe6e528a238b","system_id":"levelo_inurba_marseille","lat":43.29307,"lon":5.37186,"is_reserved":false,"is_disabled":false,"rental_uris":{"android":"levelo://app?vid=7dbfaf48-d8ed-490a-9aa7-fe6e528a238b","ios":"levelo://app?vid=7dbfaf48-d8ed-490a-9aa7-fe6e528a238b"},"vehicle_type_id":"4","last_reported":1736425079,"current_range_meters":29600,"station_id":"ce4bgh92rcd13ifvqb40","pricing_plan_id":"cebpf4jnsgd1na2vs0mg"},{"bike_id":"86a34a90-c113-4686-8d24-6b16fb9cdabf","system_id":"levelo_inurba_marseille","lat":43.28975,"lon":5.3784,"is_reserved":false,"is_disabled":false,"rental_uris":{"android":"levelo://app?vid=86a34a90-c113-4686-8d24-6b16fb9cdabf","ios":"levelo://app?vid=86a34a90-c113-4686-8d24-6b16fb9cdabf"},"vehicle_type_id":"4","last_reported":1736425079,"current_range_meters":39200,"station_id":"ce4bh9p2rcd13ifvqed0","pricing_plan_id":"cebpf4jnsgd1na2vs0mg"},{"bike_id":"64b15e4f-4089-45af-9b53-9a7fa82abf72","system_id":"levelo_inurba_marseille","lat":43.28426,"lon":5.34979,"is_reserved":false,"is_disabled":false,"rental_uris":{"android":"levelo://app?vid=64b15e4f-4089-45af-9b53-9a7fa82abf72","ios":"levelo://app?vid=64b15e4f-4089-45af-9b53-9a7fa82abf72"},"vehicle_type_id":"4","last_reported":1736425079,"current_range_meters":4000,"station_id":"ce4bhbh2rcd13ifvqepg","pricing_plan_id":"cebpf4jnsgd1na2vs0mg"},{"bike_id":"feeeae9a-4bcc-477a-bc8c-e9391fa8aedd","system_id":"levelo_inurba_marseille","lat":43.29193,"lon":5.39314,"is_reserved":false,"is_disabled":true,"rental_uris":{"android":"levelo://app?vid=feeeae9a-4bcc-477a-bc8c-e9391fa8aedd","ios":"levelo://app?vid=feeeae9a-4bcc-477a-bc8c-e9391fa8aedd"},"vehicle_type_id":"4","last_reported":1736425079,"current_range_meters":0,"station_id":"ce4bh192rcd13ifvqdd0","pricing_plan_id":"cebpf4jnsgd1na2vs0mg"},{"bike_id":"bbb42691-618e-438b-93dc-2acd2c34e075","system_id":"levelo_inurba_marseille","lat":43.30813,"lon":5.43466,"is_reserved":false,"is_disabled":false,"rental_uris":{"android":"levelo://app?vid=bbb42691-618e-438b-93dc-2acd2c34e075","ios":"levelo://app?vid=bbb42691-618e-438b-93dc-2acd2c34e075"},"vehicle_type_id":"4","last_reported":1736425079,"current_range_meters":39200,"station_id":"ce4bhph2rcd13ifvqheg","pricing_plan_id":"cebpf4jnsgd1na2vs0mg"},{"bike_id":"dbe4d7d2-95f9-4a28-b000-f9ac7c3f52eb","system_id":"levelo_inurba_marseille","lat":43.29189,"lon":5.39323,"is_reserved":false,"is_disabled":true,"rental_uris":{"android":"levelo://app?vid=dbe4d7d2-95f9-4a28-b000-f9ac7c3f52eb","ios":"levelo://app?vid=dbe4d7d2-95f9-4a28-b000-f9ac7c3f52eb"},"vehicle_type_id":"4","last_reported":1736425079,"current_range_meters":0,"station_id":"ce4bh192rcd13ifvqdd0","pricing_plan_id":"cebpf4jnsgd1na2vs0mg"},{"bike_id":"7ae33d3f-a94b-4e22-ba54-328dfce1361f","system_id":"levelo_inurba_marseille","lat":43.30276,"lon":5.38671,"is_reserved":false,"is_disabled":false,"rental_uris":{"android":"levelo://app?vid=7ae33d3f-a94b-4e22-ba54-328dfce1361f","ios":"levelo://app?vid=7ae33d3f-a94b-4e22-ba54-328dfce1361f"},"vehicle_type_id":"4","last_reported":1736425079,"current_range_meters":10000,"station_id":"ce4bgv92rcd13ifvqcq0","pricing_plan_id":"cebpf4jnsgd1na2vs0mg"},{"bike_id":"a8a84dc5-7bf4-4a37-8403-cdfc0fb502b0","system_id":"levelo_inurba_marseille","lat":43.30535,"lon":5.36703,"is_reserved":false,"is_disabled":false,"rental_uris":{"android":"levelo://app?vid=a8a84dc5-7bf4-4a37-8403-cdfc0fb502b0","ios":"levelo://app?vid=a8a84dc5-7bf4-4a37-8403-cdfc0fb502b0"},"vehicle_type_id":"4","last_reported":1736425079,"current_range_meters":34000,"station_id":"ce4bgrp2rcd13ifvqc9g","pricing_plan_id":"cebpf4jnsgd1na2vs0mg"},{"bike_id":"850c8c32-31ea-45fe-8c48-610c59d15175","system_id":"levelo_inurba_marseille","lat":43.25575,"lon":5.3823,"is_reserved":false,"is_disabled":false,"rental_uris":{"android":"levelo://app?vid=850c8c32-31ea-45fe-8c48-610c59d15175","ios":"levelo://app?vid=850c8c32-31ea-45fe-8c48-610c59d15175"},"vehicle_type_id":"4","last_reported":1736425079,"current_range_meters":38800,"station_id":"ce4bhih2rcd13ifvqfs0","pricing_plan_id":"cebpf4jnsgd1na2vs0mg"},{"bike_id":"bb574482-1966-4a4c-94fd-4f6844db76aa","system_id":"levelo_inurba_marseille","lat":43.25586,"lon":5.3823,"is_reserved":false,"is_disabled":false,"rental_uris":{"android":"levelo://app?vid=bb574482-1966-4a4c-94fd-4f6844db76aa","ios":"levelo://app?vid=bb574482-1966-4a4c-94fd-4f6844db76aa"},"vehicle_type_id":"4","last_reported":1736425079,"current_range_meters":30400,"station_id":"ce4bhih2rcd13ifvqfs0","pricing_plan_id":"cebpf4jnsgd1na2vs0mg"},{"bike_id":"e5410bec-fb17-4f9c-8010-02da077ef2ca","system_id":"levelo_inurba_marseille","lat":43.27938,"lon":5.38721,"is_reserved":false,"is_disabled":false,"rental_uris":{"android":"levelo://app?vid=e5410bec-fb17-4f9c-8010-02da077ef2ca","ios":"levelo://app?vid=e5410bec-fb17-4f9c-8010-02da077ef2ca"},"vehicle_type_id":"4","last_reported":1736425079,"current_range_meters":5600,"station_id":"ce4bhg12rcd13ifvqf80","pricing_plan_id":"cebpf4jnsgd1na2vs0mg"},{"bike_id":"55437ac1-09e4-48b8-a9ad-511e0f43f743","system_id":"levelo_inurba_marseille","lat":43.30598,"lon":5.37224,"is_reserved":false,"is_disabled":false,"rental_uris":{"android":"levelo://app?vid=55437ac1-09e4-48b8-a9ad-511e0f43f743","ios":"levelo://app?vid=55437ac1-09e4-48b8-a9ad-511e0f43f743"},"vehicle_type_id":"4","last_reported":1736425079,"current_range_meters":35600,"station_id":"ce4bgqh2rcd13ifvqc4g","pricing_plan_id":"cebpf4jnsgd1na2vs0mg"},{"bike_id":"a816258e-3246-4099-b421-3c9b784b731d","system_id":"levelo_inurba_marseille","lat":43.242037,"lon":5.39695,"is_reserved":false,"is_disabled":false,"rental_uris":{"android":"levelo://app?vid=a816258e-3246-4099-b421-3c9b784b731d","ios":"levelo://app?vid=a816258e-3246-4099-b421-3c9b784b731d"},"vehicle_type_id":"4","last_reported":1736425079,"current_range_meters":38800,"station_id":"ce4bhn12rcd13ifvqgpg","pricing_plan_id":"cebpf4jnsgd1na2vs0mg"},{"bike_id":"fa4e1d94-57a7-4fd9-8196-d235d2c57bf0","system_id":"levelo_inurba_marseille","lat":43.30528,"lon":5.36725,"is_reserved":false,"is_disabled":false,"rental_uris":{"android":"levelo://app?vid=fa4e1d94-57a7-4fd9-8196-d235d2c57bf0","ios":"levelo://app?vid=fa4e1d94-57a7-4fd9-8196-d235d2c57bf0"},"vehicle_type_id":"4","last_reported":1736425079,"current_range_meters":38800,"station_id":"ce4bgrp2rcd13ifvqc9g","pricing_plan_id":"cebpf4jnsgd1na2vs0mg"},{"bike_id":"19569f5a-d0dd-4bc0-9181-4a1431159a72","system_id":"levelo_inurba_marseille","lat":43.31062,"lon":5.38348,"is_reserved":false,"is_disabled":false,"rental_uris":{"android":"levelo://app?vid=19569f5a-d0dd-4bc0-9181-4a1431159a72","ios":"levelo://app?vid=19569f5a-d0dd-4bc0-9181-4a1431159a72"},"vehicle_type_id":"4","last_reported":1736425079,"current_range_meters":32800,"station_id":"ce4bgv92rcd13ifvqcr0","pricing_plan_id":"cebpf4jnsgd1na2vs0mg"},{"bike_id":"25af51bb-7736-4c00-bca1-2ab6d9c3a71c","system_id":"levelo_inurba_marseille","lat":43.32339,"lon":5.40628,"is_reserved":false,"is_disabled":false,"rental_uris":{"android":"levelo://app?vid=25af51bb-7736-4c00-bca1-2ab6d9c3a71c","ios":"levelo://app?vid=25af51bb-7736-4c00-bca1-2ab6d9c3a71c"},"vehicle_type_id":"4","last_reported":1736425079,"current_range_meters":16800,"station_id":"ce4bhq92rcd13ifvqhjg","pricing_plan_id":"cebpf4jnsgd1na2vs0mg"},{"bike_id":"3c007811-d6fd-4d56-accd-dc593d461170","system_id":"levelo_inurba_marseille","lat":43.25706,"lon":5.41818,"is_reserved":false,"is_disabled":false,"rental_uris":{"android":"levelo://app?vid=3c007811-d6fd-4d56-accd-dc593d461170","ios":"levelo://app?vid=3c007811-d6fd-4d56-accd-dc593d461170"},"vehicle_type_id":"4","last_reported":1736425079,"current_range_meters":38800,"station_id":"","pricing_plan_id":"cebpf4jnsgd1na2vs0mg"},{"bike_id":"0530eaa3-fb41-4962-802b-8de744954c6a","system_id":"levelo_inurba_marseille","lat":43.243896,"lon":5.370589,"is_reserved":false,"is_disabled":false,"rental_uris":{"android":"levelo://app?vid=0530eaa3-fb41-4962-802b-8de744954c6a","ios":"levelo://app?vid=0530eaa3-fb41-4962-802b-8de744954c6a"},"vehicle_type_id":"4","last_reported":1736425079,"current_range_meters":36000,"station_id":"ce4bhhh2rcd13ifvqfk0","pricing_plan_id":"cebpf4jnsgd1na2vs0mg"},{"bike_id":"1fe4de93-a972-46c6-bbc7-b129ab9b60fe","system_id":"levelo_inurba_marseille","lat":43.274947,"lon":5.42449,"is_reserved":false,"is_disabled":false,"rental_uris":{"android":"levelo://app?vid=1fe4de93-a972-46c6-bbc7-b129ab9b60fe","ios":"levelo://app?vid=1fe4de93-a972-46c6-bbc7-b129ab9b60fe"},"vehicle_type_id":"4","last_reported":1736425079,"current_range_meters":28800,"station_id":"ce4bhn92rcd13ifvqgrg","pricing_plan_id":"cebpf4jnsgd1na2vs0mg"},{"bike_id":"2efead72-824c-45ef-8cf3-b657af317181","system_id":"levelo_inurba_marseille","lat":43.29847,"lon":5.36304,"is_reserved":false,"is_disabled":false,"rental_uris":{"android":"levelo://app?vid=2efead72-824c-45ef-8cf3-b657af317181","ios":"levelo://app?vid=2efead72-824c-45ef-8cf3-b657af317181"},"vehicle_type_id":"4","last_reported":1736425079,"current_range_meters":38800,"station_id":"ce4bgpp2rcd13ifvqc3g","pricing_plan_id":"cebpf4jnsgd1na2vs0mg"},{"bike_id":"0c9f26e2-be7f-4990-af23-4023b9fc089b","system_id":"levelo_inurba_marseille","lat":43.31139,"lon":5.42328,"is_reserved":false,"is_disabled":false,"rental_uris":{"android":"levelo://app?vid=0c9f26e2-be7f-4990-af23-4023b9fc089b","ios":"levelo://app?vid=0c9f26e2-be7f-4990-af23-4023b9fc089b"},"vehicle_type_id":"4","last_reported":1736425079,"current_range_meters":39200,"station_id":"ce4bhp92rcd13ifvqhag","pricing_plan_id":"cebpf4jnsgd1na2vs0mg"},{"bike_id":"82d5b088-174b-4279-85c7-cff429892b63","system_id":"levelo_inurba_marseille","lat":43.28451,"lon":5.39204,"is_reserved":false,"is_disabled":false,"rental_uris":{"android":"levelo://app?vid=82d5b088-174b-4279-85c7-cff429892b63","ios":"levelo://app?vid=82d5b088-174b-4279-85c7-cff429892b63"},"vehicle_type_id":"4","last_reported":1736425079,"current_range_meters":38000,"station_id":"ce4bhoh2rcd13ifvqh5g","pricing_plan_id":"cebpf4jnsgd1na2vs0mg"},{"bike_id":"44744da6-8adf-4188-bb07-011098685ab4","system_id":"levelo_inurba_marseille","lat":43.30465,"lon":5.37911,"is_reserved":false,"is_disabled":false,"rental_uris":{"android":"levelo://app?vid=44744da6-8adf-4188-bb07-011098685ab4","ios":"levelo://app?vid=44744da6-8adf-4188-bb07-011098685ab4"},"vehicle_type_id":"4","last_reported":1736425079,"current_range_meters":21600,"station_id":"ce4bgup2rcd13ifvqcn0","pricing_plan_id":"cebpf4jnsgd1na2vs0mg"},{"bike_id":"7d431c38-e079-42ce-8c9b-fd3de976ff03","system_id":"levelo_inurba_marseille","lat":43.27966,"lon":5.38737,"is_reserved":false,"is_disabled":false,"rental_uris":{"android":"levelo://app?vid=7d431c38-e079-42ce-8c9b-fd3de976ff03","ios":"levelo://app?vid=7d431c38-e079-42ce-8c9b-fd3de976ff03"},"vehicle_type_id":"4","last_reported":1736425079,"current_range_meters":38800,"station_id":"ce4bhg12rcd13ifvqf80","pricing_plan_id":"cebpf4jnsgd1na2vs0mg"},{"bike_id":"fa9a7671-3abf-41cd-86b5-80c458ec5d68","system_id":"levelo_inurba_marseille","lat":43.3119,"lon":5.38711,"is_reserved":false,"is_disabled":false,"rental_uris":{"android":"levelo://app?vid=fa9a7671-3abf-41cd-86b5-80c458ec5d68","ios":"levelo://app?vid=fa9a7671-3abf-41cd-86b5-80c458ec5d68"},"vehicle_type_id":"4","last_reported":1736425079,"current_range_meters":8000,"station_id":"ce4bgv12rcd13ifvqcp0","pricing_plan_id":"cebpf4jnsgd1na2vs0mg"},{"bike_id":"ef55feca-657c-488b-9e32-b2fe658b0af8","system_id":"levelo_inurba_marseille","lat":43.27203,"lon":5.39146,"is_reserved":false,"is_disabled":false,"rental_uris":{"android":"levelo://app?vid=ef55feca-657c-488b-9e32-b2fe658b0af8","ios":"levelo://app?vid=ef55feca-657c-488b-9e32-b2fe658b0af8"},"vehicle_type_id":"4","last_reported":1736425079,"current_range_meters":38800,"station_id":"ce4bhhp2rcd13ifvqfm0","pricing_plan_id":"cebpf4jnsgd1na2vs0mg"},{"bike_id":"42d905c4-9ee2-4402-a796-7c4f27c94b70","system_id":"levelo_inurba_marseille","lat":43.29775,"lon":5.38131,"is_reserved":false,"is_disabled":true,"rental_uris":{"android":"levelo://app?vid=42d905c4-9ee2-4402-a796-7c4f27c94b70","ios":"levelo://app?vid=42d905c4-9ee2-4402-a796-7c4f27c94b70"},"vehicle_type_id":"4","last_reported":1736425079,"current_range_meters":11600,"station_id":"ce4bgip2rcd13ifvqbb0","pricing_plan_id":"cebpf4jnsgd1na2vs0mg"},{"bike_id":"9fd9a3de-90df-466c-8510-f29e450ec62b","system_id":"levelo_inurba_marseille","lat":43.31085,"lon":5.42433,"is_reserved":false,"is_disabled":false,"rental_uris":{"android":"levelo://app?vid=9fd9a3de-90df-466c-8510-f29e450ec62b","ios":"levelo://app?vid=9fd9a3de-90df-466c-8510-f29e450ec62b"},"vehicle_type_id":"4","last_reported":1736425079,"current_range_meters":12800,"station_id":"ce4bhp92rcd13ifvqhag","pricing_plan_id":"cebpf4jnsgd1na2vs0mg"},{"bike_id":"7e647b87-ee39-48c8-8a57-8ca415c7293d","system_id":"levelo_inurba_marseille","lat":43.23061,"lon":5.35499,"is_reserved":false,"is_disabled":false,"rental_uris":{"android":"levelo://app?vid=7e647b87-ee39-48c8-8a57-8ca415c7293d","ios":"levelo://app?vid=7e647b87-ee39-48c8-8a57-8ca415c7293d"},"vehicle_type_id":"4","last_reported":1736425079,"current_range_meters":34000,"station_id":"cpo3342slgdg3j2ifvpg","pricing_plan_id":"cebpf4jnsgd1na2vs0mg"},{"bike_id":"a0df9193-55f6-4a03-826a-744e803b6ed4","system_id":"levelo_inurba_marseille","lat":43.24676,"lon":5.38171,"is_reserved":false,"is_disabled":false,"rental_uris":{"android":"levelo://app?vid=a0df9193-55f6-4a03-826a-744e803b6ed4","ios":"levelo://app?vid=a0df9193-55f6-4a03-826a-744e803b6ed4"},"vehicle_type_id":"4","last_reported":1736425079,"current_range_meters":32400,"station_id":"ce4bhih2rcd13ifvqfr0","pricing_plan_id":"cebpf4jnsgd1na2vs0mg"},{"bike_id":"f3ac7703-aae0-4932-9e81-9257657457ab","system_id":"levelo_inurba_marseille","lat":43.231515,"lon":5.4371,"is_reserved":false,"is_disabled":false,"rental_uris":{"android":"levelo://app?vid=f3ac7703-aae0-4932-9e81-9257657457ab","ios":"levelo://app?vid=f3ac7703-aae0-4932-9e81-9257657457ab"},"vehicle_type_id":"4","last_reported":1736425079,"current_range_meters":20000,"station_id":"ce4bhmp2rcd13ifvqgog","pricing_plan_id":"cebpf4jnsgd1na2vs0mg"},{"bike_id":"00e9ae50-e0de-4a0b-82ae-9d2d5db35cee","system_id":"levelo_inurba_marseille","lat":43.24069,"lon":5.37732,"is_reserved":false,"is_disabled":false,"rental_uris":{"android":"levelo://app?vid=00e9ae50-e0de-4a0b-82ae-9d2d5db35cee","ios":"levelo://app?vid=00e9ae50-e0de-4a0b-82ae-9d2d5db35cee"},"vehicle_type_id":"4","last_reported":1736425079,"current_range_meters":30800,"station_id":"ce4bhnp2rcd13ifvqgvg","pricing_plan_id":"cebpf4jnsgd1na2vs0mg"},{"bike_id":"1f50cc2d-c6ef-46fb-9c7f-27b6608a6555","system_id":"levelo_inurba_marseille","lat":43.3093,"lon":5.36859,"is_reserved":false,"is_disabled":false,"rental_uris":{"android":"levelo://app?vid=1f50cc2d-c6ef-46fb-9c7f-27b6608a6555","ios":"levelo://app?vid=1f50cc2d-c6ef-46fb-9c7f-27b6608a6555"},"vehicle_type_id":"4","last_reported":1736425079,"current_range_meters":32000,"station_id":"ce4bgn92rcd13ifvqbvg","pricing_plan_id":"cebpf4jnsgd1na2vs0mg"},{"bike_id":"66262c96-b45c-4483-b296-8a78ef082310","system_id":"levelo_inurba_marseille","lat":43.30316,"lon":5.37694,"is_reserved":false,"is_disabled":false,"rental_uris":{"android":"levelo://app?vid=66262c96-b45c-4483-b296-8a78ef082310","ios":"levelo://app?vid=66262c96-b45c-4483-b296-8a78ef082310"},"vehicle_type_id":"4","last_reported":1736425079,"current_range_meters":38800,"station_id":"ce4bguh2rcd13ifvqcj0","pricing_plan_id":"cebpf4jnsgd1na2vs0mg"},{"bike_id":"121b596b-383a-4943-aa2d-04787ecc2c3e","system_id":"levelo_inurba_marseille","lat":43.2898,"lon":5.37826,"is_reserved":false,"is_disabled":false,"rental_uris":{"android":"levelo://app?vid=121b596b-383a-4943-aa2d-04787ecc2c3e","ios":"levelo://app?vid=121b596b-383a-4943-aa2d-04787ecc2c3e"},"vehicle_type_id":"4","last_reported":1736425079,"current_range_meters":34800,"station_id":"ce4bh9p2rcd13ifvqed0","pricing_plan_id":"cebpf4jnsgd1na2vs0mg"},{"bike_id":"4fae928a-31e4-475c-9710-355587b940bd","system_id":"levelo_inurba_marseille","lat":43.27818,"lon":5.40716,"is_reserved":false,"is_disabled":false,"rental_uris":{"android":"levelo://app?vid=4fae928a-31e4-475c-9710-355587b940bd","ios":"levelo://app?vid=4fae928a-31e4-475c-9710-355587b940bd"},"vehicle_type_id":"4","last_reported":1736425079,"current_range_meters":38000,"station_id":"ce4bhnh2rcd13ifvqgtg","pricing_plan_id":"cebpf4jnsgd1na2vs0mg"},{"bike_id":"a1705e72-c4af-4983-b5c5-5bc88eb55bc2","system_id":"levelo_inurba_marseille","lat":43.30595,"lon":5.39357,"is_reserved":false,"is_disabled":false,"rental_uris":{"android":"levelo://app?vid=a1705e72-c4af-4983-b5c5-5bc88eb55bc2","ios":"levelo://app?vid=a1705e72-c4af-4983-b5c5-5bc88eb55bc2"},"vehicle_type_id":"4","last_reported":1736425079,"current_range_meters":16800,"station_id":"ce4bh0p2rcd13ifvqd80","pricing_plan_id":"cebpf4jnsgd1na2vs0mg"},{"bike_id":"507a0018-7e63-4da0-8224-45741015f7e0","system_id":"levelo_inurba_marseille","lat":43.30598,"lon":5.3936,"is_reserved":false,"is_disabled":false,"rental_uris":{"android":"levelo://app?vid=507a0018-7e63-4da0-8224-45741015f7e0","ios":"levelo://app?vid=507a0018-7e63-4da0-8224-45741015f7e0"},"vehicle_type_id":"4","last_reported":1736425079,"current_range_meters":28800,"station_id":"ce4bh0p2rcd13ifvqd80","pricing_plan_id":"cebpf4jnsgd1na2vs0mg"},{"bike_id":"2d1b2013-a5cb-4730-8ad4-1a0b962e8612","system_id":"levelo_inurba_marseille","lat":43.30417,"lon":5.38888,"is_reserved":false,"is_disabled":false,"rental_uris":{"android":"levelo://app?vid=2d1b2013-a5cb-4730-8ad4-1a0b962e8612","ios":"levelo://app?vid=2d1b2013-a5cb-4730-8ad4-1a0b962e8612"},"vehicle_type_id":"4","last_reported":1736425079,"current_range_meters":38800,"station_id":"ce4bgk12rcd13ifvqbi0","pricing_plan_id":"cebpf4jnsgd1na2vs0mg"},{"bike_id":"2d1536de-ed9a-4813-bbd6-10bda74ca621","system_id":"levelo_inurba_marseille","lat":43.24807,"lon":5.37456,"is_reserved":false,"is_disabled":false,"rental_uris":{"android":"levelo://app?vid=2d1536de-ed9a-4813-bbd6-10bda74ca621","ios":"levelo://app?vid=2d1536de-ed9a-4813-bbd6-10bda74ca621"},"vehicle_type_id":"4","last_reported":1736425079,"current_range_meters":38000,"station_id":"ce4bhgh2rcd13ifvqfb0","pricing_plan_id":"cebpf4jnsgd1na2vs0mg"},{"bike_id":"dd95b172-24fd-4056-9bb1-1ba37d74b460","system_id":"levelo_inurba_marseille","lat":43.25566,"lon":5.38248,"is_reserved":false,"is_disabled":false,"rental_uris":{"android":"levelo://app?vid=dd95b172-24fd-4056-9bb1-1ba37d74b460","ios":"levelo://app?vid=dd95b172-24fd-4056-9bb1-1ba37d74b460"},"vehicle_type_id":"4","last_reported":1736425079,"current_range_meters":20000,"station_id":"ce4bhih2rcd13ifvqfs0","pricing_plan_id":"cebpf4jnsgd1na2vs0mg"},{"bike_id":"61b53924-0e35-404c-b0a4-3fa2e5335468","system_id":"levelo_inurba_marseille","lat":43.31981,"lon":5.38145,"is_reserved":false,"is_disabled":false,"rental_uris":{"android":"levelo://app?vid=61b53924-0e35-404c-b0a4-3fa2e5335468","ios":"levelo://app?vid=61b53924-0e35-404c-b0a4-3fa2e5335468"},"vehicle_type_id":"4","last_reported":1736425079,"current_range_meters":28400,"station_id":"ce4bhr12rcd13ifvqhpg","pricing_plan_id":"cebpf4jnsgd1na2vs0mg"},{"bike_id":"c805142b-1ce4-4316-aec5-0d0e6e7f344d","system_id":"levelo_inurba_marseille","lat":43.29549,"lon":5.42273,"is_reserved":false,"is_disabled":false,"rental_uris":{"android":"levelo://app?vid=c805142b-1ce4-4316-aec5-0d0e6e7f344d","ios":"levelo://app?vid=c805142b-1ce4-4316-aec5-0d0e6e7f344d"},"vehicle_type_id":"4","last_reported":1736425079,"current_range_meters":34800,"station_id":"ce4bhph2rcd13ifvqhdg","pricing_plan_id":"cebpf4jnsgd1na2vs0mg"},{"bike_id":"80f089d1-6208-4daa-bf1d-e077f22470f1","system_id":"levelo_inurba_marseille","lat":43.33726,"lon":5.39209,"is_reserved":false,"is_disabled":false,"rental_uris":{"android":"levelo://app?vid=80f089d1-6208-4daa-bf1d-e077f22470f1","ios":"levelo://app?vid=80f089d1-6208-4daa-bf1d-e077f22470f1"},"vehicle_type_id":"4","last_reported":1736425079,"current_range_meters":35600,"station_id":"ce4bhr92rcd13ifvqhsg","pricing_plan_id":"cebpf4jnsgd1na2vs0mg"},{"bike_id":"ac192696-3748-47cc-a469-65678681b337","system_id":"levelo_inurba_marseille","lat":43.27212,"lon":5.3918,"is_reserved":false,"is_disabled":false,"rental_uris":{"android":"levelo://app?vid=ac192696-3748-47cc-a469-65678681b337","ios":"levelo://app?vid=ac192696-3748-47cc-a469-65678681b337"},"vehicle_type_id":"4","last_reported":1736425079,"current_range_meters":28400,"station_id":"ce4bhhp2rcd13ifvqfm0","pricing_plan_id":"cebpf4jnsgd1na2vs0mg"},{"bike_id":"dbbd7816-2536-476c-8cc5-8a000b093a61","system_id":"levelo_inurba_marseille","lat":43.30433,"lon":5.38899,"is_reserved":false,"is_disabled":false,"rental_uris":{"android":"levelo://app?vid=dbbd7816-2536-476c-8cc5-8a000b093a61","ios":"levelo://app?vid=dbbd7816-2536-476c-8cc5-8a000b093a61"},"vehicle_type_id":"4","last_reported":1736425079,"current_range_meters":6400,"station_id":"ce4bgk12rcd13ifvqbi0","pricing_plan_id":"cebpf4jnsgd1na2vs0mg"},{"bike_id":"2b814576-82ce-4758-abf3-c79e907188a0","system_id":"levelo_inurba_marseille","lat":43.29476,"lon":5.37612,"is_reserved":false,"is_disabled":false,"rental_uris":{"android":"levelo://app?vid=2b814576-82ce-4758-abf3-c79e907188a0","ios":"levelo://app?vid=2b814576-82ce-4758-abf3-c79e907188a0"},"vehicle_type_id":"4","last_reported":1736425079,"current_range_meters":8000,"station_id":"","pricing_plan_id":"cebpf4jnsgd1na2vs0mg"},{"bike_id":"8b5cc194-df40-442c-9b2f-2ad1d46ebcbc","system_id":"levelo_inurba_marseille","lat":43.27069,"lon":5.42279,"is_reserved":false,"is_disabled":false,"rental_uris":{"android":"levelo://app?vid=8b5cc194-df40-442c-9b2f-2ad1d46ebcbc","ios":"levelo://app?vid=8b5cc194-df40-442c-9b2f-2ad1d46ebcbc"},"vehicle_type_id":"4","last_reported":1736425079,"current_range_meters":33600,"station_id":"ce4bhk92rcd13ifvqgb0","pricing_plan_id":"cebpf4jnsgd1na2vs0mg"},{"bike_id":"28f22b7d-262e-47a7-93dd-7f113d23518a","system_id":"levelo_inurba_marseille","lat":43.29793,"lon":5.39344,"is_reserved":false,"is_disabled":false,"rental_uris":{"android":"levelo://app?vid=28f22b7d-262e-47a7-93dd-7f113d23518a","ios":"levelo://app?vid=28f22b7d-262e-47a7-93dd-7f113d23518a"},"vehicle_type_id":"4","last_reported":1736425079,"current_range_meters":26800,"station_id":"chh1huq6cuj3fo74tm60","pricing_plan_id":"cebpf4jnsgd1na2vs0mg"},{"bike_id":"ddb1db70-5f5e-4822-bff4-8a9bf7a75a8f","system_id":"levelo_inurba_marseille","lat":43.25123,"lon":5.4033,"is_reserved":false,"is_disabled":false,"rental_uris":{"android":"levelo://app?vid=ddb1db70-5f5e-4822-bff4-8a9bf7a75a8f","ios":"levelo://app?vid=ddb1db70-5f5e-4822-bff4-8a9bf7a75a8f"},"vehicle_type_id":"4","last_reported":1736425079,"current_range_meters":36400,"station_id":"ce4bhlh2rcd13ifvqgig","pricing_plan_id":"cebpf4jnsgd1na2vs0mg"},{"bike_id":"f2536309-8d2b-4ccd-86e1-4c168080c77c","system_id":"levelo_inurba_marseille","lat":43.23218,"lon":5.35554,"is_reserved":false,"is_disabled":false,"rental_uris":{"android":"levelo://app?vid=f2536309-8d2b-4ccd-86e1-4c168080c77c","ios":"levelo://app?vid=f2536309-8d2b-4ccd-86e1-4c168080c77c"},"vehicle_type_id":"4","last_reported":1736425079,"current_range_meters":7200,"station_id":"ce4bhu92rcd13ifvqi70","pricing_plan_id":"cebpf4jnsgd1na2vs0mg"},{"bike_id":"98acfbe9-5036-4f04-be90-e65f01ce50b5","system_id":"levelo_inurba_marseille","lat":43.24087,"lon":5.3776,"is_reserved":false,"is_disabled":false,"rental_uris":{"android":"levelo://app?vid=98acfbe9-5036-4f04-be90-e65f01ce50b5","ios":"levelo://app?vid=98acfbe9-5036-4f04-be90-e65f01ce50b5"},"vehicle_type_id":"4","last_reported":1736425079,"current_range_meters":24800,"station_id":"ce4bhnp2rcd13ifvqgvg","pricing_plan_id":"cebpf4jnsgd1na2vs0mg"},{"bike_id":"6b640b87-7556-44b6-bc74-75d5376a29ae","system_id":"levelo_inurba_marseille","lat":43.31376,"lon":5.3671,"is_reserved":false,"is_disabled":false,"rental_uris":{"android":"levelo://app?vid=6b640b87-7556-44b6-bc74-75d5376a29ae","ios":"levelo://app?vid=6b640b87-7556-44b6-bc74-75d5376a29ae"},"vehicle_type_id":"4","last_reported":1736425079,"current_range_meters":30400,"station_id":"ce4bgr92rcd13ifvqc6g","pricing_plan_id":"cebpf4jnsgd1na2vs0mg"},{"bike_id":"f22dc914-cd15-4647-8a03-e5a6171f0700","system_id":"levelo_inurba_marseille","lat":43.29092,"lon":5.38151,"is_reserved":false,"is_disabled":true,"rental_uris":{"android":"levelo://app?vid=f22dc914-cd15-4647-8a03-e5a6171f0700","ios":"levelo://app?vid=f22dc914-cd15-4647-8a03-e5a6171f0700"},"vehicle_type_id":"4","last_reported":1736425079,"current_range_meters":9200,"station_id":"ce4bh512rcd13ifvqe2g","pricing_plan_id":"cebpf4jnsgd1na2vs0mg"},{"bike_id":"7c9625aa-cd93-4eb2-84d7-afdb1a13272e","system_id":"levelo_inurba_marseille","lat":43.27955,"lon":5.38702,"is_reserved":false,"is_disabled":false,"rental_uris":{"android":"levelo://app?vid=7c9625aa-cd93-4eb2-84d7-afdb1a13272e","ios":"levelo://app?vid=7c9625aa-cd93-4eb2-84d7-afdb1a13272e"},"vehicle_type_id":"4","last_reported":1736425079,"current_range_meters":24400,"station_id":"ce4bhg12rcd13ifvqf80","pricing_plan_id":"cebpf4jnsgd1na2vs0mg"},{"bike_id":"7525d5bc-d5cb-4998-a508-14f64c28c58c","system_id":"levelo_inurba_marseille","lat":43.25857,"lon":5.39917,"is_reserved":false,"is_disabled":false,"rental_uris":{"android":"levelo://app?vid=7525d5bc-d5cb-4998-a508-14f64c28c58c","ios":"levelo://app?vid=7525d5bc-d5cb-4998-a508-14f64c28c58c"},"vehicle_type_id":"4","last_reported":1736425079,"current_range_meters":38400,"station_id":"ce4bhl92rcd13ifvqghg","pricing_plan_id":"cebpf4jnsgd1na2vs0mg"},{"bike_id":"ef58522b-755e-4a8f-b5d0-d152da20ebf1","system_id":"levelo_inurba_marseille","lat":43.241825,"lon":5.397217,"is_reserved":false,"is_disabled":false,"rental_uris":{"android":"levelo://app?vid=ef58522b-755e-4a8f-b5d0-d152da20ebf1","ios":"levelo://app?vid=ef58522b-755e-4a8f-b5d0-d152da20ebf1"},"vehicle_type_id":"4","last_reported":1736425079,"current_range_meters":38800,"station_id":"ce4bhn12rcd13ifvqgpg","pricing_plan_id":"cebpf4jnsgd1na2vs0mg"},{"bike_id":"5afcec18-bbaf-49e3-b45b-9ce489a332c2","system_id":"levelo_inurba_marseille","lat":43.30546,"lon":5.38428,"is_reserved":false,"is_disabled":false,"rental_uris":{"android":"levelo://app?vid=5afcec18-bbaf-49e3-b45b-9ce489a332c2","ios":"levelo://app?vid=5afcec18-bbaf-49e3-b45b-9ce489a332c2"},"vehicle_type_id":"4","last_reported":1736425079,"current_range_meters":9600,"station_id":"ce4bgg92rcd13ifvqb30","pricing_plan_id":"cebpf4jnsgd1na2vs0mg"},{"bike_id":"a023b9e2-2413-4b3d-a218-b9727e7097b5","system_id":"levelo_inurba_marseille","lat":43.292991,"lon":5.374633,"is_reserved":false,"is_disabled":true,"rental_uris":{"android":"levelo://app?vid=a023b9e2-2413-4b3d-a218-b9727e7097b5","ios":"levelo://app?vid=a023b9e2-2413-4b3d-a218-b9727e7097b5"},"vehicle_type_id":"4","last_reported":1736425079,"current_range_meters":30000,"station_id":"ce4bgi12rcd13ifvqb70","pricing_plan_id":"cebpf4jnsgd1na2vs0mg"},{"bike_id":"e3ca0ff3-8d26-477b-88d0-b2fa408f6a4d","system_id":"levelo_inurba_marseille","lat":43.3015,"lon":5.38079,"is_reserved":false,"is_disabled":false,"rental_uris":{"android":"levelo://app?vid=e3ca0ff3-8d26-477b-88d0-b2fa408f6a4d","ios":"levelo://app?vid=e3ca0ff3-8d26-477b-88d0-b2fa408f6a4d"},"vehicle_type_id":"4","last_reported":1736425079,"current_range_meters":20000,"station_id":"ce4bgjp2rcd13ifvqbh0","pricing_plan_id":"cebpf4jnsgd1na2vs0mg"},{"bike_id":"e26afa27-b0a2-4481-a6b9-9a5486ce2357","system_id":"levelo_inurba_marseille","lat":43.26067,"lon":5.39397,"is_reserved":false,"is_disabled":false,"rental_uris":{"android":"levelo://app?vid=e26afa27-b0a2-4481-a6b9-9a5486ce2357","ios":"levelo://app?vid=e26afa27-b0a2-4481-a6b9-9a5486ce2357"},"vehicle_type_id":"4","last_reported":1736425079,"current_range_meters":25200,"station_id":"ce4bhh92rcd13ifvqfj0","pricing_plan_id":"cebpf4jnsgd1na2vs0mg"},{"bike_id":"2a611997-d70e-4c6d-ac36-17e21435ec55","system_id":"levelo_inurba_marseille","lat":43.30534,"lon":5.36702,"is_reserved":false,"is_disabled":false,"rental_uris":{"android":"levelo://app?vid=2a611997-d70e-4c6d-ac36-17e21435ec55","ios":"levelo://app?vid=2a611997-d70e-4c6d-ac36-17e21435ec55"},"vehicle_type_id":"4","last_reported":1736425079,"current_range_meters":38800,"station_id":"ce4bgrp2rcd13ifvqc9g","pricing_plan_id":"cebpf4jnsgd1na2vs0mg"},{"bike_id":"d23591c6-c3b8-4eff-8272-6ac9d68bee62","system_id":"levelo_inurba_marseille","lat":43.30948,"lon":5.39026,"is_reserved":false,"is_disabled":false,"rental_uris":{"android":"levelo://app?vid=d23591c6-c3b8-4eff-8272-6ac9d68bee62","ios":"levelo://app?vid=d23591c6-c3b8-4eff-8272-6ac9d68bee62"},"vehicle_type_id":"4","last_reported":1736425079,"current_range_meters":36800,"station_id":"ce4bgup2rcd13ifvqco0","pricing_plan_id":"cebpf4jnsgd1na2vs0mg"},{"bike_id":"3ac35d57-e6a5-472a-81af-13d7accd9246","system_id":"levelo_inurba_marseille","lat":43.29894,"lon":5.38914,"is_reserved":false,"is_disabled":false,"rental_uris":{"android":"levelo://app?vid=3ac35d57-e6a5-472a-81af-13d7accd9246","ios":"levelo://app?vid=3ac35d57-e6a5-472a-81af-13d7accd9246"},"vehicle_type_id":"4","last_reported":1736425079,"current_range_meters":16000,"station_id":"ce4bh392rcd13ifvqdl0","pricing_plan_id":"cebpf4jnsgd1na2vs0mg"},{"bike_id":"07a6a108-37e0-4008-9335-612bea276590","system_id":"levelo_inurba_marseille","lat":43.33026,"lon":5.39039,"is_reserved":false,"is_disabled":false,"rental_uris":{"android":"levelo://app?vid=07a6a108-37e0-4008-9335-612bea276590","ios":"levelo://app?vid=07a6a108-37e0-4008-9335-612bea276590"},"vehicle_type_id":"4","last_reported":1736425079,"current_range_meters":39200,"station_id":"ce4bhr92rcd13ifvqhrg","pricing_plan_id":"cebpf4jnsgd1na2vs0mg"},{"bike_id":"4b2dc5b5-4bb0-403c-a101-e56dd352fe5d","system_id":"levelo_inurba_marseille","lat":43.25869,"lon":5.39899,"is_reserved":false,"is_disabled":false,"rental_uris":{"android":"levelo://app?vid=4b2dc5b5-4bb0-403c-a101-e56dd352fe5d","ios":"levelo://app?vid=4b2dc5b5-4bb0-403c-a101-e56dd352fe5d"},"vehicle_type_id":"4","last_reported":1736425079,"current_range_meters":32000,"station_id":"ce4bhl92rcd13ifvqghg","pricing_plan_id":"cebpf4jnsgd1na2vs0mg"},{"bike_id":"af28fc47-2be9-4812-bb75-50801798be32","system_id":"levelo_inurba_marseille","lat":43.3378,"lon":5.37433,"is_reserved":false,"is_disabled":false,"rental_uris":{"android":"levelo://app?vid=af28fc47-2be9-4812-bb75-50801798be32","ios":"levelo://app?vid=af28fc47-2be9-4812-bb75-50801798be32"},"vehicle_type_id":"4","last_reported":1736425079,"current_range_meters":36000,"station_id":"","pricing_plan_id":"cebpf4jnsgd1na2vs0mg"},{"bike_id":"3402ac95-fc9f-4aa7-8d06-c5e0b4779208","system_id":"levelo_inurba_marseille","lat":43.2439,"lon":5.3706,"is_reserved":false,"is_disabled":false,"rental_uris":{"android":"levelo://app?vid=3402ac95-fc9f-4aa7-8d06-c5e0b4779208","ios":"levelo://app?vid=3402ac95-fc9f-4aa7-8d06-c5e0b4779208"},"vehicle_type_id":"4","last_reported":1736425079,"current_range_meters":37600,"station_id":"ce4bhhh2rcd13ifvqfk0","pricing_plan_id":"cebpf4jnsgd1na2vs0mg"},{"bike_id":"770b6783-8c35-4fda-b8ad-76f762130bb2","system_id":"levelo_inurba_marseille","lat":43.30123,"lon":5.38783,"is_reserved":false,"is_disabled":false,"rental_uris":{"android":"levelo://app?vid=770b6783-8c35-4fda-b8ad-76f762130bb2","ios":"levelo://app?vid=770b6783-8c35-4fda-b8ad-76f762130bb2"},"vehicle_type_id":"4","last_reported":1736425079,"current_range_meters":26000,"station_id":"ce4bghh2rcd13ifvqb60","pricing_plan_id":"cebpf4jnsgd1na2vs0mg"},{"bike_id":"4efd2084-9715-446a-aae8-df22bb0734d5","system_id":"levelo_inurba_marseille","lat":43.25919,"lon":5.40903,"is_reserved":false,"is_disabled":false,"rental_uris":{"android":"levelo://app?vid=4efd2084-9715-446a-aae8-df22bb0734d5","ios":"levelo://app?vid=4efd2084-9715-446a-aae8-df22bb0734d5"},"vehicle_type_id":"4","last_reported":1736425079,"current_range_meters":22800,"station_id":"ce4bhm92rcd13ifvqglg","pricing_plan_id":"cebpf4jnsgd1na2vs0mg"},{"bike_id":"f5a99c6e-ad3c-446a-855f-6b301d79e312","system_id":"levelo_inurba_marseille","lat":43.31327,"lon":5.39693,"is_reserved":false,"is_disabled":false,"rental_uris":{"android":"levelo://app?vid=f5a99c6e-ad3c-446a-855f-6b301d79e312","ios":"levelo://app?vid=f5a99c6e-ad3c-446a-855f-6b301d79e312"},"vehicle_type_id":"4","last_reported":1736425079,"current_range_meters":32800,"station_id":"ce4bgvp2rcd13ifvqcu0","pricing_plan_id":"cebpf4jnsgd1na2vs0mg"},{"bike_id":"a9b6393a-afe2-41b2-8370-dc893e0b832a","system_id":"levelo_inurba_marseille","lat":43.30462,"lon":5.37904,"is_reserved":false,"is_disabled":false,"rental_uris":{"android":"levelo://app?vid=a9b6393a-afe2-41b2-8370-dc893e0b832a","ios":"levelo://app?vid=a9b6393a-afe2-41b2-8370-dc893e0b832a"},"vehicle_type_id":"4","last_reported":1736425079,"current_range_meters":28000,"station_id":"ce4bgup2rcd13ifvqcn0","pricing_plan_id":"cebpf4jnsgd1na2vs0mg"},{"bike_id":"7a0a8a69-615c-43f3-a001-073b74f4a57b","system_id":"levelo_inurba_marseille","lat":43.25577,"lon":5.38233,"is_reserved":false,"is_disabled":false,"rental_uris":{"android":"levelo://app?vid=7a0a8a69-615c-43f3-a001-073b74f4a57b","ios":"levelo://app?vid=7a0a8a69-615c-43f3-a001-073b74f4a57b"},"vehicle_type_id":"4","last_reported":1736425079,"current_range_meters":30400,"station_id":"ce4bhih2rcd13ifvqfs0","pricing_plan_id":"cebpf4jnsgd1na2vs0mg"},{"bike_id":"1c7d6cb4-4214-4739-b9c6-f0c98c5f642c","system_id":"levelo_inurba_marseille","lat":43.27953,"lon":5.38705,"is_reserved":false,"is_disabled":false,"rental_uris":{"android":"levelo://app?vid=1c7d6cb4-4214-4739-b9c6-f0c98c5f642c","ios":"levelo://app?vid=1c7d6cb4-4214-4739-b9c6-f0c98c5f642c"},"vehicle_type_id":"4","last_reported":1736425079,"current_range_meters":8400,"station_id":"ce4bhg12rcd13ifvqf80","pricing_plan_id":"cebpf4jnsgd1na2vs0mg"},{"bike_id":"d03baa4e-a1ff-4dbb-aa3a-8f7610789178","system_id":"levelo_inurba_marseille","lat":43.33735,"lon":5.39193,"is_reserved":false,"is_disabled":false,"rental_uris":{"android":"levelo://app?vid=d03baa4e-a1ff-4dbb-aa3a-8f7610789178","ios":"levelo://app?vid=d03baa4e-a1ff-4dbb-aa3a-8f7610789178"},"vehicle_type_id":"4","last_reported":1736425079,"current_range_meters":38800,"station_id":"ce4bhr92rcd13ifvqhsg","pricing_plan_id":"cebpf4jnsgd1na2vs0mg"},{"bike_id":"cd8b2ac1-89aa-4580-8775-e5abe51ee74f","system_id":"levelo_inurba_marseille","lat":43.28448,"lon":5.3921,"is_reserved":false,"is_disabled":false,"rental_uris":{"android":"levelo://app?vid=cd8b2ac1-89aa-4580-8775-e5abe51ee74f","ios":"levelo://app?vid=cd8b2ac1-89aa-4580-8775-e5abe51ee74f"},"vehicle_type_id":"4","last_reported":1736425079,"current_range_meters":23200,"station_id":"ce4bhoh2rcd13ifvqh5g","pricing_plan_id":"cebpf4jnsgd1na2vs0mg"},{"bike_id":"d469cfb7-8377-416f-9ac9-4cbcfa616bd7","system_id":"levelo_inurba_marseille","lat":43.2468,"lon":5.38199,"is_reserved":false,"is_disabled":false,"rental_uris":{"android":"levelo://app?vid=d469cfb7-8377-416f-9ac9-4cbcfa616bd7","ios":"levelo://app?vid=d469cfb7-8377-416f-9ac9-4cbcfa616bd7"},"vehicle_type_id":"4","last_reported":1736425079,"current_range_meters":38800,"station_id":"ce4bhih2rcd13ifvqfr0","pricing_plan_id":"cebpf4jnsgd1na2vs0mg"},{"bike_id":"07b44de7-ef2b-4a0b-916d-215f3821ec38","system_id":"levelo_inurba_marseille","lat":43.28338,"lon":5.38104,"is_reserved":false,"is_disabled":false,"rental_uris":{"android":"levelo://app?vid=07b44de7-ef2b-4a0b-916d-215f3821ec38","ios":"levelo://app?vid=07b44de7-ef2b-4a0b-916d-215f3821ec38"},"vehicle_type_id":"4","last_reported":1736425079,"current_range_meters":14400,"station_id":"ce4bh412rcd13ifvqdr0","pricing_plan_id":"cebpf4jnsgd1na2vs0mg"},{"bike_id":"e55df270-5810-4b23-940b-dee821cadcec","system_id":"levelo_inurba_marseille","lat":43.28549,"lon":5.3906,"is_reserved":false,"is_disabled":false,"rental_uris":{"android":"levelo://app?vid=e55df270-5810-4b23-940b-dee821cadcec","ios":"levelo://app?vid=e55df270-5810-4b23-940b-dee821cadcec"},"vehicle_type_id":"4","last_reported":1736425079,"current_range_meters":35600,"station_id":"","pricing_plan_id":"cebpf4jnsgd1na2vs0mg"},{"bike_id":"6634f8bf-9d52-4118-86a1-d5dfb9f73ba8","system_id":"levelo_inurba_marseille","lat":43.28474,"lon":5.39191,"is_reserved":false,"is_disabled":true,"rental_uris":{"android":"levelo://app?vid=6634f8bf-9d52-4118-86a1-d5dfb9f73ba8","ios":"levelo://app?vid=6634f8bf-9d52-4118-86a1-d5dfb9f73ba8"},"vehicle_type_id":"4","last_reported":1736425079,"current_range_meters":36400,"station_id":"ce4bhoh2rcd13ifvqh5g","pricing_plan_id":"cebpf4jnsgd1na2vs0mg"},{"bike_id":"03150058-0a35-42f2-a29e-9a2d94dc6c68","system_id":"levelo_inurba_marseille","lat":43.250119,"lon":5.38806,"is_reserved":false,"is_disabled":true,"rental_uris":{"android":"levelo://app?vid=03150058-0a35-42f2-a29e-9a2d94dc6c68","ios":"levelo://app?vid=03150058-0a35-42f2-a29e-9a2d94dc6c68"},"vehicle_type_id":"4","last_reported":1736425079,"current_range_meters":800,"station_id":"ce4bhnh2rcd13ifvqgtg","pricing_plan_id":"cebpf4jnsgd1na2vs0mg"},{"bike_id":"f2bf0598-5c13-400a-ad53-33b3f2533bdd","system_id":"levelo_inurba_marseille","lat":43.29195,"lon":5.35802,"is_reserved":false,"is_disabled":false,"rental_uris":{"android":"levelo://app?vid=f2bf0598-5c13-400a-ad53-33b3f2533bdd","ios":"levelo://app?vid=f2bf0598-5c13-400a-ad53-33b3f2533bdd"},"vehicle_type_id":"4","last_reported":1736425079,"current_range_meters":26800,"station_id":"ce4bhb12rcd13ifvqel0","pricing_plan_id":"cebpf4jnsgd1na2vs0mg"},{"bike_id":"ec319423-7fa8-45ee-b7f8-ab3cf86bce10","system_id":"levelo_inurba_marseille","lat":43.29931,"lon":5.36555,"is_reserved":false,"is_disabled":true,"rental_uris":{"android":"levelo://app?vid=ec319423-7fa8-45ee-b7f8-ab3cf86bce10","ios":"levelo://app?vid=ec319423-7fa8-45ee-b7f8-ab3cf86bce10"},"vehicle_type_id":"4","last_reported":1736425079,"current_range_meters":0,"station_id":"ce4bgm92rcd13ifvqbr0","pricing_plan_id":"cebpf4jnsgd1na2vs0mg"},{"bike_id":"18dfa386-7540-42bd-be67-ce2e64f82a78","system_id":"levelo_inurba_marseille","lat":43.27067,"lon":5.42284,"is_reserved":false,"is_disabled":false,"rental_uris":{"android":"levelo://app?vid=18dfa386-7540-42bd-be67-ce2e64f82a78","ios":"levelo://app?vid=18dfa386-7540-42bd-be67-ce2e64f82a78"},"vehicle_type_id":"4","last_reported":1736425079,"current_range_meters":28800,"station_id":"ce4bhk92rcd13ifvqgb0","pricing_plan_id":"cebpf4jnsgd1na2vs0mg"},{"bike_id":"526503e8-93a6-418c-be12-1eb1aa5129ec","system_id":"levelo_inurba_marseille","lat":43.29553,"lon":5.37523,"is_reserved":false,"is_disabled":false,"rental_uris":{"android":"levelo://app?vid=526503e8-93a6-418c-be12-1eb1aa5129ec","ios":"levelo://app?vid=526503e8-93a6-418c-be12-1eb1aa5129ec"},"vehicle_type_id":"4","last_reported":1736425079,"current_range_meters":22800,"station_id":"ce4bgh92rcd13ifvqb50","pricing_plan_id":"cebpf4jnsgd1na2vs0mg"},{"bike_id":"7d386103-0084-4a85-8747-24f78e8a9c12","system_id":"levelo_inurba_marseille","lat":43.30465,"lon":5.37902,"is_reserved":false,"is_disabled":false,"rental_uris":{"android":"levelo://app?vid=7d386103-0084-4a85-8747-24f78e8a9c12","ios":"levelo://app?vid=7d386103-0084-4a85-8747-24f78e8a9c12"},"vehicle_type_id":"4","last_reported":1736425079,"current_range_meters":38400,"station_id":"ce4bgup2rcd13ifvqcn0","pricing_plan_id":"cebpf4jnsgd1na2vs0mg"},{"bike_id":"9f1adf35-2d4e-476a-beac-d5fa56fc1fdc","system_id":"levelo_inurba_marseille","lat":43.27809,"lon":5.40715,"is_reserved":false,"is_disabled":false,"rental_uris":{"android":"levelo://app?vid=9f1adf35-2d4e-476a-beac-d5fa56fc1fdc","ios":"levelo://app?vid=9f1adf35-2d4e-476a-beac-d5fa56fc1fdc"},"vehicle_type_id":"4","last_reported":1736425079,"current_range_meters":26800,"station_id":"ce4bhnh2rcd13ifvqgtg","pricing_plan_id":"cebpf4jnsgd1na2vs0mg"},{"bike_id":"e93f83ab-0e3e-4fd9-8d9e-6775678c8e02","system_id":"levelo_inurba_marseille","lat":43.32976,"lon":5.39023,"is_reserved":false,"is_disabled":false,"rental_uris":{"android":"levelo://app?vid=e93f83ab-0e3e-4fd9-8d9e-6775678c8e02","ios":"levelo://app?vid=e93f83ab-0e3e-4fd9-8d9e-6775678c8e02"},"vehicle_type_id":"4","last_reported":1736425079,"current_range_meters":39200,"station_id":"ce4bhr92rcd13ifvqhrg","pricing_plan_id":"cebpf4jnsgd1na2vs0mg"},{"bike_id":"223ebba9-c7e0-489f-8a8b-fee005d3e1cf","system_id":"levelo_inurba_marseille","lat":43.29979,"lon":5.41315,"is_reserved":false,"is_disabled":false,"rental_uris":{"android":"levelo://app?vid=223ebba9-c7e0-489f-8a8b-fee005d3e1cf","ios":"levelo://app?vid=223ebba9-c7e0-489f-8a8b-fee005d3e1cf"},"vehicle_type_id":"4","last_reported":1736425079,"current_range_meters":24800,"station_id":"ce4bhp12rcd13ifvqh9g","pricing_plan_id":"cebpf4jnsgd1na2vs0mg"},{"bike_id":"2a688222-c53a-43b7-8662-6814af84e9d9","system_id":"levelo_inurba_marseille","lat":43.25582,"lon":5.3823,"is_reserved":false,"is_disabled":false,"rental_uris":{"android":"levelo://app?vid=2a688222-c53a-43b7-8662-6814af84e9d9","ios":"levelo://app?vid=2a688222-c53a-43b7-8662-6814af84e9d9"},"vehicle_type_id":"4","last_reported":1736425079,"current_range_meters":29600,"station_id":"ce4bhih2rcd13ifvqfs0","pricing_plan_id":"cebpf4jnsgd1na2vs0mg"},{"bike_id":"de68c0ed-ca17-4377-aa01-b8161dea2dd1","system_id":"levelo_inurba_marseille","lat":43.30535,"lon":5.36698,"is_reserved":false,"is_disabled":false,"rental_uris":{"android":"levelo://app?vid=de68c0ed-ca17-4377-aa01-b8161dea2dd1","ios":"levelo://app?vid=de68c0ed-ca17-4377-aa01-b8161dea2dd1"},"vehicle_type_id":"4","last_reported":1736425079,"current_range_meters":36000,"station_id":"ce4bgrp2rcd13ifvqc9g","pricing_plan_id":"cebpf4jnsgd1na2vs0mg"},{"bike_id":"bb5f7b1b-fafb-45b0-a6b7-306e5a25c30d","system_id":"levelo_inurba_marseille","lat":43.23139,"lon":5.43774,"is_reserved":false,"is_disabled":false,"rental_uris":{"android":"levelo://app?vid=bb5f7b1b-fafb-45b0-a6b7-306e5a25c30d","ios":"levelo://app?vid=bb5f7b1b-fafb-45b0-a6b7-306e5a25c30d"},"vehicle_type_id":"4","last_reported":1736425079,"current_range_meters":38800,"station_id":"ce4bhmp2rcd13ifvqgog","pricing_plan_id":"cebpf4jnsgd1na2vs0mg"},{"bike_id":"945846a1-273e-4ff7-b4fa-22eab695956b","system_id":"levelo_inurba_marseille","lat":43.24072,"lon":5.3776,"is_reserved":false,"is_disabled":false,"rental_uris":{"android":"levelo://app?vid=945846a1-273e-4ff7-b4fa-22eab695956b","ios":"levelo://app?vid=945846a1-273e-4ff7-b4fa-22eab695956b"},"vehicle_type_id":"4","last_reported":1736425079,"current_range_meters":33600,"station_id":"ce4bhnp2rcd13ifvqgvg","pricing_plan_id":"cebpf4jnsgd1na2vs0mg"},{"bike_id":"22ef06b5-960c-4594-a9ce-bdfe76cc1abf","system_id":"levelo_inurba_marseille","lat":43.30933,"lon":5.40144,"is_reserved":false,"is_disabled":false,"rental_uris":{"android":"levelo://app?vid=22ef06b5-960c-4594-a9ce-bdfe76cc1abf","ios":"levelo://app?vid=22ef06b5-960c-4594-a9ce-bdfe76cc1abf"},"vehicle_type_id":"4","last_reported":1736425079,"current_range_meters":33200,"station_id":"ce4bgvp2rcd13ifvqct0","pricing_plan_id":"cebpf4jnsgd1na2vs0mg"},{"bike_id":"ca929e17-2c3f-4af7-bd21-94ba0b28a269","system_id":"levelo_inurba_marseille","lat":43.326567,"lon":5.410017,"is_reserved":false,"is_disabled":false,"rental_uris":{"android":"levelo://app?vid=ca929e17-2c3f-4af7-bd21-94ba0b28a269","ios":"levelo://app?vid=ca929e17-2c3f-4af7-bd21-94ba0b28a269"},"vehicle_type_id":"4","last_reported":1736425079,"current_range_meters":36000,"station_id":"ce4bhpp2rcd13ifvqhgg","pricing_plan_id":"cebpf4jnsgd1na2vs0mg"},{"bike_id":"db9a0c64-75b0-46f1-bc79-482daaa49493","system_id":"levelo_inurba_marseille","lat":43.27376,"lon":5.36258,"is_reserved":false,"is_disabled":false,"rental_uris":{"android":"levelo://app?vid=db9a0c64-75b0-46f1-bc79-482daaa49493","ios":"levelo://app?vid=db9a0c64-75b0-46f1-bc79-482daaa49493"},"vehicle_type_id":"4","last_reported":1736425079,"current_range_meters":32000,"station_id":"ce4bhbh2rcd13ifvqeo0","pricing_plan_id":"cebpf4jnsgd1na2vs0mg"},{"bike_id":"494822bd-666e-4933-8362-e9915c3e969d","system_id":"levelo_inurba_marseille","lat":43.3013,"lon":5.38111,"is_reserved":false,"is_disabled":false,"rental_uris":{"android":"levelo://app?vid=494822bd-666e-4933-8362-e9915c3e969d","ios":"levelo://app?vid=494822bd-666e-4933-8362-e9915c3e969d"},"vehicle_type_id":"4","last_reported":1736425079,"current_range_meters":24800,"station_id":"ce4bgjp2rcd13ifvqbh0","pricing_plan_id":"cebpf4jnsgd1na2vs0mg"},{"bike_id":"8c9aa14a-afd0-46c9-878e-5da92e1bc233","system_id":"levelo_inurba_marseille","lat":43.23154,"lon":5.43713,"is_reserved":false,"is_disabled":false,"rental_uris":{"android":"levelo://app?vid=8c9aa14a-afd0-46c9-878e-5da92e1bc233","ios":"levelo://app?vid=8c9aa14a-afd0-46c9-878e-5da92e1bc233"},"vehicle_type_id":"4","last_reported":1736425079,"current_range_meters":10800,"station_id":"ce4bhmp2rcd13ifvqgog","pricing_plan_id":"cebpf4jnsgd1na2vs0mg"},{"bike_id":"a5b17657-42e5-456b-bb59-7c63a1f42c97","system_id":"levelo_inurba_marseille","lat":43.23152,"lon":5.43726,"is_reserved":false,"is_disabled":false,"rental_uris":{"android":"levelo://app?vid=a5b17657-42e5-456b-bb59-7c63a1f42c97","ios":"levelo://app?vid=a5b17657-42e5-456b-bb59-7c63a1f42c97"},"vehicle_type_id":"4","last_reported":1736425079,"current_range_meters":37600,"station_id":"ce4bhmp2rcd13ifvqgog","pricing_plan_id":"cebpf4jnsgd1na2vs0mg"},{"bike_id":"37d8e1ef-d932-49d7-b893-49542cf44d13","system_id":"levelo_inurba_marseille","lat":43.32345,"lon":5.40629,"is_reserved":false,"is_disabled":true,"rental_uris":{"android":"levelo://app?vid=37d8e1ef-d932-49d7-b893-49542cf44d13","ios":"levelo://app?vid=37d8e1ef-d932-49d7-b893-49542cf44d13"},"vehicle_type_id":"4","last_reported":1736425079,"current_range_meters":0,"station_id":"ce4bhq92rcd13ifvqhjg","pricing_plan_id":"cebpf4jnsgd1na2vs0mg"},{"bike_id":"458c3d58-e6a5-4d1a-8df2-05d9cb3e0072","system_id":"levelo_inurba_marseille","lat":43.25586,"lon":5.38241,"is_reserved":false,"is_disabled":false,"rental_uris":{"android":"levelo://app?vid=458c3d58-e6a5-4d1a-8df2-05d9cb3e0072","ios":"levelo://app?vid=458c3d58-e6a5-4d1a-8df2-05d9cb3e0072"},"vehicle_type_id":"4","last_reported":1736425079,"current_range_meters":22000,"station_id":"ce4bhih2rcd13ifvqfs0","pricing_plan_id":"cebpf4jnsgd1na2vs0mg"},{"bike_id":"aaa54d1b-9fae-4e10-bae5-26964e7bfc38","system_id":"levelo_inurba_marseille","lat":43.28083,"lon":5.39951,"is_reserved":false,"is_disabled":false,"rental_uris":{"android":"levelo://app?vid=aaa54d1b-9fae-4e10-bae5-26964e7bfc38","ios":"levelo://app?vid=aaa54d1b-9fae-4e10-bae5-26964e7bfc38"},"vehicle_type_id":"4","last_reported":1736425079,"current_range_meters":36800,"station_id":"ce4bh292rcd13ifvqdg0","pricing_plan_id":"cebpf4jnsgd1na2vs0mg"},{"bike_id":"ce4b177f-527a-4fe7-8a07-ad28f2fa6bec","system_id":"levelo_inurba_marseille","lat":43.30604,"lon":5.39356,"is_reserved":false,"is_disabled":false,"rental_uris":{"android":"levelo://app?vid=ce4b177f-527a-4fe7-8a07-ad28f2fa6bec","ios":"levelo://app?vid=ce4b177f-527a-4fe7-8a07-ad28f2fa6bec"},"vehicle_type_id":"4","last_reported":1736425079,"current_range_meters":18800,"station_id":"ce4bh0p2rcd13ifvqd80","pricing_plan_id":"cebpf4jnsgd1na2vs0mg"},{"bike_id":"f138e714-233c-45f3-9098-6b0938784952","system_id":"levelo_inurba_marseille","lat":43.24613,"lon":5.38041,"is_reserved":false,"is_disabled":false,"rental_uris":{"android":"levelo://app?vid=f138e714-233c-45f3-9098-6b0938784952","ios":"levelo://app?vid=f138e714-233c-45f3-9098-6b0938784952"},"vehicle_type_id":"4","last_reported":1736425079,"current_range_meters":17600,"station_id":"ce4bhnp2rcd13ifvqgvg","pricing_plan_id":"cebpf4jnsgd1na2vs0mg"},{"bike_id":"6d683dc8-c9ee-43de-89e5-87397ce51507","system_id":"levelo_inurba_marseille","lat":43.25002,"lon":5.38925,"is_reserved":false,"is_disabled":false,"rental_uris":{"android":"levelo://app?vid=6d683dc8-c9ee-43de-89e5-87397ce51507","ios":"levelo://app?vid=6d683dc8-c9ee-43de-89e5-87397ce51507"},"vehicle_type_id":"4","last_reported":1736425079,"current_range_meters":20000,"station_id":"ce4bhgp2rcd13ifvqfd0","pricing_plan_id":"cebpf4jnsgd1na2vs0mg"},{"bike_id":"263d3f02-c0ce-4595-baad-e0e05c6a3c4c","system_id":"levelo_inurba_marseille","lat":43.25565,"lon":5.38258,"is_reserved":false,"is_disabled":false,"rental_uris":{"android":"levelo://app?vid=263d3f02-c0ce-4595-baad-e0e05c6a3c4c","ios":"levelo://app?vid=263d3f02-c0ce-4595-baad-e0e05c6a3c4c"},"vehicle_type_id":"4","last_reported":1736425079,"current_range_meters":28400,"station_id":"ce4bhih2rcd13ifvqfs0","pricing_plan_id":"cebpf4jnsgd1na2vs0mg"},{"bike_id":"e162055e-04f8-4e16-85e5-e66d7339ffa3","system_id":"levelo_inurba_marseille","lat":43.2844,"lon":5.39217,"is_reserved":false,"is_disabled":false,"rental_uris":{"android":"levelo://app?vid=e162055e-04f8-4e16-85e5-e66d7339ffa3","ios":"levelo://app?vid=e162055e-04f8-4e16-85e5-e66d7339ffa3"},"vehicle_type_id":"4","last_reported":1736425079,"current_range_meters":30000,"station_id":"ce4bhoh2rcd13ifvqh5g","pricing_plan_id":"cebpf4jnsgd1na2vs0mg"},{"bike_id":"73506a2a-d06c-45de-92d0-b96c574a5cbc","system_id":"levelo_inurba_marseille","lat":43.29374,"lon":5.37876,"is_reserved":false,"is_disabled":false,"rental_uris":{"android":"levelo://app?vid=73506a2a-d06c-45de-92d0-b96c574a5cbc","ios":"levelo://app?vid=73506a2a-d06c-45de-92d0-b96c574a5cbc"},"vehicle_type_id":"4","last_reported":1736425079,"current_range_meters":30400,"station_id":"ce4bgjh2rcd13ifvqbf0","pricing_plan_id":"cebpf4jnsgd1na2vs0mg"},{"bike_id":"7ec64c56-d7b2-4267-8d29-78fce5b653ea","system_id":"levelo_inurba_marseille","lat":43.29989,"lon":5.37188,"is_reserved":false,"is_disabled":false,"rental_uris":{"android":"levelo://app?vid=7ec64c56-d7b2-4267-8d29-78fce5b653ea","ios":"levelo://app?vid=7ec64c56-d7b2-4267-8d29-78fce5b653ea"},"vehicle_type_id":"4","last_reported":1736425079,"current_range_meters":38400,"station_id":"ce4bgr92rcd13ifvqc7g","pricing_plan_id":"cebpf4jnsgd1na2vs0mg"},{"bike_id":"4b9552e7-7313-44cc-ba72-6ebb3cfea997","system_id":"levelo_inurba_marseille","lat":43.25725,"lon":5.39427,"is_reserved":false,"is_disabled":false,"rental_uris":{"android":"levelo://app?vid=4b9552e7-7313-44cc-ba72-6ebb3cfea997","ios":"levelo://app?vid=4b9552e7-7313-44cc-ba72-6ebb3cfea997"},"vehicle_type_id":"4","last_reported":1736425079,"current_range_meters":28400,"station_id":"ce4bhh92rcd13ifvqfj0","pricing_plan_id":"cebpf4jnsgd1na2vs0mg"},{"bike_id":"c150f8af-fc8f-4eb5-ac98-0b06dadf4ce0","system_id":"levelo_inurba_marseille","lat":43.25577,"lon":5.38219,"is_reserved":false,"is_disabled":false,"rental_uris":{"android":"levelo://app?vid=c150f8af-fc8f-4eb5-ac98-0b06dadf4ce0","ios":"levelo://app?vid=c150f8af-fc8f-4eb5-ac98-0b06dadf4ce0"},"vehicle_type_id":"4","last_reported":1736425079,"current_range_meters":37600,"station_id":"ce4bhih2rcd13ifvqfs0","pricing_plan_id":"cebpf4jnsgd1na2vs0mg"},{"bike_id":"7277abf6-1732-4723-9bef-c0330eccd972","system_id":"levelo_inurba_marseille","lat":43.2751,"lon":5.42457,"is_reserved":false,"is_disabled":false,"rental_uris":{"android":"levelo://app?vid=7277abf6-1732-4723-9bef-c0330eccd972","ios":"levelo://app?vid=7277abf6-1732-4723-9bef-c0330eccd972"},"vehicle_type_id":"4","last_reported":1736425079,"current_range_meters":35600,"station_id":"ce4bhn92rcd13ifvqgrg","pricing_plan_id":"cebpf4jnsgd1na2vs0mg"},{"bike_id":"8caee6a7-a343-4e7e-92cc-a74facb40f4e","system_id":"levelo_inurba_marseille","lat":43.23165,"lon":5.43731,"is_reserved":false,"is_disabled":false,"rental_uris":{"android":"levelo://app?vid=8caee6a7-a343-4e7e-92cc-a74facb40f4e","ios":"levelo://app?vid=8caee6a7-a343-4e7e-92cc-a74facb40f4e"},"vehicle_type_id":"4","last_reported":1736425079,"current_range_meters":8400,"station_id":"ce4bhmp2rcd13ifvqgog","pricing_plan_id":"cebpf4jnsgd1na2vs0mg"},{"bike_id":"60ce1b70-e47d-4caf-abee-52e7d5bfe299","system_id":"levelo_inurba_marseille","lat":43.24643,"lon":5.38903,"is_reserved":false,"is_disabled":false,"rental_uris":{"android":"levelo://app?vid=60ce1b70-e47d-4caf-abee-52e7d5bfe299","ios":"levelo://app?vid=60ce1b70-e47d-4caf-abee-52e7d5bfe299"},"vehicle_type_id":"4","last_reported":1736425079,"current_range_meters":38000,"station_id":"ce4bhg12rcd13ifvqf60","pricing_plan_id":"cebpf4jnsgd1na2vs0mg"},{"bike_id":"7627c0f8-e30b-4018-a991-3dd21750fc78","system_id":"levelo_inurba_marseille","lat":43.28704,"lon":5.37952,"is_reserved":false,"is_disabled":true,"rental_uris":{"android":"levelo://app?vid=7627c0f8-e30b-4018-a991-3dd21750fc78","ios":"levelo://app?vid=7627c0f8-e30b-4018-a991-3dd21750fc78"},"vehicle_type_id":"4","last_reported":1736425079,"current_range_meters":38800,"station_id":"ce4bh9p2rcd13ifvqec0","pricing_plan_id":"cebpf4jnsgd1na2vs0mg"},{"bike_id":"66471134-25e4-4211-abd7-23c33d84503b","system_id":"levelo_inurba_marseille","lat":43.25937,"lon":5.40918,"is_reserved":false,"is_disabled":false,"rental_uris":{"android":"levelo://app?vid=66471134-25e4-4211-abd7-23c33d84503b","ios":"levelo://app?vid=66471134-25e4-4211-abd7-23c33d84503b"},"vehicle_type_id":"4","last_reported":1736425079,"current_range_meters":38800,"station_id":"ce4bhm92rcd13ifvqglg","pricing_plan_id":"cebpf4jnsgd1na2vs0mg"},{"bike_id":"a04c750d-c2a3-4826-bb16-b9d8bd34b860","system_id":"levelo_inurba_marseille","lat":43.25585,"lon":5.38233,"is_reserved":false,"is_disabled":false,"rental_uris":{"android":"levelo://app?vid=a04c750d-c2a3-4826-bb16-b9d8bd34b860","ios":"levelo://app?vid=a04c750d-c2a3-4826-bb16-b9d8bd34b860"},"vehicle_type_id":"4","last_reported":1736425079,"current_range_meters":38800,"station_id":"ce4bhih2rcd13ifvqfs0","pricing_plan_id":"cebpf4jnsgd1na2vs0mg"},{"bike_id":"03c15d26-5db6-4340-918c-6ed83008547c","system_id":"levelo_inurba_marseille","lat":43.337648,"lon":5.374394,"is_reserved":false,"is_disabled":false,"rental_uris":{"android":"levelo://app?vid=03c15d26-5db6-4340-918c-6ed83008547c","ios":"levelo://app?vid=03c15d26-5db6-4340-918c-6ed83008547c"},"vehicle_type_id":"4","last_reported":1736425079,"current_range_meters":38400,"station_id":"","pricing_plan_id":"cebpf4jnsgd1na2vs0mg"},{"bike_id":"d1b092d3-a407-46bf-b987-f5eda0e6e805","system_id":"levelo_inurba_marseille","lat":43.29775,"lon":5.37111,"is_reserved":false,"is_disabled":false,"rental_uris":{"android":"levelo://app?vid=d1b092d3-a407-46bf-b987-f5eda0e6e805","ios":"levelo://app?vid=d1b092d3-a407-46bf-b987-f5eda0e6e805"},"vehicle_type_id":"4","last_reported":1736425079,"current_range_meters":37600,"station_id":"ce4bgop2rcd13ifvqc1g","pricing_plan_id":"cebpf4jnsgd1na2vs0mg"},{"bike_id":"eb9e7f11-40b0-4740-a3cf-085cd019d8d1","system_id":"levelo_inurba_marseille","lat":43.30139,"lon":5.3808,"is_reserved":false,"is_disabled":false,"rental_uris":{"android":"levelo://app?vid=eb9e7f11-40b0-4740-a3cf-085cd019d8d1","ios":"levelo://app?vid=eb9e7f11-40b0-4740-a3cf-085cd019d8d1"},"vehicle_type_id":"4","last_reported":1736425079,"current_range_meters":38800,"station_id":"ce4bgjp2rcd13ifvqbh0","pricing_plan_id":"cebpf4jnsgd1na2vs0mg"},{"bike_id":"354a52f2-d6c4-464e-9d0c-c7bbae9e99ba","system_id":"levelo_inurba_marseille","lat":43.30469,"lon":5.37907,"is_reserved":false,"is_disabled":false,"rental_uris":{"android":"levelo://app?vid=354a52f2-d6c4-464e-9d0c-c7bbae9e99ba","ios":"levelo://app?vid=354a52f2-d6c4-464e-9d0c-c7bbae9e99ba"},"vehicle_type_id":"4","last_reported":1736425079,"current_range_meters":16400,"station_id":"ce4bgup2rcd13ifvqcn0","pricing_plan_id":"cebpf4jnsgd1na2vs0mg"},{"bike_id":"6d223941-2594-4bbe-935e-52f08a6e45df","system_id":"levelo_inurba_marseille","lat":43.28353,"lon":5.38113,"is_reserved":false,"is_disabled":false,"rental_uris":{"android":"levelo://app?vid=6d223941-2594-4bbe-935e-52f08a6e45df","ios":"levelo://app?vid=6d223941-2594-4bbe-935e-52f08a6e45df"},"vehicle_type_id":"4","last_reported":1736425079,"current_range_meters":24400,"station_id":"ce4bh412rcd13ifvqdr0","pricing_plan_id":"cebpf4jnsgd1na2vs0mg"},{"bike_id":"fca82b9e-a3cb-4bf4-b4d3-a900d1bafa59","system_id":"levelo_inurba_marseille","lat":43.30885,"lon":5.37195,"is_reserved":false,"is_disabled":false,"rental_uris":{"android":"levelo://app?vid=fca82b9e-a3cb-4bf4-b4d3-a900d1bafa59","ios":"levelo://app?vid=fca82b9e-a3cb-4bf4-b4d3-a900d1bafa59"},"vehicle_type_id":"4","last_reported":1736425079,"current_range_meters":32000,"station_id":"ce4bguh2rcd13ifvqckg","pricing_plan_id":"cebpf4jnsgd1na2vs0mg"},{"bike_id":"6c9daffc-e174-4a9a-8b3e-30a6cf4027c8","system_id":"levelo_inurba_marseille","lat":43.32103,"lon":5.3679,"is_reserved":false,"is_disabled":false,"rental_uris":{"android":"levelo://app?vid=6c9daffc-e174-4a9a-8b3e-30a6cf4027c8","ios":"levelo://app?vid=6c9daffc-e174-4a9a-8b3e-30a6cf4027c8"},"vehicle_type_id":"4","last_reported":1736425079,"current_range_meters":15200,"station_id":"ce4bhrh2rcd13ifvqhug","pricing_plan_id":"cebpf4jnsgd1na2vs0mg"},{"bike_id":"d9a70281-b132-494a-a389-4e9a9ff76397","system_id":"levelo_inurba_marseille","lat":43.28955,"lon":5.36414,"is_reserved":false,"is_disabled":false,"rental_uris":{"android":"levelo://app?vid=d9a70281-b132-494a-a389-4e9a9ff76397","ios":"levelo://app?vid=d9a70281-b132-494a-a389-4e9a9ff76397"},"vehicle_type_id":"4","last_reported":1736425079,"current_range_meters":6400,"station_id":"ce4bhc92rcd13ifvqetg","pricing_plan_id":"cebpf4jnsgd1na2vs0mg"},{"bike_id":"355798b5-9f19-4468-ab35-5d5928887f31","system_id":"levelo_inurba_marseille","lat":43.26681,"lon":5.38331,"is_reserved":false,"is_disabled":false,"rental_uris":{"android":"levelo://app?vid=355798b5-9f19-4468-ab35-5d5928887f31","ios":"levelo://app?vid=355798b5-9f19-4468-ab35-5d5928887f31"},"vehicle_type_id":"4","last_reported":1736425079,"current_range_meters":20400,"station_id":"ce4bhg92rcd13ifvqf90","pricing_plan_id":"cebpf4jnsgd1na2vs0mg"},{"bike_id":"8eade31f-e751-4e22-82e9-2e9fa5a9150e","system_id":"levelo_inurba_marseille","lat":43.31359,"lon":5.38499,"is_reserved":false,"is_disabled":false,"rental_uris":{"android":"levelo://app?vid=8eade31f-e751-4e22-82e9-2e9fa5a9150e","ios":"levelo://app?vid=8eade31f-e751-4e22-82e9-2e9fa5a9150e"},"vehicle_type_id":"4","last_reported":1736425079,"current_range_meters":36800,"station_id":"ce4bgt92rcd13ifvqcf0","pricing_plan_id":"cebpf4jnsgd1na2vs0mg"},{"bike_id":"1f243cf9-f38a-4e1b-b4be-c4b5ec630061","system_id":"levelo_inurba_marseille","lat":43.27212,"lon":5.39186,"is_reserved":false,"is_disabled":false,"rental_uris":{"android":"levelo://app?vid=1f243cf9-f38a-4e1b-b4be-c4b5ec630061","ios":"levelo://app?vid=1f243cf9-f38a-4e1b-b4be-c4b5ec630061"},"vehicle_type_id":"4","last_reported":1736425079,"current_range_meters":39200,"station_id":"ce4bhhp2rcd13ifvqfm0","pricing_plan_id":"cebpf4jnsgd1na2vs0mg"},{"bike_id":"02926ecf-df50-4e52-ba90-1fddadb6b51b","system_id":"levelo_inurba_marseille","lat":43.26194,"lon":5.3746,"is_reserved":false,"is_disabled":false,"rental_uris":{"android":"levelo://app?vid=02926ecf-df50-4e52-ba90-1fddadb6b51b","ios":"levelo://app?vid=02926ecf-df50-4e52-ba90-1fddadb6b51b"},"vehicle_type_id":"4","last_reported":1736425079,"current_range_meters":31200,"station_id":"ce4bhgp2rcd13ifvqfc0","pricing_plan_id":"cebpf4jnsgd1na2vs0mg"},{"bike_id":"546fbb96-800b-4f90-be23-b4f678471f8f","system_id":"levelo_inurba_marseille","lat":43.255843,"lon":5.382173,"is_reserved":false,"is_disabled":false,"rental_uris":{"android":"levelo://app?vid=546fbb96-800b-4f90-be23-b4f678471f8f","ios":"levelo://app?vid=546fbb96-800b-4f90-be23-b4f678471f8f"},"vehicle_type_id":"4","last_reported":1736425079,"current_range_meters":11200,"station_id":"ce4bhih2rcd13ifvqfs0","pricing_plan_id":"cebpf4jnsgd1na2vs0mg"},{"bike_id":"2581e438-acdf-4d21-8721-6bb36b3adbc3","system_id":"levelo_inurba_marseille","lat":43.31223,"lon":5.36875,"is_reserved":false,"is_disabled":false,"rental_uris":{"android":"levelo://app?vid=2581e438-acdf-4d21-8721-6bb36b3adbc3","ios":"levelo://app?vid=2581e438-acdf-4d21-8721-6bb36b3adbc3"},"vehicle_type_id":"4","last_reported":1736425079,"current_range_meters":17600,"station_id":"ce4bgl92rcd13ifvqbq0","pricing_plan_id":"cebpf4jnsgd1na2vs0mg"},{"bike_id":"95d3448a-591f-493e-a463-7ae24e6b0478","system_id":"levelo_inurba_marseille","lat":43.30169,"lon":5.38755,"is_reserved":false,"is_disabled":true,"rental_uris":{"android":"levelo://app?vid=95d3448a-591f-493e-a463-7ae24e6b0478","ios":"levelo://app?vid=95d3448a-591f-493e-a463-7ae24e6b0478"},"vehicle_type_id":"4","last_reported":1736425079,"current_range_meters":14800,"station_id":"ce4bghh2rcd13ifvqb60","pricing_plan_id":"cebpf4jnsgd1na2vs0mg"},{"bike_id":"59be00d9-2c5d-4fb8-b6cd-bb89811ea4da","system_id":"levelo_inurba_marseille","lat":43.28669,"lon":5.38681,"is_reserved":false,"is_disabled":false,"rental_uris":{"android":"levelo://app?vid=59be00d9-2c5d-4fb8-b6cd-bb89811ea4da","ios":"levelo://app?vid=59be00d9-2c5d-4fb8-b6cd-bb89811ea4da"},"vehicle_type_id":"4","last_reported":1736425079,"current_range_meters":18800,"station_id":"ce4bh492rcd13ifvqdug","pricing_plan_id":"cebpf4jnsgd1na2vs0mg"},{"bike_id":"ef25eaa6-bee9-49b8-9f27-c672cf723f89","system_id":"levelo_inurba_marseille","lat":43.30601,"lon":5.3937,"is_reserved":false,"is_disabled":false,"rental_uris":{"android":"levelo://app?vid=ef25eaa6-bee9-49b8-9f27-c672cf723f89","ios":"levelo://app?vid=ef25eaa6-bee9-49b8-9f27-c672cf723f89"},"vehicle_type_id":"4","last_reported":1736425079,"current_range_meters":38800,"station_id":"ce4bh0p2rcd13ifvqd80","pricing_plan_id":"cebpf4jnsgd1na2vs0mg"},{"bike_id":"47b52840-ae6f-45a2-91dd-47029d990ad8","system_id":"levelo_inurba_marseille","lat":43.29015,"lon":5.35602,"is_reserved":false,"is_disabled":false,"rental_uris":{"android":"levelo://app?vid=47b52840-ae6f-45a2-91dd-47029d990ad8","ios":"levelo://app?vid=47b52840-ae6f-45a2-91dd-47029d990ad8"},"vehicle_type_id":"4","last_reported":1736425079,"current_range_meters":27200,"station_id":"ce4bhb92rcd13ifvqen0","pricing_plan_id":"cebpf4jnsgd1na2vs0mg"},{"bike_id":"2eb264c8-1e8d-4f17-a831-3cda07857865","system_id":"levelo_inurba_marseille","lat":43.32111,"lon":5.36769,"is_reserved":false,"is_disabled":false,"rental_uris":{"android":"levelo://app?vid=2eb264c8-1e8d-4f17-a831-3cda07857865","ios":"levelo://app?vid=2eb264c8-1e8d-4f17-a831-3cda07857865"},"vehicle_type_id":"4","last_reported":1736425079,"current_range_meters":35600,"station_id":"ce4bhrh2rcd13ifvqhug","pricing_plan_id":"cebpf4jnsgd1na2vs0mg"},{"bike_id":"e5ea93b0-7260-4823-8276-3665cdbd669b","system_id":"levelo_inurba_marseille","lat":43.30132,"lon":5.38782,"is_reserved":false,"is_disabled":false,"rental_uris":{"android":"levelo://app?vid=e5ea93b0-7260-4823-8276-3665cdbd669b","ios":"levelo://app?vid=e5ea93b0-7260-4823-8276-3665cdbd669b"},"vehicle_type_id":"4","last_reported":1736425079,"current_range_meters":36400,"station_id":"ce4bghh2rcd13ifvqb60","pricing_plan_id":"cebpf4jnsgd1na2vs0mg"},{"bike_id":"1e2223a2-c032-49e7-8dbf-982df86a0520","system_id":"levelo_inurba_marseille","lat":43.22919,"lon":5.35383,"is_reserved":false,"is_disabled":false,"rental_uris":{"android":"levelo://app?vid=1e2223a2-c032-49e7-8dbf-982df86a0520","ios":"levelo://app?vid=1e2223a2-c032-49e7-8dbf-982df86a0520"},"vehicle_type_id":"4","last_reported":1736425079,"current_range_meters":36800,"station_id":"cpo3532slgdg3j2ikp40","pricing_plan_id":"cebpf4jnsgd1na2vs0mg"},{"bike_id":"4e7cbf55-d486-4530-99d9-9fd07d231bef","system_id":"levelo_inurba_marseille","lat":43.28133,"lon":5.39002,"is_reserved":false,"is_disabled":false,"rental_uris":{"android":"levelo://app?vid=4e7cbf55-d486-4530-99d9-9fd07d231bef","ios":"levelo://app?vid=4e7cbf55-d486-4530-99d9-9fd07d231bef"},"vehicle_type_id":"4","last_reported":1736425079,"current_range_meters":38400,"station_id":"ce4bhoh2rcd13ifvqh5g","pricing_plan_id":"cebpf4jnsgd1na2vs0mg"},{"bike_id":"3aefb9c1-3e4a-487c-b413-b90ef97c7063","system_id":"levelo_inurba_marseille","lat":43.23178,"lon":5.43695,"is_reserved":false,"is_disabled":false,"rental_uris":{"android":"levelo://app?vid=3aefb9c1-3e4a-487c-b413-b90ef97c7063","ios":"levelo://app?vid=3aefb9c1-3e4a-487c-b413-b90ef97c7063"},"vehicle_type_id":"4","last_reported":1736425079,"current_range_meters":15200,"station_id":"ce4bhmp2rcd13ifvqgog","pricing_plan_id":"cebpf4jnsgd1na2vs0mg"},{"bike_id":"be8a233f-ad85-41b2-af03-bfa1e3033438","system_id":"levelo_inurba_marseille","lat":43.23195,"lon":5.35564,"is_reserved":false,"is_disabled":false,"rental_uris":{"android":"levelo://app?vid=be8a233f-ad85-41b2-af03-bfa1e3033438","ios":"levelo://app?vid=be8a233f-ad85-41b2-af03-bfa1e3033438"},"vehicle_type_id":"4","last_reported":1736425079,"current_range_meters":28400,"station_id":"ce4bhu92rcd13ifvqi70","pricing_plan_id":"cebpf4jnsgd1na2vs0mg"},{"bike_id":"b124ca2f-2fd0-4c56-960f-1b8a90949c3b","system_id":"levelo_inurba_marseille","lat":43.29525,"lon":5.37502,"is_reserved":false,"is_disabled":true,"rental_uris":{"android":"levelo://app?vid=b124ca2f-2fd0-4c56-960f-1b8a90949c3b","ios":"levelo://app?vid=b124ca2f-2fd0-4c56-960f-1b8a90949c3b"},"vehicle_type_id":"4","last_reported":1736425079,"current_range_meters":29600,"station_id":"ce4bgkp2rcd13ifvqbmg","pricing_plan_id":"cebpf4jnsgd1na2vs0mg"},{"bike_id":"32334792-1edc-47fe-a007-ccf42a46facb","system_id":"levelo_inurba_marseille","lat":43.27987,"lon":5.41656,"is_reserved":false,"is_disabled":false,"rental_uris":{"android":"levelo://app?vid=32334792-1edc-47fe-a007-ccf42a46facb","ios":"levelo://app?vid=32334792-1edc-47fe-a007-ccf42a46facb"},"vehicle_type_id":"4","last_reported":1736425079,"current_range_meters":18800,"station_id":"ce4bho12rcd13ifvqh1g","pricing_plan_id":"cebpf4jnsgd1na2vs0mg"},{"bike_id":"f23b57b9-1cdb-445c-9eef-9bd668e5d679","system_id":"levelo_inurba_marseille","lat":43.29024,"lon":5.35948,"is_reserved":false,"is_disabled":false,"rental_uris":{"android":"levelo://app?vid=f23b57b9-1cdb-445c-9eef-9bd668e5d679","ios":"levelo://app?vid=f23b57b9-1cdb-445c-9eef-9bd668e5d679"},"vehicle_type_id":"4","last_reported":1736425079,"current_range_meters":24800,"station_id":"ce4bha92rcd13ifvqeg0","pricing_plan_id":"cebpf4jnsgd1na2vs0mg"},{"bike_id":"999a3f14-cb9c-4c4e-a0f7-05efdccfcf6a","system_id":"levelo_inurba_marseille","lat":43.3045,"lon":5.389,"is_reserved":false,"is_disabled":false,"rental_uris":{"android":"levelo://app?vid=999a3f14-cb9c-4c4e-a0f7-05efdccfcf6a","ios":"levelo://app?vid=999a3f14-cb9c-4c4e-a0f7-05efdccfcf6a"},"vehicle_type_id":"4","last_reported":1736425079,"current_range_meters":38000,"station_id":"ce4bgk12rcd13ifvqbi0","pricing_plan_id":"cebpf4jnsgd1na2vs0mg"},{"bike_id":"3cebf9a3-0c25-460c-94d4-af04dc81215b","system_id":"levelo_inurba_marseille","lat":43.30923,"lon":5.36858,"is_reserved":false,"is_disabled":false,"rental_uris":{"android":"levelo://app?vid=3cebf9a3-0c25-460c-94d4-af04dc81215b","ios":"levelo://app?vid=3cebf9a3-0c25-460c-94d4-af04dc81215b"},"vehicle_type_id":"4","last_reported":1736425079,"current_range_meters":38800,"station_id":"ce4bgn92rcd13ifvqbvg","pricing_plan_id":"cebpf4jnsgd1na2vs0mg"},{"bike_id":"6ffba497-52f7-4a81-b005-bbbc3eee46b1","system_id":"levelo_inurba_marseille","lat":43.30133,"lon":5.38103,"is_reserved":false,"is_disabled":false,"rental_uris":{"android":"levelo://app?vid=6ffba497-52f7-4a81-b005-bbbc3eee46b1","ios":"levelo://app?vid=6ffba497-52f7-4a81-b005-bbbc3eee46b1"},"vehicle_type_id":"4","last_reported":1736425079,"current_range_meters":38800,"station_id":"ce4bgjp2rcd13ifvqbh0","pricing_plan_id":"cebpf4jnsgd1na2vs0mg"},{"bike_id":"363b71f0-6185-416e-9aed-097caf5f4dfa","system_id":"levelo_inurba_marseille","lat":43.2872,"lon":5.37939,"is_reserved":false,"is_disabled":false,"rental_uris":{"android":"levelo://app?vid=363b71f0-6185-416e-9aed-097caf5f4dfa","ios":"levelo://app?vid=363b71f0-6185-416e-9aed-097caf5f4dfa"},"vehicle_type_id":"4","last_reported":1736425079,"current_range_meters":6800,"station_id":"ce4bh9p2rcd13ifvqec0","pricing_plan_id":"cebpf4jnsgd1na2vs0mg"},{"bike_id":"a2cdc16c-2ab6-429a-9af3-90d7981a1f04","system_id":"levelo_inurba_marseille","lat":43.28023,"lon":5.38716,"is_reserved":false,"is_disabled":true,"rental_uris":{"android":"levelo://app?vid=a2cdc16c-2ab6-429a-9af3-90d7981a1f04","ios":"levelo://app?vid=a2cdc16c-2ab6-429a-9af3-90d7981a1f04"},"vehicle_type_id":"4","last_reported":1736425079,"current_range_meters":400,"station_id":"","pricing_plan_id":"cebpf4jnsgd1na2vs0mg"},{"bike_id":"6dd3cd51-2d39-490e-95d5-84d2711792f0","system_id":"levelo_inurba_marseille","lat":43.2707,"lon":5.422802,"is_reserved":false,"is_disabled":false,"rental_uris":{"android":"levelo://app?vid=6dd3cd51-2d39-490e-95d5-84d2711792f0","ios":"levelo://app?vid=6dd3cd51-2d39-490e-95d5-84d2711792f0"},"vehicle_type_id":"4","last_reported":1736425079,"current_range_meters":19600,"station_id":"ce4bhk92rcd13ifvqgb0","pricing_plan_id":"cebpf4jnsgd1na2vs0mg"},{"bike_id":"aca58d84-ee45-42b2-bfa7-a284870e32cc","system_id":"levelo_inurba_marseille","lat":43.30909,"lon":5.36844,"is_reserved":false,"is_disabled":true,"rental_uris":{"android":"levelo://app?vid=aca58d84-ee45-42b2-bfa7-a284870e32cc","ios":"levelo://app?vid=aca58d84-ee45-42b2-bfa7-a284870e32cc"},"vehicle_type_id":"4","last_reported":1736425079,"current_range_meters":1600,"station_id":"ce4bgn92rcd13ifvqbvg","pricing_plan_id":"cebpf4jnsgd1na2vs0mg"},{"bike_id":"661421ef-43d8-4a9a-9b63-a317032c4e73","system_id":"levelo_inurba_marseille","lat":43.30135,"lon":5.38775,"is_reserved":false,"is_disabled":false,"rental_uris":{"android":"levelo://app?vid=661421ef-43d8-4a9a-9b63-a317032c4e73","ios":"levelo://app?vid=661421ef-43d8-4a9a-9b63-a317032c4e73"},"vehicle_type_id":"4","last_reported":1736425079,"current_range_meters":38800,"station_id":"ce4bghh2rcd13ifvqb60","pricing_plan_id":"cebpf4jnsgd1na2vs0mg"},{"bike_id":"0819326e-4c9e-46b6-a47f-46eef59e79b2","system_id":"levelo_inurba_marseille","lat":43.24081,"lon":5.37753,"is_reserved":false,"is_disabled":false,"rental_uris":{"android":"levelo://app?vid=0819326e-4c9e-46b6-a47f-46eef59e79b2","ios":"levelo://app?vid=0819326e-4c9e-46b6-a47f-46eef59e79b2"},"vehicle_type_id":"4","last_reported":1736425079,"current_range_meters":28800,"station_id":"ce4bhnp2rcd13ifvqgvg","pricing_plan_id":"cebpf4jnsgd1na2vs0mg"},{"bike_id":"ad28bd53-1c8c-44ea-9a1c-1e5a5b2498fe","system_id":"levelo_inurba_marseille","lat":43.24174,"lon":5.3641,"is_reserved":false,"is_disabled":false,"rental_uris":{"android":"levelo://app?vid=ad28bd53-1c8c-44ea-9a1c-1e5a5b2498fe","ios":"levelo://app?vid=ad28bd53-1c8c-44ea-9a1c-1e5a5b2498fe"},"vehicle_type_id":"4","last_reported":1736425079,"current_range_meters":15200,"station_id":"cpo36qri1sfpv3e86is0","pricing_plan_id":"cebpf4jnsgd1na2vs0mg"},{"bike_id":"2d2fbc61-7484-43d8-82f1-4c77f4e113dc","system_id":"levelo_inurba_marseille","lat":43.24095,"lon":5.37741,"is_reserved":false,"is_disabled":false,"rental_uris":{"android":"levelo://app?vid=2d2fbc61-7484-43d8-82f1-4c77f4e113dc","ios":"levelo://app?vid=2d2fbc61-7484-43d8-82f1-4c77f4e113dc"},"vehicle_type_id":"4","last_reported":1736425079,"current_range_meters":22800,"station_id":"ce4bhnp2rcd13ifvqgvg","pricing_plan_id":"cebpf4jnsgd1na2vs0mg"},{"bike_id":"c783ddf3-1db4-4042-99b8-63c45b04c2e3","system_id":"levelo_inurba_marseille","lat":43.28849,"lon":5.39314,"is_reserved":false,"is_disabled":false,"rental_uris":{"android":"levelo://app?vid=c783ddf3-1db4-4042-99b8-63c45b04c2e3","ios":"levelo://app?vid=c783ddf3-1db4-4042-99b8-63c45b04c2e3"},"vehicle_type_id":"4","last_reported":1736425079,"current_range_meters":38800,"station_id":"ce4bh2p2rcd13ifvqdi0","pricing_plan_id":"cebpf4jnsgd1na2vs0mg"},{"bike_id":"beceaf1c-b3bb-4418-826f-ccba131c6a10","system_id":"levelo_inurba_marseille","lat":43.23138,"lon":5.43746,"is_reserved":false,"is_disabled":false,"rental_uris":{"android":"levelo://app?vid=beceaf1c-b3bb-4418-826f-ccba131c6a10","ios":"levelo://app?vid=beceaf1c-b3bb-4418-826f-ccba131c6a10"},"vehicle_type_id":"4","last_reported":1736425079,"current_range_meters":9600,"station_id":"ce4bhmp2rcd13ifvqgog","pricing_plan_id":"cebpf4jnsgd1na2vs0mg"},{"bike_id":"9af0ea47-5673-4051-b0c8-1ac27575b7ca","system_id":"levelo_inurba_marseille","lat":43.28489,"lon":5.38549,"is_reserved":false,"is_disabled":false,"rental_uris":{"android":"levelo://app?vid=9af0ea47-5673-4051-b0c8-1ac27575b7ca","ios":"levelo://app?vid=9af0ea47-5673-4051-b0c8-1ac27575b7ca"},"vehicle_type_id":"4","last_reported":1736425079,"current_range_meters":4800,"station_id":"ce4bh8p2rcd13ifvqeb0","pricing_plan_id":"cebpf4jnsgd1na2vs0mg"},{"bike_id":"50cd5673-6836-4309-a193-16e51cb2408d","system_id":"levelo_inurba_marseille","lat":43.26687,"lon":5.38269,"is_reserved":false,"is_disabled":false,"rental_uris":{"android":"levelo://app?vid=50cd5673-6836-4309-a193-16e51cb2408d","ios":"levelo://app?vid=50cd5673-6836-4309-a193-16e51cb2408d"},"vehicle_type_id":"4","last_reported":1736425079,"current_range_meters":38800,"station_id":"ce4bhg92rcd13ifvqf90","pricing_plan_id":"cebpf4jnsgd1na2vs0mg"},{"bike_id":"da4214b8-8d8a-4a87-bce1-7a3deee9519b","system_id":"levelo_inurba_marseille","lat":43.3026,"lon":5.4006,"is_reserved":false,"is_disabled":false,"rental_uris":{"android":"levelo://app?vid=da4214b8-8d8a-4a87-bce1-7a3deee9519b","ios":"levelo://app?vid=da4214b8-8d8a-4a87-bce1-7a3deee9519b"},"vehicle_type_id":"4","last_reported":1736425079,"current_range_meters":38800,"station_id":"ce4bgvh2rcd13ifvqcs0","pricing_plan_id":"cebpf4jnsgd1na2vs0mg"},{"bike_id":"2770d16b-50fb-4435-a1b6-e44488190806","system_id":"levelo_inurba_marseille","lat":43.29315,"lon":5.37175,"is_reserved":false,"is_disabled":false,"rental_uris":{"android":"levelo://app?vid=2770d16b-50fb-4435-a1b6-e44488190806","ios":"levelo://app?vid=2770d16b-50fb-4435-a1b6-e44488190806"},"vehicle_type_id":"4","last_reported":1736425079,"current_range_meters":4800,"station_id":"ce4bgh92rcd13ifvqb40","pricing_plan_id":"cebpf4jnsgd1na2vs0mg"},{"bike_id":"b8acbba0-a715-4ced-a2aa-0517db10ac9d","system_id":"levelo_inurba_marseille","lat":43.22929,"lon":5.35378,"is_reserved":false,"is_disabled":false,"rental_uris":{"android":"levelo://app?vid=b8acbba0-a715-4ced-a2aa-0517db10ac9d","ios":"levelo://app?vid=b8acbba0-a715-4ced-a2aa-0517db10ac9d"},"vehicle_type_id":"4","last_reported":1736425079,"current_range_meters":11600,"station_id":"cpo3532slgdg3j2ikp40","pricing_plan_id":"cebpf4jnsgd1na2vs0mg"},{"bike_id":"b450dfde-eda4-42e3-a726-8a34fd665df8","system_id":"levelo_inurba_marseille","lat":43.24067,"lon":5.37746,"is_reserved":false,"is_disabled":false,"rental_uris":{"android":"levelo://app?vid=b450dfde-eda4-42e3-a726-8a34fd665df8","ios":"levelo://app?vid=b450dfde-eda4-42e3-a726-8a34fd665df8"},"vehicle_type_id":"4","last_reported":1736425079,"current_range_meters":38800,"station_id":"ce4bhnp2rcd13ifvqgvg","pricing_plan_id":"cebpf4jnsgd1na2vs0mg"},{"bike_id":"377905ce-ff14-425c-a795-09de43f26e70","system_id":"levelo_inurba_marseille","lat":43.30548,"lon":5.36543,"is_reserved":false,"is_disabled":false,"rental_uris":{"android":"levelo://app?vid=377905ce-ff14-425c-a795-09de43f26e70","ios":"levelo://app?vid=377905ce-ff14-425c-a795-09de43f26e70"},"vehicle_type_id":"4","last_reported":1736425079,"current_range_meters":38800,"station_id":"ce4bgs12rcd13ifvqcag","pricing_plan_id":"cebpf4jnsgd1na2vs0mg"},{"bike_id":"584e93ba-4d72-45aa-90e0-c26a9ff8e2ac","system_id":"levelo_inurba_marseille","lat":43.29275,"lon":5.36861,"is_reserved":false,"is_disabled":false,"rental_uris":{"android":"levelo://app?vid=584e93ba-4d72-45aa-90e0-c26a9ff8e2ac","ios":"levelo://app?vid=584e93ba-4d72-45aa-90e0-c26a9ff8e2ac"},"vehicle_type_id":"4","last_reported":1736425079,"current_range_meters":8400,"station_id":"ce4bhbp2rcd13ifvqesg","pricing_plan_id":"cebpf4jnsgd1na2vs0mg"},{"bike_id":"ca28c05e-bfc5-443c-b699-0afa6d6ec689","system_id":"levelo_inurba_marseille","lat":43.29852,"lon":5.36288,"is_reserved":false,"is_disabled":false,"rental_uris":{"android":"levelo://app?vid=ca28c05e-bfc5-443c-b699-0afa6d6ec689","ios":"levelo://app?vid=ca28c05e-bfc5-443c-b699-0afa6d6ec689"},"vehicle_type_id":"4","last_reported":1736425079,"current_range_meters":35600,"station_id":"ce4bgpp2rcd13ifvqc3g","pricing_plan_id":"cebpf4jnsgd1na2vs0mg"},{"bike_id":"94d7f15d-c2eb-48e0-ab06-c718661b3572","system_id":"levelo_inurba_marseille","lat":43.30907,"lon":5.36842,"is_reserved":false,"is_disabled":false,"rental_uris":{"android":"levelo://app?vid=94d7f15d-c2eb-48e0-ab06-c718661b3572","ios":"levelo://app?vid=94d7f15d-c2eb-48e0-ab06-c718661b3572"},"vehicle_type_id":"4","last_reported":1736425079,"current_range_meters":20000,"station_id":"ce4bgn92rcd13ifvqbvg","pricing_plan_id":"cebpf4jnsgd1na2vs0mg"},{"bike_id":"9f45806b-0439-44e8-9147-35b59088d5f3","system_id":"levelo_inurba_marseille","lat":43.24179,"lon":5.36398,"is_reserved":false,"is_disabled":false,"rental_uris":{"android":"levelo://app?vid=9f45806b-0439-44e8-9147-35b59088d5f3","ios":"levelo://app?vid=9f45806b-0439-44e8-9147-35b59088d5f3"},"vehicle_type_id":"4","last_reported":1736425079,"current_range_meters":19200,"station_id":"cpo36qri1sfpv3e86is0","pricing_plan_id":"cebpf4jnsgd1na2vs0mg"},{"bike_id":"4f441822-6e65-41ac-ba82-a68ed47351f0","system_id":"levelo_inurba_marseille","lat":43.28863,"lon":5.38197,"is_reserved":false,"is_disabled":false,"rental_uris":{"android":"levelo://app?vid=4f441822-6e65-41ac-ba82-a68ed47351f0","ios":"levelo://app?vid=4f441822-6e65-41ac-ba82-a68ed47351f0"},"vehicle_type_id":"4","last_reported":1736425079,"current_range_meters":38400,"station_id":"ce4bh412rcd13ifvqdr0","pricing_plan_id":"cebpf4jnsgd1na2vs0mg"},{"bike_id":"51e1289c-d38f-4381-8c55-dbfcce3dba5d","system_id":"levelo_inurba_marseille","lat":43.30519,"lon":5.36719,"is_reserved":false,"is_disabled":false,"rental_uris":{"android":"levelo://app?vid=51e1289c-d38f-4381-8c55-dbfcce3dba5d","ios":"levelo://app?vid=51e1289c-d38f-4381-8c55-dbfcce3dba5d"},"vehicle_type_id":"4","last_reported":1736425079,"current_range_meters":9600,"station_id":"ce4bgrp2rcd13ifvqc9g","pricing_plan_id":"cebpf4jnsgd1na2vs0mg"},{"bike_id":"852f75e6-084b-4ee8-8fbe-725a495f89fb","system_id":"levelo_inurba_marseille","lat":43.2872,"lon":5.37937,"is_reserved":false,"is_disabled":false,"rental_uris":{"android":"levelo://app?vid=852f75e6-084b-4ee8-8fbe-725a495f89fb","ios":"levelo://app?vid=852f75e6-084b-4ee8-8fbe-725a495f89fb"},"vehicle_type_id":"4","last_reported":1736425079,"current_range_meters":36800,"station_id":"ce4bh9p2rcd13ifvqec0","pricing_plan_id":"cebpf4jnsgd1na2vs0mg"},{"bike_id":"93a40161-a202-4436-990f-81d1e07472da","system_id":"levelo_inurba_marseille","lat":43.27984,"lon":5.38746,"is_reserved":false,"is_disabled":false,"rental_uris":{"android":"levelo://app?vid=93a40161-a202-4436-990f-81d1e07472da","ios":"levelo://app?vid=93a40161-a202-4436-990f-81d1e07472da"},"vehicle_type_id":"4","last_reported":1736425079,"current_range_meters":33600,"station_id":"ce4bhg12rcd13ifvqf80","pricing_plan_id":"cebpf4jnsgd1na2vs0mg"},{"bike_id":"c0844158-4fb1-4ef7-ad06-a01804611734","system_id":"levelo_inurba_marseille","lat":43.30283,"lon":5.37699,"is_reserved":false,"is_disabled":true,"rental_uris":{"android":"levelo://app?vid=c0844158-4fb1-4ef7-ad06-a01804611734","ios":"levelo://app?vid=c0844158-4fb1-4ef7-ad06-a01804611734"},"vehicle_type_id":"4","last_reported":1736425079,"current_range_meters":2000,"station_id":"ce4bguh2rcd13ifvqcj0","pricing_plan_id":"cebpf4jnsgd1na2vs0mg"},{"bike_id":"3108c230-0b71-48c3-ac34-2963912f8e96","system_id":"levelo_inurba_marseille","lat":43.259325,"lon":5.409099,"is_reserved":false,"is_disabled":false,"rental_uris":{"android":"levelo://app?vid=3108c230-0b71-48c3-ac34-2963912f8e96","ios":"levelo://app?vid=3108c230-0b71-48c3-ac34-2963912f8e96"},"vehicle_type_id":"4","last_reported":1736425079,"current_range_meters":16400,"station_id":"ce4bhm92rcd13ifvqglg","pricing_plan_id":"cebpf4jnsgd1na2vs0mg"},{"bike_id":"65180b60-f307-4f23-8346-bbe427ebab81","system_id":"levelo_inurba_marseille","lat":43.29572,"lon":5.3751,"is_reserved":false,"is_disabled":false,"rental_uris":{"android":"levelo://app?vid=65180b60-f307-4f23-8346-bbe427ebab81","ios":"levelo://app?vid=65180b60-f307-4f23-8346-bbe427ebab81"},"vehicle_type_id":"4","last_reported":1736425079,"current_range_meters":36400,"station_id":"ce4bgh92rcd13ifvqb50","pricing_plan_id":"cebpf4jnsgd1na2vs0mg"},{"bike_id":"fca7aa83-9566-473c-a0db-4f38beb60448","system_id":"levelo_inurba_marseille","lat":43.3123,"lon":5.36864,"is_reserved":false,"is_disabled":false,"rental_uris":{"android":"levelo://app?vid=fca7aa83-9566-473c-a0db-4f38beb60448","ios":"levelo://app?vid=fca7aa83-9566-473c-a0db-4f38beb60448"},"vehicle_type_id":"4","last_reported":1736425079,"current_range_meters":30800,"station_id":"ce4bgl92rcd13ifvqbq0","pricing_plan_id":"cebpf4jnsgd1na2vs0mg"},{"bike_id":"503215c7-dc08-4f32-a869-ad81d7ec043d","system_id":"levelo_inurba_marseille","lat":43.28355,"lon":5.38669,"is_reserved":false,"is_disabled":true,"rental_uris":{"android":"levelo://app?vid=503215c7-dc08-4f32-a869-ad81d7ec043d","ios":"levelo://app?vid=503215c7-dc08-4f32-a869-ad81d7ec043d"},"vehicle_type_id":"4","last_reported":1736425079,"current_range_meters":37600,"station_id":"ce4bh492rcd13ifvqdvg","pricing_plan_id":"cebpf4jnsgd1na2vs0mg"},{"bike_id":"0e0138d5-2c0f-49e0-a8b6-8972553e78ee","system_id":"levelo_inurba_marseille","lat":43.28718,"lon":5.37958,"is_reserved":false,"is_disabled":true,"rental_uris":{"android":"levelo://app?vid=0e0138d5-2c0f-49e0-a8b6-8972553e78ee","ios":"levelo://app?vid=0e0138d5-2c0f-49e0-a8b6-8972553e78ee"},"vehicle_type_id":"4","last_reported":1736425079,"current_range_meters":5600,"station_id":"ce4bh9p2rcd13ifvqec0","pricing_plan_id":"cebpf4jnsgd1na2vs0mg"},{"bike_id":"93fa8e1a-7cb0-4786-81ef-f4918e39114b","system_id":"levelo_inurba_marseille","lat":43.30306,"lon":5.39218,"is_reserved":false,"is_disabled":false,"rental_uris":{"android":"levelo://app?vid=93fa8e1a-7cb0-4786-81ef-f4918e39114b","ios":"levelo://app?vid=93fa8e1a-7cb0-4786-81ef-f4918e39114b"},"vehicle_type_id":"4","last_reported":1736425079,"current_range_meters":33600,"station_id":"ce4bgkh2rcd13ifvqbk0","pricing_plan_id":"cebpf4jnsgd1na2vs0mg"},{"bike_id":"b9b8fdbf-6e31-4186-8b5e-7c6b0705272b","system_id":"levelo_inurba_marseille","lat":43.30893,"lon":5.36855,"is_reserved":false,"is_disabled":false,"rental_uris":{"android":"levelo://app?vid=b9b8fdbf-6e31-4186-8b5e-7c6b0705272b","ios":"levelo://app?vid=b9b8fdbf-6e31-4186-8b5e-7c6b0705272b"},"vehicle_type_id":"4","last_reported":1736425079,"current_range_meters":37600,"station_id":"ce4bgn92rcd13ifvqbvg","pricing_plan_id":"cebpf4jnsgd1na2vs0mg"},{"bike_id":"d30343e3-f962-4685-bbb8-0f94fa2fdcad","system_id":"levelo_inurba_marseille","lat":43.26668,"lon":5.38273,"is_reserved":false,"is_disabled":false,"rental_uris":{"android":"levelo://app?vid=d30343e3-f962-4685-bbb8-0f94fa2fdcad","ios":"levelo://app?vid=d30343e3-f962-4685-bbb8-0f94fa2fdcad"},"vehicle_type_id":"4","last_reported":1736425079,"current_range_meters":38800,"station_id":"ce4bhg92rcd13ifvqf90","pricing_plan_id":"cebpf4jnsgd1na2vs0mg"},{"bike_id":"a07a4011-1492-45a2-925a-e487957312af","system_id":"levelo_inurba_marseille","lat":43.30303,"lon":5.36908,"is_reserved":false,"is_disabled":false,"rental_uris":{"android":"levelo://app?vid=a07a4011-1492-45a2-925a-e487957312af","ios":"levelo://app?vid=a07a4011-1492-45a2-925a-e487957312af"},"vehicle_type_id":"4","last_reported":1736425079,"current_range_meters":29600,"station_id":"ce4bgqh2rcd13ifvqc5g","pricing_plan_id":"cebpf4jnsgd1na2vs0mg"},{"bike_id":"4f3c272d-47db-4c8d-828f-e7d5e253c0c8","system_id":"levelo_inurba_marseille","lat":43.26959,"lon":5.38634,"is_reserved":false,"is_disabled":false,"rental_uris":{"android":"levelo://app?vid=4f3c272d-47db-4c8d-828f-e7d5e253c0c8","ios":"levelo://app?vid=4f3c272d-47db-4c8d-828f-e7d5e253c0c8"},"vehicle_type_id":"4","last_reported":1736425079,"current_range_meters":11200,"station_id":"ce4bhh92rcd13ifvqfh0","pricing_plan_id":"cebpf4jnsgd1na2vs0mg"},{"bike_id":"8a3e6b18-2c2b-49ca-9f0a-506d1fa5a0a1","system_id":"levelo_inurba_marseille","lat":43.27575,"lon":5.38434,"is_reserved":false,"is_disabled":false,"rental_uris":{"android":"levelo://app?vid=8a3e6b18-2c2b-49ca-9f0a-506d1fa5a0a1","ios":"levelo://app?vid=8a3e6b18-2c2b-49ca-9f0a-506d1fa5a0a1"},"vehicle_type_id":"4","last_reported":1736425079,"current_range_meters":36800,"station_id":"ce4bhh92rcd13ifvqfi0","pricing_plan_id":"cebpf4jnsgd1na2vs0mg"},{"bike_id":"c4650abe-2e42-45cf-90e4-267e7cd97f44","system_id":"levelo_inurba_marseille","lat":43.29109,"lon":5.40157,"is_reserved":false,"is_disabled":true,"rental_uris":{"android":"levelo://app?vid=c4650abe-2e42-45cf-90e4-267e7cd97f44","ios":"levelo://app?vid=c4650abe-2e42-45cf-90e4-267e7cd97f44"},"vehicle_type_id":"4","last_reported":1736425079,"current_range_meters":0,"station_id":"","pricing_plan_id":"cebpf4jnsgd1na2vs0mg"},