{"last_updated":1726657679,"ttl":30,"version":"2.2","data":{"bikes":[{"bike_id":"4f26637b-a492-45fe-a496-aca3be9a3444","system_id":"levelo_inurba_marseille","lat":43.26953,"lon":5.38627,"is_reserved":false,"is_disabled":false,"rental_uris":{"android":"levelo://app?vid=4f26637b-a492-45fe-a496-aca3be9a3444","ios":"levelo://app?vid=4f26637b-a492-45fe-a496-aca3be9a3444"},"vehicle_type_id":"4","last_reported":1726657680,"current_range_meters":28400,"station_id":"ce4bhh92rcd13ifvqfh0","pricing_plan_id":"cebpf4jnsgd1na2vs0mg"},{"bike_id":"d8a7bbae-3d0e-457c-8e82-e6128d956f4d","system_id":"levelo_inurba_marseille","lat":43.27477,"lon":5.42461,"is_reserved":false,"is_disabled":false,"rental_uris":{"android":"levelo://app?vid=d8a7bbae-3d0e-457c-8e82-e6128d956f4d","ios":"levelo://app?vid=d8a7bbae-3d0e-457c-8e82-e6128d956f4d"},"vehicle_type_id":"4","last_reported":1726657680,"current_range_meters":38800,"station_id":"ce4bhn92rcd13ifvqgrg","pricing_plan_id":"cebpf4jnsgd1na2vs0mg"},{"bike_id":"0fdbafd3-c4da-44f5-8229-975dd81276ab","system_id":"levelo_inurba_marseille","lat":43.28562,"lon":5.39495,"is_reserved":false,"is_disabled":false,"rental_uris":{"android":"levelo://app?vid=0fdbafd3-c4da-44f5-8229-975dd81276ab","ios":"levelo://app?vid=0fdbafd3-c4da-44f5-8229-975dd81276ab"},"vehicle_type_id":"4","last_reported":1726657680,"current_range_meters":15200,"station_id":"ce4bh292rcd13ifvqdg0","pricing_plan_id":"cebpf4jnsgd1na2vs0mg"},{"bike_id":"740d975e-092e-442a-8056-2b865b23b2fa","system_id":"levelo_inurba_marseille","lat":43.29028,"lon":5.381355,"is_reserved":false,"is_disabled":false,"rental_uris":{"android":"levelo://app?vid=740d975e-092e-442a-8056-2b865b23b2fa","ios":"levelo://app?vid=740d975e-092e-442a-8056-2b865b23b2fa"},"vehicle_type_id":"4","last_reported":1726657680,"current_range_meters":24400,"station_id":"ce4bh4p2rcd13ifvqe1g","pricing_plan_id":"cebpf4jnsgd1na2vs0mg"},{"bike_id":"43176770-eaee-4996-86c7-d408161e4ce6","system_id":"levelo_inurba_marseille","lat":43.29896,"lon":5.43665,"is_reserved":false,"is_disabled":false,"rental_uris":{"android":"levelo://app?vid=43176770-eaee-4996-86c7-d408161e4ce6","ios":"levelo://app?vid=43176770-eaee-4996-86c7-d408161e4ce6"},"vehicle_type_id":"4","last_reported":1726657680,"current_range_meters":37600,"station_id":"ce4bhpp2rcd13ifvqhfg","pricing_plan_id":"cebpf4jnsgd1na2vs0mg"},{"bike_id":"8f5a1eda-61b7-4c11-ac10-82b1e8fe4834","system_id":"levelo_inurba_marseille","lat":43.26198,"lon":5.37931,"is_reserved":false,"is_disabled":false,"rental_uris":{"android":"levelo://app?vid=8f5a1eda-61b7-4c11-ac10-82b1e8fe4834","ios":"levelo://app?vid=8f5a1eda-61b7-4c11-ac10-82b1e8fe4834"},"vehicle_type_id":"4","last_reported":1726657680,"current_range_meters":30400,"station_id":"ce4bhjp2rcd13ifvqg90","pricing_plan_id":"cebpf4jnsgd1na2vs0mg"},{"bike_id":"5e83057c-a40a-4544-a629-a63805102126","system_id":"levelo_inurba_marseille","lat":43.27489,"lon":5.42448,"is_reserved":false,"is_disabled":false,"rental_uris":{"android":"levelo://app?vid=5e83057c-a40a-4544-a629-a63805102126","ios":"levelo://app?vid=5e83057c-a40a-4544-a629-a63805102126"},"vehicle_type_id":"4","last_reported":1726657680,"current_range_meters":29600,"station_id":"ce4bhn92rcd13ifvqgrg","pricing_plan_id":"cebpf4jnsgd1na2vs0mg"},{"bike_id":"b187d284-5dc6-4b2f-97cd-3b738292a4da","system_id":"levelo_inurba_marseille","lat":43.33738,"lon":5.37443,"is_reserved":false,"is_disabled":false,"rental_uris":{"android":"levelo://app?vid=b187d284-5dc6-4b2f-97cd-3b738292a4da","ios":"levelo://app?vid=b187d284-5dc6-4b2f-97cd-3b738292a4da"},"vehicle_type_id":"4","last_reported":1726657680,"current_range_meters":16800,"station_id":"","pricing_plan_id":"cebpf4jnsgd1na2vs0mg"},{"bike_id":"a5fe7cf1-481e-4d14-812d-e5389340b4e0","system_id":"levelo_inurba_marseille","lat":43.304633,"lon":5.379093,"is_reserved":false,"is_disabled":false,"rental_uris":{"android":"levelo://app?vid=a5fe7cf1-481e-4d14-812d-e5389340b4e0","ios":"levelo://app?vid=a5fe7cf1-481e-4d14-812d-e5389340b4e0"},"vehicle_type_id":"4","last_reported":1726657680,"current_range_meters":27600,"station_id":"ce4bgup2rcd13ifvqcn0","pricing_plan_id":"cebpf4jnsgd1na2vs0mg"},{"bike_id":"b592e2f2-3b3c-4b97-abca-4d0c4bf54e79","system_id":"levelo_inurba_marseille","lat":43.29938,"lon":5.40393,"is_reserved":false,"is_disabled":false,"rental_uris":{"android":"levelo://app?vid=b592e2f2-3b3c-4b97-abca-4d0c4bf54e79","ios":"levelo://app?vid=b592e2f2-3b3c-4b97-abca-4d0c4bf54e79"},"vehicle_type_id":"4","last_reported":1726657680,"current_range_meters":34000,"station_id":"","pricing_plan_id":"cebpf4jnsgd1na2vs0mg"},{"bike_id":"22a13925-299d-4c75-acb9-b8a234e50f22","system_id":"levelo_inurba_marseille","lat":43.29193,"lon":5.35795,"is_reserved":false,"is_disabled":false,"rental_uris":{"android":"levelo://app?vid=22a13925-299d-4c75-acb9-b8a234e50f22","ios":"levelo://app?vid=22a13925-299d-4c75-acb9-b8a234e50f22"},"vehicle_type_id":"4","last_reported":1726657680,"current_range_meters":39200,"station_id":"ce4bhb12rcd13ifvqel0","pricing_plan_id":"cebpf4jnsgd1na2vs0mg"},{"bike_id":"55f0ac1f-e1ca-4c08-80bd-e56871e1b837","system_id":"levelo_inurba_marseille","lat":43.25116,"lon":5.40322,"is_reserved":false,"is_disabled":false,"rental_uris":{"android":"levelo://app?vid=55f0ac1f-e1ca-4c08-80bd-e56871e1b837","ios":"levelo://app?vid=55f0ac1f-e1ca-4c08-80bd-e56871e1b837"},"vehicle_type_id":"4","last_reported":1726657680,"current_range_meters":6400,"station_id":"ce4bhlh2rcd13ifvqgig","pricing_plan_id":"cebpf4jnsgd1na2vs0mg"},{"bike_id":"0e905e0c-9c67-4786-b5b4-c094456c66c2","system_id":"levelo_inurba_marseille","lat":43.29254,"lon":5.3844,"is_reserved":false,"is_disabled":false,"rental_uris":{"android":"levelo://app?vid=0e905e0c-9c67-4786-b5b4-c094456c66c2","ios":"levelo://app?vid=0e905e0c-9c67-4786-b5b4-c094456c66c2"},"vehicle_type_id":"4","last_reported":1726657680,"current_range_meters":10800,"station_id":"ce4bh692rcd13ifvqea0","pricing_plan_id":"cebpf4jnsgd1na2vs0mg"},{"bike_id":"0e61ba1b-fb71-43d4-8379-cd6ecaac8232","system_id":"levelo_inurba_marseille","lat":43.286133,"lon":5.351026,"is_reserved":false,"is_disabled":false,"rental_uris":{"android":"levelo://app?vid=0e61ba1b-fb71-43d4-8379-cd6ecaac8232","ios":"levelo://app?vid=0e61ba1b-fb71-43d4-8379-cd6ecaac8232"},"vehicle_type_id":"4","last_reported":1726657680,"current_range_meters":22800,"station_id":"ce4bhch2rcd13ifvqeug","pricing_plan_id":"cebpf4jnsgd1na2vs0mg"},{"bike_id":"8e846c01-e9fc-4410-bc49-68dcc8b8ae3f","system_id":"levelo_inurba_marseille","lat":43.28668,"lon":5.36342,"is_reserved":false,"is_disabled":false,"rental_uris":{"android":"levelo://app?vid=8e846c01-e9fc-4410-bc49-68dcc8b8ae3f","ios":"levelo://app?vid=8e846c01-e9fc-4410-bc49-68dcc8b8ae3f"},"vehicle_type_id":"4","last_reported":1726657680,"current_range_meters":38400,"station_id":"ce4bhah2rcd13ifvqej0","pricing_plan_id":"cebpf4jnsgd1na2vs0mg"},{"bike_id":"824df550-c05f-4de9-9d84-d13629768bfe","system_id":"levelo_inurba_marseille","lat":43.26805,"lon":5.40269,"is_reserved":false,"is_disabled":false,"rental_uris":{"android":"levelo://app?vid=824df550-c05f-4de9-9d84-d13629768bfe","ios":"levelo://app?vid=824df550-c05f-4de9-9d84-d13629768bfe"},"vehicle_type_id":"4","last_reported":1726657680,"current_range_meters":36400,"station_id":"ce501612rcd8frsf0b60","pricing_plan_id":"cebpf4jnsgd1na2vs0mg"},{"bike_id":"103a716b-dbc7-4e49-a7f2-16e378e92b85","system_id":"levelo_inurba_marseille","lat":43.22927,"lon":5.35373,"is_reserved":false,"is_disabled":false,"rental_uris":{"android":"levelo://app?vid=103a716b-dbc7-4e49-a7f2-16e378e92b85","ios":"levelo://app?vid=103a716b-dbc7-4e49-a7f2-16e378e92b85"},"vehicle_type_id":"4","last_reported":1726657680,"current_range_meters":25600,"station_id":"cpo3532slgdg3j2ikp40","pricing_plan_id":"cebpf4jnsgd1na2vs0mg"},{"bike_id":"39f82b1d-9e06-45b0-807d-36f669ec6d33","system_id":"levelo_inurba_marseille","lat":43.29519,"lon":5.39404,"is_reserved":false,"is_disabled":false,"rental_uris":{"android":"levelo://app?vid=39f82b1d-9e06-45b0-807d-36f669ec6d33","ios":"levelo://app?vid=39f82b1d-9e06-45b0-807d-36f669ec6d33"},"vehicle_type_id":"4","last_reported":1726657680,"current_range_meters":14000,"station_id":"ce4bh292rcd13ifvqdf0","pricing_plan_id":"cebpf4jnsgd1na2vs0mg"},{"bike_id":"32fbe1ca-baf4-46a0-b9cd-86acfec01c4d","system_id":"levelo_inurba_marseille","lat":43.28603,"lon":5.37069,"is_reserved":false,"is_disabled":false,"rental_uris":{"android":"levelo://app?vid=32fbe1ca-baf4-46a0-b9cd-86acfec01c4d","ios":"levelo://app?vid=32fbe1ca-baf4-46a0-b9cd-86acfec01c4d"},"vehicle_type_id":"4","last_reported":1726657680,"current_range_meters":8400,"station_id":"ce4bht12rcd13ifvqi60","pricing_plan_id":"cebpf4jnsgd1na2vs0mg"},{"bike_id":"734aa74e-b926-4042-9aab-1e80809573f6","system_id":"levelo_inurba_marseille","lat":43.28837,"lon":5.39304,"is_reserved":false,"is_disabled":false,"rental_uris":{"android":"levelo://app?vid=734aa74e-b926-4042-9aab-1e80809573f6","ios":"levelo://app?vid=734aa74e-b926-4042-9aab-1e80809573f6"},"vehicle_type_id":"4","last_reported":1726657680,"current_range_meters":26000,"station_id":"ce4bh2p2rcd13ifvqdi0","pricing_plan_id":"cebpf4jnsgd1na2vs0mg"},{"bike_id":"b988df85-af70-4374-8fbf-10e18393b77b","system_id":"levelo_inurba_marseille","lat":43.30299,"lon":5.36901,"is_reserved":false,"is_disabled":false,"rental_uris":{"android":"levelo://app?vid=b988df85-af70-4374-8fbf-10e18393b77b","ios":"levelo://app?vid=b988df85-af70-4374-8fbf-10e18393b77b"},"vehicle_type_id":"4","last_reported":1726657680,"current_range_meters":37600,"station_id":"ce4bgqh2rcd13ifvqc5g","pricing_plan_id":"cebpf4jnsgd1na2vs0mg"},{"bike_id":"506a28f7-0798-49e4-b38f-f0bb95dda86f","system_id":"levelo_inurba_marseille","lat":43.32485,"lon":5.36569,"is_reserved":false,"is_disabled":false,"rental_uris":{"android":"levelo://app?vid=506a28f7-0798-49e4-b38f-f0bb95dda86f","ios":"levelo://app?vid=506a28f7-0798-49e4-b38f-f0bb95dda86f"},"vehicle_type_id":"4","last_reported":1726657680,"current_range_meters":34000,"station_id":"ce4bhs12rcd13ifvqhvg","pricing_plan_id":"cebpf4jnsgd1na2vs0mg"},{"bike_id":"2ead656c-8850-4401-b04f-8b4ba65c4285","system_id":"levelo_inurba_marseille","lat":43.23183,"lon":5.39978,"is_reserved":false,"is_disabled":false,"rental_uris":{"android":"levelo://app?vid=2ead656c-8850-4401-b04f-8b4ba65c4285","ios":"levelo://app?vid=2ead656c-8850-4401-b04f-8b4ba65c4285"},"vehicle_type_id":"4","last_reported":1726657680,"current_range_meters":14800,"station_id":"ce4bhn12rcd13ifvqgqg","pricing_plan_id":"cebpf4jnsgd1na2vs0mg"},{"bike_id":"e07b2f2b-0f67-431d-a1c8-83bdc5e611a6","system_id":"levelo_inurba_marseille","lat":43.29527,"lon":5.38546,"is_reserved":false,"is_disabled":false,"rental_uris":{"android":"levelo://app?vid=e07b2f2b-0f67-431d-a1c8-83bdc5e611a6","ios":"levelo://app?vid=e07b2f2b-0f67-431d-a1c8-83bdc5e611a6"},"vehicle_type_id":"4","last_reported":1726657680,"current_range_meters":9200,"station_id":"ce4bgih2rcd13ifvqba0","pricing_plan_id":"cebpf4jnsgd1na2vs0mg"},{"bike_id":"d9b62648-6378-4dbb-9f13-09848203a4fd","system_id":"levelo_inurba_marseille","lat":43.2668,"lon":5.38266,"is_reserved":false,"is_disabled":false,"rental_uris":{"android":"levelo://app?vid=d9b62648-6378-4dbb-9f13-09848203a4fd","ios":"levelo://app?vid=d9b62648-6378-4dbb-9f13-09848203a4fd"},"vehicle_type_id":"4","last_reported":1726657680,"current_range_meters":38800,"station_id":"ce4bhg92rcd13ifvqf90","pricing_plan_id":"cebpf4jnsgd1na2vs0mg"},{"bike_id":"2a5808e5-1612-4dc1-a62b-b9c71459256c","system_id":"levelo_inurba_marseille","lat":43.34082,"lon":5.3911,"is_reserved":false,"is_disabled":false,"rental_uris":{"android":"levelo://app?vid=2a5808e5-1612-4dc1-a62b-b9c71459256c","ios":"levelo://app?vid=2a5808e5-1612-4dc1-a62b-b9c71459256c"},"vehicle_type_id":"4","last_reported":1726657680,"current_range_meters":4800,"station_id":"","pricing_plan_id":"cebpf4jnsgd1na2vs0mg"},{"bike_id":"8a05fd09-51fb-4869-8555-2c371f83f14b","system_id":"levelo_inurba_marseille","lat":43.28452,"lon":5.35887,"is_reserved":false,"is_disabled":false,"rental_uris":{"android":"levelo://app?vid=8a05fd09-51fb-4869-8555-2c371f83f14b","ios":"levelo://app?vid=8a05fd09-51fb-4869-8555-2c371f83f14b"},"vehicle_type_id":"4","last_reported":1726657680,"current_range_meters":11600,"station_id":"","pricing_plan_id":"cebpf4jnsgd1na2vs0mg"},{"bike_id":"5f39b9a1-ff4c-4041-ba75-3a0bdfd26fbc","system_id":"levelo_inurba_marseille","lat":43.26939,"lon":5.39327,"is_reserved":false,"is_disabled":false,"rental_uris":{"android":"levelo://app?vid=5f39b9a1-ff4c-4041-ba75-3a0bdfd26fbc","ios":"levelo://app?vid=5f39b9a1-ff4c-4041-ba75-3a0bdfd26fbc"},"vehicle_type_id":"4","last_reported":1726657680,"current_range_meters":18000,"station_id":"ce4bhn12rcd13ifvqgqg","pricing_plan_id":"cebpf4jnsgd1na2vs0mg"},{"bike_id":"8d1e2e72-4244-4368-ae9a-73832406244d","system_id":"levelo_inurba_marseille","lat":43.29032,"lon":5.38636,"is_reserved":false,"is_disabled":false,"rental_uris":{"android":"levelo://app?vid=8d1e2e72-4244-4368-ae9a-73832406244d","ios":"levelo://app?vid=8d1e2e72-4244-4368-ae9a-73832406244d"},"vehicle_type_id":"4","last_reported":1726657680,"current_range_meters":32400,"station_id":"ce4bh4p2rcd13ifvqe0g","pricing_plan_id":"cebpf4jnsgd1na2vs0mg"},{"bike_id":"b4450704-51e1-4ff8-a772-08322cc70eb7","system_id":"levelo_inurba_marseille","lat":43.23189,"lon":5.3556,"is_reserved":false,"is_disabled":false,"rental_uris":{"android":"levelo://app?vid=b4450704-51e1-4ff8-a772-08322cc70eb7","ios":"levelo://app?vid=b4450704-51e1-4ff8-a772-08322cc70eb7"},"vehicle_type_id":"4","last_reported":1726657680,"current_range_meters":36000,"station_id":"ce4bhu92rcd13ifvqi70","pricing_plan_id":"cebpf4jnsgd1na2vs0mg"},{"bike_id":"d596687b-29a5-4452-9c10-ec28b7aa9742","system_id":"levelo_inurba_marseille","lat":43.29576,"lon":5.36738,"is_reserved":false,"is_disabled":false,"rental_uris":{"android":"levelo://app?vid=d596687b-29a5-4452-9c10-ec28b7aa9742","ios":"levelo://app?vid=d596687b-29a5-4452-9c10-ec28b7aa9742"},"vehicle_type_id":"4","last_reported":1726657680,"current_range_meters":29600,"station_id":"ce4bgph2rcd13ifvqc2g","pricing_plan_id":"cebpf4jnsgd1na2vs0mg"},{"bike_id":"1e9f2167-5db4-498f-a1d0-2af35f9c5737","system_id":"levelo_inurba_marseille","lat":43.24174,"lon":5.39725,"is_reserved":false,"is_disabled":false,"rental_uris":{"android":"levelo://app?vid=1e9f2167-5db4-498f-a1d0-2af35f9c5737","ios":"levelo://app?vid=1e9f2167-5db4-498f-a1d0-2af35f9c5737"},"vehicle_type_id":"4","last_reported":1726657680,"current_range_meters":13600,"station_id":"ce4bhn12rcd13ifvqgpg","pricing_plan_id":"cebpf4jnsgd1na2vs0mg"},{"bike_id":"60e32ceb-eec4-4679-b9c3-2bcfc8e6275f","system_id":"levelo_inurba_marseille","lat":43.29568,"lon":5.3997,"is_reserved":false,"is_disabled":false,"rental_uris":{"android":"levelo://app?vid=60e32ceb-eec4-4679-b9c3-2bcfc8e6275f","ios":"levelo://app?vid=60e32ceb-eec4-4679-b9c3-2bcfc8e6275f"},"vehicle_type_id":"4","last_reported":1726657680,"current_range_meters":27200,"station_id":"ce4bh312rcd13ifvqdj0","pricing_plan_id":"cebpf4jnsgd1na2vs0mg"},{"bike_id":"997cb8ff-7e70-44b8-8b10-0781e0343a19","system_id":"levelo_inurba_marseille","lat":43.29002,"lon":5.35615,"is_reserved":false,"is_disabled":false,"rental_uris":{"android":"levelo://app?vid=997cb8ff-7e70-44b8-8b10-0781e0343a19","ios":"levelo://app?vid=997cb8ff-7e70-44b8-8b10-0781e0343a19"},"vehicle_type_id":"4","last_reported":1726657680,"current_range_meters":39200,"station_id":"ce4bhb92rcd13ifvqen0","pricing_plan_id":"cebpf4jnsgd1na2vs0mg"},{"bike_id":"c2667222-5d26-4d9c-a938-761c480fe584","system_id":"levelo_inurba_marseille","lat":43.33026,"lon":5.39036,"is_reserved":false,"is_disabled":false,"rental_uris":{"android":"levelo://app?vid=c2667222-5d26-4d9c-a938-761c480fe584","ios":"levelo://app?vid=c2667222-5d26-4d9c-a938-761c480fe584"},"vehicle_type_id":"4","last_reported":1726657680,"current_range_meters":10800,"station_id":"ce4bhr92rcd13ifvqhrg","pricing_plan_id":"cebpf4jnsgd1na2vs0mg"},{"bike_id":"d2648441-8611-4e86-b6a3-95e5dd6d09df","system_id":"levelo_inurba_marseille","lat":43.24648,"lon":5.38892,"is_reserved":false,"is_disabled":false,"rental_uris":{"android":"levelo://app?vid=d2648441-8611-4e86-b6a3-95e5dd6d09df","ios":"levelo://app?vid=d2648441-8611-4e86-b6a3-95e5dd6d09df"},"vehicle_type_id":"4","last_reported":1726657680,"current_range_meters":38800,"station_id":"ce4bhg12rcd13ifvqf60","pricing_plan_id":"cebpf4jnsgd1na2vs0mg"},{"bike_id":"442c5059-0433-4ca9-94c3-1cf6dbafc57d","system_id":"levelo_inurba_marseille","lat":43.30147,"lon":5.38084,"is_reserved":false,"is_disabled":false,"rental_uris":{"android":"levelo://app?vid=442c5059-0433-4ca9-94c3-1cf6dbafc57d","ios":"levelo://app?vid=442c5059-0433-4ca9-94c3-1cf6dbafc57d"},"vehicle_type_id":"4","last_reported":1726657680,"current_range_meters":32800,"station_id":"ce4bgjp2rcd13ifvqbh0","pricing_plan_id":"cebpf4jnsgd1na2vs0mg"},{"bike_id":"ec3f636a-f5ea-4ad3-b5fb-a36413f34fbf","system_id":"levelo_inurba_marseille","lat":43.27486,"lon":5.42455,"is_reserved":false,"is_disabled":false,"rental_uris":{"android":"levelo://app?vid=ec3f636a-f5ea-4ad3-b5fb-a36413f34fbf","ios":"levelo://app?vid=ec3f636a-f5ea-4ad3-b5fb-a36413f34fbf"},"vehicle_type_id":"4","last_reported":1726657680,"current_range_meters":15200,"station_id":"ce4bhn92rcd13ifvqgrg","pricing_plan_id":"cebpf4jnsgd1na2vs0mg"},{"bike_id":"091c6bdc-542c-4ec3-a185-7db76c8de25a","system_id":"levelo_inurba_marseille","lat":43.23177,"lon":5.39988,"is_reserved":false,"is_disabled":false,"rental_uris":{"android":"levelo://app?vid=091c6bdc-542c-4ec3-a185-7db76c8de25a","ios":"levelo://app?vid=091c6bdc-542c-4ec3-a185-7db76c8de25a"},"vehicle_type_id":"4","last_reported":1726657680,"current_range_meters":23200,"station_id":"ce4bhn12rcd13ifvqgqg","pricing_plan_id":"cebpf4jnsgd1na2vs0mg"},{"bike_id":"74cf48ce-0c7c-49e2-81d6-547ab0656005","system_id":"levelo_inurba_marseille","lat":43.23144,"lon":5.43712,"is_reserved":false,"is_disabled":false,"rental_uris":{"android":"levelo://app?vid=74cf48ce-0c7c-49e2-81d6-547ab0656005","ios":"levelo://app?vid=74cf48ce-0c7c-49e2-81d6-547ab0656005"},"vehicle_type_id":"4","last_reported":1726657680,"current_range_meters":38800,"station_id":"ce4bhmp2rcd13ifvqgog","pricing_plan_id":"cebpf4jnsgd1na2vs0mg"},{"bike_id":"bacf1473-d122-4286-aebc-e8f2b33bf5ad","system_id":"levelo_inurba_marseille","lat":43.23152,"lon":5.4372,"is_reserved":false,"is_disabled":false,"rental_uris":{"android":"levelo://app?vid=bacf1473-d122-4286-aebc-e8f2b33bf5ad","ios":"levelo://app?vid=bacf1473-d122-4286-aebc-e8f2b33bf5ad"},"vehicle_type_id":"4","last_reported":1726657680,"current_range_meters":38800,"station_id":"ce4bhmp2rcd13ifvqgog","pricing_plan_id":"cebpf4jnsgd1na2vs0mg"},{"bike_id":"9f9ad0f3-8f82-4e24-8bd8-9c44ce8683e4","system_id":"levelo_inurba_marseille","lat":43.28157,"lon":5.42642,"is_reserved":false,"is_disabled":false,"rental_uris":{"android":"levelo://app?vid=9f9ad0f3-8f82-4e24-8bd8-9c44ce8683e4","ios":"levelo://app?vid=9f9ad0f3-8f82-4e24-8bd8-9c44ce8683e4"},"vehicle_type_id":"4","last_reported":1726657680,"current_range_meters":8000,"station_id":"ce4bhnh2rcd13ifvqgug","pricing_plan_id":"cebpf4jnsgd1na2vs0mg"},{"bike_id":"7086c075-ab8f-4712-95b9-999333ec8e1a","system_id":"levelo_inurba_marseille","lat":43.29566,"lon":5.39986,"is_reserved":false,"is_disabled":false,"rental_uris":{"android":"levelo://app?vid=7086c075-ab8f-4712-95b9-999333ec8e1a","ios":"levelo://app?vid=7086c075-ab8f-4712-95b9-999333ec8e1a"},"vehicle_type_id":"4","last_reported":1726657680,"current_range_meters":33200,"station_id":"ce4bh312rcd13ifvqdj0","pricing_plan_id":"cebpf4jnsgd1na2vs0mg"},{"bike_id":"85accb8b-04bf-4b10-bd64-d66dfa393f45","system_id":"levelo_inurba_marseille","lat":43.26556,"lon":5.37284,"is_reserved":false,"is_disabled":false,"rental_uris":{"android":"levelo://app?vid=85accb8b-04bf-4b10-bd64-d66dfa393f45","ios":"levelo://app?vid=85accb8b-04bf-4b10-bd64-d66dfa393f45"},"vehicle_type_id":"4","last_reported":1726657680,"current_range_meters":20800,"station_id":"ce4bhg12rcd13ifvqf70","pricing_plan_id":"cebpf4jnsgd1na2vs0mg"},{"bike_id":"10e0d5af-9ba8-4a95-a726-6c3616dc01f0","system_id":"levelo_inurba_marseille","lat":43.29531,"lon":5.38557,"is_reserved":false,"is_disabled":false,"rental_uris":{"android":"levelo://app?vid=10e0d5af-9ba8-4a95-a726-6c3616dc01f0","ios":"levelo://app?vid=10e0d5af-9ba8-4a95-a726-6c3616dc01f0"},"vehicle_type_id":"4","last_reported":1726657680,"current_range_meters":20000,"station_id":"ce4bgih2rcd13ifvqba0","pricing_plan_id":"cebpf4jnsgd1na2vs0mg"},{"bike_id":"808c7029-a1ec-41e4-8bf2-805809b0bfc7","system_id":"levelo_inurba_marseille","lat":43.29579,"lon":5.36734,"is_reserved":false,"is_disabled":false,"rental_uris":{"android":"levelo://app?vid=808c7029-a1ec-41e4-8bf2-805809b0bfc7","ios":"levelo://app?vid=808c7029-a1ec-41e4-8bf2-805809b0bfc7"},"vehicle_type_id":"4","last_reported":1726657680,"current_range_meters":38800,"station_id":"ce4bgph2rcd13ifvqc2g","pricing_plan_id":"cebpf4jnsgd1na2vs0mg"},{"bike_id":"66127129-8160-4ecf-b52d-2134894b1647","system_id":"levelo_inurba_marseille","lat":43.2861,"lon":5.37058,"is_reserved":false,"is_disabled":false,"rental_uris":{"android":"levelo://app?vid=66127129-8160-4ecf-b52d-2134894b1647","ios":"levelo://app?vid=66127129-8160-4ecf-b52d-2134894b1647"},"vehicle_type_id":"4","last_reported":1726657680,"current_range_meters":38800,"station_id":"ce4bht12rcd13ifvqi60","pricing_plan_id":"cebpf4jnsgd1na2vs0mg"},{"bike_id":"058c3d34-ab9b-4f85-94c1-47b01487dcc2","system_id":"levelo_inurba_marseille","lat":43.28271,"lon":5.35072,"is_reserved":false,"is_disabled":false,"rental_uris":{"android":"levelo://app?vid=058c3d34-ab9b-4f85-94c1-47b01487dcc2","ios":"levelo://app?vid=058c3d34-ab9b-4f85-94c1-47b01487dcc2"},"vehicle_type_id":"4","last_reported":1726657680,"current_range_meters":36800,"station_id":"ce4bhbp2rcd13ifvqerg","pricing_plan_id":"cebpf4jnsgd1na2vs0mg"},{"bike_id":"fdb051bf-c572-4634-83cc-25e15979625f","system_id":"levelo_inurba_marseille","lat":43.31756,"lon":5.39016,"is_reserved":false,"is_disabled":false,"rental_uris":{"android":"levelo://app?vid=fdb051bf-c572-4634-83cc-25e15979625f","ios":"levelo://app?vid=fdb051bf-c572-4634-83cc-25e15979625f"},"vehicle_type_id":"4","last_reported":1726657680,"current_range_meters":26800,"station_id":"ce4bhqp2rcd13ifvqhng","pricing_plan_id":"cebpf4jnsgd1na2vs0mg"},{"bike_id":"55b5a4cc-060d-4660-b59a-73a2200a56fb","system_id":"levelo_inurba_marseille","lat":43.2315,"lon":5.43722,"is_reserved":false,"is_disabled":false,"rental_uris":{"android":"levelo://app?vid=55b5a4cc-060d-4660-b59a-73a2200a56fb","ios":"levelo://app?vid=55b5a4cc-060d-4660-b59a-73a2200a56fb"},"vehicle_type_id":"4","last_reported":1726657680,"current_range_meters":17200,"station_id":"ce4bhmp2rcd13ifvqgog","pricing_plan_id":"cebpf4jnsgd1na2vs0mg"},{"bike_id":"8ea6a708-68b1-4611-bdb7-f70a6168e26e","system_id":"levelo_inurba_marseille","lat":43.30312,"lon":5.36898,"is_reserved":false,"is_disabled":false,"rental_uris":{"android":"levelo://app?vid=8ea6a708-68b1-4611-bdb7-f70a6168e26e","ios":"levelo://app?vid=8ea6a708-68b1-4611-bdb7-f70a6168e26e"},"vehicle_type_id":"4","last_reported":1726657680,"current_range_meters":30000,"station_id":"ce4bgqh2rcd13ifvqc5g","pricing_plan_id":"cebpf4jnsgd1na2vs0mg"},{"bike_id":"ab044b38-6003-47cc-9f77-335e3c5699ed","system_id":"levelo_inurba_marseille","lat":43.30876,"lon":5.3966,"is_reserved":false,"is_disabled":false,"rental_uris":{"android":"levelo://app?vid=ab044b38-6003-47cc-9f77-335e3c5699ed","ios":"levelo://app?vid=ab044b38-6003-47cc-9f77-335e3c5699ed"},"vehicle_type_id":"4","last_reported":1726657680,"current_range_meters":32800,"station_id":"ce4bh012rcd13ifvqcv0","pricing_plan_id":"cebpf4jnsgd1na2vs0mg"},{"bike_id":"96b10d13-c573-4cce-bcb6-59d70c181553","system_id":"levelo_inurba_marseille","lat":43.33023,"lon":5.39029,"is_reserved":false,"is_disabled":false,"rental_uris":{"android":"levelo://app?vid=96b10d13-c573-4cce-bcb6-59d70c181553","ios":"levelo://app?vid=96b10d13-c573-4cce-bcb6-59d70c181553"},"vehicle_type_id":"4","last_reported":1726657680,"current_range_meters":6800,"station_id":"ce4bhqh2rcd13ifvqhlg","pricing_plan_id":"cebpf4jnsgd1na2vs0mg"},{"bike_id":"6174866c-ce2b-4eb7-b3ef-6848a5829e61","system_id":"levelo_inurba_marseille","lat":43.310638,"lon":5.383442,"is_reserved":false,"is_disabled":false,"rental_uris":{"android":"levelo://app?vid=6174866c-ce2b-4eb7-b3ef-6848a5829e61","ios":"levelo://app?vid=6174866c-ce2b-4eb7-b3ef-6848a5829e61"},"vehicle_type_id":"4","last_reported":1726657680,"current_range_meters":16000,"station_id":"ce4bh2h2rcd13ifvqdh0","pricing_plan_id":"cebpf4jnsgd1na2vs0mg"},{"bike_id":"c7f93bf2-2b30-4c5c-aa72-447b3f4a28ea","system_id":"levelo_inurba_marseille","lat":43.29895,"lon":5.4366,"is_reserved":false,"is_disabled":false,"rental_uris":{"android":"levelo://app?vid=c7f93bf2-2b30-4c5c-aa72-447b3f4a28ea","ios":"levelo://app?vid=c7f93bf2-2b30-4c5c-aa72-447b3f4a28ea"},"vehicle_type_id":"4","last_reported":1726657680,"current_range_meters":4000,"station_id":"ce4bhpp2rcd13ifvqhfg","pricing_plan_id":"cebpf4jnsgd1na2vs0mg"},{"bike_id":"14f021dd-819a-4b56-8320-959e7607ac2f","system_id":"levelo_inurba_marseille","lat":43.2481,"lon":5.37461,"is_reserved":false,"is_disabled":false,"rental_uris":{"android":"levelo://app?vid=14f021dd-819a-4b56-8320-959e7607ac2f","ios":"levelo://app?vid=14f021dd-819a-4b56-8320-959e7607ac2f"},"vehicle_type_id":"4","last_reported":1726657680,"current_range_meters":32000,"station_id":"ce4bhgh2rcd13ifvqfb0","pricing_plan_id":"cebpf4jnsgd1na2vs0mg"},{"bike_id":"ed69e130-7cee-4db1-9e10-0d56961305c9","system_id":"levelo_inurba_marseille","lat":43.24169,"lon":5.36399,"is_reserved":false,"is_disabled":false,"rental_uris":{"android":"levelo://app?vid=ed69e130-7cee-4db1-9e10-0d56961305c9","ios":"levelo://app?vid=ed69e130-7cee-4db1-9e10-0d56961305c9"},"vehicle_type_id":"4","last_reported":1726657680,"current_range_meters":26800,"station_id":"cpo36qri1sfpv3e86is0","pricing_plan_id":"cebpf4jnsgd1na2vs0mg"},{"bike_id":"2bb48789-118c-4b3e-af87-e5309a46960f","system_id":"levelo_inurba_marseille","lat":43.28146,"lon":5.42644,"is_reserved":false,"is_disabled":false,"rental_uris":{"android":"levelo://app?vid=2bb48789-118c-4b3e-af87-e5309a46960f","ios":"levelo://app?vid=2bb48789-118c-4b3e-af87-e5309a46960f"},"vehicle_type_id":"4","last_reported":1726657680,"current_range_meters":3600,"station_id":"ce4bhnh2rcd13ifvqgug","pricing_plan_id":"cebpf4jnsgd1na2vs0mg"},{"bike_id":"151c15d6-86a7-465d-a033-823dffec8143","system_id":"levelo_inurba_marseille","lat":43.26689,"lon":5.38275,"is_reserved":false,"is_disabled":false,"rental_uris":{"android":"levelo://app?vid=151c15d6-86a7-465d-a033-823dffec8143","ios":"levelo://app?vid=151c15d6-86a7-465d-a033-823dffec8143"},"vehicle_type_id":"4","last_reported":1726657680,"current_range_meters":6800,"station_id":"ce4bhg92rcd13ifvqf90","pricing_plan_id":"cebpf4jnsgd1na2vs0mg"},{"bike_id":"d33d16c9-f2bf-41b4-b3dc-22b0407c2359","system_id":"levelo_inurba_marseille","lat":43.27485,"lon":5.42455,"is_reserved":false,"is_disabled":false,"rental_uris":{"android":"levelo://app?vid=d33d16c9-f2bf-41b4-b3dc-22b0407c2359","ios":"levelo://app?vid=d33d16c9-f2bf-41b4-b3dc-22b0407c2359"},"vehicle_type_id":"4","last_reported":1726657680,"current_range_meters":25200,"station_id":"ce4bhn92rcd13ifvqgrg","pricing_plan_id":"cebpf4jnsgd1na2vs0mg"},{"bike_id":"97cbea3b-ab97-498e-a8fc-2789e3b785c9","system_id":"levelo_inurba_marseille","lat":43.31729,"lon":5.42396,"is_reserved":false,"is_disabled":false,"rental_uris":{"android":"levelo://app?vid=97cbea3b-ab97-498e-a8fc-2789e3b785c9","ios":"levelo://app?vid=97cbea3b-ab97-498e-a8fc-2789e3b785c9"},"vehicle_type_id":"4","last_reported":1726657680,"current_range_meters":27600,"station_id":"ce4bhp92rcd13ifvqhbg","pricing_plan_id":"cebpf4jnsgd1na2vs0mg"},{"bike_id":"1b5a3615-4988-4982-8b62-9226ed5a66a6","system_id":"levelo_inurba_marseille","lat":43.31351,"lon":5.38311,"is_reserved":false,"is_disabled":false,"rental_uris":{"android":"levelo://app?vid=1b5a3615-4988-4982-8b62-9226ed5a66a6","ios":"levelo://app?vid=1b5a3615-4988-4982-8b62-9226ed5a66a6"},"vehicle_type_id":"4","last_reported":1726657680,"current_range_meters":3200,"station_id":"","pricing_plan_id":"cebpf4jnsgd1na2vs0mg"},{"bike_id":"80d1eb54-6334-4c2f-a160-7e4b5cb79537","system_id":"levelo_inurba_marseille","lat":43.29961,"lon":5.41335,"is_reserved":false,"is_disabled":false,"rental_uris":{"android":"levelo://app?vid=80d1eb54-6334-4c2f-a160-7e4b5cb79537","ios":"levelo://app?vid=80d1eb54-6334-4c2f-a160-7e4b5cb79537"},"vehicle_type_id":"4","last_reported":1726657680,"current_range_meters":35600,"station_id":"ce4bhp12rcd13ifvqh9g","pricing_plan_id":"cebpf4jnsgd1na2vs0mg"},{"bike_id":"722c2a20-cb8a-4722-9405-1b95fa93805d","system_id":"levelo_inurba_marseille","lat":43.31325,"lon":5.39693,"is_reserved":false,"is_disabled":false,"rental_uris":{"android":"levelo://app?vid=722c2a20-cb8a-4722-9405-1b95fa93805d","ios":"levelo://app?vid=722c2a20-cb8a-4722-9405-1b95fa93805d"},"vehicle_type_id":"4","last_reported":1726657680,"current_range_meters":28400,"station_id":"ce4bgvp2rcd13ifvqcu0","pricing_plan_id":"cebpf4jnsgd1na2vs0mg"},{"bike_id":"abff59b7-3c0a-4a94-91ca-8a0e048bd3d0","system_id":"levelo_inurba_marseille","lat":43.27427,"lon":5.39414,"is_reserved":false,"is_disabled":false,"rental_uris":{"android":"levelo://app?vid=abff59b7-3c0a-4a94-91ca-8a0e048bd3d0","ios":"levelo://app?vid=abff59b7-3c0a-4a94-91ca-8a0e048bd3d0"},"vehicle_type_id":"4","last_reported":1726657680,"current_range_meters":5600,"station_id":"ce4bh0h2rcd13ifvqd40","pricing_plan_id":"cebpf4jnsgd1na2vs0mg"},{"bike_id":"64de88cf-d117-4ffb-a8d7-2bf53095d59c","system_id":"levelo_inurba_marseille","lat":43.309265,"lon":5.401336,"is_reserved":false,"is_disabled":false,"rental_uris":{"android":"levelo://app?vid=64de88cf-d117-4ffb-a8d7-2bf53095d59c","ios":"levelo://app?vid=64de88cf-d117-4ffb-a8d7-2bf53095d59c"},"vehicle_type_id":"4","last_reported":1726657680,"current_range_meters":30800,"station_id":"ce4bgvp2rcd13ifvqct0","pricing_plan_id":"cebpf4jnsgd1na2vs0mg"},{"bike_id":"b88d8bac-711e-49d2-9eee-8f0f2fcec434","system_id":"levelo_inurba_marseille","lat":43.33024,"lon":5.39046,"is_reserved":false,"is_disabled":false,"rental_uris":{"android":"levelo://app?vid=b88d8bac-711e-49d2-9eee-8f0f2fcec434","ios":"levelo://app?vid=b88d8bac-711e-49d2-9eee-8f0f2fcec434"},"vehicle_type_id":"4","last_reported":1726657680,"current_range_meters":25600,"station_id":"ce4bhr92rcd13ifvqhrg","pricing_plan_id":"cebpf4jnsgd1na2vs0mg"},{"bike_id":"51c8f926-dd42-4188-8ae9-9d5cbb2f7e71","system_id":"levelo_inurba_marseille","lat":43.24179,"lon":5.39728,"is_reserved":false,"is_disabled":false,"rental_uris":{"android":"levelo://app?vid=51c8f926-dd42-4188-8ae9-9d5cbb2f7e71","ios":"levelo://app?vid=51c8f926-dd42-4188-8ae9-9d5cbb2f7e71"},"vehicle_type_id":"4","last_reported":1726657680,"current_range_meters":19600,"station_id":"ce4bhn12rcd13ifvqgpg","pricing_plan_id":"cebpf4jnsgd1na2vs0mg"},{"bike_id":"d29f50cf-a565-48b9-b502-f74324cfe4c0","system_id":"levelo_inurba_marseille","lat":43.24539,"lon":5.3952,"is_reserved":false,"is_disabled":false,"rental_uris":{"android":"levelo://app?vid=d29f50cf-a565-48b9-b502-f74324cfe4c0","ios":"levelo://app?vid=d29f50cf-a565-48b9-b502-f74324cfe4c0"},"vehicle_type_id":"4","last_reported":1726657680,"current_range_meters":28800,"station_id":"ce4bhlp2rcd13ifvqgjg","pricing_plan_id":"cebpf4jnsgd1na2vs0mg"},{"bike_id":"2e2254f6-d3ed-4277-af5f-ee204e464f40","system_id":"levelo_inurba_marseille","lat":43.29949,"lon":5.41318,"is_reserved":false,"is_disabled":false,"rental_uris":{"android":"levelo://app?vid=2e2254f6-d3ed-4277-af5f-ee204e464f40","ios":"levelo://app?vid=2e2254f6-d3ed-4277-af5f-ee204e464f40"},"vehicle_type_id":"4","last_reported":1726657680,"current_range_meters":35600,"station_id":"ce4bhp12rcd13ifvqh9g","pricing_plan_id":"cebpf4jnsgd1na2vs0mg"},{"bike_id":"8fb87ab6-aead-4858-bee6-adab0057accf","system_id":"levelo_inurba_marseille","lat":43.30788,"lon":5.38786,"is_reserved":false,"is_disabled":false,"rental_uris":{"android":"levelo://app?vid=8fb87ab6-aead-4858-bee6-adab0057accf","ios":"levelo://app?vid=8fb87ab6-aead-4858-bee6-adab0057accf"},"vehicle_type_id":"4","last_reported":1726657680,"current_range_meters":19600,"station_id":"","pricing_plan_id":"cebpf4jnsgd1na2vs0mg"},{"bike_id":"fec5e1d4-a494-4b7c-a879-ec895a3d4d47","system_id":"levelo_inurba_marseille","lat":43.29899,"lon":5.4367,"is_reserved":false,"is_disabled":false,"rental_uris":{"android":"levelo://app?vid=fec5e1d4-a494-4b7c-a879-ec895a3d4d47","ios":"levelo://app?vid=fec5e1d4-a494-4b7c-a879-ec895a3d4d47"},"vehicle_type_id":"4","last_reported":1726657680,"current_range_meters":10000,"station_id":"ce4bhpp2rcd13ifvqhfg","pricing_plan_id":"cebpf4jnsgd1na2vs0mg"},{"bike_id":"f2cc5877-7adb-4f4a-9f11-20ee9f72e78a","system_id":"levelo_inurba_marseille","lat":43.26945,"lon":5.38627,"is_reserved":false,"is_disabled":false,"rental_uris":{"android":"levelo://app?vid=f2cc5877-7adb-4f4a-9f11-20ee9f72e78a","ios":"levelo://app?vid=f2cc5877-7adb-4f4a-9f11-20ee9f72e78a"},"vehicle_type_id":"4","last_reported":1726657680,"current_range_meters":12400,"station_id":"ce4bhh92rcd13ifvqfh0","pricing_plan_id":"cebpf4jnsgd1na2vs0mg"},{"bike_id":"8cb592d9-f82f-4171-894f-8d7ffa6525e5","system_id":"levelo_inurba_marseille","lat":43.23187,"lon":5.35547,"is_reserved":false,"is_disabled":false,"rental_uris":{"android":"levelo://app?vid=8cb592d9-f82f-4171-894f-8d7ffa6525e5","ios":"levelo://app?vid=8cb592d9-f82f-4171-894f-8d7ffa6525e5"},"vehicle_type_id":"4","last_reported":1726657680,"current_range_meters":14000,"station_id":"ce4bhu92rcd13ifvqi70","pricing_plan_id":"cebpf4jnsgd1na2vs0mg"},{"bike_id":"79cad5b6-9cb0-4262-b39c-374cdf1c25d1","system_id":"levelo_inurba_marseille","lat":43.32476,"lon":5.36561,"is_reserved":false,"is_disabled":false,"rental_uris":{"android":"levelo://app?vid=79cad5b6-9cb0-4262-b39c-374cdf1c25d1","ios":"levelo://app?vid=79cad5b6-9cb0-4262-b39c-374cdf1c25d1"},"vehicle_type_id":"4","last_reported":1726657680,"current_range_meters":38400,"station_id":"ce4bhs12rcd13ifvqhvg","pricing_plan_id":"cebpf4jnsgd1na2vs0mg"},{"bike_id":"1ef54e89-bf22-4a4a-bb5f-5856ab9b3fab","system_id":"levelo_inurba_marseille","lat":43.27909,"lon":5.380022,"is_reserved":false,"is_disabled":false,"rental_uris":{"android":"levelo://app?vid=1ef54e89-bf22-4a4a-bb5f-5856ab9b3fab","ios":"levelo://app?vid=1ef54e89-bf22-4a4a-bb5f-5856ab9b3fab"},"vehicle_type_id":"4","last_reported":1726657680,"current_range_meters":34000,"station_id":"ce4bhf92rcd13ifvqf50","pricing_plan_id":"cebpf4jnsgd1na2vs0mg"},{"bike_id":"4a6bb776-5dfb-4022-9b6e-45efb714ecbb","system_id":"levelo_inurba_marseille","lat":43.31242,"lon":5.36861,"is_reserved":false,"is_disabled":false,"rental_uris":{"android":"levelo://app?vid=4a6bb776-5dfb-4022-9b6e-45efb714ecbb","ios":"levelo://app?vid=4a6bb776-5dfb-4022-9b6e-45efb714ecbb"},"vehicle_type_id":"4","last_reported":1726657680,"current_range_meters":19600,"station_id":"ce4bgl92rcd13ifvqbq0","pricing_plan_id":"cebpf4jnsgd1na2vs0mg"},{"bike_id":"ec19d05c-6e22-4e00-bfc3-44a703ed85d5","system_id":"levelo_inurba_marseille","lat":43.31313,"lon":5.39689,"is_reserved":false,"is_disabled":false,"rental_uris":{"android":"levelo://app?vid=ec19d05c-6e22-4e00-bfc3-44a703ed85d5","ios":"levelo://app?vid=ec19d05c-6e22-4e00-bfc3-44a703ed85d5"},"vehicle_type_id":"4","last_reported":1726657680,"current_range_meters":30000,"station_id":"ce4bgvp2rcd13ifvqcu0","pricing_plan_id":"cebpf4jnsgd1na2vs0mg"},{"bike_id":"c3bcca86-6294-4639-9d07-9722d40f464e","system_id":"levelo_inurba_marseille","lat":43.29899,"lon":5.43669,"is_reserved":false,"is_disabled":false,"rental_uris":{"android":"levelo://app?vid=c3bcca86-6294-4639-9d07-9722d40f464e","ios":"levelo://app?vid=c3bcca86-6294-4639-9d07-9722d40f464e"},"vehicle_type_id":"4","last_reported":1726657680,"current_range_meters":24000,"station_id":"ce4bhpp2rcd13ifvqhfg","pricing_plan_id":"cebpf4jnsgd1na2vs0mg"},{"bike_id":"d940b2f9-44a3-4d29-8279-ead81d1c4887","system_id":"levelo_inurba_marseille","lat":43.27967,"lon":5.38709,"is_reserved":false,"is_disabled":false,"rental_uris":{"android":"levelo://app?vid=d940b2f9-44a3-4d29-8279-ead81d1c4887","ios":"levelo://app?vid=d940b2f9-44a3-4d29-8279-ead81d1c4887"},"vehicle_type_id":"4","last_reported":1726657680,"current_range_meters":20400,"station_id":"ce4bhg12rcd13ifvqf80","pricing_plan_id":"cebpf4jnsgd1na2vs0mg"},{"bike_id":"fa77e604-95b4-476d-a30f-499c3aaf710d","system_id":"levelo_inurba_marseille","lat":43.33718,"lon":5.39174,"is_reserved":false,"is_disabled":false,"rental_uris":{"android":"levelo://app?vid=fa77e604-95b4-476d-a30f-499c3aaf710d","ios":"levelo://app?vid=fa77e604-95b4-476d-a30f-499c3aaf710d"},"vehicle_type_id":"4","last_reported":1726657680,"current_range_meters":17600,"station_id":"ce4bhr92rcd13ifvqhsg","pricing_plan_id":"cebpf4jnsgd1na2vs0mg"},{"bike_id":"663bd0a6-3332-4c7b-a296-b7b2af411e2d","system_id":"levelo_inurba_marseille","lat":43.34142,"lon":5.40908,"is_reserved":false,"is_disabled":false,"rental_uris":{"android":"levelo://app?vid=663bd0a6-3332-4c7b-a296-b7b2af411e2d","ios":"levelo://app?vid=663bd0a6-3332-4c7b-a296-b7b2af411e2d"},"vehicle_type_id":"4","last_reported":1726657680,"current_range_meters":25600,"station_id":"ce4bhqh2rcd13ifvqhlg","pricing_plan_id":"cebpf4jnsgd1na2vs0mg"},{"bike_id":"32a92804-3d11-4cfc-ab0f-97030bbe2d9d","system_id":"levelo_inurba_marseille","lat":43.2511,"lon":5.40323,"is_reserved":false,"is_disabled":false,"rental_uris":{"android":"levelo://app?vid=32a92804-3d11-4cfc-ab0f-97030bbe2d9d","ios":"levelo://app?vid=32a92804-3d11-4cfc-ab0f-97030bbe2d9d"},"vehicle_type_id":"4","last_reported":1726657680,"current_range_meters":36000,"station_id":"ce4bhlh2rcd13ifvqgig","pricing_plan_id":"cebpf4jnsgd1na2vs0mg"},{"bike_id":"5304ed70-fad3-470c-b0c3-63f08a2a0a36","system_id":"levelo_inurba_marseille","lat":43.31322,"lon":5.39693,"is_reserved":false,"is_disabled":false,"rental_uris":{"android":"levelo://app?vid=5304ed70-fad3-470c-b0c3-63f08a2a0a36","ios":"levelo://app?vid=5304ed70-fad3-470c-b0c3-63f08a2a0a36"},"vehicle_type_id":"4","last_reported":1726657680,"current_range_meters":19600,"station_id":"ce4bgvp2rcd13ifvqcu0","pricing_plan_id":"cebpf4jnsgd1na2vs0mg"},{"bike_id":"00e75aa4-679c-42d6-be48-906ec2eca445","system_id":"levelo_inurba_marseille","lat":43.30537,"lon":5.36538,"is_reserved":false,"is_disabled":false,"rental_uris":{"android":"levelo://app?vid=00e75aa4-679c-42d6-be48-906ec2eca445","ios":"levelo://app?vid=00e75aa4-679c-42d6-be48-906ec2eca445"},"vehicle_type_id":"4","last_reported":1726657680,"current_range_meters":32400,"station_id":"ce4bgs12rcd13ifvqcag","pricing_plan_id":"cebpf4jnsgd1na2vs0mg"},{"bike_id":"b5cc06aa-fd0a-4f16-9512-cc0ee529c93f","system_id":"levelo_inurba_marseille","lat":43.23145,"lon":5.43714,"is_reserved":false,"is_disabled":false,"rental_uris":{"android":"levelo://app?vid=b5cc06aa-fd0a-4f16-9512-cc0ee529c93f","ios":"levelo://app?vid=b5cc06aa-fd0a-4f16-9512-cc0ee529c93f"},"vehicle_type_id":"4","last_reported":1726657680,"current_range_meters":25200,"station_id":"ce4bhmp2rcd13ifvqgog","pricing_plan_id":"cebpf4jnsgd1na2vs0mg"},{"bike_id":"b1db6496-7d7b-4acc-a88c-e5406d38e100","system_id":"levelo_inurba_marseille","lat":43.23191,"lon":5.35548,"is_reserved":false,"is_disabled":false,"rental_uris":{"android":"levelo://app?vid=b1db6496-7d7b-4acc-a88c-e5406d38e100","ios":"levelo://app?vid=b1db6496-7d7b-4acc-a88c-e5406d38e100"},"vehicle_type_id":"4","last_reported":1726657680,"current_range_meters":22800,"station_id":"ce4bhu92rcd13ifvqi70","pricing_plan_id":"cebpf4jnsgd1na2vs0mg"},{"bike_id":"114229ed-7b50-4ac0-9fe6-068c1288e4e5","system_id":"levelo_inurba_marseille","lat":43.24164,"lon":5.36398,"is_reserved":false,"is_disabled":false,"rental_uris":{"android":"levelo://app?vid=114229ed-7b50-4ac0-9fe6-068c1288e4e5","ios":"levelo://app?vid=114229ed-7b50-4ac0-9fe6-068c1288e4e5"},"vehicle_type_id":"4","last_reported":1726657680,"current_range_meters":26000,"station_id":"cpo36qri1sfpv3e86is0","pricing_plan_id":"cebpf4jnsgd1na2vs0mg"},{"bike_id":"14e9527e-f89e-4f54-89ab-2a7154c3c673","system_id":"levelo_inurba_marseille","lat":43.26202,"lon":5.3792,"is_reserved":false,"is_disabled":false,"rental_uris":{"android":"levelo://app?vid=14e9527e-f89e-4f54-89ab-2a7154c3c673","ios":"levelo://app?vid=14e9527e-f89e-4f54-89ab-2a7154c3c673"},"vehicle_type_id":"4","last_reported":1726657680,"current_range_meters":36400,"station_id":"ce4bhjp2rcd13ifvqg90","pricing_plan_id":"cebpf4jnsgd1na2vs0mg"},{"bike_id":"d0d8fbfa-4de4-42a7-9832-5e25d5f2fdfb","system_id":"levelo_inurba_marseille","lat":43.30534,"lon":5.3654,"is_reserved":false,"is_disabled":false,"rental_uris":{"android":"levelo://app?vid=d0d8fbfa-4de4-42a7-9832-5e25d5f2fdfb","ios":"levelo://app?vid=d0d8fbfa-4de4-42a7-9832-5e25d5f2fdfb"},"vehicle_type_id":"4","last_reported":1726657680,"current_range_meters":36400,"station_id":"ce4bgs12rcd13ifvqcag","pricing_plan_id":"cebpf4jnsgd1na2vs0mg"},{"bike_id":"7a1aefa5-3f47-4fb6-b298-3120a02f47d7","system_id":"levelo_inurba_marseille","lat":43.32471,"lon":5.36561,"is_reserved":false,"is_disabled":false,"rental_uris":{"android":"levelo://app?vid=7a1aefa5-3f47-4fb6-b298-3120a02f47d7","ios":"levelo://app?vid=7a1aefa5-3f47-4fb6-b298-3120a02f47d7"},"vehicle_type_id":"4","last_reported":1726657680,"current_range_meters":36400,"station_id":"ce4bhs12rcd13ifvqhvg","pricing_plan_id":"cebpf4jnsgd1na2vs0mg"},{"bike_id":"2f47e5ba-7d67-4fc0-8849-17b1094e135f","system_id":"levelo_inurba_marseille","lat":43.29226,"lon":5.3607,"is_reserved":false,"is_disabled":false,"rental_uris":{"android":"levelo://app?vid=2f47e5ba-7d67-4fc0-8849-17b1094e135f","ios":"levelo://app?vid=2f47e5ba-7d67-4fc0-8849-17b1094e135f"},"vehicle_type_id":"4","last_reported":1726657680,"current_range_meters":20800,"station_id":"ce4bhbh2rcd13ifvqeqg","pricing_plan_id":"cebpf4jnsgd1na2vs0mg"},{"bike_id":"3fcaec07-152a-4cdb-bc8f-7888623c0646","system_id":"levelo_inurba_marseille","lat":43.23959,"lon":5.36627,"is_reserved":false,"is_disabled":false,"rental_uris":{"android":"levelo://app?vid=3fcaec07-152a-4cdb-bc8f-7888623c0646","ios":"levelo://app?vid=3fcaec07-152a-4cdb-bc8f-7888623c0646"},"vehicle_type_id":"4","last_reported":1726657680,"current_range_meters":25600,"station_id":"ce4bhi12rcd13ifvqfp0","pricing_plan_id":"cebpf4jnsgd1na2vs0mg"},{"bike_id":"e30c6de4-d657-4158-93f3-8e4878a0e250","system_id":"levelo_inurba_marseille","lat":43.299744,"lon":5.371767,"is_reserved":false,"is_disabled":false,"rental_uris":{"android":"levelo://app?vid=e30c6de4-d657-4158-93f3-8e4878a0e250","ios":"levelo://app?vid=e30c6de4-d657-4158-93f3-8e4878a0e250"},"vehicle_type_id":"4","last_reported":1726657680,"current_range_meters":20400,"station_id":"ce4bh3p2rcd13ifvqdp0","pricing_plan_id":"cebpf4jnsgd1na2vs0mg"},{"bike_id":"f85d62c8-92ac-4bd7-b3f4-aaacf56efb44","system_id":"levelo_inurba_marseille","lat":43.30425,"lon":5.3975,"is_reserved":false,"is_disabled":false,"rental_uris":{"android":"levelo://app?vid=f85d62c8-92ac-4bd7-b3f4-aaacf56efb44","ios":"levelo://app?vid=f85d62c8-92ac-4bd7-b3f4-aaacf56efb44"},"vehicle_type_id":"4","last_reported":1726657680,"current_range_meters":20400,"station_id":"ce4bh092rcd13ifvqd20","pricing_plan_id":"cebpf4jnsgd1na2vs0mg"},{"bike_id":"b645ac77-0d58-4fa9-8ad3-947af8bdb1d9","system_id":"levelo_inurba_marseille","lat":43.29898,"lon":5.43668,"is_reserved":false,"is_disabled":false,"rental_uris":{"android":"levelo://app?vid=b645ac77-0d58-4fa9-8ad3-947af8bdb1d9","ios":"levelo://app?vid=b645ac77-0d58-4fa9-8ad3-947af8bdb1d9"},"vehicle_type_id":"4","last_reported":1726657680,"current_range_meters":19600,"station_id":"ce4bhpp2rcd13ifvqhfg","pricing_plan_id":"cebpf4jnsgd1na2vs0mg"},{"bike_id":"6fbda4d0-809b-4e5c-8df1-86be2d9c6894","system_id":"levelo_inurba_marseille","lat":43.29848,"lon":5.36284,"is_reserved":false,"is_disabled":false,"rental_uris":{"android":"levelo://app?vid=6fbda4d0-809b-4e5c-8df1-86be2d9c6894","ios":"levelo://app?vid=6fbda4d0-809b-4e5c-8df1-86be2d9c6894"},"vehicle_type_id":"4","last_reported":1726657680,"current_range_meters":16000,"station_id":"ce4bgpp2rcd13ifvqc3g","pricing_plan_id":"cebpf4jnsgd1na2vs0mg"},{"bike_id":"c70646b5-0ed7-4f41-b696-bc25c65851c4","system_id":"levelo_inurba_marseille","lat":43.25933,"lon":5.40913,"is_reserved":false,"is_disabled":false,"rental_uris":{"android":"levelo://app?vid=c70646b5-0ed7-4f41-b696-bc25c65851c4","ios":"levelo://app?vid=c70646b5-0ed7-4f41-b696-bc25c65851c4"},"vehicle_type_id":"4","last_reported":1726657680,"current_range_meters":8000,"station_id":"ce4bhm92rcd13ifvqglg","pricing_plan_id":"cebpf4jnsgd1na2vs0mg"},{"bike_id":"6aa19938-3994-4506-9417-669b864c1e4e","system_id":"levelo_inurba_marseille","lat":43.293,"lon":5.38,"is_reserved":false,"is_disabled":false,"rental_uris":{"android":"levelo://app?vid=6aa19938-3994-4506-9417-669b864c1e4e","ios":"levelo://app?vid=6aa19938-3994-4506-9417-669b864c1e4e"},"vehicle_type_id":"4","last_reported":1726657680,"current_range_meters":37600,"station_id":"","pricing_plan_id":"cebpf4jnsgd1na2vs0mg"},{"bike_id":"9450d829-8b8e-4841-b28a-e9e07aa1868c","system_id":"levelo_inurba_marseille","lat":43.27565,"lon":5.38418,"is_reserved":false,"is_disabled":false,"rental_uris":{"android":"levelo://app?vid=9450d829-8b8e-4841-b28a-e9e07aa1868c","ios":"levelo://app?vid=9450d829-8b8e-4841-b28a-e9e07aa1868c"},"vehicle_type_id":"4","last_reported":1726657680,"current_range_meters":9200,"station_id":"ce4bhh92rcd13ifvqfi0","pricing_plan_id":"cebpf4jnsgd1na2vs0mg"},{"bike_id":"2821bd5e-f2cc-464c-a98c-3e36c986cc0e","system_id":"levelo_inurba_marseille","lat":43.25926,"lon":5.40907,"is_reserved":false,"is_disabled":false,"rental_uris":{"android":"levelo://app?vid=2821bd5e-f2cc-464c-a98c-3e36c986cc0e","ios":"levelo://app?vid=2821bd5e-f2cc-464c-a98c-3e36c986cc0e"},"vehicle_type_id":"4","last_reported":1726657680,"current_range_meters":36000,"station_id":"ce4bhm92rcd13ifvqglg","pricing_plan_id":"cebpf4jnsgd1na2vs0mg"},{"bike_id":"22c184d7-d8b8-4533-92c2-fae6bea77b03","system_id":"levelo_inurba_marseille","lat":43.30606,"lon":5.37241,"is_reserved":false,"is_disabled":false,"rental_uris":{"android":"levelo://app?vid=22c184d7-d8b8-4533-92c2-fae6bea77b03","ios":"levelo://app?vid=22c184d7-d8b8-4533-92c2-fae6bea77b03"},"vehicle_type_id":"4","last_reported":1726657680,"current_range_meters":38000,"station_id":"ce4bgqh2rcd13ifvqc4g","pricing_plan_id":"cebpf4jnsgd1na2vs0mg"},{"bike_id":"8ceb5aea-b40e-4dad-98b0-1dcabb72c74a","system_id":"levelo_inurba_marseille","lat":43.3229,"lon":5.38271,"is_reserved":false,"is_disabled":false,"rental_uris":{"android":"levelo://app?vid=8ceb5aea-b40e-4dad-98b0-1dcabb72c74a","ios":"levelo://app?vid=8ceb5aea-b40e-4dad-98b0-1dcabb72c74a"},"vehicle_type_id":"4","last_reported":1726657680,"current_range_meters":26000,"station_id":"ce4bhr12rcd13ifvqhqg","pricing_plan_id":"cebpf4jnsgd1na2vs0mg"},{"bike_id":"b25232db-c485-4e9c-a2f6-4acc0677bc78","system_id":"levelo_inurba_marseille","lat":43.23151,"lon":5.43719,"is_reserved":false,"is_disabled":false,"rental_uris":{"android":"levelo://app?vid=b25232db-c485-4e9c-a2f6-4acc0677bc78","ios":"levelo://app?vid=b25232db-c485-4e9c-a2f6-4acc0677bc78"},"vehicle_type_id":"4","last_reported":1726657680,"current_range_meters":38800,"station_id":"ce4bhmp2rcd13ifvqgog","pricing_plan_id":"cebpf4jnsgd1na2vs0mg"},{"bike_id":"677498c9-746b-4650-9a8e-2c7479635944","system_id":"levelo_inurba_marseille","lat":43.33016,"lon":5.39042,"is_reserved":false,"is_disabled":false,"rental_uris":{"android":"levelo://app?vid=677498c9-746b-4650-9a8e-2c7479635944","ios":"levelo://app?vid=677498c9-746b-4650-9a8e-2c7479635944"},"vehicle_type_id":"4","last_reported":1726657680,"current_range_meters":16000,"station_id":"ce4bhr92rcd13ifvqhrg","pricing_plan_id":"cebpf4jnsgd1na2vs0mg"},{"bike_id":"ff08e48d-717b-44e7-9401-fc300901d935","system_id":"levelo_inurba_marseille","lat":43.319946,"lon":5.381485,"is_reserved":false,"is_disabled":false,"rental_uris":{"android":"levelo://app?vid=ff08e48d-717b-44e7-9401-fc300901d935","ios":"levelo://app?vid=ff08e48d-717b-44e7-9401-fc300901d935"},"vehicle_type_id":"4","last_reported":1726657680,"current_range_meters":16800,"station_id":"ce4bhr12rcd13ifvqhpg","pricing_plan_id":"cebpf4jnsgd1na2vs0mg"},{"bike_id":"c11ac0ec-9aa5-4b4b-90a8-9e0bd5fa291e","system_id":"levelo_inurba_marseille","lat":43.28608,"lon":5.37063,"is_reserved":false,"is_disabled":false,"rental_uris":{"android":"levelo://app?vid=c11ac0ec-9aa5-4b4b-90a8-9e0bd5fa291e","ios":"levelo://app?vid=c11ac0ec-9aa5-4b4b-90a8-9e0bd5fa291e"},"vehicle_type_id":"4","last_reported":1726657680,"current_range_meters":25200,"station_id":"ce4bht12rcd13ifvqi60","pricing_plan_id":"cebpf4jnsgd1na2vs0mg"},{"bike_id":"4a809c7f-d1e7-4465-9e29-3bd6f6465948","system_id":"levelo_inurba_marseille","lat":43.3153,"lon":5.3803,"is_reserved":false,"is_disabled":false,"rental_uris":{"android":"levelo://app?vid=4a809c7f-d1e7-4465-9e29-3bd6f6465948","ios":"levelo://app?vid=4a809c7f-d1e7-4465-9e29-3bd6f6465948"},"vehicle_type_id":"4","last_reported":1726657680,"current_range_meters":12400,"station_id":"ce4bhsp2rcd13ifvqi50","pricing_plan_id":"cebpf4jnsgd1na2vs0mg"},{"bike_id":"30f9f41e-7c04-4159-81b3-c361d759ef9c","system_id":"levelo_inurba_marseille","lat":43.23179,"lon":5.3999,"is_reserved":false,"is_disabled":false,"rental_uris":{"android":"levelo://app?vid=30f9f41e-7c04-4159-81b3-c361d759ef9c","ios":"levelo://app?vid=30f9f41e-7c04-4159-81b3-c361d759ef9c"},"vehicle_type_id":"4","last_reported":1726657680,"current_range_meters":21600,"station_id":"ce4bhn12rcd13ifvqgqg","pricing_plan_id":"cebpf4jnsgd1na2vs0mg"},{"bike_id":"edcb7831-5f93-4381-9cdb-bf2cddba3298","system_id":"levelo_inurba_marseille","lat":43.26682,"lon":5.38264,"is_reserved":false,"is_disabled":false,"rental_uris":{"android":"levelo://app?vid=edcb7831-5f93-4381-9cdb-bf2cddba3298","ios":"levelo://app?vid=edcb7831-5f93-4381-9cdb-bf2cddba3298"},"vehicle_type_id":"4","last_reported":1726657680,"current_range_meters":32800,"station_id":"ce4bhg92rcd13ifvqf90","pricing_plan_id":"cebpf4jnsgd1na2vs0mg"},{"bike_id":"5a5615e6-5fa9-4a84-be10-f191ec350cd7","system_id":"levelo_inurba_marseille","lat":43.29025,"lon":5.38127,"is_reserved":false,"is_disabled":false,"rental_uris":{"android":"levelo://app?vid=5a5615e6-5fa9-4a84-be10-f191ec350cd7","ios":"levelo://app?vid=5a5615e6-5fa9-4a84-be10-f191ec350cd7"},"vehicle_type_id":"4","last_reported":1726657680,"current_range_meters":35200,"station_id":"ce4bh4p2rcd13ifvqe1g","pricing_plan_id":"cebpf4jnsgd1na2vs0mg"},{"bike_id":"039abe42-d53e-48b2-910f-be7e05ba47a1","system_id":"levelo_inurba_marseille","lat":43.29843,"lon":5.36275,"is_reserved":false,"is_disabled":false,"rental_uris":{"android":"levelo://app?vid=039abe42-d53e-48b2-910f-be7e05ba47a1","ios":"levelo://app?vid=039abe42-d53e-48b2-910f-be7e05ba47a1"},"vehicle_type_id":"4","last_reported":1726657680,"current_range_meters":30800,"station_id":"ce4bgpp2rcd13ifvqc3g","pricing_plan_id":"cebpf4jnsgd1na2vs0mg"},{"bike_id":"80c47e16-baa6-4fc8-a547-2d338a887528","system_id":"levelo_inurba_marseille","lat":43.2971,"lon":5.36598,"is_reserved":false,"is_disabled":false,"rental_uris":{"android":"levelo://app?vid=80c47e16-baa6-4fc8-a547-2d338a887528","ios":"levelo://app?vid=80c47e16-baa6-4fc8-a547-2d338a887528"},"vehicle_type_id":"4","last_reported":1726657680,"current_range_meters":4000,"station_id":"ce4bgn12rcd13ifvqbt0","pricing_plan_id":"cebpf4jnsgd1na2vs0mg"},{"bike_id":"000b06f4-acb1-4ced-8b01-8582952f9084","system_id":"levelo_inurba_marseille","lat":43.29521,"lon":5.3903,"is_reserved":false,"is_disabled":false,"rental_uris":{"android":"levelo://app?vid=000b06f4-acb1-4ced-8b01-8582952f9084","ios":"levelo://app?vid=000b06f4-acb1-4ced-8b01-8582952f9084"},"vehicle_type_id":"4","last_reported":1726657680,"current_range_meters":27600,"station_id":"ce4bh3p2rcd13ifvqdp0","pricing_plan_id":"cebpf4jnsgd1na2vs0mg"},{"bike_id":"81384d3f-0e63-4c25-88cb-708db6d261fe","system_id":"levelo_inurba_marseille","lat":43.30463,"lon":5.37901,"is_reserved":false,"is_disabled":false,"rental_uris":{"android":"levelo://app?vid=81384d3f-0e63-4c25-88cb-708db6d261fe","ios":"levelo://app?vid=81384d3f-0e63-4c25-88cb-708db6d261fe"},"vehicle_type_id":"4","last_reported":1726657680,"current_range_meters":6800,"station_id":"ce4bgup2rcd13ifvqcn0","pricing_plan_id":"cebpf4jnsgd1na2vs0mg"},{"bike_id":"81014bce-c1a6-44fa-8216-921283bc0c76","system_id":"levelo_inurba_marseille","lat":43.28932,"lon":5.38387,"is_reserved":false,"is_disabled":false,"rental_uris":{"android":"levelo://app?vid=81014bce-c1a6-44fa-8216-921283bc0c76","ios":"levelo://app?vid=81014bce-c1a6-44fa-8216-921283bc0c76"},"vehicle_type_id":"4","last_reported":1726657680,"current_range_meters":32000,"station_id":"ce4bh612rcd13ifvqe6g","pricing_plan_id":"cebpf4jnsgd1na2vs0mg"},{"bike_id":"d6490ad0-1952-4e83-9e62-de12574dc642","system_id":"levelo_inurba_marseille","lat":43.24385,"lon":5.37056,"is_reserved":false,"is_disabled":false,"rental_uris":{"android":"levelo://app?vid=d6490ad0-1952-4e83-9e62-de12574dc642","ios":"levelo://app?vid=d6490ad0-1952-4e83-9e62-de12574dc642"},"vehicle_type_id":"4","last_reported":1726657680,"current_range_meters":36800,"station_id":"ce4bhhh2rcd13ifvqfk0","pricing_plan_id":"cebpf4jnsgd1na2vs0mg"},{"bike_id":"af15b34b-0a1b-4f05-9975-d29c112ecf5a","system_id":"levelo_inurba_marseille","lat":43.26549,"lon":5.37287,"is_reserved":false,"is_disabled":false,"rental_uris":{"android":"levelo://app?vid=af15b34b-0a1b-4f05-9975-d29c112ecf5a","ios":"levelo://app?vid=af15b34b-0a1b-4f05-9975-d29c112ecf5a"},"vehicle_type_id":"4","last_reported":1726657680,"current_range_meters":33200,"station_id":"ce4bhg12rcd13ifvqf70","pricing_plan_id":"cebpf4jnsgd1na2vs0mg"},{"bike_id":"99684f50-b398-427b-a4e9-7ca0a0382c79","system_id":"levelo_inurba_marseille","lat":43.23194,"lon":5.35546,"is_reserved":false,"is_disabled":false,"rental_uris":{"android":"levelo://app?vid=99684f50-b398-427b-a4e9-7ca0a0382c79","ios":"levelo://app?vid=99684f50-b398-427b-a4e9-7ca0a0382c79"},"vehicle_type_id":"4","last_reported":1726657680,"current_range_meters":38800,"station_id":"ce4bhu92rcd13ifvqi70","pricing_plan_id":"cebpf4jnsgd1na2vs0mg"},{"bike_id":"1c1f1e6c-2c4e-4f7c-b9eb-9da62199241a","system_id":"levelo_inurba_marseille","lat":43.26213,"lon":5.37924,"is_reserved":false,"is_disabled":false,"rental_uris":{"android":"levelo://app?vid=1c1f1e6c-2c4e-4f7c-b9eb-9da62199241a","ios":"levelo://app?vid=1c1f1e6c-2c4e-4f7c-b9eb-9da62199241a"},"vehicle_type_id":"4","last_reported":1726657680,"current_range_meters":30800,"station_id":"ce4bhjp2rcd13ifvqg90","pricing_plan_id":"cebpf4jnsgd1na2vs0mg"},{"bike_id":"d782c430-b2c7-45ce-aaaf-78dc9a80ca97","system_id":"levelo_inurba_marseille","lat":43.33022,"lon":5.39036,"is_reserved":false,"is_disabled":false,"rental_uris":{"android":"levelo://app?vid=d782c430-b2c7-45ce-aaaf-78dc9a80ca97","ios":"levelo://app?vid=d782c430-b2c7-45ce-aaaf-78dc9a80ca97"},"vehicle_type_id":"4","last_reported":1726657680,"current_range_meters":25200,"station_id":"ce4bhr92rcd13ifvqhrg","pricing_plan_id":"cebpf4jnsgd1na2vs0mg"},{"bike_id":"64279174-3dfa-4ece-bf87-60d5ac15b5ae","system_id":"levelo_inurba_marseille","lat":43.2953,"lon":5.38542,"is_reserved":false,"is_disabled":false,"rental_uris":{"android":"levelo://app?vid=64279174-3dfa-4ece-bf87-60d5ac15b5ae","ios":"levelo://app?vid=64279174-3dfa-4ece-bf87-60d5ac15b5ae"},"vehicle_type_id":"4","last_reported":1726657680,"current_range_meters":38800,"station_id":"ce4bgih2rcd13ifvqba0","pricing_plan_id":"cebpf4jnsgd1na2vs0mg"},{"bike_id":"c4faec35-7580-4da0-9121-0c9580611ed4","system_id":"levelo_inurba_marseille","lat":43.32349,"lon":5.40622,"is_reserved":false,"is_disabled":false,"rental_uris":{"android":"levelo://app?vid=c4faec35-7580-4da0-9121-0c9580611ed4","ios":"levelo://app?vid=c4faec35-7580-4da0-9121-0c9580611ed4"},"vehicle_type_id":"4","last_reported":1726657680,"current_range_meters":32400,"station_id":"ce4bhq92rcd13ifvqhjg","pricing_plan_id":"cebpf4jnsgd1na2vs0mg"},{"bike_id":"b0948ad8-356f-48f2-b7d3-8882cec54361","system_id":"levelo_inurba_marseille","lat":43.29017,"lon":5.38138,"is_reserved":false,"is_disabled":false,"rental_uris":{"android":"levelo://app?vid=b0948ad8-356f-48f2-b7d3-8882cec54361","ios":"levelo://app?vid=b0948ad8-356f-48f2-b7d3-8882cec54361"},"vehicle_type_id":"4","last_reported":1726657680,"current_range_meters":16800,"station_id":"ce4bh4p2rcd13ifvqe1g","pricing_plan_id":"cebpf4jnsgd1na2vs0mg"},{"bike_id":"2b714e73-49f8-4f26-bb6d-7d72ce23aabc","system_id":"levelo_inurba_marseille","lat":43.23052,"lon":5.3549,"is_reserved":false,"is_disabled":false,"rental_uris":{"android":"levelo://app?vid=2b714e73-49f8-4f26-bb6d-7d72ce23aabc","ios":"levelo://app?vid=2b714e73-49f8-4f26-bb6d-7d72ce23aabc"},"vehicle_type_id":"4","last_reported":1726657680,"current_range_meters":8400,"station_id":"cpo3342slgdg3j2ifvpg","pricing_plan_id":"cebpf4jnsgd1na2vs0mg"},{"bike_id":"08517893-63cf-43d9-88aa-3c89b83ce921","system_id":"levelo_inurba_marseille","lat":43.32484,"lon":5.36559,"is_reserved":false,"is_disabled":false,"rental_uris":{"android":"levelo://app?vid=08517893-63cf-43d9-88aa-3c89b83ce921","ios":"levelo://app?vid=08517893-63cf-43d9-88aa-3c89b83ce921"},"vehicle_type_id":"4","last_reported":1726657680,"current_range_meters":39200,"station_id":"ce4bhs12rcd13ifvqhvg","pricing_plan_id":"cebpf4jnsgd1na2vs0mg"},{"bike_id":"762690b6-6a6a-4c90-a14d-8f99d3446e9e","system_id":"levelo_inurba_marseille","lat":43.3375,"lon":5.37447,"is_reserved":false,"is_disabled":false,"rental_uris":{"android":"levelo://app?vid=762690b6-6a6a-4c90-a14d-8f99d3446e9e","ios":"levelo://app?vid=762690b6-6a6a-4c90-a14d-8f99d3446e9e"},"vehicle_type_id":"4","last_reported":1726657680,"current_range_meters":28800,"station_id":"","pricing_plan_id":"cebpf4jnsgd1na2vs0mg"},{"bike_id":"8cd53c67-998a-490c-9eaf-e78736c4c6c2","system_id":"levelo_inurba_marseille","lat":43.3031,"lon":5.36907,"is_reserved":false,"is_disabled":false,"rental_uris":{"android":"levelo://app?vid=8cd53c67-998a-490c-9eaf-e78736c4c6c2","ios":"levelo://app?vid=8cd53c67-998a-490c-9eaf-e78736c4c6c2"},"vehicle_type_id":"4","last_reported":1726657680,"current_range_meters":38000,"station_id":"ce4bgqh2rcd13ifvqc5g","pricing_plan_id":"cebpf4jnsgd1na2vs0mg"},{"bike_id":"b7b04335-240a-45eb-ae36-699e1410baa4","system_id":"levelo_inurba_marseille","lat":43.29295,"lon":5.37474,"is_reserved":false,"is_disabled":false,"rental_uris":{"android":"levelo://app?vid=b7b04335-240a-45eb-ae36-699e1410baa4","ios":"levelo://app?vid=b7b04335-240a-45eb-ae36-699e1410baa4"},"vehicle_type_id":"4","last_reported":1726657680,"current_range_meters":32800,"station_id":"ce4bgi12rcd13ifvqb70","pricing_plan_id":"cebpf4jnsgd1na2vs0mg"},{"bike_id":"c402d6a5-f5e9-47fc-86ec-c3ac970a31a7","system_id":"levelo_inurba_marseille","lat":43.2942,"lon":5.38626,"is_reserved":false,"is_disabled":false,"rental_uris":{"android":"levelo://app?vid=c402d6a5-f5e9-47fc-86ec-c3ac970a31a7","ios":"levelo://app?vid=c402d6a5-f5e9-47fc-86ec-c3ac970a31a7"},"vehicle_type_id":"4","last_reported":1726657680,"current_range_meters":7200,"station_id":"ce4bh2h2rcd13ifvqdh0","pricing_plan_id":"cebpf4jnsgd1na2vs0mg"},{"bike_id":"db157474-0a55-4e9d-acb2-577501073d0b","system_id":"levelo_inurba_marseille","lat":43.30137,"lon":5.37421,"is_reserved":false,"is_disabled":false,"rental_uris":{"android":"levelo://app?vid=db157474-0a55-4e9d-acb2-577501073d0b","ios":"levelo://app?vid=db157474-0a55-4e9d-acb2-577501073d0b"},"vehicle_type_id":"4","last_reported":1726657680,"current_range_meters":7200,"station_id":"ce4bgs92rcd13ifvqcc0","pricing_plan_id":"cebpf4jnsgd1na2vs0mg"},{"bike_id":"9aa4f766-675f-47e9-8532-2a9c7e411a51","system_id":"levelo_inurba_marseille","lat":43.24544,"lon":5.39539,"is_reserved":false,"is_disabled":false,"rental_uris":{"android":"levelo://app?vid=9aa4f766-675f-47e9-8532-2a9c7e411a51","ios":"levelo://app?vid=9aa4f766-675f-47e9-8532-2a9c7e411a51"},"vehicle_type_id":"4","last_reported":1726657680,"current_range_meters":34000,"station_id":"ce4bhlp2rcd13ifvqgjg","pricing_plan_id":"cebpf4jnsgd1na2vs0mg"},{"bike_id":"76d439c6-f9f7-40ab-a273-41f85ec9da3c","system_id":"levelo_inurba_marseille","lat":43.27987,"lon":5.41669,"is_reserved":false,"is_disabled":false,"rental_uris":{"android":"levelo://app?vid=76d439c6-f9f7-40ab-a273-41f85ec9da3c","ios":"levelo://app?vid=76d439c6-f9f7-40ab-a273-41f85ec9da3c"},"vehicle_type_id":"4","last_reported":1726657680,"current_range_meters":23200,"station_id":"ce4bho12rcd13ifvqh1g","pricing_plan_id":"cebpf4jnsgd1na2vs0mg"},{"bike_id":"e8befb56-1303-484d-9ed5-cb1654ca2bd2","system_id":"levelo_inurba_marseille","lat":43.23965,"lon":5.36639,"is_reserved":false,"is_disabled":false,"rental_uris":{"android":"levelo://app?vid=e8befb56-1303-484d-9ed5-cb1654ca2bd2","ios":"levelo://app?vid=e8befb56-1303-484d-9ed5-cb1654ca2bd2"},"vehicle_type_id":"4","last_reported":1726657680,"current_range_meters":36800,"station_id":"ce4bhi12rcd13ifvqfp0","pricing_plan_id":"cebpf4jnsgd1na2vs0mg"},{"bike_id":"79b45a4a-9de1-4c6b-8a48-d464267ed500","system_id":"levelo_inurba_marseille","lat":43.30418,"lon":5.4129,"is_reserved":false,"is_disabled":false,"rental_uris":{"android":"levelo://app?vid=79b45a4a-9de1-4c6b-8a48-d464267ed500","ios":"levelo://app?vid=79b45a4a-9de1-4c6b-8a48-d464267ed500"},"vehicle_type_id":"4","last_reported":1726657680,"current_range_meters":17200,"station_id":"ce4bhop2rcd13ifvqh8g","pricing_plan_id":"cebpf4jnsgd1na2vs0mg"},{"bike_id":"2126b14a-118e-4fcd-aaa5-b3ca795f479a","system_id":"levelo_inurba_marseille","lat":43.29848,"lon":5.36287,"is_reserved":false,"is_disabled":false,"rental_uris":{"android":"levelo://app?vid=2126b14a-118e-4fcd-aaa5-b3ca795f479a","ios":"levelo://app?vid=2126b14a-118e-4fcd-aaa5-b3ca795f479a"},"vehicle_type_id":"4","last_reported":1726657680,"current_range_meters":30800,"station_id":"ce4bgpp2rcd13ifvqc3g","pricing_plan_id":"cebpf4jnsgd1na2vs0mg"},{"bike_id":"e93522eb-9034-4f1e-9f84-0b0ccddbf9fb","system_id":"levelo_inurba_marseille","lat":43.309143,"lon":5.368457,"is_reserved":false,"is_disabled":false,"rental_uris":{"android":"levelo://app?vid=e93522eb-9034-4f1e-9f84-0b0ccddbf9fb","ios":"levelo://app?vid=e93522eb-9034-4f1e-9f84-0b0ccddbf9fb"},"vehicle_type_id":"4","last_reported":1726657680,"current_range_meters":18000,"station_id":"ce4bhap2rcd13ifvqek0","pricing_plan_id":"cebpf4jnsgd1na2vs0mg"},{"bike_id":"242f9583-ecf3-4d22-be93-6d34d9ca4768","system_id":"levelo_inurba_marseille","lat":43.28962,"lon":5.3784,"is_reserved":false,"is_disabled":false,"rental_uris":{"android":"levelo://app?vid=242f9583-ecf3-4d22-be93-6d34d9ca4768","ios":"levelo://app?vid=242f9583-ecf3-4d22-be93-6d34d9ca4768"},"vehicle_type_id":"4","last_reported":1726657680,"current_range_meters":25200,"station_id":"ce4bh9p2rcd13ifvqed0","pricing_plan_id":"cebpf4jnsgd1na2vs0mg"},{"bike_id":"f24b6059-7435-48b0-826f-a615cb14199f","system_id":"levelo_inurba_marseille","lat":43.26552,"lon":5.37284,"is_reserved":false,"is_disabled":false,"rental_uris":{"android":"levelo://app?vid=f24b6059-7435-48b0-826f-a615cb14199f","ios":"levelo://app?vid=f24b6059-7435-48b0-826f-a615cb14199f"},"vehicle_type_id":"4","last_reported":1726657680,"current_range_meters":30400,"station_id":"ce4bhg12rcd13ifvqf70","pricing_plan_id":"cebpf4jnsgd1na2vs0mg"},{"bike_id":"c498a418-9fd9-4d15-9161-6c82a609c881","system_id":"levelo_inurba_marseille","lat":43.27052,"lon":5.40267,"is_reserved":false,"is_disabled":false,"rental_uris":{"android":"levelo://app?vid=c498a418-9fd9-4d15-9161-6c82a609c881","ios":"levelo://app?vid=c498a418-9fd9-4d15-9161-6c82a609c881"},"vehicle_type_id":"4","last_reported":1726657680,"current_range_meters":26800,"station_id":"ce4bhk92rcd13ifvqgc0","pricing_plan_id":"cebpf4jnsgd1na2vs0mg"},{"bike_id":"77aad35c-f5ef-4192-80d4-71582050296e","system_id":"levelo_inurba_marseille","lat":43.28269,"lon":5.35074,"is_reserved":false,"is_disabled":false,"rental_uris":{"android":"levelo://app?vid=77aad35c-f5ef-4192-80d4-71582050296e","ios":"levelo://app?vid=77aad35c-f5ef-4192-80d4-71582050296e"},"vehicle_type_id":"4","last_reported":1726657680,"current_range_meters":20000,"station_id":"ce4bhbp2rcd13ifvqerg","pricing_plan_id":"cebpf4jnsgd1na2vs0mg"},{"bike_id":"60c45909-9556-40ee-9139-5c00d3ae76de","system_id":"levelo_inurba_marseille","lat":43.28406,"lon":5.37519,"is_reserved":false,"is_disabled":false,"rental_uris":{"android":"levelo://app?vid=60c45909-9556-40ee-9139-5c00d3ae76de","ios":"levelo://app?vid=60c45909-9556-40ee-9139-5c00d3ae76de"},"vehicle_type_id":"4","last_reported":1726657680,"current_range_meters":8800,"station_id":"ce4bh412rcd13ifvqds0","pricing_plan_id":"cebpf4jnsgd1na2vs0mg"},{"bike_id":"4bc47ebe-cbc2-46e0-a585-925d2b106ec0","system_id":"levelo_inurba_marseille","lat":43.30149,"lon":5.38086,"is_reserved":false,"is_disabled":false,"rental_uris":{"android":"levelo://app?vid=4bc47ebe-cbc2-46e0-a585-925d2b106ec0","ios":"levelo://app?vid=4bc47ebe-cbc2-46e0-a585-925d2b106ec0"},"vehicle_type_id":"4","last_reported":1726657680,"current_range_meters":21600,"station_id":"ce4bgjp2rcd13ifvqbh0","pricing_plan_id":"cebpf4jnsgd1na2vs0mg"},{"bike_id":"9408c824-f936-4a5e-aa38-1befdecde5e2","system_id":"levelo_inurba_marseille","lat":43.30589,"lon":5.37232,"is_reserved":false,"is_disabled":false,"rental_uris":{"android":"levelo://app?vid=9408c824-f936-4a5e-aa38-1befdecde5e2","ios":"levelo://app?vid=9408c824-f936-4a5e-aa38-1befdecde5e2"},"vehicle_type_id":"4","last_reported":1726657680,"current_range_meters":32400,"station_id":"ce4bgqh2rcd13ifvqc4g","pricing_plan_id":"cebpf4jnsgd1na2vs0mg"},{"bike_id":"6dd17a2f-59bb-4453-859d-2c09ab795824","system_id":"levelo_inurba_marseille","lat":43.33021,"lon":5.39039,"is_reserved":false,"is_disabled":false,"rental_uris":{"android":"levelo://app?vid=6dd17a2f-59bb-4453-859d-2c09ab795824","ios":"levelo://app?vid=6dd17a2f-59bb-4453-859d-2c09ab795824"},"vehicle_type_id":"4","last_reported":1726657680,"current_range_meters":25200,"station_id":"ce4bhr92rcd13ifvqhrg","pricing_plan_id":"cebpf4jnsgd1na2vs0mg"},{"bike_id":"81252e94-b3e6-480e-a6f5-2ff330ea64d6","system_id":"levelo_inurba_marseille","lat":43.28704,"lon":5.39981,"is_reserved":false,"is_disabled":false,"rental_uris":{"android":"levelo://app?vid=81252e94-b3e6-480e-a6f5-2ff330ea64d6","ios":"levelo://app?vid=81252e94-b3e6-480e-a6f5-2ff330ea64d6"},"vehicle_type_id":"4","last_reported":1726657680,"current_range_meters":38800,"station_id":"ce4bho92rcd13ifvqh3g","pricing_plan_id":"cebpf4jnsgd1na2vs0mg"},{"bike_id":"59ea0c2a-aeac-4f57-949a-993e07839929","system_id":"levelo_inurba_marseille","lat":43.33747,"lon":5.37446,"is_reserved":false,"is_disabled":false,"rental_uris":{"android":"levelo://app?vid=59ea0c2a-aeac-4f57-949a-993e07839929","ios":"levelo://app?vid=59ea0c2a-aeac-4f57-949a-993e07839929"},"vehicle_type_id":"4","last_reported":1726657680,"current_range_meters":36800,"station_id":"","pricing_plan_id":"cebpf4jnsgd1na2vs0mg"},{"bike_id":"fc2c37fd-b30e-4e49-9975-3233bf5effda","system_id":"levelo_inurba_marseille","lat":43.322904,"lon":5.382786,"is_reserved":false,"is_disabled":false,"rental_uris":{"android":"levelo://app?vid=fc2c37fd-b30e-4e49-9975-3233bf5effda","ios":"levelo://app?vid=fc2c37fd-b30e-4e49-9975-3233bf5effda"},"vehicle_type_id":"4","last_reported":1726657680,"current_range_meters":30000,"station_id":"ce4bhr12rcd13ifvqhqg","pricing_plan_id":"cebpf4jnsgd1na2vs0mg"},{"bike_id":"6df8c321-c3d4-4060-abaf-2fa6d3bf72c1","system_id":"levelo_inurba_marseille","lat":43.28695,"lon":5.39984,"is_reserved":false,"is_disabled":false,"rental_uris":{"android":"levelo://app?vid=6df8c321-c3d4-4060-abaf-2fa6d3bf72c1","ios":"levelo://app?vid=6df8c321-c3d4-4060-abaf-2fa6d3bf72c1"},"vehicle_type_id":"4","last_reported":1726657680,"current_range_meters":27200,"station_id":"ce4bho92rcd13ifvqh3g","pricing_plan_id":"cebpf4jnsgd1na2vs0mg"},{"bike_id":"0c826a92-36fb-48b0-99cf-2897c1414a10","system_id":"levelo_inurba_marseille","lat":43.24515,"lon":5.39917,"is_reserved":false,"is_disabled":false,"rental_uris":{"android":"levelo://app?vid=0c826a92-36fb-48b0-99cf-2897c1414a10","ios":"levelo://app?vid=0c826a92-36fb-48b0-99cf-2897c1414a10"},"vehicle_type_id":"4","last_reported":1726657680,"current_range_meters":16800,"station_id":"","pricing_plan_id":"cebpf4jnsgd1na2vs0mg"},{"bike_id":"e85a6a1c-a752-448f-af87-48e0f59ad141","system_id":"levelo_inurba_marseille","lat":43.264963,"lon":5.395209,"is_reserved":false,"is_disabled":false,"rental_uris":{"android":"levelo://app?vid=e85a6a1c-a752-448f-af87-48e0f59ad141","ios":"levelo://app?vid=e85a6a1c-a752-448f-af87-48e0f59ad141"},"vehicle_type_id":"4","last_reported":1726657680,"current_range_meters":9600,"station_id":"ce4bhi12rcd13ifvqfq0","pricing_plan_id":"cebpf4jnsgd1na2vs0mg"},{"bike_id":"c5483938-683f-4dd8-a9d6-ebf3c734472a","system_id":"levelo_inurba_marseille","lat":43.26683,"lon":5.38273,"is_reserved":false,"is_disabled":false,"rental_uris":{"android":"levelo://app?vid=c5483938-683f-4dd8-a9d6-ebf3c734472a","ios":"levelo://app?vid=c5483938-683f-4dd8-a9d6-ebf3c734472a"},"vehicle_type_id":"4","last_reported":1726657680,"current_range_meters":36000,"station_id":"ce4bhg92rcd13ifvqf90","pricing_plan_id":"cebpf4jnsgd1na2vs0mg"},{"bike_id":"df140004-36af-4f95-b59e-c58393b3c036","system_id":"levelo_inurba_marseille","lat":43.27944,"lon":5.41041,"is_reserved":false,"is_disabled":false,"rental_uris":{"android":"levelo://app?vid=df140004-36af-4f95-b59e-c58393b3c036","ios":"levelo://app?vid=df140004-36af-4f95-b59e-c58393b3c036"},"vehicle_type_id":"4","last_reported":1726657680,"current_range_meters":29600,"station_id":"ce4bhnp2rcd13ifvqh0g","pricing_plan_id":"cebpf4jnsgd1na2vs0mg"},{"bike_id":"551007eb-0d19-4212-aaad-40cf20c93b6d","system_id":"levelo_inurba_marseille","lat":43.3054,"lon":5.36535,"is_reserved":false,"is_disabled":false,"rental_uris":{"android":"levelo://app?vid=551007eb-0d19-4212-aaad-40cf20c93b6d","ios":"levelo://app?vid=551007eb-0d19-4212-aaad-40cf20c93b6d"},"vehicle_type_id":"4","last_reported":1726657680,"current_range_meters":39200,"station_id":"ce4bgs12rcd13ifvqcag","pricing_plan_id":"cebpf4jnsgd1na2vs0mg"},{"bike_id":"d89eed6a-9670-4578-a71c-2511a79516ae","system_id":"levelo_inurba_marseille","lat":43.30883,"lon":5.37191,"is_reserved":false,"is_disabled":false,"rental_uris":{"android":"levelo://app?vid=d89eed6a-9670-4578-a71c-2511a79516ae","ios":"levelo://app?vid=d89eed6a-9670-4578-a71c-2511a79516ae"},"vehicle_type_id":"4","last_reported":1726657680,"current_range_meters":2800,"station_id":"ce4bguh2rcd13ifvqckg","pricing_plan_id":"cebpf4jnsgd1na2vs0mg"},{"bike_id":"3e30d24a-3c33-4d5e-aa8b-de9deb61c6ad","system_id":"levelo_inurba_marseille","lat":43.26934,"lon":5.3892,"is_reserved":false,"is_disabled":false,"rental_uris":{"android":"levelo://app?vid=3e30d24a-3c33-4d5e-aa8b-de9deb61c6ad","ios":"levelo://app?vid=3e30d24a-3c33-4d5e-aa8b-de9deb61c6ad"},"vehicle_type_id":"4","last_reported":1726657680,"current_range_meters":11600,"station_id":"ce4bhhh2rcd13ifvqfl0","pricing_plan_id":"cebpf4jnsgd1na2vs0mg"},{"bike_id":"7a570e36-5887-41cd-b4e2-1dacd70bc2ac","system_id":"levelo_inurba_marseille","lat":43.29871,"lon":5.39736,"is_reserved":false,"is_disabled":false,"rental_uris":{"android":"levelo://app?vid=7a570e36-5887-41cd-b4e2-1dacd70bc2ac","ios":"levelo://app?vid=7a570e36-5887-41cd-b4e2-1dacd70bc2ac"},"vehicle_type_id":"4","last_reported":1726657680,"current_range_meters":26000,"station_id":"ce4bh0h2rcd13ifvqd50","pricing_plan_id":"cebpf4jnsgd1na2vs0mg"},{"bike_id":"a3b088e7-d7f6-4412-ab8c-47f7b93657be","system_id":"levelo_inurba_marseille","lat":43.295222,"lon":5.390379,"is_reserved":false,"is_disabled":false,"rental_uris":{"android":"levelo://app?vid=a3b088e7-d7f6-4412-ab8c-47f7b93657be","ios":"levelo://app?vid=a3b088e7-d7f6-4412-ab8c-47f7b93657be"},"vehicle_type_id":"4","last_reported":1726657680,"current_range_meters":38800,"station_id":"ce4bh3p2rcd13ifvqdp0","pricing_plan_id":"cebpf4jnsgd1na2vs0mg"},{"bike_id":"e614f290-1e53-4392-9a1e-c6eb965947b2","system_id":"levelo_inurba_marseille","lat":43.31077,"lon":5.38358,"is_reserved":false,"is_disabled":false,"rental_uris":{"android":"levelo://app?vid=e614f290-1e53-4392-9a1e-c6eb965947b2","ios":"levelo://app?vid=e614f290-1e53-4392-9a1e-c6eb965947b2"},"vehicle_type_id":"4","last_reported":1726657680,"current_range_meters":33200,"station_id":"ce4bgv92rcd13ifvqcr0","pricing_plan_id":"cebpf4jnsgd1na2vs0mg"},{"bike_id":"50f2eba0-8388-4a98-93e0-466beadabfca","system_id":"levelo_inurba_marseille","lat":43.23955,"lon":5.3663,"is_reserved":false,"is_disabled":false,"rental_uris":{"android":"levelo://app?vid=50f2eba0-8388-4a98-93e0-466beadabfca","ios":"levelo://app?vid=50f2eba0-8388-4a98-93e0-466beadabfca"},"vehicle_type_id":"4","last_reported":1726657680,"current_range_meters":31200,"station_id":"ce4bhi12rcd13ifvqfp0","pricing_plan_id":"cebpf4jnsgd1na2vs0mg"},{"bike_id":"7addbf67-a73d-4351-81cb-aaaa99e90421","system_id":"levelo_inurba_marseille","lat":43.29916,"lon":5.38126,"is_reserved":false,"is_disabled":false,"rental_uris":{"android":"levelo://app?vid=7addbf67-a73d-4351-81cb-aaaa99e90421","ios":"levelo://app?vid=7addbf67-a73d-4351-81cb-aaaa99e90421"},"vehicle_type_id":"4","last_reported":1726657680,"current_range_meters":13600,"station_id":"ce4bgj12rcd13ifvqbc0","pricing_plan_id":"cebpf4jnsgd1na2vs0mg"},{"bike_id":"b60fdd62-02a2-4187-8a87-3fd289343c2d","system_id":"levelo_inurba_marseille","lat":43.30135,"lon":5.37434,"is_reserved":false,"is_disabled":false,"rental_uris":{"android":"levelo://app?vid=b60fdd62-02a2-4187-8a87-3fd289343c2d","ios":"levelo://app?vid=b60fdd62-02a2-4187-8a87-3fd289343c2d"},"vehicle_type_id":"4","last_reported":1726657680,"current_range_meters":24000,"station_id":"ce4bgs92rcd13ifvqcc0","pricing_plan_id":"cebpf4jnsgd1na2vs0mg"},{"bike_id":"8c0d530c-80a9-463b-b552-7c7a8c8ab48a","system_id":"levelo_inurba_marseille","lat":43.23146,"lon":5.43716,"is_reserved":false,"is_disabled":false,"rental_uris":{"android":"levelo://app?vid=8c0d530c-80a9-463b-b552-7c7a8c8ab48a","ios":"levelo://app?vid=8c0d530c-80a9-463b-b552-7c7a8c8ab48a"},"vehicle_type_id":"4","last_reported":1726657680,"current_range_meters":38800,"station_id":"ce4bhmp2rcd13ifvqgog","pricing_plan_id":"cebpf4jnsgd1na2vs0mg"},{"bike_id":"85f35905-070a-4a43-b69b-19cfcf5195a8","system_id":"levelo_inurba_marseille","lat":43.29554,"lon":5.42273,"is_reserved":false,"is_disabled":false,"rental_uris":{"android":"levelo://app?vid=85f35905-070a-4a43-b69b-19cfcf5195a8","ios":"levelo://app?vid=85f35905-070a-4a43-b69b-19cfcf5195a8"},"vehicle_type_id":"4","last_reported":1726657680,"current_range_meters":39200,"station_id":"ce4bhph2rcd13ifvqhdg","pricing_plan_id":"cebpf4jnsgd1na2vs0mg"},{"bike_id":"19d1f586-3060-4063-ace1-afecd836b3c2","system_id":"levelo_inurba_marseille","lat":43.29582,"lon":5.36738,"is_reserved":false,"is_disabled":false,"rental_uris":{"android":"levelo://app?vid=19d1f586-3060-4063-ace1-afecd836b3c2","ios":"levelo://app?vid=19d1f586-3060-4063-ace1-afecd836b3c2"},"vehicle_type_id":"4","last_reported":1726657680,"current_range_meters":17200,"station_id":"ce4bgph2rcd13ifvqc2g","pricing_plan_id":"cebpf4jnsgd1na2vs0mg"},{"bike_id":"9c7340ee-7d9b-4a50-8b88-dd479bd9d490","system_id":"levelo_inurba_marseille","lat":43.26551,"lon":5.37284,"is_reserved":false,"is_disabled":false,"rental_uris":{"android":"levelo://app?vid=9c7340ee-7d9b-4a50-8b88-dd479bd9d490","ios":"levelo://app?vid=9c7340ee-7d9b-4a50-8b88-dd479bd9d490"},"vehicle_type_id":"4","last_reported":1726657680,"current_range_meters":30400,"station_id":"ce4bhg12rcd13ifvqf70","pricing_plan_id":"cebpf4jnsgd1na2vs0mg"},{"bike_id":"bb9956d2-c5c3-4883-85ce-2a2e0b18cb9e","system_id":"levelo_inurba_marseille","lat":43.28335,"lon":5.381,"is_reserved":false,"is_disabled":false,"rental_uris":{"android":"levelo://app?vid=bb9956d2-c5c3-4883-85ce-2a2e0b18cb9e","ios":"levelo://app?vid=bb9956d2-c5c3-4883-85ce-2a2e0b18cb9e"},"vehicle_type_id":"4","last_reported":1726657680,"current_range_meters":26000,"station_id":"ce4bh412rcd13ifvqdr0","pricing_plan_id":"cebpf4jnsgd1na2vs0mg"},{"bike_id":"58014cc6-4f39-4119-a8a0-cdc0e2507820","system_id":"levelo_inurba_marseille","lat":43.32289,"lon":5.38275,"is_reserved":false,"is_disabled":false,"rental_uris":{"android":"levelo://app?vid=58014cc6-4f39-4119-a8a0-cdc0e2507820","ios":"levelo://app?vid=58014cc6-4f39-4119-a8a0-cdc0e2507820"},"vehicle_type_id":"4","last_reported":1726657680,"current_range_meters":32000,"station_id":"ce4bhr12rcd13ifvqhqg","pricing_plan_id":"cebpf4jnsgd1na2vs0mg"},{"bike_id":"7231c74c-5278-429f-90a8-a50ab6504eee","system_id":"levelo_inurba_marseille","lat":43.32493,"lon":5.36561,"is_reserved":false,"is_disabled":false,"rental_uris":{"android":"levelo://app?vid=7231c74c-5278-429f-90a8-a50ab6504eee","ios":"levelo://app?vid=7231c74c-5278-429f-90a8-a50ab6504eee"},"vehicle_type_id":"4","last_reported":1726657680,"current_range_meters":28000,"station_id":"ce4bhs12rcd13ifvqhvg","pricing_plan_id":"cebpf4jnsgd1na2vs0mg"},{"bike_id":"46f743da-a1c0-43c9-9dd6-12126b4e2f1b","system_id":"levelo_inurba_marseille","lat":43.29707,"lon":5.36598,"is_reserved":false,"is_disabled":false,"rental_uris":{"android":"levelo://app?vid=46f743da-a1c0-43c9-9dd6-12126b4e2f1b","ios":"levelo://app?vid=46f743da-a1c0-43c9-9dd6-12126b4e2f1b"},"vehicle_type_id":"4","last_reported":1726657680,"current_range_meters":25200,"station_id":"ce4bgn12rcd13ifvqbt0","pricing_plan_id":"cebpf4jnsgd1na2vs0mg"},{"bike_id":"680be1dc-3a23-4c18-ae00-e69e8dd741b2","system_id":"levelo_inurba_marseille","lat":43.29304,"lon":5.37182,"is_reserved":false,"is_disabled":false,"rental_uris":{"android":"levelo://app?vid=680be1dc-3a23-4c18-ae00-e69e8dd741b2","ios":"levelo://app?vid=680be1dc-3a23-4c18-ae00-e69e8dd741b2"},"vehicle_type_id":"4","last_reported":1726657680,"current_range_meters":30800,"station_id":"ce4bgh92rcd13ifvqb40","pricing_plan_id":"cebpf4jnsgd1na2vs0mg"},{"bike_id":"ab24a954-34a3-48ed-808a-51904da89fe4","system_id":"levelo_inurba_marseille","lat":43.28081,"lon":5.39666,"is_reserved":false,"is_disabled":false,"rental_uris":{"android":"levelo://app?vid=ab24a954-34a3-48ed-808a-51904da89fe4","ios":"levelo://app?vid=ab24a954-34a3-48ed-808a-51904da89fe4"},"vehicle_type_id":"4","last_reported":1726657680,"current_range_meters":33600,"station_id":"ce4bho12rcd13ifvqh2g","pricing_plan_id":"cebpf4jnsgd1na2vs0mg"},{"bike_id":"d587a4e8-9d3c-448a-9889-f5b326de3458","system_id":"levelo_inurba_marseille","lat":43.285776,"lon":5.394923,"is_reserved":false,"is_disabled":false,"rental_uris":{"android":"levelo://app?vid=d587a4e8-9d3c-448a-9889-f5b326de3458","ios":"levelo://app?vid=d587a4e8-9d3c-448a-9889-f5b326de3458"},"vehicle_type_id":"4","last_reported":1726657680,"current_range_meters":11600,"station_id":"ce4bhoh2rcd13ifvqh5g","pricing_plan_id":"cebpf4jnsgd1na2vs0mg"},{"bike_id":"d7a49801-66b3-4390-b2d3-9fad1e4b9ab7","system_id":"levelo_inurba_marseille","lat":43.28687,"lon":5.37416,"is_reserved":false,"is_disabled":false,"rental_uris":{"android":"levelo://app?vid=d7a49801-66b3-4390-b2d3-9fad1e4b9ab7","ios":"levelo://app?vid=d7a49801-66b3-4390-b2d3-9fad1e4b9ab7"},"vehicle_type_id":"4","last_reported":1726657680,"current_range_meters":39200,"station_id":"ce4bh3p2rcd13ifvqdq0","pricing_plan_id":"cebpf4jnsgd1na2vs0mg"},{"bike_id":"9de036c4-decb-465b-a775-32e663a8924f","system_id":"levelo_inurba_marseille","lat":43.33021,"lon":5.39026,"is_reserved":false,"is_disabled":false,"rental_uris":{"android":"levelo://app?vid=9de036c4-decb-465b-a775-32e663a8924f","ios":"levelo://app?vid=9de036c4-decb-465b-a775-32e663a8924f"},"vehicle_type_id":"4","last_reported":1726657680,"current_range_meters":35200,"station_id":"ce4bhr92rcd13ifvqhrg","pricing_plan_id":"cebpf4jnsgd1na2vs0mg"},{"bike_id":"6ff4ce02-3ef0-442c-aeaa-002d5008e739","system_id":"levelo_inurba_marseille","lat":43.32484,"lon":5.3657,"is_reserved":false,"is_disabled":false,"rental_uris":{"android":"levelo://app?vid=6ff4ce02-3ef0-442c-aeaa-002d5008e739","ios":"levelo://app?vid=6ff4ce02-3ef0-442c-aeaa-002d5008e739"},"vehicle_type_id":"4","last_reported":1726657680,"current_range_meters":30400,"station_id":"ce4bhs12rcd13ifvqhvg","pricing_plan_id":"cebpf4jnsgd1na2vs0mg"},{"bike_id":"ba18b907-3678-4cbf-b957-7c6dc3cf3b56","system_id":"levelo_inurba_marseille","lat":43.27489,"lon":5.42452,"is_reserved":false,"is_disabled":false,"rental_uris":{"android":"levelo://app?vid=ba18b907-3678-4cbf-b957-7c6dc3cf3b56","ios":"levelo://app?vid=ba18b907-3678-4cbf-b957-7c6dc3cf3b56"},"vehicle_type_id":"4","last_reported":1726657680,"current_range_meters":3200,"station_id":"ce4bhn92rcd13ifvqgrg","pricing_plan_id":"cebpf4jnsgd1na2vs0mg"},{"bike_id":"bb226f1b-17cd-4440-8791-2c340095eb87","system_id":"levelo_inurba_marseille","lat":43.302842,"lon":5.400923,"is_reserved":false,"is_disabled":false,"rental_uris":{"android":"levelo://app?vid=bb226f1b-17cd-4440-8791-2c340095eb87","ios":"levelo://app?vid=bb226f1b-17cd-4440-8791-2c340095eb87"},"vehicle_type_id":"4","last_reported":1726657680,"current_range_meters":19200,"station_id":"ce4bhh12rcd13ifvqfg0","pricing_plan_id":"cebpf4jnsgd1na2vs0mg"},{"bike_id":"e1511f40-b206-41e9-a0dc-78b7df05ce8e","system_id":"levelo_inurba_marseille","lat":43.29964,"lon":5.3718,"is_reserved":false,"is_disabled":false,"rental_uris":{"android":"levelo://app?vid=e1511f40-b206-41e9-a0dc-78b7df05ce8e","ios":"levelo://app?vid=e1511f40-b206-41e9-a0dc-78b7df05ce8e"},"vehicle_type_id":"4","last_reported":1726657680,"current_range_meters":28000,"station_id":"ce4bhap2rcd13ifvqek0","pricing_plan_id":"cebpf4jnsgd1na2vs0mg"},{"bike_id":"cbaf03bf-0340-4293-a424-18d0ef0b595f","system_id":"levelo_inurba_marseille","lat":43.29899,"lon":5.43666,"is_reserved":false,"is_disabled":false,"rental_uris":{"android":"levelo://app?vid=cbaf03bf-0340-4293-a424-18d0ef0b595f","ios":"levelo://app?vid=cbaf03bf-0340-4293-a424-18d0ef0b595f"},"vehicle_type_id":"4","last_reported":1726657680,"current_range_meters":16400,"station_id":"ce4bhpp2rcd13ifvqhfg","pricing_plan_id":"cebpf4jnsgd1na2vs0mg"},{"bike_id":"4a418309-f677-48c8-891d-32b3b9c23345","system_id":"levelo_inurba_marseille","lat":43.23182,"lon":5.39987,"is_reserved":false,"is_disabled":false,"rental_uris":{"android":"levelo://app?vid=4a418309-f677-48c8-891d-32b3b9c23345","ios":"levelo://app?vid=4a418309-f677-48c8-891d-32b3b9c23345"},"vehicle_type_id":"4","last_reported":1726657680,"current_range_meters":28000,"station_id":"ce4bhn12rcd13ifvqgqg","pricing_plan_id":"cebpf4jnsgd1na2vs0mg"},{"bike_id":"23b0153e-663a-4722-892a-4e4018be3aeb","system_id":"levelo_inurba_marseille","lat":43.286926,"lon":5.373864,"is_reserved":false,"is_disabled":false,"rental_uris":{"android":"levelo://app?vid=23b0153e-663a-4722-892a-4e4018be3aeb","ios":"levelo://app?vid=23b0153e-663a-4722-892a-4e4018be3aeb"},"vehicle_type_id":"4","last_reported":1726657680,"current_range_meters":32000,"station_id":"ce4bh3p2rcd13ifvqdq0","pricing_plan_id":"cebpf4jnsgd1na2vs0mg"},{"bike_id":"bbc79cb4-4676-417f-b577-5eb7912639d9","system_id":"levelo_inurba_marseille","lat":43.31355,"lon":5.36696,"is_reserved":false,"is_disabled":false,"rental_uris":{"android":"levelo://app?vid=bbc79cb4-4676-417f-b577-5eb7912639d9","ios":"levelo://app?vid=bbc79cb4-4676-417f-b577-5eb7912639d9"},"vehicle_type_id":"4","last_reported":1726657680,"current_range_meters":30400,"station_id":"ce4bgr92rcd13ifvqc6g","pricing_plan_id":"cebpf4jnsgd1na2vs0mg"},{"bike_id":"29fb8db0-bc72-45e8-9718-014b21f653e2","system_id":"levelo_inurba_marseille","lat":43.30534,"lon":5.36546,"is_reserved":false,"is_disabled":false,"rental_uris":{"android":"levelo://app?vid=29fb8db0-bc72-45e8-9718-014b21f653e2","ios":"levelo://app?vid=29fb8db0-bc72-45e8-9718-014b21f653e2"},"vehicle_type_id":"4","last_reported":1726657680,"current_range_meters":36800,"station_id":"ce4bgs12rcd13ifvqcag","pricing_plan_id":"cebpf4jnsgd1na2vs0mg"},{"bike_id":"f017661d-bf83-4cb8-a7e8-688b37684b8c","system_id":"levelo_inurba_marseille","lat":43.29198,"lon":5.39312,"is_reserved":false,"is_disabled":false,"rental_uris":{"android":"levelo://app?vid=f017661d-bf83-4cb8-a7e8-688b37684b8c","ios":"levelo://app?vid=f017661d-bf83-4cb8-a7e8-688b37684b8c"},"vehicle_type_id":"4","last_reported":1726657680,"current_range_meters":30000,"station_id":"ce4bh192rcd13ifvqdd0","pricing_plan_id":"cebpf4jnsgd1na2vs0mg"},{"bike_id":"fa2e946d-01fe-4bb4-a2b0-55af60a0bcec","system_id":"levelo_inurba_marseille","lat":43.33725,"lon":5.39177,"is_reserved":false,"is_disabled":false,"rental_uris":{"android":"levelo://app?vid=fa2e946d-01fe-4bb4-a2b0-55af60a0bcec","ios":"levelo://app?vid=fa2e946d-01fe-4bb4-a2b0-55af60a0bcec"},"vehicle_type_id":"4","last_reported":1726657680,"current_range_meters":38400,"station_id":"ce4bhr92rcd13ifvqhsg","pricing_plan_id":"cebpf4jnsgd1na2vs0mg"},{"bike_id":"a225e308-9f3b-4239-997c-85b47c044156","system_id":"levelo_inurba_marseille","lat":43.25926,"lon":5.40909,"is_reserved":false,"is_disabled":false,"rental_uris":{"android":"levelo://app?vid=a225e308-9f3b-4239-997c-85b47c044156","ios":"levelo://app?vid=a225e308-9f3b-4239-997c-85b47c044156"},"vehicle_type_id":"4","last_reported":1726657680,"current_range_meters":30000,"station_id":"ce4bhm92rcd13ifvqglg","pricing_plan_id":"cebpf4jnsgd1na2vs0mg"},{"bike_id":"9ec60976-8826-4da0-90c7-ff0627b6dff3","system_id":"levelo_inurba_marseille","lat":43.30194,"lon":5.3663,"is_reserved":false,"is_disabled":false,"rental_uris":{"android":"levelo://app?vid=9ec60976-8826-4da0-90c7-ff0627b6dff3","ios":"levelo://app?vid=9ec60976-8826-4da0-90c7-ff0627b6dff3"},"vehicle_type_id":"4","last_reported":1726657680,"current_range_meters":7200,"station_id":"ce4bgrh2rcd13ifvqc8g","pricing_plan_id":"cebpf4jnsgd1na2vs0mg"},{"bike_id":"7f8c5afb-39c9-452c-975f-bc75bc43fcf9","system_id":"levelo_inurba_marseille","lat":43.30531,"lon":5.36536,"is_reserved":false,"is_disabled":false,"rental_uris":{"android":"levelo://app?vid=7f8c5afb-39c9-452c-975f-bc75bc43fcf9","ios":"levelo://app?vid=7f8c5afb-39c9-452c-975f-bc75bc43fcf9"},"vehicle_type_id":"4","last_reported":1726657680,"current_range_meters":2800,"station_id":"ce4bgs12rcd13ifvqcag","pricing_plan_id":"cebpf4jnsgd1na2vs0mg"},{"bike_id":"328d45f9-980e-4811-97c0-47d761861509","system_id":"levelo_inurba_marseille","lat":43.29847,"lon":5.37836,"is_reserved":false,"is_disabled":false,"rental_uris":{"android":"levelo://app?vid=328d45f9-980e-4811-97c0-47d761861509","ios":"levelo://app?vid=328d45f9-980e-4811-97c0-47d761861509"},"vehicle_type_id":"4","last_reported":1726657680,"current_range_meters":11600,"station_id":"ce4bgkh2rcd13ifvqbl0","pricing_plan_id":"cebpf4jnsgd1na2vs0mg"},{"bike_id":"bd2f5fb4-c8f0-45cb-a389-99c98cdaaace","system_id":"levelo_inurba_marseille","lat":43.2668,"lon":5.3827,"is_reserved":false,"is_disabled":false,"rental_uris":{"android":"levelo://app?vid=bd2f5fb4-c8f0-45cb-a389-99c98cdaaace","ios":"levelo://app?vid=bd2f5fb4-c8f0-45cb-a389-99c98cdaaace"},"vehicle_type_id":"4","last_reported":1726657680,"current_range_meters":36800,"station_id":"ce4bhg92rcd13ifvqf90","pricing_plan_id":"cebpf4jnsgd1na2vs0mg"},{"bike_id":"11bedb75-4f1b-45b8-96b0-4fd2f3ba6897","system_id":"levelo_inurba_marseille","lat":43.30138,"lon":5.37407,"is_reserved":false,"is_disabled":false,"rental_uris":{"android":"levelo://app?vid=11bedb75-4f1b-45b8-96b0-4fd2f3ba6897","ios":"levelo://app?vid=11bedb75-4f1b-45b8-96b0-4fd2f3ba6897"},"vehicle_type_id":"4","last_reported":1726657680,"current_range_meters":9200,"station_id":"ce4bgs92rcd13ifvqcc0","pricing_plan_id":"cebpf4jnsgd1na2vs0mg"},{"bike_id":"fa690805-233a-4a70-a9f3-33f1b67cdb1f","system_id":"levelo_inurba_marseille","lat":43.32281,"lon":5.3826,"is_reserved":false,"is_disabled":false,"rental_uris":{"android":"levelo://app?vid=fa690805-233a-4a70-a9f3-33f1b67cdb1f","ios":"levelo://app?vid=fa690805-233a-4a70-a9f3-33f1b67cdb1f"},"vehicle_type_id":"4","last_reported":1726657680,"current_range_meters":28000,"station_id":"ce4bhr12rcd13ifvqhqg","pricing_plan_id":"cebpf4jnsgd1na2vs0mg"},{"bike_id":"d4dee6ce-09ee-4472-9917-4640f642bb72","system_id":"levelo_inurba_marseille","lat":43.2293,"lon":5.35379,"is_reserved":false,"is_disabled":false,"rental_uris":{"android":"levelo://app?vid=d4dee6ce-09ee-4472-9917-4640f642bb72","ios":"levelo://app?vid=d4dee6ce-09ee-4472-9917-4640f642bb72"},"vehicle_type_id":"4","last_reported":1726657680,"current_range_meters":28800,"station_id":"cpo3532slgdg3j2ikp40","pricing_plan_id":"cebpf4jnsgd1na2vs0mg"},{"bike_id":"8b608b96-fedf-4511-8d4b-09bad2606e1a","system_id":"levelo_inurba_marseille","lat":43.27726,"lon":5.41136,"is_reserved":false,"is_disabled":false,"rental_uris":{"android":"levelo://app?vid=8b608b96-fedf-4511-8d4b-09bad2606e1a","ios":"levelo://app?vid=8b608b96-fedf-4511-8d4b-09bad2606e1a"},"vehicle_type_id":"4","last_reported":1726657680,"current_range_meters":5600,"station_id":"","pricing_plan_id":"cebpf4jnsgd1na2vs0mg"},{"bike_id":"c96c6fff-53b7-43f8-a2a7-a6846727fe79","system_id":"levelo_inurba_marseille","lat":43.24644,"lon":5.38887,"is_reserved":false,"is_disabled":false,"rental_uris":{"android":"levelo://app?vid=c96c6fff-53b7-43f8-a2a7-a6846727fe79","ios":"levelo://app?vid=c96c6fff-53b7-43f8-a2a7-a6846727fe79"},"vehicle_type_id":"4","last_reported":1726657680,"current_range_meters":22000,"station_id":"ce4bhg12rcd13ifvqf60","pricing_plan_id":"cebpf4jnsgd1na2vs0mg"},{"bike_id":"74fcf1e7-64a1-42f8-bcec-bf0af491e527","system_id":"levelo_inurba_marseille","lat":43.31713,"lon":5.43705,"is_reserved":false,"is_disabled":false,"rental_uris":{"android":"levelo://app?vid=74fcf1e7-64a1-42f8-bcec-bf0af491e527","ios":"levelo://app?vid=74fcf1e7-64a1-42f8-bcec-bf0af491e527"},"vehicle_type_id":"4","last_reported":1726657680,"current_range_meters":39200,"station_id":"ce4bhp92rcd13ifvqhcg","pricing_plan_id":"cebpf4jnsgd1na2vs0mg"},{"bike_id":"1568d2cb-32bc-49ce-8e47-763403fa167e","system_id":"levelo_inurba_marseille","lat":43.31348,"lon":5.36702,"is_reserved":false,"is_disabled":false,"rental_uris":{"android":"levelo://app?vid=1568d2cb-32bc-49ce-8e47-763403fa167e","ios":"levelo://app?vid=1568d2cb-32bc-49ce-8e47-763403fa167e"},"vehicle_type_id":"4","last_reported":1726657680,"current_range_meters":31200,"station_id":"ce4bgr92rcd13ifvqc6g","pricing_plan_id":"cebpf4jnsgd1na2vs0mg"},{"bike_id":"e342b0f2-7028-49d0-8456-0f48bd3fcf74","system_id":"levelo_inurba_marseille","lat":43.27417,"lon":5.424543,"is_reserved":false,"is_disabled":false,"rental_uris":{"android":"levelo://app?vid=e342b0f2-7028-49d0-8456-0f48bd3fcf74","ios":"levelo://app?vid=e342b0f2-7028-49d0-8456-0f48bd3fcf74"},"vehicle_type_id":"4","last_reported":1726657680,"current_range_meters":28000,"station_id":"ce4bhl12rcd13ifvqgf0","pricing_plan_id":"cebpf4jnsgd1na2vs0mg"},{"bike_id":"b05edf11-fa56-4784-ac49-4358032ff923","system_id":"levelo_inurba_marseille","lat":43.28932,"lon":5.36643,"is_reserved":false,"is_disabled":false,"rental_uris":{"android":"levelo://app?vid=b05edf11-fa56-4784-ac49-4358032ff923","ios":"levelo://app?vid=b05edf11-fa56-4784-ac49-4358032ff923"},"vehicle_type_id":"4","last_reported":1726657680,"current_range_meters":14800,"station_id":"ce4bhap2rcd13ifvqek0","pricing_plan_id":"cebpf4jnsgd1na2vs0mg"},{"bike_id":"2ae9adc7-73a4-4996-94a1-bd75ddcf6673","system_id":"levelo_inurba_marseille","lat":43.30903,"lon":5.36857,"is_reserved":false,"is_disabled":false,"rental_uris":{"android":"levelo://app?vid=2ae9adc7-73a4-4996-94a1-bd75ddcf6673","ios":"levelo://app?vid=2ae9adc7-73a4-4996-94a1-bd75ddcf6673"},"vehicle_type_id":"4","last_reported":1726657680,"current_range_meters":34800,"station_id":"ce4bgn92rcd13ifvqbvg","pricing_plan_id":"cebpf4jnsgd1na2vs0mg"},{"bike_id":"0f7561aa-0fa9-417e-b432-a5c4a0588518","system_id":"levelo_inurba_marseille","lat":43.22933,"lon":5.35376,"is_reserved":false,"is_disabled":false,"rental_uris":{"android":"levelo://app?vid=0f7561aa-0fa9-417e-b432-a5c4a0588518","ios":"levelo://app?vid=0f7561aa-0fa9-417e-b432-a5c4a0588518"},"vehicle_type_id":"4","last_reported":1726657680,"current_range_meters":23200,"station_id":"cpo3532slgdg3j2ikp40","pricing_plan_id":"cebpf4jnsgd1na2vs0mg"},{"bike_id":"8d545e38-8d8b-4b3e-b0a8-34bdd937492e","system_id":"levelo_inurba_marseille","lat":43.25931,"lon":5.40903,"is_reserved":false,"is_disabled":false,"rental_uris":{"android":"levelo://app?vid=8d545e38-8d8b-4b3e-b0a8-34bdd937492e","ios":"levelo://app?vid=8d545e38-8d8b-4b3e-b0a8-34bdd937492e"},"vehicle_type_id":"4","last_reported":1726657680,"current_range_meters":8000,"station_id":"ce4bhm92rcd13ifvqglg","pricing_plan_id":"cebpf4jnsgd1na2vs0mg"},{"bike_id":"ae55e842-b8f1-46b9-b0f1-425fe08e8086","system_id":"levelo_inurba_marseille","lat":43.29939,"lon":5.36534,"is_reserved":false,"is_disabled":false,"rental_uris":{"android":"levelo://app?vid=ae55e842-b8f1-46b9-b0f1-425fe08e8086","ios":"levelo://app?vid=ae55e842-b8f1-46b9-b0f1-425fe08e8086"},"vehicle_type_id":"4","last_reported":1726657680,"current_range_meters":30400,"station_id":"ce4bgm92rcd13ifvqbr0","pricing_plan_id":"cebpf4jnsgd1na2vs0mg"},{"bike_id":"8f01edf6-f082-4c16-ae5f-8a767834b157","system_id":"levelo_inurba_marseille","lat":43.2748,"lon":5.42462,"is_reserved":false,"is_disabled":false,"rental_uris":{"android":"levelo://app?vid=8f01edf6-f082-4c16-ae5f-8a767834b157","ios":"levelo://app?vid=8f01edf6-f082-4c16-ae5f-8a767834b157"},"vehicle_type_id":"4","last_reported":1726657680,"current_range_meters":22800,"station_id":"ce4bhn92rcd13ifvqgrg","pricing_plan_id":"cebpf4jnsgd1na2vs0mg"},{"bike_id":"fb754b72-610e-4009-8567-0022f3061985","system_id":"levelo_inurba_marseille","lat":43.26561,"lon":5.3728,"is_reserved":false,"is_disabled":false,"rental_uris":{"android":"levelo://app?vid=fb754b72-610e-4009-8567-0022f3061985","ios":"levelo://app?vid=fb754b72-610e-4009-8567-0022f3061985"},"vehicle_type_id":"4","last_reported":1726657680,"current_range_meters":37600,"station_id":"ce4bhg12rcd13ifvqf70","pricing_plan_id":"cebpf4jnsgd1na2vs0mg"},{"bike_id":"19b41e84-3d25-4b44-903d-67b69827c344","system_id":"levelo_inurba_marseille","lat":43.23179,"lon":5.39992,"is_reserved":false,"is_disabled":false,"rental_uris":{"android":"levelo://app?vid=19b41e84-3d25-4b44-903d-67b69827c344","ios":"levelo://app?vid=19b41e84-3d25-4b44-903d-67b69827c344"},"vehicle_type_id":"4","last_reported":1726657680,"current_range_meters":4000,"station_id":"ce4bhn12rcd13ifvqgqg","pricing_plan_id":"cebpf4jnsgd1na2vs0mg"},{"bike_id":"869c4da3-1d77-45a9-9a67-45594993a603","system_id":"levelo_inurba_marseille","lat":43.28844,"lon":5.39319,"is_reserved":false,"is_disabled":false,"rental_uris":{"android":"levelo://app?vid=869c4da3-1d77-45a9-9a67-45594993a603","ios":"levelo://app?vid=869c4da3-1d77-45a9-9a67-45594993a603"},"vehicle_type_id":"4","last_reported":1726657680,"current_range_meters":35200,"station_id":"ce4bh2p2rcd13ifvqdi0","pricing_plan_id":"cebpf4jnsgd1na2vs0mg"},{"bike_id":"498a9975-f93a-42dc-9b2f-06fb60860407","system_id":"levelo_inurba_marseille","lat":43.23149,"lon":5.43727,"is_reserved":false,"is_disabled":false,"rental_uris":{"android":"levelo://app?vid=498a9975-f93a-42dc-9b2f-06fb60860407","ios":"levelo://app?vid=498a9975-f93a-42dc-9b2f-06fb60860407"},"vehicle_type_id":"4","last_reported":1726657680,"current_range_meters":24800,"station_id":"ce4bhmp2rcd13ifvqgog","pricing_plan_id":"cebpf4jnsgd1na2vs0mg"},{"bike_id":"ad01d428-f901-4c98-bbe4-108fa2ef2f53","system_id":"levelo_inurba_marseille","lat":43.26678,"lon":5.38271,"is_reserved":false,"is_disabled":false,"rental_uris":{"android":"levelo://app?vid=ad01d428-f901-4c98-bbe4-108fa2ef2f53","ios":"levelo://app?vid=ad01d428-f901-4c98-bbe4-108fa2ef2f53"},"vehicle_type_id":"4","last_reported":1726657680,"current_range_meters":19200,"station_id":"ce4bhg92rcd13ifvqf90","pricing_plan_id":"cebpf4jnsgd1na2vs0mg"},{"bike_id":"15b391f8-82a1-45ba-80c4-3a85015bd649","system_id":"levelo_inurba_marseille","lat":43.32476,"lon":5.36565,"is_reserved":false,"is_disabled":false,"rental_uris":{"android":"levelo://app?vid=15b391f8-82a1-45ba-80c4-3a85015bd649","ios":"levelo://app?vid=15b391f8-82a1-45ba-80c4-3a85015bd649"},"vehicle_type_id":"4","last_reported":1726657680,"current_range_meters":36000,"station_id":"ce4bhs12rcd13ifvqhvg","pricing_plan_id":"cebpf4jnsgd1na2vs0mg"},{"bike_id":"00319cea-f05d-4e16-b760-b66961d1ed61","system_id":"levelo_inurba_marseille","lat":43.25937,"lon":5.40907,"is_reserved":false,"is_disabled":false,"rental_uris":{"android":"levelo://app?vid=00319cea-f05d-4e16-b760-b66961d1ed61","ios":"levelo://app?vid=00319cea-f05d-4e16-b760-b66961d1ed61"},"vehicle_type_id":"4","last_reported":1726657680,"current_range_meters":27600,"station_id":"ce4bhm92rcd13ifvqglg","pricing_plan_id":"cebpf4jnsgd1na2vs0mg"},{"bike_id":"7bb3d27d-6090-4033-82d0-86fa4b2ffe9a","system_id":"levelo_inurba_marseille","lat":43.29842,"lon":5.36263,"is_reserved":false,"is_disabled":false,"rental_uris":{"android":"levelo://app?vid=7bb3d27d-6090-4033-82d0-86fa4b2ffe9a","ios":"levelo://app?vid=7bb3d27d-6090-4033-82d0-86fa4b2ffe9a"},"vehicle_type_id":"4","last_reported":1726657680,"current_range_meters":38800,"station_id":"ce4bgpp2rcd13ifvqc3g","pricing_plan_id":"cebpf4jnsgd1na2vs0mg"},{"bike_id":"1fcbd01a-427d-43a5-9535-912c25efa134","system_id":"levelo_inurba_marseille","lat":43.232,"lon":5.35545,"is_reserved":false,"is_disabled":false,"rental_uris":{"android":"levelo://app?vid=1fcbd01a-427d-43a5-9535-912c25efa134","ios":"levelo://app?vid=1fcbd01a-427d-43a5-9535-912c25efa134"},"vehicle_type_id":"4","last_reported":1726657680,"current_range_meters":37600,"station_id":"ce4bhu92rcd13ifvqi70","pricing_plan_id":"cebpf4jnsgd1na2vs0mg"},{"bike_id":"a682371d-ede3-4757-8d77-ca527ee895ef","system_id":"levelo_inurba_marseille","lat":43.27375,"lon":5.36253,"is_reserved":false,"is_disabled":false,"rental_uris":{"android":"levelo://app?vid=a682371d-ede3-4757-8d77-ca527ee895ef","ios":"levelo://app?vid=a682371d-ede3-4757-8d77-ca527ee895ef"},"vehicle_type_id":"4","last_reported":1726657680,"current_range_meters":38800,"station_id":"ce4bhbh2rcd13ifvqeo0","pricing_plan_id":"cebpf4jnsgd1na2vs0mg"},{"bike_id":"38fe9352-6de4-4cfc-9cd2-3b888e14bfba","system_id":"levelo_inurba_marseille","lat":43.24176,"lon":5.39733,"is_reserved":false,"is_disabled":false,"rental_uris":{"android":"levelo://app?vid=38fe9352-6de4-4cfc-9cd2-3b888e14bfba","ios":"levelo://app?vid=38fe9352-6de4-4cfc-9cd2-3b888e14bfba"},"vehicle_type_id":"4","last_reported":1726657680,"current_range_meters":36800,"station_id":"ce4bhn12rcd13ifvqgpg","pricing_plan_id":"cebpf4jnsgd1na2vs0mg"},{"bike_id":"27109f1d-8ca1-4ba1-8193-7ca41a45028e","system_id":"levelo_inurba_marseille","lat":43.2669,"lon":5.38267,"is_reserved":false,"is_disabled":false,"rental_uris":{"android":"levelo://app?vid=27109f1d-8ca1-4ba1-8193-7ca41a45028e","ios":"levelo://app?vid=27109f1d-8ca1-4ba1-8193-7ca41a45028e"},"vehicle_type_id":"4","last_reported":1726657680,"current_range_meters":30400,"station_id":"ce4bhg92rcd13ifvqf90","pricing_plan_id":"cebpf4jnsgd1na2vs0mg"},{"bike_id":"497fe816-52dc-4203-b3d5-3ab7071c42cd","system_id":"levelo_inurba_marseille","lat":43.307465,"lon":5.371591,"is_reserved":false,"is_disabled":false,"rental_uris":{"android":"levelo://app?vid=497fe816-52dc-4203-b3d5-3ab7071c42cd","ios":"levelo://app?vid=497fe816-52dc-4203-b3d5-3ab7071c42cd"},"vehicle_type_id":"4","last_reported":1726657680,"current_range_meters":25600,"station_id":"ce4bguh2rcd13ifvqckg","pricing_plan_id":"cebpf4jnsgd1na2vs0mg"},{"bike_id":"e5ce120e-f189-4882-876a-d185220bcf95","system_id":"levelo_inurba_marseille","lat":43.33028,"lon":5.39044,"is_reserved":false,"is_disabled":false,"rental_uris":{"android":"levelo://app?vid=e5ce120e-f189-4882-876a-d185220bcf95","ios":"levelo://app?vid=e5ce120e-f189-4882-876a-d185220bcf95"},"vehicle_type_id":"4","last_reported":1726657680,"current_range_meters":10800,"station_id":"ce4bhr92rcd13ifvqhrg","pricing_plan_id":"cebpf4jnsgd1na2vs0mg"},