{"last_updated":1711818350,"ttl":30,"version":"2.2","data":{"bikes":[{"bike_id":"274b2de5-f9c1-49b3-b48d-a57f8fa3991d","system_id":"levelo_inurba_marseille","lat":43.313391,"lon":5.36706,"is_reserved":false,"is_disabled":false,"rental_uris":{"android":"levelo://app?vid=274b2de5-f9c1-49b3-b48d-a57f8fa3991d","ios":"levelo://app?vid=274b2de5-f9c1-49b3-b48d-a57f8fa3991d"},"vehicle_type_id":"4","last_reported":1711818350,"current_range_meters":30400,"station_id":"ce4bgr92rcd13ifvqc6g","pricing_plan_id":"cebpf4jnsgd1na2vs0mg"},{"bike_id":"6b39b055-586f-40c3-965d-b0b4ed624cb0","system_id":"levelo_inurba_marseille","lat":43.312239,"lon":5.368562,"is_reserved":false,"is_disabled":false,"rental_uris":{"android":"levelo://app?vid=6b39b055-586f-40c3-965d-b0b4ed624cb0","ios":"levelo://app?vid=6b39b055-586f-40c3-965d-b0b4ed624cb0"},"vehicle_type_id":"4","last_reported":1711818350,"current_range_meters":10400,"station_id":"ce4bgl92rcd13ifvqbq0","pricing_plan_id":"cebpf4jnsgd1na2vs0mg"},{"bike_id":"6025ff19-cc03-4600-88df-d0adc42ea938","system_id":"levelo_inurba_marseille","lat":43.312239,"lon":5.368562,"is_reserved":false,"is_disabled":false,"rental_uris":{"android":"levelo://app?vid=6025ff19-cc03-4600-88df-d0adc42ea938","ios":"levelo://app?vid=6025ff19-cc03-4600-88df-d0adc42ea938"},"vehicle_type_id":"4","last_reported":1711818350,"current_range_meters":13600,"station_id":"ce4bgl92rcd13ifvqbq0","pricing_plan_id":"cebpf4jnsgd1na2vs0mg"},{"bike_id":"cbb5fdc6-6f1b-4cbd-a00c-627e85c497a6","system_id":"levelo_inurba_marseille","lat":43.312239,"lon":5.368562,"is_reserved":false,"is_disabled":false,"rental_uris":{"android":"levelo://app?vid=cbb5fdc6-6f1b-4cbd-a00c-627e85c497a6","ios":"levelo://app?vid=cbb5fdc6-6f1b-4cbd-a00c-627e85c497a6"},"vehicle_type_id":"4","last_reported":1711818350,"current_range_meters":30400,"station_id":"ce4bgl92rcd13ifvqbq0","pricing_plan_id":"cebpf4jnsgd1na2vs0mg"},{"bike_id":"3af67cd3-8562-4214-8f48-571f7f355e17","system_id":"levelo_inurba_marseille","lat":43.312239,"lon":5.368562,"is_reserved":false,"is_disabled":false,"rental_uris":{"android":"levelo://app?vid=3af67cd3-8562-4214-8f48-571f7f355e17","ios":"levelo://app?vid=3af67cd3-8562-4214-8f48-571f7f355e17"},"vehicle_type_id":"4","last_reported":1711818350,"current_range_meters":12800,"station_id":"ce4bgl92rcd13ifvqbq0","pricing_plan_id":"cebpf4jnsgd1na2vs0mg"},{"bike_id":"10e1c1f0-ceb7-4b0f-a47d-a231a4e325fd","system_id":"levelo_inurba_marseille","lat":43.312239,"lon":5.368562,"is_reserved":false,"is_disabled":false,"rental_uris":{"android":"levelo://app?vid=10e1c1f0-ceb7-4b0f-a47d-a231a4e325fd","ios":"levelo://app?vid=10e1c1f0-ceb7-4b0f-a47d-a231a4e325fd"},"vehicle_type_id":"4","last_reported":1711818350,"current_range_meters":22800,"station_id":"ce4bgl92rcd13ifvqbq0","pricing_plan_id":"cebpf4jnsgd1na2vs0mg"},{"bike_id":"94c77f86-cdbe-4820-93e0-1974e976dc5f","system_id":"levelo_inurba_marseille","lat":43.312239,"lon":5.368562,"is_reserved":false,"is_disabled":false,"rental_uris":{"android":"levelo://app?vid=94c77f86-cdbe-4820-93e0-1974e976dc5f","ios":"levelo://app?vid=94c77f86-cdbe-4820-93e0-1974e976dc5f"},"vehicle_type_id":"4","last_reported":1711818350,"current_range_meters":8800,"station_id":"ce4bgl92rcd13ifvqbq0","pricing_plan_id":"cebpf4jnsgd1na2vs0mg"},{"bike_id":"3f000913-994d-49bc-87cc-eaa9139d80cd","system_id":"levelo_inurba_marseille","lat":43.312239,"lon":5.368562,"is_reserved":false,"is_disabled":false,"rental_uris":{"android":"levelo://app?vid=3f000913-994d-49bc-87cc-eaa9139d80cd","ios":"levelo://app?vid=3f000913-994d-49bc-87cc-eaa9139d80cd"},"vehicle_type_id":"4","last_reported":1711818350,"current_range_meters":5200,"station_id":"ce4bgl92rcd13ifvqbq0","pricing_plan_id":"cebpf4jnsgd1na2vs0mg"},{"bike_id":"de35af07-58d5-4cd1-8398-59460b22421e","system_id":"levelo_inurba_marseille","lat":43.312239,"lon":5.368562,"is_reserved":false,"is_disabled":false,"rental_uris":{"android":"levelo://app?vid=de35af07-58d5-4cd1-8398-59460b22421e","ios":"levelo://app?vid=de35af07-58d5-4cd1-8398-59460b22421e"},"vehicle_type_id":"4","last_reported":1711818350,"current_range_meters":24000,"station_id":"ce4bgl92rcd13ifvqbq0","pricing_plan_id":"cebpf4jnsgd1na2vs0mg"},{"bike_id":"7b4ea4cf-034f-4f36-9733-134df7eafb66","system_id":"levelo_inurba_marseille","lat":43.312239,"lon":5.368562,"is_reserved":false,"is_disabled":false,"rental_uris":{"android":"levelo://app?vid=7b4ea4cf-034f-4f36-9733-134df7eafb66","ios":"levelo://app?vid=7b4ea4cf-034f-4f36-9733-134df7eafb66"},"vehicle_type_id":"4","last_reported":1711818350,"current_range_meters":17600,"station_id":"ce4bgl92rcd13ifvqbq0","pricing_plan_id":"cebpf4jnsgd1na2vs0mg"},{"bike_id":"7b381d27-f50c-461a-80c7-0799251bd040","system_id":"levelo_inurba_marseille","lat":43.312239,"lon":5.368562,"is_reserved":false,"is_disabled":false,"rental_uris":{"android":"levelo://app?vid=7b381d27-f50c-461a-80c7-0799251bd040","ios":"levelo://app?vid=7b381d27-f50c-461a-80c7-0799251bd040"},"vehicle_type_id":"4","last_reported":1711818350,"current_range_meters":0,"station_id":"ce4bgl92rcd13ifvqbq0","pricing_plan_id":"cebpf4jnsgd1na2vs0mg"},{"bike_id":"7191c091-4765-475e-865a-bf40eaac4a40","system_id":"levelo_inurba_marseille","lat":43.309076,"lon":5.368465,"is_reserved":false,"is_disabled":false,"rental_uris":{"android":"levelo://app?vid=7191c091-4765-475e-865a-bf40eaac4a40","ios":"levelo://app?vid=7191c091-4765-475e-865a-bf40eaac4a40"},"vehicle_type_id":"4","last_reported":1711818350,"current_range_meters":15600,"station_id":"ce4bgn92rcd13ifvqbvg","pricing_plan_id":"cebpf4jnsgd1na2vs0mg"},{"bike_id":"eaa2d76c-b7b3-4c19-97c4-d92828fff7d1","system_id":"levelo_inurba_marseille","lat":43.309076,"lon":5.368465,"is_reserved":false,"is_disabled":false,"rental_uris":{"android":"levelo://app?vid=eaa2d76c-b7b3-4c19-97c4-d92828fff7d1","ios":"levelo://app?vid=eaa2d76c-b7b3-4c19-97c4-d92828fff7d1"},"vehicle_type_id":"4","last_reported":1711818350,"current_range_meters":16400,"station_id":"ce4bgn92rcd13ifvqbvg","pricing_plan_id":"cebpf4jnsgd1na2vs0mg"},{"bike_id":"8d9d89d2-8f06-45bc-9515-3f32ad3eb11c","system_id":"levelo_inurba_marseille","lat":43.309076,"lon":5.368465,"is_reserved":false,"is_disabled":false,"rental_uris":{"android":"levelo://app?vid=8d9d89d2-8f06-45bc-9515-3f32ad3eb11c","ios":"levelo://app?vid=8d9d89d2-8f06-45bc-9515-3f32ad3eb11c"},"vehicle_type_id":"4","last_reported":1711818350,"current_range_meters":23200,"station_id":"ce4bgn92rcd13ifvqbvg","pricing_plan_id":"cebpf4jnsgd1na2vs0mg"},{"bike_id":"edce2ee1-29d9-4948-9d48-7fe3f870004b","system_id":"levelo_inurba_marseille","lat":43.314811,"lon":5.373103,"is_reserved":false,"is_disabled":false,"rental_uris":{"android":"levelo://app?vid=edce2ee1-29d9-4948-9d48-7fe3f870004b","ios":"levelo://app?vid=edce2ee1-29d9-4948-9d48-7fe3f870004b"},"vehicle_type_id":"4","last_reported":1711818350,"current_range_meters":24000,"station_id":"ce4bgt12rcd13ifvqcd0","pricing_plan_id":"cebpf4jnsgd1na2vs0mg"},{"bike_id":"ce5852a2-fbd5-4771-8f4e-c30991409ada","system_id":"levelo_inurba_marseille","lat":43.309039,"lon":5.371797,"is_reserved":false,"is_disabled":false,"rental_uris":{"android":"levelo://app?vid=ce5852a2-fbd5-4771-8f4e-c30991409ada","ios":"levelo://app?vid=ce5852a2-fbd5-4771-8f4e-c30991409ada"},"vehicle_type_id":"4","last_reported":1711818350,"current_range_meters":22800,"station_id":"ce4bguh2rcd13ifvqckg","pricing_plan_id":"cebpf4jnsgd1na2vs0mg"},{"bike_id":"7b17ddef-681c-448a-a49c-9aa3ceb1228f","system_id":"levelo_inurba_marseille","lat":43.309034,"lon":5.371783,"is_reserved":false,"is_disabled":false,"rental_uris":{"android":"levelo://app?vid=7b17ddef-681c-448a-a49c-9aa3ceb1228f","ios":"levelo://app?vid=7b17ddef-681c-448a-a49c-9aa3ceb1228f"},"vehicle_type_id":"4","last_reported":1711818350,"current_range_meters":3200,"station_id":"ce4bguh2rcd13ifvqckg","pricing_plan_id":"cebpf4jnsgd1na2vs0mg"},{"bike_id":"3876bec7-3e9b-4eea-906d-f1c81a1803bb","system_id":"levelo_inurba_marseille","lat":43.309034,"lon":5.371783,"is_reserved":false,"is_disabled":false,"rental_uris":{"android":"levelo://app?vid=3876bec7-3e9b-4eea-906d-f1c81a1803bb","ios":"levelo://app?vid=3876bec7-3e9b-4eea-906d-f1c81a1803bb"},"vehicle_type_id":"4","last_reported":1711818350,"current_range_meters":16000,"station_id":"ce4bguh2rcd13ifvqckg","pricing_plan_id":"cebpf4jnsgd1na2vs0mg"},{"bike_id":"dfd5b66c-e1d5-417f-9f6f-c34f02fd7b32","system_id":"levelo_inurba_marseille","lat":43.30551,"lon":5.36705,"is_reserved":false,"is_disabled":false,"rental_uris":{"android":"levelo://app?vid=dfd5b66c-e1d5-417f-9f6f-c34f02fd7b32","ios":"levelo://app?vid=dfd5b66c-e1d5-417f-9f6f-c34f02fd7b32"},"vehicle_type_id":"4","last_reported":1711818350,"current_range_meters":0,"station_id":"ce4bgrp2rcd13ifvqc9g","pricing_plan_id":"cebpf4jnsgd1na2vs0mg"},{"bike_id":"db8b105a-a2ea-40b8-bfa6-bbe8ac352999","system_id":"levelo_inurba_marseille","lat":43.305368,"lon":5.367343,"is_reserved":false,"is_disabled":false,"rental_uris":{"android":"levelo://app?vid=db8b105a-a2ea-40b8-bfa6-bbe8ac352999","ios":"levelo://app?vid=db8b105a-a2ea-40b8-bfa6-bbe8ac352999"},"vehicle_type_id":"4","last_reported":1711818350,"current_range_meters":0,"station_id":"ce4bgrp2rcd13ifvqc9g","pricing_plan_id":"cebpf4jnsgd1na2vs0mg"},{"bike_id":"93b618aa-90aa-452f-a6c7-c533b26323ec","system_id":"levelo_inurba_marseille","lat":43.30537,"lon":5.367345,"is_reserved":false,"is_disabled":false,"rental_uris":{"android":"levelo://app?vid=93b618aa-90aa-452f-a6c7-c533b26323ec","ios":"levelo://app?vid=93b618aa-90aa-452f-a6c7-c533b26323ec"},"vehicle_type_id":"4","last_reported":1711818350,"current_range_meters":0,"station_id":"ce4bgrp2rcd13ifvqc9g","pricing_plan_id":"cebpf4jnsgd1na2vs0mg"},{"bike_id":"8b098eb2-7ef6-448a-a26e-59127786081b","system_id":"levelo_inurba_marseille","lat":43.30537,"lon":5.367345,"is_reserved":false,"is_disabled":false,"rental_uris":{"android":"levelo://app?vid=8b098eb2-7ef6-448a-a26e-59127786081b","ios":"levelo://app?vid=8b098eb2-7ef6-448a-a26e-59127786081b"},"vehicle_type_id":"4","last_reported":1711818350,"current_range_meters":16000,"station_id":"ce4bgrp2rcd13ifvqc9g","pricing_plan_id":"cebpf4jnsgd1na2vs0mg"},{"bike_id":"aa8ebe41-d79c-418a-b907-d36cf6c36bae","system_id":"levelo_inurba_marseille","lat":43.305413,"lon":5.365421,"is_reserved":false,"is_disabled":false,"rental_uris":{"android":"levelo://app?vid=aa8ebe41-d79c-418a-b907-d36cf6c36bae","ios":"levelo://app?vid=aa8ebe41-d79c-418a-b907-d36cf6c36bae"},"vehicle_type_id":"4","last_reported":1711818350,"current_range_meters":28000,"station_id":"ce4bgs12rcd13ifvqcag","pricing_plan_id":"cebpf4jnsgd1na2vs0mg"},{"bike_id":"7889c703-76ec-4d92-9cbb-1582619a3156","system_id":"levelo_inurba_marseille","lat":43.305706,"lon":5.365654,"is_reserved":false,"is_disabled":false,"rental_uris":{"android":"levelo://app?vid=7889c703-76ec-4d92-9cbb-1582619a3156","ios":"levelo://app?vid=7889c703-76ec-4d92-9cbb-1582619a3156"},"vehicle_type_id":"4","last_reported":1711818350,"current_range_meters":22400,"station_id":"ce4bgs12rcd13ifvqcag","pricing_plan_id":"cebpf4jnsgd1na2vs0mg"},{"bike_id":"b046ccd2-3ebf-4aee-9abb-df16c2a04bce","system_id":"levelo_inurba_marseille","lat":43.305989,"lon":5.37225,"is_reserved":false,"is_disabled":false,"rental_uris":{"android":"levelo://app?vid=b046ccd2-3ebf-4aee-9abb-df16c2a04bce","ios":"levelo://app?vid=b046ccd2-3ebf-4aee-9abb-df16c2a04bce"},"vehicle_type_id":"4","last_reported":1711818350,"current_range_meters":9200,"station_id":"ce4bgqh2rcd13ifvqc4g","pricing_plan_id":"cebpf4jnsgd1na2vs0mg"},{"bike_id":"a14d97df-19ca-49d2-b75d-5604d9071fd6","system_id":"levelo_inurba_marseille","lat":43.311125,"lon":5.377624,"is_reserved":false,"is_disabled":false,"rental_uris":{"android":"levelo://app?vid=a14d97df-19ca-49d2-b75d-5604d9071fd6","ios":"levelo://app?vid=a14d97df-19ca-49d2-b75d-5604d9071fd6"},"vehicle_type_id":"4","last_reported":1711818350,"current_range_meters":4800,"station_id":"ce4bgt92rcd13ifvqcg0","pricing_plan_id":"cebpf4jnsgd1na2vs0mg"},{"bike_id":"772d1fe0-a209-4cae-a50f-75af5b1211cb","system_id":"levelo_inurba_marseille","lat":43.309039,"lon":5.371797,"is_reserved":false,"is_disabled":false,"rental_uris":{"android":"levelo://app?vid=772d1fe0-a209-4cae-a50f-75af5b1211cb","ios":"levelo://app?vid=772d1fe0-a209-4cae-a50f-75af5b1211cb"},"vehicle_type_id":"4","last_reported":1711818350,"current_range_meters":18800,"station_id":"ce4bguh2rcd13ifvqckg","pricing_plan_id":"cebpf4jnsgd1na2vs0mg"},{"bike_id":"bbfed310-f5ca-41c8-bf3a-f83cd6959697","system_id":"levelo_inurba_marseille","lat":43.313254,"lon":5.37881,"is_reserved":false,"is_disabled":false,"rental_uris":{"android":"levelo://app?vid=bbfed310-f5ca-41c8-bf3a-f83cd6959697","ios":"levelo://app?vid=bbfed310-f5ca-41c8-bf3a-f83cd6959697"},"vehicle_type_id":"4","last_reported":1711818350,"current_range_meters":27600,"station_id":"","pricing_plan_id":"cebpf4jnsgd1na2vs0mg"},{"bike_id":"a9c19612-2270-43ac-b96f-bc9b66e3530a","system_id":"levelo_inurba_marseille","lat":43.317075,"lon":5.377367,"is_reserved":false,"is_disabled":false,"rental_uris":{"android":"levelo://app?vid=a9c19612-2270-43ac-b96f-bc9b66e3530a","ios":"levelo://app?vid=a9c19612-2270-43ac-b96f-bc9b66e3530a"},"vehicle_type_id":"4","last_reported":1711818350,"current_range_meters":16400,"station_id":"ce4bgth2rcd13ifvqch0","pricing_plan_id":"cebpf4jnsgd1na2vs0mg"},{"bike_id":"41b5b72f-2d21-4a20-a1e3-52455d840b0b","system_id":"levelo_inurba_marseille","lat":43.317075,"lon":5.377367,"is_reserved":false,"is_disabled":false,"rental_uris":{"android":"levelo://app?vid=41b5b72f-2d21-4a20-a1e3-52455d840b0b","ios":"levelo://app?vid=41b5b72f-2d21-4a20-a1e3-52455d840b0b"},"vehicle_type_id":"4","last_reported":1711818350,"current_range_meters":21200,"station_id":"ce4bgth2rcd13ifvqch0","pricing_plan_id":"cebpf4jnsgd1na2vs0mg"},{"bike_id":"b2f8a7eb-72c9-4d5e-9b6d-6779b5ef32ac","system_id":"levelo_inurba_marseille","lat":43.30452,"lon":5.37343,"is_reserved":false,"is_disabled":false,"rental_uris":{"android":"levelo://app?vid=b2f8a7eb-72c9-4d5e-9b6d-6779b5ef32ac","ios":"levelo://app?vid=b2f8a7eb-72c9-4d5e-9b6d-6779b5ef32ac"},"vehicle_type_id":"4","last_reported":1711818350,"current_range_meters":0,"station_id":"","pricing_plan_id":"cebpf4jnsgd1na2vs0mg"},{"bike_id":"04aec87f-6802-4f4b-bed4-c5645dac909b","system_id":"levelo_inurba_marseille","lat":43.303046,"lon":5.368981,"is_reserved":false,"is_disabled":false,"rental_uris":{"android":"levelo://app?vid=04aec87f-6802-4f4b-bed4-c5645dac909b","ios":"levelo://app?vid=04aec87f-6802-4f4b-bed4-c5645dac909b"},"vehicle_type_id":"4","last_reported":1711818350,"current_range_meters":16000,"station_id":"ce4bgqh2rcd13ifvqc5g","pricing_plan_id":"cebpf4jnsgd1na2vs0mg"},{"bike_id":"cc8c15f1-6022-4512-baf6-d0e401ba00c8","system_id":"levelo_inurba_marseille","lat":43.31524,"lon":5.38039,"is_reserved":false,"is_disabled":false,"rental_uris":{"android":"levelo://app?vid=cc8c15f1-6022-4512-baf6-d0e401ba00c8","ios":"levelo://app?vid=cc8c15f1-6022-4512-baf6-d0e401ba00c8"},"vehicle_type_id":"4","last_reported":1711818350,"current_range_meters":27200,"station_id":"ce4bhsp2rcd13ifvqi50","pricing_plan_id":"cebpf4jnsgd1na2vs0mg"},{"bike_id":"7b4db143-407b-420f-baa7-6494a5536f74","system_id":"levelo_inurba_marseille","lat":43.302957,"lon":5.372327,"is_reserved":false,"is_disabled":false,"rental_uris":{"android":"levelo://app?vid=7b4db143-407b-420f-baa7-6494a5536f74","ios":"levelo://app?vid=7b4db143-407b-420f-baa7-6494a5536f74"},"vehicle_type_id":"4","last_reported":1711818350,"current_range_meters":22400,"station_id":"","pricing_plan_id":"cebpf4jnsgd1na2vs0mg"},{"bike_id":"980951e2-1313-473a-bc41-99409b61407e","system_id":"levelo_inurba_marseille","lat":43.30185,"lon":5.36608,"is_reserved":false,"is_disabled":false,"rental_uris":{"android":"levelo://app?vid=980951e2-1313-473a-bc41-99409b61407e","ios":"levelo://app?vid=980951e2-1313-473a-bc41-99409b61407e"},"vehicle_type_id":"4","last_reported":1711818350,"current_range_meters":15200,"station_id":"ce4bgrh2rcd13ifvqc8g","pricing_plan_id":"cebpf4jnsgd1na2vs0mg"},{"bike_id":"e4779c0b-bf83-4185-b58a-7181e16f2cf3","system_id":"levelo_inurba_marseille","lat":43.302784,"lon":5.377158,"is_reserved":false,"is_disabled":false,"rental_uris":{"android":"levelo://app?vid=e4779c0b-bf83-4185-b58a-7181e16f2cf3","ios":"levelo://app?vid=e4779c0b-bf83-4185-b58a-7181e16f2cf3"},"vehicle_type_id":"4","last_reported":1711818350,"current_range_meters":0,"station_id":"ce4bguh2rcd13ifvqcj0","pricing_plan_id":"cebpf4jnsgd1na2vs0mg"},{"bike_id":"5986fa3f-e80a-4648-af21-43cfae3d80da","system_id":"levelo_inurba_marseille","lat":43.304606,"lon":5.379026,"is_reserved":false,"is_disabled":false,"rental_uris":{"android":"levelo://app?vid=5986fa3f-e80a-4648-af21-43cfae3d80da","ios":"levelo://app?vid=5986fa3f-e80a-4648-af21-43cfae3d80da"},"vehicle_type_id":"4","last_reported":1711818350,"current_range_meters":8000,"station_id":"ce4bgup2rcd13ifvqcn0","pricing_plan_id":"cebpf4jnsgd1na2vs0mg"},{"bike_id":"d5a69b20-2970-48c0-8600-269f136df1f4","system_id":"levelo_inurba_marseille","lat":43.304606,"lon":5.379026,"is_reserved":false,"is_disabled":false,"rental_uris":{"android":"levelo://app?vid=d5a69b20-2970-48c0-8600-269f136df1f4","ios":"levelo://app?vid=d5a69b20-2970-48c0-8600-269f136df1f4"},"vehicle_type_id":"4","last_reported":1711818350,"current_range_meters":27200,"station_id":"ce4bgup2rcd13ifvqcn0","pricing_plan_id":"cebpf4jnsgd1na2vs0mg"},{"bike_id":"9d06c776-4b2d-4c2f-a500-020aef6cf302","system_id":"levelo_inurba_marseille","lat":43.304606,"lon":5.379026,"is_reserved":false,"is_disabled":false,"rental_uris":{"android":"levelo://app?vid=9d06c776-4b2d-4c2f-a500-020aef6cf302","ios":"levelo://app?vid=9d06c776-4b2d-4c2f-a500-020aef6cf302"},"vehicle_type_id":"4","last_reported":1711818350,"current_range_meters":28000,"station_id":"ce4bgup2rcd13ifvqcn0","pricing_plan_id":"cebpf4jnsgd1na2vs0mg"},{"bike_id":"7e9da6a4-e2ca-4f8f-aa99-683a791bbbdd","system_id":"levelo_inurba_marseille","lat":43.304606,"lon":5.379026,"is_reserved":false,"is_disabled":false,"rental_uris":{"android":"levelo://app?vid=7e9da6a4-e2ca-4f8f-aa99-683a791bbbdd","ios":"levelo://app?vid=7e9da6a4-e2ca-4f8f-aa99-683a791bbbdd"},"vehicle_type_id":"4","last_reported":1711818350,"current_range_meters":19600,"station_id":"ce4bgup2rcd13ifvqcn0","pricing_plan_id":"cebpf4jnsgd1na2vs0mg"},{"bike_id":"72a6bb51-fe23-4a1f-8d5b-364e5147216c","system_id":"levelo_inurba_marseille","lat":43.304606,"lon":5.379026,"is_reserved":false,"is_disabled":false,"rental_uris":{"android":"levelo://app?vid=72a6bb51-fe23-4a1f-8d5b-364e5147216c","ios":"levelo://app?vid=72a6bb51-fe23-4a1f-8d5b-364e5147216c"},"vehicle_type_id":"4","last_reported":1711818350,"current_range_meters":31200,"station_id":"ce4bgup2rcd13ifvqcn0","pricing_plan_id":"cebpf4jnsgd1na2vs0mg"},{"bike_id":"8061bd21-02b5-4815-89c8-3b831945482c","system_id":"levelo_inurba_marseille","lat":43.304606,"lon":5.379026,"is_reserved":false,"is_disabled":false,"rental_uris":{"android":"levelo://app?vid=8061bd21-02b5-4815-89c8-3b831945482c","ios":"levelo://app?vid=8061bd21-02b5-4815-89c8-3b831945482c"},"vehicle_type_id":"4","last_reported":1711818350,"current_range_meters":31200,"station_id":"ce4bgup2rcd13ifvqcn0","pricing_plan_id":"cebpf4jnsgd1na2vs0mg"},{"bike_id":"b273f813-7146-46c6-9297-e09e3ce112ff","system_id":"levelo_inurba_marseille","lat":43.304606,"lon":5.379026,"is_reserved":false,"is_disabled":false,"rental_uris":{"android":"levelo://app?vid=b273f813-7146-46c6-9297-e09e3ce112ff","ios":"levelo://app?vid=b273f813-7146-46c6-9297-e09e3ce112ff"},"vehicle_type_id":"4","last_reported":1711818350,"current_range_meters":10400,"station_id":"ce4bgup2rcd13ifvqcn0","pricing_plan_id":"cebpf4jnsgd1na2vs0mg"},{"bike_id":"b7df2112-1ac1-4fe2-9a8c-2e0dd8a1a220","system_id":"levelo_inurba_marseille","lat":43.304606,"lon":5.379026,"is_reserved":false,"is_disabled":false,"rental_uris":{"android":"levelo://app?vid=b7df2112-1ac1-4fe2-9a8c-2e0dd8a1a220","ios":"levelo://app?vid=b7df2112-1ac1-4fe2-9a8c-2e0dd8a1a220"},"vehicle_type_id":"4","last_reported":1711818350,"current_range_meters":14800,"station_id":"ce4bgup2rcd13ifvqcn0","pricing_plan_id":"cebpf4jnsgd1na2vs0mg"},{"bike_id":"a0e5fd4d-e777-4621-b786-78a71bf5ff23","system_id":"levelo_inurba_marseille","lat":43.304606,"lon":5.379026,"is_reserved":false,"is_disabled":false,"rental_uris":{"android":"levelo://app?vid=a0e5fd4d-e777-4621-b786-78a71bf5ff23","ios":"levelo://app?vid=a0e5fd4d-e777-4621-b786-78a71bf5ff23"},"vehicle_type_id":"4","last_reported":1711818350,"current_range_meters":13600,"station_id":"ce4bgup2rcd13ifvqcn0","pricing_plan_id":"cebpf4jnsgd1na2vs0mg"},{"bike_id":"15e27233-cc39-4b48-861e-12123fd5f5e6","system_id":"levelo_inurba_marseille","lat":43.304606,"lon":5.379026,"is_reserved":false,"is_disabled":false,"rental_uris":{"android":"levelo://app?vid=15e27233-cc39-4b48-861e-12123fd5f5e6","ios":"levelo://app?vid=15e27233-cc39-4b48-861e-12123fd5f5e6"},"vehicle_type_id":"4","last_reported":1711818350,"current_range_meters":27600,"station_id":"ce4bgup2rcd13ifvqcn0","pricing_plan_id":"cebpf4jnsgd1na2vs0mg"},{"bike_id":"30a87b6b-afed-40a5-8c64-c7a39b5ccce6","system_id":"levelo_inurba_marseille","lat":43.304606,"lon":5.379026,"is_reserved":false,"is_disabled":false,"rental_uris":{"android":"levelo://app?vid=30a87b6b-afed-40a5-8c64-c7a39b5ccce6","ios":"levelo://app?vid=30a87b6b-afed-40a5-8c64-c7a39b5ccce6"},"vehicle_type_id":"4","last_reported":1711818350,"current_range_meters":26000,"station_id":"ce4bgup2rcd13ifvqcn0","pricing_plan_id":"cebpf4jnsgd1na2vs0mg"},{"bike_id":"59936621-7a7b-4909-8b29-61d07f5e1615","system_id":"levelo_inurba_marseille","lat":43.304606,"lon":5.379026,"is_reserved":false,"is_disabled":false,"rental_uris":{"android":"levelo://app?vid=59936621-7a7b-4909-8b29-61d07f5e1615","ios":"levelo://app?vid=59936621-7a7b-4909-8b29-61d07f5e1615"},"vehicle_type_id":"4","last_reported":1711818350,"current_range_meters":12800,"station_id":"ce4bgup2rcd13ifvqcn0","pricing_plan_id":"cebpf4jnsgd1na2vs0mg"},{"bike_id":"8e29f93e-63b8-44b4-9d89-4d982ae85e9a","system_id":"levelo_inurba_marseille","lat":43.304606,"lon":5.379026,"is_reserved":false,"is_disabled":false,"rental_uris":{"android":"levelo://app?vid=8e29f93e-63b8-44b4-9d89-4d982ae85e9a","ios":"levelo://app?vid=8e29f93e-63b8-44b4-9d89-4d982ae85e9a"},"vehicle_type_id":"4","last_reported":1711818350,"current_range_meters":7600,"station_id":"ce4bgup2rcd13ifvqcn0","pricing_plan_id":"cebpf4jnsgd1na2vs0mg"},{"bike_id":"79e8212a-4e8a-4609-a711-24469872564e","system_id":"levelo_inurba_marseille","lat":43.304606,"lon":5.379026,"is_reserved":false,"is_disabled":false,"rental_uris":{"android":"levelo://app?vid=79e8212a-4e8a-4609-a711-24469872564e","ios":"levelo://app?vid=79e8212a-4e8a-4609-a711-24469872564e"},"vehicle_type_id":"4","last_reported":1711818350,"current_range_meters":31200,"station_id":"ce4bgup2rcd13ifvqcn0","pricing_plan_id":"cebpf4jnsgd1na2vs0mg"},{"bike_id":"a13f6bf9-78ed-47f8-b808-287b9ac81837","system_id":"levelo_inurba_marseille","lat":43.304606,"lon":5.379026,"is_reserved":false,"is_disabled":false,"rental_uris":{"android":"levelo://app?vid=a13f6bf9-78ed-47f8-b808-287b9ac81837","ios":"levelo://app?vid=a13f6bf9-78ed-47f8-b808-287b9ac81837"},"vehicle_type_id":"4","last_reported":1711818350,"current_range_meters":14000,"station_id":"ce4bgup2rcd13ifvqcn0","pricing_plan_id":"cebpf4jnsgd1na2vs0mg"},{"bike_id":"a2bde227-df6b-4242-8bb4-d7c2b776a084","system_id":"levelo_inurba_marseille","lat":43.304606,"lon":5.379026,"is_reserved":false,"is_disabled":false,"rental_uris":{"android":"levelo://app?vid=a2bde227-df6b-4242-8bb4-d7c2b776a084","ios":"levelo://app?vid=a2bde227-df6b-4242-8bb4-d7c2b776a084"},"vehicle_type_id":"4","last_reported":1711818350,"current_range_meters":15600,"station_id":"ce4bgup2rcd13ifvqcn0","pricing_plan_id":"cebpf4jnsgd1na2vs0mg"},{"bike_id":"01e62389-bc08-419f-9d8e-8a237cbe9b4f","system_id":"levelo_inurba_marseille","lat":43.304606,"lon":5.379026,"is_reserved":false,"is_disabled":false,"rental_uris":{"android":"levelo://app?vid=01e62389-bc08-419f-9d8e-8a237cbe9b4f","ios":"levelo://app?vid=01e62389-bc08-419f-9d8e-8a237cbe9b4f"},"vehicle_type_id":"4","last_reported":1711818350,"current_range_meters":25200,"station_id":"ce4bgup2rcd13ifvqcn0","pricing_plan_id":"cebpf4jnsgd1na2vs0mg"},{"bike_id":"45664fe7-5f37-4d8d-9989-45aa0dcbca0e","system_id":"levelo_inurba_marseille","lat":43.3247,"lon":5.3656,"is_reserved":false,"is_disabled":false,"rental_uris":{"android":"levelo://app?vid=45664fe7-5f37-4d8d-9989-45aa0dcbca0e","ios":"levelo://app?vid=45664fe7-5f37-4d8d-9989-45aa0dcbca0e"},"vehicle_type_id":"4","last_reported":1711818350,"current_range_meters":16800,"station_id":"ce4bhs12rcd13ifvqhvg","pricing_plan_id":"cebpf4jnsgd1na2vs0mg"},{"bike_id":"1c910cc3-4a27-4080-9e90-12d858b1b014","system_id":"levelo_inurba_marseille","lat":43.32472,"lon":5.36563,"is_reserved":false,"is_disabled":false,"rental_uris":{"android":"levelo://app?vid=1c910cc3-4a27-4080-9e90-12d858b1b014","ios":"levelo://app?vid=1c910cc3-4a27-4080-9e90-12d858b1b014"},"vehicle_type_id":"4","last_reported":1711818350,"current_range_meters":2400,"station_id":"ce4bhs12rcd13ifvqhvg","pricing_plan_id":"cebpf4jnsgd1na2vs0mg"},{"bike_id":"e63939d2-b355-4917-8b11-a0bb53bddfab","system_id":"levelo_inurba_marseille","lat":43.304606,"lon":5.379026,"is_reserved":false,"is_disabled":false,"rental_uris":{"android":"levelo://app?vid=e63939d2-b355-4917-8b11-a0bb53bddfab","ios":"levelo://app?vid=e63939d2-b355-4917-8b11-a0bb53bddfab"},"vehicle_type_id":"4","last_reported":1711818350,"current_range_meters":23200,"station_id":"ce4bgup2rcd13ifvqcn0","pricing_plan_id":"cebpf4jnsgd1na2vs0mg"},{"bike_id":"ddf57d18-9022-4475-ba1d-0bbc38ef4b39","system_id":"levelo_inurba_marseille","lat":43.32475,"lon":5.3657,"is_reserved":false,"is_disabled":false,"rental_uris":{"android":"levelo://app?vid=ddf57d18-9022-4475-ba1d-0bbc38ef4b39","ios":"levelo://app?vid=ddf57d18-9022-4475-ba1d-0bbc38ef4b39"},"vehicle_type_id":"4","last_reported":1711818350,"current_range_meters":4000,"station_id":"ce4bhs12rcd13ifvqhvg","pricing_plan_id":"cebpf4jnsgd1na2vs0mg"},{"bike_id":"c677caf7-5ef3-4e5c-893a-b3941a6e18f1","system_id":"levelo_inurba_marseille","lat":43.324756,"lon":5.365731,"is_reserved":false,"is_disabled":false,"rental_uris":{"android":"levelo://app?vid=c677caf7-5ef3-4e5c-893a-b3941a6e18f1","ios":"levelo://app?vid=c677caf7-5ef3-4e5c-893a-b3941a6e18f1"},"vehicle_type_id":"4","last_reported":1711818350,"current_range_meters":23200,"station_id":"ce4bhs12rcd13ifvqhvg","pricing_plan_id":"cebpf4jnsgd1na2vs0mg"},{"bike_id":"4cce7423-2bd2-4e46-8abc-f17e3aabdda8","system_id":"levelo_inurba_marseille","lat":43.324771,"lon":5.36557,"is_reserved":false,"is_disabled":false,"rental_uris":{"android":"levelo://app?vid=4cce7423-2bd2-4e46-8abc-f17e3aabdda8","ios":"levelo://app?vid=4cce7423-2bd2-4e46-8abc-f17e3aabdda8"},"vehicle_type_id":"4","last_reported":1711818350,"current_range_meters":31200,"station_id":"ce4bhs12rcd13ifvqhvg","pricing_plan_id":"cebpf4jnsgd1na2vs0mg"},{"bike_id":"640f9d42-89e6-4c56-a222-b1620aa3e053","system_id":"levelo_inurba_marseille","lat":43.324771,"lon":5.36557,"is_reserved":false,"is_disabled":false,"rental_uris":{"android":"levelo://app?vid=640f9d42-89e6-4c56-a222-b1620aa3e053","ios":"levelo://app?vid=640f9d42-89e6-4c56-a222-b1620aa3e053"},"vehicle_type_id":"4","last_reported":1711818350,"current_range_meters":24400,"station_id":"ce4bhs12rcd13ifvqhvg","pricing_plan_id":"cebpf4jnsgd1na2vs0mg"},{"bike_id":"8cabb885-25f4-4a95-90b4-70c33cd57c08","system_id":"levelo_inurba_marseille","lat":43.304672,"lon":5.379268,"is_reserved":false,"is_disabled":false,"rental_uris":{"android":"levelo://app?vid=8cabb885-25f4-4a95-90b4-70c33cd57c08","ios":"levelo://app?vid=8cabb885-25f4-4a95-90b4-70c33cd57c08"},"vehicle_type_id":"4","last_reported":1711818350,"current_range_meters":19600,"station_id":"ce4bgup2rcd13ifvqcn0","pricing_plan_id":"cebpf4jnsgd1na2vs0mg"},{"bike_id":"60a3f65a-6f55-44a2-b4b9-157239c6c101","system_id":"levelo_inurba_marseille","lat":43.324771,"lon":5.36557,"is_reserved":false,"is_disabled":false,"rental_uris":{"android":"levelo://app?vid=60a3f65a-6f55-44a2-b4b9-157239c6c101","ios":"levelo://app?vid=60a3f65a-6f55-44a2-b4b9-157239c6c101"},"vehicle_type_id":"4","last_reported":1711818350,"current_range_meters":13200,"station_id":"ce4bhs12rcd13ifvqhvg","pricing_plan_id":"cebpf4jnsgd1na2vs0mg"},{"bike_id":"f6f72ee2-3f0f-4fe4-910a-0ab1c3a2398f","system_id":"levelo_inurba_marseille","lat":43.324771,"lon":5.36557,"is_reserved":false,"is_disabled":false,"rental_uris":{"android":"levelo://app?vid=f6f72ee2-3f0f-4fe4-910a-0ab1c3a2398f","ios":"levelo://app?vid=f6f72ee2-3f0f-4fe4-910a-0ab1c3a2398f"},"vehicle_type_id":"4","last_reported":1711818350,"current_range_meters":2000,"station_id":"ce4bhs12rcd13ifvqhvg","pricing_plan_id":"cebpf4jnsgd1na2vs0mg"},{"bike_id":"d7e593ae-0e04-4801-88d6-585d610f28a0","system_id":"levelo_inurba_marseille","lat":43.324771,"lon":5.36557,"is_reserved":false,"is_disabled":false,"rental_uris":{"android":"levelo://app?vid=d7e593ae-0e04-4801-88d6-585d610f28a0","ios":"levelo://app?vid=d7e593ae-0e04-4801-88d6-585d610f28a0"},"vehicle_type_id":"4","last_reported":1711818350,"current_range_meters":18000,"station_id":"ce4bhs12rcd13ifvqhvg","pricing_plan_id":"cebpf4jnsgd1na2vs0mg"},{"bike_id":"e1c8e5c1-333b-44cf-9c5e-0b04b3f63da6","system_id":"levelo_inurba_marseille","lat":43.32481,"lon":5.36567,"is_reserved":false,"is_disabled":false,"rental_uris":{"android":"levelo://app?vid=e1c8e5c1-333b-44cf-9c5e-0b04b3f63da6","ios":"levelo://app?vid=e1c8e5c1-333b-44cf-9c5e-0b04b3f63da6"},"vehicle_type_id":"4","last_reported":1711818350,"current_range_meters":0,"station_id":"ce4bhs12rcd13ifvqhvg","pricing_plan_id":"cebpf4jnsgd1na2vs0mg"},{"bike_id":"73ba2e17-abe6-4115-bb7e-419e7409bb9a","system_id":"levelo_inurba_marseille","lat":43.324874,"lon":5.365598,"is_reserved":false,"is_disabled":false,"rental_uris":{"android":"levelo://app?vid=73ba2e17-abe6-4115-bb7e-419e7409bb9a","ios":"levelo://app?vid=73ba2e17-abe6-4115-bb7e-419e7409bb9a"},"vehicle_type_id":"4","last_reported":1711818350,"current_range_meters":1200,"station_id":"ce4bhs12rcd13ifvqhvg","pricing_plan_id":"cebpf4jnsgd1na2vs0mg"},{"bike_id":"8b7f4cfa-462d-4297-ac05-91033fc182a5","system_id":"levelo_inurba_marseille","lat":43.305364,"lon":5.384119,"is_reserved":false,"is_disabled":false,"rental_uris":{"android":"levelo://app?vid=8b7f4cfa-462d-4297-ac05-91033fc182a5","ios":"levelo://app?vid=8b7f4cfa-462d-4297-ac05-91033fc182a5"},"vehicle_type_id":"4","last_reported":1711818350,"current_range_meters":18000,"station_id":"ce4bgg92rcd13ifvqb30","pricing_plan_id":"cebpf4jnsgd1na2vs0mg"},{"bike_id":"638d6beb-de77-4625-a44d-fbba915ddf7a","system_id":"levelo_inurba_marseille","lat":43.31067,"lon":5.38352,"is_reserved":false,"is_disabled":false,"rental_uris":{"android":"levelo://app?vid=638d6beb-de77-4625-a44d-fbba915ddf7a","ios":"levelo://app?vid=638d6beb-de77-4625-a44d-fbba915ddf7a"},"vehicle_type_id":"4","last_reported":1711818350,"current_range_meters":0,"station_id":"ce4bgv92rcd13ifvqcr0","pricing_plan_id":"cebpf4jnsgd1na2vs0mg"},{"bike_id":"6579d384-f095-4f66-8a29-ad3d9f2dd84a","system_id":"levelo_inurba_marseille","lat":43.302784,"lon":5.377158,"is_reserved":false,"is_disabled":false,"rental_uris":{"android":"levelo://app?vid=6579d384-f095-4f66-8a29-ad3d9f2dd84a","ios":"levelo://app?vid=6579d384-f095-4f66-8a29-ad3d9f2dd84a"},"vehicle_type_id":"4","last_reported":1711818350,"current_range_meters":28800,"station_id":"ce4bguh2rcd13ifvqcj0","pricing_plan_id":"cebpf4jnsgd1na2vs0mg"},{"bike_id":"60ae4265-aa7a-408f-9720-9fd231486088","system_id":"levelo_inurba_marseille","lat":43.302784,"lon":5.377158,"is_reserved":false,"is_disabled":false,"rental_uris":{"android":"levelo://app?vid=60ae4265-aa7a-408f-9720-9fd231486088","ios":"levelo://app?vid=60ae4265-aa7a-408f-9720-9fd231486088"},"vehicle_type_id":"4","last_reported":1711818350,"current_range_meters":18800,"station_id":"ce4bguh2rcd13ifvqcj0","pricing_plan_id":"cebpf4jnsgd1na2vs0mg"},{"bike_id":"1beb0537-c77f-466f-88e1-e3246db70835","system_id":"levelo_inurba_marseille","lat":43.302784,"lon":5.377158,"is_reserved":false,"is_disabled":false,"rental_uris":{"android":"levelo://app?vid=1beb0537-c77f-466f-88e1-e3246db70835","ios":"levelo://app?vid=1beb0537-c77f-466f-88e1-e3246db70835"},"vehicle_type_id":"4","last_reported":1711818350,"current_range_meters":28800,"station_id":"ce4bguh2rcd13ifvqcj0","pricing_plan_id":"cebpf4jnsgd1na2vs0mg"},{"bike_id":"a93c4cda-c9e2-48ed-a38f-1a24b78fb516","system_id":"levelo_inurba_marseille","lat":43.319935,"lon":5.381699,"is_reserved":false,"is_disabled":false,"rental_uris":{"android":"levelo://app?vid=a93c4cda-c9e2-48ed-a38f-1a24b78fb516","ios":"levelo://app?vid=a93c4cda-c9e2-48ed-a38f-1a24b78fb516"},"vehicle_type_id":"4","last_reported":1711818350,"current_range_meters":11600,"station_id":"ce4bhr12rcd13ifvqhpg","pricing_plan_id":"cebpf4jnsgd1na2vs0mg"},{"bike_id":"a8790c77-e016-421b-96f7-4bcac9f4c1e4","system_id":"levelo_inurba_marseille","lat":43.319935,"lon":5.381699,"is_reserved":false,"is_disabled":false,"rental_uris":{"android":"levelo://app?vid=a8790c77-e016-421b-96f7-4bcac9f4c1e4","ios":"levelo://app?vid=a8790c77-e016-421b-96f7-4bcac9f4c1e4"},"vehicle_type_id":"4","last_reported":1711818350,"current_range_meters":0,"station_id":"ce4bhr12rcd13ifvqhpg","pricing_plan_id":"cebpf4jnsgd1na2vs0mg"},{"bike_id":"e27c4e03-7f07-4e4c-bfed-1c6147082d31","system_id":"levelo_inurba_marseille","lat":43.319935,"lon":5.381699,"is_reserved":false,"is_disabled":false,"rental_uris":{"android":"levelo://app?vid=e27c4e03-7f07-4e4c-bfed-1c6147082d31","ios":"levelo://app?vid=e27c4e03-7f07-4e4c-bfed-1c6147082d31"},"vehicle_type_id":"4","last_reported":1711818350,"current_range_meters":20000,"station_id":"ce4bhr12rcd13ifvqhpg","pricing_plan_id":"cebpf4jnsgd1na2vs0mg"},{"bike_id":"91c61b16-15ea-4113-a848-b77d3ae4c316","system_id":"levelo_inurba_marseille","lat":43.319935,"lon":5.381699,"is_reserved":false,"is_disabled":false,"rental_uris":{"android":"levelo://app?vid=91c61b16-15ea-4113-a848-b77d3ae4c316","ios":"levelo://app?vid=91c61b16-15ea-4113-a848-b77d3ae4c316"},"vehicle_type_id":"4","last_reported":1711818350,"current_range_meters":12000,"station_id":"ce4bhr12rcd13ifvqhpg","pricing_plan_id":"cebpf4jnsgd1na2vs0mg"},{"bike_id":"11d863d4-c17c-47be-b69c-674428e5728e","system_id":"levelo_inurba_marseille","lat":43.319935,"lon":5.381699,"is_reserved":false,"is_disabled":false,"rental_uris":{"android":"levelo://app?vid=11d863d4-c17c-47be-b69c-674428e5728e","ios":"levelo://app?vid=11d863d4-c17c-47be-b69c-674428e5728e"},"vehicle_type_id":"4","last_reported":1711818350,"current_range_meters":16400,"station_id":"ce4bhr12rcd13ifvqhpg","pricing_plan_id":"cebpf4jnsgd1na2vs0mg"},{"bike_id":"47906416-3a3d-4d6e-b620-2af45065a840","system_id":"levelo_inurba_marseille","lat":43.319935,"lon":5.381699,"is_reserved":false,"is_disabled":false,"rental_uris":{"android":"levelo://app?vid=47906416-3a3d-4d6e-b620-2af45065a840","ios":"levelo://app?vid=47906416-3a3d-4d6e-b620-2af45065a840"},"vehicle_type_id":"4","last_reported":1711818350,"current_range_meters":12400,"station_id":"ce4bhr12rcd13ifvqhpg","pricing_plan_id":"cebpf4jnsgd1na2vs0mg"},{"bike_id":"ba530eea-d324-419e-89b8-add341aa798e","system_id":"levelo_inurba_marseille","lat":43.319935,"lon":5.381699,"is_reserved":false,"is_disabled":false,"rental_uris":{"android":"levelo://app?vid=ba530eea-d324-419e-89b8-add341aa798e","ios":"levelo://app?vid=ba530eea-d324-419e-89b8-add341aa798e"},"vehicle_type_id":"4","last_reported":1711818350,"current_range_meters":18000,"station_id":"ce4bhr12rcd13ifvqhpg","pricing_plan_id":"cebpf4jnsgd1na2vs0mg"},{"bike_id":"8a0bf56f-cc6b-45de-83db-6505873508e2","system_id":"levelo_inurba_marseille","lat":43.319935,"lon":5.381699,"is_reserved":false,"is_disabled":false,"rental_uris":{"android":"levelo://app?vid=8a0bf56f-cc6b-45de-83db-6505873508e2","ios":"levelo://app?vid=8a0bf56f-cc6b-45de-83db-6505873508e2"},"vehicle_type_id":"4","last_reported":1711818350,"current_range_meters":800,"station_id":"ce4bhr12rcd13ifvqhpg","pricing_plan_id":"cebpf4jnsgd1na2vs0mg"},{"bike_id":"e475a0fb-cc42-4b2b-81db-6101194d3618","system_id":"levelo_inurba_marseille","lat":43.311722,"lon":5.387247,"is_reserved":false,"is_disabled":false,"rental_uris":{"android":"levelo://app?vid=e475a0fb-cc42-4b2b-81db-6101194d3618","ios":"levelo://app?vid=e475a0fb-cc42-4b2b-81db-6101194d3618"},"vehicle_type_id":"4","last_reported":1711818350,"current_range_meters":1600,"station_id":"ce4bgv12rcd13ifvqcp0","pricing_plan_id":"cebpf4jnsgd1na2vs0mg"},{"bike_id":"80a5f51a-23e3-4e40-ac72-d39515106bc4","system_id":"levelo_inurba_marseille","lat":43.29601,"lon":5.381084,"is_reserved":false,"is_disabled":false,"rental_uris":{"android":"levelo://app?vid=80a5f51a-23e3-4e40-ac72-d39515106bc4","ios":"levelo://app?vid=80a5f51a-23e3-4e40-ac72-d39515106bc4"},"vehicle_type_id":"4","last_reported":1711818350,"current_range_meters":19200,"station_id":"ce4bgl12rcd13ifvqbo0","pricing_plan_id":"cebpf4jnsgd1na2vs0mg"},{"bike_id":"723641f4-c62d-41d0-ac8b-1dae9be90f52","system_id":"levelo_inurba_marseille","lat":43.299222,"lon":5.365554,"is_reserved":false,"is_disabled":false,"rental_uris":{"android":"levelo://app?vid=723641f4-c62d-41d0-ac8b-1dae9be90f52","ios":"levelo://app?vid=723641f4-c62d-41d0-ac8b-1dae9be90f52"},"vehicle_type_id":"4","last_reported":1711818350,"current_range_meters":2400,"station_id":"ce4bgm92rcd13ifvqbr0","pricing_plan_id":"cebpf4jnsgd1na2vs0mg"},{"bike_id":"400cc2a0-b816-4806-9e02-6f19aa71d916","system_id":"levelo_inurba_marseille","lat":43.299222,"lon":5.365554,"is_reserved":false,"is_disabled":false,"rental_uris":{"android":"levelo://app?vid=400cc2a0-b816-4806-9e02-6f19aa71d916","ios":"levelo://app?vid=400cc2a0-b816-4806-9e02-6f19aa71d916"},"vehicle_type_id":"4","last_reported":1711818350,"current_range_meters":5200,"station_id":"ce4bgm92rcd13ifvqbr0","pricing_plan_id":"cebpf4jnsgd1na2vs0mg"},{"bike_id":"7ded110d-77b5-43d1-a31f-908cf0188516","system_id":"levelo_inurba_marseille","lat":43.289307,"lon":5.38406,"is_reserved":false,"is_disabled":false,"rental_uris":{"android":"levelo://app?vid=7ded110d-77b5-43d1-a31f-908cf0188516","ios":"levelo://app?vid=7ded110d-77b5-43d1-a31f-908cf0188516"},"vehicle_type_id":"4","last_reported":1711818350,"current_range_meters":6400,"station_id":"ce4bh612rcd13ifvqe6g","pricing_plan_id":"cebpf4jnsgd1na2vs0mg"},{"bike_id":"6b8293cd-4bd6-4f51-b67e-ac76a7786d53","system_id":"levelo_inurba_marseille","lat":43.305364,"lon":5.384119,"is_reserved":false,"is_disabled":false,"rental_uris":{"android":"levelo://app?vid=6b8293cd-4bd6-4f51-b67e-ac76a7786d53","ios":"levelo://app?vid=6b8293cd-4bd6-4f51-b67e-ac76a7786d53"},"vehicle_type_id":"4","last_reported":1711818350,"current_range_meters":0,"station_id":"ce4bgg92rcd13ifvqb30","pricing_plan_id":"cebpf4jnsgd1na2vs0mg"},{"bike_id":"8d3d3fd1-2230-4afd-b992-40e3d5226c58","system_id":"levelo_inurba_marseille","lat":43.29855,"lon":5.36283,"is_reserved":false,"is_disabled":false,"rental_uris":{"android":"levelo://app?vid=8d3d3fd1-2230-4afd-b992-40e3d5226c58","ios":"levelo://app?vid=8d3d3fd1-2230-4afd-b992-40e3d5226c58"},"vehicle_type_id":"4","last_reported":1711818350,"current_range_meters":31200,"station_id":"ce4bgpp2rcd13ifvqc3g","pricing_plan_id":"cebpf4jnsgd1na2vs0mg"},{"bike_id":"8e3ee2f3-fd27-46bf-bac8-05ed3cf57e33","system_id":"levelo_inurba_marseille","lat":43.29854,"lon":5.36284,"is_reserved":false,"is_disabled":false,"rental_uris":{"android":"levelo://app?vid=8e3ee2f3-fd27-46bf-bac8-05ed3cf57e33","ios":"levelo://app?vid=8e3ee2f3-fd27-46bf-bac8-05ed3cf57e33"},"vehicle_type_id":"4","last_reported":1711818350,"current_range_meters":10400,"station_id":"ce4bgpp2rcd13ifvqc3g","pricing_plan_id":"cebpf4jnsgd1na2vs0mg"},{"bike_id":"69e8387a-5fda-463a-a522-e98e961aebef","system_id":"levelo_inurba_marseille","lat":43.29853,"lon":5.36284,"is_reserved":false,"is_disabled":false,"rental_uris":{"android":"levelo://app?vid=69e8387a-5fda-463a-a522-e98e961aebef","ios":"levelo://app?vid=69e8387a-5fda-463a-a522-e98e961aebef"},"vehicle_type_id":"4","last_reported":1711818350,"current_range_meters":400,"station_id":"ce4bgpp2rcd13ifvqc3g","pricing_plan_id":"cebpf4jnsgd1na2vs0mg"},{"bike_id":"221dba25-3992-4418-b3f7-224d8b0d6077","system_id":"levelo_inurba_marseille","lat":43.305364,"lon":5.384119,"is_reserved":false,"is_disabled":false,"rental_uris":{"android":"levelo://app?vid=221dba25-3992-4418-b3f7-224d8b0d6077","ios":"levelo://app?vid=221dba25-3992-4418-b3f7-224d8b0d6077"},"vehicle_type_id":"4","last_reported":1711818350,"current_range_meters":2400,"station_id":"ce4bgg92rcd13ifvqb30","pricing_plan_id":"cebpf4jnsgd1na2vs0mg"},{"bike_id":"3036bf85-12a3-43e7-90c5-5dfe08970a7d","system_id":"levelo_inurba_marseille","lat":43.29851,"lon":5.3629,"is_reserved":false,"is_disabled":false,"rental_uris":{"android":"levelo://app?vid=3036bf85-12a3-43e7-90c5-5dfe08970a7d","ios":"levelo://app?vid=3036bf85-12a3-43e7-90c5-5dfe08970a7d"},"vehicle_type_id":"4","last_reported":1711818350,"current_range_meters":16400,"station_id":"ce4bgpp2rcd13ifvqc3g","pricing_plan_id":"cebpf4jnsgd1na2vs0mg"},{"bike_id":"9201a4c7-4e63-4585-bb8e-6dcac218f2b1","system_id":"levelo_inurba_marseille","lat":43.29852,"lon":5.36282,"is_reserved":false,"is_disabled":false,"rental_uris":{"android":"levelo://app?vid=9201a4c7-4e63-4585-bb8e-6dcac218f2b1","ios":"levelo://app?vid=9201a4c7-4e63-4585-bb8e-6dcac218f2b1"},"vehicle_type_id":"4","last_reported":1711818350,"current_range_meters":31200,"station_id":"ce4bgpp2rcd13ifvqc3g","pricing_plan_id":"cebpf4jnsgd1na2vs0mg"},{"bike_id":"816e7f30-e14a-4954-aaa7-9a128cff93ba","system_id":"levelo_inurba_marseille","lat":43.29851,"lon":5.36283,"is_reserved":false,"is_disabled":false,"rental_uris":{"android":"levelo://app?vid=816e7f30-e14a-4954-aaa7-9a128cff93ba","ios":"levelo://app?vid=816e7f30-e14a-4954-aaa7-9a128cff93ba"},"vehicle_type_id":"4","last_reported":1711818350,"current_range_meters":3200,"station_id":"ce4bgpp2rcd13ifvqc3g","pricing_plan_id":"cebpf4jnsgd1na2vs0mg"},{"bike_id":"8f780e09-80e5-4a5b-8141-54d96a0d7e20","system_id":"levelo_inurba_marseille","lat":43.29848,"lon":5.36279,"is_reserved":false,"is_disabled":false,"rental_uris":{"android":"levelo://app?vid=8f780e09-80e5-4a5b-8141-54d96a0d7e20","ios":"levelo://app?vid=8f780e09-80e5-4a5b-8141-54d96a0d7e20"},"vehicle_type_id":"4","last_reported":1711818350,"current_range_meters":12000,"station_id":"ce4bgpp2rcd13ifvqc3g","pricing_plan_id":"cebpf4jnsgd1na2vs0mg"},{"bike_id":"cb774157-5005-4ef1-a41b-e4da21ace960","system_id":"levelo_inurba_marseille","lat":43.29847,"lon":5.36284,"is_reserved":false,"is_disabled":false,"rental_uris":{"android":"levelo://app?vid=cb774157-5005-4ef1-a41b-e4da21ace960","ios":"levelo://app?vid=cb774157-5005-4ef1-a41b-e4da21ace960"},"vehicle_type_id":"4","last_reported":1711818350,"current_range_meters":8400,"station_id":"ce4bgpp2rcd13ifvqc3g","pricing_plan_id":"cebpf4jnsgd1na2vs0mg"},{"bike_id":"99d3ba43-153d-42a6-b34f-0db5a926d529","system_id":"levelo_inurba_marseille","lat":43.30541,"lon":5.38428,"is_reserved":false,"is_disabled":false,"rental_uris":{"android":"levelo://app?vid=99d3ba43-153d-42a6-b34f-0db5a926d529","ios":"levelo://app?vid=99d3ba43-153d-42a6-b34f-0db5a926d529"},"vehicle_type_id":"4","last_reported":1711818350,"current_range_meters":0,"station_id":"ce4bgg92rcd13ifvqb30","pricing_plan_id":"cebpf4jnsgd1na2vs0mg"},{"bike_id":"ab8c824b-44cf-4603-9261-7f48c4a77ec0","system_id":"levelo_inurba_marseille","lat":43.298433,"lon":5.362774,"is_reserved":false,"is_disabled":false,"rental_uris":{"android":"levelo://app?vid=ab8c824b-44cf-4603-9261-7f48c4a77ec0","ios":"levelo://app?vid=ab8c824b-44cf-4603-9261-7f48c4a77ec0"},"vehicle_type_id":"4","last_reported":1711818350,"current_range_meters":26000,"station_id":"ce4bgpp2rcd13ifvqc3g","pricing_plan_id":"cebpf4jnsgd1na2vs0mg"},{"bike_id":"022e3bde-eb4b-4532-aa62-47a0be6904b1","system_id":"levelo_inurba_marseille","lat":43.281044,"lon":5.378308,"is_reserved":false,"is_disabled":false,"rental_uris":{"android":"levelo://app?vid=022e3bde-eb4b-4532-aa62-47a0be6904b1","ios":"levelo://app?vid=022e3bde-eb4b-4532-aa62-47a0be6904b1"},"vehicle_type_id":"4","last_reported":1711818350,"current_range_meters":1200,"station_id":"ce4bha12rcd13ifvqee0","pricing_plan_id":"cebpf4jnsgd1na2vs0mg"},{"bike_id":"657c0e99-e61d-47f1-9e4c-cb1c78943932","system_id":"levelo_inurba_marseille","lat":43.29846,"lon":5.36269,"is_reserved":false,"is_disabled":false,"rental_uris":{"android":"levelo://app?vid=657c0e99-e61d-47f1-9e4c-cb1c78943932","ios":"levelo://app?vid=657c0e99-e61d-47f1-9e4c-cb1c78943932"},"vehicle_type_id":"4","last_reported":1711818350,"current_range_meters":13200,"station_id":"ce4bgpp2rcd13ifvqc3g","pricing_plan_id":"cebpf4jnsgd1na2vs0mg"},{"bike_id":"f104335f-9e8f-4109-b289-e10631596fd2","system_id":"levelo_inurba_marseille","lat":43.29844,"lon":5.36273,"is_reserved":false,"is_disabled":false,"rental_uris":{"android":"levelo://app?vid=f104335f-9e8f-4109-b289-e10631596fd2","ios":"levelo://app?vid=f104335f-9e8f-4109-b289-e10631596fd2"},"vehicle_type_id":"4","last_reported":1711818350,"current_range_meters":9600,"station_id":"ce4bgpp2rcd13ifvqc3g","pricing_plan_id":"cebpf4jnsgd1na2vs0mg"},{"bike_id":"aa4e4826-3f90-4991-b985-8716d157789d","system_id":"levelo_inurba_marseille","lat":43.29845,"lon":5.36263,"is_reserved":false,"is_disabled":false,"rental_uris":{"android":"levelo://app?vid=aa4e4826-3f90-4991-b985-8716d157789d","ios":"levelo://app?vid=aa4e4826-3f90-4991-b985-8716d157789d"},"vehicle_type_id":"4","last_reported":1711818350,"current_range_meters":19200,"station_id":"ce4bgpp2rcd13ifvqc3g","pricing_plan_id":"cebpf4jnsgd1na2vs0mg"},{"bike_id":"ee374cf8-0ee1-43f6-8ed8-bac812d8b334","system_id":"levelo_inurba_marseille","lat":43.29843,"lon":5.362739,"is_reserved":false,"is_disabled":false,"rental_uris":{"android":"levelo://app?vid=ee374cf8-0ee1-43f6-8ed8-bac812d8b334","ios":"levelo://app?vid=ee374cf8-0ee1-43f6-8ed8-bac812d8b334"},"vehicle_type_id":"4","last_reported":1711818350,"current_range_meters":2800,"station_id":"ce4bgpp2rcd13ifvqc3g","pricing_plan_id":"cebpf4jnsgd1na2vs0mg"},{"bike_id":"ddee1f0b-48c7-40d6-a215-6f8024be1f4a","system_id":"levelo_inurba_marseille","lat":43.29844,"lon":5.36266,"is_reserved":false,"is_disabled":false,"rental_uris":{"android":"levelo://app?vid=ddee1f0b-48c7-40d6-a215-6f8024be1f4a","ios":"levelo://app?vid=ddee1f0b-48c7-40d6-a215-6f8024be1f4a"},"vehicle_type_id":"4","last_reported":1711818350,"current_range_meters":12800,"station_id":"ce4bgpp2rcd13ifvqc3g","pricing_plan_id":"cebpf4jnsgd1na2vs0mg"},{"bike_id":"93ee6446-9267-475d-888e-cd5765e48cfb","system_id":"levelo_inurba_marseille","lat":43.305364,"lon":5.384119,"is_reserved":false,"is_disabled":false,"rental_uris":{"android":"levelo://app?vid=93ee6446-9267-475d-888e-cd5765e48cfb","ios":"levelo://app?vid=93ee6446-9267-475d-888e-cd5765e48cfb"},"vehicle_type_id":"4","last_reported":1711818350,"current_range_meters":6000,"station_id":"ce4bgg92rcd13ifvqb30","pricing_plan_id":"cebpf4jnsgd1na2vs0mg"},{"bike_id":"e9cb6eb6-5f03-4391-83db-b8a834da7c5a","system_id":"levelo_inurba_marseille","lat":43.305364,"lon":5.384119,"is_reserved":false,"is_disabled":false,"rental_uris":{"android":"levelo://app?vid=e9cb6eb6-5f03-4391-83db-b8a834da7c5a","ios":"levelo://app?vid=e9cb6eb6-5f03-4391-83db-b8a834da7c5a"},"vehicle_type_id":"4","last_reported":1711818350,"current_range_meters":22000,"station_id":"ce4bgg92rcd13ifvqb30","pricing_plan_id":"cebpf4jnsgd1na2vs0mg"},{"bike_id":"d727e8e6-7e84-44d3-b7e7-c255ac8f0c0a","system_id":"levelo_inurba_marseille","lat":43.299205,"lon":5.37473,"is_reserved":false,"is_disabled":false,"rental_uris":{"android":"levelo://app?vid=d727e8e6-7e84-44d3-b7e7-c255ac8f0c0a","ios":"levelo://app?vid=d727e8e6-7e84-44d3-b7e7-c255ac8f0c0a"},"vehicle_type_id":"4","last_reported":1711818350,"current_range_meters":9600,"station_id":"ce4bgjh2rcd13ifvqbg0","pricing_plan_id":"cebpf4jnsgd1na2vs0mg"},{"bike_id":"bbaf441b-6fe8-416e-91b0-31bc4b6f04b4","system_id":"levelo_inurba_marseille","lat":43.29919,"lon":5.37474,"is_reserved":false,"is_disabled":false,"rental_uris":{"android":"levelo://app?vid=bbaf441b-6fe8-416e-91b0-31bc4b6f04b4","ios":"levelo://app?vid=bbaf441b-6fe8-416e-91b0-31bc4b6f04b4"},"vehicle_type_id":"4","last_reported":1711818350,"current_range_meters":11600,"station_id":"ce4bgjh2rcd13ifvqbg0","pricing_plan_id":"cebpf4jnsgd1na2vs0mg"},{"bike_id":"eace05df-8480-4732-a160-ea490a46e5e1","system_id":"levelo_inurba_marseille","lat":43.298433,"lon":5.362774,"is_reserved":false,"is_disabled":false,"rental_uris":{"android":"levelo://app?vid=eace05df-8480-4732-a160-ea490a46e5e1","ios":"levelo://app?vid=eace05df-8480-4732-a160-ea490a46e5e1"},"vehicle_type_id":"4","last_reported":1711818350,"current_range_meters":26400,"station_id":"ce4bgpp2rcd13ifvqc3g","pricing_plan_id":"cebpf4jnsgd1na2vs0mg"},{"bike_id":"3c1fc76a-10d6-4680-add0-e072a1bb1d05","system_id":"levelo_inurba_marseille","lat":43.299207,"lon":5.374845,"is_reserved":false,"is_disabled":false,"rental_uris":{"android":"levelo://app?vid=3c1fc76a-10d6-4680-add0-e072a1bb1d05","ios":"levelo://app?vid=3c1fc76a-10d6-4680-add0-e072a1bb1d05"},"vehicle_type_id":"4","last_reported":1711818350,"current_range_meters":15600,"station_id":"ce4bgjh2rcd13ifvqbg0","pricing_plan_id":"cebpf4jnsgd1na2vs0mg"},{"bike_id":"4d309da2-bbe5-4b3b-8a27-ccb489820958","system_id":"levelo_inurba_marseille","lat":43.311722,"lon":5.387247,"is_reserved":false,"is_disabled":false,"rental_uris":{"android":"levelo://app?vid=4d309da2-bbe5-4b3b-8a27-ccb489820958","ios":"levelo://app?vid=4d309da2-bbe5-4b3b-8a27-ccb489820958"},"vehicle_type_id":"4","last_reported":1711818350,"current_range_meters":24800,"station_id":"ce4bgv12rcd13ifvqcp0","pricing_plan_id":"cebpf4jnsgd1na2vs0mg"},{"bike_id":"b5232cba-f835-4aa6-b8c7-2d291c688cd1","system_id":"levelo_inurba_marseille","lat":43.29918,"lon":5.3748,"is_reserved":false,"is_disabled":false,"rental_uris":{"android":"levelo://app?vid=b5232cba-f835-4aa6-b8c7-2d291c688cd1","ios":"levelo://app?vid=b5232cba-f835-4aa6-b8c7-2d291c688cd1"},"vehicle_type_id":"4","last_reported":1711818350,"current_range_meters":17600,"station_id":"ce4bgjh2rcd13ifvqbg0","pricing_plan_id":"cebpf4jnsgd1na2vs0mg"},{"bike_id":"3e250960-394a-44e0-bf0b-79477f58d841","system_id":"levelo_inurba_marseille","lat":43.299243,"lon":5.374807,"is_reserved":false,"is_disabled":false,"rental_uris":{"android":"levelo://app?vid=3e250960-394a-44e0-bf0b-79477f58d841","ios":"levelo://app?vid=3e250960-394a-44e0-bf0b-79477f58d841"},"vehicle_type_id":"4","last_reported":1711818350,"current_range_meters":31200,"station_id":"ce4bgjh2rcd13ifvqbg0","pricing_plan_id":"cebpf4jnsgd1na2vs0mg"},{"bike_id":"12929473-8649-430d-b130-05420efa7a98","system_id":"levelo_inurba_marseille","lat":43.299149,"lon":5.374793,"is_reserved":false,"is_disabled":false,"rental_uris":{"android":"levelo://app?vid=12929473-8649-430d-b130-05420efa7a98","ios":"levelo://app?vid=12929473-8649-430d-b130-05420efa7a98"},"vehicle_type_id":"4","last_reported":1711818350,"current_range_meters":30400,"station_id":"ce4bgjh2rcd13ifvqbg0","pricing_plan_id":"cebpf4jnsgd1na2vs0mg"},{"bike_id":"8577b865-66a5-41a2-9f68-3fcb58b04a51","system_id":"levelo_inurba_marseille","lat":43.31169,"lon":5.38716,"is_reserved":false,"is_disabled":false,"rental_uris":{"android":"levelo://app?vid=8577b865-66a5-41a2-9f68-3fcb58b04a51","ios":"levelo://app?vid=8577b865-66a5-41a2-9f68-3fcb58b04a51"},"vehicle_type_id":"4","last_reported":1711818350,"current_range_meters":0,"station_id":"ce4bgv12rcd13ifvqcp0","pricing_plan_id":"cebpf4jnsgd1na2vs0mg"},{"bike_id":"7875a3b9-ad99-41c3-9907-13e4a65d80d9","system_id":"levelo_inurba_marseille","lat":43.299243,"lon":5.374807,"is_reserved":false,"is_disabled":false,"rental_uris":{"android":"levelo://app?vid=7875a3b9-ad99-41c3-9907-13e4a65d80d9","ios":"levelo://app?vid=7875a3b9-ad99-41c3-9907-13e4a65d80d9"},"vehicle_type_id":"4","last_reported":1711818350,"current_range_meters":4000,"station_id":"ce4bgjh2rcd13ifvqbg0","pricing_plan_id":"cebpf4jnsgd1na2vs0mg"},{"bike_id":"574b3de4-6bca-4c59-bd97-8888412e5dab","system_id":"levelo_inurba_marseille","lat":43.311722,"lon":5.387247,"is_reserved":false,"is_disabled":false,"rental_uris":{"android":"levelo://app?vid=574b3de4-6bca-4c59-bd97-8888412e5dab","ios":"levelo://app?vid=574b3de4-6bca-4c59-bd97-8888412e5dab"},"vehicle_type_id":"4","last_reported":1711818350,"current_range_meters":30800,"station_id":"ce4bgv12rcd13ifvqcp0","pricing_plan_id":"cebpf4jnsgd1na2vs0mg"},{"bike_id":"e747311f-63ab-46e5-aed0-bd5f047854f9","system_id":"levelo_inurba_marseille","lat":43.299243,"lon":5.374807,"is_reserved":false,"is_disabled":false,"rental_uris":{"android":"levelo://app?vid=e747311f-63ab-46e5-aed0-bd5f047854f9","ios":"levelo://app?vid=e747311f-63ab-46e5-aed0-bd5f047854f9"},"vehicle_type_id":"4","last_reported":1711818350,"current_range_meters":29600,"station_id":"ce4bgjh2rcd13ifvqbg0","pricing_plan_id":"cebpf4jnsgd1na2vs0mg"},{"bike_id":"cfb1e377-673b-413a-9c9d-2637870928eb","system_id":"levelo_inurba_marseille","lat":43.311702,"lon":5.387204,"is_reserved":false,"is_disabled":false,"rental_uris":{"android":"levelo://app?vid=cfb1e377-673b-413a-9c9d-2637870928eb","ios":"levelo://app?vid=cfb1e377-673b-413a-9c9d-2637870928eb"},"vehicle_type_id":"4","last_reported":1711818350,"current_range_meters":7200,"station_id":"ce4bgv12rcd13ifvqcp0","pricing_plan_id":"cebpf4jnsgd1na2vs0mg"},{"bike_id":"b9c65e3a-91df-4632-9f7a-3a8578a86ea5","system_id":"levelo_inurba_marseille","lat":43.29897,"lon":5.374797,"is_reserved":false,"is_disabled":false,"rental_uris":{"android":"levelo://app?vid=b9c65e3a-91df-4632-9f7a-3a8578a86ea5","ios":"levelo://app?vid=b9c65e3a-91df-4632-9f7a-3a8578a86ea5"},"vehicle_type_id":"4","last_reported":1711818350,"current_range_meters":12000,"station_id":"ce4bgjh2rcd13ifvqbg0","pricing_plan_id":"cebpf4jnsgd1na2vs0mg"},{"bike_id":"97dbe65a-2375-4242-8d02-1c02a0bf7a11","system_id":"levelo_inurba_marseille","lat":43.297774,"lon":5.370875,"is_reserved":false,"is_disabled":false,"rental_uris":{"android":"levelo://app?vid=97dbe65a-2375-4242-8d02-1c02a0bf7a11","ios":"levelo://app?vid=97dbe65a-2375-4242-8d02-1c02a0bf7a11"},"vehicle_type_id":"4","last_reported":1711818350,"current_range_meters":0,"station_id":"ce4bgop2rcd13ifvqc1g","pricing_plan_id":"cebpf4jnsgd1na2vs0mg"},{"bike_id":"ce6739ec-477e-43cb-b9ab-c7daab1cb033","system_id":"levelo_inurba_marseille","lat":43.297794,"lon":5.370888,"is_reserved":false,"is_disabled":false,"rental_uris":{"android":"levelo://app?vid=ce6739ec-477e-43cb-b9ab-c7daab1cb033","ios":"levelo://app?vid=ce6739ec-477e-43cb-b9ab-c7daab1cb033"},"vehicle_type_id":"4","last_reported":1711818350,"current_range_meters":3600,"station_id":"ce4bgop2rcd13ifvqc1g","pricing_plan_id":"cebpf4jnsgd1na2vs0mg"},{"bike_id":"9383fed7-590b-4175-992f-61f767e41097","system_id":"levelo_inurba_marseille","lat":43.297794,"lon":5.370888,"is_reserved":false,"is_disabled":false,"rental_uris":{"android":"levelo://app?vid=9383fed7-590b-4175-992f-61f767e41097","ios":"levelo://app?vid=9383fed7-590b-4175-992f-61f767e41097"},"vehicle_type_id":"4","last_reported":1711818350,"current_range_meters":8000,"station_id":"ce4bgop2rcd13ifvqc1g","pricing_plan_id":"cebpf4jnsgd1na2vs0mg"},{"bike_id":"02c408dd-6fda-45c8-a410-45014669bada","system_id":"levelo_inurba_marseille","lat":43.297794,"lon":5.370888,"is_reserved":false,"is_disabled":false,"rental_uris":{"android":"levelo://app?vid=02c408dd-6fda-45c8-a410-45014669bada","ios":"levelo://app?vid=02c408dd-6fda-45c8-a410-45014669bada"},"vehicle_type_id":"4","last_reported":1711818350,"current_range_meters":13600,"station_id":"ce4bgop2rcd13ifvqc1g","pricing_plan_id":"cebpf4jnsgd1na2vs0mg"},{"bike_id":"a66b75ad-9e05-4b95-85b8-b0c2a272674f","system_id":"levelo_inurba_marseille","lat":43.297774,"lon":5.370875,"is_reserved":false,"is_disabled":false,"rental_uris":{"android":"levelo://app?vid=a66b75ad-9e05-4b95-85b8-b0c2a272674f","ios":"levelo://app?vid=a66b75ad-9e05-4b95-85b8-b0c2a272674f"},"vehicle_type_id":"4","last_reported":1711818350,"current_range_meters":10800,"station_id":"ce4bgop2rcd13ifvqc1g","pricing_plan_id":"cebpf4jnsgd1na2vs0mg"},{"bike_id":"c498f0aa-dc5b-447d-b8b8-76f3fa7beed2","system_id":"levelo_inurba_marseille","lat":43.322872,"lon":5.382756,"is_reserved":false,"is_disabled":false,"rental_uris":{"android":"levelo://app?vid=c498f0aa-dc5b-447d-b8b8-76f3fa7beed2","ios":"levelo://app?vid=c498f0aa-dc5b-447d-b8b8-76f3fa7beed2"},"vehicle_type_id":"4","last_reported":1711818350,"current_range_meters":19600,"station_id":"ce4bhr12rcd13ifvqhqg","pricing_plan_id":"cebpf4jnsgd1na2vs0mg"},{"bike_id":"82e0bcbd-85cf-4039-af64-55393dbb1ce4","system_id":"levelo_inurba_marseille","lat":43.32294,"lon":5.38265,"is_reserved":false,"is_disabled":false,"rental_uris":{"android":"levelo://app?vid=82e0bcbd-85cf-4039-af64-55393dbb1ce4","ios":"levelo://app?vid=82e0bcbd-85cf-4039-af64-55393dbb1ce4"},"vehicle_type_id":"4","last_reported":1711818350,"current_range_meters":22800,"station_id":"ce4bhr12rcd13ifvqhqg","pricing_plan_id":"cebpf4jnsgd1na2vs0mg"},{"bike_id":"af91ee66-ebec-4e5f-b566-646a8b5863b7","system_id":"levelo_inurba_marseille","lat":43.322872,"lon":5.382756,"is_reserved":false,"is_disabled":false,"rental_uris":{"android":"levelo://app?vid=af91ee66-ebec-4e5f-b566-646a8b5863b7","ios":"levelo://app?vid=af91ee66-ebec-4e5f-b566-646a8b5863b7"},"vehicle_type_id":"4","last_reported":1711818350,"current_range_meters":12400,"station_id":"ce4bhr12rcd13ifvqhqg","pricing_plan_id":"cebpf4jnsgd1na2vs0mg"},{"bike_id":"c2b6ec39-cf52-44eb-ae94-bbedc38fd17f","system_id":"levelo_inurba_marseille","lat":43.32292,"lon":5.38273,"is_reserved":false,"is_disabled":false,"rental_uris":{"android":"levelo://app?vid=c2b6ec39-cf52-44eb-ae94-bbedc38fd17f","ios":"levelo://app?vid=c2b6ec39-cf52-44eb-ae94-bbedc38fd17f"},"vehicle_type_id":"4","last_reported":1711818350,"current_range_meters":8000,"station_id":"ce4bhr12rcd13ifvqhqg","pricing_plan_id":"cebpf4jnsgd1na2vs0mg"},{"bike_id":"c1803e3c-5844-4500-9148-3f73efb6092e","system_id":"levelo_inurba_marseille","lat":43.322872,"lon":5.382756,"is_reserved":false,"is_disabled":false,"rental_uris":{"android":"levelo://app?vid=c1803e3c-5844-4500-9148-3f73efb6092e","ios":"levelo://app?vid=c1803e3c-5844-4500-9148-3f73efb6092e"},"vehicle_type_id":"4","last_reported":1711818350,"current_range_meters":7600,"station_id":"ce4bhr12rcd13ifvqhqg","pricing_plan_id":"cebpf4jnsgd1na2vs0mg"},{"bike_id":"6db4ba56-cdbd-44f6-826d-1abf96302385","system_id":"levelo_inurba_marseille","lat":43.322872,"lon":5.382756,"is_reserved":false,"is_disabled":false,"rental_uris":{"android":"levelo://app?vid=6db4ba56-cdbd-44f6-826d-1abf96302385","ios":"levelo://app?vid=6db4ba56-cdbd-44f6-826d-1abf96302385"},"vehicle_type_id":"4","last_reported":1711818350,"current_range_meters":31200,"station_id":"ce4bhr12rcd13ifvqhqg","pricing_plan_id":"cebpf4jnsgd1na2vs0mg"},{"bike_id":"9a9b742f-65a7-45bf-9a88-e31d2534d718","system_id":"levelo_inurba_marseille","lat":43.29714,"lon":5.36616,"is_reserved":false,"is_disabled":false,"rental_uris":{"android":"levelo://app?vid=9a9b742f-65a7-45bf-9a88-e31d2534d718","ios":"levelo://app?vid=9a9b742f-65a7-45bf-9a88-e31d2534d718"},"vehicle_type_id":"4","last_reported":1711818350,"current_range_meters":23600,"station_id":"","pricing_plan_id":"cebpf4jnsgd1na2vs0mg"},{"bike_id":"789a6656-cea4-443f-af8f-7ccf495d1d04","system_id":"levelo_inurba_marseille","lat":43.297163,"lon":5.365866,"is_reserved":false,"is_disabled":false,"rental_uris":{"android":"levelo://app?vid=789a6656-cea4-443f-af8f-7ccf495d1d04","ios":"levelo://app?vid=789a6656-cea4-443f-af8f-7ccf495d1d04"},"vehicle_type_id":"4","last_reported":1711818350,"current_range_meters":10400,"station_id":"ce4bgn12rcd13ifvqbt0","pricing_plan_id":"cebpf4jnsgd1na2vs0mg"},{"bike_id":"21c070a0-62c3-4558-af14-7bb5167aa8b4","system_id":"levelo_inurba_marseille","lat":43.2968,"lon":5.37291,"is_reserved":false,"is_disabled":false,"rental_uris":{"android":"levelo://app?vid=21c070a0-62c3-4558-af14-7bb5167aa8b4","ios":"levelo://app?vid=21c070a0-62c3-4558-af14-7bb5167aa8b4"},"vehicle_type_id":"4","last_reported":1711818350,"current_range_meters":6400,"station_id":"ce4bgk12rcd13ifvqbj0","pricing_plan_id":"cebpf4jnsgd1na2vs0mg"},{"bike_id":"36b93369-48d3-4d26-a342-1c922c4e27f1","system_id":"levelo_inurba_marseille","lat":43.2968,"lon":5.37291,"is_reserved":false,"is_disabled":false,"rental_uris":{"android":"levelo://app?vid=36b93369-48d3-4d26-a342-1c922c4e27f1","ios":"levelo://app?vid=36b93369-48d3-4d26-a342-1c922c4e27f1"},"vehicle_type_id":"4","last_reported":1711818350,"current_range_meters":1600,"station_id":"ce4bgk12rcd13ifvqbj0","pricing_plan_id":"cebpf4jnsgd1na2vs0mg"},{"bike_id":"a35f391b-3927-4562-ae73-aefaf08045c0","system_id":"levelo_inurba_marseille","lat":43.2968,"lon":5.37291,"is_reserved":false,"is_disabled":false,"rental_uris":{"android":"levelo://app?vid=a35f391b-3927-4562-ae73-aefaf08045c0","ios":"levelo://app?vid=a35f391b-3927-4562-ae73-aefaf08045c0"},"vehicle_type_id":"4","last_reported":1711818350,"current_range_meters":17200,"station_id":"ce4bgk12rcd13ifvqbj0","pricing_plan_id":"cebpf4jnsgd1na2vs0mg"},{"bike_id":"aa566260-8d4c-4696-a89d-c6453e0eb670","system_id":"levelo_inurba_marseille","lat":43.2968,"lon":5.37291,"is_reserved":false,"is_disabled":false,"rental_uris":{"android":"levelo://app?vid=aa566260-8d4c-4696-a89d-c6453e0eb670","ios":"levelo://app?vid=aa566260-8d4c-4696-a89d-c6453e0eb670"},"vehicle_type_id":"4","last_reported":1711818350,"current_range_meters":23200,"station_id":"ce4bgk12rcd13ifvqbj0","pricing_plan_id":"cebpf4jnsgd1na2vs0mg"},{"bike_id":"6d69413c-3df8-4ecc-af23-375676eab5c8","system_id":"levelo_inurba_marseille","lat":43.29573,"lon":5.367355,"is_reserved":false,"is_disabled":false,"rental_uris":{"android":"levelo://app?vid=6d69413c-3df8-4ecc-af23-375676eab5c8","ios":"levelo://app?vid=6d69413c-3df8-4ecc-af23-375676eab5c8"},"vehicle_type_id":"4","last_reported":1711818350,"current_range_meters":18800,"station_id":"ce4bgph2rcd13ifvqc2g","pricing_plan_id":"cebpf4jnsgd1na2vs0mg"},{"bike_id":"b2e9e6fe-bfc2-49d8-8a7b-78dc564812ac","system_id":"levelo_inurba_marseille","lat":43.29879,"lon":5.3795,"is_reserved":false,"is_disabled":false,"rental_uris":{"android":"levelo://app?vid=b2e9e6fe-bfc2-49d8-8a7b-78dc564812ac","ios":"levelo://app?vid=b2e9e6fe-bfc2-49d8-8a7b-78dc564812ac"},"vehicle_type_id":"4","last_reported":1711818350,"current_range_meters":11200,"station_id":"","pricing_plan_id":"cebpf4jnsgd1na2vs0mg"},{"bike_id":"3adc41fa-2515-4997-a245-9bc0fcce8ffd","system_id":"levelo_inurba_marseille","lat":43.29629,"lon":5.37174,"is_reserved":false,"is_disabled":false,"rental_uris":{"android":"levelo://app?vid=3adc41fa-2515-4997-a245-9bc0fcce8ffd","ios":"levelo://app?vid=3adc41fa-2515-4997-a245-9bc0fcce8ffd"},"vehicle_type_id":"4","last_reported":1711818350,"current_range_meters":26800,"station_id":"ce4bgnh2rcd13ifvqc0g","pricing_plan_id":"cebpf4jnsgd1na2vs0mg"},{"bike_id":"a5e222ab-4406-4efe-ad4c-9237b010f169","system_id":"levelo_inurba_marseille","lat":43.29573,"lon":5.367355,"is_reserved":false,"is_disabled":false,"rental_uris":{"android":"levelo://app?vid=a5e222ab-4406-4efe-ad4c-9237b010f169","ios":"levelo://app?vid=a5e222ab-4406-4efe-ad4c-9237b010f169"},"vehicle_type_id":"4","last_reported":1711818350,"current_range_meters":25600,"station_id":"ce4bgph2rcd13ifvqc2g","pricing_plan_id":"cebpf4jnsgd1na2vs0mg"},{"bike_id":"02af16a9-6dc3-43eb-8480-3f83d059cfc1","system_id":"levelo_inurba_marseille","lat":43.296129,"lon":5.370777,"is_reserved":false,"is_disabled":false,"rental_uris":{"android":"levelo://app?vid=02af16a9-6dc3-43eb-8480-3f83d059cfc1","ios":"levelo://app?vid=02af16a9-6dc3-43eb-8480-3f83d059cfc1"},"vehicle_type_id":"4","last_reported":1711818350,"current_range_meters":24400,"station_id":"ce4bgnh2rcd13ifvqc0g","pricing_plan_id":"cebpf4jnsgd1na2vs0mg"},{"bike_id":"a1945f30-71cc-4228-9675-0f9181558682","system_id":"levelo_inurba_marseille","lat":43.2962,"lon":5.37173,"is_reserved":false,"is_disabled":false,"rental_uris":{"android":"levelo://app?vid=a1945f30-71cc-4228-9675-0f9181558682","ios":"levelo://app?vid=a1945f30-71cc-4228-9675-0f9181558682"},"vehicle_type_id":"4","last_reported":1711818350,"current_range_meters":10800,"station_id":"ce4bgnh2rcd13ifvqc0g","pricing_plan_id":"cebpf4jnsgd1na2vs0mg"},{"bike_id":"467bf092-782c-4942-baa7-584f6959eb4b","system_id":"levelo_inurba_marseille","lat":43.296921,"lon":5.376579,"is_reserved":false,"is_disabled":false,"rental_uris":{"android":"levelo://app?vid=467bf092-782c-4942-baa7-584f6959eb4b","ios":"levelo://app?vid=467bf092-782c-4942-baa7-584f6959eb4b"},"vehicle_type_id":"4","last_reported":1711818350,"current_range_meters":14400,"station_id":"ce4bgkh2rcd13ifvqbl0","pricing_plan_id":"cebpf4jnsgd1na2vs0mg"},{"bike_id":"1bd865bc-6e7e-4af2-a24f-733c9802842b","system_id":"levelo_inurba_marseille","lat":43.299028,"lon":5.381509,"is_reserved":false,"is_disabled":false,"rental_uris":{"android":"levelo://app?vid=1bd865bc-6e7e-4af2-a24f-733c9802842b","ios":"levelo://app?vid=1bd865bc-6e7e-4af2-a24f-733c9802842b"},"vehicle_type_id":"4","last_reported":1711818350,"current_range_meters":24800,"station_id":"ce4bgj12rcd13ifvqbc0","pricing_plan_id":"cebpf4jnsgd1na2vs0mg"},{"bike_id":"52e62ac3-7bf8-4e95-bcc2-ce3f9681fcd2","system_id":"levelo_inurba_marseille","lat":43.29907,"lon":5.38136,"is_reserved":false,"is_disabled":false,"rental_uris":{"android":"levelo://app?vid=52e62ac3-7bf8-4e95-bcc2-ce3f9681fcd2","ios":"levelo://app?vid=52e62ac3-7bf8-4e95-bcc2-ce3f9681fcd2"},"vehicle_type_id":"4","last_reported":1711818350,"current_range_meters":0,"station_id":"ce4bgj12rcd13ifvqbc0","pricing_plan_id":"cebpf4jnsgd1na2vs0mg"},{"bike_id":"e91151ce-d56e-4e4f-8bc5-f06edbfa2c1f","system_id":"levelo_inurba_marseille","lat":43.30952,"lon":5.39023,"is_reserved":false,"is_disabled":false,"rental_uris":{"android":"levelo://app?vid=e91151ce-d56e-4e4f-8bc5-f06edbfa2c1f","ios":"levelo://app?vid=e91151ce-d56e-4e4f-8bc5-f06edbfa2c1f"},"vehicle_type_id":"4","last_reported":1711818350,"current_range_meters":10000,"station_id":"ce4bgup2rcd13ifvqco0","pricing_plan_id":"cebpf4jnsgd1na2vs0mg"},{"bike_id":"1ae971eb-dfd7-47d2-b93f-4e5789c352dc","system_id":"levelo_inurba_marseille","lat":43.299028,"lon":5.381509,"is_reserved":false,"is_disabled":false,"rental_uris":{"android":"levelo://app?vid=1ae971eb-dfd7-47d2-b93f-4e5789c352dc","ios":"levelo://app?vid=1ae971eb-dfd7-47d2-b93f-4e5789c352dc"},"vehicle_type_id":"4","last_reported":1711818350,"current_range_meters":1600,"station_id":"ce4bgj12rcd13ifvqbc0","pricing_plan_id":"cebpf4jnsgd1na2vs0mg"},{"bike_id":"7848ada3-aaa8-4c59-900e-363cac5f45a5","system_id":"levelo_inurba_marseille","lat":43.299028,"lon":5.381509,"is_reserved":false,"is_disabled":false,"rental_uris":{"android":"levelo://app?vid=7848ada3-aaa8-4c59-900e-363cac5f45a5","ios":"levelo://app?vid=7848ada3-aaa8-4c59-900e-363cac5f45a5"},"vehicle_type_id":"4","last_reported":1711818350,"current_range_meters":2000,"station_id":"ce4bgj12rcd13ifvqbc0","pricing_plan_id":"cebpf4jnsgd1na2vs0mg"},{"bike_id":"ca0ad5c0-0623-4b12-b7dd-801793db0478","system_id":"levelo_inurba_marseille","lat":43.307945,"lon":5.376487,"is_reserved":false,"is_disabled":false,"rental_uris":{"android":"levelo://app?vid=ca0ad5c0-0623-4b12-b7dd-801793db0478","ios":"levelo://app?vid=ca0ad5c0-0623-4b12-b7dd-801793db0478"},"vehicle_type_id":"4","last_reported":1711818350,"current_range_meters":0,"station_id":"ce4bgv92rcd13ifvqcq0","pricing_plan_id":"cebpf4jnsgd1na2vs0mg"},{"bike_id":"6c814c04-6f13-49eb-8e72-3fdeb963638f","system_id":"levelo_inurba_marseille","lat":43.309589,"lon":5.390258,"is_reserved":false,"is_disabled":false,"rental_uris":{"android":"levelo://app?vid=6c814c04-6f13-49eb-8e72-3fdeb963638f","ios":"levelo://app?vid=6c814c04-6f13-49eb-8e72-3fdeb963638f"},"vehicle_type_id":"4","last_reported":1711818350,"current_range_meters":31200,"station_id":"ce4bgup2rcd13ifvqco0","pricing_plan_id":"cebpf4jnsgd1na2vs0mg"},{"bike_id":"42e7dc77-d1e3-47fc-833f-a16df843fbb3","system_id":"levelo_inurba_marseille","lat":43.296935,"lon":5.376544,"is_reserved":false,"is_disabled":false,"rental_uris":{"android":"levelo://app?vid=42e7dc77-d1e3-47fc-833f-a16df843fbb3","ios":"levelo://app?vid=42e7dc77-d1e3-47fc-833f-a16df843fbb3"},"vehicle_type_id":"4","last_reported":1711818350,"current_range_meters":17200,"station_id":"ce4bgkh2rcd13ifvqbl0","pricing_plan_id":"cebpf4jnsgd1na2vs0mg"},{"bike_id":"8f92ca40-d1ba-490f-8a3b-79b52993815d","system_id":"levelo_inurba_marseille","lat":43.30537,"lon":5.367345,"is_reserved":false,"is_disabled":false,"rental_uris":{"android":"levelo://app?vid=8f92ca40-d1ba-490f-8a3b-79b52993815d","ios":"levelo://app?vid=8f92ca40-d1ba-490f-8a3b-79b52993815d"},"vehicle_type_id":"4","last_reported":1711818350,"current_range_meters":0,"station_id":"ce4bgrp2rcd13ifvqc9g","pricing_plan_id":"cebpf4jnsgd1na2vs0mg"},{"bike_id":"e4785808-09b5-4a3d-9ced-cc3d58489382","system_id":"levelo_inurba_marseille","lat":43.309589,"lon":5.390258,"is_reserved":false,"is_disabled":false,"rental_uris":{"android":"levelo://app?vid=e4785808-09b5-4a3d-9ced-cc3d58489382","ios":"levelo://app?vid=e4785808-09b5-4a3d-9ced-cc3d58489382"},"vehicle_type_id":"4","last_reported":1711818350,"current_range_meters":31200,"station_id":"ce4bgup2rcd13ifvqco0","pricing_plan_id":"cebpf4jnsgd1na2vs0mg"},{"bike_id":"92142d26-328b-49d5-8baa-6b6c20f17faa","system_id":"levelo_inurba_marseille","lat":43.309589,"lon":5.390258,"is_reserved":false,"is_disabled":false,"rental_uris":{"android":"levelo://app?vid=92142d26-328b-49d5-8baa-6b6c20f17faa","ios":"levelo://app?vid=92142d26-328b-49d5-8baa-6b6c20f17faa"},"vehicle_type_id":"4","last_reported":1711818350,"current_range_meters":31200,"station_id":"ce4bgup2rcd13ifvqco0","pricing_plan_id":"cebpf4jnsgd1na2vs0mg"},{"bike_id":"a9ed1080-9dad-48c6-b6ce-4341eb402764","system_id":"levelo_inurba_marseille","lat":43.309589,"lon":5.390258,"is_reserved":false,"is_disabled":false,"rental_uris":{"android":"levelo://app?vid=a9ed1080-9dad-48c6-b6ce-4341eb402764","ios":"levelo://app?vid=a9ed1080-9dad-48c6-b6ce-4341eb402764"},"vehicle_type_id":"4","last_reported":1711818350,"current_range_meters":18400,"station_id":"ce4bgup2rcd13ifvqco0","pricing_plan_id":"cebpf4jnsgd1na2vs0mg"},{"bike_id":"f03629cd-6ac1-4e69-af82-522ef8ded4cd","system_id":"levelo_inurba_marseille","lat":43.309589,"lon":5.390258,"is_reserved":false,"is_disabled":false,"rental_uris":{"android":"levelo://app?vid=f03629cd-6ac1-4e69-af82-522ef8ded4cd","ios":"levelo://app?vid=f03629cd-6ac1-4e69-af82-522ef8ded4cd"},"vehicle_type_id":"4","last_reported":1711818350,"current_range_meters":24800,"station_id":"ce4bgup2rcd13ifvqco0","pricing_plan_id":"cebpf4jnsgd1na2vs0mg"},{"bike_id":"4e4cca9d-ca86-4053-8f34-c29e772e09f9","system_id":"levelo_inurba_marseille","lat":43.309589,"lon":5.390258,"is_reserved":false,"is_disabled":false,"rental_uris":{"android":"levelo://app?vid=4e4cca9d-ca86-4053-8f34-c29e772e09f9","ios":"levelo://app?vid=4e4cca9d-ca86-4053-8f34-c29e772e09f9"},"vehicle_type_id":"4","last_reported":1711818350,"current_range_meters":26000,"station_id":"ce4bgup2rcd13ifvqco0","pricing_plan_id":"cebpf4jnsgd1na2vs0mg"},{"bike_id":"9c3de725-f5f0-4c4b-8d3e-d687563cfa3e","system_id":"levelo_inurba_marseille","lat":43.31749,"lon":5.3901,"is_reserved":false,"is_disabled":false,"rental_uris":{"android":"levelo://app?vid=9c3de725-f5f0-4c4b-8d3e-d687563cfa3e","ios":"levelo://app?vid=9c3de725-f5f0-4c4b-8d3e-d687563cfa3e"},"vehicle_type_id":"4","last_reported":1711818350,"current_range_meters":25600,"station_id":"ce4bhqp2rcd13ifvqhng","pricing_plan_id":"cebpf4jnsgd1na2vs0mg"},{"bike_id":"b2ff05fa-dca6-4470-a9cc-38c3bbca7082","system_id":"levelo_inurba_marseille","lat":43.317557,"lon":5.390173,"is_reserved":false,"is_disabled":false,"rental_uris":{"android":"levelo://app?vid=b2ff05fa-dca6-4470-a9cc-38c3bbca7082","ios":"levelo://app?vid=b2ff05fa-dca6-4470-a9cc-38c3bbca7082"},"vehicle_type_id":"4","last_reported":1711818350,"current_range_meters":14800,"station_id":"ce4bhqp2rcd13ifvqhng","pricing_plan_id":"cebpf4jnsgd1na2vs0mg"},{"bike_id":"23c6e965-a6a1-4da7-8b1d-13b6591b5d67","system_id":"levelo_inurba_marseille","lat":43.317557,"lon":5.390173,"is_reserved":false,"is_disabled":false,"rental_uris":{"android":"levelo://app?vid=23c6e965-a6a1-4da7-8b1d-13b6591b5d67","ios":"levelo://app?vid=23c6e965-a6a1-4da7-8b1d-13b6591b5d67"},"vehicle_type_id":"4","last_reported":1711818350,"current_range_meters":31200,"station_id":"ce4bhqp2rcd13ifvqhng","pricing_plan_id":"cebpf4jnsgd1na2vs0mg"},{"bike_id":"3501498e-9c17-484c-a1d2-f1e1ec60693e","system_id":"levelo_inurba_marseille","lat":43.317557,"lon":5.390173,"is_reserved":false,"is_disabled":false,"rental_uris":{"android":"levelo://app?vid=3501498e-9c17-484c-a1d2-f1e1ec60693e","ios":"levelo://app?vid=3501498e-9c17-484c-a1d2-f1e1ec60693e"},"vehicle_type_id":"4","last_reported":1711818350,"current_range_meters":26800,"station_id":"ce4bhqp2rcd13ifvqhng","pricing_plan_id":"cebpf4jnsgd1na2vs0mg"},{"bike_id":"fcdc3647-21be-4b09-b61d-8c354df5fb59","system_id":"levelo_inurba_marseille","lat":43.317748,"lon":5.390161,"is_reserved":false,"is_disabled":false,"rental_uris":{"android":"levelo://app?vid=fcdc3647-21be-4b09-b61d-8c354df5fb59","ios":"levelo://app?vid=fcdc3647-21be-4b09-b61d-8c354df5fb59"},"vehicle_type_id":"4","last_reported":1711818350,"current_range_meters":22000,"station_id":"ce4bhqp2rcd13ifvqhng","pricing_plan_id":"cebpf4jnsgd1na2vs0mg"},{"bike_id":"67312943-2df1-4e29-894d-1c7f6e39c36e","system_id":"levelo_inurba_marseille","lat":43.317557,"lon":5.390173,"is_reserved":false,"is_disabled":false,"rental_uris":{"android":"levelo://app?vid=67312943-2df1-4e29-894d-1c7f6e39c36e","ios":"levelo://app?vid=67312943-2df1-4e29-894d-1c7f6e39c36e"},"vehicle_type_id":"4","last_reported":1711818350,"current_range_meters":20000,"station_id":"ce4bhqp2rcd13ifvqhng","pricing_plan_id":"cebpf4jnsgd1na2vs0mg"},{"bike_id":"3994ed79-d959-4807-9726-1de27ba56c9e","system_id":"levelo_inurba_marseille","lat":43.317557,"lon":5.390173,"is_reserved":false,"is_disabled":false,"rental_uris":{"android":"levelo://app?vid=3994ed79-d959-4807-9726-1de27ba56c9e","ios":"levelo://app?vid=3994ed79-d959-4807-9726-1de27ba56c9e"},"vehicle_type_id":"4","last_reported":1711818350,"current_range_meters":27200,"station_id":"ce4bhqp2rcd13ifvqhng","pricing_plan_id":"cebpf4jnsgd1na2vs0mg"},{"bike_id":"72f019e1-bb7c-44b2-bf33-9daff4ff09d2","system_id":"levelo_inurba_marseille","lat":43.304278,"lon":5.388868,"is_reserved":false,"is_disabled":false,"rental_uris":{"android":"levelo://app?vid=72f019e1-bb7c-44b2-bf33-9daff4ff09d2","ios":"levelo://app?vid=72f019e1-bb7c-44b2-bf33-9daff4ff09d2"},"vehicle_type_id":"4","last_reported":1711818350,"current_range_meters":8400,"station_id":"ce4bgk12rcd13ifvqbi0","pricing_plan_id":"cebpf4jnsgd1na2vs0mg"},{"bike_id":"08a8d3e8-460a-424b-b0bb-545ebf6faa45","system_id":"levelo_inurba_marseille","lat":43.29802,"lon":5.38083,"is_reserved":false,"is_disabled":false,"rental_uris":{"android":"levelo://app?vid=08a8d3e8-460a-424b-b0bb-545ebf6faa45","ios":"levelo://app?vid=08a8d3e8-460a-424b-b0bb-545ebf6faa45"},"vehicle_type_id":"4","last_reported":1711818350,"current_range_meters":5200,"station_id":"ce4bgip2rcd13ifvqbb0","pricing_plan_id":"cebpf4jnsgd1na2vs0mg"},{"bike_id":"9641c487-f8b7-4ef2-8508-efc32602a200","system_id":"levelo_inurba_marseille","lat":43.29804,"lon":5.3809,"is_reserved":false,"is_disabled":false,"rental_uris":{"android":"levelo://app?vid=9641c487-f8b7-4ef2-8508-efc32602a200","ios":"levelo://app?vid=9641c487-f8b7-4ef2-8508-efc32602a200"},"vehicle_type_id":"4","last_reported":1711818350,"current_range_meters":0,"station_id":"ce4bgip2rcd13ifvqbb0","pricing_plan_id":"cebpf4jnsgd1na2vs0mg"},{"bike_id":"4c0d92f7-a3b5-4b90-8327-37473fb343a8","system_id":"levelo_inurba_marseille","lat":43.295748,"lon":5.37522,"is_reserved":false,"is_disabled":false,"rental_uris":{"android":"levelo://app?vid=4c0d92f7-a3b5-4b90-8327-37473fb343a8","ios":"levelo://app?vid=4c0d92f7-a3b5-4b90-8327-37473fb343a8"},"vehicle_type_id":"4","last_reported":1711818350,"current_range_meters":11600,"station_id":"ce4bgh92rcd13ifvqb50","pricing_plan_id":"cebpf4jnsgd1na2vs0mg"},{"bike_id":"e26a976c-36c1-4e06-8045-36472cbb3c16","system_id":"levelo_inurba_marseille","lat":43.295748,"lon":5.37522,"is_reserved":false,"is_disabled":false,"rental_uris":{"android":"levelo://app?vid=e26a976c-36c1-4e06-8045-36472cbb3c16","ios":"levelo://app?vid=e26a976c-36c1-4e06-8045-36472cbb3c16"},"vehicle_type_id":"4","last_reported":1711818350,"current_range_meters":27200,"station_id":"ce4bgh92rcd13ifvqb50","pricing_plan_id":"cebpf4jnsgd1na2vs0mg"},{"bike_id":"d4e930f2-4a5e-4a81-ae91-f6245b1254f3","system_id":"levelo_inurba_marseille","lat":43.295748,"lon":5.37522,"is_reserved":false,"is_disabled":false,"rental_uris":{"android":"levelo://app?vid=d4e930f2-4a5e-4a81-ae91-f6245b1254f3","ios":"levelo://app?vid=d4e930f2-4a5e-4a81-ae91-f6245b1254f3"},"vehicle_type_id":"4","last_reported":1711818350,"current_range_meters":17200,"station_id":"ce4bgh92rcd13ifvqb50","pricing_plan_id":"cebpf4jnsgd1na2vs0mg"},{"bike_id":"315865f3-e8d6-4ec7-af98-fed7016406b5","system_id":"levelo_inurba_marseille","lat":43.298037,"lon":5.381066,"is_reserved":false,"is_disabled":false,"rental_uris":{"android":"levelo://app?vid=315865f3-e8d6-4ec7-af98-fed7016406b5","ios":"levelo://app?vid=315865f3-e8d6-4ec7-af98-fed7016406b5"},"vehicle_type_id":"4","last_reported":1711818350,"current_range_meters":12000,"station_id":"ce4bgip2rcd13ifvqbb0","pricing_plan_id":"cebpf4jnsgd1na2vs0mg"},{"bike_id":"09aca842-3d23-4f80-a5ef-0251a3fe355e","system_id":"levelo_inurba_marseille","lat":43.295748,"lon":5.37522,"is_reserved":false,"is_disabled":false,"rental_uris":{"android":"levelo://app?vid=09aca842-3d23-4f80-a5ef-0251a3fe355e","ios":"levelo://app?vid=09aca842-3d23-4f80-a5ef-0251a3fe355e"},"vehicle_type_id":"4","last_reported":1711818350,"current_range_meters":0,"station_id":"ce4bgh92rcd13ifvqb50","pricing_plan_id":"cebpf4jnsgd1na2vs0mg"},{"bike_id":"34602866-f374-4595-9367-51f2b4b1c69a","system_id":"levelo_inurba_marseille","lat":43.298037,"lon":5.381066,"is_reserved":false,"is_disabled":false,"rental_uris":{"android":"levelo://app?vid=34602866-f374-4595-9367-51f2b4b1c69a","ios":"levelo://app?vid=34602866-f374-4595-9367-51f2b4b1c69a"},"vehicle_type_id":"4","last_reported":1711818350,"current_range_meters":22400,"station_id":"ce4bgip2rcd13ifvqbb0","pricing_plan_id":"cebpf4jnsgd1na2vs0mg"},{"bike_id":"311ca446-dc17-406a-a897-33549e4e3816","system_id":"levelo_inurba_marseille","lat":43.304278,"lon":5.388868,"is_reserved":false,"is_disabled":false,"rental_uris":{"android":"levelo://app?vid=311ca446-dc17-406a-a897-33549e4e3816","ios":"levelo://app?vid=311ca446-dc17-406a-a897-33549e4e3816"},"vehicle_type_id":"4","last_reported":1711818350,"current_range_meters":0,"station_id":"ce4bgk12rcd13ifvqbi0","pricing_plan_id":"cebpf4jnsgd1na2vs0mg"},{"bike_id":"cf7e6471-36cc-4a8f-863a-32a2ffa0f9d9","system_id":"levelo_inurba_marseille","lat":43.2957,"lon":5.37508,"is_reserved":false,"is_disabled":false,"rental_uris":{"android":"levelo://app?vid=cf7e6471-36cc-4a8f-863a-32a2ffa0f9d9","ios":"levelo://app?vid=cf7e6471-36cc-4a8f-863a-32a2ffa0f9d9"},"vehicle_type_id":"4","last_reported":1711818350,"current_range_meters":400,"station_id":"ce4bgh92rcd13ifvqb50","pricing_plan_id":"cebpf4jnsgd1na2vs0mg"},{"bike_id":"6d97b531-3e6d-48e8-b347-ffdadce201a4","system_id":"levelo_inurba_marseille","lat":43.30429,"lon":5.38884,"is_reserved":false,"is_disabled":false,"rental_uris":{"android":"levelo://app?vid=6d97b531-3e6d-48e8-b347-ffdadce201a4","ios":"levelo://app?vid=6d97b531-3e6d-48e8-b347-ffdadce201a4"},"vehicle_type_id":"4","last_reported":1711818350,"current_range_meters":0,"station_id":"ce4bgk12rcd13ifvqbi0","pricing_plan_id":"cebpf4jnsgd1na2vs0mg"},{"bike_id":"d479ea51-6ea5-44a2-b39d-280c7d8046be","system_id":"levelo_inurba_marseille","lat":43.29677,"lon":5.3785,"is_reserved":false,"is_disabled":false,"rental_uris":{"android":"levelo://app?vid=d479ea51-6ea5-44a2-b39d-280c7d8046be","ios":"levelo://app?vid=d479ea51-6ea5-44a2-b39d-280c7d8046be"},"vehicle_type_id":"4","last_reported":1711818350,"current_range_meters":26800,"station_id":"","pricing_plan_id":"cebpf4jnsgd1na2vs0mg"},{"bike_id":"7c152b36-997c-4df4-8588-69babad526b9","system_id":"levelo_inurba_marseille","lat":43.296184,"lon":5.376905,"is_reserved":false,"is_disabled":false,"rental_uris":{"android":"levelo://app?vid=7c152b36-997c-4df4-8588-69babad526b9","ios":"levelo://app?vid=7c152b36-997c-4df4-8588-69babad526b9"},"vehicle_type_id":"4","last_reported":1711818350,"current_range_meters":5600,"station_id":"ce4bgi92rcd13ifvqb90","pricing_plan_id":"cebpf4jnsgd1na2vs0mg"},{"bike_id":"4d822340-227a-413d-832c-f51eb2a40239","system_id":"levelo_inurba_marseille","lat":43.304297,"lon":5.388927,"is_reserved":false,"is_disabled":false,"rental_uris":{"android":"levelo://app?vid=4d822340-227a-413d-832c-f51eb2a40239","ios":"levelo://app?vid=4d822340-227a-413d-832c-f51eb2a40239"},"vehicle_type_id":"4","last_reported":1711818350,"current_range_meters":11600,"station_id":"ce4bgk12rcd13ifvqbi0","pricing_plan_id":"cebpf4jnsgd1na2vs0mg"},{"bike_id":"4c3d5d22-a754-41df-9443-5bdd6ae587a1","system_id":"levelo_inurba_marseille","lat":43.295676,"lon":5.37525,"is_reserved":false,"is_disabled":false,"rental_uris":{"android":"levelo://app?vid=4c3d5d22-a754-41df-9443-5bdd6ae587a1","ios":"levelo://app?vid=4c3d5d22-a754-41df-9443-5bdd6ae587a1"},"vehicle_type_id":"4","last_reported":1711818350,"current_range_meters":2400,"station_id":"ce4bgh92rcd13ifvqb50","pricing_plan_id":"cebpf4jnsgd1na2vs0mg"},{"bike_id":"ebca9c4f-0f68-4bef-a469-0090cf6b7aa1","system_id":"levelo_inurba_marseille","lat":43.304278,"lon":5.388868,"is_reserved":false,"is_disabled":false,"rental_uris":{"android":"levelo://app?vid=ebca9c4f-0f68-4bef-a469-0090cf6b7aa1","ios":"levelo://app?vid=ebca9c4f-0f68-4bef-a469-0090cf6b7aa1"},"vehicle_type_id":"4","last_reported":1711818350,"current_range_meters":21600,"station_id":"ce4bgk12rcd13ifvqbi0","pricing_plan_id":"cebpf4jnsgd1na2vs0mg"},{"bike_id":"6f35e864-9e47-4a87-bb76-14729f61eb0c","system_id":"levelo_inurba_marseille","lat":43.296263,"lon":5.40601,"is_reserved":false,"is_disabled":false,"rental_uris":{"android":"levelo://app?vid=6f35e864-9e47-4a87-bb76-14729f61eb0c","ios":"levelo://app?vid=6f35e864-9e47-4a87-bb76-14729f61eb0c"},"vehicle_type_id":"4","last_reported":1711818350,"current_range_meters":7600,"station_id":"ce4bh0h2rcd13ifvqd60","pricing_plan_id":"cebpf4jnsgd1na2vs0mg"},{"bike_id":"7aa4b357-af8a-4a24-8bf1-4002e7e8b9c1","system_id":"levelo_inurba_marseille","lat":43.29623,"lon":5.37719,"is_reserved":false,"is_disabled":false,"rental_uris":{"android":"levelo://app?vid=7aa4b357-af8a-4a24-8bf1-4002e7e8b9c1","ios":"levelo://app?vid=7aa4b357-af8a-4a24-8bf1-4002e7e8b9c1"},"vehicle_type_id":"4","last_reported":1711818350,"current_range_meters":0,"station_id":"ce4bgi92rcd13ifvqb90","pricing_plan_id":"cebpf4jnsgd1na2vs0mg"},{"bike_id":"921ac195-96c9-4e71-9227-0221ff8be0b9","system_id":"levelo_inurba_marseille","lat":43.295545,"lon":5.374823,"is_reserved":false,"is_disabled":false,"rental_uris":{"android":"levelo://app?vid=921ac195-96c9-4e71-9227-0221ff8be0b9","ios":"levelo://app?vid=921ac195-96c9-4e71-9227-0221ff8be0b9"},"vehicle_type_id":"4","last_reported":1711818350,"current_range_meters":24000,"station_id":"","pricing_plan_id":"cebpf4jnsgd1na2vs0mg"},{"bike_id":"f615c170-8080-42b2-a6f6-dbeb72f63d27","system_id":"levelo_inurba_marseille","lat":43.296219,"lon":5.377194,"is_reserved":false,"is_disabled":false,"rental_uris":{"android":"levelo://app?vid=f615c170-8080-42b2-a6f6-dbeb72f63d27","ios":"levelo://app?vid=f615c170-8080-42b2-a6f6-dbeb72f63d27"},"vehicle_type_id":"4","last_reported":1711818350,"current_range_meters":17600,"station_id":"ce4bgi92rcd13ifvqb90","pricing_plan_id":"cebpf4jnsgd1na2vs0mg"},{"bike_id":"4d1f0e09-b3be-407d-934a-2ce99c6bbf15","system_id":"levelo_inurba_marseille","lat":43.29564,"lon":5.37523,"is_reserved":false,"is_disabled":false,"rental_uris":{"android":"levelo://app?vid=4d1f0e09-b3be-407d-934a-2ce99c6bbf15","ios":"levelo://app?vid=4d1f0e09-b3be-407d-934a-2ce99c6bbf15"},"vehicle_type_id":"4","last_reported":1711818350,"current_range_meters":2800,"station_id":"","pricing_plan_id":"cebpf4jnsgd1na2vs0mg"},{"bike_id":"d7dc1f2a-1927-4267-b6d6-d0b985a6c11b","system_id":"levelo_inurba_marseille","lat":43.29621,"lon":5.37721,"is_reserved":false,"is_disabled":false,"rental_uris":{"android":"levelo://app?vid=d7dc1f2a-1927-4267-b6d6-d0b985a6c11b","ios":"levelo://app?vid=d7dc1f2a-1927-4267-b6d6-d0b985a6c11b"},"vehicle_type_id":"4","last_reported":1711818350,"current_range_meters":11600,"station_id":"","pricing_plan_id":"cebpf4jnsgd1na2vs0mg"},{"bike_id":"fa398f55-9319-46d9-b3e2-85d3b9da6a68","system_id":"levelo_inurba_marseille","lat":43.29618,"lon":5.37715,"is_reserved":false,"is_disabled":false,"rental_uris":{"android":"levelo://app?vid=fa398f55-9319-46d9-b3e2-85d3b9da6a68","ios":"levelo://app?vid=fa398f55-9319-46d9-b3e2-85d3b9da6a68"},"vehicle_type_id":"4","last_reported":1711818350,"current_range_meters":24400,"station_id":"ce4bgi92rcd13ifvqb90","pricing_plan_id":"cebpf4jnsgd1na2vs0mg"},{"bike_id":"e60395a2-8d5c-4021-858b-ae0635eae2a4","system_id":"levelo_inurba_marseille","lat":43.296263,"lon":5.377094,"is_reserved":false,"is_disabled":false,"rental_uris":{"android":"levelo://app?vid=e60395a2-8d5c-4021-858b-ae0635eae2a4","ios":"levelo://app?vid=e60395a2-8d5c-4021-858b-ae0635eae2a4"},"vehicle_type_id":"4","last_reported":1711818350,"current_range_meters":27600,"station_id":"ce4bgi92rcd13ifvqb90","pricing_plan_id":"cebpf4jnsgd1na2vs0mg"},{"bike_id":"20e21109-3747-43d7-ae17-c0c2d6e0c325","system_id":"levelo_inurba_marseille","lat":43.29618,"lon":5.37717,"is_reserved":false,"is_disabled":false,"rental_uris":{"android":"levelo://app?vid=20e21109-3747-43d7-ae17-c0c2d6e0c325","ios":"levelo://app?vid=20e21109-3747-43d7-ae17-c0c2d6e0c325"},"vehicle_type_id":"4","last_reported":1711818350,"current_range_meters":4400,"station_id":"ce4bgi92rcd13ifvqb90","pricing_plan_id":"cebpf4jnsgd1na2vs0mg"},{"bike_id":"38381a92-1777-474e-a215-8f8fdab4fcb7","system_id":"levelo_inurba_marseille","lat":43.296277,"lon":5.377108,"is_reserved":false,"is_disabled":false,"rental_uris":{"android":"levelo://app?vid=38381a92-1777-474e-a215-8f8fdab4fcb7","ios":"levelo://app?vid=38381a92-1777-474e-a215-8f8fdab4fcb7"},"vehicle_type_id":"4","last_reported":1711818350,"current_range_meters":15200,"station_id":"ce4bgi92rcd13ifvqb90","pricing_plan_id":"cebpf4jnsgd1na2vs0mg"},{"bike_id":"a8faccd2-62ec-492c-afc4-225296b514fb","system_id":"levelo_inurba_marseille","lat":43.29618,"lon":5.37732,"is_reserved":false,"is_disabled":false,"rental_uris":{"android":"levelo://app?vid=a8faccd2-62ec-492c-afc4-225296b514fb","ios":"levelo://app?vid=a8faccd2-62ec-492c-afc4-225296b514fb"},"vehicle_type_id":"4","last_reported":1711818350,"current_range_meters":11200,"station_id":"ce4bgi92rcd13ifvqb90","pricing_plan_id":"cebpf4jnsgd1na2vs0mg"},{"bike_id":"ed16ca34-0665-4083-985d-a3e39565698a","system_id":"levelo_inurba_marseille","lat":43.296277,"lon":5.377108,"is_reserved":false,"is_disabled":false,"rental_uris":{"android":"levelo://app?vid=ed16ca34-0665-4083-985d-a3e39565698a","ios":"levelo://app?vid=ed16ca34-0665-4083-985d-a3e39565698a"},"vehicle_type_id":"4","last_reported":1711818350,"current_range_meters":14000,"station_id":"ce4bgi92rcd13ifvqb90","pricing_plan_id":"cebpf4jnsgd1na2vs0mg"},{"bike_id":"ff0e7630-e044-455d-9819-d4cd339e8c1f","system_id":"levelo_inurba_marseille","lat":43.305706,"lon":5.365654,"is_reserved":false,"is_disabled":false,"rental_uris":{"android":"levelo://app?vid=ff0e7630-e044-455d-9819-d4cd339e8c1f","ios":"levelo://app?vid=ff0e7630-e044-455d-9819-d4cd339e8c1f"},"vehicle_type_id":"4","last_reported":1711818350,"current_range_meters":0,"station_id":"ce4bgs12rcd13ifvqcag","pricing_plan_id":"cebpf4jnsgd1na2vs0mg"},{"bike_id":"c3d56ddf-b628-4c19-8106-89354853c6ce","system_id":"levelo_inurba_marseille","lat":43.29545,"lon":5.37496,"is_reserved":false,"is_disabled":false,"rental_uris":{"android":"levelo://app?vid=c3d56ddf-b628-4c19-8106-89354853c6ce","ios":"levelo://app?vid=c3d56ddf-b628-4c19-8106-89354853c6ce"},"vehicle_type_id":"4","last_reported":1711818350,"current_range_meters":12800,"station_id":"ce4bgkp2rcd13ifvqbmg","pricing_plan_id":"cebpf4jnsgd1na2vs0mg"},{"bike_id":"9808361a-3b00-4bf3-9712-425c547287f2","system_id":"levelo_inurba_marseille","lat":43.299707,"lon":5.384859,"is_reserved":false,"is_disabled":false,"rental_uris":{"android":"levelo://app?vid=9808361a-3b00-4bf3-9712-425c547287f2","ios":"levelo://app?vid=9808361a-3b00-4bf3-9712-425c547287f2"},"vehicle_type_id":"4","last_reported":1711818350,"current_range_meters":15200,"station_id":"ce4bgj92rcd13ifvqbd0","pricing_plan_id":"cebpf4jnsgd1na2vs0mg"},{"bike_id":"c7817993-45d0-4ab6-b7e8-30a7b147caf5","system_id":"levelo_inurba_marseille","lat":43.29977,"lon":5.38484,"is_reserved":false,"is_disabled":false,"rental_uris":{"android":"levelo://app?vid=c7817993-45d0-4ab6-b7e8-30a7b147caf5","ios":"levelo://app?vid=c7817993-45d0-4ab6-b7e8-30a7b147caf5"},"vehicle_type_id":"4","last_reported":1711818350,"current_range_meters":17600,"station_id":"ce4bgj92rcd13ifvqbd0","pricing_plan_id":"cebpf4jnsgd1na2vs0mg"},{"bike_id":"d033d1cb-f7d8-4af6-b9bd-384d9b1c265b","system_id":"levelo_inurba_marseille","lat":43.299707,"lon":5.384859,"is_reserved":false,"is_disabled":false,"rental_uris":{"android":"levelo://app?vid=d033d1cb-f7d8-4af6-b9bd-384d9b1c265b","ios":"levelo://app?vid=d033d1cb-f7d8-4af6-b9bd-384d9b1c265b"},"vehicle_type_id":"4","last_reported":1711818350,"current_range_meters":24800,"station_id":"ce4bgj92rcd13ifvqbd0","pricing_plan_id":"cebpf4jnsgd1na2vs0mg"},{"bike_id":"af15391d-61e0-4763-aca0-8d1b5995b289","system_id":"levelo_inurba_marseille","lat":43.299707,"lon":5.384859,"is_reserved":false,"is_disabled":false,"rental_uris":{"android":"levelo://app?vid=af15391d-61e0-4763-aca0-8d1b5995b289","ios":"levelo://app?vid=af15391d-61e0-4763-aca0-8d1b5995b289"},"vehicle_type_id":"4","last_reported":1711818350,"current_range_meters":3200,"station_id":"ce4bgj92rcd13ifvqbd0","pricing_plan_id":"cebpf4jnsgd1na2vs0mg"},{"bike_id":"452721ff-c9e4-41a6-9358-f1e77bcacdc1","system_id":"levelo_inurba_marseille","lat":43.299707,"lon":5.384859,"is_reserved":false,"is_disabled":false,"rental_uris":{"android":"levelo://app?vid=452721ff-c9e4-41a6-9358-f1e77bcacdc1","ios":"levelo://app?vid=452721ff-c9e4-41a6-9358-f1e77bcacdc1"},"vehicle_type_id":"4","last_reported":1711818350,"current_range_meters":10000,"station_id":"ce4bgj92rcd13ifvqbd0","pricing_plan_id":"cebpf4jnsgd1na2vs0mg"},{"bike_id":"6d452144-34f4-438d-84d7-ba24901f87b7","system_id":"levelo_inurba_marseille","lat":43.292311,"lon":5.360731,"is_reserved":false,"is_disabled":false,"rental_uris":{"android":"levelo://app?vid=6d452144-34f4-438d-84d7-ba24901f87b7","ios":"levelo://app?vid=6d452144-34f4-438d-84d7-ba24901f87b7"},"vehicle_type_id":"4","last_reported":1711818350,"current_range_meters":4400,"station_id":"ce4bhbh2rcd13ifvqeqg","pricing_plan_id":"cebpf4jnsgd1na2vs0mg"},{"bike_id":"a20b20e8-8045-4481-8a13-8f5276071651","system_id":"levelo_inurba_marseille","lat":43.299717,"lon":5.384845,"is_reserved":false,"is_disabled":false,"rental_uris":{"android":"levelo://app?vid=a20b20e8-8045-4481-8a13-8f5276071651","ios":"levelo://app?vid=a20b20e8-8045-4481-8a13-8f5276071651"},"vehicle_type_id":"4","last_reported":1711818350,"current_range_meters":7200,"station_id":"ce4bgj92rcd13ifvqbd0","pricing_plan_id":"cebpf4jnsgd1na2vs0mg"},{"bike_id":"bf12521c-a8b2-40ff-9da9-92a2db0f11f3","system_id":"levelo_inurba_marseille","lat":43.299707,"lon":5.384859,"is_reserved":false,"is_disabled":false,"rental_uris":{"android":"levelo://app?vid=bf12521c-a8b2-40ff-9da9-92a2db0f11f3","ios":"levelo://app?vid=bf12521c-a8b2-40ff-9da9-92a2db0f11f3"},"vehicle_type_id":"4","last_reported":1711818350,"current_range_meters":10800,"station_id":"ce4bgj92rcd13ifvqbd0","pricing_plan_id":"cebpf4jnsgd1na2vs0mg"},{"bike_id":"a20f1594-274e-4899-96db-a46d3f3d590b","system_id":"levelo_inurba_marseille","lat":43.2952,"lon":5.37501,"is_reserved":false,"is_disabled":false,"rental_uris":{"android":"levelo://app?vid=a20f1594-274e-4899-96db-a46d3f3d590b","ios":"levelo://app?vid=a20f1594-274e-4899-96db-a46d3f3d590b"},"vehicle_type_id":"4","last_reported":1711818350,"current_range_meters":10400,"station_id":"ce4bhbh2rcd13ifvqeqg","pricing_plan_id":"cebpf4jnsgd1na2vs0mg"},{"bike_id":"ca70304c-5832-4493-a5c1-8ab573bed705","system_id":"levelo_inurba_marseille","lat":43.299717,"lon":5.384845,"is_reserved":false,"is_disabled":false,"rental_uris":{"android":"levelo://app?vid=ca70304c-5832-4493-a5c1-8ab573bed705","ios":"levelo://app?vid=ca70304c-5832-4493-a5c1-8ab573bed705"},"vehicle_type_id":"4","last_reported":1711818350,"current_range_meters":6800,"station_id":"ce4bgj92rcd13ifvqbd0","pricing_plan_id":"cebpf4jnsgd1na2vs0mg"},{"bike_id":"6822385a-202d-47f8-9f35-7a8650877c12","system_id":"levelo_inurba_marseille","lat":43.299717,"lon":5.384845,"is_reserved":false,"is_disabled":false,"rental_uris":{"android":"levelo://app?vid=6822385a-202d-47f8-9f35-7a8650877c12","ios":"levelo://app?vid=6822385a-202d-47f8-9f35-7a8650877c12"},"vehicle_type_id":"4","last_reported":1711818350,"current_range_meters":0,"station_id":"ce4bgj92rcd13ifvqbd0","pricing_plan_id":"cebpf4jnsgd1na2vs0mg"},{"bike_id":"8f6a513a-8759-4a20-b9b7-4fca11a59516","system_id":"levelo_inurba_marseille","lat":43.299724,"lon":5.384848,"is_reserved":false,"is_disabled":false,"rental_uris":{"android":"levelo://app?vid=8f6a513a-8759-4a20-b9b7-4fca11a59516","ios":"levelo://app?vid=8f6a513a-8759-4a20-b9b7-4fca11a59516"},"vehicle_type_id":"4","last_reported":1711818350,"current_range_meters":15200,"station_id":"ce4bgj92rcd13ifvqbd0","pricing_plan_id":"cebpf4jnsgd1na2vs0mg"},{"bike_id":"8de835e3-0777-4508-bf39-aeb9780ccae2","system_id":"levelo_inurba_marseille","lat":43.299724,"lon":5.384848,"is_reserved":false,"is_disabled":false,"rental_uris":{"android":"levelo://app?vid=8de835e3-0777-4508-bf39-aeb9780ccae2","ios":"levelo://app?vid=8de835e3-0777-4508-bf39-aeb9780ccae2"},"vehicle_type_id":"4","last_reported":1711818350,"current_range_meters":16400,"station_id":"ce4bgj92rcd13ifvqbd0","pricing_plan_id":"cebpf4jnsgd1na2vs0mg"},{"bike_id":"859f3c3d-bd92-4872-9560-2c8de613a6e7","system_id":"levelo_inurba_marseille","lat":43.294774,"lon":5.373985,"is_reserved":false,"is_disabled":false,"rental_uris":{"android":"levelo://app?vid=859f3c3d-bd92-4872-9560-2c8de613a6e7","ios":"levelo://app?vid=859f3c3d-bd92-4872-9560-2c8de613a6e7"},"vehicle_type_id":"4","last_reported":1711818350,"current_range_meters":3200,"station_id":"","pricing_plan_id":"cebpf4jnsgd1na2vs0mg"},{"bike_id":"1b6a5335-1015-4e3e-b795-f68d368adbe5","system_id":"levelo_inurba_marseille","lat":43.29607,"lon":5.37941,"is_reserved":false,"is_disabled":false,"rental_uris":{"android":"levelo://app?vid=1b6a5335-1015-4e3e-b795-f68d368adbe5","ios":"levelo://app?vid=1b6a5335-1015-4e3e-b795-f68d368adbe5"},"vehicle_type_id":"4","last_reported":1711818350,"current_range_meters":0,"station_id":"","pricing_plan_id":"cebpf4jnsgd1na2vs0mg"},{"bike_id":"48d77625-5040-497d-8b43-ebcd28b2d7db","system_id":"levelo_inurba_marseille","lat":43.32357,"lon":5.3888,"is_reserved":false,"is_disabled":false,"rental_uris":{"android":"levelo://app?vid=48d77625-5040-497d-8b43-ebcd28b2d7db","ios":"levelo://app?vid=48d77625-5040-497d-8b43-ebcd28b2d7db"},"vehicle_type_id":"4","last_reported":1711818350,"current_range_meters":23200,"station_id":"ce4bhqp2rcd13ifvqhog","pricing_plan_id":"cebpf4jnsgd1na2vs0mg"},{"bike_id":"0f83768f-80a2-4641-b375-375725ab5d7a","system_id":"levelo_inurba_marseille","lat":43.32367,"lon":5.38873,"is_reserved":false,"is_disabled":false,"rental_uris":{"android":"levelo://app?vid=0f83768f-80a2-4641-b375-375725ab5d7a","ios":"levelo://app?vid=0f83768f-80a2-4641-b375-375725ab5d7a"},"vehicle_type_id":"4","last_reported":1711818350,"current_range_meters":800,"station_id":"ce4bhqp2rcd13ifvqhog","pricing_plan_id":"cebpf4jnsgd1na2vs0mg"},{"bike_id":"7acc25d4-c157-45aa-a457-5f560d8e3326","system_id":"levelo_inurba_marseille","lat":43.32365,"lon":5.38881,"is_reserved":false,"is_disabled":false,"rental_uris":{"android":"levelo://app?vid=7acc25d4-c157-45aa-a457-5f560d8e3326","ios":"levelo://app?vid=7acc25d4-c157-45aa-a457-5f560d8e3326"},"vehicle_type_id":"4","last_reported":1711818350,"current_range_meters":15200,"station_id":"ce4bhqp2rcd13ifvqhog","pricing_plan_id":"cebpf4jnsgd1na2vs0mg"},{"bike_id":"0847bfde-98dc-4645-b288-daf805a0541e","system_id":"levelo_inurba_marseille","lat":43.32364,"lon":5.38884,"is_reserved":false,"is_disabled":false,"rental_uris":{"android":"levelo://app?vid=0847bfde-98dc-4645-b288-daf805a0541e","ios":"levelo://app?vid=0847bfde-98dc-4645-b288-daf805a0541e"},"vehicle_type_id":"4","last_reported":1711818350,"current_range_meters":27600,"station_id":"ce4bhqp2rcd13ifvqhog","pricing_plan_id":"cebpf4jnsgd1na2vs0mg"},{"bike_id":"21280b21-df63-4624-af2e-cf3aa3aaf03c","system_id":"levelo_inurba_marseille","lat":43.32368,"lon":5.38883,"is_reserved":false,"is_disabled":false,"rental_uris":{"android":"levelo://app?vid=21280b21-df63-4624-af2e-cf3aa3aaf03c","ios":"levelo://app?vid=21280b21-df63-4624-af2e-cf3aa3aaf03c"},"vehicle_type_id":"4","last_reported":1711818350,"current_range_meters":0,"station_id":"ce4bhqp2rcd13ifvqhog","pricing_plan_id":"cebpf4jnsgd1na2vs0mg"},{"bike_id":"a7139ce8-a352-4d57-8aac-2c55f8217d5f","system_id":"levelo_inurba_marseille","lat":43.32368,"lon":5.38884,"is_reserved":false,"is_disabled":false,"rental_uris":{"android":"levelo://app?vid=a7139ce8-a352-4d57-8aac-2c55f8217d5f","ios":"levelo://app?vid=a7139ce8-a352-4d57-8aac-2c55f8217d5f"},"vehicle_type_id":"4","last_reported":1711818350,"current_range_meters":6800,"station_id":"ce4bhqp2rcd13ifvqhog","pricing_plan_id":"cebpf4jnsgd1na2vs0mg"},{"bike_id":"61da30af-79e6-4078-9f55-da4fe466eee9","system_id":"levelo_inurba_marseille","lat":43.323623,"lon":5.388899,"is_reserved":false,"is_disabled":false,"rental_uris":{"android":"levelo://app?vid=61da30af-79e6-4078-9f55-da4fe466eee9","ios":"levelo://app?vid=61da30af-79e6-4078-9f55-da4fe466eee9"},"vehicle_type_id":"4","last_reported":1711818350,"current_range_meters":13200,"station_id":"ce4bhqp2rcd13ifvqhog","pricing_plan_id":"cebpf4jnsgd1na2vs0mg"},{"bike_id":"7974de9a-ff15-41f1-91cc-35110c4cbb23","system_id":"levelo_inurba_marseille","lat":43.32364,"lon":5.38889,"is_reserved":false,"is_disabled":false,"rental_uris":{"android":"levelo://app?vid=7974de9a-ff15-41f1-91cc-35110c4cbb23","ios":"levelo://app?vid=7974de9a-ff15-41f1-91cc-35110c4cbb23"},"vehicle_type_id":"4","last_reported":1711818350,"current_range_meters":0,"station_id":"ce4bhqp2rcd13ifvqhog","pricing_plan_id":"cebpf4jnsgd1na2vs0mg"},{"bike_id":"ad0c044b-3c5b-4cfa-ae84-20986c3a5be4","system_id":"levelo_inurba_marseille","lat":43.32367,"lon":5.388836,"is_reserved":false,"is_disabled":false,"rental_uris":{"android":"levelo://app?vid=ad0c044b-3c5b-4cfa-ae84-20986c3a5be4","ios":"levelo://app?vid=ad0c044b-3c5b-4cfa-ae84-20986c3a5be4"},"vehicle_type_id":"4","last_reported":1711818350,"current_range_meters":14400,"station_id":"ce4bhqp2rcd13ifvqhog","pricing_plan_id":"cebpf4jnsgd1na2vs0mg"},{"bike_id":"41b3e8a6-3e59-4b8e-9143-02dc00a8a5f7","system_id":"levelo_inurba_marseille","lat":43.323667,"lon":5.38892,"is_reserved":false,"is_disabled":false,"rental_uris":{"android":"levelo://app?vid=41b3e8a6-3e59-4b8e-9143-02dc00a8a5f7","ios":"levelo://app?vid=41b3e8a6-3e59-4b8e-9143-02dc00a8a5f7"},