{"last_updated":1722618460,"ttl":30,"version":"2.2","data":{"bikes":[{"bike_id":"28e75852-13b2-493d-b5f2-b32468bd0b09","system_id":"levelo_inurba_marseille","lat":43.312239,"lon":5.368562,"is_reserved":false,"is_disabled":false,"rental_uris":{"android":"levelo://app?vid=28e75852-13b2-493d-b5f2-b32468bd0b09","ios":"levelo://app?vid=28e75852-13b2-493d-b5f2-b32468bd0b09"},"vehicle_type_id":"4","last_reported":1722618460,"current_range_meters":0,"station_id":"ce4bgl92rcd13ifvqbq0","pricing_plan_id":"cebpf4jnsgd1na2vs0mg"},{"bike_id":"3aaba3e7-1b5a-44c4-8b2b-c033dcb36ee8","system_id":"levelo_inurba_marseille","lat":43.309039,"lon":5.371797,"is_reserved":false,"is_disabled":false,"rental_uris":{"android":"levelo://app?vid=3aaba3e7-1b5a-44c4-8b2b-c033dcb36ee8","ios":"levelo://app?vid=3aaba3e7-1b5a-44c4-8b2b-c033dcb36ee8"},"vehicle_type_id":"4","last_reported":1722618460,"current_range_meters":10400,"station_id":"ce4bguh2rcd13ifvqckg","pricing_plan_id":"cebpf4jnsgd1na2vs0mg"},{"bike_id":"69eebdea-6b88-4f2e-913a-0898de38fbcc","system_id":"levelo_inurba_marseille","lat":43.31411,"lon":5.374761,"is_reserved":false,"is_disabled":false,"rental_uris":{"android":"levelo://app?vid=69eebdea-6b88-4f2e-913a-0898de38fbcc","ios":"levelo://app?vid=69eebdea-6b88-4f2e-913a-0898de38fbcc"},"vehicle_type_id":"4","last_reported":1722618460,"current_range_meters":30000,"station_id":"","pricing_plan_id":"cebpf4jnsgd1na2vs0mg"},{"bike_id":"9ffa0d07-c761-4a85-a6ca-433d8a207041","system_id":"levelo_inurba_marseille","lat":43.305368,"lon":5.367343,"is_reserved":false,"is_disabled":false,"rental_uris":{"android":"levelo://app?vid=9ffa0d07-c761-4a85-a6ca-433d8a207041","ios":"levelo://app?vid=9ffa0d07-c761-4a85-a6ca-433d8a207041"},"vehicle_type_id":"4","last_reported":1722618460,"current_range_meters":0,"station_id":"ce4bgrp2rcd13ifvqc9g","pricing_plan_id":"cebpf4jnsgd1na2vs0mg"},{"bike_id":"85120646-3b6e-4158-ac2a-4b9e67a336dd","system_id":"levelo_inurba_marseille","lat":43.305368,"lon":5.367343,"is_reserved":false,"is_disabled":false,"rental_uris":{"android":"levelo://app?vid=85120646-3b6e-4158-ac2a-4b9e67a336dd","ios":"levelo://app?vid=85120646-3b6e-4158-ac2a-4b9e67a336dd"},"vehicle_type_id":"4","last_reported":1722618460,"current_range_meters":15600,"station_id":"ce4bgrp2rcd13ifvqc9g","pricing_plan_id":"cebpf4jnsgd1na2vs0mg"},{"bike_id":"0d6e6ddf-2587-4364-85d0-8375916571fc","system_id":"levelo_inurba_marseille","lat":43.311125,"lon":5.377624,"is_reserved":false,"is_disabled":false,"rental_uris":{"android":"levelo://app?vid=0d6e6ddf-2587-4364-85d0-8375916571fc","ios":"levelo://app?vid=0d6e6ddf-2587-4364-85d0-8375916571fc"},"vehicle_type_id":"4","last_reported":1722618460,"current_range_meters":11600,"station_id":"ce4bgt92rcd13ifvqcg0","pricing_plan_id":"cebpf4jnsgd1na2vs0mg"},{"bike_id":"40f61cc5-61a0-43f4-bea0-e55c360cbf44","system_id":"levelo_inurba_marseille","lat":43.307945,"lon":5.376487,"is_reserved":false,"is_disabled":false,"rental_uris":{"android":"levelo://app?vid=40f61cc5-61a0-43f4-bea0-e55c360cbf44","ios":"levelo://app?vid=40f61cc5-61a0-43f4-bea0-e55c360cbf44"},"vehicle_type_id":"4","last_reported":1722618460,"current_range_meters":18800,"station_id":"ce4bgv92rcd13ifvqcq0","pricing_plan_id":"cebpf4jnsgd1na2vs0mg"},{"bike_id":"1e223524-a140-4df8-b07e-e061b6583054","system_id":"levelo_inurba_marseille","lat":43.307945,"lon":5.376487,"is_reserved":false,"is_disabled":false,"rental_uris":{"android":"levelo://app?vid=1e223524-a140-4df8-b07e-e061b6583054","ios":"levelo://app?vid=1e223524-a140-4df8-b07e-e061b6583054"},"vehicle_type_id":"4","last_reported":1722618460,"current_range_meters":22400,"station_id":"ce4bgv92rcd13ifvqcq0","pricing_plan_id":"cebpf4jnsgd1na2vs0mg"},{"bike_id":"20ddc2d6-3046-4b8f-9e4c-1248bbf243f5","system_id":"levelo_inurba_marseille","lat":43.30408,"lon":5.36783,"is_reserved":false,"is_disabled":false,"rental_uris":{"android":"levelo://app?vid=20ddc2d6-3046-4b8f-9e4c-1248bbf243f5","ios":"levelo://app?vid=20ddc2d6-3046-4b8f-9e4c-1248bbf243f5"},"vehicle_type_id":"4","last_reported":1722618460,"current_range_meters":0,"station_id":"","pricing_plan_id":"cebpf4jnsgd1na2vs0mg"},{"bike_id":"e3f7e19e-556a-4f9b-9256-654e4f8fa703","system_id":"levelo_inurba_marseille","lat":43.3171,"lon":5.37739,"is_reserved":false,"is_disabled":false,"rental_uris":{"android":"levelo://app?vid=e3f7e19e-556a-4f9b-9256-654e4f8fa703","ios":"levelo://app?vid=e3f7e19e-556a-4f9b-9256-654e4f8fa703"},"vehicle_type_id":"4","last_reported":1722618460,"current_range_meters":25200,"station_id":"ce4bgth2rcd13ifvqch0","pricing_plan_id":"cebpf4jnsgd1na2vs0mg"},{"bike_id":"6004770f-aa2f-4038-be31-6b02893a2f31","system_id":"levelo_inurba_marseille","lat":43.317075,"lon":5.377367,"is_reserved":false,"is_disabled":false,"rental_uris":{"android":"levelo://app?vid=6004770f-aa2f-4038-be31-6b02893a2f31","ios":"levelo://app?vid=6004770f-aa2f-4038-be31-6b02893a2f31"},"vehicle_type_id":"4","last_reported":1722618460,"current_range_meters":29600,"station_id":"ce4bgth2rcd13ifvqch0","pricing_plan_id":"cebpf4jnsgd1na2vs0mg"},{"bike_id":"2f639ac7-0062-49cf-a52d-5a548e3b8d21","system_id":"levelo_inurba_marseille","lat":43.317075,"lon":5.377367,"is_reserved":false,"is_disabled":false,"rental_uris":{"android":"levelo://app?vid=2f639ac7-0062-49cf-a52d-5a548e3b8d21","ios":"levelo://app?vid=2f639ac7-0062-49cf-a52d-5a548e3b8d21"},"vehicle_type_id":"4","last_reported":1722618460,"current_range_meters":6800,"station_id":"ce4bgth2rcd13ifvqch0","pricing_plan_id":"cebpf4jnsgd1na2vs0mg"},{"bike_id":"749576d7-ac1c-4fdc-b071-bdc937fb475d","system_id":"levelo_inurba_marseille","lat":43.30365,"lon":5.36706,"is_reserved":false,"is_disabled":false,"rental_uris":{"android":"levelo://app?vid=749576d7-ac1c-4fdc-b071-bdc937fb475d","ios":"levelo://app?vid=749576d7-ac1c-4fdc-b071-bdc937fb475d"},"vehicle_type_id":"4","last_reported":1722618460,"current_range_meters":18000,"station_id":"","pricing_plan_id":"cebpf4jnsgd1na2vs0mg"},{"bike_id":"7c14d4b9-0373-42f4-98ca-5464de42dfc1","system_id":"levelo_inurba_marseille","lat":43.315289,"lon":5.380349,"is_reserved":false,"is_disabled":false,"rental_uris":{"android":"levelo://app?vid=7c14d4b9-0373-42f4-98ca-5464de42dfc1","ios":"levelo://app?vid=7c14d4b9-0373-42f4-98ca-5464de42dfc1"},"vehicle_type_id":"4","last_reported":1722618460,"current_range_meters":1600,"station_id":"ce4bhsp2rcd13ifvqi50","pricing_plan_id":"cebpf4jnsgd1na2vs0mg"},{"bike_id":"9d92e0aa-264e-4daa-9daf-08031824ea45","system_id":"levelo_inurba_marseille","lat":43.30314,"lon":5.3691,"is_reserved":false,"is_disabled":false,"rental_uris":{"android":"levelo://app?vid=9d92e0aa-264e-4daa-9daf-08031824ea45","ios":"levelo://app?vid=9d92e0aa-264e-4daa-9daf-08031824ea45"},"vehicle_type_id":"4","last_reported":1722618460,"current_range_meters":0,"station_id":"ce4bgqh2rcd13ifvqc5g","pricing_plan_id":"cebpf4jnsgd1na2vs0mg"},{"bike_id":"4b878d83-747a-478f-9d45-d370d3f5bc7b","system_id":"levelo_inurba_marseille","lat":43.303046,"lon":5.368981,"is_reserved":false,"is_disabled":false,"rental_uris":{"android":"levelo://app?vid=4b878d83-747a-478f-9d45-d370d3f5bc7b","ios":"levelo://app?vid=4b878d83-747a-478f-9d45-d370d3f5bc7b"},"vehicle_type_id":"4","last_reported":1722618460,"current_range_meters":17200,"station_id":"ce4bgqh2rcd13ifvqc5g","pricing_plan_id":"cebpf4jnsgd1na2vs0mg"},{"bike_id":"af6cb9df-438d-45ef-8380-84652ebeaf69","system_id":"levelo_inurba_marseille","lat":43.315289,"lon":5.380349,"is_reserved":false,"is_disabled":false,"rental_uris":{"android":"levelo://app?vid=af6cb9df-438d-45ef-8380-84652ebeaf69","ios":"levelo://app?vid=af6cb9df-438d-45ef-8380-84652ebeaf69"},"vehicle_type_id":"4","last_reported":1722618460,"current_range_meters":15600,"station_id":"ce4bhsp2rcd13ifvqi50","pricing_plan_id":"cebpf4jnsgd1na2vs0mg"},{"bike_id":"f7988602-a0ea-4016-a660-519b5b93cb09","system_id":"levelo_inurba_marseille","lat":43.315289,"lon":5.380349,"is_reserved":false,"is_disabled":false,"rental_uris":{"android":"levelo://app?vid=f7988602-a0ea-4016-a660-519b5b93cb09","ios":"levelo://app?vid=f7988602-a0ea-4016-a660-519b5b93cb09"},"vehicle_type_id":"4","last_reported":1722618460,"current_range_meters":27200,"station_id":"ce4bhsp2rcd13ifvqi50","pricing_plan_id":"cebpf4jnsgd1na2vs0mg"},{"bike_id":"d1972a95-185c-40cc-a78d-10bd787933c4","system_id":"levelo_inurba_marseille","lat":43.315289,"lon":5.380349,"is_reserved":false,"is_disabled":false,"rental_uris":{"android":"levelo://app?vid=d1972a95-185c-40cc-a78d-10bd787933c4","ios":"levelo://app?vid=d1972a95-185c-40cc-a78d-10bd787933c4"},"vehicle_type_id":"4","last_reported":1722618460,"current_range_meters":15200,"station_id":"ce4bhsp2rcd13ifvqi50","pricing_plan_id":"cebpf4jnsgd1na2vs0mg"},{"bike_id":"c078cab2-bd8c-47ea-9d88-a8964c9582c9","system_id":"levelo_inurba_marseille","lat":43.315289,"lon":5.380349,"is_reserved":false,"is_disabled":false,"rental_uris":{"android":"levelo://app?vid=c078cab2-bd8c-47ea-9d88-a8964c9582c9","ios":"levelo://app?vid=c078cab2-bd8c-47ea-9d88-a8964c9582c9"},"vehicle_type_id":"4","last_reported":1722618460,"current_range_meters":27200,"station_id":"ce4bhsp2rcd13ifvqi50","pricing_plan_id":"cebpf4jnsgd1na2vs0mg"},{"bike_id":"7d26f442-7c92-4f3d-8240-0ca62ad96ee4","system_id":"levelo_inurba_marseille","lat":43.32347,"lon":5.36491,"is_reserved":false,"is_disabled":false,"rental_uris":{"android":"levelo://app?vid=7d26f442-7c92-4f3d-8240-0ca62ad96ee4","ios":"levelo://app?vid=7d26f442-7c92-4f3d-8240-0ca62ad96ee4"},"vehicle_type_id":"4","last_reported":1722618460,"current_range_meters":30000,"station_id":"","pricing_plan_id":"cebpf4jnsgd1na2vs0mg"},{"bike_id":"9b1c808d-e342-4773-a105-a941ad9624c6","system_id":"levelo_inurba_marseille","lat":43.30799,"lon":5.38155,"is_reserved":false,"is_disabled":false,"rental_uris":{"android":"levelo://app?vid=9b1c808d-e342-4773-a105-a941ad9624c6","ios":"levelo://app?vid=9b1c808d-e342-4773-a105-a941ad9624c6"},"vehicle_type_id":"4","last_reported":1722618460,"current_range_meters":13600,"station_id":"ce4bgt12rcd13ifvqce0","pricing_plan_id":"cebpf4jnsgd1na2vs0mg"},{"bike_id":"c14aeb51-646d-4522-9b8b-74f57a5c0a12","system_id":"levelo_inurba_marseille","lat":43.324771,"lon":5.36557,"is_reserved":false,"is_disabled":false,"rental_uris":{"android":"levelo://app?vid=c14aeb51-646d-4522-9b8b-74f57a5c0a12","ios":"levelo://app?vid=c14aeb51-646d-4522-9b8b-74f57a5c0a12"},"vehicle_type_id":"4","last_reported":1722618460,"current_range_meters":4400,"station_id":"ce4bhs12rcd13ifvqhvg","pricing_plan_id":"cebpf4jnsgd1na2vs0mg"},{"bike_id":"d2781aaa-9004-4fb3-86f4-7c8465ce359d","system_id":"levelo_inurba_marseille","lat":43.32477,"lon":5.36564,"is_reserved":false,"is_disabled":false,"rental_uris":{"android":"levelo://app?vid=d2781aaa-9004-4fb3-86f4-7c8465ce359d","ios":"levelo://app?vid=d2781aaa-9004-4fb3-86f4-7c8465ce359d"},"vehicle_type_id":"4","last_reported":1722618460,"current_range_meters":16800,"station_id":"ce4bhs12rcd13ifvqhvg","pricing_plan_id":"cebpf4jnsgd1na2vs0mg"},{"bike_id":"d50f5eee-d5a0-407d-8e48-052c6677cd42","system_id":"levelo_inurba_marseille","lat":43.32479,"lon":5.36567,"is_reserved":false,"is_disabled":false,"rental_uris":{"android":"levelo://app?vid=d50f5eee-d5a0-407d-8e48-052c6677cd42","ios":"levelo://app?vid=d50f5eee-d5a0-407d-8e48-052c6677cd42"},"vehicle_type_id":"4","last_reported":1722618460,"current_range_meters":23600,"station_id":"ce4bhs12rcd13ifvqhvg","pricing_plan_id":"cebpf4jnsgd1na2vs0mg"},{"bike_id":"713d51f5-1e19-4e2b-ae15-11d23b5524f1","system_id":"levelo_inurba_marseille","lat":43.32481,"lon":5.3656,"is_reserved":false,"is_disabled":false,"rental_uris":{"android":"levelo://app?vid=713d51f5-1e19-4e2b-ae15-11d23b5524f1","ios":"levelo://app?vid=713d51f5-1e19-4e2b-ae15-11d23b5524f1"},"vehicle_type_id":"4","last_reported":1722618460,"current_range_meters":16000,"station_id":"ce4bhs12rcd13ifvqhvg","pricing_plan_id":"cebpf4jnsgd1na2vs0mg"},{"bike_id":"cfbb5f88-214f-4b9d-a4eb-4496dbd9322a","system_id":"levelo_inurba_marseille","lat":43.324771,"lon":5.36557,"is_reserved":false,"is_disabled":false,"rental_uris":{"android":"levelo://app?vid=cfbb5f88-214f-4b9d-a4eb-4496dbd9322a","ios":"levelo://app?vid=cfbb5f88-214f-4b9d-a4eb-4496dbd9322a"},"vehicle_type_id":"4","last_reported":1722618460,"current_range_meters":31600,"station_id":"ce4bhs12rcd13ifvqhvg","pricing_plan_id":"cebpf4jnsgd1na2vs0mg"},{"bike_id":"2b9799f5-efa7-4e00-9020-9de8d5ff632a","system_id":"levelo_inurba_marseille","lat":43.324848,"lon":5.365692,"is_reserved":false,"is_disabled":false,"rental_uris":{"android":"levelo://app?vid=2b9799f5-efa7-4e00-9020-9de8d5ff632a","ios":"levelo://app?vid=2b9799f5-efa7-4e00-9020-9de8d5ff632a"},"vehicle_type_id":"4","last_reported":1722618460,"current_range_meters":27200,"station_id":"ce4bhs12rcd13ifvqhvg","pricing_plan_id":"cebpf4jnsgd1na2vs0mg"},{"bike_id":"ae5fa8aa-bcaa-4ec5-a10e-fcd795bcdc5d","system_id":"levelo_inurba_marseille","lat":43.32485,"lon":5.36556,"is_reserved":false,"is_disabled":false,"rental_uris":{"android":"levelo://app?vid=ae5fa8aa-bcaa-4ec5-a10e-fcd795bcdc5d","ios":"levelo://app?vid=ae5fa8aa-bcaa-4ec5-a10e-fcd795bcdc5d"},"vehicle_type_id":"4","last_reported":1722618460,"current_range_meters":29200,"station_id":"ce4bhs12rcd13ifvqhvg","pricing_plan_id":"cebpf4jnsgd1na2vs0mg"},{"bike_id":"7370f898-d05e-4325-a96c-8cb4ab59798f","system_id":"levelo_inurba_marseille","lat":43.324771,"lon":5.36557,"is_reserved":false,"is_disabled":false,"rental_uris":{"android":"levelo://app?vid=7370f898-d05e-4325-a96c-8cb4ab59798f","ios":"levelo://app?vid=7370f898-d05e-4325-a96c-8cb4ab59798f"},"vehicle_type_id":"4","last_reported":1722618460,"current_range_meters":28000,"station_id":"ce4bhs12rcd13ifvqhvg","pricing_plan_id":"cebpf4jnsgd1na2vs0mg"},{"bike_id":"ca5dcd10-cb47-43cc-85a9-81882783085f","system_id":"levelo_inurba_marseille","lat":43.32487,"lon":5.365657,"is_reserved":false,"is_disabled":false,"rental_uris":{"android":"levelo://app?vid=ca5dcd10-cb47-43cc-85a9-81882783085f","ios":"levelo://app?vid=ca5dcd10-cb47-43cc-85a9-81882783085f"},"vehicle_type_id":"4","last_reported":1722618460,"current_range_meters":7600,"station_id":"ce4bhs12rcd13ifvqhvg","pricing_plan_id":"cebpf4jnsgd1na2vs0mg"},{"bike_id":"5119dbfa-92a5-4837-8dde-531605c069c9","system_id":"levelo_inurba_marseille","lat":43.32487,"lon":5.36556,"is_reserved":false,"is_disabled":false,"rental_uris":{"android":"levelo://app?vid=5119dbfa-92a5-4837-8dde-531605c069c9","ios":"levelo://app?vid=5119dbfa-92a5-4837-8dde-531605c069c9"},"vehicle_type_id":"4","last_reported":1722618460,"current_range_meters":10000,"station_id":"ce4bhs12rcd13ifvqhvg","pricing_plan_id":"cebpf4jnsgd1na2vs0mg"},{"bike_id":"0bc0b908-eaba-4b4d-87fc-c271f9bbbf80","system_id":"levelo_inurba_marseille","lat":43.3249,"lon":5.36575,"is_reserved":false,"is_disabled":false,"rental_uris":{"android":"levelo://app?vid=0bc0b908-eaba-4b4d-87fc-c271f9bbbf80","ios":"levelo://app?vid=0bc0b908-eaba-4b4d-87fc-c271f9bbbf80"},"vehicle_type_id":"4","last_reported":1722618460,"current_range_meters":13600,"station_id":"ce4bhs12rcd13ifvqhvg","pricing_plan_id":"cebpf4jnsgd1na2vs0mg"},{"bike_id":"75a25d88-d4f8-49f5-9b75-4c3b5365c690","system_id":"levelo_inurba_marseille","lat":43.324896,"lon":5.365651,"is_reserved":false,"is_disabled":false,"rental_uris":{"android":"levelo://app?vid=75a25d88-d4f8-49f5-9b75-4c3b5365c690","ios":"levelo://app?vid=75a25d88-d4f8-49f5-9b75-4c3b5365c690"},"vehicle_type_id":"4","last_reported":1722618460,"current_range_meters":12000,"station_id":"ce4bhs12rcd13ifvqhvg","pricing_plan_id":"cebpf4jnsgd1na2vs0mg"},{"bike_id":"4284a58a-b771-4f80-aa1f-02a33cda45e6","system_id":"levelo_inurba_marseille","lat":43.310804,"lon":5.38359,"is_reserved":false,"is_disabled":false,"rental_uris":{"android":"levelo://app?vid=4284a58a-b771-4f80-aa1f-02a33cda45e6","ios":"levelo://app?vid=4284a58a-b771-4f80-aa1f-02a33cda45e6"},"vehicle_type_id":"4","last_reported":1722618460,"current_range_meters":31200,"station_id":"ce4bgv92rcd13ifvqcr0","pricing_plan_id":"cebpf4jnsgd1na2vs0mg"},{"bike_id":"1716bffb-7402-4c05-945a-ce26edc0f792","system_id":"levelo_inurba_marseille","lat":43.310804,"lon":5.38359,"is_reserved":false,"is_disabled":false,"rental_uris":{"android":"levelo://app?vid=1716bffb-7402-4c05-945a-ce26edc0f792","ios":"levelo://app?vid=1716bffb-7402-4c05-945a-ce26edc0f792"},"vehicle_type_id":"4","last_reported":1722618460,"current_range_meters":0,"station_id":"ce4bgv92rcd13ifvqcr0","pricing_plan_id":"cebpf4jnsgd1na2vs0mg"},{"bike_id":"ab91dfdd-3d07-4719-aa99-1142867921f3","system_id":"levelo_inurba_marseille","lat":43.301429,"lon":5.37413,"is_reserved":false,"is_disabled":false,"rental_uris":{"android":"levelo://app?vid=ab91dfdd-3d07-4719-aa99-1142867921f3","ios":"levelo://app?vid=ab91dfdd-3d07-4719-aa99-1142867921f3"},"vehicle_type_id":"4","last_reported":1722618460,"current_range_meters":14400,"station_id":"ce4bgs92rcd13ifvqcc0","pricing_plan_id":"cebpf4jnsgd1na2vs0mg"},{"bike_id":"0721291d-3bb4-44e6-8f39-9fb34c900900","system_id":"levelo_inurba_marseille","lat":43.301939,"lon":5.366286,"is_reserved":false,"is_disabled":false,"rental_uris":{"android":"levelo://app?vid=0721291d-3bb4-44e6-8f39-9fb34c900900","ios":"levelo://app?vid=0721291d-3bb4-44e6-8f39-9fb34c900900"},"vehicle_type_id":"4","last_reported":1722618460,"current_range_meters":19200,"station_id":"ce4bgrh2rcd13ifvqc8g","pricing_plan_id":"cebpf4jnsgd1na2vs0mg"},{"bike_id":"14732d6f-7aaa-4896-b3e6-4709815e9929","system_id":"levelo_inurba_marseille","lat":43.3199,"lon":5.38154,"is_reserved":false,"is_disabled":false,"rental_uris":{"android":"levelo://app?vid=14732d6f-7aaa-4896-b3e6-4709815e9929","ios":"levelo://app?vid=14732d6f-7aaa-4896-b3e6-4709815e9929"},"vehicle_type_id":"4","last_reported":1722618460,"current_range_meters":4400,"station_id":"ce4bhr12rcd13ifvqhpg","pricing_plan_id":"cebpf4jnsgd1na2vs0mg"},{"bike_id":"2982a60a-6dd1-431a-bb7b-08f00e8c28ed","system_id":"levelo_inurba_marseille","lat":43.319935,"lon":5.381699,"is_reserved":false,"is_disabled":false,"rental_uris":{"android":"levelo://app?vid=2982a60a-6dd1-431a-bb7b-08f00e8c28ed","ios":"levelo://app?vid=2982a60a-6dd1-431a-bb7b-08f00e8c28ed"},"vehicle_type_id":"4","last_reported":1722618460,"current_range_meters":25200,"station_id":"ce4bhr12rcd13ifvqhpg","pricing_plan_id":"cebpf4jnsgd1na2vs0mg"},{"bike_id":"eaab121c-af8f-4ad8-b8a2-52189768cae1","system_id":"levelo_inurba_marseille","lat":43.31996,"lon":5.38164,"is_reserved":false,"is_disabled":false,"rental_uris":{"android":"levelo://app?vid=eaab121c-af8f-4ad8-b8a2-52189768cae1","ios":"levelo://app?vid=eaab121c-af8f-4ad8-b8a2-52189768cae1"},"vehicle_type_id":"4","last_reported":1722618460,"current_range_meters":7200,"station_id":"ce4bhr12rcd13ifvqhpg","pricing_plan_id":"cebpf4jnsgd1na2vs0mg"},{"bike_id":"468d1d5d-3fcc-4b92-9efc-c13d437ba07c","system_id":"levelo_inurba_marseille","lat":43.30612,"lon":5.3822,"is_reserved":false,"is_disabled":false,"rental_uris":{"android":"levelo://app?vid=468d1d5d-3fcc-4b92-9efc-c13d437ba07c","ios":"levelo://app?vid=468d1d5d-3fcc-4b92-9efc-c13d437ba07c"},"vehicle_type_id":"4","last_reported":1722618460,"current_range_meters":20800,"station_id":"","pricing_plan_id":"cebpf4jnsgd1na2vs0mg"},{"bike_id":"6c9e34c4-1a40-46c9-91f8-52bc78474a0d","system_id":"levelo_inurba_marseille","lat":43.313571,"lon":5.384829,"is_reserved":false,"is_disabled":false,"rental_uris":{"android":"levelo://app?vid=6c9e34c4-1a40-46c9-91f8-52bc78474a0d","ios":"levelo://app?vid=6c9e34c4-1a40-46c9-91f8-52bc78474a0d"},"vehicle_type_id":"4","last_reported":1722618460,"current_range_meters":3600,"station_id":"ce4bgt92rcd13ifvqcf0","pricing_plan_id":"cebpf4jnsgd1na2vs0mg"},{"bike_id":"8969cea1-8d6b-4c13-804c-81446b4142ae","system_id":"levelo_inurba_marseille","lat":43.299222,"lon":5.365554,"is_reserved":false,"is_disabled":false,"rental_uris":{"android":"levelo://app?vid=8969cea1-8d6b-4c13-804c-81446b4142ae","ios":"levelo://app?vid=8969cea1-8d6b-4c13-804c-81446b4142ae"},"vehicle_type_id":"4","last_reported":1722618460,"current_range_meters":8000,"station_id":"ce4bgm92rcd13ifvqbr0","pricing_plan_id":"cebpf4jnsgd1na2vs0mg"},{"bike_id":"110eb69f-b486-45ea-bbab-1f4aef8be0d2","system_id":"levelo_inurba_marseille","lat":43.299222,"lon":5.365554,"is_reserved":false,"is_disabled":false,"rental_uris":{"android":"levelo://app?vid=110eb69f-b486-45ea-bbab-1f4aef8be0d2","ios":"levelo://app?vid=110eb69f-b486-45ea-bbab-1f4aef8be0d2"},"vehicle_type_id":"4","last_reported":1722618460,"current_range_meters":11600,"station_id":"ce4bgm92rcd13ifvqbr0","pricing_plan_id":"cebpf4jnsgd1na2vs0mg"},{"bike_id":"22640413-1982-46fa-800f-47b3141c21e8","system_id":"levelo_inurba_marseille","lat":43.299222,"lon":5.365554,"is_reserved":false,"is_disabled":false,"rental_uris":{"android":"levelo://app?vid=22640413-1982-46fa-800f-47b3141c21e8","ios":"levelo://app?vid=22640413-1982-46fa-800f-47b3141c21e8"},"vehicle_type_id":"4","last_reported":1722618460,"current_range_meters":21600,"station_id":"ce4bgm92rcd13ifvqbr0","pricing_plan_id":"cebpf4jnsgd1na2vs0mg"},{"bike_id":"2b1e4c26-0694-49c7-9d47-4230dabf33e3","system_id":"levelo_inurba_marseille","lat":43.299724,"lon":5.371829,"is_reserved":false,"is_disabled":false,"rental_uris":{"android":"levelo://app?vid=2b1e4c26-0694-49c7-9d47-4230dabf33e3","ios":"levelo://app?vid=2b1e4c26-0694-49c7-9d47-4230dabf33e3"},"vehicle_type_id":"4","last_reported":1722618460,"current_range_meters":8800,"station_id":"ce4bgr92rcd13ifvqc7g","pricing_plan_id":"cebpf4jnsgd1na2vs0mg"},{"bike_id":"22eae8fd-2813-46d6-968e-0f4de3061a62","system_id":"levelo_inurba_marseille","lat":43.299222,"lon":5.365554,"is_reserved":false,"is_disabled":false,"rental_uris":{"android":"levelo://app?vid=22eae8fd-2813-46d6-968e-0f4de3061a62","ios":"levelo://app?vid=22eae8fd-2813-46d6-968e-0f4de3061a62"},"vehicle_type_id":"4","last_reported":1722618460,"current_range_meters":16000,"station_id":"ce4bgm92rcd13ifvqbr0","pricing_plan_id":"cebpf4jnsgd1na2vs0mg"},{"bike_id":"03709ed1-6b30-40e7-8e58-1df293affa17","system_id":"levelo_inurba_marseille","lat":43.299724,"lon":5.371829,"is_reserved":false,"is_disabled":false,"rental_uris":{"android":"levelo://app?vid=03709ed1-6b30-40e7-8e58-1df293affa17","ios":"levelo://app?vid=03709ed1-6b30-40e7-8e58-1df293affa17"},"vehicle_type_id":"4","last_reported":1722618460,"current_range_meters":5200,"station_id":"ce4bgr92rcd13ifvqc7g","pricing_plan_id":"cebpf4jnsgd1na2vs0mg"},{"bike_id":"c24372d4-ff5c-47fa-8af2-db366456a132","system_id":"levelo_inurba_marseille","lat":43.299724,"lon":5.371829,"is_reserved":false,"is_disabled":false,"rental_uris":{"android":"levelo://app?vid=c24372d4-ff5c-47fa-8af2-db366456a132","ios":"levelo://app?vid=c24372d4-ff5c-47fa-8af2-db366456a132"},"vehicle_type_id":"4","last_reported":1722618460,"current_range_meters":4800,"station_id":"ce4bgr92rcd13ifvqc7g","pricing_plan_id":"cebpf4jnsgd1na2vs0mg"},{"bike_id":"66834e31-a68f-4517-aa3a-093caae04401","system_id":"levelo_inurba_marseille","lat":43.299724,"lon":5.371829,"is_reserved":false,"is_disabled":false,"rental_uris":{"android":"levelo://app?vid=66834e31-a68f-4517-aa3a-093caae04401","ios":"levelo://app?vid=66834e31-a68f-4517-aa3a-093caae04401"},"vehicle_type_id":"4","last_reported":1722618460,"current_range_meters":16800,"station_id":"ce4bgr92rcd13ifvqc7g","pricing_plan_id":"cebpf4jnsgd1na2vs0mg"},{"bike_id":"4c306cd9-ac09-4afa-b2ea-321bc317bfed","system_id":"levelo_inurba_marseille","lat":43.319935,"lon":5.381699,"is_reserved":false,"is_disabled":false,"rental_uris":{"android":"levelo://app?vid=4c306cd9-ac09-4afa-b2ea-321bc317bfed","ios":"levelo://app?vid=4c306cd9-ac09-4afa-b2ea-321bc317bfed"},"vehicle_type_id":"4","last_reported":1722618460,"current_range_meters":29200,"station_id":"ce4bhr12rcd13ifvqhpg","pricing_plan_id":"cebpf4jnsgd1na2vs0mg"},{"bike_id":"196153c2-3969-439e-b306-ace429c02632","system_id":"levelo_inurba_marseille","lat":43.313571,"lon":5.384829,"is_reserved":false,"is_disabled":false,"rental_uris":{"android":"levelo://app?vid=196153c2-3969-439e-b306-ace429c02632","ios":"levelo://app?vid=196153c2-3969-439e-b306-ace429c02632"},"vehicle_type_id":"4","last_reported":1722618460,"current_range_meters":10000,"station_id":"ce4bgt92rcd13ifvqcf0","pricing_plan_id":"cebpf4jnsgd1na2vs0mg"},{"bike_id":"78837637-0735-44e1-a546-6ca67d14be93","system_id":"levelo_inurba_marseille","lat":43.298433,"lon":5.362774,"is_reserved":false,"is_disabled":false,"rental_uris":{"android":"levelo://app?vid=78837637-0735-44e1-a546-6ca67d14be93","ios":"levelo://app?vid=78837637-0735-44e1-a546-6ca67d14be93"},"vehicle_type_id":"4","last_reported":1722618460,"current_range_meters":14800,"station_id":"ce4bgpp2rcd13ifvqc3g","pricing_plan_id":"cebpf4jnsgd1na2vs0mg"},{"bike_id":"66271360-f295-4ed7-b4c9-61cb098a4201","system_id":"levelo_inurba_marseille","lat":43.301753,"lon":5.38027,"is_reserved":false,"is_disabled":false,"rental_uris":{"android":"levelo://app?vid=66271360-f295-4ed7-b4c9-61cb098a4201","ios":"levelo://app?vid=66271360-f295-4ed7-b4c9-61cb098a4201"},"vehicle_type_id":"4","last_reported":1722618460,"current_range_meters":23600,"station_id":"","pricing_plan_id":"cebpf4jnsgd1na2vs0mg"},{"bike_id":"1b4e0bab-a820-42f5-8e0a-3b108785a4e1","system_id":"levelo_inurba_marseille","lat":43.311722,"lon":5.387247,"is_reserved":false,"is_disabled":false,"rental_uris":{"android":"levelo://app?vid=1b4e0bab-a820-42f5-8e0a-3b108785a4e1","ios":"levelo://app?vid=1b4e0bab-a820-42f5-8e0a-3b108785a4e1"},"vehicle_type_id":"4","last_reported":1722618460,"current_range_meters":5200,"station_id":"ce4bgv12rcd13ifvqcp0","pricing_plan_id":"cebpf4jnsgd1na2vs0mg"},{"bike_id":"272d597a-4ddc-4c67-bbd2-579deea0d860","system_id":"levelo_inurba_marseille","lat":43.297774,"lon":5.370875,"is_reserved":false,"is_disabled":false,"rental_uris":{"android":"levelo://app?vid=272d597a-4ddc-4c67-bbd2-579deea0d860","ios":"levelo://app?vid=272d597a-4ddc-4c67-bbd2-579deea0d860"},"vehicle_type_id":"4","last_reported":1722618460,"current_range_meters":26400,"station_id":"ce4bgop2rcd13ifvqc1g","pricing_plan_id":"cebpf4jnsgd1na2vs0mg"},{"bike_id":"3ab97df0-c3a9-4526-9918-d43e4bad20bd","system_id":"levelo_inurba_marseille","lat":43.297774,"lon":5.370875,"is_reserved":false,"is_disabled":false,"rental_uris":{"android":"levelo://app?vid=3ab97df0-c3a9-4526-9918-d43e4bad20bd","ios":"levelo://app?vid=3ab97df0-c3a9-4526-9918-d43e4bad20bd"},"vehicle_type_id":"4","last_reported":1722618460,"current_range_meters":8800,"station_id":"ce4bgop2rcd13ifvqc1g","pricing_plan_id":"cebpf4jnsgd1na2vs0mg"},{"bike_id":"e208713c-b86a-45b9-ba46-cb764b7db80b","system_id":"levelo_inurba_marseille","lat":43.297774,"lon":5.370875,"is_reserved":false,"is_disabled":false,"rental_uris":{"android":"levelo://app?vid=e208713c-b86a-45b9-ba46-cb764b7db80b","ios":"levelo://app?vid=e208713c-b86a-45b9-ba46-cb764b7db80b"},"vehicle_type_id":"4","last_reported":1722618460,"current_range_meters":28800,"station_id":"ce4bgop2rcd13ifvqc1g","pricing_plan_id":"cebpf4jnsgd1na2vs0mg"},{"bike_id":"c2629852-f9af-42e3-a938-12f52f908538","system_id":"levelo_inurba_marseille","lat":43.32289,"lon":5.38264,"is_reserved":false,"is_disabled":false,"rental_uris":{"android":"levelo://app?vid=c2629852-f9af-42e3-a938-12f52f908538","ios":"levelo://app?vid=c2629852-f9af-42e3-a938-12f52f908538"},"vehicle_type_id":"4","last_reported":1722618460,"current_range_meters":28000,"station_id":"ce4bhr12rcd13ifvqhqg","pricing_plan_id":"cebpf4jnsgd1na2vs0mg"},{"bike_id":"cbdd287c-730c-435d-b9a6-fc1e418e21fa","system_id":"levelo_inurba_marseille","lat":43.3014,"lon":5.38102,"is_reserved":false,"is_disabled":false,"rental_uris":{"android":"levelo://app?vid=cbdd287c-730c-435d-b9a6-fc1e418e21fa","ios":"levelo://app?vid=cbdd287c-730c-435d-b9a6-fc1e418e21fa"},"vehicle_type_id":"4","last_reported":1722618460,"current_range_meters":17200,"station_id":"","pricing_plan_id":"cebpf4jnsgd1na2vs0mg"},{"bike_id":"1150a106-509f-4b54-8033-b4ac6105072c","system_id":"levelo_inurba_marseille","lat":43.297163,"lon":5.365866,"is_reserved":false,"is_disabled":false,"rental_uris":{"android":"levelo://app?vid=1150a106-509f-4b54-8033-b4ac6105072c","ios":"levelo://app?vid=1150a106-509f-4b54-8033-b4ac6105072c"},"vehicle_type_id":"4","last_reported":1722618460,"current_range_meters":17600,"station_id":"ce4bgn12rcd13ifvqbt0","pricing_plan_id":"cebpf4jnsgd1na2vs0mg"},{"bike_id":"953b69be-39c0-47c3-a594-dea76f046d3c","system_id":"levelo_inurba_marseille","lat":43.30058,"lon":5.38088,"is_reserved":false,"is_disabled":false,"rental_uris":{"android":"levelo://app?vid=953b69be-39c0-47c3-a594-dea76f046d3c","ios":"levelo://app?vid=953b69be-39c0-47c3-a594-dea76f046d3c"},"vehicle_type_id":"4","last_reported":1722618460,"current_range_meters":0,"station_id":"","pricing_plan_id":"cebpf4jnsgd1na2vs0mg"},{"bike_id":"2914a6ce-7a25-4971-bc58-7eb345d80670","system_id":"levelo_inurba_marseille","lat":43.32932,"lon":5.36597,"is_reserved":false,"is_disabled":false,"rental_uris":{"android":"levelo://app?vid=2914a6ce-7a25-4971-bc58-7eb345d80670","ios":"levelo://app?vid=2914a6ce-7a25-4971-bc58-7eb345d80670"},"vehicle_type_id":"4","last_reported":1722618460,"current_range_meters":31200,"station_id":"","pricing_plan_id":"cebpf4jnsgd1na2vs0mg"},{"bike_id":"f5f13e39-c671-46a4-9ced-29292219df16","system_id":"levelo_inurba_marseille","lat":43.299028,"lon":5.381509,"is_reserved":false,"is_disabled":false,"rental_uris":{"android":"levelo://app?vid=f5f13e39-c671-46a4-9ced-29292219df16","ios":"levelo://app?vid=f5f13e39-c671-46a4-9ced-29292219df16"},"vehicle_type_id":"4","last_reported":1722618460,"current_range_meters":0,"station_id":"ce4bgj12rcd13ifvqbc0","pricing_plan_id":"cebpf4jnsgd1na2vs0mg"},{"bike_id":"c5bc4dc5-f852-40df-a034-913e86228baf","system_id":"levelo_inurba_marseille","lat":43.317557,"lon":5.390173,"is_reserved":false,"is_disabled":false,"rental_uris":{"android":"levelo://app?vid=c5bc4dc5-f852-40df-a034-913e86228baf","ios":"levelo://app?vid=c5bc4dc5-f852-40df-a034-913e86228baf"},"vehicle_type_id":"4","last_reported":1722618460,"current_range_meters":2800,"station_id":"ce4bhqp2rcd13ifvqhng","pricing_plan_id":"cebpf4jnsgd1na2vs0mg"},{"bike_id":"025de810-2f27-40f4-b1ba-02649cbec5e3","system_id":"levelo_inurba_marseille","lat":43.317557,"lon":5.390173,"is_reserved":false,"is_disabled":false,"rental_uris":{"android":"levelo://app?vid=025de810-2f27-40f4-b1ba-02649cbec5e3","ios":"levelo://app?vid=025de810-2f27-40f4-b1ba-02649cbec5e3"},"vehicle_type_id":"4","last_reported":1722618460,"current_range_meters":8800,"station_id":"ce4bhqp2rcd13ifvqhng","pricing_plan_id":"cebpf4jnsgd1na2vs0mg"},{"bike_id":"8c005a6e-cc61-4aa8-bd09-7b21b99799dd","system_id":"levelo_inurba_marseille","lat":43.304278,"lon":5.388868,"is_reserved":false,"is_disabled":false,"rental_uris":{"android":"levelo://app?vid=8c005a6e-cc61-4aa8-bd09-7b21b99799dd","ios":"levelo://app?vid=8c005a6e-cc61-4aa8-bd09-7b21b99799dd"},"vehicle_type_id":"4","last_reported":1722618460,"current_range_meters":31600,"station_id":"ce4bgk12rcd13ifvqbi0","pricing_plan_id":"cebpf4jnsgd1na2vs0mg"},{"bike_id":"b9288bbd-f40b-4d36-b3b0-ae9c0d909be8","system_id":"levelo_inurba_marseille","lat":43.2991,"lon":5.38305,"is_reserved":false,"is_disabled":false,"rental_uris":{"android":"levelo://app?vid=b9288bbd-f40b-4d36-b3b0-ae9c0d909be8","ios":"levelo://app?vid=b9288bbd-f40b-4d36-b3b0-ae9c0d909be8"},"vehicle_type_id":"4","last_reported":1722618460,"current_range_meters":6000,"station_id":"","pricing_plan_id":"cebpf4jnsgd1na2vs0mg"},{"bike_id":"9fee432a-b42e-4fbe-8f31-d1b0ae79748e","system_id":"levelo_inurba_marseille","lat":43.304274,"lon":5.388873,"is_reserved":false,"is_disabled":false,"rental_uris":{"android":"levelo://app?vid=9fee432a-b42e-4fbe-8f31-d1b0ae79748e","ios":"levelo://app?vid=9fee432a-b42e-4fbe-8f31-d1b0ae79748e"},"vehicle_type_id":"4","last_reported":1722618460,"current_range_meters":31200,"station_id":"ce4bgk12rcd13ifvqbi0","pricing_plan_id":"cebpf4jnsgd1na2vs0mg"},{"bike_id":"1cc7ecfb-ab37-4fcf-b932-72f5752d5963","system_id":"levelo_inurba_marseille","lat":43.296263,"lon":5.377094,"is_reserved":false,"is_disabled":false,"rental_uris":{"android":"levelo://app?vid=1cc7ecfb-ab37-4fcf-b932-72f5752d5963","ios":"levelo://app?vid=1cc7ecfb-ab37-4fcf-b932-72f5752d5963"},"vehicle_type_id":"4","last_reported":1722618460,"current_range_meters":29200,"station_id":"ce4bgi92rcd13ifvqb90","pricing_plan_id":"cebpf4jnsgd1na2vs0mg"},{"bike_id":"ad8ecd68-9f84-4ff7-bc8c-0414fba93634","system_id":"levelo_inurba_marseille","lat":43.301396,"lon":5.387812,"is_reserved":false,"is_disabled":false,"rental_uris":{"android":"levelo://app?vid=ad8ecd68-9f84-4ff7-bc8c-0414fba93634","ios":"levelo://app?vid=ad8ecd68-9f84-4ff7-bc8c-0414fba93634"},"vehicle_type_id":"4","last_reported":1722618460,"current_range_meters":31200,"station_id":"ce4bghh2rcd13ifvqb60","pricing_plan_id":"cebpf4jnsgd1na2vs0mg"},{"bike_id":"87cb2ed7-b9f5-4cf6-a7de-cfb1523050e9","system_id":"levelo_inurba_marseille","lat":43.301396,"lon":5.387812,"is_reserved":false,"is_disabled":false,"rental_uris":{"android":"levelo://app?vid=87cb2ed7-b9f5-4cf6-a7de-cfb1523050e9","ios":"levelo://app?vid=87cb2ed7-b9f5-4cf6-a7de-cfb1523050e9"},"vehicle_type_id":"4","last_reported":1722618460,"current_range_meters":22400,"station_id":"ce4bghh2rcd13ifvqb60","pricing_plan_id":"cebpf4jnsgd1na2vs0mg"},{"bike_id":"0009eb61-2553-4477-91e3-ab94c3850384","system_id":"levelo_inurba_marseille","lat":43.32367,"lon":5.388836,"is_reserved":false,"is_disabled":false,"rental_uris":{"android":"levelo://app?vid=0009eb61-2553-4477-91e3-ab94c3850384","ios":"levelo://app?vid=0009eb61-2553-4477-91e3-ab94c3850384"},"vehicle_type_id":"4","last_reported":1722618460,"current_range_meters":27600,"station_id":"ce4bhqp2rcd13ifvqhog","pricing_plan_id":"cebpf4jnsgd1na2vs0mg"},{"bike_id":"0dc65325-d37a-46d7-b0af-628b011210ba","system_id":"levelo_inurba_marseille","lat":43.32367,"lon":5.388836,"is_reserved":false,"is_disabled":false,"rental_uris":{"android":"levelo://app?vid=0dc65325-d37a-46d7-b0af-628b011210ba","ios":"levelo://app?vid=0dc65325-d37a-46d7-b0af-628b011210ba"},"vehicle_type_id":"4","last_reported":1722618460,"current_range_meters":17600,"station_id":"ce4bhqp2rcd13ifvqhog","pricing_plan_id":"cebpf4jnsgd1na2vs0mg"},{"bike_id":"ce1d46c3-7a87-468d-93ef-7de440451ad5","system_id":"levelo_inurba_marseille","lat":43.32367,"lon":5.388836,"is_reserved":false,"is_disabled":false,"rental_uris":{"android":"levelo://app?vid=ce1d46c3-7a87-468d-93ef-7de440451ad5","ios":"levelo://app?vid=ce1d46c3-7a87-468d-93ef-7de440451ad5"},"vehicle_type_id":"4","last_reported":1722618460,"current_range_meters":18000,"station_id":"ce4bhqp2rcd13ifvqhog","pricing_plan_id":"cebpf4jnsgd1na2vs0mg"},{"bike_id":"d441e133-f55f-4a6a-9159-7d1c23f1a778","system_id":"levelo_inurba_marseille","lat":43.32367,"lon":5.388836,"is_reserved":false,"is_disabled":false,"rental_uris":{"android":"levelo://app?vid=d441e133-f55f-4a6a-9159-7d1c23f1a778","ios":"levelo://app?vid=d441e133-f55f-4a6a-9159-7d1c23f1a778"},"vehicle_type_id":"4","last_reported":1722618460,"current_range_meters":0,"station_id":"ce4bhqp2rcd13ifvqhog","pricing_plan_id":"cebpf4jnsgd1na2vs0mg"},{"bike_id":"870293e6-d8c4-49a5-8458-42de72b046c3","system_id":"levelo_inurba_marseille","lat":43.292749,"lon":5.368398,"is_reserved":false,"is_disabled":false,"rental_uris":{"android":"levelo://app?vid=870293e6-d8c4-49a5-8458-42de72b046c3","ios":"levelo://app?vid=870293e6-d8c4-49a5-8458-42de72b046c3"},"vehicle_type_id":"4","last_reported":1722618460,"current_range_meters":31200,"station_id":"ce4bhbp2rcd13ifvqesg","pricing_plan_id":"cebpf4jnsgd1na2vs0mg"},{"bike_id":"5fe0fb99-dc5a-469d-a2e5-49e3bfc7965e","system_id":"levelo_inurba_marseille","lat":43.292749,"lon":5.368398,"is_reserved":false,"is_disabled":false,"rental_uris":{"android":"levelo://app?vid=5fe0fb99-dc5a-469d-a2e5-49e3bfc7965e","ios":"levelo://app?vid=5fe0fb99-dc5a-469d-a2e5-49e3bfc7965e"},"vehicle_type_id":"4","last_reported":1722618460,"current_range_meters":11600,"station_id":"ce4bhbp2rcd13ifvqesg","pricing_plan_id":"cebpf4jnsgd1na2vs0mg"},{"bike_id":"8ce9ae49-21c2-47bf-b50f-474955db5cd8","system_id":"levelo_inurba_marseille","lat":43.293249,"lon":5.371578,"is_reserved":false,"is_disabled":false,"rental_uris":{"android":"levelo://app?vid=8ce9ae49-21c2-47bf-b50f-474955db5cd8","ios":"levelo://app?vid=8ce9ae49-21c2-47bf-b50f-474955db5cd8"},"vehicle_type_id":"4","last_reported":1722618460,"current_range_meters":0,"station_id":"ce4bgh92rcd13ifvqb40","pricing_plan_id":"cebpf4jnsgd1na2vs0mg"},{"bike_id":"5641658a-af51-4e4b-9ca8-36bcb1f96976","system_id":"levelo_inurba_marseille","lat":43.292749,"lon":5.368402,"is_reserved":false,"is_disabled":false,"rental_uris":{"android":"levelo://app?vid=5641658a-af51-4e4b-9ca8-36bcb1f96976","ios":"levelo://app?vid=5641658a-af51-4e4b-9ca8-36bcb1f96976"},"vehicle_type_id":"4","last_reported":1722618460,"current_range_meters":14800,"station_id":"ce4bhbp2rcd13ifvqesg","pricing_plan_id":"cebpf4jnsgd1na2vs0mg"},{"bike_id":"6fb5ac60-9586-42fa-8f5c-ee7042ebada3","system_id":"levelo_inurba_marseille","lat":43.29303,"lon":5.37444,"is_reserved":false,"is_disabled":false,"rental_uris":{"android":"levelo://app?vid=6fb5ac60-9586-42fa-8f5c-ee7042ebada3","ios":"levelo://app?vid=6fb5ac60-9586-42fa-8f5c-ee7042ebada3"},"vehicle_type_id":"4","last_reported":1722618460,"current_range_meters":0,"station_id":"ce4bgi12rcd13ifvqb70","pricing_plan_id":"cebpf4jnsgd1na2vs0mg"},{"bike_id":"a83c5d88-a379-4015-8746-2dc55ca41ec2","system_id":"levelo_inurba_marseille","lat":43.305994,"lon":5.393687,"is_reserved":false,"is_disabled":false,"rental_uris":{"android":"levelo://app?vid=a83c5d88-a379-4015-8746-2dc55ca41ec2","ios":"levelo://app?vid=a83c5d88-a379-4015-8746-2dc55ca41ec2"},"vehicle_type_id":"4","last_reported":1722618460,"current_range_meters":25600,"station_id":"ce4bh0p2rcd13ifvqd80","pricing_plan_id":"cebpf4jnsgd1na2vs0mg"},{"bike_id":"55619c2e-5c78-4d4d-b7e6-5eda2a9e219c","system_id":"levelo_inurba_marseille","lat":43.30597,"lon":5.39357,"is_reserved":false,"is_disabled":false,"rental_uris":{"android":"levelo://app?vid=55619c2e-5c78-4d4d-b7e6-5eda2a9e219c","ios":"levelo://app?vid=55619c2e-5c78-4d4d-b7e6-5eda2a9e219c"},"vehicle_type_id":"4","last_reported":1722618460,"current_range_meters":0,"station_id":"ce4bh0p2rcd13ifvqd80","pricing_plan_id":"cebpf4jnsgd1na2vs0mg"},{"bike_id":"f00f193c-ed0c-488e-93fb-567391c37a25","system_id":"levelo_inurba_marseille","lat":43.303002,"lon":5.392142,"is_reserved":false,"is_disabled":false,"rental_uris":{"android":"levelo://app?vid=f00f193c-ed0c-488e-93fb-567391c37a25","ios":"levelo://app?vid=f00f193c-ed0c-488e-93fb-567391c37a25"},"vehicle_type_id":"4","last_reported":1722618460,"current_range_meters":1600,"station_id":"ce4bgkh2rcd13ifvqbk0","pricing_plan_id":"cebpf4jnsgd1na2vs0mg"},{"bike_id":"743be222-c214-4ae4-be8e-fbbb37ecf397","system_id":"levelo_inurba_marseille","lat":43.293009,"lon":5.374584,"is_reserved":false,"is_disabled":false,"rental_uris":{"android":"levelo://app?vid=743be222-c214-4ae4-be8e-fbbb37ecf397","ios":"levelo://app?vid=743be222-c214-4ae4-be8e-fbbb37ecf397"},"vehicle_type_id":"4","last_reported":1722618460,"current_range_meters":18400,"station_id":"ce4bgi12rcd13ifvqb70","pricing_plan_id":"cebpf4jnsgd1na2vs0mg"},{"bike_id":"9d36426b-e3c6-40f5-8db1-84271d452e52","system_id":"levelo_inurba_marseille","lat":43.30601,"lon":5.39368,"is_reserved":false,"is_disabled":false,"rental_uris":{"android":"levelo://app?vid=9d36426b-e3c6-40f5-8db1-84271d452e52","ios":"levelo://app?vid=9d36426b-e3c6-40f5-8db1-84271d452e52"},"vehicle_type_id":"4","last_reported":1722618460,"current_range_meters":0,"station_id":"ce4bh0p2rcd13ifvqd80","pricing_plan_id":"cebpf4jnsgd1na2vs0mg"},{"bike_id":"ff894d5d-12ce-48c1-b3fe-dc0cdc6d380b","system_id":"levelo_inurba_marseille","lat":43.29529,"lon":5.385581,"is_reserved":false,"is_disabled":false,"rental_uris":{"android":"levelo://app?vid=ff894d5d-12ce-48c1-b3fe-dc0cdc6d380b","ios":"levelo://app?vid=ff894d5d-12ce-48c1-b3fe-dc0cdc6d380b"},"vehicle_type_id":"4","last_reported":1722618460,"current_range_meters":0,"station_id":"ce4bgih2rcd13ifvqba0","pricing_plan_id":"cebpf4jnsgd1na2vs0mg"},{"bike_id":"278cf39c-2847-4ad5-abe1-3294fe6f0cd9","system_id":"levelo_inurba_marseille","lat":43.302992,"lon":5.392136,"is_reserved":false,"is_disabled":false,"rental_uris":{"android":"levelo://app?vid=278cf39c-2847-4ad5-abe1-3294fe6f0cd9","ios":"levelo://app?vid=278cf39c-2847-4ad5-abe1-3294fe6f0cd9"},"vehicle_type_id":"4","last_reported":1722618460,"current_range_meters":1200,"station_id":"ce4bgkh2rcd13ifvqbk0","pricing_plan_id":"cebpf4jnsgd1na2vs0mg"},{"bike_id":"67b1a53d-308b-43bd-9d3d-934e72a696b5","system_id":"levelo_inurba_marseille","lat":43.303002,"lon":5.392142,"is_reserved":false,"is_disabled":false,"rental_uris":{"android":"levelo://app?vid=67b1a53d-308b-43bd-9d3d-934e72a696b5","ios":"levelo://app?vid=67b1a53d-308b-43bd-9d3d-934e72a696b5"},"vehicle_type_id":"4","last_reported":1722618460,"current_range_meters":29600,"station_id":"ce4bgkh2rcd13ifvqbk0","pricing_plan_id":"cebpf4jnsgd1na2vs0mg"},{"bike_id":"f869fca0-0ab0-4f5b-a91c-b5e587329c49","system_id":"levelo_inurba_marseille","lat":43.29224,"lon":5.36057,"is_reserved":false,"is_disabled":false,"rental_uris":{"android":"levelo://app?vid=f869fca0-0ab0-4f5b-a91c-b5e587329c49","ios":"levelo://app?vid=f869fca0-0ab0-4f5b-a91c-b5e587329c49"},"vehicle_type_id":"4","last_reported":1722618460,"current_range_meters":0,"station_id":"ce4bhbh2rcd13ifvqeqg","pricing_plan_id":"cebpf4jnsgd1na2vs0mg"},{"bike_id":"4281a636-ad5f-428b-aee3-616b55b1db34","system_id":"levelo_inurba_marseille","lat":43.2922,"lon":5.36058,"is_reserved":false,"is_disabled":false,"rental_uris":{"android":"levelo://app?vid=4281a636-ad5f-428b-aee3-616b55b1db34","ios":"levelo://app?vid=4281a636-ad5f-428b-aee3-616b55b1db34"},"vehicle_type_id":"4","last_reported":1722618460,"current_range_meters":30400,"station_id":"ce4bhbh2rcd13ifvqeqg","pricing_plan_id":"cebpf4jnsgd1na2vs0mg"},{"bike_id":"bf2e4d0f-3a10-4931-8523-dc6a3a6e3af4","system_id":"levelo_inurba_marseille","lat":43.29267,"lon":5.376117,"is_reserved":false,"is_disabled":false,"rental_uris":{"android":"levelo://app?vid=bf2e4d0f-3a10-4931-8523-dc6a3a6e3af4","ios":"levelo://app?vid=bf2e4d0f-3a10-4931-8523-dc6a3a6e3af4"},"vehicle_type_id":"4","last_reported":1722618460,"current_range_meters":15600,"station_id":"ce4bgi12rcd13ifvqb80","pricing_plan_id":"cebpf4jnsgd1na2vs0mg"},{"bike_id":"c60ae143-ad65-46c2-8717-0fbc6a05c619","system_id":"levelo_inurba_marseille","lat":43.29257,"lon":5.37612,"is_reserved":false,"is_disabled":false,"rental_uris":{"android":"levelo://app?vid=c60ae143-ad65-46c2-8717-0fbc6a05c619","ios":"levelo://app?vid=c60ae143-ad65-46c2-8717-0fbc6a05c619"},"vehicle_type_id":"4","last_reported":1722618460,"current_range_meters":0,"station_id":"ce4bgi12rcd13ifvqb80","pricing_plan_id":"cebpf4jnsgd1na2vs0mg"},{"bike_id":"4ca7b20b-523d-4d11-bac9-3a12d5ebeba4","system_id":"levelo_inurba_marseille","lat":43.292005,"lon":5.357875,"is_reserved":false,"is_disabled":false,"rental_uris":{"android":"levelo://app?vid=4ca7b20b-523d-4d11-bac9-3a12d5ebeba4","ios":"levelo://app?vid=4ca7b20b-523d-4d11-bac9-3a12d5ebeba4"},"vehicle_type_id":"4","last_reported":1722618460,"current_range_meters":19600,"station_id":"ce4bhb12rcd13ifvqel0","pricing_plan_id":"cebpf4jnsgd1na2vs0mg"},{"bike_id":"862d2b7e-0efe-4c81-a2f8-7d2a336098cc","system_id":"levelo_inurba_marseille","lat":43.313291,"lon":5.396838,"is_reserved":false,"is_disabled":false,"rental_uris":{"android":"levelo://app?vid=862d2b7e-0efe-4c81-a2f8-7d2a336098cc","ios":"levelo://app?vid=862d2b7e-0efe-4c81-a2f8-7d2a336098cc"},"vehicle_type_id":"4","last_reported":1722618460,"current_range_meters":16800,"station_id":"ce4bgvp2rcd13ifvqcu0","pricing_plan_id":"cebpf4jnsgd1na2vs0mg"},{"bike_id":"51c9664f-ccca-44fc-9ecb-9f345d0ae7b1","system_id":"levelo_inurba_marseille","lat":43.29195,"lon":5.35795,"is_reserved":false,"is_disabled":false,"rental_uris":{"android":"levelo://app?vid=51c9664f-ccca-44fc-9ecb-9f345d0ae7b1","ios":"levelo://app?vid=51c9664f-ccca-44fc-9ecb-9f345d0ae7b1"},"vehicle_type_id":"4","last_reported":1722618460,"current_range_meters":0,"station_id":"ce4bhb12rcd13ifvqel0","pricing_plan_id":"cebpf4jnsgd1na2vs0mg"},{"bike_id":"61719601-0254-4806-8f47-06b5840d18b9","system_id":"levelo_inurba_marseille","lat":43.29192,"lon":5.35806,"is_reserved":false,"is_disabled":false,"rental_uris":{"android":"levelo://app?vid=61719601-0254-4806-8f47-06b5840d18b9","ios":"levelo://app?vid=61719601-0254-4806-8f47-06b5840d18b9"},"vehicle_type_id":"4","last_reported":1722618460,"current_range_meters":20400,"station_id":"ce4bhb12rcd13ifvqel0","pricing_plan_id":"cebpf4jnsgd1na2vs0mg"},{"bike_id":"44541617-e35f-4e62-a833-59cbf164e75c","system_id":"levelo_inurba_marseille","lat":43.313291,"lon":5.396838,"is_reserved":false,"is_disabled":false,"rental_uris":{"android":"levelo://app?vid=44541617-e35f-4e62-a833-59cbf164e75c","ios":"levelo://app?vid=44541617-e35f-4e62-a833-59cbf164e75c"},"vehicle_type_id":"4","last_reported":1722618460,"current_range_meters":1600,"station_id":"ce4bgvp2rcd13ifvqcu0","pricing_plan_id":"cebpf4jnsgd1na2vs0mg"},{"bike_id":"fc01e56e-59af-4a74-84c6-e2e90c72c3ea","system_id":"levelo_inurba_marseille","lat":43.313291,"lon":5.396838,"is_reserved":false,"is_disabled":false,"rental_uris":{"android":"levelo://app?vid=fc01e56e-59af-4a74-84c6-e2e90c72c3ea","ios":"levelo://app?vid=fc01e56e-59af-4a74-84c6-e2e90c72c3ea"},"vehicle_type_id":"4","last_reported":1722618460,"current_range_meters":7200,"station_id":"ce4bgvp2rcd13ifvqcu0","pricing_plan_id":"cebpf4jnsgd1na2vs0mg"},{"bike_id":"ac7460f6-0db0-4ae7-8957-f9499c9827c0","system_id":"levelo_inurba_marseille","lat":43.29192,"lon":5.35797,"is_reserved":false,"is_disabled":false,"rental_uris":{"android":"levelo://app?vid=ac7460f6-0db0-4ae7-8957-f9499c9827c0","ios":"levelo://app?vid=ac7460f6-0db0-4ae7-8957-f9499c9827c0"},"vehicle_type_id":"4","last_reported":1722618460,"current_range_meters":31200,"station_id":"ce4bhb12rcd13ifvqel0","pricing_plan_id":"cebpf4jnsgd1na2vs0mg"},{"bike_id":"7f482db4-a0f0-49b7-bf13-9ed3a55f0f99","system_id":"levelo_inurba_marseille","lat":43.313291,"lon":5.396838,"is_reserved":false,"is_disabled":false,"rental_uris":{"android":"levelo://app?vid=7f482db4-a0f0-49b7-bf13-9ed3a55f0f99","ios":"levelo://app?vid=7f482db4-a0f0-49b7-bf13-9ed3a55f0f99"},"vehicle_type_id":"4","last_reported":1722618460,"current_range_meters":14800,"station_id":"ce4bgvp2rcd13ifvqcu0","pricing_plan_id":"cebpf4jnsgd1na2vs0mg"},{"bike_id":"c3cc90ad-1c16-426b-bd83-4c1f426b5320","system_id":"levelo_inurba_marseille","lat":43.291675,"lon":5.371583,"is_reserved":false,"is_disabled":false,"rental_uris":{"android":"levelo://app?vid=c3cc90ad-1c16-426b-bd83-4c1f426b5320","ios":"levelo://app?vid=c3cc90ad-1c16-426b-bd83-4c1f426b5320"},"vehicle_type_id":"4","last_reported":1722618460,"current_range_meters":0,"station_id":"ce4bha92rcd13ifvqeh0","pricing_plan_id":"cebpf4jnsgd1na2vs0mg"},{"bike_id":"cf1186f2-5804-434a-8f98-33a33ad8f9b4","system_id":"levelo_inurba_marseille","lat":43.291994,"lon":5.357886,"is_reserved":false,"is_disabled":false,"rental_uris":{"android":"levelo://app?vid=cf1186f2-5804-434a-8f98-33a33ad8f9b4","ios":"levelo://app?vid=cf1186f2-5804-434a-8f98-33a33ad8f9b4"},"vehicle_type_id":"4","last_reported":1722618460,"current_range_meters":800,"station_id":"ce4bhb12rcd13ifvqel0","pricing_plan_id":"cebpf4jnsgd1na2vs0mg"},{"bike_id":"646f13e3-df96-47b4-a7c9-e29b7f3dd3e4","system_id":"levelo_inurba_marseille","lat":43.290779,"lon":5.371482,"is_reserved":false,"is_disabled":false,"rental_uris":{"android":"levelo://app?vid=646f13e3-df96-47b4-a7c9-e29b7f3dd3e4","ios":"levelo://app?vid=646f13e3-df96-47b4-a7c9-e29b7f3dd3e4"},"vehicle_type_id":"4","last_reported":1722618460,"current_range_meters":0,"station_id":"ce4bh5p2rcd13ifvqe4g","pricing_plan_id":"cebpf4jnsgd1na2vs0mg"},{"bike_id":"479c7bf8-20d7-4a71-9537-c7dd5cfc4325","system_id":"levelo_inurba_marseille","lat":43.290779,"lon":5.371482,"is_reserved":false,"is_disabled":false,"rental_uris":{"android":"levelo://app?vid=479c7bf8-20d7-4a71-9537-c7dd5cfc4325","ios":"levelo://app?vid=479c7bf8-20d7-4a71-9537-c7dd5cfc4325"},"vehicle_type_id":"4","last_reported":1722618460,"current_range_meters":8400,"station_id":"ce4bh5p2rcd13ifvqe4g","pricing_plan_id":"cebpf4jnsgd1na2vs0mg"},{"bike_id":"9db7b7c5-0619-4223-9ed8-465b0f36cabd","system_id":"levelo_inurba_marseille","lat":43.302008,"lon":5.394694,"is_reserved":false,"is_disabled":false,"rental_uris":{"android":"levelo://app?vid=9db7b7c5-0619-4223-9ed8-465b0f36cabd","ios":"levelo://app?vid=9db7b7c5-0619-4223-9ed8-465b0f36cabd"},"vehicle_type_id":"4","last_reported":1722618460,"current_range_meters":27200,"station_id":"ce4bh0p2rcd13ifvqd70","pricing_plan_id":"cebpf4jnsgd1na2vs0mg"},{"bike_id":"ed849f98-e32a-4e68-bec1-f4178328c20c","system_id":"levelo_inurba_marseille","lat":43.302008,"lon":5.394694,"is_reserved":false,"is_disabled":false,"rental_uris":{"android":"levelo://app?vid=ed849f98-e32a-4e68-bec1-f4178328c20c","ios":"levelo://app?vid=ed849f98-e32a-4e68-bec1-f4178328c20c"},"vehicle_type_id":"4","last_reported":1722618460,"current_range_meters":25200,"station_id":"ce4bh0p2rcd13ifvqd70","pricing_plan_id":"cebpf4jnsgd1na2vs0mg"},{"bike_id":"f458b7e2-e84c-4f43-9b73-7af57affeb2a","system_id":"levelo_inurba_marseille","lat":43.290624,"lon":5.359245,"is_reserved":false,"is_disabled":false,"rental_uris":{"android":"levelo://app?vid=f458b7e2-e84c-4f43-9b73-7af57affeb2a","ios":"levelo://app?vid=f458b7e2-e84c-4f43-9b73-7af57affeb2a"},"vehicle_type_id":"4","last_reported":1722618460,"current_range_meters":10000,"station_id":"ce4bha92rcd13ifvqeg0","pricing_plan_id":"cebpf4jnsgd1na2vs0mg"},{"bike_id":"d6823751-b1cf-4369-a0cd-58043a0ce2c2","system_id":"levelo_inurba_marseille","lat":43.32462,"lon":5.394015,"is_reserved":false,"is_disabled":false,"rental_uris":{"android":"levelo://app?vid=d6823751-b1cf-4369-a0cd-58043a0ce2c2","ios":"levelo://app?vid=d6823751-b1cf-4369-a0cd-58043a0ce2c2"},"vehicle_type_id":"4","last_reported":1722618460,"current_range_meters":30000,"station_id":"","pricing_plan_id":"cebpf4jnsgd1na2vs0mg"},{"bike_id":"b66536ec-f459-462c-accb-a3360f30f344","system_id":"levelo_inurba_marseille","lat":43.290327,"lon":5.375711,"is_reserved":false,"is_disabled":false,"rental_uris":{"android":"levelo://app?vid=b66536ec-f459-462c-accb-a3360f30f344","ios":"levelo://app?vid=b66536ec-f459-462c-accb-a3360f30f344"},"vehicle_type_id":"4","last_reported":1722618460,"current_range_meters":31200,"station_id":"ce4bh692rcd13ifvqe90","pricing_plan_id":"cebpf4jnsgd1na2vs0mg"},{"bike_id":"c23999a1-cad3-4cfc-af75-bda4d3838c70","system_id":"levelo_inurba_marseille","lat":43.29423,"lon":5.38618,"is_reserved":false,"is_disabled":false,"rental_uris":{"android":"levelo://app?vid=c23999a1-cad3-4cfc-af75-bda4d3838c70","ios":"levelo://app?vid=c23999a1-cad3-4cfc-af75-bda4d3838c70"},"vehicle_type_id":"4","last_reported":1722618460,"current_range_meters":0,"station_id":"ce4bh2h2rcd13ifvqdh0","pricing_plan_id":"cebpf4jnsgd1na2vs0mg"},{"bike_id":"7fbea905-4907-4fc6-a8f7-cb83b0f84ec7","system_id":"levelo_inurba_marseille","lat":43.29422,"lon":5.38622,"is_reserved":false,"is_disabled":false,"rental_uris":{"android":"levelo://app?vid=7fbea905-4907-4fc6-a8f7-cb83b0f84ec7","ios":"levelo://app?vid=7fbea905-4907-4fc6-a8f7-cb83b0f84ec7"},"vehicle_type_id":"4","last_reported":1722618460,"current_range_meters":0,"station_id":"ce4bh2h2rcd13ifvqdh0","pricing_plan_id":"cebpf4jnsgd1na2vs0mg"},{"bike_id":"9adf9d4b-dcdd-495a-a731-e63c9ff18586","system_id":"levelo_inurba_marseille","lat":43.290327,"lon":5.375711,"is_reserved":false,"is_disabled":false,"rental_uris":{"android":"levelo://app?vid=9adf9d4b-dcdd-495a-a731-e63c9ff18586","ios":"levelo://app?vid=9adf9d4b-dcdd-495a-a731-e63c9ff18586"},"vehicle_type_id":"4","last_reported":1722618460,"current_range_meters":400,"station_id":"ce4bh692rcd13ifvqe90","pricing_plan_id":"cebpf4jnsgd1na2vs0mg"},{"bike_id":"12b51ee6-95c8-4d2c-9a97-69e1f2e7ec53","system_id":"levelo_inurba_marseille","lat":43.29419,"lon":5.38623,"is_reserved":false,"is_disabled":false,"rental_uris":{"android":"levelo://app?vid=12b51ee6-95c8-4d2c-9a97-69e1f2e7ec53","ios":"levelo://app?vid=12b51ee6-95c8-4d2c-9a97-69e1f2e7ec53"},"vehicle_type_id":"4","last_reported":1722618460,"current_range_meters":12000,"station_id":"ce4bh2h2rcd13ifvqdh0","pricing_plan_id":"cebpf4jnsgd1na2vs0mg"},{"bike_id":"bf2d858f-81f4-46b4-874a-325bd3709a80","system_id":"levelo_inurba_marseille","lat":43.294153,"lon":5.386305,"is_reserved":false,"is_disabled":false,"rental_uris":{"android":"levelo://app?vid=bf2d858f-81f4-46b4-874a-325bd3709a80","ios":"levelo://app?vid=bf2d858f-81f4-46b4-874a-325bd3709a80"},"vehicle_type_id":"4","last_reported":1722618460,"current_range_meters":6000,"station_id":"ce4bh2h2rcd13ifvqdh0","pricing_plan_id":"cebpf4jnsgd1na2vs0mg"},{"bike_id":"7b996aaa-85ad-42aa-9cc3-45620c6ed9d5","system_id":"levelo_inurba_marseille","lat":43.28955,"lon":5.36405,"is_reserved":false,"is_disabled":false,"rental_uris":{"android":"levelo://app?vid=7b996aaa-85ad-42aa-9cc3-45620c6ed9d5","ios":"levelo://app?vid=7b996aaa-85ad-42aa-9cc3-45620c6ed9d5"},"vehicle_type_id":"4","last_reported":1722618460,"current_range_meters":0,"station_id":"ce4bhc92rcd13ifvqetg","pricing_plan_id":"cebpf4jnsgd1na2vs0mg"},{"bike_id":"55fc13bd-4f55-4642-80c7-a6664bdbd0f3","system_id":"levelo_inurba_marseille","lat":43.289184,"lon":5.366408,"is_reserved":false,"is_disabled":false,"rental_uris":{"android":"levelo://app?vid=55fc13bd-4f55-4642-80c7-a6664bdbd0f3","ios":"levelo://app?vid=55fc13bd-4f55-4642-80c7-a6664bdbd0f3"},"vehicle_type_id":"4","last_reported":1722618460,"current_range_meters":0,"station_id":"ce4bhap2rcd13ifvqek0","pricing_plan_id":"cebpf4jnsgd1na2vs0mg"},{"bike_id":"7ab8a44a-b990-4351-894b-75615c54ecad","system_id":"levelo_inurba_marseille","lat":43.29024,"lon":5.3755,"is_reserved":false,"is_disabled":false,"rental_uris":{"android":"levelo://app?vid=7ab8a44a-b990-4351-894b-75615c54ecad","ios":"levelo://app?vid=7ab8a44a-b990-4351-894b-75615c54ecad"},"vehicle_type_id":"4","last_reported":1722618460,"current_range_meters":0,"station_id":"ce4bh692rcd13ifvqe90","pricing_plan_id":"cebpf4jnsgd1na2vs0mg"},{"bike_id":"2b83c1a1-7d5f-49b9-adfc-2f85b98c4464","system_id":"levelo_inurba_marseille","lat":43.289468,"lon":5.363719,"is_reserved":false,"is_disabled":false,"rental_uris":{"android":"levelo://app?vid=2b83c1a1-7d5f-49b9-adfc-2f85b98c4464","ios":"levelo://app?vid=2b83c1a1-7d5f-49b9-adfc-2f85b98c4464"},"vehicle_type_id":"4","last_reported":1722618460,"current_range_meters":5600,"station_id":"ce4bhc92rcd13ifvqetg","pricing_plan_id":"cebpf4jnsgd1na2vs0mg"},{"bike_id":"c821466c-920c-458a-b122-8aa9551f7441","system_id":"levelo_inurba_marseille","lat":43.289184,"lon":5.366408,"is_reserved":false,"is_disabled":false,"rental_uris":{"android":"levelo://app?vid=c821466c-920c-458a-b122-8aa9551f7441","ios":"levelo://app?vid=c821466c-920c-458a-b122-8aa9551f7441"},"vehicle_type_id":"4","last_reported":1722618460,"current_range_meters":0,"station_id":"ce4bhap2rcd13ifvqek0","pricing_plan_id":"cebpf4jnsgd1na2vs0mg"},{"bike_id":"31f39309-9273-4ce3-bcfb-e1f21fc950cd","system_id":"levelo_inurba_marseille","lat":43.289468,"lon":5.363719,"is_reserved":false,"is_disabled":false,"rental_uris":{"android":"levelo://app?vid=31f39309-9273-4ce3-bcfb-e1f21fc950cd","ios":"levelo://app?vid=31f39309-9273-4ce3-bcfb-e1f21fc950cd"},"vehicle_type_id":"4","last_reported":1722618460,"current_range_meters":13200,"station_id":"ce4bhc92rcd13ifvqetg","pricing_plan_id":"cebpf4jnsgd1na2vs0mg"},{"bike_id":"57ea0a11-3194-442c-9371-d59ca0552a5e","system_id":"levelo_inurba_marseille","lat":43.29266,"lon":5.38448,"is_reserved":false,"is_disabled":false,"rental_uris":{"android":"levelo://app?vid=57ea0a11-3194-442c-9371-d59ca0552a5e","ios":"levelo://app?vid=57ea0a11-3194-442c-9371-d59ca0552a5e"},"vehicle_type_id":"4","last_reported":1722618460,"current_range_meters":21200,"station_id":"ce4bh692rcd13ifvqea0","pricing_plan_id":"cebpf4jnsgd1na2vs0mg"},{"bike_id":"ffa44f63-3f3d-49f0-b72d-c267ad4ad3a1","system_id":"levelo_inurba_marseille","lat":43.292642,"lon":5.384254,"is_reserved":false,"is_disabled":false,"rental_uris":{"android":"levelo://app?vid=ffa44f63-3f3d-49f0-b72d-c267ad4ad3a1","ios":"levelo://app?vid=ffa44f63-3f3d-49f0-b72d-c267ad4ad3a1"},"vehicle_type_id":"4","last_reported":1722618460,"current_range_meters":22000,"station_id":"ce4bh692rcd13ifvqea0","pricing_plan_id":"cebpf4jnsgd1na2vs0mg"},{"bike_id":"f890467c-cd8d-4a22-9006-b38e954007b9","system_id":"levelo_inurba_marseille","lat":43.290104,"lon":5.356111,"is_reserved":false,"is_disabled":false,"rental_uris":{"android":"levelo://app?vid=f890467c-cd8d-4a22-9006-b38e954007b9","ios":"levelo://app?vid=f890467c-cd8d-4a22-9006-b38e954007b9"},"vehicle_type_id":"4","last_reported":1722618460,"current_range_meters":15600,"station_id":"ce4bhb92rcd13ifvqen0","pricing_plan_id":"cebpf4jnsgd1na2vs0mg"},{"bike_id":"95f28cdf-5e23-4637-b86a-a22e7332a15d","system_id":"levelo_inurba_marseille","lat":43.290995,"lon":5.381361,"is_reserved":false,"is_disabled":false,"rental_uris":{"android":"levelo://app?vid=95f28cdf-5e23-4637-b86a-a22e7332a15d","ios":"levelo://app?vid=95f28cdf-5e23-4637-b86a-a22e7332a15d"},"vehicle_type_id":"4","last_reported":1722618460,"current_range_meters":0,"station_id":"ce4bh512rcd13ifvqe2g","pricing_plan_id":"cebpf4jnsgd1na2vs0mg"},{"bike_id":"489a45c6-230a-49d7-a015-469618e1d847","system_id":"levelo_inurba_marseille","lat":43.290995,"lon":5.381361,"is_reserved":false,"is_disabled":false,"rental_uris":{"android":"levelo://app?vid=489a45c6-230a-49d7-a015-469618e1d847","ios":"levelo://app?vid=489a45c6-230a-49d7-a015-469618e1d847"},"vehicle_type_id":"4","last_reported":1722618460,"current_range_meters":0,"station_id":"ce4bh512rcd13ifvqe2g","pricing_plan_id":"cebpf4jnsgd1na2vs0mg"},{"bike_id":"17534dae-45d5-401c-bb8c-19cd79618f02","system_id":"levelo_inurba_marseille","lat":43.29107,"lon":5.38184,"is_reserved":false,"is_disabled":false,"rental_uris":{"android":"levelo://app?vid=17534dae-45d5-401c-bb8c-19cd79618f02","ios":"levelo://app?vid=17534dae-45d5-401c-bb8c-19cd79618f02"},"vehicle_type_id":"4","last_reported":1722618460,"current_range_meters":5200,"station_id":"ce4bh512rcd13ifvqe2g","pricing_plan_id":"cebpf4jnsgd1na2vs0mg"},{"bike_id":"58b47818-1c47-4df0-bfdf-37c9eca60ed7","system_id":"levelo_inurba_marseille","lat":43.289741,"lon":5.378306,"is_reserved":false,"is_disabled":false,"rental_uris":{"android":"levelo://app?vid=58b47818-1c47-4df0-bfdf-37c9eca60ed7","ios":"levelo://app?vid=58b47818-1c47-4df0-bfdf-37c9eca60ed7"},"vehicle_type_id":"4","last_reported":1722618460,"current_range_meters":24000,"station_id":"ce4bh9p2rcd13ifvqed0","pricing_plan_id":"cebpf4jnsgd1na2vs0mg"},{"bike_id":"6b6b514c-04ea-44d5-bcb9-e8d0b9d7ef1e","system_id":"levelo_inurba_marseille","lat":43.33023,"lon":5.39034,"is_reserved":false,"is_disabled":false,"rental_uris":{"android":"levelo://app?vid=6b6b514c-04ea-44d5-bcb9-e8d0b9d7ef1e","ios":"levelo://app?vid=6b6b514c-04ea-44d5-bcb9-e8d0b9d7ef1e"},"vehicle_type_id":"4","last_reported":1722618460,"current_range_meters":7200,"station_id":"ce4bhr92rcd13ifvqhrg","pricing_plan_id":"cebpf4jnsgd1na2vs0mg"},{"bike_id":"05a3b06b-0ebd-4692-9b38-4c2ce4ad9b74","system_id":"levelo_inurba_marseille","lat":43.28978,"lon":5.37836,"is_reserved":false,"is_disabled":false,"rental_uris":{"android":"levelo://app?vid=05a3b06b-0ebd-4692-9b38-4c2ce4ad9b74","ios":"levelo://app?vid=05a3b06b-0ebd-4692-9b38-4c2ce4ad9b74"},"vehicle_type_id":"4","last_reported":1722618460,"current_range_meters":0,"station_id":"ce4bh9p2rcd13ifvqed0","pricing_plan_id":"cebpf4jnsgd1na2vs0mg"},{"bike_id":"72ac96ce-a09b-4976-9a7e-3564b7d9736e","system_id":"levelo_inurba_marseille","lat":43.295169,"lon":5.390426,"is_reserved":false,"is_disabled":false,"rental_uris":{"android":"levelo://app?vid=72ac96ce-a09b-4976-9a7e-3564b7d9736e","ios":"levelo://app?vid=72ac96ce-a09b-4976-9a7e-3564b7d9736e"},"vehicle_type_id":"4","last_reported":1722618460,"current_range_meters":0,"station_id":"ce4bh3p2rcd13ifvqdp0","pricing_plan_id":"cebpf4jnsgd1na2vs0mg"},{"bike_id":"3f5e2dd0-86a4-4e2d-a2f1-053b389d8648","system_id":"levelo_inurba_marseille","lat":43.330442,"lon":5.389148,"is_reserved":false,"is_disabled":false,"rental_uris":{"android":"levelo://app?vid=3f5e2dd0-86a4-4e2d-a2f1-053b389d8648","ios":"levelo://app?vid=3f5e2dd0-86a4-4e2d-a2f1-053b389d8648"},"vehicle_type_id":"4","last_reported":1722618460,"current_range_meters":31200,"station_id":"ce4bhr92rcd13ifvqhrg","pricing_plan_id":"cebpf4jnsgd1na2vs0mg"},{"bike_id":"422a9871-19a9-4900-b8f2-2ada661c7bac","system_id":"levelo_inurba_marseille","lat":43.33023,"lon":5.39042,"is_reserved":false,"is_disabled":false,"rental_uris":{"android":"levelo://app?vid=422a9871-19a9-4900-b8f2-2ada661c7bac","ios":"levelo://app?vid=422a9871-19a9-4900-b8f2-2ada661c7bac"},"vehicle_type_id":"4","last_reported":1722618460,"current_range_meters":30400,"station_id":"ce4bhr92rcd13ifvqhrg","pricing_plan_id":"cebpf4jnsgd1na2vs0mg"},{"bike_id":"e08d74b3-c448-4728-a68c-ec4ab0cef228","system_id":"levelo_inurba_marseille","lat":43.330442,"lon":5.389148,"is_reserved":false,"is_disabled":false,"rental_uris":{"android":"levelo://app?vid=e08d74b3-c448-4728-a68c-ec4ab0cef228","ios":"levelo://app?vid=e08d74b3-c448-4728-a68c-ec4ab0cef228"},"vehicle_type_id":"4","last_reported":1722618460,"current_range_meters":31200,"station_id":"ce4bhr92rcd13ifvqhrg","pricing_plan_id":"cebpf4jnsgd1na2vs0mg"},{"bike_id":"bfeaf000-6386-48aa-9cf7-f6dffaede3f9","system_id":"levelo_inurba_marseille","lat":43.29518,"lon":5.39036,"is_reserved":false,"is_disabled":false,"rental_uris":{"android":"levelo://app?vid=bfeaf000-6386-48aa-9cf7-f6dffaede3f9","ios":"levelo://app?vid=bfeaf000-6386-48aa-9cf7-f6dffaede3f9"},"vehicle_type_id":"4","last_reported":1722618460,"current_range_meters":0,"station_id":"ce4bh3p2rcd13ifvqdp0","pricing_plan_id":"cebpf4jnsgd1na2vs0mg"},{"bike_id":"8c41966c-0991-4fae-b58f-fe39b91685f2","system_id":"levelo_inurba_marseille","lat":43.330263,"lon":5.39042,"is_reserved":false,"is_disabled":false,"rental_uris":{"android":"levelo://app?vid=8c41966c-0991-4fae-b58f-fe39b91685f2","ios":"levelo://app?vid=8c41966c-0991-4fae-b58f-fe39b91685f2"},"vehicle_type_id":"4","last_reported":1722618460,"current_range_meters":27200,"station_id":"ce4bhr92rcd13ifvqhrg","pricing_plan_id":"cebpf4jnsgd1na2vs0mg"},{"bike_id":"091e73a9-ca51-465d-9722-5d7d1b973231","system_id":"levelo_inurba_marseille","lat":43.295169,"lon":5.390426,"is_reserved":false,"is_disabled":false,"rental_uris":{"android":"levelo://app?vid=091e73a9-ca51-465d-9722-5d7d1b973231","ios":"levelo://app?vid=091e73a9-ca51-465d-9722-5d7d1b973231"},"vehicle_type_id":"4","last_reported":1722618460,"current_range_meters":0,"station_id":"ce4bh3p2rcd13ifvqdp0","pricing_plan_id":"cebpf4jnsgd1na2vs0mg"},{"bike_id":"e1568c20-ecd2-4c8a-a313-981ffc2afb66","system_id":"levelo_inurba_marseille","lat":43.295169,"lon":5.390426,"is_reserved":false,"is_disabled":false,"rental_uris":{"android":"levelo://app?vid=e1568c20-ecd2-4c8a-a313-981ffc2afb66","ios":"levelo://app?vid=e1568c20-ecd2-4c8a-a313-981ffc2afb66"},"vehicle_type_id":"4","last_reported":1722618460,"current_range_meters":14400,"station_id":"ce4bh3p2rcd13ifvqdp0","pricing_plan_id":"cebpf4jnsgd1na2vs0mg"},{"bike_id":"27026de5-479a-4a5e-bb55-e24b3e910e8f","system_id":"levelo_inurba_marseille","lat":43.289741,"lon":5.378306,"is_reserved":false,"is_disabled":false,"rental_uris":{"android":"levelo://app?vid=27026de5-479a-4a5e-bb55-e24b3e910e8f","ios":"levelo://app?vid=27026de5-479a-4a5e-bb55-e24b3e910e8f"},"vehicle_type_id":"4","last_reported":1722618460,"current_range_meters":12400,"station_id":"ce4bh9p2rcd13ifvqed0","pricing_plan_id":"cebpf4jnsgd1na2vs0mg"},{"bike_id":"0acfcae5-5db5-4ebe-a7a0-8e2ba1a10ae6","system_id":"levelo_inurba_marseille","lat":43.28966,"lon":5.37842,"is_reserved":false,"is_disabled":false,"rental_uris":{"android":"levelo://app?vid=0acfcae5-5db5-4ebe-a7a0-8e2ba1a10ae6","ios":"levelo://app?vid=0acfcae5-5db5-4ebe-a7a0-8e2ba1a10ae6"},"vehicle_type_id":"4","last_reported":1722618460,"current_range_meters":21600,"station_id":"ce4bh9p2rcd13ifvqed0","pricing_plan_id":"cebpf4jnsgd1na2vs0mg"},{"bike_id":"f4cdf6f8-59cc-4926-bbd3-bf830cd7e7b6","system_id":"levelo_inurba_marseille","lat":43.290094,"lon":5.381264,"is_reserved":false,"is_disabled":false,"rental_uris":{"android":"levelo://app?vid=f4cdf6f8-59cc-4926-bbd3-bf830cd7e7b6","ios":"levelo://app?vid=f4cdf6f8-59cc-4926-bbd3-bf830cd7e7b6"},"vehicle_type_id":"4","last_reported":1722618460,"current_range_meters":29200,"station_id":"ce4bh4p2rcd13ifvqe1g","pricing_plan_id":"cebpf4jnsgd1na2vs0mg"},{"bike_id":"d95aa89f-5637-4d6b-92ae-6b1facf17ad8","system_id":"levelo_inurba_marseille","lat":43.28856,"lon":5.358371,"is_reserved":false,"is_disabled":false,"rental_uris":{"android":"levelo://app?vid=d95aa89f-5637-4d6b-92ae-6b1facf17ad8","ios":"levelo://app?vid=d95aa89f-5637-4d6b-92ae-6b1facf17ad8"},"vehicle_type_id":"4","last_reported":1722618460,"current_range_meters":1200,"station_id":"ce4bhb12rcd13ifvqem0","pricing_plan_id":"cebpf4jnsgd1na2vs0mg"},{"bike_id":"e7ea7af6-a63c-4c88-a0c0-e0cc7fc872c9","system_id":"levelo_inurba_marseille","lat":43.28856,"lon":5.358371,"is_reserved":false,"is_disabled":false,"rental_uris":{"android":"levelo://app?vid=e7ea7af6-a63c-4c88-a0c0-e0cc7fc872c9","ios":"levelo://app?vid=e7ea7af6-a63c-4c88-a0c0-e0cc7fc872c9"},"vehicle_type_id":"4","last_reported":1722618460,"current_range_meters":0,"station_id":"ce4bhb12rcd13ifvqem0","pricing_plan_id":"cebpf4jnsgd1na2vs0mg"},{"bike_id":"e5a53084-8f53-4a85-8f55-3b6501d8e5cb","system_id":"levelo_inurba_marseille","lat":43.28856,"lon":5.358371,"is_reserved":false,"is_disabled":false,"rental_uris":{"android":"levelo://app?vid=e5a53084-8f53-4a85-8f55-3b6501d8e5cb","ios":"levelo://app?vid=e5a53084-8f53-4a85-8f55-3b6501d8e5cb"},"vehicle_type_id":"4","last_reported":1722618460,"current_range_meters":0,"station_id":"ce4bhb12rcd13ifvqem0","pricing_plan_id":"cebpf4jnsgd1na2vs0mg"},{"bike_id":"09e6eaf5-14c0-4108-953a-2ee86d92a16e","system_id":"levelo_inurba_marseille","lat":43.28856,"lon":5.358371,"is_reserved":false,"is_disabled":false,"rental_uris":{"android":"levelo://app?vid=09e6eaf5-14c0-4108-953a-2ee86d92a16e","ios":"levelo://app?vid=09e6eaf5-14c0-4108-953a-2ee86d92a16e"},"vehicle_type_id":"4","last_reported":1722618460,"current_range_meters":4000,"station_id":"ce4bhb12rcd13ifvqem0","pricing_plan_id":"cebpf4jnsgd1na2vs0mg"},{"bike_id":"2ce22c3c-79f1-4ddb-8fa7-a76e170d28ba","system_id":"levelo_inurba_marseille","lat":43.28856,"lon":5.358371,"is_reserved":false,"is_disabled":false,"rental_uris":{"android":"levelo://app?vid=2ce22c3c-79f1-4ddb-8fa7-a76e170d28ba","ios":"levelo://app?vid=2ce22c3c-79f1-4ddb-8fa7-a76e170d28ba"},"vehicle_type_id":"4","last_reported":1722618460,"current_range_meters":0,"station_id":"ce4bhb12rcd13ifvqem0","pricing_plan_id":"cebpf4jnsgd1na2vs0mg"},{"bike_id":"6f044633-3688-4e83-af67-cf3db97c1cc7","system_id":"levelo_inurba_marseille","lat":43.337444,"lon":5.374475,"is_reserved":false,"is_disabled":false,"rental_uris":{"android":"levelo://app?vid=6f044633-3688-4e83-af67-cf3db97c1cc7","ios":"levelo://app?vid=6f044633-3688-4e83-af67-cf3db97c1cc7"},"vehicle_type_id":"3","last_reported":1722618460,"current_range_meters":24800,"station_id":"","pricing_plan_id":"cebpf4jnsgd1na2vs0mg"},{"bike_id":"10273c28-387f-40a1-971f-ac1ca1d577ec","system_id":"levelo_inurba_marseille","lat":43.312609,"lon":5.401662,"is_reserved":false,"is_disabled":false,"rental_uris":{"android":"levelo://app?vid=10273c28-387f-40a1-971f-ac1ca1d577ec","ios":"levelo://app?vid=10273c28-387f-40a1-971f-ac1ca1d577ec"},"vehicle_type_id":"4","last_reported":1722618460,"current_range_meters":0,"station_id":"ce4bh092rcd13ifvqd30","pricing_plan_id":"cebpf4jnsgd1na2vs0mg"},{"bike_id":"2b9eae1d-8d59-4f02-aab2-3fcc08d7072d","system_id":"levelo_inurba_marseille","lat":43.312609,"lon":5.401662,"is_reserved":false,"is_disabled":false,"rental_uris":{"android":"levelo://app?vid=2b9eae1d-8d59-4f02-aab2-3fcc08d7072d","ios":"levelo://app?vid=2b9eae1d-8d59-4f02-aab2-3fcc08d7072d"},"vehicle_type_id":"4","last_reported":1722618460,"current_range_meters":10800,"station_id":"ce4bh092rcd13ifvqd30","pricing_plan_id":"cebpf4jnsgd1na2vs0mg"},{"bike_id":"87c7815e-1dd0-411c-b60e-e44afe64b7ba","system_id":"levelo_inurba_marseille","lat":43.30642,"lon":5.401031,"is_reserved":false,"is_disabled":false,"rental_uris":{"android":"levelo://app?vid=87c7815e-1dd0-411c-b60e-e44afe64b7ba","ios":"levelo://app?vid=87c7815e-1dd0-411c-b60e-e44afe64b7ba"},"vehicle_type_id":"4","last_reported":1722618460,"current_range_meters":4000,"station_id":"ce4bh112rcd13ifvqda0","pricing_plan_id":"cebpf4jnsgd1na2vs0mg"},{"bike_id":"d03bdb35-3ab9-48e6-9a57-f719dd8e932f","system_id":"levelo_inurba_marseille","lat":43.301117,"lon":5.398795,"is_reserved":false,"is_disabled":false,"rental_uris":{"android":"levelo://app?vid=d03bdb35-3ab9-48e6-9a57-f719dd8e932f","ios":"levelo://app?vid=d03bdb35-3ab9-48e6-9a57-f719dd8e932f"},"vehicle_type_id":"4","last_reported":1722618460,"current_range_meters":0,"station_id":"ce4bh0h2rcd13ifvqd40","pricing_plan_id":"cebpf4jnsgd1na2vs0mg"},{"bike_id":"bc972ed2-abc6-4c26-8562-7e19f522d3c2","system_id":"levelo_inurba_marseille","lat":43.301117,"lon":5.398795,"is_reserved":false,"is_disabled":false,"rental_uris":{"android":"levelo://app?vid=bc972ed2-abc6-4c26-8562-7e19f522d3c2","ios":"levelo://app?vid=bc972ed2-abc6-4c26-8562-7e19f522d3c2"},"vehicle_type_id":"4","last_reported":1722618460,"current_range_meters":0,"station_id":"ce4bh0h2rcd13ifvqd40","pricing_plan_id":"cebpf4jnsgd1na2vs0mg"},{"bike_id":"d403031d-7653-47bc-9f20-533fc4422796","system_id":"levelo_inurba_marseille","lat":43.306412,"lon":5.401035,"is_reserved":false,"is_disabled":false,"rental_uris":{"android":"levelo://app?vid=d403031d-7653-47bc-9f20-533fc4422796","ios":"levelo://app?vid=d403031d-7653-47bc-9f20-533fc4422796"},"vehicle_type_id":"4","last_reported":1722618460,"current_range_meters":16800,"station_id":"ce4bh112rcd13ifvqda0","pricing_plan_id":"cebpf4jnsgd1na2vs0mg"},{"bike_id":"8a34dd1a-7870-45fa-9fbd-eb22cb8ec331","system_id":"levelo_inurba_marseille","lat":43.301117,"lon":5.398795,"is_reserved":false,"is_disabled":false,"rental_uris":{"android":"levelo://app?vid=8a34dd1a-7870-45fa-9fbd-eb22cb8ec331","ios":"levelo://app?vid=8a34dd1a-7870-45fa-9fbd-eb22cb8ec331"},"vehicle_type_id":"4","last_reported":1722618460,"current_range_meters":0,"station_id":"ce4bh0h2rcd13ifvqd40","pricing_plan_id":"cebpf4jnsgd1na2vs0mg"},{"bike_id":"9ec1587d-23ae-471d-8fbb-f98664a1f7bf","system_id":"levelo_inurba_marseille","lat":43.301117,"lon":5.398795,"is_reserved":false,"is_disabled":false,"rental_uris":{"android":"levelo://app?vid=9ec1587d-23ae-471d-8fbb-f98664a1f7bf","ios":"levelo://app?vid=9ec1587d-23ae-471d-8fbb-f98664a1f7bf"},"vehicle_type_id":"4","last_reported":1722618460,"current_range_meters":1200,"station_id":"ce4bh0h2rcd13ifvqd40","pricing_plan_id":"cebpf4jnsgd1na2vs0mg"},{"bike_id":"e5feaec7-3268-40e9-a714-fb598f63194c","system_id":"levelo_inurba_marseille","lat":43.286039,"lon":5.370679,"is_reserved":false,"is_disabled":false,"rental_uris":{"android":"levelo://app?vid=e5feaec7-3268-40e9-a714-fb598f63194c","ios":"levelo://app?vid=e5feaec7-3268-40e9-a714-fb598f63194c"},"vehicle_type_id":"4","last_reported":1722618460,"current_range_meters":10400,"station_id":"ce4bht12rcd13ifvqi60","pricing_plan_id":"cebpf4jnsgd1na2vs0mg"},{"bike_id":"24559666-1549-4d55-b6d7-9f93d1d452b5","system_id":"levelo_inurba_marseille","lat":43.298681,"lon":5.397225,"is_reserved":false,"is_disabled":false,"rental_uris":{"android":"levelo://app?vid=24559666-1549-4d55-b6d7-9f93d1d452b5","ios":"levelo://app?vid=24559666-1549-4d55-b6d7-9f93d1d452b5"},"vehicle_type_id":"4","last_reported":1722618460,"current_range_meters":0,"station_id":"ce4bh0h2rcd13ifvqd50","pricing_plan_id":"cebpf4jnsgd1na2vs0mg"},{"bike_id":"9601cda8-cba5-46d6-9728-1222dbfab559","system_id":"levelo_inurba_marseille","lat":43.286961,"lon":5.373785,"is_reserved":false,"is_disabled":false,"rental_uris":{"android":"levelo://app?vid=9601cda8-cba5-46d6-9728-1222dbfab559","ios":"levelo://app?vid=9601cda8-cba5-46d6-9728-1222dbfab559"},"vehicle_type_id":"4","last_reported":1722618460,"current_range_meters":0,"station_id":"ce4bh3p2rcd13ifvqdq0","pricing_plan_id":"cebpf4jnsgd1na2vs0mg"},{"bike_id":"1a91a567-c0ab-4516-b639-88192e360457","system_id":"levelo_inurba_marseille","lat":43.28931,"lon":5.38391,"is_reserved":false,"is_disabled":false,"rental_uris":{"android":"levelo://app?vid=1a91a567-c0ab-4516-b639-88192e360457","ios":"levelo://app?vid=1a91a567-c0ab-4516-b639-88192e360457"},"vehicle_type_id":"4","last_reported":1722618460,"current_range_meters":31200,"station_id":"ce4bh612rcd13ifvqe6g","pricing_plan_id":"cebpf4jnsgd1na2vs0mg"},{"bike_id":"cfc51b93-fc84-4b91-ac98-027ef1c20ffb","system_id":"levelo_inurba_marseille","lat":43.286039,"lon":5.370681,"is_reserved":false,"is_disabled":false,"rental_uris":{"android":"levelo://app?vid=cfc51b93-fc84-4b91-ac98-027ef1c20ffb","ios":"levelo://app?vid=cfc51b93-fc84-4b91-ac98-027ef1c20ffb"},"vehicle_type_id":"4","last_reported":1722618460,"current_range_meters":0,"station_id":"ce4bht12rcd13ifvqi60","pricing_plan_id":"cebpf4jnsgd1na2vs0mg"},{"bike_id":"6bfdb1e4-fbea-4c0e-80e1-64c914cb7e64","system_id":"levelo_inurba_marseille","lat":43.302759,"lon":5.400793,"is_reserved":false,"is_disabled":false,"rental_uris":{"android":"levelo://app?vid=6bfdb1e4-fbea-4c0e-80e1-64c914cb7e64","ios":"levelo://app?vid=6bfdb1e4-fbea-4c0e-80e1-64c914cb7e64"},"vehicle_type_id":"4","last_reported":1722618460,"current_range_meters":7200,"station_id":"ce4bgvh2rcd13ifvqcs0","pricing_plan_id":"cebpf4jnsgd1na2vs0mg"},{"bike_id":"7f59d3c0-f433-4147-98ea-3d2c69eff1bd","system_id":"levelo_inurba_marseille","lat":43.302759,"lon":5.400793,"is_reserved":false,"is_disabled":false,"rental_uris":{"android":"levelo://app?vid=7f59d3c0-f433-4147-98ea-3d2c69eff1bd","ios":"levelo://app?vid=7f59d3c0-f433-4147-98ea-3d2c69eff1bd"},"vehicle_type_id":"4","last_reported":1722618460,"current_range_meters":9600,"station_id":"ce4bgvh2rcd13ifvqcs0","pricing_plan_id":"cebpf4jnsgd1na2vs0mg"},{"bike_id":"870b9452-d956-424a-b30f-66a3e125750d","system_id":"levelo_inurba_marseille","lat":43.29026,"lon":5.38645,"is_reserved":false,"is_disabled":false,"rental_uris":{"android":"levelo://app?vid=870b9452-d956-424a-b30f-66a3e125750d","ios":"levelo://app?vid=870b9452-d956-424a-b30f-66a3e125750d"},"vehicle_type_id":"4","last_reported":1722618460,"current_range_meters":0,"station_id":"ce4bh4p2rcd13ifvqe0g","pricing_plan_id":"cebpf4jnsgd1na2vs0mg"},{"bike_id":"00018620-ecd3-4e43-a597-850eadabb7fd","system_id":"levelo_inurba_marseille","lat":43.302759,"lon":5.400793,"is_reserved":false,"is_disabled":false,"rental_uris":{"android":"levelo://app?vid=00018620-ecd3-4e43-a597-850eadabb7fd","ios":"levelo://app?vid=00018620-ecd3-4e43-a597-850eadabb7fd"},"vehicle_type_id":"4","last_reported":1722618460,"current_range_meters":3200,"station_id":"ce4bgvh2rcd13ifvqcs0","pricing_plan_id":"cebpf4jnsgd1na2vs0mg"},{"bike_id":"fff0d2f3-93f7-4145-8682-89380ca3d743","system_id":"levelo_inurba_marseille","lat":43.302759,"lon":5.400793,"is_reserved":false,"is_disabled":false,"rental_uris":{"android":"levelo://app?vid=fff0d2f3-93f7-4145-8682-89380ca3d743","ios":"levelo://app?vid=fff0d2f3-93f7-4145-8682-89380ca3d743"},"vehicle_type_id":"4","last_reported":1722618460,"current_range_meters":0,"station_id":"ce4bgvh2rcd13ifvqcs0","pricing_plan_id":"cebpf4jnsgd1na2vs0mg"},{"bike_id":"94f9d285-5bf0-4e95-bf20-4baa6cd4fdd9","system_id":"levelo_inurba_marseille","lat":43.286961,"lon":5.373785,"is_reserved":false,"is_disabled":false,"rental_uris":{"android":"levelo://app?vid=94f9d285-5bf0-4e95-bf20-4baa6cd4fdd9","ios":"levelo://app?vid=94f9d285-5bf0-4e95-bf20-4baa6cd4fdd9"},"vehicle_type_id":"4","last_reported":1722618460,"current_range_meters":0,"station_id":"ce4bh3p2rcd13ifvqdq0","pricing_plan_id":"cebpf4jnsgd1na2vs0mg"},{"bike_id":"8b53e4a3-6faf-4d1a-a08b-840caee5eaae","system_id":"levelo_inurba_marseille","lat":43.286039,"lon":5.370679,"is_reserved":false,"is_disabled":false,"rental_uris":{"android":"levelo://app?vid=8b53e4a3-6faf-4d1a-a08b-840caee5eaae","ios":"levelo://app?vid=8b53e4a3-6faf-4d1a-a08b-840caee5eaae"},"vehicle_type_id":"4","last_reported":1722618460,"current_range_meters":8800,"station_id":"ce4bht12rcd13ifvqi60","pricing_plan_id":"cebpf4jnsgd1na2vs0mg"},{"bike_id":"ff7ce74b-3741-4365-b525-71521a7999ec","system_id":"levelo_inurba_marseille","lat":43.286039,"lon":5.370679,"is_reserved":false,"is_disabled":false,"rental_uris":{"android":"levelo://app?vid=ff7ce74b-3741-4365-b525-71521a7999ec","ios":"levelo://app?vid=ff7ce74b-3741-4365-b525-71521a7999ec"},"vehicle_type_id":"4","last_reported":1722618460,"current_range_meters":20800,"station_id":"ce4bht12rcd13ifvqi60","pricing_plan_id":"cebpf4jnsgd1na2vs0mg"},{"bike_id":"e46a6531-5571-49f8-8611-56b3d7f51b20","system_id":"levelo_inurba_marseille","lat":43.286039,"lon":5.370679,"is_reserved":false,"is_disabled":false,"rental_uris":{"android":"levelo://app?vid=e46a6531-5571-49f8-8611-56b3d7f51b20","ios":"levelo://app?vid=e46a6531-5571-49f8-8611-56b3d7f51b20"},"vehicle_type_id":"4","last_reported":1722618460,"current_range_meters":5600,"station_id":"ce4bht12rcd13ifvqi60","pricing_plan_id":"cebpf4jnsgd1na2vs0mg"},{"bike_id":"a8a84e46-3636-4206-94c4-81e4f4f6f101","system_id":"levelo_inurba_marseille","lat":43.286039,"lon":5.370679,"is_reserved":false,"is_disabled":false,"rental_uris":{"android":"levelo://app?vid=a8a84e46-3636-4206-94c4-81e4f4f6f101","ios":"levelo://app?vid=a8a84e46-3636-4206-94c4-81e4f4f6f101"},"vehicle_type_id":"4","last_reported":1722618460,"current_range_meters":9200,"station_id":"ce4bht12rcd13ifvqi60","pricing_plan_id":"cebpf4jnsgd1na2vs0mg"},{"bike_id":"6af44a41-05b1-49bd-aa65-2f15dc60fd0d","system_id":"levelo_inurba_marseille","lat":43.286039,"lon":5.370679,"is_reserved":false,"is_disabled":false,"rental_uris":{"android":"levelo://app?vid=6af44a41-05b1-49bd-aa65-2f15dc60fd0d","ios":"levelo://app?vid=6af44a41-05b1-49bd-aa65-2f15dc60fd0d"},"vehicle_type_id":"4","last_reported":1722618460,"current_range_meters":6000,"station_id":"ce4bht12rcd13ifvqi60","pricing_plan_id":"cebpf4jnsgd1na2vs0mg"},{"bike_id":"3ad1bb24-e471-4bdc-ba1e-fa6baf4d24c7","system_id":"levelo_inurba_marseille","lat":43.28722,"lon":5.37935,"is_reserved":false,"is_disabled":false,"rental_uris":{"android":"levelo://app?vid=3ad1bb24-e471-4bdc-ba1e-fa6baf4d24c7","ios":"levelo://app?vid=3ad1bb24-e471-4bdc-ba1e-fa6baf4d24c7"},"vehicle_type_id":"4","last_reported":1722618460,"current_range_meters":0,"station_id":"ce4bh9p2rcd13ifvqec0","pricing_plan_id":"cebpf4jnsgd1na2vs0mg"},{"bike_id":"bfb17b03-a6cd-47fa-8e79-583ff0728a2d","system_id":"levelo_inurba_marseille","lat":43.287184,"lon":5.37937,"is_reserved":false,"is_disabled":false,"rental_uris":{"android":"levelo://app?vid=bfb17b03-a6cd-47fa-8e79-583ff0728a2d","ios":"levelo://app?vid=bfb17b03-a6cd-47fa-8e79-583ff0728a2d"},"vehicle_type_id":"4","last_reported":1722618460,"current_range_meters":1200,"station_id":"ce4bh9p2rcd13ifvqec0","pricing_plan_id":"cebpf4jnsgd1na2vs0mg"},{"bike_id":"edce83ca-5cfe-46f3-9e4e-04f3525514be","system_id":"levelo_inurba_marseille","lat":43.287184,"lon":5.37937,"is_reserved":false,"is_disabled":false,"rental_uris":{"android":"levelo://app?vid=edce83ca-5cfe-46f3-9e4e-04f3525514be","ios":"levelo://app?vid=edce83ca-5cfe-46f3-9e4e-04f3525514be"},"vehicle_type_id":"4","last_reported":1722618460,"current_range_meters":29200,"station_id":"ce4bh9p2rcd13ifvqec0","pricing_plan_id":"cebpf4jnsgd1na2vs0mg"},{"bike_id":"d20d9c1d-8268-4c10-ac8f-361881d04f1a","system_id":"levelo_inurba_marseille","lat":43.294314,"lon":5.397498,"is_reserved":false,"is_disabled":false,"rental_uris":{"android":"levelo://app?vid=d20d9c1d-8268-4c10-ac8f-361881d04f1a","ios":"levelo://app?vid=d20d9c1d-8268-4c10-ac8f-361881d04f1a"},"vehicle_type_id":"4","last_reported":1722618460,"current_range_meters":9200,"station_id":"ce4bh3h2rcd13ifvqdo0","pricing_plan_id":"cebpf4jnsgd1na2vs0mg"},{"bike_id":"7d425a4c-36fd-46a0-b518-c36c59293a0e","system_id":"levelo_inurba_marseille","lat":43.284538,"lon":5.358657,"is_reserved":false,"is_disabled":false,"rental_uris":{"android":"levelo://app?vid=7d425a4c-36fd-46a0-b518-c36c59293a0e","ios":"levelo://app?vid=7d425a4c-36fd-46a0-b518-c36c59293a0e"},"vehicle_type_id":"4","last_reported":1722618460,"current_range_meters":0,"station_id":"ce4bhah2rcd13ifvqei0","pricing_plan_id":"cebpf4jnsgd1na2vs0mg"},{"bike_id":"06c5fe28-b9d4-46ac-83d7-f7148a800d66","system_id":"levelo_inurba_marseille","lat":43.294314,"lon":5.397498,"is_reserved":false,"is_disabled":false,"rental_uris":{"android":"levelo://app?vid=06c5fe28-b9d4-46ac-83d7-f7148a800d66","ios":"levelo://app?vid=06c5fe28-b9d4-46ac-83d7-f7148a800d66"},"vehicle_type_id":"4","last_reported":1722618460,"current_range_meters":5600,"station_id":"ce4bh3h2rcd13ifvqdo0","pricing_plan_id":"cebpf4jnsgd1na2vs0mg"},{"bike_id":"e870d55c-ecd8-4049-9f63-affbd0477280","system_id":"levelo_inurba_marseille","lat":43.286199,"lon":5.351075,"is_reserved":false,"is_disabled":false,"rental_uris":{"android":"levelo://app?vid=e870d55c-ecd8-4049-9f63-affbd0477280","ios":"levelo://app?vid=e870d55c-ecd8-4049-9f63-affbd0477280"},"vehicle_type_id":"4","last_reported":1722618460,"current_range_meters":10800,"station_id":"ce4bhch2rcd13ifvqeug","pricing_plan_id":"cebpf4jnsgd1na2vs0mg"},{"bike_id":"0cd9028e-5119-4541-accb-0151e7ed317c","system_id":"levelo_inurba_marseille","lat":43.294314,"lon":5.397498,"is_reserved":false,"is_disabled":false,"rental_uris":{"android":"levelo://app?vid=0cd9028e-5119-4541-accb-0151e7ed317c","ios":"levelo://app?vid=0cd9028e-5119-4541-accb-0151e7ed317c"},"vehicle_type_id":"4","last_reported":1722618460,"current_range_meters":800,"station_id":"ce4bh3h2rcd13ifvqdo0","pricing_plan_id":"cebpf4jnsgd1na2vs0mg"},{"bike_id":"6d745eed-2baa-479b-a476-f28a9d960ea9","system_id":"levelo_inurba_marseille","lat":43.28621,"lon":5.351,"is_reserved":false,"is_disabled":false,"rental_uris":{"android":"levelo://app?vid=6d745eed-2baa-479b-a476-f28a9d960ea9","ios":"levelo://app?vid=6d745eed-2baa-479b-a476-f28a9d960ea9"},"vehicle_type_id":"4","last_reported":1722618460,"current_range_meters":12800,"station_id":"ce4bhch2rcd13ifvqeug","pricing_plan_id":"cebpf4jnsgd1na2vs0mg"},{"bike_id":"72e987b7-3588-47f7-b513-1487d468afb0","system_id":"levelo_inurba_marseille","lat":43.28619,"lon":5.35104,"is_reserved":false,"is_disabled":false,"rental_uris":{"android":"levelo://app?vid=72e987b7-3588-47f7-b513-1487d468afb0","ios":"levelo://app?vid=72e987b7-3588-47f7-b513-1487d468afb0"},"vehicle_type_id":"4","last_reported":1722618460,"current_range_meters":18400,"station_id":"ce4bhch2rcd13ifvqeug","pricing_plan_id":"cebpf4jnsgd1na2vs0mg"},{"bike_id":"b0ec9d72-cfad-4c0c-98b9-0057b932cf8c","system_id":"levelo_inurba_marseille","lat":43.28618,"lon":5.35107,"is_reserved":false,"is_disabled":false,"rental_uris":{"android":"levelo://app?vid=b0ec9d72-cfad-4c0c-98b9-0057b932cf8c","ios":"levelo://app?vid=b0ec9d72-cfad-4c0c-98b9-0057b932cf8c"},"vehicle_type_id":"4","last_reported":1722618460,"current_range_meters":10400,"station_id":"ce4bhch2rcd13ifvqeug","pricing_plan_id":"cebpf4jnsgd1na2vs0mg"},{"bike_id":"9f7bdbaf-7c6b-4269-a9bd-c4bb893a562f","system_id":"levelo_inurba_marseille","lat":43.28618,"lon":5.35107,"is_reserved":false,"is_disabled":false,"rental_uris":{"android":"levelo://app?vid=9f7bdbaf-7c6b-4269-a9bd-c4bb893a562f","ios":"levelo://app?vid=9f7bdbaf-7c6b-4269-a9bd-c4bb893a562f"},"vehicle_type_id":"4","last_reported":1722618460,"current_range_meters":0,"station_id":"ce4bhch2rcd13ifvqeug","pricing_plan_id":"cebpf4jnsgd1na2vs0mg"},{"bike_id":"6a30aacd-4c1c-4ee1-8539-28a5e4ca4253","system_id":"levelo_inurba_marseille","lat":43.28618,"lon":5.35103,"is_reserved":false,"is_disabled":false,"rental_uris":{"android":"levelo://app?vid=6a30aacd-4c1c-4ee1-8539-28a5e4ca4253","ios":"levelo://app?vid=6a30aacd-4c1c-4ee1-8539-28a5e4ca4253"},"vehicle_type_id":"4","last_reported":1722618460,"current_range_meters":30400,"station_id":"ce4bhch2rcd13ifvqeug","pricing_plan_id":"cebpf4jnsgd1na2vs0mg"},{"bike_id":"0bb8c064-bd81-44ad-8f52-d6008f3c80b6","system_id":"levelo_inurba_marseille","lat":43.28617,"lon":5.35106,"is_reserved":false,"is_disabled":false,"rental_uris":{"android":"levelo://app?vid=0bb8c064-bd81-44ad-8f52-d6008f3c80b6","ios":"levelo://app?vid=0bb8c064-bd81-44ad-8f52-d6008f3c80b6"},"vehicle_type_id":"4","last_reported":1722618460,"current_range_meters":25200,"station_id":"ce4bhch2rcd13ifvqeug","pricing_plan_id":"cebpf4jnsgd1na2vs0mg"},{"bike_id":"7d7c62fa-8d56-4875-b6ca-219f24b773ca","system_id":"levelo_inurba_marseille","lat":43.285848,"lon":5.350787,"is_reserved":false,"is_disabled":false,"rental_uris":{"android":"levelo://app?vid=7d7c62fa-8d56-4875-b6ca-219f24b773ca","ios":"levelo://app?vid=7d7c62fa-8d56-4875-b6ca-219f24b773ca"},"vehicle_type_id":"4","last_reported":1722618460,"current_range_meters":21200,"station_id":"ce4bhch2rcd13ifvqeug","pricing_plan_id":"cebpf4jnsgd1na2vs0mg"},{"bike_id":"061e6b81-d130-4edb-9721-c596529b56d8","system_id":"levelo_inurba_marseille","lat":43.28619,"lon":5.35098,"is_reserved":false,"is_disabled":false,"rental_uris":{"android":"levelo://app?vid=061e6b81-d130-4edb-9721-c596529b56d8","ios":"levelo://app?vid=061e6b81-d130-4edb-9721-c596529b56d8"},"vehicle_type_id":"4","last_reported":1722618460,"current_range_meters":25200,"station_id":"ce4bhch2rcd13ifvqeug","pricing_plan_id":"cebpf4jnsgd1na2vs0mg"},{"bike_id":"9608249b-405b-41f0-a445-becf5d844335","system_id":"levelo_inurba_marseille","lat":43.28616,"lon":5.35107,"is_reserved":false,"is_disabled":false,"rental_uris":{"android":"levelo://app?vid=9608249b-405b-41f0-a445-becf5d844335","ios":"levelo://app?vid=9608249b-405b-41f0-a445-becf5d844335"},"vehicle_type_id":"4","last_reported":1722618460,"current_range_meters":28000,"station_id":"ce4bhch2rcd13ifvqeug","pricing_plan_id":"cebpf4jnsgd1na2vs0mg"},{"bike_id":"ad0f1f03-c863-4316-8599-df14486986cd","system_id":"levelo_inurba_marseille","lat":43.28617,"lon":5.35102,"is_reserved":false,"is_disabled":false,"rental_uris":{"android":"levelo://app?vid=ad0f1f03-c863-4316-8599-df14486986cd","ios":"levelo://app?vid=ad0f1f03-c863-4316-8599-df14486986cd"},"vehicle_type_id":"4","last_reported":1722618460,"current_range_meters":17600,"station_id":"ce4bhch2rcd13ifvqeug","pricing_plan_id":"cebpf4jnsgd1na2vs0mg"},{"bike_id":"9033b36c-dcd3-4602-928f-57ccb968027d","system_id":"levelo_inurba_marseille","lat":43.28616,"lon":5.35105,"is_reserved":false,"is_disabled":false,"rental_uris":{"android":"levelo://app?vid=9033b36c-dcd3-4602-928f-57ccb968027d","ios":"levelo://app?vid=9033b36c-dcd3-4602-928f-57ccb968027d"},"vehicle_type_id":"4","last_reported":1722618460,"current_range_meters":27600,"station_id":"ce4bhch2rcd13ifvqeug","pricing_plan_id":"cebpf4jnsgd1na2vs0mg"},{"bike_id":"ec377ab7-e38a-4b7b-9f33-ca9017b6da63","system_id":"levelo_inurba_marseille","lat":43.28617,"lon":5.351,"is_reserved":false,"is_disabled":false,"rental_uris":{"android":"levelo://app?vid=ec377ab7-e38a-4b7b-9f33-ca9017b6da63","ios":"levelo://app?vid=ec377ab7-e38a-4b7b-9f33-ca9017b6da63"},"vehicle_type_id":"4","last_reported":1722618460,"current_range_meters":29600,"station_id":"","pricing_plan_id":"cebpf4jnsgd1na2vs0mg"},{"bike_id":"ad727891-4c4a-400b-bbfa-296280cb127b","system_id":"levelo_inurba_marseille","lat":43.28614,"lon":5.35109,"is_reserved":false,"is_disabled":false,"rental_uris":{"android":"levelo://app?vid=ad727891-4c4a-400b-bbfa-296280cb127b","ios":"levelo://app?vid=ad727891-4c4a-400b-bbfa-296280cb127b"},"vehicle_type_id":"4","last_reported":1722618460,"current_range_meters":22000,"station_id":"ce4bhch2rcd13ifvqeug","pricing_plan_id":"cebpf4jnsgd1na2vs0mg"},{"bike_id":"f1043c4a-be3a-4f53-b661-bd3ec6768e99","system_id":"levelo_inurba_marseille","lat":43.286174,"lon":5.350959,"is_reserved":false,"is_disabled":false,"rental_uris":{"android":"levelo://app?vid=f1043c4a-be3a-4f53-b661-bd3ec6768e99","ios":"levelo://app?vid=f1043c4a-be3a-4f53-b661-bd3ec6768e99"},"vehicle_type_id":"4","last_reported":1722618460,"current_range_meters":26000,"station_id":"ce4bhch2rcd13ifvqeug","pricing_plan_id":"cebpf4jnsgd1na2vs0mg"},{"bike_id":"01e6e3a0-ca0c-4374-a5dd-d9ca9460dd75","system_id":"levelo_inurba_marseille","lat":43.28616,"lon":5.351,"is_reserved":false,"is_disabled":false,"rental_uris":{"android":"levelo://app?vid=01e6e3a0-ca0c-4374-a5dd-d9ca9460dd75","ios":"levelo://app?vid=01e6e3a0-ca0c-4374-a5dd-d9ca9460dd75"},"vehicle_type_id":"4","last_reported":1722618460,"current_range_meters":22000,"station_id":"ce4bhch2rcd13ifvqeug","pricing_plan_id":"cebpf4jnsgd1na2vs0mg"},{"bike_id":"e55d471a-4b24-4da8-acd1-66d6f66f1e82","system_id":"levelo_inurba_marseille","lat":43.28616,"lon":5.351,"is_reserved":false,"is_disabled":false,"rental_uris":{"android":"levelo://app?vid=e55d471a-4b24-4da8-acd1-66d6f66f1e82","ios":"levelo://app?vid=e55d471a-4b24-4da8-acd1-66d6f66f1e82"},"vehicle_type_id":"4","last_reported":1722618460,"current_range_meters":31200,"station_id":"ce4bhch2rcd13ifvqeug","pricing_plan_id":"cebpf4jnsgd1na2vs0mg"},{"bike_id":"27a5630e-dea3-4a0a-a18f-3d4d010de041","system_id":"levelo_inurba_marseille","lat":43.28615,"lon":5.35103,"is_reserved":false,"is_disabled":false,"rental_uris":{"android":"levelo://app?vid=27a5630e-dea3-4a0a-a18f-3d4d010de041","ios":"levelo://app?vid=27a5630e-dea3-4a0a-a18f-3d4d010de041"},"vehicle_type_id":"4","last_reported":1722618460,"current_range_meters":31600,"station_id":"ce4bhch2rcd13ifvqeug","pricing_plan_id":"cebpf4jnsgd1na2vs0mg"},{"bike_id":"cba4b914-c437-4505-9668-adf0f6704e30","system_id":"levelo_inurba_marseille","lat":43.28615,"lon":5.35103,"is_reserved":false,"is_disabled":false,"rental_uris":{"android":"levelo://app?vid=cba4b914-c437-4505-9668-adf0f6704e30","ios":"levelo://app?vid=cba4b914-c437-4505-9668-adf0f6704e30"},"vehicle_type_id":"4","last_reported":1722618460,"current_range_meters":27200,"station_id":"ce4bhch2rcd13ifvqeug","pricing_plan_id":"cebpf4jnsgd1na2vs0mg"},{"bike_id":"ff974681-d1e5-4d6a-b951-cc73555fd7e2","system_id":"levelo_inurba_marseille","lat":43.28613,"lon":5.35109,"is_reserved":false,"is_disabled":false,"rental_uris":{"android":"levelo://app?vid=ff974681-d1e5-4d6a-b951-cc73555fd7e2","ios":"levelo://app?vid=ff974681-d1e5-4d6a-b951-cc73555fd7e2"},"vehicle_type_id":"4","last_reported":1722618460,"current_range_meters":22000,"station_id":"ce4bhch2rcd13ifvqeug","pricing_plan_id":"cebpf4jnsgd1na2vs0mg"},{"bike_id":"ec0d09d6-7707-417b-9b30-b860a0c9de7c","system_id":"levelo_inurba_marseille","lat":43.28616,"lon":5.35099,"is_reserved":false,"is_disabled":false,"rental_uris":{"android":"levelo://app?vid=ec0d09d6-7707-417b-9b30-b860a0c9de7c","ios":"levelo://app?vid=ec0d09d6-7707-417b-9b30-b860a0c9de7c"},"vehicle_type_id":"4","last_reported":1722618460,"current_range_meters":21200,"station_id":"ce4bhch2rcd13ifvqeug","pricing_plan_id":"cebpf4jnsgd1na2vs0mg"},{"bike_id":"d875d513-c13a-4bd0-a3ef-d16fb8cb64ff","system_id":"levelo_inurba_marseille","lat":43.28613,"lon":5.35107,"is_reserved":false,"is_disabled":false,"rental_uris":{"android":"levelo://app?vid=d875d513-c13a-4bd0-a3ef-d16fb8cb64ff","ios":"levelo://app?vid=d875d513-c13a-4bd0-a3ef-d16fb8cb64ff"},"vehicle_type_id":"4","last_reported":1722618460,"current_range_meters":21600,"station_id":"ce4bhch2rcd13ifvqeug","pricing_plan_id":"cebpf4jnsgd1na2vs0mg"},{"bike_id":"6ff8cbe2-edff-474d-93d3-0f94e23ec08d","system_id":"levelo_inurba_marseille","lat":43.28612,"lon":5.35109,"is_reserved":false,"is_disabled":false,"rental_uris":{"android":"levelo://app?vid=6ff8cbe2-edff-474d-93d3-0f94e23ec08d","ios":"levelo://app?vid=6ff8cbe2-edff-474d-93d3-0f94e23ec08d"},"vehicle_type_id":"4","last_reported":1722618460,"current_range_meters":0,"station_id":"ce4bhch2rcd13ifvqeug","pricing_plan_id":"cebpf4jnsgd1na2vs0mg"},{"bike_id":"f3e0f9a0-19ef-4e4d-9ec7-bdc7c9466138","system_id":"levelo_inurba_marseille","lat":43.28614,"lon":5.35102,"is_reserved":false,"is_disabled":false,"rental_uris":{"android":"levelo://app?vid=f3e0f9a0-19ef-4e4d-9ec7-bdc7c9466138","ios":"levelo://app?vid=f3e0f9a0-19ef-4e4d-9ec7-bdc7c9466138"},"vehicle_type_id":"4","last_reported":1722618460,"current_range_meters":11600,"station_id":"ce4bhch2rcd13ifvqeug","pricing_plan_id":"cebpf4jnsgd1na2vs0mg"},{"bike_id":"b97e7c72-222b-4cd3-9b87-28e49a3e46a4","system_id":"levelo_inurba_marseille","lat":43.28612,"lon":5.35105,"is_reserved":false,"is_disabled":false,"rental_uris":{"android":"levelo://app?vid=b97e7c72-222b-4cd3-9b87-28e49a3e46a4","ios":"levelo://app?vid=b97e7c72-222b-4cd3-9b87-28e49a3e46a4"},"vehicle_type_id":"4","last_reported":1722618460,"current_range_meters":22800,"station_id":"ce4bhch2rcd13ifvqeug","pricing_plan_id":"cebpf4jnsgd1na2vs0mg"},{"bike_id":"1ce29322-6910-440a-a02d-189dcbde3f3f","system_id":"levelo_inurba_marseille","lat":43.28612,"lon":5.35105,"is_reserved":false,"is_disabled":false,"rental_uris":{"android":"levelo://app?vid=1ce29322-6910-440a-a02d-189dcbde3f3f","ios":"levelo://app?vid=1ce29322-6910-440a-a02d-189dcbde3f3f"},"vehicle_type_id":"4","last_reported":1722618460,"current_range_meters":27200,"station_id":"ce4bhch2rcd13ifvqeug","pricing_plan_id":"cebpf4jnsgd1na2vs0mg"},{"bike_id":"4153a6c8-a811-45c2-b816-ab30db004afe","system_id":"levelo_inurba_marseille","lat":43.28612,"lon":5.35104,"is_reserved":false,"is_disabled":false,"rental_uris":{"android":"levelo://app?vid=4153a6c8-a811-45c2-b816-ab30db004afe","ios":"levelo://app?vid=4153a6c8-a811-45c2-b816-ab30db004afe"},"vehicle_type_id":"4","last_reported":1722618460,"current_range_meters":1600,"station_id":"ce4bhch2rcd13ifvqeug","pricing_plan_id":"cebpf4jnsgd1na2vs0mg"},{"bike_id":"88cdef15-fa11-4136-b3fe-bb1b9ba0839b","system_id":"levelo_inurba_marseille","lat":43.285856,"lon":5.350771,"is_reserved":false,"is_disabled":false,"rental_uris":{"android":"levelo://app?vid=88cdef15-fa11-4136-b3fe-bb1b9ba0839b","ios":"levelo://app?vid=88cdef15-fa11-4136-b3fe-bb1b9ba0839b"},"vehicle_type_id":"4","last_reported":1722618460,"current_range_meters":30000,"station_id":"ce4bhch2rcd13ifvqeug","pricing_plan_id":"cebpf4jnsgd1na2vs0mg"},{"bike_id":"043fcd00-af84-41a9-90a1-e7fa62bc32d4","system_id":"levelo_inurba_marseille","lat":43.295713,"lon":5.399639,"is_reserved":false,"is_disabled":false,"rental_uris":{"android":"levelo://app?vid=043fcd00-af84-41a9-90a1-e7fa62bc32d4","ios":"levelo://app?vid=043fcd00-af84-41a9-90a1-e7fa62bc32d4"},"vehicle_type_id":"4","last_reported":1722618460,"current_range_meters":0,"station_id":"ce4bh312rcd13ifvqdj0","pricing_plan_id":"cebpf4jnsgd1na2vs0mg"},{"bike_id":"2517b0c3-55ba-4df1-be41-d3363b233f59","system_id":"levelo_inurba_marseille","lat":43.311905,"lon":5.40747,"is_reserved":false,"is_disabled":false,"rental_uris":{"android":"levelo://app?vid=2517b0c3-55ba-4df1-be41-d3363b233f59","ios":"levelo://app?vid=2517b0c3-55ba-4df1-be41-d3363b233f59"},"vehicle_type_id":"4","last_reported":1722618460,"current_range_meters":8400,"station_id":"","pricing_plan_id":"cebpf4jnsgd1na2vs0mg"},{"bike_id":"ef44fd01-977f-40f1-8387-13baf2d795fc","system_id":"levelo_inurba_marseille","lat":43.319179,"lon":5.407725,"is_reserved":false,"is_disabled":false,"rental_uris":{"android":"levelo://app?vid=ef44fd01-977f-40f1-8387-13baf2d795fc","ios":"levelo://app?vid=ef44fd01-977f-40f1-8387-13baf2d795fc"},"vehicle_type_id":"4","last_reported":1722618460,"current_range_meters":400,"station_id":"ce4bhq12rcd13ifvqhig","pricing_plan_id":"cebpf4jnsgd1na2vs0mg"},{"bike_id":"26829a39-29e7-42fb-8c3c-4843e8da9a2e","system_id":"levelo_inurba_marseille","lat":43.319179,"lon":5.407725,"is_reserved":false,"is_disabled":false,"rental_uris":{"android":"levelo://app?vid=26829a39-29e7-42fb-8c3c-4843e8da9a2e","ios":"levelo://app?vid=26829a39-29e7-42fb-8c3c-4843e8da9a2e"},"vehicle_type_id":"4","last_reported":1722618460,"current_range_meters":12400,"station_id":"ce4bhq12rcd13ifvqhig","pricing_plan_id":"cebpf4jnsgd1na2vs0mg"},{"bike_id":"407f51a4-32da-4ef1-83ac-d29da46b31a8","system_id":"levelo_inurba_marseille","lat":43.319179,"lon":5.407725,"is_reserved":false,"is_disabled":false,"rental_uris":{"android":"levelo://app?vid=407f51a4-32da-4ef1-83ac-d29da46b31a8","ios":"levelo://app?vid=407f51a4-32da-4ef1-83ac-d29da46b31a8"},"vehicle_type_id":"4","last_reported":1722618460,"current_range_meters":9200,"station_id":"ce4bhq12rcd13ifvqhig","pricing_plan_id":"cebpf4jnsgd1na2vs0mg"},{"bike_id":"af7ab75a-013d-449e-8ce9-8bd8af91385d","system_id":"levelo_inurba_marseille","lat":43.319179,"lon":5.407725,"is_reserved":false,"is_disabled":false,"rental_uris":{"android":"levelo://app?vid=af7ab75a-013d-449e-8ce9-8bd8af91385d","ios":"levelo://app?vid=af7ab75a-013d-449e-8ce9-8bd8af91385d"},"vehicle_type_id":"4","last_reported":1722618460,"current_range_meters":20000,"station_id":"ce4bhq12rcd13ifvqhig","pricing_plan_id":"cebpf4jnsgd1na2vs0mg"},{"bike_id":"595f7f37-3136-49cd-98bd-18e69653154c","system_id":"levelo_inurba_marseille","lat":43.31895,"lon":5.40732,"is_reserved":false,"is_disabled":false,"rental_uris":{"android":"levelo://app?vid=595f7f37-3136-49cd-98bd-18e69653154c","ios":"levelo://app?vid=595f7f37-3136-49cd-98bd-18e69653154c"},"vehicle_type_id":"4","last_reported":1722618460,"current_range_meters":29600,"station_id":"","pricing_plan_id":"cebpf4jnsgd1na2vs0mg"},{"bike_id":"48bf1e98-0ef4-478b-8457-530b1f851393","system_id":"levelo_inurba_marseille","lat":43.33278,"lon":5.39807,"is_reserved":false,"is_disabled":false,"rental_uris":{"android":"levelo://app?vid=48bf1e98-0ef4-478b-8457-530b1f851393","ios":"levelo://app?vid=48bf1e98-0ef4-478b-8457-530b1f851393"},"vehicle_type_id":"4","last_reported":1722618460,"current_range_meters":27600,"station_id":"","pricing_plan_id":"cebpf4jnsgd1na2vs0mg"},{"bike_id":"fcc95342-2a16-41f7-932f-3a14f9a57fb7","system_id":"levelo_inurba_marseille","lat":43.33717,"lon":5.391857,"is_reserved":false,"is_disabled":false,"rental_uris":{"android":"levelo://app?vid=fcc95342-2a16-41f7-932f-3a14f9a57fb7","ios":"levelo://app?vid=fcc95342-2a16-41f7-932f-3a14f9a57fb7"},"vehicle_type_id":"4","last_reported":1722618460,"current_range_meters":27600,"station_id":"ce4bhr92rcd13ifvqhsg","pricing_plan_id":"cebpf4jnsgd1na2vs0mg"},{"bike_id":"4e254b07-1ae3-4baf-947b-63bde56c1a2a","system_id":"levelo_inurba_marseille","lat":43.323464,"lon":5.406297,"is_reserved":false,"is_disabled":false,"rental_uris":{"android":"levelo://app?vid=4e254b07-1ae3-4baf-947b-63bde56c1a2a","ios":"levelo://app?vid=4e254b07-1ae3-4baf-947b-63bde56c1a2a"},"vehicle_type_id":"4","last_reported":1722618460,"current_range_meters":31200,"station_id":"ce4bhq92rcd13ifvqhjg","pricing_plan_id":"cebpf4jnsgd1na2vs0mg"},{"bike_id":"ffa175b3-8aec-4505-92e9-fa05a6cf282b","system_id":"levelo_inurba_marseille","lat":43.33717,"lon":5.391857,"is_reserved":false,"is_disabled":false,"rental_uris":{"android":"levelo://app?vid=ffa175b3-8aec-4505-92e9-fa05a6cf282b","ios":"levelo://app?vid=ffa175b3-8aec-4505-92e9-fa05a6cf282b"},"vehicle_type_id":"4","last_reported":1722618460,"current_range_meters":8800,"station_id":"ce4bhr92rcd13ifvqhsg","pricing_plan_id":"cebpf4jnsgd1na2vs0mg"},{"bike_id":"e7b360e4-770a-44c1-b283-cf25e871c3d4","system_id":"levelo_inurba_marseille","lat":43.337195,"lon":5.39187,"is_reserved":false,"is_disabled":false,"rental_uris":{"android":"levelo://app?vid=e7b360e4-770a-44c1-b283-cf25e871c3d4","ios":"levelo://app?vid=e7b360e4-770a-44c1-b283-cf25e871c3d4"},"vehicle_type_id":"4","last_reported":1722618460,"current_range_meters":31200,"station_id":"ce4bhr92rcd13ifvqhsg","pricing_plan_id":"cebpf4jnsgd1na2vs0mg"},