{"last_updated":1729966224,"ttl":60,"version":"2.2","data":{"bikes":[{"bike_id":"c894f70f-2a6f-425b-ba00-c08216f3e7e3","system_id":"levelo_inurba_marseille","lat":43.29628,"lon":5.37169,"is_reserved":false,"is_disabled":false,"rental_uris":{"android":"levelo://app?vid=c894f70f-2a6f-425b-ba00-c08216f3e7e3","ios":"levelo://app?vid=c894f70f-2a6f-425b-ba00-c08216f3e7e3"},"vehicle_type_id":"4","last_reported":1729966224,"current_range_meters":38800,"station_id":"ce4bgnh2rcd13ifvqc0g","pricing_plan_id":"cebpf4jnsgd1na2vs0mg"},{"bike_id":"ce5bd355-2c0f-4f9d-b42d-f6b381cabda5","system_id":"levelo_inurba_marseille","lat":43.30345,"lon":5.39266,"is_reserved":false,"is_disabled":false,"rental_uris":{"android":"levelo://app?vid=ce5bd355-2c0f-4f9d-b42d-f6b381cabda5","ios":"levelo://app?vid=ce5bd355-2c0f-4f9d-b42d-f6b381cabda5"},"vehicle_type_id":"4","last_reported":1729966224,"current_range_meters":35600,"station_id":"ce4bh012rcd13ifvqcv0","pricing_plan_id":"cebpf4jnsgd1na2vs0mg"},{"bike_id":"36ac52a7-7aec-41ee-872e-e63da3316f37","system_id":"levelo_inurba_marseille","lat":43.27688,"lon":5.38892,"is_reserved":false,"is_disabled":false,"rental_uris":{"android":"levelo://app?vid=36ac52a7-7aec-41ee-872e-e63da3316f37","ios":"levelo://app?vid=36ac52a7-7aec-41ee-872e-e63da3316f37"},"vehicle_type_id":"4","last_reported":1729966224,"current_range_meters":10000,"station_id":"ce4bhi12rcd13ifvqfo0","pricing_plan_id":"cebpf4jnsgd1na2vs0mg"},{"bike_id":"d5efcb1a-289c-421e-bfad-7702f935411c","system_id":"levelo_inurba_marseille","lat":43.25825,"lon":5.39435,"is_reserved":false,"is_disabled":false,"rental_uris":{"android":"levelo://app?vid=d5efcb1a-289c-421e-bfad-7702f935411c","ios":"levelo://app?vid=d5efcb1a-289c-421e-bfad-7702f935411c"},"vehicle_type_id":"4","last_reported":1729966224,"current_range_meters":33600,"station_id":"ce4bhip2rcd13ifvqft0","pricing_plan_id":"cebpf4jnsgd1na2vs0mg"},{"bike_id":"26d518f2-e761-46eb-bc7c-d62463112389","system_id":"levelo_inurba_marseille","lat":43.29689,"lon":5.37285,"is_reserved":false,"is_disabled":false,"rental_uris":{"android":"levelo://app?vid=26d518f2-e761-46eb-bc7c-d62463112389","ios":"levelo://app?vid=26d518f2-e761-46eb-bc7c-d62463112389"},"vehicle_type_id":"4","last_reported":1729966224,"current_range_meters":39200,"station_id":"ce4bgk12rcd13ifvqbj0","pricing_plan_id":"cebpf4jnsgd1na2vs0mg"},{"bike_id":"48660d12-eacc-4f93-a06c-04c2aa9e37e4","system_id":"levelo_inurba_marseille","lat":43.268,"lon":5.40275,"is_reserved":false,"is_disabled":false,"rental_uris":{"android":"levelo://app?vid=48660d12-eacc-4f93-a06c-04c2aa9e37e4","ios":"levelo://app?vid=48660d12-eacc-4f93-a06c-04c2aa9e37e4"},"vehicle_type_id":"4","last_reported":1729966224,"current_range_meters":22000,"station_id":"ce501612rcd8frsf0b60","pricing_plan_id":"cebpf4jnsgd1na2vs0mg"},{"bike_id":"332166a0-17e4-49e8-bd99-62ae5090f294","system_id":"levelo_inurba_marseille","lat":43.29258,"lon":5.38451,"is_reserved":false,"is_disabled":false,"rental_uris":{"android":"levelo://app?vid=332166a0-17e4-49e8-bd99-62ae5090f294","ios":"levelo://app?vid=332166a0-17e4-49e8-bd99-62ae5090f294"},"vehicle_type_id":"4","last_reported":1729966224,"current_range_meters":38800,"station_id":"ce4bh692rcd13ifvqea0","pricing_plan_id":"cebpf4jnsgd1na2vs0mg"},{"bike_id":"3381cd79-1316-4c50-ad86-ee5056cd0e14","system_id":"levelo_inurba_marseille","lat":43.26067,"lon":5.39398,"is_reserved":false,"is_disabled":false,"rental_uris":{"android":"levelo://app?vid=3381cd79-1316-4c50-ad86-ee5056cd0e14","ios":"levelo://app?vid=3381cd79-1316-4c50-ad86-ee5056cd0e14"},"vehicle_type_id":"4","last_reported":1729966224,"current_range_meters":35600,"station_id":"ce4bhh92rcd13ifvqfj0","pricing_plan_id":"cebpf4jnsgd1na2vs0mg"},{"bike_id":"04690084-e349-43e2-9bc1-77b06607832e","system_id":"levelo_inurba_marseille","lat":43.29781,"lon":5.38107,"is_reserved":false,"is_disabled":false,"rental_uris":{"android":"levelo://app?vid=04690084-e349-43e2-9bc1-77b06607832e","ios":"levelo://app?vid=04690084-e349-43e2-9bc1-77b06607832e"},"vehicle_type_id":"4","last_reported":1729966224,"current_range_meters":20800,"station_id":"ce4bgip2rcd13ifvqbb0","pricing_plan_id":"cebpf4jnsgd1na2vs0mg"},{"bike_id":"01c1f0bf-d998-4e38-9119-273bc86d2bfb","system_id":"levelo_inurba_marseille","lat":43.29897,"lon":5.38157,"is_reserved":false,"is_disabled":false,"rental_uris":{"android":"levelo://app?vid=01c1f0bf-d998-4e38-9119-273bc86d2bfb","ios":"levelo://app?vid=01c1f0bf-d998-4e38-9119-273bc86d2bfb"},"vehicle_type_id":"4","last_reported":1729966224,"current_range_meters":31200,"station_id":"ce4bgj12rcd13ifvqbc0","pricing_plan_id":"cebpf4jnsgd1na2vs0mg"},{"bike_id":"a15fa7ff-93f4-4c55-ad50-5f623b517d5d","system_id":"levelo_inurba_marseille","lat":43.29031,"lon":5.37562,"is_reserved":false,"is_disabled":false,"rental_uris":{"android":"levelo://app?vid=a15fa7ff-93f4-4c55-ad50-5f623b517d5d","ios":"levelo://app?vid=a15fa7ff-93f4-4c55-ad50-5f623b517d5d"},"vehicle_type_id":"4","last_reported":1729966224,"current_range_meters":39200,"station_id":"ce4bh692rcd13ifvqe90","pricing_plan_id":"cebpf4jnsgd1na2vs0mg"},{"bike_id":"47623020-0c90-41e5-bb48-79ad4b2c18cf","system_id":"levelo_inurba_marseille","lat":43.30889,"lon":5.39662,"is_reserved":false,"is_disabled":false,"rental_uris":{"android":"levelo://app?vid=47623020-0c90-41e5-bb48-79ad4b2c18cf","ios":"levelo://app?vid=47623020-0c90-41e5-bb48-79ad4b2c18cf"},"vehicle_type_id":"4","last_reported":1729966224,"current_range_meters":33600,"station_id":"ce4bh012rcd13ifvqcv0","pricing_plan_id":"cebpf4jnsgd1na2vs0mg"},{"bike_id":"e7c10702-9019-46f5-afdb-0f55cecf6380","system_id":"levelo_inurba_marseille","lat":43.31163,"lon":5.38728,"is_reserved":false,"is_disabled":false,"rental_uris":{"android":"levelo://app?vid=e7c10702-9019-46f5-afdb-0f55cecf6380","ios":"levelo://app?vid=e7c10702-9019-46f5-afdb-0f55cecf6380"},"vehicle_type_id":"4","last_reported":1729966224,"current_range_meters":20400,"station_id":"ce4bgv12rcd13ifvqcp0","pricing_plan_id":"cebpf4jnsgd1na2vs0mg"},{"bike_id":"a4418c4a-7e8f-402f-8ae8-b6f6bf553309","system_id":"levelo_inurba_marseille","lat":43.32053,"lon":5.41546,"is_reserved":false,"is_disabled":false,"rental_uris":{"android":"levelo://app?vid=a4418c4a-7e8f-402f-8ae8-b6f6bf553309","ios":"levelo://app?vid=a4418c4a-7e8f-402f-8ae8-b6f6bf553309"},"vehicle_type_id":"4","last_reported":1729966224,"current_range_meters":37600,"station_id":"ce4bhq92rcd13ifvqhkg","pricing_plan_id":"cebpf4jnsgd1na2vs0mg"},{"bike_id":"6ef9c451-07a1-433a-a702-ff7bb7c5a616","system_id":"levelo_inurba_marseille","lat":43.3048,"lon":5.40102,"is_reserved":false,"is_disabled":false,"rental_uris":{"android":"levelo://app?vid=6ef9c451-07a1-433a-a702-ff7bb7c5a616","ios":"levelo://app?vid=6ef9c451-07a1-433a-a702-ff7bb7c5a616"},"vehicle_type_id":"4","last_reported":1729966224,"current_range_meters":32400,"station_id":"","pricing_plan_id":"cebpf4jnsgd1na2vs0mg"},{"bike_id":"7e0dd895-9f73-4cbf-bde4-6fa0a5529f76","system_id":"levelo_inurba_marseille","lat":43.2962,"lon":5.3773,"is_reserved":false,"is_disabled":false,"rental_uris":{"android":"levelo://app?vid=7e0dd895-9f73-4cbf-bde4-6fa0a5529f76","ios":"levelo://app?vid=7e0dd895-9f73-4cbf-bde4-6fa0a5529f76"},"vehicle_type_id":"4","last_reported":1729966224,"current_range_meters":16000,"station_id":"ce4bgi92rcd13ifvqb90","pricing_plan_id":"cebpf4jnsgd1na2vs0mg"},{"bike_id":"3180bae6-39ec-4dfb-9cf1-1982c1808fd6","system_id":"levelo_inurba_marseille","lat":43.30545,"lon":5.38427,"is_reserved":false,"is_disabled":false,"rental_uris":{"android":"levelo://app?vid=3180bae6-39ec-4dfb-9cf1-1982c1808fd6","ios":"levelo://app?vid=3180bae6-39ec-4dfb-9cf1-1982c1808fd6"},"vehicle_type_id":"4","last_reported":1729966224,"current_range_meters":6400,"station_id":"ce4bgg92rcd13ifvqb30","pricing_plan_id":"cebpf4jnsgd1na2vs0mg"},{"bike_id":"78fa142a-540f-4add-96b9-80802b68d17b","system_id":"levelo_inurba_marseille","lat":43.29526,"lon":5.39038,"is_reserved":false,"is_disabled":false,"rental_uris":{"android":"levelo://app?vid=78fa142a-540f-4add-96b9-80802b68d17b","ios":"levelo://app?vid=78fa142a-540f-4add-96b9-80802b68d17b"},"vehicle_type_id":"4","last_reported":1729966224,"current_range_meters":14400,"station_id":"ce4bh3p2rcd13ifvqdp0","pricing_plan_id":"cebpf4jnsgd1na2vs0mg"},{"bike_id":"20976d22-73b3-4c90-883d-6284444cfaed","system_id":"levelo_inurba_marseille","lat":43.287012,"lon":5.399909,"is_reserved":false,"is_disabled":false,"rental_uris":{"android":"levelo://app?vid=20976d22-73b3-4c90-883d-6284444cfaed","ios":"levelo://app?vid=20976d22-73b3-4c90-883d-6284444cfaed"},"vehicle_type_id":"4","last_reported":1729966224,"current_range_meters":38800,"station_id":"ce4bho92rcd13ifvqh3g","pricing_plan_id":"cebpf4jnsgd1na2vs0mg"},{"bike_id":"54bcc0ea-cce7-4187-9cab-1ca588f3b085","system_id":"levelo_inurba_marseille","lat":43.246483,"lon":5.388943,"is_reserved":false,"is_disabled":false,"rental_uris":{"android":"levelo://app?vid=54bcc0ea-cce7-4187-9cab-1ca588f3b085","ios":"levelo://app?vid=54bcc0ea-cce7-4187-9cab-1ca588f3b085"},"vehicle_type_id":"4","last_reported":1729966224,"current_range_meters":25600,"station_id":"ce4bhg12rcd13ifvqf60","pricing_plan_id":"cebpf4jnsgd1na2vs0mg"},{"bike_id":"850b1705-7c0b-4789-ad58-bf91afc0cb8d","system_id":"levelo_inurba_marseille","lat":43.29711,"lon":5.36614,"is_reserved":false,"is_disabled":false,"rental_uris":{"android":"levelo://app?vid=850b1705-7c0b-4789-ad58-bf91afc0cb8d","ios":"levelo://app?vid=850b1705-7c0b-4789-ad58-bf91afc0cb8d"},"vehicle_type_id":"4","last_reported":1729966224,"current_range_meters":25600,"station_id":"ce4bgn12rcd13ifvqbt0","pricing_plan_id":"cebpf4jnsgd1na2vs0mg"},{"bike_id":"d35e5b6c-fb08-4a71-b70f-638bcfea4cf6","system_id":"levelo_inurba_marseille","lat":43.31266,"lon":5.40173,"is_reserved":false,"is_disabled":false,"rental_uris":{"android":"levelo://app?vid=d35e5b6c-fb08-4a71-b70f-638bcfea4cf6","ios":"levelo://app?vid=d35e5b6c-fb08-4a71-b70f-638bcfea4cf6"},"vehicle_type_id":"4","last_reported":1729966224,"current_range_meters":38800,"station_id":"ce4bh092rcd13ifvqd30","pricing_plan_id":"cebpf4jnsgd1na2vs0mg"},{"bike_id":"95082efa-9423-420a-905a-859dc2ae2023","system_id":"levelo_inurba_marseille","lat":43.29652,"lon":5.38955,"is_reserved":false,"is_disabled":false,"rental_uris":{"android":"levelo://app?vid=95082efa-9423-420a-905a-859dc2ae2023","ios":"levelo://app?vid=95082efa-9423-420a-905a-859dc2ae2023"},"vehicle_type_id":"4","last_reported":1729966224,"current_range_meters":20000,"station_id":"ce4bh3p2rcd13ifvqdp0","pricing_plan_id":"cebpf4jnsgd1na2vs0mg"},{"bike_id":"633bdd84-8a27-486c-8d5a-62bd9dd56f9f","system_id":"levelo_inurba_marseille","lat":43.26943,"lon":5.40256,"is_reserved":false,"is_disabled":false,"rental_uris":{"android":"levelo://app?vid=633bdd84-8a27-486c-8d5a-62bd9dd56f9f","ios":"levelo://app?vid=633bdd84-8a27-486c-8d5a-62bd9dd56f9f"},"vehicle_type_id":"4","last_reported":1729966224,"current_range_meters":39200,"station_id":"cjm6bp8fraef2m0cb0m0","pricing_plan_id":"cebpf4jnsgd1na2vs0mg"},{"bike_id":"365042da-fe2f-49c8-bdd1-2a0373063ba3","system_id":"levelo_inurba_marseille","lat":43.29624,"lon":5.37171,"is_reserved":false,"is_disabled":false,"rental_uris":{"android":"levelo://app?vid=365042da-fe2f-49c8-bdd1-2a0373063ba3","ios":"levelo://app?vid=365042da-fe2f-49c8-bdd1-2a0373063ba3"},"vehicle_type_id":"4","last_reported":1729966224,"current_range_meters":30000,"station_id":"ce4bgnh2rcd13ifvqc0g","pricing_plan_id":"cebpf4jnsgd1na2vs0mg"},{"bike_id":"7ad5cee9-1700-4df5-9506-106d58079bca","system_id":"levelo_inurba_marseille","lat":43.2962,"lon":5.37149,"is_reserved":false,"is_disabled":false,"rental_uris":{"android":"levelo://app?vid=7ad5cee9-1700-4df5-9506-106d58079bca","ios":"levelo://app?vid=7ad5cee9-1700-4df5-9506-106d58079bca"},"vehicle_type_id":"4","last_reported":1729966224,"current_range_meters":39200,"station_id":"ce4bgnh2rcd13ifvqc0g","pricing_plan_id":"cebpf4jnsgd1na2vs0mg"},{"bike_id":"11e492af-0f20-42a0-8bbb-60a012ba0db6","system_id":"levelo_inurba_marseille","lat":43.26205,"lon":5.37446,"is_reserved":false,"is_disabled":false,"rental_uris":{"android":"levelo://app?vid=11e492af-0f20-42a0-8bbb-60a012ba0db6","ios":"levelo://app?vid=11e492af-0f20-42a0-8bbb-60a012ba0db6"},"vehicle_type_id":"4","last_reported":1729966224,"current_range_meters":38800,"station_id":"ce4bhgp2rcd13ifvqfc0","pricing_plan_id":"cebpf4jnsgd1na2vs0mg"},{"bike_id":"f15302fc-4070-4923-929e-e016a73baf0e","system_id":"levelo_inurba_marseille","lat":43.27676,"lon":5.3887,"is_reserved":false,"is_disabled":false,"rental_uris":{"android":"levelo://app?vid=f15302fc-4070-4923-929e-e016a73baf0e","ios":"levelo://app?vid=f15302fc-4070-4923-929e-e016a73baf0e"},"vehicle_type_id":"4","last_reported":1729966224,"current_range_meters":35200,"station_id":"ce4bhi12rcd13ifvqfo0","pricing_plan_id":"cebpf4jnsgd1na2vs0mg"},{"bike_id":"7896fcb2-f348-4e71-9819-4435ddfd28cd","system_id":"levelo_inurba_marseille","lat":43.2904,"lon":5.39953,"is_reserved":false,"is_disabled":false,"rental_uris":{"android":"levelo://app?vid=7896fcb2-f348-4e71-9819-4435ddfd28cd","ios":"levelo://app?vid=7896fcb2-f348-4e71-9819-4435ddfd28cd"},"vehicle_type_id":"4","last_reported":1729966224,"current_range_meters":31200,"station_id":"ce4bh392rcd13ifvqdm0","pricing_plan_id":"cebpf4jnsgd1na2vs0mg"},{"bike_id":"ecf9dc4f-d49d-4b68-8ac8-c5530e80f1ea","system_id":"levelo_inurba_marseille","lat":43.31484,"lon":5.37306,"is_reserved":false,"is_disabled":false,"rental_uris":{"android":"levelo://app?vid=ecf9dc4f-d49d-4b68-8ac8-c5530e80f1ea","ios":"levelo://app?vid=ecf9dc4f-d49d-4b68-8ac8-c5530e80f1ea"},"vehicle_type_id":"4","last_reported":1729966224,"current_range_meters":11600,"station_id":"ce4bgt12rcd13ifvqcd0","pricing_plan_id":"cebpf4jnsgd1na2vs0mg"},{"bike_id":"c8f33dbe-8d46-4679-b0bd-686b38e43e1d","system_id":"levelo_inurba_marseille","lat":43.24545,"lon":5.39525,"is_reserved":false,"is_disabled":false,"rental_uris":{"android":"levelo://app?vid=c8f33dbe-8d46-4679-b0bd-686b38e43e1d","ios":"levelo://app?vid=c8f33dbe-8d46-4679-b0bd-686b38e43e1d"},"vehicle_type_id":"4","last_reported":1729966224,"current_range_meters":33200,"station_id":"ce4bhlp2rcd13ifvqgjg","pricing_plan_id":"cebpf4jnsgd1na2vs0mg"},{"bike_id":"a589bf84-5e5c-4ff0-819d-b09734427918","system_id":"levelo_inurba_marseille","lat":43.28722,"lon":5.3796,"is_reserved":false,"is_disabled":false,"rental_uris":{"android":"levelo://app?vid=a589bf84-5e5c-4ff0-819d-b09734427918","ios":"levelo://app?vid=a589bf84-5e5c-4ff0-819d-b09734427918"},"vehicle_type_id":"4","last_reported":1729966224,"current_range_meters":19600,"station_id":"ce4bh9p2rcd13ifvqec0","pricing_plan_id":"cebpf4jnsgd1na2vs0mg"},{"bike_id":"f2b4292d-4f13-4bdb-be5b-27fd1539cafb","system_id":"levelo_inurba_marseille","lat":43.29962,"lon":5.38497,"is_reserved":false,"is_disabled":false,"rental_uris":{"android":"levelo://app?vid=f2b4292d-4f13-4bdb-be5b-27fd1539cafb","ios":"levelo://app?vid=f2b4292d-4f13-4bdb-be5b-27fd1539cafb"},"vehicle_type_id":"4","last_reported":1729966224,"current_range_meters":35200,"station_id":"ce4bgj92rcd13ifvqbd0","pricing_plan_id":"cebpf4jnsgd1na2vs0mg"},{"bike_id":"1d1486ac-b582-4105-8e78-b87f875c9823","system_id":"levelo_inurba_marseille","lat":43.28707,"lon":5.37945,"is_reserved":false,"is_disabled":false,"rental_uris":{"android":"levelo://app?vid=1d1486ac-b582-4105-8e78-b87f875c9823","ios":"levelo://app?vid=1d1486ac-b582-4105-8e78-b87f875c9823"},"vehicle_type_id":"4","last_reported":1729966224,"current_range_meters":33600,"station_id":"ce4bh9p2rcd13ifvqec0","pricing_plan_id":"cebpf4jnsgd1na2vs0mg"},{"bike_id":"8c0c2fa1-37f9-48f1-b246-0c1a1c47fbb2","system_id":"levelo_inurba_marseille","lat":43.26573,"lon":5.3901,"is_reserved":false,"is_disabled":false,"rental_uris":{"android":"levelo://app?vid=8c0c2fa1-37f9-48f1-b246-0c1a1c47fbb2","ios":"levelo://app?vid=8c0c2fa1-37f9-48f1-b246-0c1a1c47fbb2"},"vehicle_type_id":"4","last_reported":1729966224,"current_range_meters":8400,"station_id":"ce4bhe12rcd13ifvqf30","pricing_plan_id":"cebpf4jnsgd1na2vs0mg"},{"bike_id":"b4c1c861-a75e-46c9-86c7-2e2349bb876d","system_id":"levelo_inurba_marseille","lat":43.25572,"lon":5.38235,"is_reserved":false,"is_disabled":false,"rental_uris":{"android":"levelo://app?vid=b4c1c861-a75e-46c9-86c7-2e2349bb876d","ios":"levelo://app?vid=b4c1c861-a75e-46c9-86c7-2e2349bb876d"},"vehicle_type_id":"4","last_reported":1729966224,"current_range_meters":27600,"station_id":"ce4bhih2rcd13ifvqfs0","pricing_plan_id":"cebpf4jnsgd1na2vs0mg"},{"bike_id":"0197a995-14d6-405e-84ea-a3fa0187e008","system_id":"levelo_inurba_marseille","lat":43.26925,"lon":5.40279,"is_reserved":false,"is_disabled":false,"rental_uris":{"android":"levelo://app?vid=0197a995-14d6-405e-84ea-a3fa0187e008","ios":"levelo://app?vid=0197a995-14d6-405e-84ea-a3fa0187e008"},"vehicle_type_id":"4","last_reported":1729966224,"current_range_meters":38800,"station_id":"cjm6bp8fraef2m0cb0m0","pricing_plan_id":"cebpf4jnsgd1na2vs0mg"},{"bike_id":"e4749c9a-be4e-4ed6-a912-8903bab4c164","system_id":"levelo_inurba_marseille","lat":43.32486,"lon":5.36564,"is_reserved":false,"is_disabled":false,"rental_uris":{"android":"levelo://app?vid=e4749c9a-be4e-4ed6-a912-8903bab4c164","ios":"levelo://app?vid=e4749c9a-be4e-4ed6-a912-8903bab4c164"},"vehicle_type_id":"4","last_reported":1729966224,"current_range_meters":10000,"station_id":"ce4bhs12rcd13ifvqhvg","pricing_plan_id":"cebpf4jnsgd1na2vs0mg"},{"bike_id":"ffa2a59a-9ef7-45e9-b043-0070963392db","system_id":"levelo_inurba_marseille","lat":43.29092,"lon":5.38142,"is_reserved":false,"is_disabled":false,"rental_uris":{"android":"levelo://app?vid=ffa2a59a-9ef7-45e9-b043-0070963392db","ios":"levelo://app?vid=ffa2a59a-9ef7-45e9-b043-0070963392db"},"vehicle_type_id":"4","last_reported":1729966224,"current_range_meters":32400,"station_id":"ce4bh512rcd13ifvqe2g","pricing_plan_id":"cebpf4jnsgd1na2vs0mg"},{"bike_id":"e6d3bcb8-2f97-4379-9ffc-70495f1bd10c","system_id":"levelo_inurba_marseille","lat":43.27314,"lon":5.39093,"is_reserved":false,"is_disabled":false,"rental_uris":{"android":"levelo://app?vid=e6d3bcb8-2f97-4379-9ffc-70495f1bd10c","ios":"levelo://app?vid=e6d3bcb8-2f97-4379-9ffc-70495f1bd10c"},"vehicle_type_id":"4","last_reported":1729966224,"current_range_meters":17200,"station_id":"ce4bhgp2rcd13ifvqfe0","pricing_plan_id":"cebpf4jnsgd1na2vs0mg"},{"bike_id":"98a02e0f-62b7-486f-a6d5-7bee8514776c","system_id":"levelo_inurba_marseille","lat":43.29777,"lon":5.37049,"is_reserved":false,"is_disabled":false,"rental_uris":{"android":"levelo://app?vid=98a02e0f-62b7-486f-a6d5-7bee8514776c","ios":"levelo://app?vid=98a02e0f-62b7-486f-a6d5-7bee8514776c"},"vehicle_type_id":"4","last_reported":1729966224,"current_range_meters":25200,"station_id":"ce4bgk12rcd13ifvqbj0","pricing_plan_id":"cebpf4jnsgd1na2vs0mg"},{"bike_id":"bdebca23-d953-4046-be99-bf6c27ec1b5d","system_id":"levelo_inurba_marseille","lat":43.29967,"lon":5.41318,"is_reserved":false,"is_disabled":false,"rental_uris":{"android":"levelo://app?vid=bdebca23-d953-4046-be99-bf6c27ec1b5d","ios":"levelo://app?vid=bdebca23-d953-4046-be99-bf6c27ec1b5d"},"vehicle_type_id":"4","last_reported":1729966224,"current_range_meters":31200,"station_id":"ce4bhp12rcd13ifvqh9g","pricing_plan_id":"cebpf4jnsgd1na2vs0mg"},{"bike_id":"5de0a329-7698-4bce-b772-88bd5818048d","system_id":"levelo_inurba_marseille","lat":43.26065,"lon":5.39392,"is_reserved":false,"is_disabled":false,"rental_uris":{"android":"levelo://app?vid=5de0a329-7698-4bce-b772-88bd5818048d","ios":"levelo://app?vid=5de0a329-7698-4bce-b772-88bd5818048d"},"vehicle_type_id":"4","last_reported":1729966224,"current_range_meters":36800,"station_id":"ce4bhh92rcd13ifvqfj0","pricing_plan_id":"cebpf4jnsgd1na2vs0mg"},{"bike_id":"373beb12-0cb8-4203-a7f1-f364e7fa360d","system_id":"levelo_inurba_marseille","lat":43.25586,"lon":5.38235,"is_reserved":false,"is_disabled":false,"rental_uris":{"android":"levelo://app?vid=373beb12-0cb8-4203-a7f1-f364e7fa360d","ios":"levelo://app?vid=373beb12-0cb8-4203-a7f1-f364e7fa360d"},"vehicle_type_id":"4","last_reported":1729966224,"current_range_meters":39200,"station_id":"ce4bhih2rcd13ifvqfs0","pricing_plan_id":"cebpf4jnsgd1na2vs0mg"},{"bike_id":"c25d9b60-5434-4e6f-b007-7ec2e900a21f","system_id":"levelo_inurba_marseille","lat":43.29308,"lon":5.3717,"is_reserved":false,"is_disabled":false,"rental_uris":{"android":"levelo://app?vid=c25d9b60-5434-4e6f-b007-7ec2e900a21f","ios":"levelo://app?vid=c25d9b60-5434-4e6f-b007-7ec2e900a21f"},"vehicle_type_id":"4","last_reported":1729966224,"current_range_meters":37600,"station_id":"ce4bgh92rcd13ifvqb40","pricing_plan_id":"cebpf4jnsgd1na2vs0mg"},{"bike_id":"27f39214-437b-402f-ba70-e8fd46f4e41b","system_id":"levelo_inurba_marseille","lat":43.28489,"lon":5.36938,"is_reserved":false,"is_disabled":false,"rental_uris":{"android":"levelo://app?vid=27f39214-437b-402f-ba70-e8fd46f4e41b","ios":"levelo://app?vid=27f39214-437b-402f-ba70-e8fd46f4e41b"},"vehicle_type_id":"4","last_reported":1729966224,"current_range_meters":24000,"station_id":"","pricing_plan_id":"cebpf4jnsgd1na2vs0mg"},{"bike_id":"f9037bee-8f49-46b6-a280-991e84e20686","system_id":"levelo_inurba_marseille","lat":43.28717,"lon":5.37949,"is_reserved":false,"is_disabled":false,"rental_uris":{"android":"levelo://app?vid=f9037bee-8f49-46b6-a280-991e84e20686","ios":"levelo://app?vid=f9037bee-8f49-46b6-a280-991e84e20686"},"vehicle_type_id":"4","last_reported":1729966224,"current_range_meters":38800,"station_id":"ce4bh9p2rcd13ifvqec0","pricing_plan_id":"cebpf4jnsgd1na2vs0mg"},{"bike_id":"53d1ff47-6319-4293-9479-d46f2f18b132","system_id":"levelo_inurba_marseille","lat":43.28695,"lon":5.37384,"is_reserved":false,"is_disabled":false,"rental_uris":{"android":"levelo://app?vid=53d1ff47-6319-4293-9479-d46f2f18b132","ios":"levelo://app?vid=53d1ff47-6319-4293-9479-d46f2f18b132"},"vehicle_type_id":"4","last_reported":1729966224,"current_range_meters":4400,"station_id":"ce4bh3p2rcd13ifvqdq0","pricing_plan_id":"cebpf4jnsgd1na2vs0mg"},{"bike_id":"e7360508-6978-487a-a79b-5e2dad5d0ea3","system_id":"levelo_inurba_marseille","lat":43.22936,"lon":5.35375,"is_reserved":false,"is_disabled":false,"rental_uris":{"android":"levelo://app?vid=e7360508-6978-487a-a79b-5e2dad5d0ea3","ios":"levelo://app?vid=e7360508-6978-487a-a79b-5e2dad5d0ea3"},"vehicle_type_id":"4","last_reported":1729966224,"current_range_meters":28800,"station_id":"cpo3532slgdg3j2ikp40","pricing_plan_id":"cebpf4jnsgd1na2vs0mg"},{"bike_id":"3e4eca9d-e8da-460d-848c-da8903838821","system_id":"levelo_inurba_marseille","lat":43.26192,"lon":5.37446,"is_reserved":false,"is_disabled":false,"rental_uris":{"android":"levelo://app?vid=3e4eca9d-e8da-460d-848c-da8903838821","ios":"levelo://app?vid=3e4eca9d-e8da-460d-848c-da8903838821"},"vehicle_type_id":"4","last_reported":1729966224,"current_range_meters":37600,"station_id":"ce4bhgp2rcd13ifvqfc0","pricing_plan_id":"cebpf4jnsgd1na2vs0mg"},{"bike_id":"e57a6bd6-ae0a-4fb9-8dcd-9092c10a8102","system_id":"levelo_inurba_marseille","lat":43.31172,"lon":5.38712,"is_reserved":false,"is_disabled":false,"rental_uris":{"android":"levelo://app?vid=e57a6bd6-ae0a-4fb9-8dcd-9092c10a8102","ios":"levelo://app?vid=e57a6bd6-ae0a-4fb9-8dcd-9092c10a8102"},"vehicle_type_id":"4","last_reported":1729966224,"current_range_meters":28000,"station_id":"ce4bgv12rcd13ifvqcp0","pricing_plan_id":"cebpf4jnsgd1na2vs0mg"},{"bike_id":"82266079-29d9-4d35-939f-6dab23b8e55e","system_id":"levelo_inurba_marseille","lat":43.29536,"lon":5.38546,"is_reserved":false,"is_disabled":false,"rental_uris":{"android":"levelo://app?vid=82266079-29d9-4d35-939f-6dab23b8e55e","ios":"levelo://app?vid=82266079-29d9-4d35-939f-6dab23b8e55e"},"vehicle_type_id":"4","last_reported":1729966224,"current_range_meters":24000,"station_id":"chh1huq6cuj3fo74tm60","pricing_plan_id":"cebpf4jnsgd1na2vs0mg"},{"bike_id":"cef8a6c5-52e4-4542-955f-8afe13b8a51c","system_id":"levelo_inurba_marseille","lat":43.29959,"lon":5.41323,"is_reserved":false,"is_disabled":false,"rental_uris":{"android":"levelo://app?vid=cef8a6c5-52e4-4542-955f-8afe13b8a51c","ios":"levelo://app?vid=cef8a6c5-52e4-4542-955f-8afe13b8a51c"},"vehicle_type_id":"4","last_reported":1729966224,"current_range_meters":36800,"station_id":"ce4bhp12rcd13ifvqh9g","pricing_plan_id":"cebpf4jnsgd1na2vs0mg"},{"bike_id":"3c74d177-f7d5-46aa-be7b-aa6de483a411","system_id":"levelo_inurba_marseille","lat":43.29984,"lon":5.3719,"is_reserved":false,"is_disabled":false,"rental_uris":{"android":"levelo://app?vid=3c74d177-f7d5-46aa-be7b-aa6de483a411","ios":"levelo://app?vid=3c74d177-f7d5-46aa-be7b-aa6de483a411"},"vehicle_type_id":"4","last_reported":1729966224,"current_range_meters":23200,"station_id":"ce4bgr92rcd13ifvqc7g","pricing_plan_id":"cebpf4jnsgd1na2vs0mg"},{"bike_id":"55d7d523-c314-49af-b1ca-39e5b0be15a0","system_id":"levelo_inurba_marseille","lat":43.31705,"lon":5.37748,"is_reserved":false,"is_disabled":false,"rental_uris":{"android":"levelo://app?vid=55d7d523-c314-49af-b1ca-39e5b0be15a0","ios":"levelo://app?vid=55d7d523-c314-49af-b1ca-39e5b0be15a0"},"vehicle_type_id":"4","last_reported":1729966224,"current_range_meters":28000,"station_id":"ce4bgth2rcd13ifvqch0","pricing_plan_id":"cebpf4jnsgd1na2vs0mg"},{"bike_id":"34c0b19e-e327-425b-bf09-25bec92dd9c4","system_id":"levelo_inurba_marseille","lat":43.29332,"lon":5.45469,"is_reserved":false,"is_disabled":false,"rental_uris":{"android":"levelo://app?vid=34c0b19e-e327-425b-bf09-25bec92dd9c4","ios":"levelo://app?vid=34c0b19e-e327-425b-bf09-25bec92dd9c4"},"vehicle_type_id":"4","last_reported":1729966224,"current_range_meters":13600,"station_id":"","pricing_plan_id":"cebpf4jnsgd1na2vs0mg"},{"bike_id":"ba0625f3-7924-48c0-90ab-d464284023ba","system_id":"levelo_inurba_marseille","lat":43.25117,"lon":5.40321,"is_reserved":false,"is_disabled":false,"rental_uris":{"android":"levelo://app?vid=ba0625f3-7924-48c0-90ab-d464284023ba","ios":"levelo://app?vid=ba0625f3-7924-48c0-90ab-d464284023ba"},"vehicle_type_id":"4","last_reported":1729966224,"current_range_meters":24400,"station_id":"ce4bhlh2rcd13ifvqgig","pricing_plan_id":"cebpf4jnsgd1na2vs0mg"},{"bike_id":"4e1b89e2-f965-455a-b9ce-8fa933558641","system_id":"levelo_inurba_marseille","lat":43.24659,"lon":5.38903,"is_reserved":false,"is_disabled":false,"rental_uris":{"android":"levelo://app?vid=4e1b89e2-f965-455a-b9ce-8fa933558641","ios":"levelo://app?vid=4e1b89e2-f965-455a-b9ce-8fa933558641"},"vehicle_type_id":"4","last_reported":1729966224,"current_range_meters":37600,"station_id":"ce4bhg12rcd13ifvqf60","pricing_plan_id":"cebpf4jnsgd1na2vs0mg"},{"bike_id":"584bd593-01e1-4266-bd37-2acb711c5b89","system_id":"levelo_inurba_marseille","lat":43.29868,"lon":5.39743,"is_reserved":false,"is_disabled":false,"rental_uris":{"android":"levelo://app?vid=584bd593-01e1-4266-bd37-2acb711c5b89","ios":"levelo://app?vid=584bd593-01e1-4266-bd37-2acb711c5b89"},"vehicle_type_id":"4","last_reported":1729966224,"current_range_meters":16000,"station_id":"ce4bh0h2rcd13ifvqd50","pricing_plan_id":"cebpf4jnsgd1na2vs0mg"},{"bike_id":"77855bdf-cc39-4e1c-a9fb-d3dae6291a46","system_id":"levelo_inurba_marseille","lat":43.29563,"lon":5.42274,"is_reserved":false,"is_disabled":false,"rental_uris":{"android":"levelo://app?vid=77855bdf-cc39-4e1c-a9fb-d3dae6291a46","ios":"levelo://app?vid=77855bdf-cc39-4e1c-a9fb-d3dae6291a46"},"vehicle_type_id":"4","last_reported":1729966224,"current_range_meters":33600,"station_id":"ce4bhph2rcd13ifvqhdg","pricing_plan_id":"cebpf4jnsgd1na2vs0mg"},{"bike_id":"5063f4af-2df5-4a8d-971c-2e45b710db02","system_id":"levelo_inurba_marseille","lat":43.25576,"lon":5.38246,"is_reserved":false,"is_disabled":false,"rental_uris":{"android":"levelo://app?vid=5063f4af-2df5-4a8d-971c-2e45b710db02","ios":"levelo://app?vid=5063f4af-2df5-4a8d-971c-2e45b710db02"},"vehicle_type_id":"4","last_reported":1729966224,"current_range_meters":36800,"station_id":"ce4bhih2rcd13ifvqfs0","pricing_plan_id":"cebpf4jnsgd1na2vs0mg"},{"bike_id":"e16ba0fb-c8f9-4074-a1c8-ad626ad5602f","system_id":"levelo_inurba_marseille","lat":43.26942,"lon":5.40258,"is_reserved":false,"is_disabled":false,"rental_uris":{"android":"levelo://app?vid=e16ba0fb-c8f9-4074-a1c8-ad626ad5602f","ios":"levelo://app?vid=e16ba0fb-c8f9-4074-a1c8-ad626ad5602f"},"vehicle_type_id":"4","last_reported":1729966224,"current_range_meters":39200,"station_id":"cjm6bp8fraef2m0cb0m0","pricing_plan_id":"cebpf4jnsgd1na2vs0mg"},{"bike_id":"fad42251-2e99-4f0e-8106-075fc5b792cd","system_id":"levelo_inurba_marseille","lat":43.26195,"lon":5.37448,"is_reserved":false,"is_disabled":false,"rental_uris":{"android":"levelo://app?vid=fad42251-2e99-4f0e-8106-075fc5b792cd","ios":"levelo://app?vid=fad42251-2e99-4f0e-8106-075fc5b792cd"},"vehicle_type_id":"4","last_reported":1729966224,"current_range_meters":38400,"station_id":"ce4bhgp2rcd13ifvqfc0","pricing_plan_id":"cebpf4jnsgd1na2vs0mg"},{"bike_id":"9667608a-3b5f-4188-8979-2563ddb95bed","system_id":"levelo_inurba_marseille","lat":43.31103,"lon":5.38748,"is_reserved":false,"is_disabled":false,"rental_uris":{"android":"levelo://app?vid=9667608a-3b5f-4188-8979-2563ddb95bed","ios":"levelo://app?vid=9667608a-3b5f-4188-8979-2563ddb95bed"},"vehicle_type_id":"4","last_reported":1729966224,"current_range_meters":24400,"station_id":"ce4bgv12rcd13ifvqcp0","pricing_plan_id":"cebpf4jnsgd1na2vs0mg"},{"bike_id":"cd6085f0-abe4-4e31-91e6-31eaf858a0e1","system_id":"levelo_inurba_marseille","lat":43.30961,"lon":5.39047,"is_reserved":false,"is_disabled":false,"rental_uris":{"android":"levelo://app?vid=cd6085f0-abe4-4e31-91e6-31eaf858a0e1","ios":"levelo://app?vid=cd6085f0-abe4-4e31-91e6-31eaf858a0e1"},"vehicle_type_id":"4","last_reported":1729966224,"current_range_meters":26800,"station_id":"ce4bgup2rcd13ifvqco0","pricing_plan_id":"cebpf4jnsgd1na2vs0mg"},{"bike_id":"0af0e312-de96-4aac-a837-ba38a5b162e6","system_id":"levelo_inurba_marseille","lat":43.29977,"lon":5.37184,"is_reserved":false,"is_disabled":false,"rental_uris":{"android":"levelo://app?vid=0af0e312-de96-4aac-a837-ba38a5b162e6","ios":"levelo://app?vid=0af0e312-de96-4aac-a837-ba38a5b162e6"},"vehicle_type_id":"4","last_reported":1729966224,"current_range_meters":38400,"station_id":"ce4bgr92rcd13ifvqc7g","pricing_plan_id":"cebpf4jnsgd1na2vs0mg"},{"bike_id":"43650981-6b24-4a34-b5e2-fd816b5645ae","system_id":"levelo_inurba_marseille","lat":43.292675,"lon":5.384468,"is_reserved":false,"is_disabled":false,"rental_uris":{"android":"levelo://app?vid=43650981-6b24-4a34-b5e2-fd816b5645ae","ios":"levelo://app?vid=43650981-6b24-4a34-b5e2-fd816b5645ae"},"vehicle_type_id":"4","last_reported":1729966224,"current_range_meters":38000,"station_id":"ce4bh692rcd13ifvqea0","pricing_plan_id":"cebpf4jnsgd1na2vs0mg"},{"bike_id":"604d5b6d-acaa-4b6f-a0c6-03fce7c32101","system_id":"levelo_inurba_marseille","lat":43.29801,"lon":5.38102,"is_reserved":false,"is_disabled":false,"rental_uris":{"android":"levelo://app?vid=604d5b6d-acaa-4b6f-a0c6-03fce7c32101","ios":"levelo://app?vid=604d5b6d-acaa-4b6f-a0c6-03fce7c32101"},"vehicle_type_id":"4","last_reported":1729966224,"current_range_meters":28000,"station_id":"ce4bgip2rcd13ifvqbb0","pricing_plan_id":"cebpf4jnsgd1na2vs0mg"},{"bike_id":"6875a1a6-32b9-4783-93f5-84a3a0c85f67","system_id":"levelo_inurba_marseille","lat":43.23063,"lon":5.35501,"is_reserved":false,"is_disabled":false,"rental_uris":{"android":"levelo://app?vid=6875a1a6-32b9-4783-93f5-84a3a0c85f67","ios":"levelo://app?vid=6875a1a6-32b9-4783-93f5-84a3a0c85f67"},"vehicle_type_id":"4","last_reported":1729966224,"current_range_meters":29600,"station_id":"cpo3342slgdg3j2ifvpg","pricing_plan_id":"cebpf4jnsgd1na2vs0mg"},{"bike_id":"6e3ac822-40c5-4ef0-8923-ff38f3a100d2","system_id":"levelo_inurba_marseille","lat":43.29858,"lon":5.36291,"is_reserved":false,"is_disabled":false,"rental_uris":{"android":"levelo://app?vid=6e3ac822-40c5-4ef0-8923-ff38f3a100d2","ios":"levelo://app?vid=6e3ac822-40c5-4ef0-8923-ff38f3a100d2"},"vehicle_type_id":"4","last_reported":1729966224,"current_range_meters":23200,"station_id":"ce4bgpp2rcd13ifvqc3g","pricing_plan_id":"cebpf4jnsgd1na2vs0mg"},{"bike_id":"b844f077-a85f-4371-b830-49bfedd69de5","system_id":"levelo_inurba_marseille","lat":43.24668,"lon":5.38172,"is_reserved":false,"is_disabled":false,"rental_uris":{"android":"levelo://app?vid=b844f077-a85f-4371-b830-49bfedd69de5","ios":"levelo://app?vid=b844f077-a85f-4371-b830-49bfedd69de5"},"vehicle_type_id":"4","last_reported":1729966224,"current_range_meters":36800,"station_id":"ce4bhih2rcd13ifvqfr0","pricing_plan_id":"cebpf4jnsgd1na2vs0mg"},{"bike_id":"ab6e0c73-a016-475e-bf1f-0032a04a6853","system_id":"levelo_inurba_marseille","lat":43.28156,"lon":5.42641,"is_reserved":false,"is_disabled":false,"rental_uris":{"android":"levelo://app?vid=ab6e0c73-a016-475e-bf1f-0032a04a6853","ios":"levelo://app?vid=ab6e0c73-a016-475e-bf1f-0032a04a6853"},"vehicle_type_id":"4","last_reported":1729966224,"current_range_meters":28000,"station_id":"ce4bhnh2rcd13ifvqgug","pricing_plan_id":"cebpf4jnsgd1na2vs0mg"},{"bike_id":"c448e113-adc8-4d15-ac18-267c02c0f060","system_id":"levelo_inurba_marseille","lat":43.29628,"lon":5.3716,"is_reserved":false,"is_disabled":false,"rental_uris":{"android":"levelo://app?vid=c448e113-adc8-4d15-ac18-267c02c0f060","ios":"levelo://app?vid=c448e113-adc8-4d15-ac18-267c02c0f060"},"vehicle_type_id":"4","last_reported":1729966224,"current_range_meters":28400,"station_id":"ce4bgnh2rcd13ifvqc0g","pricing_plan_id":"cebpf4jnsgd1na2vs0mg"},{"bike_id":"3a9bfb16-0c1d-4441-a397-be908d793bb9","system_id":"levelo_inurba_marseille","lat":43.2549,"lon":5.37649,"is_reserved":false,"is_disabled":false,"rental_uris":{"android":"levelo://app?vid=3a9bfb16-0c1d-4441-a397-be908d793bb9","ios":"levelo://app?vid=3a9bfb16-0c1d-4441-a397-be908d793bb9"},"vehicle_type_id":"4","last_reported":1729966224,"current_range_meters":29600,"station_id":"ce4bhh12rcd13ifvqff0","pricing_plan_id":"cebpf4jnsgd1na2vs0mg"},{"bike_id":"e7c3cdd3-4d3d-4e9b-8811-9ef2a4ce7fde","system_id":"levelo_inurba_marseille","lat":43.29263,"lon":5.38439,"is_reserved":false,"is_disabled":false,"rental_uris":{"android":"levelo://app?vid=e7c3cdd3-4d3d-4e9b-8811-9ef2a4ce7fde","ios":"levelo://app?vid=e7c3cdd3-4d3d-4e9b-8811-9ef2a4ce7fde"},"vehicle_type_id":"4","last_reported":1729966224,"current_range_meters":29600,"station_id":"ce4bh692rcd13ifvqea0","pricing_plan_id":"cebpf4jnsgd1na2vs0mg"},{"bike_id":"2272b10a-5608-4098-814a-0b7f3a1948ec","system_id":"levelo_inurba_marseille","lat":43.28612,"lon":5.35105,"is_reserved":false,"is_disabled":false,"rental_uris":{"android":"levelo://app?vid=2272b10a-5608-4098-814a-0b7f3a1948ec","ios":"levelo://app?vid=2272b10a-5608-4098-814a-0b7f3a1948ec"},"vehicle_type_id":"4","last_reported":1729966224,"current_range_meters":33600,"station_id":"ce4bhch2rcd13ifvqeug","pricing_plan_id":"cebpf4jnsgd1na2vs0mg"},{"bike_id":"c4a17f65-5753-41b6-b0b5-214b06ec99a6","system_id":"levelo_inurba_marseille","lat":43.30933,"lon":5.40143,"is_reserved":false,"is_disabled":false,"rental_uris":{"android":"levelo://app?vid=c4a17f65-5753-41b6-b0b5-214b06ec99a6","ios":"levelo://app?vid=c4a17f65-5753-41b6-b0b5-214b06ec99a6"},"vehicle_type_id":"4","last_reported":1729966224,"current_range_meters":39200,"station_id":"ce4bgvp2rcd13ifvqct0","pricing_plan_id":"cebpf4jnsgd1na2vs0mg"},{"bike_id":"9a05ef16-6af9-4bc7-aa9c-fa563d6e0e66","system_id":"levelo_inurba_marseille","lat":43.32053,"lon":5.41532,"is_reserved":false,"is_disabled":false,"rental_uris":{"android":"levelo://app?vid=9a05ef16-6af9-4bc7-aa9c-fa563d6e0e66","ios":"levelo://app?vid=9a05ef16-6af9-4bc7-aa9c-fa563d6e0e66"},"vehicle_type_id":"4","last_reported":1729966224,"current_range_meters":33200,"station_id":"ce4bhq92rcd13ifvqhkg","pricing_plan_id":"cebpf4jnsgd1na2vs0mg"},{"bike_id":"22c6ef2e-877b-4547-93e4-edbdf191d353","system_id":"levelo_inurba_marseille","lat":43.24393,"lon":5.37057,"is_reserved":false,"is_disabled":false,"rental_uris":{"android":"levelo://app?vid=22c6ef2e-877b-4547-93e4-edbdf191d353","ios":"levelo://app?vid=22c6ef2e-877b-4547-93e4-edbdf191d353"},"vehicle_type_id":"4","last_reported":1729966224,"current_range_meters":12400,"station_id":"ce4bhhh2rcd13ifvqfk0","pricing_plan_id":"cebpf4jnsgd1na2vs0mg"},{"bike_id":"5f5bacfe-e6de-4d3a-bafe-09a58fe9fdff","system_id":"levelo_inurba_marseille","lat":43.31489,"lon":5.37311,"is_reserved":false,"is_disabled":false,"rental_uris":{"android":"levelo://app?vid=5f5bacfe-e6de-4d3a-bafe-09a58fe9fdff","ios":"levelo://app?vid=5f5bacfe-e6de-4d3a-bafe-09a58fe9fdff"},"vehicle_type_id":"4","last_reported":1729966224,"current_range_meters":34800,"station_id":"ce4bgt12rcd13ifvqcd0","pricing_plan_id":"cebpf4jnsgd1na2vs0mg"},{"bike_id":"272108ab-c66d-4277-b942-346fbf20d819","system_id":"levelo_inurba_marseille","lat":43.30351,"lon":5.4188,"is_reserved":false,"is_disabled":false,"rental_uris":{"android":"levelo://app?vid=272108ab-c66d-4277-b942-346fbf20d819","ios":"levelo://app?vid=272108ab-c66d-4277-b942-346fbf20d819"},"vehicle_type_id":"4","last_reported":1729966224,"current_range_meters":10800,"station_id":"ce4bhop2rcd13ifvqh7g","pricing_plan_id":"cebpf4jnsgd1na2vs0mg"},{"bike_id":"8fbb3d87-cdca-4c4a-859f-e70dea3485a5","system_id":"levelo_inurba_marseille","lat":43.2749,"lon":5.42463,"is_reserved":false,"is_disabled":false,"rental_uris":{"android":"levelo://app?vid=8fbb3d87-cdca-4c4a-859f-e70dea3485a5","ios":"levelo://app?vid=8fbb3d87-cdca-4c4a-859f-e70dea3485a5"},"vehicle_type_id":"4","last_reported":1729966224,"current_range_meters":37600,"station_id":"ce4bhn92rcd13ifvqgrg","pricing_plan_id":"cebpf4jnsgd1na2vs0mg"},{"bike_id":"d4dbb103-b4d9-4e96-8ae8-a3fef8c9dbdf","system_id":"levelo_inurba_marseille","lat":43.31757,"lon":5.3902,"is_reserved":false,"is_disabled":false,"rental_uris":{"android":"levelo://app?vid=d4dbb103-b4d9-4e96-8ae8-a3fef8c9dbdf","ios":"levelo://app?vid=d4dbb103-b4d9-4e96-8ae8-a3fef8c9dbdf"},"vehicle_type_id":"4","last_reported":1729966224,"current_range_meters":15200,"station_id":"ce4bhqp2rcd13ifvqhng","pricing_plan_id":"cebpf4jnsgd1na2vs0mg"},{"bike_id":"67248e14-b277-40bc-8632-5a54902c3dee","system_id":"levelo_inurba_marseille","lat":43.29967,"lon":5.3718,"is_reserved":false,"is_disabled":false,"rental_uris":{"android":"levelo://app?vid=67248e14-b277-40bc-8632-5a54902c3dee","ios":"levelo://app?vid=67248e14-b277-40bc-8632-5a54902c3dee"},"vehicle_type_id":"4","last_reported":1729966224,"current_range_meters":34800,"station_id":"ce4bgr92rcd13ifvqc7g","pricing_plan_id":"cebpf4jnsgd1na2vs0mg"},{"bike_id":"27162363-1a0f-45df-8a8b-dd4feb492ff9","system_id":"levelo_inurba_marseille","lat":43.28566,"lon":5.39502,"is_reserved":false,"is_disabled":false,"rental_uris":{"android":"levelo://app?vid=27162363-1a0f-45df-8a8b-dd4feb492ff9","ios":"levelo://app?vid=27162363-1a0f-45df-8a8b-dd4feb492ff9"},"vehicle_type_id":"4","last_reported":1729966224,"current_range_meters":38000,"station_id":"ce4bh292rcd13ifvqdg0","pricing_plan_id":"cebpf4jnsgd1na2vs0mg"},{"bike_id":"893183fd-ad6f-457c-8bc4-9448179e9b7c","system_id":"levelo_inurba_marseille","lat":43.31259,"lon":5.40178,"is_reserved":false,"is_disabled":false,"rental_uris":{"android":"levelo://app?vid=893183fd-ad6f-457c-8bc4-9448179e9b7c","ios":"levelo://app?vid=893183fd-ad6f-457c-8bc4-9448179e9b7c"},"vehicle_type_id":"4","last_reported":1729966224,"current_range_meters":38000,"station_id":"ce4bh092rcd13ifvqd30","pricing_plan_id":"cebpf4jnsgd1na2vs0mg"},{"bike_id":"03c3662f-d9b5-485a-8a89-75c166e95f18","system_id":"levelo_inurba_marseille","lat":43.3016,"lon":5.38084,"is_reserved":false,"is_disabled":false,"rental_uris":{"android":"levelo://app?vid=03c3662f-d9b5-485a-8a89-75c166e95f18","ios":"levelo://app?vid=03c3662f-d9b5-485a-8a89-75c166e95f18"},"vehicle_type_id":"4","last_reported":1729966224,"current_range_meters":26800,"station_id":"ce4bgjp2rcd13ifvqbh0","pricing_plan_id":"cebpf4jnsgd1na2vs0mg"},{"bike_id":"3035b77c-f0af-4479-9d1c-ce2eb4364541","system_id":"levelo_inurba_marseille","lat":43.25117,"lon":5.4032,"is_reserved":false,"is_disabled":false,"rental_uris":{"android":"levelo://app?vid=3035b77c-f0af-4479-9d1c-ce2eb4364541","ios":"levelo://app?vid=3035b77c-f0af-4479-9d1c-ce2eb4364541"},"vehicle_type_id":"4","last_reported":1729966224,"current_range_meters":25600,"station_id":"ce4bhlh2rcd13ifvqgig","pricing_plan_id":"cebpf4jnsgd1na2vs0mg"},{"bike_id":"635bb98c-e0ea-429e-a2b5-6fdb29ef8960","system_id":"levelo_inurba_marseille","lat":43.28151,"lon":5.4264,"is_reserved":false,"is_disabled":false,"rental_uris":{"android":"levelo://app?vid=635bb98c-e0ea-429e-a2b5-6fdb29ef8960","ios":"levelo://app?vid=635bb98c-e0ea-429e-a2b5-6fdb29ef8960"},"vehicle_type_id":"4","last_reported":1729966224,"current_range_meters":37600,"station_id":"ce4bhnh2rcd13ifvqgug","pricing_plan_id":"cebpf4jnsgd1na2vs0mg"},{"bike_id":"309e4ea2-65c4-4529-b8bf-7e204c89e391","system_id":"levelo_inurba_marseille","lat":43.2847,"lon":5.38413,"is_reserved":false,"is_disabled":false,"rental_uris":{"android":"levelo://app?vid=309e4ea2-65c4-4529-b8bf-7e204c89e391","ios":"levelo://app?vid=309e4ea2-65c4-4529-b8bf-7e204c89e391"},"vehicle_type_id":"4","last_reported":1729966224,"current_range_meters":19200,"station_id":"ce4bh512rcd13ifvqe3g","pricing_plan_id":"cebpf4jnsgd1na2vs0mg"},{"bike_id":"cae5512b-eeb1-4b21-8d8f-d8841b2677f3","system_id":"levelo_inurba_marseille","lat":43.24185,"lon":5.39728,"is_reserved":false,"is_disabled":false,"rental_uris":{"android":"levelo://app?vid=cae5512b-eeb1-4b21-8d8f-d8841b2677f3","ios":"levelo://app?vid=cae5512b-eeb1-4b21-8d8f-d8841b2677f3"},"vehicle_type_id":"4","last_reported":1729966224,"current_range_meters":25200,"station_id":"ce4bhn12rcd13ifvqgpg","pricing_plan_id":"cebpf4jnsgd1na2vs0mg"},{"bike_id":"b3507332-daf4-46b8-b043-cb8c84be67ff","system_id":"levelo_inurba_marseille","lat":43.28479,"lon":5.38414,"is_reserved":false,"is_disabled":false,"rental_uris":{"android":"levelo://app?vid=b3507332-daf4-46b8-b043-cb8c84be67ff","ios":"levelo://app?vid=b3507332-daf4-46b8-b043-cb8c84be67ff"},"vehicle_type_id":"4","last_reported":1729966224,"current_range_meters":33600,"station_id":"ce4bh512rcd13ifvqe3g","pricing_plan_id":"cebpf4jnsgd1na2vs0mg"},{"bike_id":"79545944-3897-4a14-accc-cc2b52771322","system_id":"levelo_inurba_marseille","lat":43.25715,"lon":5.41119,"is_reserved":false,"is_disabled":false,"rental_uris":{"android":"levelo://app?vid=79545944-3897-4a14-accc-cc2b52771322","ios":"levelo://app?vid=79545944-3897-4a14-accc-cc2b52771322"},"vehicle_type_id":"4","last_reported":1729966224,"current_range_meters":38800,"station_id":"ce4bhkp2rcd13ifvqgd0","pricing_plan_id":"cebpf4jnsgd1na2vs0mg"},{"bike_id":"ff1366e7-ee36-4e8f-bee4-6da896860a5a","system_id":"levelo_inurba_marseille","lat":43.31117,"lon":5.37771,"is_reserved":false,"is_disabled":false,"rental_uris":{"android":"levelo://app?vid=ff1366e7-ee36-4e8f-bee4-6da896860a5a","ios":"levelo://app?vid=ff1366e7-ee36-4e8f-bee4-6da896860a5a"},"vehicle_type_id":"4","last_reported":1729966224,"current_range_meters":20400,"station_id":"ce4bgt92rcd13ifvqcg0","pricing_plan_id":"cebpf4jnsgd1na2vs0mg"},{"bike_id":"ef136fa5-257b-4ee5-bd73-f0de7405e6ba","system_id":"levelo_inurba_marseille","lat":43.24545,"lon":5.39529,"is_reserved":false,"is_disabled":false,"rental_uris":{"android":"levelo://app?vid=ef136fa5-257b-4ee5-bd73-f0de7405e6ba","ios":"levelo://app?vid=ef136fa5-257b-4ee5-bd73-f0de7405e6ba"},"vehicle_type_id":"4","last_reported":1729966224,"current_range_meters":28400,"station_id":"ce4bhlp2rcd13ifvqgjg","pricing_plan_id":"cebpf4jnsgd1na2vs0mg"},{"bike_id":"10cf296e-79f7-40cc-86cc-e7320813f6d7","system_id":"levelo_inurba_marseille","lat":43.29177,"lon":5.37156,"is_reserved":false,"is_disabled":false,"rental_uris":{"android":"levelo://app?vid=10cf296e-79f7-40cc-86cc-e7320813f6d7","ios":"levelo://app?vid=10cf296e-79f7-40cc-86cc-e7320813f6d7"},"vehicle_type_id":"4","last_reported":1729966224,"current_range_meters":38800,"station_id":"ce4bha92rcd13ifvqeh0","pricing_plan_id":"cebpf4jnsgd1na2vs0mg"},{"bike_id":"78d2bb20-e78a-4a61-aa5a-2b34d78f8b19","system_id":"levelo_inurba_marseille","lat":43.29801,"lon":5.38089,"is_reserved":false,"is_disabled":false,"rental_uris":{"android":"levelo://app?vid=78d2bb20-e78a-4a61-aa5a-2b34d78f8b19","ios":"levelo://app?vid=78d2bb20-e78a-4a61-aa5a-2b34d78f8b19"},"vehicle_type_id":"4","last_reported":1729966224,"current_range_meters":39200,"station_id":"ce4bgip2rcd13ifvqbb0","pricing_plan_id":"cebpf4jnsgd1na2vs0mg"},{"bike_id":"9488ca84-aa5e-4311-bde9-38d634703444","system_id":"levelo_inurba_marseille","lat":43.32487,"lon":5.3656,"is_reserved":false,"is_disabled":false,"rental_uris":{"android":"levelo://app?vid=9488ca84-aa5e-4311-bde9-38d634703444","ios":"levelo://app?vid=9488ca84-aa5e-4311-bde9-38d634703444"},"vehicle_type_id":"4","last_reported":1729966224,"current_range_meters":37600,"station_id":"ce4bhs12rcd13ifvqhvg","pricing_plan_id":"cebpf4jnsgd1na2vs0mg"},{"bike_id":"e4a3a049-80a0-4aed-b2a8-36931fad107c","system_id":"levelo_inurba_marseille","lat":43.32054,"lon":5.41558,"is_reserved":false,"is_disabled":false,"rental_uris":{"android":"levelo://app?vid=e4a3a049-80a0-4aed-b2a8-36931fad107c","ios":"levelo://app?vid=e4a3a049-80a0-4aed-b2a8-36931fad107c"},"vehicle_type_id":"4","last_reported":1729966224,"current_range_meters":38000,"station_id":"ce4bhq92rcd13ifvqhkg","pricing_plan_id":"cebpf4jnsgd1na2vs0mg"},{"bike_id":"e5e817e3-05ee-42a0-97b8-792b18b2b2d7","system_id":"levelo_inurba_marseille","lat":43.32486,"lon":5.36566,"is_reserved":false,"is_disabled":false,"rental_uris":{"android":"levelo://app?vid=e5e817e3-05ee-42a0-97b8-792b18b2b2d7","ios":"levelo://app?vid=e5e817e3-05ee-42a0-97b8-792b18b2b2d7"},"vehicle_type_id":"4","last_reported":1729966224,"current_range_meters":30000,"station_id":"ce4bhs12rcd13ifvqhvg","pricing_plan_id":"cebpf4jnsgd1na2vs0mg"},{"bike_id":"8bc3f354-9979-48d2-a7ac-afac2a78709c","system_id":"levelo_inurba_marseille","lat":43.31484,"lon":5.37304,"is_reserved":false,"is_disabled":false,"rental_uris":{"android":"levelo://app?vid=8bc3f354-9979-48d2-a7ac-afac2a78709c","ios":"levelo://app?vid=8bc3f354-9979-48d2-a7ac-afac2a78709c"},"vehicle_type_id":"4","last_reported":1729966224,"current_range_meters":36800,"station_id":"ce4bgt12rcd13ifvqcd0","pricing_plan_id":"cebpf4jnsgd1na2vs0mg"},{"bike_id":"2a7d1c8e-45f6-4d4c-a5a0-d13b77050262","system_id":"levelo_inurba_marseille","lat":43.27057,"lon":5.40266,"is_reserved":false,"is_disabled":false,"rental_uris":{"android":"levelo://app?vid=2a7d1c8e-45f6-4d4c-a5a0-d13b77050262","ios":"levelo://app?vid=2a7d1c8e-45f6-4d4c-a5a0-d13b77050262"},"vehicle_type_id":"4","last_reported":1729966224,"current_range_meters":29600,"station_id":"ce4bhk92rcd13ifvqgc0","pricing_plan_id":"cebpf4jnsgd1na2vs0mg"},{"bike_id":"219fe6aa-4100-4acc-ad13-c7a6986eb6b3","system_id":"levelo_inurba_marseille","lat":43.3171,"lon":5.37751,"is_reserved":false,"is_disabled":false,"rental_uris":{"android":"levelo://app?vid=219fe6aa-4100-4acc-ad13-c7a6986eb6b3","ios":"levelo://app?vid=219fe6aa-4100-4acc-ad13-c7a6986eb6b3"},"vehicle_type_id":"4","last_reported":1729966224,"current_range_meters":16000,"station_id":"ce4bgth2rcd13ifvqch0","pricing_plan_id":"cebpf4jnsgd1na2vs0mg"},{"bike_id":"601916c5-3274-4e01-863c-d96df39ce3b1","system_id":"levelo_inurba_marseille","lat":43.26567,"lon":5.39015,"is_reserved":false,"is_disabled":false,"rental_uris":{"android":"levelo://app?vid=601916c5-3274-4e01-863c-d96df39ce3b1","ios":"levelo://app?vid=601916c5-3274-4e01-863c-d96df39ce3b1"},"vehicle_type_id":"4","last_reported":1729966224,"current_range_meters":39200,"station_id":"ce4bhe12rcd13ifvqf30","pricing_plan_id":"cebpf4jnsgd1na2vs0mg"},{"bike_id":"e8ab0f13-656e-47c0-9695-29d63b7a71ed","system_id":"levelo_inurba_marseille","lat":43.29264,"lon":5.38442,"is_reserved":false,"is_disabled":false,"rental_uris":{"android":"levelo://app?vid=e8ab0f13-656e-47c0-9695-29d63b7a71ed","ios":"levelo://app?vid=e8ab0f13-656e-47c0-9695-29d63b7a71ed"},"vehicle_type_id":"4","last_reported":1729966224,"current_range_meters":14000,"station_id":"ce4bh692rcd13ifvqea0","pricing_plan_id":"cebpf4jnsgd1na2vs0mg"},{"bike_id":"c5cdeede-69d4-47e6-ad58-c5dd0d05960b","system_id":"levelo_inurba_marseille","lat":43.28467,"lon":5.35896,"is_reserved":false,"is_disabled":false,"rental_uris":{"android":"levelo://app?vid=c5cdeede-69d4-47e6-ad58-c5dd0d05960b","ios":"levelo://app?vid=c5cdeede-69d4-47e6-ad58-c5dd0d05960b"},"vehicle_type_id":"4","last_reported":1729966224,"current_range_meters":11200,"station_id":"ce4bhah2rcd13ifvqei0","pricing_plan_id":"cebpf4jnsgd1na2vs0mg"},{"bike_id":"b84d8488-7d66-4802-b9d0-4b80e20805ad","system_id":"levelo_inurba_marseille","lat":43.26567,"lon":5.39011,"is_reserved":false,"is_disabled":false,"rental_uris":{"android":"levelo://app?vid=b84d8488-7d66-4802-b9d0-4b80e20805ad","ios":"levelo://app?vid=b84d8488-7d66-4802-b9d0-4b80e20805ad"},"vehicle_type_id":"4","last_reported":1729966224,"current_range_meters":8800,"station_id":"ce4bhe12rcd13ifvqf30","pricing_plan_id":"cebpf4jnsgd1na2vs0mg"},{"bike_id":"1fafbe93-2ba4-4077-bfcf-7b3992b30a25","system_id":"levelo_inurba_marseille","lat":43.29555,"lon":5.4228,"is_reserved":false,"is_disabled":false,"rental_uris":{"android":"levelo://app?vid=1fafbe93-2ba4-4077-bfcf-7b3992b30a25","ios":"levelo://app?vid=1fafbe93-2ba4-4077-bfcf-7b3992b30a25"},"vehicle_type_id":"4","last_reported":1729966224,"current_range_meters":39200,"station_id":"ce4bhph2rcd13ifvqhdg","pricing_plan_id":"cebpf4jnsgd1na2vs0mg"},{"bike_id":"7b9bb9f6-2747-4f5c-a936-06f552492e45","system_id":"levelo_inurba_marseille","lat":43.31724,"lon":5.42405,"is_reserved":false,"is_disabled":false,"rental_uris":{"android":"levelo://app?vid=7b9bb9f6-2747-4f5c-a936-06f552492e45","ios":"levelo://app?vid=7b9bb9f6-2747-4f5c-a936-06f552492e45"},"vehicle_type_id":"4","last_reported":1729966224,"current_range_meters":38800,"station_id":"ce4bhp92rcd13ifvqhbg","pricing_plan_id":"cebpf4jnsgd1na2vs0mg"},{"bike_id":"4bafa726-86cb-40fe-9c0c-25741165ee73","system_id":"levelo_inurba_marseille","lat":43.29957,"lon":5.41319,"is_reserved":false,"is_disabled":false,"rental_uris":{"android":"levelo://app?vid=4bafa726-86cb-40fe-9c0c-25741165ee73","ios":"levelo://app?vid=4bafa726-86cb-40fe-9c0c-25741165ee73"},"vehicle_type_id":"4","last_reported":1729966224,"current_range_meters":16400,"station_id":"ce4bhp12rcd13ifvqh9g","pricing_plan_id":"cebpf4jnsgd1na2vs0mg"},{"bike_id":"8a55373d-8f54-4890-9729-5db301ba9fa0","system_id":"levelo_inurba_marseille","lat":43.25006,"lon":5.38912,"is_reserved":false,"is_disabled":false,"rental_uris":{"android":"levelo://app?vid=8a55373d-8f54-4890-9729-5db301ba9fa0","ios":"levelo://app?vid=8a55373d-8f54-4890-9729-5db301ba9fa0"},"vehicle_type_id":"4","last_reported":1729966224,"current_range_meters":36800,"station_id":"ce4bhgp2rcd13ifvqfd0","pricing_plan_id":"cebpf4jnsgd1na2vs0mg"},{"bike_id":"217b6992-770c-4501-bf46-01eca14ab494","system_id":"levelo_inurba_marseille","lat":43.29003,"lon":5.35613,"is_reserved":false,"is_disabled":false,"rental_uris":{"android":"levelo://app?vid=217b6992-770c-4501-bf46-01eca14ab494","ios":"levelo://app?vid=217b6992-770c-4501-bf46-01eca14ab494"},"vehicle_type_id":"4","last_reported":1729966224,"current_range_meters":39200,"station_id":"ce4bhb92rcd13ifvqen0","pricing_plan_id":"cebpf4jnsgd1na2vs0mg"},{"bike_id":"e113f747-4daa-44f7-a218-9e030daa2565","system_id":"levelo_inurba_marseille","lat":43.32103,"lon":5.36778,"is_reserved":false,"is_disabled":false,"rental_uris":{"android":"levelo://app?vid=e113f747-4daa-44f7-a218-9e030daa2565","ios":"levelo://app?vid=e113f747-4daa-44f7-a218-9e030daa2565"},"vehicle_type_id":"4","last_reported":1729966224,"current_range_meters":29600,"station_id":"ce4bhrh2rcd13ifvqhug","pricing_plan_id":"cebpf4jnsgd1na2vs0mg"},{"bike_id":"d824071b-a0d8-4c18-b7de-ef04381f0405","system_id":"levelo_inurba_marseille","lat":43.30961,"lon":5.3903,"is_reserved":false,"is_disabled":false,"rental_uris":{"android":"levelo://app?vid=d824071b-a0d8-4c18-b7de-ef04381f0405","ios":"levelo://app?vid=d824071b-a0d8-4c18-b7de-ef04381f0405"},"vehicle_type_id":"4","last_reported":1729966224,"current_range_meters":25600,"station_id":"ce4bgup2rcd13ifvqco0","pricing_plan_id":"cebpf4jnsgd1na2vs0mg"},{"bike_id":"7569b810-af8d-4c95-be87-76834cbad9fe","system_id":"levelo_inurba_marseille","lat":43.27333,"lon":5.39099,"is_reserved":false,"is_disabled":false,"rental_uris":{"android":"levelo://app?vid=7569b810-af8d-4c95-be87-76834cbad9fe","ios":"levelo://app?vid=7569b810-af8d-4c95-be87-76834cbad9fe"},"vehicle_type_id":"4","last_reported":1729966224,"current_range_meters":24000,"station_id":"ce4bhgp2rcd13ifvqfe0","pricing_plan_id":"cebpf4jnsgd1na2vs0mg"},{"bike_id":"f7f625b6-73f9-498a-a60d-5b72d6826be8","system_id":"levelo_inurba_marseille","lat":43.28703,"lon":5.39988,"is_reserved":false,"is_disabled":false,"rental_uris":{"android":"levelo://app?vid=f7f625b6-73f9-498a-a60d-5b72d6826be8","ios":"levelo://app?vid=f7f625b6-73f9-498a-a60d-5b72d6826be8"},"vehicle_type_id":"4","last_reported":1729966224,"current_range_meters":4400,"station_id":"ce4bho92rcd13ifvqh3g","pricing_plan_id":"cebpf4jnsgd1na2vs0mg"},{"bike_id":"c5342152-eaa7-4487-b5ac-2c3245f2bd54","system_id":"levelo_inurba_marseille","lat":43.28483,"lon":5.38423,"is_reserved":false,"is_disabled":false,"rental_uris":{"android":"levelo://app?vid=c5342152-eaa7-4487-b5ac-2c3245f2bd54","ios":"levelo://app?vid=c5342152-eaa7-4487-b5ac-2c3245f2bd54"},"vehicle_type_id":"4","last_reported":1729966224,"current_range_meters":17200,"station_id":"ce4bh512rcd13ifvqe3g","pricing_plan_id":"cebpf4jnsgd1na2vs0mg"},{"bike_id":"4cb54fe2-6aa3-4b51-89f9-1a40a399762b","system_id":"levelo_inurba_marseille","lat":43.29618,"lon":5.37162,"is_reserved":false,"is_disabled":false,"rental_uris":{"android":"levelo://app?vid=4cb54fe2-6aa3-4b51-89f9-1a40a399762b","ios":"levelo://app?vid=4cb54fe2-6aa3-4b51-89f9-1a40a399762b"},"vehicle_type_id":"4","last_reported":1729966224,"current_range_meters":22800,"station_id":"ce4bgnh2rcd13ifvqc0g","pricing_plan_id":"cebpf4jnsgd1na2vs0mg"},{"bike_id":"bf291e7e-22e0-40c3-9fbf-804e4d125b27","system_id":"levelo_inurba_marseille","lat":43.25573,"lon":5.38238,"is_reserved":false,"is_disabled":false,"rental_uris":{"android":"levelo://app?vid=bf291e7e-22e0-40c3-9fbf-804e4d125b27","ios":"levelo://app?vid=bf291e7e-22e0-40c3-9fbf-804e4d125b27"},"vehicle_type_id":"4","last_reported":1729966224,"current_range_meters":19600,"station_id":"ce4bhih2rcd13ifvqfs0","pricing_plan_id":"cebpf4jnsgd1na2vs0mg"},{"bike_id":"704ff70b-3044-4cc0-a1b3-72bc6b15acdb","system_id":"levelo_inurba_marseille","lat":43.28485,"lon":5.38535,"is_reserved":false,"is_disabled":false,"rental_uris":{"android":"levelo://app?vid=704ff70b-3044-4cc0-a1b3-72bc6b15acdb","ios":"levelo://app?vid=704ff70b-3044-4cc0-a1b3-72bc6b15acdb"},"vehicle_type_id":"4","last_reported":1729966224,"current_range_meters":36400,"station_id":"ce4bh8p2rcd13ifvqeb0","pricing_plan_id":"cebpf4jnsgd1na2vs0mg"},{"bike_id":"cb176300-6569-4931-a7b5-26a3947ac35d","system_id":"levelo_inurba_marseille","lat":43.25007,"lon":5.38919,"is_reserved":false,"is_disabled":false,"rental_uris":{"android":"levelo://app?vid=cb176300-6569-4931-a7b5-26a3947ac35d","ios":"levelo://app?vid=cb176300-6569-4931-a7b5-26a3947ac35d"},"vehicle_type_id":"4","last_reported":1729966224,"current_range_meters":36000,"station_id":"ce4bhgp2rcd13ifvqfd0","pricing_plan_id":"cebpf4jnsgd1na2vs0mg"},{"bike_id":"5aa6733e-ab85-4872-8628-93fb3f9980b6","system_id":"levelo_inurba_marseille","lat":43.30552,"lon":5.36703,"is_reserved":false,"is_disabled":false,"rental_uris":{"android":"levelo://app?vid=5aa6733e-ab85-4872-8628-93fb3f9980b6","ios":"levelo://app?vid=5aa6733e-ab85-4872-8628-93fb3f9980b6"},"vehicle_type_id":"4","last_reported":1729966224,"current_range_meters":12000,"station_id":"ce4bgrp2rcd13ifvqc9g","pricing_plan_id":"cebpf4jnsgd1na2vs0mg"},{"bike_id":"76950373-b0d1-4413-acac-6265e118aecb","system_id":"levelo_inurba_marseille","lat":43.24385,"lon":5.37062,"is_reserved":false,"is_disabled":false,"rental_uris":{"android":"levelo://app?vid=76950373-b0d1-4413-acac-6265e118aecb","ios":"levelo://app?vid=76950373-b0d1-4413-acac-6265e118aecb"},"vehicle_type_id":"4","last_reported":1729966224,"current_range_meters":17200,"station_id":"ce4bhhh2rcd13ifvqfk0","pricing_plan_id":"cebpf4jnsgd1na2vs0mg"},{"bike_id":"b6b081ec-485a-4913-9c54-bf6a5ea14ae2","system_id":"levelo_inurba_marseille","lat":43.309255,"lon":5.401568,"is_reserved":false,"is_disabled":false,"rental_uris":{"android":"levelo://app?vid=b6b081ec-485a-4913-9c54-bf6a5ea14ae2","ios":"levelo://app?vid=b6b081ec-485a-4913-9c54-bf6a5ea14ae2"},"vehicle_type_id":"4","last_reported":1729966224,"current_range_meters":6000,"station_id":"ce4bgvp2rcd13ifvqct0","pricing_plan_id":"cebpf4jnsgd1na2vs0mg"},{"bike_id":"ac7e2427-8eec-4c8b-8366-33a9acca2ac7","system_id":"levelo_inurba_marseille","lat":43.25829,"lon":5.39434,"is_reserved":false,"is_disabled":false,"rental_uris":{"android":"levelo://app?vid=ac7e2427-8eec-4c8b-8366-33a9acca2ac7","ios":"levelo://app?vid=ac7e2427-8eec-4c8b-8366-33a9acca2ac7"},"vehicle_type_id":"4","last_reported":1729966224,"current_range_meters":15200,"station_id":"ce4bhip2rcd13ifvqft0","pricing_plan_id":"cebpf4jnsgd1na2vs0mg"},{"bike_id":"fec85ac5-8b84-4326-8f6c-7942d7ab0cc0","system_id":"levelo_inurba_marseille","lat":43.29536,"lon":5.37496,"is_reserved":false,"is_disabled":false,"rental_uris":{"android":"levelo://app?vid=fec85ac5-8b84-4326-8f6c-7942d7ab0cc0","ios":"levelo://app?vid=fec85ac5-8b84-4326-8f6c-7942d7ab0cc0"},"vehicle_type_id":"4","last_reported":1729966224,"current_range_meters":28800,"station_id":"ce4bgkp2rcd13ifvqbmg","pricing_plan_id":"cebpf4jnsgd1na2vs0mg"},{"bike_id":"506f8433-1c46-445a-9591-14fe1b04b0f7","system_id":"levelo_inurba_marseille","lat":43.29595,"lon":5.38095,"is_reserved":false,"is_disabled":false,"rental_uris":{"android":"levelo://app?vid=506f8433-1c46-445a-9591-14fe1b04b0f7","ios":"levelo://app?vid=506f8433-1c46-445a-9591-14fe1b04b0f7"},"vehicle_type_id":"4","last_reported":1729966224,"current_range_meters":34800,"station_id":"ce4bgl12rcd13ifvqbo0","pricing_plan_id":"cebpf4jnsgd1na2vs0mg"},{"bike_id":"a4cdb9e2-dcee-478e-b833-1e72009d3ae3","system_id":"levelo_inurba_marseille","lat":43.30421,"lon":5.41283,"is_reserved":false,"is_disabled":false,"rental_uris":{"android":"levelo://app?vid=a4cdb9e2-dcee-478e-b833-1e72009d3ae3","ios":"levelo://app?vid=a4cdb9e2-dcee-478e-b833-1e72009d3ae3"},"vehicle_type_id":"4","last_reported":1729966224,"current_range_meters":4400,"station_id":"ce4bhop2rcd13ifvqh8g","pricing_plan_id":"cebpf4jnsgd1na2vs0mg"},{"bike_id":"bc53a2bf-7061-4c55-b364-13afaab5401f","system_id":"levelo_inurba_marseille","lat":43.29264,"lon":5.38443,"is_reserved":false,"is_disabled":false,"rental_uris":{"android":"levelo://app?vid=bc53a2bf-7061-4c55-b364-13afaab5401f","ios":"levelo://app?vid=bc53a2bf-7061-4c55-b364-13afaab5401f"},"vehicle_type_id":"4","last_reported":1729966224,"current_range_meters":36400,"station_id":"ce4bh692rcd13ifvqea0","pricing_plan_id":"cebpf4jnsgd1na2vs0mg"},{"bike_id":"05a96471-11d7-4fa1-a5f4-2d0c760f3225","system_id":"levelo_inurba_marseille","lat":43.297516,"lon":5.380358,"is_reserved":false,"is_disabled":false,"rental_uris":{"android":"levelo://app?vid=05a96471-11d7-4fa1-a5f4-2d0c760f3225","ios":"levelo://app?vid=05a96471-11d7-4fa1-a5f4-2d0c760f3225"},"vehicle_type_id":"4","last_reported":1729966224,"current_range_meters":28400,"station_id":"ce4bgop2rcd13ifvqc1g","pricing_plan_id":"cebpf4jnsgd1na2vs0mg"},{"bike_id":"c65417d6-6622-4395-b76f-feb2f4595473","system_id":"levelo_inurba_marseille","lat":43.2573,"lon":5.41106,"is_reserved":false,"is_disabled":false,"rental_uris":{"android":"levelo://app?vid=c65417d6-6622-4395-b76f-feb2f4595473","ios":"levelo://app?vid=c65417d6-6622-4395-b76f-feb2f4595473"},"vehicle_type_id":"4","last_reported":1729966224,"current_range_meters":12000,"station_id":"ce4bhkp2rcd13ifvqgd0","pricing_plan_id":"cebpf4jnsgd1na2vs0mg"},{"bike_id":"75bc418d-5fa4-4111-819c-79228dcd39de","system_id":"levelo_inurba_marseille","lat":43.2606,"lon":5.39401,"is_reserved":false,"is_disabled":false,"rental_uris":{"android":"levelo://app?vid=75bc418d-5fa4-4111-819c-79228dcd39de","ios":"levelo://app?vid=75bc418d-5fa4-4111-819c-79228dcd39de"},"vehicle_type_id":"4","last_reported":1729966224,"current_range_meters":12800,"station_id":"ce4bhh92rcd13ifvqfj0","pricing_plan_id":"cebpf4jnsgd1na2vs0mg"},{"bike_id":"d7ff7165-6d5c-4f76-865c-b2ea1a2a3c7a","system_id":"levelo_inurba_marseille","lat":43.27496,"lon":5.42464,"is_reserved":false,"is_disabled":false,"rental_uris":{"android":"levelo://app?vid=d7ff7165-6d5c-4f76-865c-b2ea1a2a3c7a","ios":"levelo://app?vid=d7ff7165-6d5c-4f76-865c-b2ea1a2a3c7a"},"vehicle_type_id":"4","last_reported":1729966224,"current_range_meters":9200,"station_id":"ce4bhn92rcd13ifvqgrg","pricing_plan_id":"cebpf4jnsgd1na2vs0mg"},{"bike_id":"3032951f-b623-4cd7-a740-e5bdb3b4d146","system_id":"levelo_inurba_marseille","lat":43.29896,"lon":5.37478,"is_reserved":false,"is_disabled":false,"rental_uris":{"android":"levelo://app?vid=3032951f-b623-4cd7-a740-e5bdb3b4d146","ios":"levelo://app?vid=3032951f-b623-4cd7-a740-e5bdb3b4d146"},"vehicle_type_id":"4","last_reported":1729966224,"current_range_meters":38000,"station_id":"ce4bgjh2rcd13ifvqbg0","pricing_plan_id":"cebpf4jnsgd1na2vs0mg"},{"bike_id":"1523497e-4d2e-4c8d-9640-3812c210f56e","system_id":"levelo_inurba_marseille","lat":43.31085,"lon":5.42435,"is_reserved":false,"is_disabled":false,"rental_uris":{"android":"levelo://app?vid=1523497e-4d2e-4c8d-9640-3812c210f56e","ios":"levelo://app?vid=1523497e-4d2e-4c8d-9640-3812c210f56e"},"vehicle_type_id":"4","last_reported":1729966224,"current_range_meters":38000,"station_id":"ce4bhp92rcd13ifvqhag","pricing_plan_id":"cebpf4jnsgd1na2vs0mg"},{"bike_id":"d13cfe8d-6bc1-49c8-b259-26c297560ecd","system_id":"levelo_inurba_marseille","lat":43.29793,"lon":5.38097,"is_reserved":false,"is_disabled":false,"rental_uris":{"android":"levelo://app?vid=d13cfe8d-6bc1-49c8-b259-26c297560ecd","ios":"levelo://app?vid=d13cfe8d-6bc1-49c8-b259-26c297560ecd"},"vehicle_type_id":"4","last_reported":1729966224,"current_range_meters":40000,"station_id":"ce4bgip2rcd13ifvqbb0","pricing_plan_id":"cebpf4jnsgd1na2vs0mg"},{"bike_id":"8001b44d-9ab0-46f5-80ea-c34d9f92effc","system_id":"levelo_inurba_marseille","lat":43.26944,"lon":5.40258,"is_reserved":false,"is_disabled":false,"rental_uris":{"android":"levelo://app?vid=8001b44d-9ab0-46f5-80ea-c34d9f92effc","ios":"levelo://app?vid=8001b44d-9ab0-46f5-80ea-c34d9f92effc"},"vehicle_type_id":"4","last_reported":1729966224,"current_range_meters":39200,"station_id":"cjm6bp8fraef2m0cb0m0","pricing_plan_id":"cebpf4jnsgd1na2vs0mg"},{"bike_id":"ec1ef2fd-0187-4063-a08a-f08e31fd67e9","system_id":"levelo_inurba_marseille","lat":43.25004,"lon":5.38918,"is_reserved":false,"is_disabled":false,"rental_uris":{"android":"levelo://app?vid=ec1ef2fd-0187-4063-a08a-f08e31fd67e9","ios":"levelo://app?vid=ec1ef2fd-0187-4063-a08a-f08e31fd67e9"},"vehicle_type_id":"4","last_reported":1729966224,"current_range_meters":35200,"station_id":"ce4bhgp2rcd13ifvqfd0","pricing_plan_id":"cebpf4jnsgd1na2vs0mg"},{"bike_id":"613a72fc-125e-4267-95fb-a3509384f756","system_id":"levelo_inurba_marseille","lat":43.29026,"lon":5.3814,"is_reserved":false,"is_disabled":false,"rental_uris":{"android":"levelo://app?vid=613a72fc-125e-4267-95fb-a3509384f756","ios":"levelo://app?vid=613a72fc-125e-4267-95fb-a3509384f756"},"vehicle_type_id":"4","last_reported":1729966224,"current_range_meters":32800,"station_id":"ce4bh4p2rcd13ifvqe1g","pricing_plan_id":"cebpf4jnsgd1na2vs0mg"},{"bike_id":"31554b55-47d7-43b1-ad82-9d997bccc8c1","system_id":"levelo_inurba_marseille","lat":43.30086,"lon":5.39089,"is_reserved":false,"is_disabled":false,"rental_uris":{"android":"levelo://app?vid=31554b55-47d7-43b1-ad82-9d997bccc8c1","ios":"levelo://app?vid=31554b55-47d7-43b1-ad82-9d997bccc8c1"},"vehicle_type_id":"4","last_reported":1729966224,"current_range_meters":27200,"station_id":"ce4bh192rcd13ifvqdb0","pricing_plan_id":"cebpf4jnsgd1na2vs0mg"},{"bike_id":"19928214-403a-46e9-8732-4207aee3502e","system_id":"levelo_inurba_marseille","lat":43.27963,"lon":5.38728,"is_reserved":false,"is_disabled":false,"rental_uris":{"android":"levelo://app?vid=19928214-403a-46e9-8732-4207aee3502e","ios":"levelo://app?vid=19928214-403a-46e9-8732-4207aee3502e"},"vehicle_type_id":"4","last_reported":1729966224,"current_range_meters":36800,"station_id":"ce4bhg12rcd13ifvqf80","pricing_plan_id":"cebpf4jnsgd1na2vs0mg"},{"bike_id":"2cb1f094-734d-4f4b-9d14-531d7832cc48","system_id":"levelo_inurba_marseille","lat":43.28704,"lon":5.40004,"is_reserved":false,"is_disabled":false,"rental_uris":{"android":"levelo://app?vid=2cb1f094-734d-4f4b-9d14-531d7832cc48","ios":"levelo://app?vid=2cb1f094-734d-4f4b-9d14-531d7832cc48"},"vehicle_type_id":"4","last_reported":1729966224,"current_range_meters":37600,"station_id":"ce4bho92rcd13ifvqh3g","pricing_plan_id":"cebpf4jnsgd1na2vs0mg"},{"bike_id":"07512975-17c1-45e9-9ed2-449945871421","system_id":"levelo_inurba_marseille","lat":43.28002,"lon":5.40007,"is_reserved":false,"is_disabled":false,"rental_uris":{"android":"levelo://app?vid=07512975-17c1-45e9-9ed2-449945871421","ios":"levelo://app?vid=07512975-17c1-45e9-9ed2-449945871421"},"vehicle_type_id":"4","last_reported":1729966224,"current_range_meters":32400,"station_id":"ce4bho92rcd13ifvqh4g","pricing_plan_id":"cebpf4jnsgd1na2vs0mg"},{"bike_id":"356a8e33-4ab0-42f2-95a5-274f32429f87","system_id":"levelo_inurba_marseille","lat":43.30146,"lon":5.38084,"is_reserved":false,"is_disabled":false,"rental_uris":{"android":"levelo://app?vid=356a8e33-4ab0-42f2-95a5-274f32429f87","ios":"levelo://app?vid=356a8e33-4ab0-42f2-95a5-274f32429f87"},"vehicle_type_id":"4","last_reported":1729966224,"current_range_meters":16800,"station_id":"ce4bgjp2rcd13ifvqbh0","pricing_plan_id":"cebpf4jnsgd1na2vs0mg"},{"bike_id":"f9dd0103-b045-4d3e-97f0-feaf4a2d3923","system_id":"levelo_inurba_marseille","lat":43.25007,"lon":5.38918,"is_reserved":false,"is_disabled":false,"rental_uris":{"android":"levelo://app?vid=f9dd0103-b045-4d3e-97f0-feaf4a2d3923","ios":"levelo://app?vid=f9dd0103-b045-4d3e-97f0-feaf4a2d3923"},"vehicle_type_id":"4","last_reported":1729966224,"current_range_meters":8800,"station_id":"ce4bhgp2rcd13ifvqfd0","pricing_plan_id":"cebpf4jnsgd1na2vs0mg"},{"bike_id":"c1ff30c9-765a-4012-87b1-c5b239bd55a6","system_id":"levelo_inurba_marseille","lat":43.29187,"lon":5.35803,"is_reserved":false,"is_disabled":false,"rental_uris":{"android":"levelo://app?vid=c1ff30c9-765a-4012-87b1-c5b239bd55a6","ios":"levelo://app?vid=c1ff30c9-765a-4012-87b1-c5b239bd55a6"},"vehicle_type_id":"4","last_reported":1729966224,"current_range_meters":38800,"station_id":"ce4bhb12rcd13ifvqel0","pricing_plan_id":"cebpf4jnsgd1na2vs0mg"},{"bike_id":"8143e608-d262-449d-856e-3d74048159e6","system_id":"levelo_inurba_marseille","lat":43.32345,"lon":5.40616,"is_reserved":false,"is_disabled":false,"rental_uris":{"android":"levelo://app?vid=8143e608-d262-449d-856e-3d74048159e6","ios":"levelo://app?vid=8143e608-d262-449d-856e-3d74048159e6"},"vehicle_type_id":"4","last_reported":1729966224,"current_range_meters":38400,"station_id":"ce4bhq92rcd13ifvqhjg","pricing_plan_id":"cebpf4jnsgd1na2vs0mg"},{"bike_id":"f35bff84-2694-4e18-9465-7d2a42e494d5","system_id":"levelo_inurba_marseille","lat":43.305837,"lon":5.40101,"is_reserved":false,"is_disabled":false,"rental_uris":{"android":"levelo://app?vid=f35bff84-2694-4e18-9465-7d2a42e494d5","ios":"levelo://app?vid=f35bff84-2694-4e18-9465-7d2a42e494d5"},"vehicle_type_id":"4","last_reported":1729966224,"current_range_meters":16400,"station_id":"ce4bh112rcd13ifvqda0","pricing_plan_id":"cebpf4jnsgd1na2vs0mg"},{"bike_id":"db334313-33ed-4bc4-a06b-9f0c5ca1c672","system_id":"levelo_inurba_marseille","lat":43.28469,"lon":5.38418,"is_reserved":false,"is_disabled":false,"rental_uris":{"android":"levelo://app?vid=db334313-33ed-4bc4-a06b-9f0c5ca1c672","ios":"levelo://app?vid=db334313-33ed-4bc4-a06b-9f0c5ca1c672"},"vehicle_type_id":"4","last_reported":1729966224,"current_range_meters":17600,"station_id":"ce4bh512rcd13ifvqe3g","pricing_plan_id":"cebpf4jnsgd1na2vs0mg"},{"bike_id":"6ac10959-8eb2-45e6-ad18-f41cdf25e740","system_id":"levelo_inurba_marseille","lat":43.279388,"lon":5.410511,"is_reserved":false,"is_disabled":false,"rental_uris":{"android":"levelo://app?vid=6ac10959-8eb2-45e6-ad18-f41cdf25e740","ios":"levelo://app?vid=6ac10959-8eb2-45e6-ad18-f41cdf25e740"},"vehicle_type_id":"4","last_reported":1729966224,"current_range_meters":6400,"station_id":"ce4bhnp2rcd13ifvqh0g","pricing_plan_id":"cebpf4jnsgd1na2vs0mg"},{"bike_id":"c7493202-7ba4-4657-a88f-5b1ffe0cc379","system_id":"levelo_inurba_marseille","lat":43.25727,"lon":5.41103,"is_reserved":false,"is_disabled":false,"rental_uris":{"android":"levelo://app?vid=c7493202-7ba4-4657-a88f-5b1ffe0cc379","ios":"levelo://app?vid=c7493202-7ba4-4657-a88f-5b1ffe0cc379"},"vehicle_type_id":"4","last_reported":1729966224,"current_range_meters":9600,"station_id":"ce4bhkp2rcd13ifvqgd0","pricing_plan_id":"cebpf4jnsgd1na2vs0mg"},{"bike_id":"2502b547-1537-4acc-b38a-ccb5e750204d","system_id":"levelo_inurba_marseille","lat":43.2885,"lon":5.35859,"is_reserved":false,"is_disabled":false,"rental_uris":{"android":"levelo://app?vid=2502b547-1537-4acc-b38a-ccb5e750204d","ios":"levelo://app?vid=2502b547-1537-4acc-b38a-ccb5e750204d"},"vehicle_type_id":"4","last_reported":1729966224,"current_range_meters":38800,"station_id":"ce4bhb12rcd13ifvqem0","pricing_plan_id":"cebpf4jnsgd1na2vs0mg"},{"bike_id":"fbabd65a-eb4c-4079-98ce-24263a2a8430","system_id":"levelo_inurba_marseille","lat":43.24659,"lon":5.38903,"is_reserved":false,"is_disabled":false,"rental_uris":{"android":"levelo://app?vid=fbabd65a-eb4c-4079-98ce-24263a2a8430","ios":"levelo://app?vid=fbabd65a-eb4c-4079-98ce-24263a2a8430"},"vehicle_type_id":"4","last_reported":1729966224,"current_range_meters":37600,"station_id":"ce4bhg12rcd13ifvqf60","pricing_plan_id":"cebpf4jnsgd1na2vs0mg"},{"bike_id":"97425b0b-ba42-4515-bfb3-4becf138659f","system_id":"levelo_inurba_marseille","lat":43.30306,"lon":5.36904,"is_reserved":false,"is_disabled":false,"rental_uris":{"android":"levelo://app?vid=97425b0b-ba42-4515-bfb3-4becf138659f","ios":"levelo://app?vid=97425b0b-ba42-4515-bfb3-4becf138659f"},"vehicle_type_id":"4","last_reported":1729966224,"current_range_meters":38800,"station_id":"ce4bgqh2rcd13ifvqc5g","pricing_plan_id":"cebpf4jnsgd1na2vs0mg"},{"bike_id":"34a1e83e-0a80-4224-a95a-4b10b861afb7","system_id":"levelo_inurba_marseille","lat":43.31365,"lon":5.36824,"is_reserved":false,"is_disabled":false,"rental_uris":{"android":"levelo://app?vid=34a1e83e-0a80-4224-a95a-4b10b861afb7","ios":"levelo://app?vid=34a1e83e-0a80-4224-a95a-4b10b861afb7"},"vehicle_type_id":"4","last_reported":1729966224,"current_range_meters":38800,"station_id":"","pricing_plan_id":"cebpf4jnsgd1na2vs0mg"},{"bike_id":"0678f86e-ef89-4810-a745-75a19ff3adf5","system_id":"levelo_inurba_marseille","lat":43.29262,"lon":5.38442,"is_reserved":false,"is_disabled":false,"rental_uris":{"android":"levelo://app?vid=0678f86e-ef89-4810-a745-75a19ff3adf5","ios":"levelo://app?vid=0678f86e-ef89-4810-a745-75a19ff3adf5"},"vehicle_type_id":"4","last_reported":1729966224,"current_range_meters":38800,"station_id":"ce4bh692rcd13ifvqea0","pricing_plan_id":"cebpf4jnsgd1na2vs0mg"},{"bike_id":"b3b80d53-4198-4a51-a57d-a6ff1e361e88","system_id":"levelo_inurba_marseille","lat":43.28159,"lon":5.42652,"is_reserved":false,"is_disabled":false,"rental_uris":{"android":"levelo://app?vid=b3b80d53-4198-4a51-a57d-a6ff1e361e88","ios":"levelo://app?vid=b3b80d53-4198-4a51-a57d-a6ff1e361e88"},"vehicle_type_id":"4","last_reported":1729966224,"current_range_meters":29600,"station_id":"ce4bhnh2rcd13ifvqgug","pricing_plan_id":"cebpf4jnsgd1na2vs0mg"},{"bike_id":"0ecf5e07-d4ac-4f2c-bd1b-3acf9f99ddc6","system_id":"levelo_inurba_marseille","lat":43.2602,"lon":5.37554,"is_reserved":false,"is_disabled":false,"rental_uris":{"android":"levelo://app?vid=0ecf5e07-d4ac-4f2c-bd1b-3acf9f99ddc6","ios":"levelo://app?vid=0ecf5e07-d4ac-4f2c-bd1b-3acf9f99ddc6"},"vehicle_type_id":"4","last_reported":1729966224,"current_range_meters":38800,"station_id":"ce4bhgh2rcd13ifvqfa0","pricing_plan_id":"cebpf4jnsgd1na2vs0mg"},{"bike_id":"957b322f-52e1-499d-a22e-48822d7e0212","system_id":"levelo_inurba_marseille","lat":43.24664,"lon":5.38163,"is_reserved":false,"is_disabled":false,"rental_uris":{"android":"levelo://app?vid=957b322f-52e1-499d-a22e-48822d7e0212","ios":"levelo://app?vid=957b322f-52e1-499d-a22e-48822d7e0212"},"vehicle_type_id":"4","last_reported":1729966224,"current_range_meters":36800,"station_id":"ce4bhih2rcd13ifvqfr0","pricing_plan_id":"cebpf4jnsgd1na2vs0mg"},{"bike_id":"74cde24f-8305-4324-834a-3bd8b42b2d67","system_id":"levelo_inurba_marseille","lat":43.29266,"lon":5.38448,"is_reserved":false,"is_disabled":false,"rental_uris":{"android":"levelo://app?vid=74cde24f-8305-4324-834a-3bd8b42b2d67","ios":"levelo://app?vid=74cde24f-8305-4324-834a-3bd8b42b2d67"},"vehicle_type_id":"4","last_reported":1729966224,"current_range_meters":16000,"station_id":"ce4bh692rcd13ifvqea0","pricing_plan_id":"cebpf4jnsgd1na2vs0mg"},{"bike_id":"3440d9b5-3e68-45f4-98be-6b0e41381653","system_id":"levelo_inurba_marseille","lat":43.28442,"lon":5.39187,"is_reserved":false,"is_disabled":false,"rental_uris":{"android":"levelo://app?vid=3440d9b5-3e68-45f4-98be-6b0e41381653","ios":"levelo://app?vid=3440d9b5-3e68-45f4-98be-6b0e41381653"},"vehicle_type_id":"4","last_reported":1729966224,"current_range_meters":26000,"station_id":"ce4bhoh2rcd13ifvqh5g","pricing_plan_id":"cebpf4jnsgd1na2vs0mg"},{"bike_id":"f6a5ef30-cd45-4f33-acc1-40cc262286be","system_id":"levelo_inurba_marseille","lat":43.26941,"lon":5.40254,"is_reserved":false,"is_disabled":false,"rental_uris":{"android":"levelo://app?vid=f6a5ef30-cd45-4f33-acc1-40cc262286be","ios":"levelo://app?vid=f6a5ef30-cd45-4f33-acc1-40cc262286be"},"vehicle_type_id":"4","last_reported":1729966224,"current_range_meters":38800,"station_id":"cjm6bp8fraef2m0cb0m0","pricing_plan_id":"cebpf4jnsgd1na2vs0mg"},{"bike_id":"ba05903f-dac4-4914-accd-aa5d3aa01a25","system_id":"levelo_inurba_marseille","lat":43.294806,"lon":5.375294,"is_reserved":false,"is_disabled":false,"rental_uris":{"android":"levelo://app?vid=ba05903f-dac4-4914-accd-aa5d3aa01a25","ios":"levelo://app?vid=ba05903f-dac4-4914-accd-aa5d3aa01a25"},"vehicle_type_id":"4","last_reported":1729966224,"current_range_meters":20000,"station_id":"ce4bgkp2rcd13ifvqbmg","pricing_plan_id":"cebpf4jnsgd1na2vs0mg"},{"bike_id":"c4f16691-f8e1-494d-b2b9-e447f16bf18a","system_id":"levelo_inurba_marseille","lat":43.25824,"lon":5.39441,"is_reserved":false,"is_disabled":false,"rental_uris":{"android":"levelo://app?vid=c4f16691-f8e1-494d-b2b9-e447f16bf18a","ios":"levelo://app?vid=c4f16691-f8e1-494d-b2b9-e447f16bf18a"},"vehicle_type_id":"4","last_reported":1729966224,"current_range_meters":24400,"station_id":"ce4bhip2rcd13ifvqft0","pricing_plan_id":"cebpf4jnsgd1na2vs0mg"},{"bike_id":"1fb78a65-e34f-4d92-85da-98df38c1c777","system_id":"levelo_inurba_marseille","lat":43.28939,"lon":5.38404,"is_reserved":false,"is_disabled":false,"rental_uris":{"android":"levelo://app?vid=1fb78a65-e34f-4d92-85da-98df38c1c777","ios":"levelo://app?vid=1fb78a65-e34f-4d92-85da-98df38c1c777"},"vehicle_type_id":"4","last_reported":1729966224,"current_range_meters":38800,"station_id":"ce4bh612rcd13ifvqe6g","pricing_plan_id":"cebpf4jnsgd1na2vs0mg"},{"bike_id":"9befed88-9f8c-464c-b07b-093bd97066bb","system_id":"levelo_inurba_marseille","lat":43.29805,"lon":5.37136,"is_reserved":false,"is_disabled":false,"rental_uris":{"android":"levelo://app?vid=9befed88-9f8c-464c-b07b-093bd97066bb","ios":"levelo://app?vid=9befed88-9f8c-464c-b07b-093bd97066bb"},"vehicle_type_id":"4","last_reported":1729966224,"current_range_meters":23200,"station_id":"","pricing_plan_id":"cebpf4jnsgd1na2vs0mg"},{"bike_id":"f37e3b02-a49c-4c4e-b112-f9c8c24edf90","system_id":"levelo_inurba_marseille","lat":43.23194,"lon":5.35553,"is_reserved":false,"is_disabled":false,"rental_uris":{"android":"levelo://app?vid=f37e3b02-a49c-4c4e-b112-f9c8c24edf90","ios":"levelo://app?vid=f37e3b02-a49c-4c4e-b112-f9c8c24edf90"},"vehicle_type_id":"4","last_reported":1729966224,"current_range_meters":20800,"station_id":"ce4bhu92rcd13ifvqi70","pricing_plan_id":"cebpf4jnsgd1na2vs0mg"},{"bike_id":"a94f4a23-103c-4252-827d-c4b2b0d10aaf","system_id":"levelo_inurba_marseille","lat":43.25868,"lon":5.39904,"is_reserved":false,"is_disabled":false,"rental_uris":{"android":"levelo://app?vid=a94f4a23-103c-4252-827d-c4b2b0d10aaf","ios":"levelo://app?vid=a94f4a23-103c-4252-827d-c4b2b0d10aaf"},"vehicle_type_id":"4","last_reported":1729966224,"current_range_meters":38000,"station_id":"ce4bhl92rcd13ifvqghg","pricing_plan_id":"cebpf4jnsgd1na2vs0mg"},{"bike_id":"e8f7756b-9b3c-46b3-ab7c-fb2ca8edfd78","system_id":"levelo_inurba_marseille","lat":43.30593,"lon":5.39347,"is_reserved":false,"is_disabled":false,"rental_uris":{"android":"levelo://app?vid=e8f7756b-9b3c-46b3-ab7c-fb2ca8edfd78","ios":"levelo://app?vid=e8f7756b-9b3c-46b3-ab7c-fb2ca8edfd78"},"vehicle_type_id":"4","last_reported":1729966224,"current_range_meters":24400,"station_id":"ce4bh0p2rcd13ifvqd80","pricing_plan_id":"cebpf4jnsgd1na2vs0mg"},{"bike_id":"a4d2aac1-98f7-4ee9-bb54-2720ee698eac","system_id":"levelo_inurba_marseille","lat":43.25573,"lon":5.38239,"is_reserved":false,"is_disabled":false,"rental_uris":{"android":"levelo://app?vid=a4d2aac1-98f7-4ee9-bb54-2720ee698eac","ios":"levelo://app?vid=a4d2aac1-98f7-4ee9-bb54-2720ee698eac"},"vehicle_type_id":"4","last_reported":1729966224,"current_range_meters":35600,"station_id":"ce4bhih2rcd13ifvqfs0","pricing_plan_id":"cebpf4jnsgd1na2vs0mg"},{"bike_id":"dad2718b-ffdf-4024-8a84-70e058921ae1","system_id":"levelo_inurba_marseille","lat":43.26056,"lon":5.39395,"is_reserved":false,"is_disabled":false,"rental_uris":{"android":"levelo://app?vid=dad2718b-ffdf-4024-8a84-70e058921ae1","ios":"levelo://app?vid=dad2718b-ffdf-4024-8a84-70e058921ae1"},"vehicle_type_id":"4","last_reported":1729966224,"current_range_meters":32000,"station_id":"ce4bhh92rcd13ifvqfj0","pricing_plan_id":"cebpf4jnsgd1na2vs0mg"},{"bike_id":"5c8d47df-cace-44d5-9922-d4ea86fc841f","system_id":"levelo_inurba_marseille","lat":43.23962,"lon":5.36634,"is_reserved":false,"is_disabled":false,"rental_uris":{"android":"levelo://app?vid=5c8d47df-cace-44d5-9922-d4ea86fc841f","ios":"levelo://app?vid=5c8d47df-cace-44d5-9922-d4ea86fc841f"},"vehicle_type_id":"4","last_reported":1729966224,"current_range_meters":39200,"station_id":"ce4bhi12rcd13ifvqfp0","pricing_plan_id":"cebpf4jnsgd1na2vs0mg"},{"bike_id":"b8fbf6cb-4344-49f0-aa51-6bf07fd511fe","system_id":"levelo_inurba_marseille","lat":43.2549,"lon":5.37646,"is_reserved":false,"is_disabled":false,"rental_uris":{"android":"levelo://app?vid=b8fbf6cb-4344-49f0-aa51-6bf07fd511fe","ios":"levelo://app?vid=b8fbf6cb-4344-49f0-aa51-6bf07fd511fe"},"vehicle_type_id":"4","last_reported":1729966224,"current_range_meters":26800,"station_id":"ce4bhh12rcd13ifvqff0","pricing_plan_id":"cebpf4jnsgd1na2vs0mg"},{"bike_id":"ee6b2608-9027-41b7-a594-abeda6889556","system_id":"levelo_inurba_marseille","lat":43.27501,"lon":5.42452,"is_reserved":false,"is_disabled":false,"rental_uris":{"android":"levelo://app?vid=ee6b2608-9027-41b7-a594-abeda6889556","ios":"levelo://app?vid=ee6b2608-9027-41b7-a594-abeda6889556"},"vehicle_type_id":"4","last_reported":1729966224,"current_range_meters":28800,"station_id":"ce4bhn92rcd13ifvqgrg","pricing_plan_id":"cebpf4jnsgd1na2vs0mg"},{"bike_id":"51195846-2f5b-4a2e-a314-37864cea1b78","system_id":"levelo_inurba_marseille","lat":43.29957,"lon":5.39759,"is_reserved":false,"is_disabled":false,"rental_uris":{"android":"levelo://app?vid=51195846-2f5b-4a2e-a314-37864cea1b78","ios":"levelo://app?vid=51195846-2f5b-4a2e-a314-37864cea1b78"},"vehicle_type_id":"4","last_reported":1729966224,"current_range_meters":37600,"station_id":"","pricing_plan_id":"cebpf4jnsgd1na2vs0mg"},{"bike_id":"634fa0ef-e7c5-4411-ba71-8fc084888fcb","system_id":"levelo_inurba_marseille","lat":43.27492,"lon":5.42456,"is_reserved":false,"is_disabled":false,"rental_uris":{"android":"levelo://app?vid=634fa0ef-e7c5-4411-ba71-8fc084888fcb","ios":"levelo://app?vid=634fa0ef-e7c5-4411-ba71-8fc084888fcb"},"vehicle_type_id":"4","last_reported":1729966224,"current_range_meters":30400,"station_id":"ce4bhn92rcd13ifvqgrg","pricing_plan_id":"cebpf4jnsgd1na2vs0mg"},{"bike_id":"63dffe58-b321-4992-b66b-9f28a3e3e3b4","system_id":"levelo_inurba_marseille","lat":43.29959,"lon":5.41315,"is_reserved":false,"is_disabled":false,"rental_uris":{"android":"levelo://app?vid=63dffe58-b321-4992-b66b-9f28a3e3e3b4","ios":"levelo://app?vid=63dffe58-b321-4992-b66b-9f28a3e3e3b4"},"vehicle_type_id":"4","last_reported":1729966224,"current_range_meters":39200,"station_id":"ce4bhp12rcd13ifvqh9g","pricing_plan_id":"cebpf4jnsgd1na2vs0mg"},{"bike_id":"82dc1f1b-b051-4ee1-aad3-502860e6265f","system_id":"levelo_inurba_marseille","lat":43.29625,"lon":5.37169,"is_reserved":false,"is_disabled":false,"rental_uris":{"android":"levelo://app?vid=82dc1f1b-b051-4ee1-aad3-502860e6265f","ios":"levelo://app?vid=82dc1f1b-b051-4ee1-aad3-502860e6265f"},"vehicle_type_id":"4","last_reported":1729966224,"current_range_meters":8400,"station_id":"ce4bgnh2rcd13ifvqc0g","pricing_plan_id":"cebpf4jnsgd1na2vs0mg"},{"bike_id":"5f9d4095-af32-4c6d-93df-572eef2fa761","system_id":"levelo_inurba_marseille","lat":43.32296,"lon":5.38261,"is_reserved":false,"is_disabled":false,"rental_uris":{"android":"levelo://app?vid=5f9d4095-af32-4c6d-93df-572eef2fa761","ios":"levelo://app?vid=5f9d4095-af32-4c6d-93df-572eef2fa761"},"vehicle_type_id":"4","last_reported":1729966224,"current_range_meters":37600,"station_id":"ce4bhr12rcd13ifvqhqg","pricing_plan_id":"cebpf4jnsgd1na2vs0mg"},{"bike_id":"d4a063d0-710a-490f-9214-5d9a82ceb523","system_id":"levelo_inurba_marseille","lat":43.28694,"lon":5.37391,"is_reserved":false,"is_disabled":false,"rental_uris":{"android":"levelo://app?vid=d4a063d0-710a-490f-9214-5d9a82ceb523","ios":"levelo://app?vid=d4a063d0-710a-490f-9214-5d9a82ceb523"},"vehicle_type_id":"4","last_reported":1729966224,"current_range_meters":38800,"station_id":"ce4bh3p2rcd13ifvqdq0","pricing_plan_id":"cebpf4jnsgd1na2vs0mg"},{"bike_id":"aca2b33f-b66e-4b8a-ba0d-029f32887f02","system_id":"levelo_inurba_marseille","lat":43.292654,"lon":5.384404,"is_reserved":false,"is_disabled":false,"rental_uris":{"android":"levelo://app?vid=aca2b33f-b66e-4b8a-ba0d-029f32887f02","ios":"levelo://app?vid=aca2b33f-b66e-4b8a-ba0d-029f32887f02"},"vehicle_type_id":"4","last_reported":1729966224,"current_range_meters":24000,"station_id":"ce4bh692rcd13ifvqea0","pricing_plan_id":"cebpf4jnsgd1na2vs0mg"},{"bike_id":"d1cf4d72-5f7e-4354-aaa0-25ea15604e59","system_id":"levelo_inurba_marseille","lat":43.29931,"lon":5.36555,"is_reserved":false,"is_disabled":false,"rental_uris":{"android":"levelo://app?vid=d1cf4d72-5f7e-4354-aaa0-25ea15604e59","ios":"levelo://app?vid=d1cf4d72-5f7e-4354-aaa0-25ea15604e59"},"vehicle_type_id":"4","last_reported":1729966224,"current_range_meters":38400,"station_id":"ce4bgm92rcd13ifvqbr0","pricing_plan_id":"cebpf4jnsgd1na2vs0mg"},{"bike_id":"75f3b427-9a19-499b-b03f-3a72a2bc01b2","system_id":"levelo_inurba_marseille","lat":43.30327,"lon":5.40447,"is_reserved":false,"is_disabled":false,"rental_uris":{"android":"levelo://app?vid=75f3b427-9a19-499b-b03f-3a72a2bc01b2","ios":"levelo://app?vid=75f3b427-9a19-499b-b03f-3a72a2bc01b2"},"vehicle_type_id":"4","last_reported":1729966224,"current_range_meters":32400,"station_id":"ce4bh012rcd13ifvqd10","pricing_plan_id":"cebpf4jnsgd1na2vs0mg"},{"bike_id":"c88b1700-452c-431d-b61c-02401769d4a0","system_id":"levelo_inurba_marseille","lat":43.29418,"lon":5.38625,"is_reserved":false,"is_disabled":false,"rental_uris":{"android":"levelo://app?vid=c88b1700-452c-431d-b61c-02401769d4a0","ios":"levelo://app?vid=c88b1700-452c-431d-b61c-02401769d4a0"},"vehicle_type_id":"4","last_reported":1729966224,"current_range_meters":35600,"station_id":"ce4bh2h2rcd13ifvqdh0","pricing_plan_id":"cebpf4jnsgd1na2vs0mg"},{"bike_id":"e68806bb-1703-4502-b0f5-0e73a895871d","system_id":"levelo_inurba_marseille","lat":43.29572,"lon":5.39973,"is_reserved":false,"is_disabled":false,"rental_uris":{"android":"levelo://app?vid=e68806bb-1703-4502-b0f5-0e73a895871d","ios":"levelo://app?vid=e68806bb-1703-4502-b0f5-0e73a895871d"},"vehicle_type_id":"4","last_reported":1729966224,"current_range_meters":39200,"station_id":"ce4bh312rcd13ifvqdj0","pricing_plan_id":"cebpf4jnsgd1na2vs0mg"},{"bike_id":"1b532e93-6dee-485b-a0f6-9cdc54e2e977","system_id":"levelo_inurba_marseille","lat":43.29023,"lon":5.38138,"is_reserved":false,"is_disabled":false,"rental_uris":{"android":"levelo://app?vid=1b532e93-6dee-485b-a0f6-9cdc54e2e977","ios":"levelo://app?vid=1b532e93-6dee-485b-a0f6-9cdc54e2e977"},"vehicle_type_id":"4","last_reported":1729966224,"current_range_meters":38800,"station_id":"ce4bh4p2rcd13ifvqe1g","pricing_plan_id":"cebpf4jnsgd1na2vs0mg"},{"bike_id":"ff0a3573-003d-4966-a881-5959109e57ba","system_id":"levelo_inurba_marseille","lat":43.30958,"lon":5.39042,"is_reserved":false,"is_disabled":false,"rental_uris":{"android":"levelo://app?vid=ff0a3573-003d-4966-a881-5959109e57ba","ios":"levelo://app?vid=ff0a3573-003d-4966-a881-5959109e57ba"},"vehicle_type_id":"4","last_reported":1729966224,"current_range_meters":38800,"station_id":"ce4bgup2rcd13ifvqco0","pricing_plan_id":"cebpf4jnsgd1na2vs0mg"},{"bike_id":"b425a53a-2ca1-45d6-9375-1a007f59f76d","system_id":"levelo_inurba_marseille","lat":43.27429,"lon":5.39419,"is_reserved":false,"is_disabled":false,"rental_uris":{"android":"levelo://app?vid=b425a53a-2ca1-45d6-9375-1a007f59f76d","ios":"levelo://app?vid=b425a53a-2ca1-45d6-9375-1a007f59f76d"},"vehicle_type_id":"4","last_reported":1729966224,"current_range_meters":18800,"station_id":"ce4bhdp2rcd13ifvqf20","pricing_plan_id":"cebpf4jnsgd1na2vs0mg"},{"bike_id":"dcbd9f5e-2629-4843-9b2b-c526a58a173f","system_id":"levelo_inurba_marseille","lat":43.27203,"lon":5.39182,"is_reserved":false,"is_disabled":false,"rental_uris":{"android":"levelo://app?vid=dcbd9f5e-2629-4843-9b2b-c526a58a173f","ios":"levelo://app?vid=dcbd9f5e-2629-4843-9b2b-c526a58a173f"},"vehicle_type_id":"4","last_reported":1729966224,"current_range_meters":39200,"station_id":"ce4bhhp2rcd13ifvqfm0","pricing_plan_id":"cebpf4jnsgd1na2vs0mg"},{"bike_id":"2c49ae77-8f65-45c4-b565-62ef01acf755","system_id":"levelo_inurba_marseille","lat":43.29299,"lon":5.37467,"is_reserved":false,"is_disabled":false,"rental_uris":{"android":"levelo://app?vid=2c49ae77-8f65-45c4-b565-62ef01acf755","ios":"levelo://app?vid=2c49ae77-8f65-45c4-b565-62ef01acf755"},"vehicle_type_id":"4","last_reported":1729966224,"current_range_meters":36000,"station_id":"ce4bgi12rcd13ifvqb70","pricing_plan_id":"cebpf4jnsgd1na2vs0mg"},{"bike_id":"0d0fe802-ba2c-44b6-b28b-c3fa9b6085ea","system_id":"levelo_inurba_marseille","lat":43.2963,"lon":5.3717,"is_reserved":false,"is_disabled":false,"rental_uris":{"android":"levelo://app?vid=0d0fe802-ba2c-44b6-b28b-c3fa9b6085ea","ios":"levelo://app?vid=0d0fe802-ba2c-44b6-b28b-c3fa9b6085ea"},"vehicle_type_id":"4","last_reported":1729966224,"current_range_meters":34800,"station_id":"ce4bgnh2rcd13ifvqc0g","pricing_plan_id":"cebpf4jnsgd1na2vs0mg"},{"bike_id":"2fdd8efd-807f-43c0-a5f8-acb8d352d834","system_id":"levelo_inurba_marseille","lat":43.32366,"lon":5.38892,"is_reserved":false,"is_disabled":false,"rental_uris":{"android":"levelo://app?vid=2fdd8efd-807f-43c0-a5f8-acb8d352d834","ios":"levelo://app?vid=2fdd8efd-807f-43c0-a5f8-acb8d352d834"},"vehicle_type_id":"4","last_reported":1729966224,"current_range_meters":6800,"station_id":"ce4bhqp2rcd13ifvqhog","pricing_plan_id":"cebpf4jnsgd1na2vs0mg"},{"bike_id":"cda4e669-bff4-47ce-b9f1-0b2fd51049cf","system_id":"levelo_inurba_marseille","lat":43.29582,"lon":5.36739,"is_reserved":false,"is_disabled":false,"rental_uris":{"android":"levelo://app?vid=cda4e669-bff4-47ce-b9f1-0b2fd51049cf","ios":"levelo://app?vid=cda4e669-bff4-47ce-b9f1-0b2fd51049cf"},"vehicle_type_id":"4","last_reported":1729966224,"current_range_meters":28400,"station_id":"ce4bgph2rcd13ifvqc2g","pricing_plan_id":"cebpf4jnsgd1na2vs0mg"},{"bike_id":"b3be71f1-cb8f-4ae1-ae1c-c6022e6f867e","system_id":"levelo_inurba_marseille","lat":43.27186,"lon":5.40991,"is_reserved":false,"is_disabled":false,"rental_uris":{"android":"levelo://app?vid=b3be71f1-cb8f-4ae1-ae1c-c6022e6f867e","ios":"levelo://app?vid=b3be71f1-cb8f-4ae1-ae1c-c6022e6f867e"},"vehicle_type_id":"4","last_reported":1729966224,"current_range_meters":38800,"station_id":"ce4bhl12rcd13ifvqgf0","pricing_plan_id":"cebpf4jnsgd1na2vs0mg"},{"bike_id":"f6649fef-74ef-44b8-ae1c-5cfa1d8c598a","system_id":"levelo_inurba_marseille","lat":43.2606,"lon":5.39397,"is_reserved":false,"is_disabled":false,"rental_uris":{"android":"levelo://app?vid=f6649fef-74ef-44b8-ae1c-5cfa1d8c598a","ios":"levelo://app?vid=f6649fef-74ef-44b8-ae1c-5cfa1d8c598a"},"vehicle_type_id":"4","last_reported":1729966224,"current_range_meters":10800,"station_id":"ce4bhh92rcd13ifvqfj0","pricing_plan_id":"cebpf4jnsgd1na2vs0mg"},{"bike_id":"15db73b0-1d6d-44e8-90b8-473b9bae228b","system_id":"levelo_inurba_marseille","lat":43.31367,"lon":5.385,"is_reserved":false,"is_disabled":false,"rental_uris":{"android":"levelo://app?vid=15db73b0-1d6d-44e8-90b8-473b9bae228b","ios":"levelo://app?vid=15db73b0-1d6d-44e8-90b8-473b9bae228b"},"vehicle_type_id":"4","last_reported":1729966224,"current_range_meters":38800,"station_id":"ce4bgt92rcd13ifvqcf0","pricing_plan_id":"cebpf4jnsgd1na2vs0mg"},{"bike_id":"a3db9710-ac4e-4a95-a170-244b9e4da8f0","system_id":"levelo_inurba_marseille","lat":43.29606,"lon":5.37733,"is_reserved":false,"is_disabled":false,"rental_uris":{"android":"levelo://app?vid=a3db9710-ac4e-4a95-a170-244b9e4da8f0","ios":"levelo://app?vid=a3db9710-ac4e-4a95-a170-244b9e4da8f0"},"vehicle_type_id":"4","last_reported":1729966224,"current_range_meters":32800,"station_id":"ce4bgi92rcd13ifvqb90","pricing_plan_id":"cebpf4jnsgd1na2vs0mg"},{"bike_id":"c47ee273-d152-426c-939b-6002a5dfd2a9","system_id":"levelo_inurba_marseille","lat":43.28479,"lon":5.3841,"is_reserved":false,"is_disabled":false,"rental_uris":{"android":"levelo://app?vid=c47ee273-d152-426c-939b-6002a5dfd2a9","ios":"levelo://app?vid=c47ee273-d152-426c-939b-6002a5dfd2a9"},"vehicle_type_id":"4","last_reported":1729966224,"current_range_meters":16000,"station_id":"ce4bh512rcd13ifvqe3g","pricing_plan_id":"cebpf4jnsgd1na2vs0mg"},{"bike_id":"e9704958-873e-48eb-bb05-a4a16227b47f","system_id":"levelo_inurba_marseille","lat":43.27061,"lon":5.40252,"is_reserved":false,"is_disabled":false,"rental_uris":{"android":"levelo://app?vid=e9704958-873e-48eb-bb05-a4a16227b47f","ios":"levelo://app?vid=e9704958-873e-48eb-bb05-a4a16227b47f"},"vehicle_type_id":"4","last_reported":1729966224,"current_range_meters":22000,"station_id":"ce4bhk92rcd13ifvqgc0","pricing_plan_id":"cebpf4jnsgd1na2vs0mg"},{"bike_id":"5752d062-9050-4c46-bca8-160a60b979e9","system_id":"levelo_inurba_marseille","lat":43.32295,"lon":5.38275,"is_reserved":false,"is_disabled":false,"rental_uris":{"android":"levelo://app?vid=5752d062-9050-4c46-bca8-160a60b979e9","ios":"levelo://app?vid=5752d062-9050-4c46-bca8-160a60b979e9"},"vehicle_type_id":"4","last_reported":1729966224,"current_range_meters":36400,"station_id":"ce4bhr12rcd13ifvqhqg","pricing_plan_id":"cebpf4jnsgd1na2vs0mg"},{"bike_id":"360a7583-721e-4f83-9f34-71533cc263bf","system_id":"levelo_inurba_marseille","lat":43.31221,"lon":5.36862,"is_reserved":false,"is_disabled":false,"rental_uris":{"android":"levelo://app?vid=360a7583-721e-4f83-9f34-71533cc263bf","ios":"levelo://app?vid=360a7583-721e-4f83-9f34-71533cc263bf"},"vehicle_type_id":"4","last_reported":1729966224,"current_range_meters":9200,"station_id":"ce4bgl92rcd13ifvqbq0","pricing_plan_id":"cebpf4jnsgd1na2vs0mg"},{"bike_id":"f67d08b7-bf04-49ab-a611-b82d369ca098","system_id":"levelo_inurba_marseille","lat":43.300218,"lon":5.384774,"is_reserved":false,"is_disabled":false,"rental_uris":{"android":"levelo://app?vid=f67d08b7-bf04-49ab-a611-b82d369ca098","ios":"levelo://app?vid=f67d08b7-bf04-49ab-a611-b82d369ca098"},"vehicle_type_id":"4","last_reported":1729966224,"current_range_meters":36000,"station_id":"ce4bh612rcd13ifvqe6g","pricing_plan_id":"cebpf4jnsgd1na2vs0mg"},{"bike_id":"d4b0d68a-ae82-42a1-b0da-b39254ee1044","system_id":"levelo_inurba_marseille","lat":43.23201,"lon":5.3555,"is_reserved":false,"is_disabled":false,"rental_uris":{"android":"levelo://app?vid=d4b0d68a-ae82-42a1-b0da-b39254ee1044","ios":"levelo://app?vid=d4b0d68a-ae82-42a1-b0da-b39254ee1044"},"vehicle_type_id":"4","last_reported":1729966224,"current_range_meters":16000,"station_id":"ce4bhu92rcd13ifvqi70","pricing_plan_id":"cebpf4jnsgd1na2vs0mg"},{"bike_id":"8de60e29-9f90-45c1-8fea-8f3f44aafc74","system_id":"levelo_inurba_marseille","lat":43.29036,"lon":5.39957,"is_reserved":false,"is_disabled":false,"rental_uris":{"android":"levelo://app?vid=8de60e29-9f90-45c1-8fea-8f3f44aafc74","ios":"levelo://app?vid=8de60e29-9f90-45c1-8fea-8f3f44aafc74"},"vehicle_type_id":"4","last_reported":1729966224,"current_range_meters":17200,"station_id":"ce4bh392rcd13ifvqdm0","pricing_plan_id":"cebpf4jnsgd1na2vs0mg"},{"bike_id":"b36635ec-777f-460b-8fc4-683b4e7937dc","system_id":"levelo_inurba_marseille","lat":43.23961,"lon":5.3664,"is_reserved":false,"is_disabled":false,"rental_uris":{"android":"levelo://app?vid=b36635ec-777f-460b-8fc4-683b4e7937dc","ios":"levelo://app?vid=b36635ec-777f-460b-8fc4-683b4e7937dc"},"vehicle_type_id":"4","last_reported":1729966224,"current_range_meters":20800,"station_id":"ce4bhi12rcd13ifvqfp0","pricing_plan_id":"cebpf4jnsgd1na2vs0mg"},{"bike_id":"d36dfeb4-c31e-48df-ab3c-ae4e4ad62517","system_id":"levelo_inurba_marseille","lat":43.31186,"lon":5.38708,"is_reserved":false,"is_disabled":false,"rental_uris":{"android":"levelo://app?vid=d36dfeb4-c31e-48df-ab3c-ae4e4ad62517","ios":"levelo://app?vid=d36dfeb4-c31e-48df-ab3c-ae4e4ad62517"},"vehicle_type_id":"4","last_reported":1729966224,"current_range_meters":30800,"station_id":"ce4bgv12rcd13ifvqcp0","pricing_plan_id":"cebpf4jnsgd1na2vs0mg"},{"bike_id":"3e1205ab-0bc6-479c-9e06-2c971082cf74","system_id":"levelo_inurba_marseille","lat":43.32041,"lon":5.41566,"is_reserved":false,"is_disabled":false,"rental_uris":{"android":"levelo://app?vid=3e1205ab-0bc6-479c-9e06-2c971082cf74","ios":"levelo://app?vid=3e1205ab-0bc6-479c-9e06-2c971082cf74"},"vehicle_type_id":"4","last_reported":1729966224,"current_range_meters":16800,"station_id":"ce4bhq92rcd13ifvqhkg","pricing_plan_id":"cebpf4jnsgd1na2vs0mg"},{"bike_id":"8a7ea3b3-7c19-4f13-a31a-07202c98e2c3","system_id":"levelo_inurba_marseille","lat":43.32477,"lon":5.3656,"is_reserved":false,"is_disabled":false,"rental_uris":{"android":"levelo://app?vid=8a7ea3b3-7c19-4f13-a31a-07202c98e2c3","ios":"levelo://app?vid=8a7ea3b3-7c19-4f13-a31a-07202c98e2c3"},"vehicle_type_id":"4","last_reported":1729966224,"current_range_meters":24800,"station_id":"ce4bhs12rcd13ifvqhvg","pricing_plan_id":"cebpf4jnsgd1na2vs0mg"},{"bike_id":"04518ea9-c53f-40a3-80da-3e58bba4a32f","system_id":"levelo_inurba_marseille","lat":43.22928,"lon":5.35376,"is_reserved":false,"is_disabled":false,"rental_uris":{"android":"levelo://app?vid=04518ea9-c53f-40a3-80da-3e58bba4a32f","ios":"levelo://app?vid=04518ea9-c53f-40a3-80da-3e58bba4a32f"},"vehicle_type_id":"4","last_reported":1729966224,"current_range_meters":31200,"station_id":"cpo3532slgdg3j2ikp40","pricing_plan_id":"cebpf4jnsgd1na2vs0mg"},{"bike_id":"3d537944-7a77-435d-8e52-b9b7b4261932","system_id":"levelo_inurba_marseille","lat":43.29622,"lon":5.37154,"is_reserved":false,"is_disabled":false,"rental_uris":{"android":"levelo://app?vid=3d537944-7a77-435d-8e52-b9b7b4261932","ios":"levelo://app?vid=3d537944-7a77-435d-8e52-b9b7b4261932"},"vehicle_type_id":"4","last_reported":1729966224,"current_range_meters":39200,"station_id":"ce4bgnh2rcd13ifvqc0g","pricing_plan_id":"cebpf4jnsgd1na2vs0mg"},{"bike_id":"29908cde-ca37-4b88-9b19-9eae7dcf09ff","system_id":"levelo_inurba_marseille","lat":43.23156,"lon":5.43722,"is_reserved":false,"is_disabled":false,"rental_uris":{"android":"levelo://app?vid=29908cde-ca37-4b88-9b19-9eae7dcf09ff","ios":"levelo://app?vid=29908cde-ca37-4b88-9b19-9eae7dcf09ff"},"vehicle_type_id":"4","last_reported":1729966224,"current_range_meters":3200,"station_id":"ce4bhmp2rcd13ifvqgog","pricing_plan_id":"cebpf4jnsgd1na2vs0mg"},{"bike_id":"c99defe0-8efc-4702-86ff-f4db4c3ca963","system_id":"levelo_inurba_marseille","lat":43.27427,"lon":5.39418,"is_reserved":false,"is_disabled":false,"rental_uris":{"android":"levelo://app?vid=c99defe0-8efc-4702-86ff-f4db4c3ca963","ios":"levelo://app?vid=c99defe0-8efc-4702-86ff-f4db4c3ca963"},"vehicle_type_id":"4","last_reported":1729966224,"current_range_meters":28800,"station_id":"ce4bhdp2rcd13ifvqf20","pricing_plan_id":"cebpf4jnsgd1na2vs0mg"},{"bike_id":"fcb12dbe-d2a9-453d-be80-708bdf43bd43","system_id":"levelo_inurba_marseille","lat":43.2903,"lon":5.3865,"is_reserved":false,"is_disabled":false,"rental_uris":{"android":"levelo://app?vid=fcb12dbe-d2a9-453d-be80-708bdf43bd43","ios":"levelo://app?vid=fcb12dbe-d2a9-453d-be80-708bdf43bd43"},"vehicle_type_id":"4","last_reported":1729966224,"current_range_meters":38000,"station_id":"ce4bh4p2rcd13ifvqe0g","pricing_plan_id":"cebpf4jnsgd1na2vs0mg"},{"bike_id":"c6dd7a3e-099b-4e32-8a61-8b771991ae76","system_id":"levelo_inurba_marseille","lat":43.29524,"lon":5.39043,"is_reserved":false,"is_disabled":false,"rental_uris":{"android":"levelo://app?vid=c6dd7a3e-099b-4e32-8a61-8b771991ae76","ios":"levelo://app?vid=c6dd7a3e-099b-4e32-8a61-8b771991ae76"},"vehicle_type_id":"4","last_reported":1729966224,"current_range_meters":18000,"station_id":"ce4bh3p2rcd13ifvqdp0","pricing_plan_id":"cebpf4jnsgd1na2vs0mg"},{"bike_id":"960c25fd-a513-4486-9205-28e40f919a67","system_id":"levelo_inurba_marseille","lat":43.28445,"lon":5.39192,"is_reserved":false,"is_disabled":false,"rental_uris":{"android":"levelo://app?vid=960c25fd-a513-4486-9205-28e40f919a67","ios":"levelo://app?vid=960c25fd-a513-4486-9205-28e40f919a67"},"vehicle_type_id":"4","last_reported":1729966224,"current_range_meters":30000,"station_id":"ce4bhoh2rcd13ifvqh5g","pricing_plan_id":"cebpf4jnsgd1na2vs0mg"},{"bike_id":"374c6b0b-5583-4ed8-8e1b-71051917a33b","system_id":"levelo_inurba_marseille","lat":43.29975,"lon":5.37177,"is_reserved":false,"is_disabled":false,"rental_uris":{"android":"levelo://app?vid=374c6b0b-5583-4ed8-8e1b-71051917a33b","ios":"levelo://app?vid=374c6b0b-5583-4ed8-8e1b-71051917a33b"},"vehicle_type_id":"4","last_reported":1729966224,"current_range_meters":16400,"station_id":"ce4bgr92rcd13ifvqc7g","pricing_plan_id":"cebpf4jnsgd1na2vs0mg"},{"bike_id":"6a907215-e54c-49ea-8c93-c0793dcd6d8b","system_id":"levelo_inurba_marseille","lat":43.30155,"lon":5.38079,"is_reserved":false,"is_disabled":false,"rental_uris":{"android":"levelo://app?vid=6a907215-e54c-49ea-8c93-c0793dcd6d8b","ios":"levelo://app?vid=6a907215-e54c-49ea-8c93-c0793dcd6d8b"},"vehicle_type_id":"4","last_reported":1729966224,"current_range_meters":4400,"station_id":"ce4bgjp2rcd13ifvqbh0","pricing_plan_id":"cebpf4jnsgd1na2vs0mg"},{"bike_id":"5d4de643-9eab-4f9b-9cfe-f21f44f7ac75","system_id":"levelo_inurba_marseille","lat":43.29908,"lon":5.3747,"is_reserved":false,"is_disabled":false,"rental_uris":{"android":"levelo://app?vid=5d4de643-9eab-4f9b-9cfe-f21f44f7ac75","ios":"levelo://app?vid=5d4de643-9eab-4f9b-9cfe-f21f44f7ac75"},"vehicle_type_id":"4","last_reported":1729966224,"current_range_meters":38000,"station_id":"ce4bgjh2rcd13ifvqbg0","pricing_plan_id":"cebpf4jnsgd1na2vs0mg"},{"bike_id":"c8c78e85-1882-4593-9fe2-e486341d5073","system_id":"levelo_inurba_marseille","lat":43.26942,"lon":5.40246,"is_reserved":false,"is_disabled":false,"rental_uris":{"android":"levelo://app?vid=c8c78e85-1882-4593-9fe2-e486341d5073","ios":"levelo://app?vid=c8c78e85-1882-4593-9fe2-e486341d5073"},"vehicle_type_id":"4","last_reported":1729966224,"current_range_meters":26800,"station_id":"cjm6bp8fraef2m0cb0m0","pricing_plan_id":"cebpf4jnsgd1na2vs0mg"},