{"last_updated":1747404624,"ttl":60,"version":"2.2","data":{"bikes":[{"bike_id":"14471691-449b-4573-9220-961b0bcc499a","system_id":"levelo_inurba_marseille","lat":43.30151,"lon":5.38077,"is_reserved":false,"is_disabled":false,"rental_uris":{"android":"levelo://app?vid=14471691-449b-4573-9220-961b0bcc499a","ios":"levelo://app?vid=14471691-449b-4573-9220-961b0bcc499a"},"vehicle_type_id":"4","last_reported":1747404624,"current_range_meters":2800,"station_id":"ce4bgjp2rcd13ifvqbh0","pricing_plan_id":"cebpf4jnsgd1na2vs0mg"},{"bike_id":"cb9f0db7-62fa-4e6e-a4e3-4501afb26d35","system_id":"levelo_inurba_marseille","lat":43.31354,"lon":5.3849,"is_reserved":false,"is_disabled":false,"rental_uris":{"android":"levelo://app?vid=cb9f0db7-62fa-4e6e-a4e3-4501afb26d35","ios":"levelo://app?vid=cb9f0db7-62fa-4e6e-a4e3-4501afb26d35"},"vehicle_type_id":"4","last_reported":1747404624,"current_range_meters":2800,"station_id":"ce4bgt92rcd13ifvqcf0","pricing_plan_id":"cebpf4jnsgd1na2vs0mg"},{"bike_id":"d02a4884-fcc6-4547-82dd-00ed005b9eaf","system_id":"levelo_inurba_marseille","lat":43.30213,"lon":5.39471,"is_reserved":false,"is_disabled":false,"rental_uris":{"android":"levelo://app?vid=d02a4884-fcc6-4547-82dd-00ed005b9eaf","ios":"levelo://app?vid=d02a4884-fcc6-4547-82dd-00ed005b9eaf"},"vehicle_type_id":"4","last_reported":1747404624,"current_range_meters":2800,"station_id":"ce4bh0p2rcd13ifvqd70","pricing_plan_id":"cebpf4jnsgd1na2vs0mg"},{"bike_id":"32688d4b-8e7e-4881-aa7b-cf7c0e0d652d","system_id":"levelo_inurba_marseille","lat":43.28959,"lon":5.37831,"is_reserved":false,"is_disabled":false,"rental_uris":{"android":"levelo://app?vid=32688d4b-8e7e-4881-aa7b-cf7c0e0d652d","ios":"levelo://app?vid=32688d4b-8e7e-4881-aa7b-cf7c0e0d652d"},"vehicle_type_id":"4","last_reported":1747404624,"current_range_meters":3200,"station_id":"ce4bh9p2rcd13ifvqed0","pricing_plan_id":"cebpf4jnsgd1na2vs0mg"},{"bike_id":"5bd725c2-1f4e-42ee-b668-36d4e0fa6ae9","system_id":"levelo_inurba_marseille","lat":43.30882,"lon":5.39626,"is_reserved":false,"is_disabled":false,"rental_uris":{"android":"levelo://app?vid=5bd725c2-1f4e-42ee-b668-36d4e0fa6ae9","ios":"levelo://app?vid=5bd725c2-1f4e-42ee-b668-36d4e0fa6ae9"},"vehicle_type_id":"4","last_reported":1747404624,"current_range_meters":3200,"station_id":"ce4bh012rcd13ifvqcv0","pricing_plan_id":"cebpf4jnsgd1na2vs0mg"},{"bike_id":"98b74ff6-af17-40c3-9a8f-b32c1bd473ca","system_id":"levelo_inurba_marseille","lat":43.30157,"lon":5.38095,"is_reserved":false,"is_disabled":false,"rental_uris":{"android":"levelo://app?vid=98b74ff6-af17-40c3-9a8f-b32c1bd473ca","ios":"levelo://app?vid=98b74ff6-af17-40c3-9a8f-b32c1bd473ca"},"vehicle_type_id":"4","last_reported":1747404624,"current_range_meters":3200,"station_id":"ce4bgjp2rcd13ifvqbh0","pricing_plan_id":"cebpf4jnsgd1na2vs0mg"},{"bike_id":"70119d61-af20-439b-b24c-302633380303","system_id":"levelo_inurba_marseille","lat":43.29268,"lon":5.38436,"is_reserved":false,"is_disabled":false,"rental_uris":{"android":"levelo://app?vid=70119d61-af20-439b-b24c-302633380303","ios":"levelo://app?vid=70119d61-af20-439b-b24c-302633380303"},"vehicle_type_id":"4","last_reported":1747404624,"current_range_meters":2800,"station_id":"ce4bh692rcd13ifvqea0","pricing_plan_id":"cebpf4jnsgd1na2vs0mg"},{"bike_id":"7dae9ad7-ef7c-4f89-87e6-0931f75fb196","system_id":"levelo_inurba_marseille","lat":43.29432,"lon":5.39756,"is_reserved":false,"is_disabled":false,"rental_uris":{"android":"levelo://app?vid=7dae9ad7-ef7c-4f89-87e6-0931f75fb196","ios":"levelo://app?vid=7dae9ad7-ef7c-4f89-87e6-0931f75fb196"},"vehicle_type_id":"4","last_reported":1747404624,"current_range_meters":3200,"station_id":"ce4bh3h2rcd13ifvqdo0","pricing_plan_id":"cebpf4jnsgd1na2vs0mg"},{"bike_id":"bd97490a-c15f-48a0-b287-3dc935d0f398","system_id":"levelo_inurba_marseille","lat":43.337444,"lon":5.374475,"is_reserved":false,"is_disabled":false,"rental_uris":{"android":"levelo://app?vid=bd97490a-c15f-48a0-b287-3dc935d0f398","ios":"levelo://app?vid=bd97490a-c15f-48a0-b287-3dc935d0f398"},"vehicle_type_id":"4","last_reported":1747404624,"current_range_meters":3600,"station_id":"","pricing_plan_id":"cebpf4jnsgd1na2vs0mg"},{"bike_id":"f752227c-3df6-44d5-abd3-4a633d5341e0","system_id":"levelo_inurba_marseille","lat":43.22932,"lon":5.35371,"is_reserved":false,"is_disabled":false,"rental_uris":{"android":"levelo://app?vid=f752227c-3df6-44d5-abd3-4a633d5341e0","ios":"levelo://app?vid=f752227c-3df6-44d5-abd3-4a633d5341e0"},"vehicle_type_id":"4","last_reported":1747404624,"current_range_meters":3600,"station_id":"cpo3532slgdg3j2ikp40","pricing_plan_id":"cebpf4jnsgd1na2vs0mg"},{"bike_id":"7610e764-4710-4df3-b0a8-529673431bf7","system_id":"levelo_inurba_marseille","lat":43.30148,"lon":5.38054,"is_reserved":false,"is_disabled":false,"rental_uris":{"android":"levelo://app?vid=7610e764-4710-4df3-b0a8-529673431bf7","ios":"levelo://app?vid=7610e764-4710-4df3-b0a8-529673431bf7"},"vehicle_type_id":"4","last_reported":1747404624,"current_range_meters":3600,"station_id":"ce4bgjp2rcd13ifvqbh0","pricing_plan_id":"cebpf4jnsgd1na2vs0mg"},{"bike_id":"5d5f5755-5b3b-4308-8b78-c8614cdd189d","system_id":"levelo_inurba_marseille","lat":43.30442,"lon":5.36728,"is_reserved":false,"is_disabled":false,"rental_uris":{"android":"levelo://app?vid=5d5f5755-5b3b-4308-8b78-c8614cdd189d","ios":"levelo://app?vid=5d5f5755-5b3b-4308-8b78-c8614cdd189d"},"vehicle_type_id":"4","last_reported":1747404624,"current_range_meters":3600,"station_id":"","pricing_plan_id":"cebpf4jnsgd1na2vs0mg"},{"bike_id":"d00de707-732d-4feb-a546-8f1f18b99272","system_id":"levelo_inurba_marseille","lat":43.30593,"lon":5.37235,"is_reserved":false,"is_disabled":false,"rental_uris":{"android":"levelo://app?vid=d00de707-732d-4feb-a546-8f1f18b99272","ios":"levelo://app?vid=d00de707-732d-4feb-a546-8f1f18b99272"},"vehicle_type_id":"4","last_reported":1747404624,"current_range_meters":3600,"station_id":"ce4bgqh2rcd13ifvqc4g","pricing_plan_id":"cebpf4jnsgd1na2vs0mg"},{"bike_id":"cdba1153-8caf-4402-b1e4-51359f50680f","system_id":"levelo_inurba_marseille","lat":43.27994,"lon":5.40009,"is_reserved":false,"is_disabled":false,"rental_uris":{"android":"levelo://app?vid=cdba1153-8caf-4402-b1e4-51359f50680f","ios":"levelo://app?vid=cdba1153-8caf-4402-b1e4-51359f50680f"},"vehicle_type_id":"4","last_reported":1747404624,"current_range_meters":4000,"station_id":"ce4bho92rcd13ifvqh4g","pricing_plan_id":"cebpf4jnsgd1na2vs0mg"},{"bike_id":"21f93ed5-2054-4011-89cc-36b19bd76ac9","system_id":"levelo_inurba_marseille","lat":43.30148,"lon":5.39861,"is_reserved":false,"is_disabled":false,"rental_uris":{"android":"levelo://app?vid=21f93ed5-2054-4011-89cc-36b19bd76ac9","ios":"levelo://app?vid=21f93ed5-2054-4011-89cc-36b19bd76ac9"},"vehicle_type_id":"4","last_reported":1747404624,"current_range_meters":4000,"station_id":"ce4bh0h2rcd13ifvqd40","pricing_plan_id":"cebpf4jnsgd1na2vs0mg"},{"bike_id":"daabb97a-0867-4c12-8e4e-1e231177701d","system_id":"levelo_inurba_marseille","lat":43.30424,"lon":5.38891,"is_reserved":false,"is_disabled":false,"rental_uris":{"android":"levelo://app?vid=daabb97a-0867-4c12-8e4e-1e231177701d","ios":"levelo://app?vid=daabb97a-0867-4c12-8e4e-1e231177701d"},"vehicle_type_id":"4","last_reported":1747404624,"current_range_meters":6000,"station_id":"ce4bgk12rcd13ifvqbi0","pricing_plan_id":"cebpf4jnsgd1na2vs0mg"},{"bike_id":"21cd902a-3240-429c-908d-9d8f56ff94f2","system_id":"levelo_inurba_marseille","lat":43.3033,"lon":5.40428,"is_reserved":false,"is_disabled":false,"rental_uris":{"android":"levelo://app?vid=21cd902a-3240-429c-908d-9d8f56ff94f2","ios":"levelo://app?vid=21cd902a-3240-429c-908d-9d8f56ff94f2"},"vehicle_type_id":"4","last_reported":1747404624,"current_range_meters":4400,"station_id":"ce4bh012rcd13ifvqd10","pricing_plan_id":"cebpf4jnsgd1na2vs0mg"},{"bike_id":"2ad262c5-c586-41a9-8a4d-ae8abc60aac8","system_id":"levelo_inurba_marseille","lat":43.27812,"lon":5.40711,"is_reserved":false,"is_disabled":false,"rental_uris":{"android":"levelo://app?vid=2ad262c5-c586-41a9-8a4d-ae8abc60aac8","ios":"levelo://app?vid=2ad262c5-c586-41a9-8a4d-ae8abc60aac8"},"vehicle_type_id":"4","last_reported":1747404624,"current_range_meters":4400,"station_id":"ce4bhnh2rcd13ifvqgtg","pricing_plan_id":"cebpf4jnsgd1na2vs0mg"},{"bike_id":"74cc09d6-dd1d-4f1e-8d26-094cb78b74d5","system_id":"levelo_inurba_marseille","lat":43.29007,"lon":5.38112,"is_reserved":false,"is_disabled":false,"rental_uris":{"android":"levelo://app?vid=74cc09d6-dd1d-4f1e-8d26-094cb78b74d5","ios":"levelo://app?vid=74cc09d6-dd1d-4f1e-8d26-094cb78b74d5"},"vehicle_type_id":"4","last_reported":1747404624,"current_range_meters":4400,"station_id":"ce4bh4p2rcd13ifvqe1g","pricing_plan_id":"cebpf4jnsgd1na2vs0mg"},{"bike_id":"2f30561b-f487-4639-a691-c6a9614036fd","system_id":"levelo_inurba_marseille","lat":43.27495,"lon":5.42446,"is_reserved":false,"is_disabled":false,"rental_uris":{"android":"levelo://app?vid=2f30561b-f487-4639-a691-c6a9614036fd","ios":"levelo://app?vid=2f30561b-f487-4639-a691-c6a9614036fd"},"vehicle_type_id":"4","last_reported":1747404624,"current_range_meters":4800,"station_id":"ce4bhn92rcd13ifvqgrg","pricing_plan_id":"cebpf4jnsgd1na2vs0mg"},{"bike_id":"02f04edc-3b4f-43ef-982c-acb32864e50e","system_id":"levelo_inurba_marseille","lat":43.287067,"lon":5.379477,"is_reserved":false,"is_disabled":false,"rental_uris":{"android":"levelo://app?vid=02f04edc-3b4f-43ef-982c-acb32864e50e","ios":"levelo://app?vid=02f04edc-3b4f-43ef-982c-acb32864e50e"},"vehicle_type_id":"4","last_reported":1747404624,"current_range_meters":4800,"station_id":"ce4bh9p2rcd13ifvqec0","pricing_plan_id":"cebpf4jnsgd1na2vs0mg"},{"bike_id":"22f701b9-8776-4561-98c3-873264fbe14f","system_id":"levelo_inurba_marseille","lat":43.27677,"lon":5.38857,"is_reserved":false,"is_disabled":false,"rental_uris":{"android":"levelo://app?vid=22f701b9-8776-4561-98c3-873264fbe14f","ios":"levelo://app?vid=22f701b9-8776-4561-98c3-873264fbe14f"},"vehicle_type_id":"4","last_reported":1747404624,"current_range_meters":4800,"station_id":"ce4bhi12rcd13ifvqfo0","pricing_plan_id":"cebpf4jnsgd1na2vs0mg"},{"bike_id":"f0364794-ac1e-48f7-a033-e20a8d8675d6","system_id":"levelo_inurba_marseille","lat":43.29075,"lon":5.37159,"is_reserved":false,"is_disabled":false,"rental_uris":{"android":"levelo://app?vid=f0364794-ac1e-48f7-a033-e20a8d8675d6","ios":"levelo://app?vid=f0364794-ac1e-48f7-a033-e20a8d8675d6"},"vehicle_type_id":"4","last_reported":1747404624,"current_range_meters":5600,"station_id":"ce4bh5p2rcd13ifvqe4g","pricing_plan_id":"cebpf4jnsgd1na2vs0mg"},{"bike_id":"9445389c-1d64-410c-a4a4-2b078693e5d5","system_id":"levelo_inurba_marseille","lat":43.27615,"lon":5.361131,"is_reserved":false,"is_disabled":false,"rental_uris":{"android":"levelo://app?vid=9445389c-1d64-410c-a4a4-2b078693e5d5","ios":"levelo://app?vid=9445389c-1d64-410c-a4a4-2b078693e5d5"},"vehicle_type_id":"4","last_reported":1747404624,"current_range_meters":5600,"station_id":"ce4bgj92rcd13ifvqbe0","pricing_plan_id":"cebpf4jnsgd1na2vs0mg"},{"bike_id":"c1ef4ade-122b-4caf-8027-1b7405d7f704","system_id":"levelo_inurba_marseille","lat":43.29379,"lon":5.37853,"is_reserved":false,"is_disabled":false,"rental_uris":{"android":"levelo://app?vid=c1ef4ade-122b-4caf-8027-1b7405d7f704","ios":"levelo://app?vid=c1ef4ade-122b-4caf-8027-1b7405d7f704"},"vehicle_type_id":"4","last_reported":1747404624,"current_range_meters":5600,"station_id":"ce4bgjh2rcd13ifvqbf0","pricing_plan_id":"cebpf4jnsgd1na2vs0mg"},{"bike_id":"e616300d-c87a-424c-8ab8-f90bbee69c08","system_id":"levelo_inurba_marseille","lat":43.29271,"lon":5.37645,"is_reserved":false,"is_disabled":false,"rental_uris":{"android":"levelo://app?vid=e616300d-c87a-424c-8ab8-f90bbee69c08","ios":"levelo://app?vid=e616300d-c87a-424c-8ab8-f90bbee69c08"},"vehicle_type_id":"4","last_reported":1747404624,"current_range_meters":6000,"station_id":"ce4bgi12rcd13ifvqb80","pricing_plan_id":"cebpf4jnsgd1na2vs0mg"},{"bike_id":"ea65feca-9836-476c-aef9-b517ffc60913","system_id":"levelo_inurba_marseille","lat":43.29033,"lon":5.37574,"is_reserved":false,"is_disabled":false,"rental_uris":{"android":"levelo://app?vid=ea65feca-9836-476c-aef9-b517ffc60913","ios":"levelo://app?vid=ea65feca-9836-476c-aef9-b517ffc60913"},"vehicle_type_id":"4","last_reported":1747404624,"current_range_meters":6400,"station_id":"ce4bh692rcd13ifvqe90","pricing_plan_id":"cebpf4jnsgd1na2vs0mg"},{"bike_id":"02288632-79f4-483c-92bd-91cd61a950da","system_id":"levelo_inurba_marseille","lat":43.29673,"lon":5.36162,"is_reserved":false,"is_disabled":false,"rental_uris":{"android":"levelo://app?vid=02288632-79f4-483c-92bd-91cd61a950da","ios":"levelo://app?vid=02288632-79f4-483c-92bd-91cd61a950da"},"vehicle_type_id":"4","last_reported":1747404624,"current_range_meters":12000,"station_id":"","pricing_plan_id":"cebpf4jnsgd1na2vs0mg"},{"bike_id":"13877861-3591-46d5-ba52-d063698d4660","system_id":"levelo_inurba_marseille","lat":43.30422,"lon":5.39747,"is_reserved":false,"is_disabled":false,"rental_uris":{"android":"levelo://app?vid=13877861-3591-46d5-ba52-d063698d4660","ios":"levelo://app?vid=13877861-3591-46d5-ba52-d063698d4660"},"vehicle_type_id":"4","last_reported":1747404624,"current_range_meters":6000,"station_id":"ce4bh092rcd13ifvqd20","pricing_plan_id":"cebpf4jnsgd1na2vs0mg"},{"bike_id":"73a9909a-6236-4724-9f9a-be901bfef5b6","system_id":"levelo_inurba_marseille","lat":43.29171,"lon":5.37156,"is_reserved":false,"is_disabled":false,"rental_uris":{"android":"levelo://app?vid=73a9909a-6236-4724-9f9a-be901bfef5b6","ios":"levelo://app?vid=73a9909a-6236-4724-9f9a-be901bfef5b6"},"vehicle_type_id":"4","last_reported":1747404624,"current_range_meters":6000,"station_id":"ce4bha92rcd13ifvqeh0","pricing_plan_id":"cebpf4jnsgd1na2vs0mg"},{"bike_id":"0e2cf62d-0be7-4144-b6d9-a090cfcb8e79","system_id":"levelo_inurba_marseille","lat":43.30215,"lon":5.3947,"is_reserved":false,"is_disabled":false,"rental_uris":{"android":"levelo://app?vid=0e2cf62d-0be7-4144-b6d9-a090cfcb8e79","ios":"levelo://app?vid=0e2cf62d-0be7-4144-b6d9-a090cfcb8e79"},"vehicle_type_id":"4","last_reported":1747404624,"current_range_meters":6400,"station_id":"ce4bh0p2rcd13ifvqd70","pricing_plan_id":"cebpf4jnsgd1na2vs0mg"},{"bike_id":"a4073e7f-96f3-46b0-938d-f550a9a78f71","system_id":"levelo_inurba_marseille","lat":43.28468,"lon":5.35864,"is_reserved":false,"is_disabled":false,"rental_uris":{"android":"levelo://app?vid=a4073e7f-96f3-46b0-938d-f550a9a78f71","ios":"levelo://app?vid=a4073e7f-96f3-46b0-938d-f550a9a78f71"},"vehicle_type_id":"4","last_reported":1747404624,"current_range_meters":6000,"station_id":"ce4bhah2rcd13ifvqei0","pricing_plan_id":"cebpf4jnsgd1na2vs0mg"},{"bike_id":"2ac1e534-b19d-403d-b67d-13868b270de6","system_id":"levelo_inurba_marseille","lat":43.29796,"lon":5.38096,"is_reserved":false,"is_disabled":false,"rental_uris":{"android":"levelo://app?vid=2ac1e534-b19d-403d-b67d-13868b270de6","ios":"levelo://app?vid=2ac1e534-b19d-403d-b67d-13868b270de6"},"vehicle_type_id":"4","last_reported":1747404624,"current_range_meters":6400,"station_id":"ce4bgip2rcd13ifvqbb0","pricing_plan_id":"cebpf4jnsgd1na2vs0mg"},{"bike_id":"004e550f-eeb4-47fd-965a-a69664e7713a","system_id":"levelo_inurba_marseille","lat":43.27949,"lon":5.41045,"is_reserved":false,"is_disabled":false,"rental_uris":{"android":"levelo://app?vid=004e550f-eeb4-47fd-965a-a69664e7713a","ios":"levelo://app?vid=004e550f-eeb4-47fd-965a-a69664e7713a"},"vehicle_type_id":"4","last_reported":1747404624,"current_range_meters":6400,"station_id":"ce4bhnp2rcd13ifvqh0g","pricing_plan_id":"cebpf4jnsgd1na2vs0mg"},{"bike_id":"f6ee769e-793a-4183-8ddc-563c56faee43","system_id":"levelo_inurba_marseille","lat":43.28032,"lon":5.36945,"is_reserved":false,"is_disabled":false,"rental_uris":{"android":"levelo://app?vid=f6ee769e-793a-4183-8ddc-563c56faee43","ios":"levelo://app?vid=f6ee769e-793a-4183-8ddc-563c56faee43"},"vehicle_type_id":"4","last_reported":1747404624,"current_range_meters":6400,"station_id":"ce4bha12rcd13ifvqef0","pricing_plan_id":"cebpf4jnsgd1na2vs0mg"},{"bike_id":"e90498cf-ab6f-4e5e-a5da-7d47a487f6fc","system_id":"levelo_inurba_marseille","lat":43.29023,"lon":5.38646,"is_reserved":false,"is_disabled":false,"rental_uris":{"android":"levelo://app?vid=e90498cf-ab6f-4e5e-a5da-7d47a487f6fc","ios":"levelo://app?vid=e90498cf-ab6f-4e5e-a5da-7d47a487f6fc"},"vehicle_type_id":"4","last_reported":1747404624,"current_range_meters":6000,"station_id":"ce4bh4p2rcd13ifvqe0g","pricing_plan_id":"cebpf4jnsgd1na2vs0mg"},{"bike_id":"368e7664-a55a-432f-98af-afc4661f4041","system_id":"levelo_inurba_marseille","lat":43.23144,"lon":5.43735,"is_reserved":false,"is_disabled":false,"rental_uris":{"android":"levelo://app?vid=368e7664-a55a-432f-98af-afc4661f4041","ios":"levelo://app?vid=368e7664-a55a-432f-98af-afc4661f4041"},"vehicle_type_id":"4","last_reported":1747404624,"current_range_meters":6400,"station_id":"ce4bhmp2rcd13ifvqgog","pricing_plan_id":"cebpf4jnsgd1na2vs0mg"},{"bike_id":"68c41217-d0dd-495e-8991-51c848c3930c","system_id":"levelo_inurba_marseille","lat":43.31369,"lon":5.3849,"is_reserved":false,"is_disabled":false,"rental_uris":{"android":"levelo://app?vid=68c41217-d0dd-495e-8991-51c848c3930c","ios":"levelo://app?vid=68c41217-d0dd-495e-8991-51c848c3930c"},"vehicle_type_id":"4","last_reported":1747404624,"current_range_meters":6400,"station_id":"ce4bgt92rcd13ifvqcf0","pricing_plan_id":"cebpf4jnsgd1na2vs0mg"},{"bike_id":"7dc010aa-6b93-4d6a-b340-d03c16a1660c","system_id":"levelo_inurba_marseille","lat":43.2894,"lon":5.36638,"is_reserved":false,"is_disabled":false,"rental_uris":{"android":"levelo://app?vid=7dc010aa-6b93-4d6a-b340-d03c16a1660c","ios":"levelo://app?vid=7dc010aa-6b93-4d6a-b340-d03c16a1660c"},"vehicle_type_id":"4","last_reported":1747404624,"current_range_meters":6800,"station_id":"ce4bhap2rcd13ifvqek0","pricing_plan_id":"cebpf4jnsgd1na2vs0mg"},{"bike_id":"5040b00f-f710-4b21-85f2-66e3aef460e7","system_id":"levelo_inurba_marseille","lat":43.30201,"lon":5.36635,"is_reserved":false,"is_disabled":false,"rental_uris":{"android":"levelo://app?vid=5040b00f-f710-4b21-85f2-66e3aef460e7","ios":"levelo://app?vid=5040b00f-f710-4b21-85f2-66e3aef460e7"},"vehicle_type_id":"4","last_reported":1747404624,"current_range_meters":7200,"station_id":"ce4bgrh2rcd13ifvqc8g","pricing_plan_id":"cebpf4jnsgd1na2vs0mg"},{"bike_id":"a3759450-6702-4866-85ea-fd6d7d4273e0","system_id":"levelo_inurba_marseille","lat":43.297284,"lon":5.37681,"is_reserved":false,"is_disabled":false,"rental_uris":{"android":"levelo://app?vid=a3759450-6702-4866-85ea-fd6d7d4273e0","ios":"levelo://app?vid=a3759450-6702-4866-85ea-fd6d7d4273e0"},"vehicle_type_id":"4","last_reported":1747404624,"current_range_meters":7200,"station_id":"ce4bgkh2rcd13ifvqbl0","pricing_plan_id":"cebpf4jnsgd1na2vs0mg"},{"bike_id":"66f7c9e7-57f3-4b5a-934e-baf9a34e5e1f","system_id":"levelo_inurba_marseille","lat":43.298421,"lon":5.362674,"is_reserved":false,"is_disabled":false,"rental_uris":{"android":"levelo://app?vid=66f7c9e7-57f3-4b5a-934e-baf9a34e5e1f","ios":"levelo://app?vid=66f7c9e7-57f3-4b5a-934e-baf9a34e5e1f"},"vehicle_type_id":"4","last_reported":1747404624,"current_range_meters":7200,"station_id":"ce4bgpp2rcd13ifvqc3g","pricing_plan_id":"cebpf4jnsgd1na2vs0mg"},{"bike_id":"0ee82975-12ad-4ff6-9523-14c7ab80880e","system_id":"levelo_inurba_marseille","lat":43.29967,"lon":5.38501,"is_reserved":false,"is_disabled":false,"rental_uris":{"android":"levelo://app?vid=0ee82975-12ad-4ff6-9523-14c7ab80880e","ios":"levelo://app?vid=0ee82975-12ad-4ff6-9523-14c7ab80880e"},"vehicle_type_id":"4","last_reported":1747404624,"current_range_meters":7200,"station_id":"ce4bgj92rcd13ifvqbd0","pricing_plan_id":"cebpf4jnsgd1na2vs0mg"},{"bike_id":"ed827c2e-2887-43f8-bd08-159a5b4d17cb","system_id":"levelo_inurba_marseille","lat":43.29718,"lon":5.37694,"is_reserved":false,"is_disabled":false,"rental_uris":{"android":"levelo://app?vid=ed827c2e-2887-43f8-bd08-159a5b4d17cb","ios":"levelo://app?vid=ed827c2e-2887-43f8-bd08-159a5b4d17cb"},"vehicle_type_id":"4","last_reported":1747404624,"current_range_meters":7200,"station_id":"ce4bgkh2rcd13ifvqbl0","pricing_plan_id":"cebpf4jnsgd1na2vs0mg"},{"bike_id":"e2654f5f-50b1-47a0-a19e-d122fd2b47a8","system_id":"levelo_inurba_marseille","lat":43.29193,"lon":5.39306,"is_reserved":false,"is_disabled":false,"rental_uris":{"android":"levelo://app?vid=e2654f5f-50b1-47a0-a19e-d122fd2b47a8","ios":"levelo://app?vid=e2654f5f-50b1-47a0-a19e-d122fd2b47a8"},"vehicle_type_id":"4","last_reported":1747404624,"current_range_meters":8000,"station_id":"ce4bh192rcd13ifvqdd0","pricing_plan_id":"cebpf4jnsgd1na2vs0mg"},{"bike_id":"2b825be8-5498-49b3-901b-e8cb824032f0","system_id":"levelo_inurba_marseille","lat":43.27812,"lon":5.40716,"is_reserved":false,"is_disabled":false,"rental_uris":{"android":"levelo://app?vid=2b825be8-5498-49b3-901b-e8cb824032f0","ios":"levelo://app?vid=2b825be8-5498-49b3-901b-e8cb824032f0"},"vehicle_type_id":"4","last_reported":1747404624,"current_range_meters":8000,"station_id":"ce4bhnh2rcd13ifvqgtg","pricing_plan_id":"cebpf4jnsgd1na2vs0mg"},{"bike_id":"dab0fddb-801d-4af3-b6b1-1c192fc14866","system_id":"levelo_inurba_marseille","lat":43.26559,"lon":5.37283,"is_reserved":false,"is_disabled":false,"rental_uris":{"android":"levelo://app?vid=dab0fddb-801d-4af3-b6b1-1c192fc14866","ios":"levelo://app?vid=dab0fddb-801d-4af3-b6b1-1c192fc14866"},"vehicle_type_id":"4","last_reported":1747404624,"current_range_meters":8000,"station_id":"ce4bhg12rcd13ifvqf70","pricing_plan_id":"cebpf4jnsgd1na2vs0mg"},{"bike_id":"0077f398-56b6-43bb-8eeb-9798d08de05c","system_id":"levelo_inurba_marseille","lat":43.30865,"lon":5.3735,"is_reserved":false,"is_disabled":false,"rental_uris":{"android":"levelo://app?vid=0077f398-56b6-43bb-8eeb-9798d08de05c","ios":"levelo://app?vid=0077f398-56b6-43bb-8eeb-9798d08de05c"},"vehicle_type_id":"4","last_reported":1747404624,"current_range_meters":8000,"station_id":"","pricing_plan_id":"cebpf4jnsgd1na2vs0mg"},{"bike_id":"a4254f33-dfdc-4beb-9ee4-21271a8a3aac","system_id":"levelo_inurba_marseille","lat":43.30418,"lon":5.4128,"is_reserved":false,"is_disabled":true,"rental_uris":{"android":"levelo://app?vid=a4254f33-dfdc-4beb-9ee4-21271a8a3aac","ios":"levelo://app?vid=a4254f33-dfdc-4beb-9ee4-21271a8a3aac"},"vehicle_type_id":"4","last_reported":1747404624,"current_range_meters":8000,"station_id":"ce4bhop2rcd13ifvqh8g","pricing_plan_id":"cebpf4jnsgd1na2vs0mg"},{"bike_id":"7406b058-a87f-44fc-a02f-c34c4694ffcd","system_id":"levelo_inurba_marseille","lat":43.32364,"lon":5.3889,"is_reserved":false,"is_disabled":false,"rental_uris":{"android":"levelo://app?vid=7406b058-a87f-44fc-a02f-c34c4694ffcd","ios":"levelo://app?vid=7406b058-a87f-44fc-a02f-c34c4694ffcd"},"vehicle_type_id":"4","last_reported":1747404624,"current_range_meters":8400,"station_id":"ce4bhqp2rcd13ifvqhog","pricing_plan_id":"cebpf4jnsgd1na2vs0mg"},{"bike_id":"74657633-d420-469f-891f-cd0a6f3f8ade","system_id":"levelo_inurba_marseille","lat":43.27493,"lon":5.42467,"is_reserved":false,"is_disabled":false,"rental_uris":{"android":"levelo://app?vid=74657633-d420-469f-891f-cd0a6f3f8ade","ios":"levelo://app?vid=74657633-d420-469f-891f-cd0a6f3f8ade"},"vehicle_type_id":"4","last_reported":1747404624,"current_range_meters":8400,"station_id":"ce4bhn92rcd13ifvqgrg","pricing_plan_id":"cebpf4jnsgd1na2vs0mg"},{"bike_id":"b3b2c2c8-40e8-4676-b5d4-5a16142d5255","system_id":"levelo_inurba_marseille","lat":43.2961,"lon":5.38095,"is_reserved":false,"is_disabled":false,"rental_uris":{"android":"levelo://app?vid=b3b2c2c8-40e8-4676-b5d4-5a16142d5255","ios":"levelo://app?vid=b3b2c2c8-40e8-4676-b5d4-5a16142d5255"},"vehicle_type_id":"4","last_reported":1747404624,"current_range_meters":8400,"station_id":"ce4bgl12rcd13ifvqbo0","pricing_plan_id":"cebpf4jnsgd1na2vs0mg"},{"bike_id":"f768f02c-a770-46ed-b9fb-ed1e435a3c0f","system_id":"levelo_inurba_marseille","lat":43.32942,"lon":5.3901,"is_reserved":false,"is_disabled":false,"rental_uris":{"android":"levelo://app?vid=f768f02c-a770-46ed-b9fb-ed1e435a3c0f","ios":"levelo://app?vid=f768f02c-a770-46ed-b9fb-ed1e435a3c0f"},"vehicle_type_id":"4","last_reported":1747404624,"current_range_meters":8400,"station_id":"","pricing_plan_id":"cebpf4jnsgd1na2vs0mg"},{"bike_id":"b89a24e6-5078-471a-88fa-2c70cdf078ca","system_id":"levelo_inurba_marseille","lat":43.31039,"lon":5.37525,"is_reserved":false,"is_disabled":false,"rental_uris":{"android":"levelo://app?vid=b89a24e6-5078-471a-88fa-2c70cdf078ca","ios":"levelo://app?vid=b89a24e6-5078-471a-88fa-2c70cdf078ca"},"vehicle_type_id":"4","last_reported":1747404624,"current_range_meters":8400,"station_id":"","pricing_plan_id":"cebpf4jnsgd1na2vs0mg"},{"bike_id":"1d8fa786-89e8-4de0-9b72-9ccbd0be82af","system_id":"levelo_inurba_marseille","lat":43.29593,"lon":5.36746,"is_reserved":false,"is_disabled":false,"rental_uris":{"android":"levelo://app?vid=1d8fa786-89e8-4de0-9b72-9ccbd0be82af","ios":"levelo://app?vid=1d8fa786-89e8-4de0-9b72-9ccbd0be82af"},"vehicle_type_id":"4","last_reported":1747404624,"current_range_meters":8400,"station_id":"ce4bgph2rcd13ifvqc2g","pricing_plan_id":"cebpf4jnsgd1na2vs0mg"},{"bike_id":"daf9a3bb-4071-4749-bb33-e8c1f272649b","system_id":"levelo_inurba_marseille","lat":43.24386,"lon":5.37053,"is_reserved":false,"is_disabled":false,"rental_uris":{"android":"levelo://app?vid=daf9a3bb-4071-4749-bb33-e8c1f272649b","ios":"levelo://app?vid=daf9a3bb-4071-4749-bb33-e8c1f272649b"},"vehicle_type_id":"4","last_reported":1747404624,"current_range_meters":8000,"station_id":"ce4bhhh2rcd13ifvqfk0","pricing_plan_id":"cebpf4jnsgd1na2vs0mg"},{"bike_id":"557ac5e6-b762-4cdc-957d-f6a8118329f1","system_id":"levelo_inurba_marseille","lat":43.25117,"lon":5.40316,"is_reserved":false,"is_disabled":false,"rental_uris":{"android":"levelo://app?vid=557ac5e6-b762-4cdc-957d-f6a8118329f1","ios":"levelo://app?vid=557ac5e6-b762-4cdc-957d-f6a8118329f1"},"vehicle_type_id":"4","last_reported":1747404624,"current_range_meters":8400,"station_id":"ce4bhlh2rcd13ifvqgig","pricing_plan_id":"cebpf4jnsgd1na2vs0mg"},{"bike_id":"3a6b43b1-a0cf-4721-9cba-759a3ccaf3a3","system_id":"levelo_inurba_marseille","lat":43.28154,"lon":5.42648,"is_reserved":false,"is_disabled":false,"rental_uris":{"android":"levelo://app?vid=3a6b43b1-a0cf-4721-9cba-759a3ccaf3a3","ios":"levelo://app?vid=3a6b43b1-a0cf-4721-9cba-759a3ccaf3a3"},"vehicle_type_id":"4","last_reported":1747404624,"current_range_meters":8400,"station_id":"ce4bhnh2rcd13ifvqgug","pricing_plan_id":"cebpf4jnsgd1na2vs0mg"},{"bike_id":"d4591ef4-8990-4497-b36a-a5c499d4e0cf","system_id":"levelo_inurba_marseille","lat":43.25722,"lon":5.41105,"is_reserved":false,"is_disabled":false,"rental_uris":{"android":"levelo://app?vid=d4591ef4-8990-4497-b36a-a5c499d4e0cf","ios":"levelo://app?vid=d4591ef4-8990-4497-b36a-a5c499d4e0cf"},"vehicle_type_id":"4","last_reported":1747404624,"current_range_meters":8400,"station_id":"ce4bhkp2rcd13ifvqgd0","pricing_plan_id":"cebpf4jnsgd1na2vs0mg"},{"bike_id":"345cffa0-29b1-4e14-91c8-8f581afe5ee4","system_id":"levelo_inurba_marseille","lat":43.2919,"lon":5.39299,"is_reserved":false,"is_disabled":true,"rental_uris":{"android":"levelo://app?vid=345cffa0-29b1-4e14-91c8-8f581afe5ee4","ios":"levelo://app?vid=345cffa0-29b1-4e14-91c8-8f581afe5ee4"},"vehicle_type_id":"4","last_reported":1747404624,"current_range_meters":8800,"station_id":"ce4bh192rcd13ifvqdd0","pricing_plan_id":"cebpf4jnsgd1na2vs0mg"},{"bike_id":"2377d1ea-b716-4e1d-b615-350b92fe8307","system_id":"levelo_inurba_marseille","lat":43.29896,"lon":5.43673,"is_reserved":false,"is_disabled":false,"rental_uris":{"android":"levelo://app?vid=2377d1ea-b716-4e1d-b615-350b92fe8307","ios":"levelo://app?vid=2377d1ea-b716-4e1d-b615-350b92fe8307"},"vehicle_type_id":"4","last_reported":1747404624,"current_range_meters":8800,"station_id":"ce4bhpp2rcd13ifvqhfg","pricing_plan_id":"cebpf4jnsgd1na2vs0mg"},{"bike_id":"9a8713c9-180d-4b0f-ae4d-1fcbfb855c93","system_id":"levelo_inurba_marseille","lat":43.24545,"lon":5.39518,"is_reserved":false,"is_disabled":false,"rental_uris":{"android":"levelo://app?vid=9a8713c9-180d-4b0f-ae4d-1fcbfb855c93","ios":"levelo://app?vid=9a8713c9-180d-4b0f-ae4d-1fcbfb855c93"},"vehicle_type_id":"4","last_reported":1747404624,"current_range_meters":8800,"station_id":"ce4bhlp2rcd13ifvqgjg","pricing_plan_id":"cebpf4jnsgd1na2vs0mg"},{"bike_id":"1e743fd3-ac89-4f31-9a0d-d2dda4f32d73","system_id":"levelo_inurba_marseille","lat":43.27839,"lon":5.39207,"is_reserved":false,"is_disabled":false,"rental_uris":{"android":"levelo://app?vid=1e743fd3-ac89-4f31-9a0d-d2dda4f32d73","ios":"levelo://app?vid=1e743fd3-ac89-4f31-9a0d-d2dda4f32d73"},"vehicle_type_id":"4","last_reported":1747404624,"current_range_meters":9200,"station_id":"ce4bhjp2rcd13ifvqga0","pricing_plan_id":"cebpf4jnsgd1na2vs0mg"},{"bike_id":"6d485413-0a5b-4296-862c-2c19c83ee78f","system_id":"levelo_inurba_marseille","lat":43.32337,"lon":5.40617,"is_reserved":false,"is_disabled":false,"rental_uris":{"android":"levelo://app?vid=6d485413-0a5b-4296-862c-2c19c83ee78f","ios":"levelo://app?vid=6d485413-0a5b-4296-862c-2c19c83ee78f"},"vehicle_type_id":"4","last_reported":1747404624,"current_range_meters":9200,"station_id":"ce4bhq92rcd13ifvqhjg","pricing_plan_id":"cebpf4jnsgd1na2vs0mg"},{"bike_id":"0e2483a0-39db-43a3-9686-cebab957bf4e","system_id":"levelo_inurba_marseille","lat":43.30534,"lon":5.38416,"is_reserved":false,"is_disabled":false,"rental_uris":{"android":"levelo://app?vid=0e2483a0-39db-43a3-9686-cebab957bf4e","ios":"levelo://app?vid=0e2483a0-39db-43a3-9686-cebab957bf4e"},"vehicle_type_id":"4","last_reported":1747404624,"current_range_meters":9200,"station_id":"ce4bgg92rcd13ifvqb30","pricing_plan_id":"cebpf4jnsgd1na2vs0mg"},{"bike_id":"55ce188e-53ef-454a-ad9b-c9b15692e3ec","system_id":"levelo_inurba_marseille","lat":43.279175,"lon":5.395761,"is_reserved":false,"is_disabled":false,"rental_uris":{"android":"levelo://app?vid=55ce188e-53ef-454a-ad9b-c9b15692e3ec","ios":"levelo://app?vid=55ce188e-53ef-454a-ad9b-c9b15692e3ec"},"vehicle_type_id":"4","last_reported":1747404624,"current_range_meters":9600,"station_id":"","pricing_plan_id":"cebpf4jnsgd1na2vs0mg"},{"bike_id":"d06a81f7-6bbe-4687-bfbe-932949dc466c","system_id":"levelo_inurba_marseille","lat":43.2612,"lon":5.38764,"is_reserved":false,"is_disabled":false,"rental_uris":{"android":"levelo://app?vid=d06a81f7-6bbe-4687-bfbe-932949dc466c","ios":"levelo://app?vid=d06a81f7-6bbe-4687-bfbe-932949dc466c"},"vehicle_type_id":"4","last_reported":1747404624,"current_range_meters":9200,"station_id":"","pricing_plan_id":"cebpf4jnsgd1na2vs0mg"},{"bike_id":"0d76b060-bc01-41a3-84ec-6911cba51042","system_id":"levelo_inurba_marseille","lat":43.28943,"lon":5.36639,"is_reserved":false,"is_disabled":false,"rental_uris":{"android":"levelo://app?vid=0d76b060-bc01-41a3-84ec-6911cba51042","ios":"levelo://app?vid=0d76b060-bc01-41a3-84ec-6911cba51042"},"vehicle_type_id":"4","last_reported":1747404624,"current_range_meters":9200,"station_id":"ce4bhap2rcd13ifvqek0","pricing_plan_id":"cebpf4jnsgd1na2vs0mg"},{"bike_id":"731a9541-e63f-4784-8ce0-04a1c5e7dc27","system_id":"levelo_inurba_marseille","lat":43.31221,"lon":5.36889,"is_reserved":false,"is_disabled":false,"rental_uris":{"android":"levelo://app?vid=731a9541-e63f-4784-8ce0-04a1c5e7dc27","ios":"levelo://app?vid=731a9541-e63f-4784-8ce0-04a1c5e7dc27"},"vehicle_type_id":"4","last_reported":1747404624,"current_range_meters":9200,"station_id":"ce4bgl92rcd13ifvqbq0","pricing_plan_id":"cebpf4jnsgd1na2vs0mg"},{"bike_id":"f8e4732a-2ecf-431c-8f66-abc7aabb8aa1","system_id":"levelo_inurba_marseille","lat":43.32954,"lon":5.39012,"is_reserved":false,"is_disabled":false,"rental_uris":{"android":"levelo://app?vid=f8e4732a-2ecf-431c-8f66-abc7aabb8aa1","ios":"levelo://app?vid=f8e4732a-2ecf-431c-8f66-abc7aabb8aa1"},"vehicle_type_id":"4","last_reported":1747404624,"current_range_meters":9200,"station_id":"","pricing_plan_id":"cebpf4jnsgd1na2vs0mg"},{"bike_id":"99ced86d-1bad-4245-8060-1def96be9ff7","system_id":"levelo_inurba_marseille","lat":43.2621,"lon":5.37454,"is_reserved":false,"is_disabled":false,"rental_uris":{"android":"levelo://app?vid=99ced86d-1bad-4245-8060-1def96be9ff7","ios":"levelo://app?vid=99ced86d-1bad-4245-8060-1def96be9ff7"},"vehicle_type_id":"4","last_reported":1747404624,"current_range_meters":9200,"station_id":"ce4bhgp2rcd13ifvqfc0","pricing_plan_id":"cebpf4jnsgd1na2vs0mg"},{"bike_id":"fbf701dc-cef9-4f6b-b1c3-88491ac96d87","system_id":"levelo_inurba_marseille","lat":43.30098,"lon":5.39078,"is_reserved":false,"is_disabled":false,"rental_uris":{"android":"levelo://app?vid=fbf701dc-cef9-4f6b-b1c3-88491ac96d87","ios":"levelo://app?vid=fbf701dc-cef9-4f6b-b1c3-88491ac96d87"},"vehicle_type_id":"4","last_reported":1747404624,"current_range_meters":9600,"station_id":"ce4bh192rcd13ifvqdb0","pricing_plan_id":"cebpf4jnsgd1na2vs0mg"},{"bike_id":"40334021-3151-4e16-bc8c-22d031f251f5","system_id":"levelo_inurba_marseille","lat":43.29531,"lon":5.38546,"is_reserved":false,"is_disabled":false,"rental_uris":{"android":"levelo://app?vid=40334021-3151-4e16-bc8c-22d031f251f5","ios":"levelo://app?vid=40334021-3151-4e16-bc8c-22d031f251f5"},"vehicle_type_id":"4","last_reported":1747404624,"current_range_meters":9200,"station_id":"ce4bgih2rcd13ifvqba0","pricing_plan_id":"cebpf4jnsgd1na2vs0mg"},{"bike_id":"1ef9f933-fa35-40c6-8e51-1047568d92c0","system_id":"levelo_inurba_marseille","lat":43.24671,"lon":5.38173,"is_reserved":false,"is_disabled":false,"rental_uris":{"android":"levelo://app?vid=1ef9f933-fa35-40c6-8e51-1047568d92c0","ios":"levelo://app?vid=1ef9f933-fa35-40c6-8e51-1047568d92c0"},"vehicle_type_id":"4","last_reported":1747404624,"current_range_meters":9600,"station_id":"ce4bhih2rcd13ifvqfr0","pricing_plan_id":"cebpf4jnsgd1na2vs0mg"},{"bike_id":"e1625b5c-c3e3-4683-a929-8489f6765f6e","system_id":"levelo_inurba_marseille","lat":43.30143,"lon":5.37427,"is_reserved":false,"is_disabled":false,"rental_uris":{"android":"levelo://app?vid=e1625b5c-c3e3-4683-a929-8489f6765f6e","ios":"levelo://app?vid=e1625b5c-c3e3-4683-a929-8489f6765f6e"},"vehicle_type_id":"4","last_reported":1747404624,"current_range_meters":9600,"station_id":"ce4bgs92rcd13ifvqcc0","pricing_plan_id":"cebpf4jnsgd1na2vs0mg"},{"bike_id":"bacd5098-f3af-4944-a479-d4f5151aec8f","system_id":"levelo_inurba_marseille","lat":43.28157,"lon":5.42648,"is_reserved":false,"is_disabled":false,"rental_uris":{"android":"levelo://app?vid=bacd5098-f3af-4944-a479-d4f5151aec8f","ios":"levelo://app?vid=bacd5098-f3af-4944-a479-d4f5151aec8f"},"vehicle_type_id":"4","last_reported":1747404624,"current_range_meters":9600,"station_id":"ce4bhnh2rcd13ifvqgug","pricing_plan_id":"cebpf4jnsgd1na2vs0mg"},{"bike_id":"e64e4484-2db6-41f4-beb8-e0c0ae1263cd","system_id":"levelo_inurba_marseille","lat":43.285216,"lon":5.430318,"is_reserved":false,"is_disabled":false,"rental_uris":{"android":"levelo://app?vid=e64e4484-2db6-41f4-beb8-e0c0ae1263cd","ios":"levelo://app?vid=e64e4484-2db6-41f4-beb8-e0c0ae1263cd"},"vehicle_type_id":"4","last_reported":1747404624,"current_range_meters":9600,"station_id":"","pricing_plan_id":"cebpf4jnsgd1na2vs0mg"},{"bike_id":"c23ae35a-538b-4c5f-b1ae-cb1e68cb9a3c","system_id":"levelo_inurba_marseille","lat":43.29601,"lon":5.38093,"is_reserved":false,"is_disabled":false,"rental_uris":{"android":"levelo://app?vid=c23ae35a-538b-4c5f-b1ae-cb1e68cb9a3c","ios":"levelo://app?vid=c23ae35a-538b-4c5f-b1ae-cb1e68cb9a3c"},"vehicle_type_id":"4","last_reported":1747404624,"current_range_meters":9200,"station_id":"ce4bgl12rcd13ifvqbo0","pricing_plan_id":"cebpf4jnsgd1na2vs0mg"},{"bike_id":"08312611-bdcb-4e8a-88ba-f8659101163a","system_id":"levelo_inurba_marseille","lat":43.26553,"lon":5.37299,"is_reserved":false,"is_disabled":false,"rental_uris":{"android":"levelo://app?vid=08312611-bdcb-4e8a-88ba-f8659101163a","ios":"levelo://app?vid=08312611-bdcb-4e8a-88ba-f8659101163a"},"vehicle_type_id":"4","last_reported":1747404624,"current_range_meters":9600,"station_id":"ce4bhg12rcd13ifvqf70","pricing_plan_id":"cebpf4jnsgd1na2vs0mg"},{"bike_id":"730ed2fb-2456-410d-97d4-adf6ae338729","system_id":"levelo_inurba_marseille","lat":43.28663,"lon":5.36348,"is_reserved":false,"is_disabled":false,"rental_uris":{"android":"levelo://app?vid=730ed2fb-2456-410d-97d4-adf6ae338729","ios":"levelo://app?vid=730ed2fb-2456-410d-97d4-adf6ae338729"},"vehicle_type_id":"4","last_reported":1747404624,"current_range_meters":9600,"station_id":"ce4bhah2rcd13ifvqej0","pricing_plan_id":"cebpf4jnsgd1na2vs0mg"},{"bike_id":"f25c08bf-ad60-46e6-bfa1-8ce8fb5537de","system_id":"levelo_inurba_marseille","lat":43.28693,"lon":5.38639,"is_reserved":false,"is_disabled":false,"rental_uris":{"android":"levelo://app?vid=f25c08bf-ad60-46e6-bfa1-8ce8fb5537de","ios":"levelo://app?vid=f25c08bf-ad60-46e6-bfa1-8ce8fb5537de"},"vehicle_type_id":"4","last_reported":1747404624,"current_range_meters":9600,"station_id":"ce4bh492rcd13ifvqdug","pricing_plan_id":"cebpf4jnsgd1na2vs0mg"},{"bike_id":"c0b9fd4f-e181-46ce-b0bf-f5119973334f","system_id":"levelo_inurba_marseille","lat":43.33771,"lon":5.37424,"is_reserved":false,"is_disabled":false,"rental_uris":{"android":"levelo://app?vid=c0b9fd4f-e181-46ce-b0bf-f5119973334f","ios":"levelo://app?vid=c0b9fd4f-e181-46ce-b0bf-f5119973334f"},"vehicle_type_id":"4","last_reported":1747404624,"current_range_meters":9600,"station_id":"","pricing_plan_id":"cebpf4jnsgd1na2vs0mg"},{"bike_id":"02ae308c-3e2f-4244-97e6-2cea4b443d1a","system_id":"levelo_inurba_marseille","lat":43.31081,"lon":5.42427,"is_reserved":false,"is_disabled":false,"rental_uris":{"android":"levelo://app?vid=02ae308c-3e2f-4244-97e6-2cea4b443d1a","ios":"levelo://app?vid=02ae308c-3e2f-4244-97e6-2cea4b443d1a"},"vehicle_type_id":"4","last_reported":1747404624,"current_range_meters":10000,"station_id":"ce4bhp92rcd13ifvqhag","pricing_plan_id":"cebpf4jnsgd1na2vs0mg"},{"bike_id":"d3c79810-b74f-4196-810c-899958e3bb49","system_id":"levelo_inurba_marseille","lat":43.27616,"lon":5.36113,"is_reserved":false,"is_disabled":false,"rental_uris":{"android":"levelo://app?vid=d3c79810-b74f-4196-810c-899958e3bb49","ios":"levelo://app?vid=d3c79810-b74f-4196-810c-899958e3bb49"},"vehicle_type_id":"4","last_reported":1747404624,"current_range_meters":10000,"station_id":"ce4bgj92rcd13ifvqbe0","pricing_plan_id":"cebpf4jnsgd1na2vs0mg"},{"bike_id":"ecbd0f9b-6917-40a1-9e9c-6c0a85ea4e89","system_id":"levelo_inurba_marseille","lat":43.29103,"lon":5.38122,"is_reserved":false,"is_disabled":false,"rental_uris":{"android":"levelo://app?vid=ecbd0f9b-6917-40a1-9e9c-6c0a85ea4e89","ios":"levelo://app?vid=ecbd0f9b-6917-40a1-9e9c-6c0a85ea4e89"},"vehicle_type_id":"4","last_reported":1747404624,"current_range_meters":9600,"station_id":"ce4bh512rcd13ifvqe2g","pricing_plan_id":"cebpf4jnsgd1na2vs0mg"},{"bike_id":"977311a5-885f-4d99-bd61-55e705be9595","system_id":"levelo_inurba_marseille","lat":43.29571,"lon":5.39985,"is_reserved":false,"is_disabled":false,"rental_uris":{"android":"levelo://app?vid=977311a5-885f-4d99-bd61-55e705be9595","ios":"levelo://app?vid=977311a5-885f-4d99-bd61-55e705be9595"},"vehicle_type_id":"4","last_reported":1747404624,"current_range_meters":10000,"station_id":"ce4bh312rcd13ifvqdj0","pricing_plan_id":"cebpf4jnsgd1na2vs0mg"},{"bike_id":"dae37c6b-1623-468e-b72e-3b8ec8167397","system_id":"levelo_inurba_marseille","lat":43.28944,"lon":5.36396,"is_reserved":false,"is_disabled":false,"rental_uris":{"android":"levelo://app?vid=dae37c6b-1623-468e-b72e-3b8ec8167397","ios":"levelo://app?vid=dae37c6b-1623-468e-b72e-3b8ec8167397"},"vehicle_type_id":"4","last_reported":1747404624,"current_range_meters":10000,"station_id":"ce4bhc92rcd13ifvqetg","pricing_plan_id":"cebpf4jnsgd1na2vs0mg"},{"bike_id":"38a58595-5d9e-4cd6-b6f2-b9c2ab7f15d2","system_id":"levelo_inurba_marseille","lat":43.29968,"lon":5.38491,"is_reserved":false,"is_disabled":false,"rental_uris":{"android":"levelo://app?vid=38a58595-5d9e-4cd6-b6f2-b9c2ab7f15d2","ios":"levelo://app?vid=38a58595-5d9e-4cd6-b6f2-b9c2ab7f15d2"},"vehicle_type_id":"4","last_reported":1747404624,"current_range_meters":9600,"station_id":"ce4bgj92rcd13ifvqbd0","pricing_plan_id":"cebpf4jnsgd1na2vs0mg"},{"bike_id":"e6800d76-53cc-4bfc-8e60-5700ad995500","system_id":"levelo_inurba_marseille","lat":43.301899,"lon":5.366135,"is_reserved":false,"is_disabled":false,"rental_uris":{"android":"levelo://app?vid=e6800d76-53cc-4bfc-8e60-5700ad995500","ios":"levelo://app?vid=e6800d76-53cc-4bfc-8e60-5700ad995500"},"vehicle_type_id":"4","last_reported":1747404624,"current_range_meters":10000,"station_id":"ce4bgrh2rcd13ifvqc8g","pricing_plan_id":"cebpf4jnsgd1na2vs0mg"},{"bike_id":"4e8dd515-6f7b-4dda-aada-0ce07174a50c","system_id":"levelo_inurba_marseille","lat":43.30306,"lon":5.39212,"is_reserved":false,"is_disabled":false,"rental_uris":{"android":"levelo://app?vid=4e8dd515-6f7b-4dda-aada-0ce07174a50c","ios":"levelo://app?vid=4e8dd515-6f7b-4dda-aada-0ce07174a50c"},"vehicle_type_id":"4","last_reported":1747404624,"current_range_meters":9600,"station_id":"ce4bgkh2rcd13ifvqbk0","pricing_plan_id":"cebpf4jnsgd1na2vs0mg"},{"bike_id":"39c7c348-baf3-417a-8df3-30f456f5c866","system_id":"levelo_inurba_marseille","lat":43.321096,"lon":5.367739,"is_reserved":false,"is_disabled":false,"rental_uris":{"android":"levelo://app?vid=39c7c348-baf3-417a-8df3-30f456f5c866","ios":"levelo://app?vid=39c7c348-baf3-417a-8df3-30f456f5c866"},"vehicle_type_id":"4","last_reported":1747404624,"current_range_meters":10800,"station_id":"ce4bhrh2rcd13ifvqhug","pricing_plan_id":"cebpf4jnsgd1na2vs0mg"},{"bike_id":"a488853e-8708-42f9-a9f1-40f4dc62e03d","system_id":"levelo_inurba_marseille","lat":43.30549,"lon":5.3734,"is_reserved":false,"is_disabled":false,"rental_uris":{"android":"levelo://app?vid=a488853e-8708-42f9-a9f1-40f4dc62e03d","ios":"levelo://app?vid=a488853e-8708-42f9-a9f1-40f4dc62e03d"},"vehicle_type_id":"4","last_reported":1747404624,"current_range_meters":10800,"station_id":"","pricing_plan_id":"cebpf4jnsgd1na2vs0mg"},{"bike_id":"b0a37e81-adb9-4922-bf5b-b6b0fec249b8","system_id":"levelo_inurba_marseille","lat":43.33412,"lon":5.40042,"is_reserved":false,"is_disabled":false,"rental_uris":{"android":"levelo://app?vid=b0a37e81-adb9-4922-bf5b-b6b0fec249b8","ios":"levelo://app?vid=b0a37e81-adb9-4922-bf5b-b6b0fec249b8"},"vehicle_type_id":"4","last_reported":1747404624,"current_range_meters":10800,"station_id":"","pricing_plan_id":"cebpf4jnsgd1na2vs0mg"},{"bike_id":"daa5118f-6e7e-4980-91b0-e723e4de0646","system_id":"levelo_inurba_marseille","lat":43.28572,"lon":5.39498,"is_reserved":false,"is_disabled":false,"rental_uris":{"android":"levelo://app?vid=daa5118f-6e7e-4980-91b0-e723e4de0646","ios":"levelo://app?vid=daa5118f-6e7e-4980-91b0-e723e4de0646"},"vehicle_type_id":"4","last_reported":1747404624,"current_range_meters":11200,"station_id":"ce4bh292rcd13ifvqdg0","pricing_plan_id":"cebpf4jnsgd1na2vs0mg"},{"bike_id":"90e0ccca-f356-4258-b378-3452eef8d125","system_id":"levelo_inurba_marseille","lat":43.26211,"lon":5.37448,"is_reserved":false,"is_disabled":false,"rental_uris":{"android":"levelo://app?vid=90e0ccca-f356-4258-b378-3452eef8d125","ios":"levelo://app?vid=90e0ccca-f356-4258-b378-3452eef8d125"},"vehicle_type_id":"4","last_reported":1747404624,"current_range_meters":11200,"station_id":"ce4bhgp2rcd13ifvqfc0","pricing_plan_id":"cebpf4jnsgd1na2vs0mg"},{"bike_id":"3b890833-daa7-4bae-b7a0-8b1637bd75f6","system_id":"levelo_inurba_marseille","lat":43.26119,"lon":5.414707,"is_reserved":false,"is_disabled":false,"rental_uris":{"android":"levelo://app?vid=3b890833-daa7-4bae-b7a0-8b1637bd75f6","ios":"levelo://app?vid=3b890833-daa7-4bae-b7a0-8b1637bd75f6"},"vehicle_type_id":"4","last_reported":1747404624,"current_range_meters":11200,"station_id":"","pricing_plan_id":"cebpf4jnsgd1na2vs0mg"},{"bike_id":"0600ed6e-9cee-4572-a2dc-0a9c92a9ec3d","system_id":"levelo_inurba_marseille","lat":43.25585,"lon":5.38238,"is_reserved":false,"is_disabled":false,"rental_uris":{"android":"levelo://app?vid=0600ed6e-9cee-4572-a2dc-0a9c92a9ec3d","ios":"levelo://app?vid=0600ed6e-9cee-4572-a2dc-0a9c92a9ec3d"},"vehicle_type_id":"4","last_reported":1747404624,"current_range_meters":11200,"station_id":"ce4bhih2rcd13ifvqfs0","pricing_plan_id":"cebpf4jnsgd1na2vs0mg"},{"bike_id":"95b117cb-ae1c-461b-b89a-333124734f9c","system_id":"levelo_inurba_marseille","lat":43.31365,"lon":5.38495,"is_reserved":false,"is_disabled":false,"rental_uris":{"android":"levelo://app?vid=95b117cb-ae1c-461b-b89a-333124734f9c","ios":"levelo://app?vid=95b117cb-ae1c-461b-b89a-333124734f9c"},"vehicle_type_id":"4","last_reported":1747404624,"current_range_meters":11200,"station_id":"ce4bgt92rcd13ifvqcf0","pricing_plan_id":"cebpf4jnsgd1na2vs0mg"},{"bike_id":"a1c4178e-3aca-43b4-882a-2d393377219e","system_id":"levelo_inurba_marseille","lat":43.27174,"lon":5.41003,"is_reserved":false,"is_disabled":false,"rental_uris":{"android":"levelo://app?vid=a1c4178e-3aca-43b4-882a-2d393377219e","ios":"levelo://app?vid=a1c4178e-3aca-43b4-882a-2d393377219e"},"vehicle_type_id":"4","last_reported":1747404624,"current_range_meters":11200,"station_id":"ce4bhl12rcd13ifvqgf0","pricing_plan_id":"cebpf4jnsgd1na2vs0mg"},{"bike_id":"6d886103-344e-431a-ac80-7f62879d2f7c","system_id":"levelo_inurba_marseille","lat":43.22925,"lon":5.35377,"is_reserved":false,"is_disabled":false,"rental_uris":{"android":"levelo://app?vid=6d886103-344e-431a-ac80-7f62879d2f7c","ios":"levelo://app?vid=6d886103-344e-431a-ac80-7f62879d2f7c"},"vehicle_type_id":"4","last_reported":1747404624,"current_range_meters":11600,"station_id":"cpo3532slgdg3j2ikp40","pricing_plan_id":"cebpf4jnsgd1na2vs0mg"},{"bike_id":"ffaabd9b-c32c-424e-a800-d8bcb919d448","system_id":"levelo_inurba_marseille","lat":43.27567,"lon":5.38419,"is_reserved":false,"is_disabled":false,"rental_uris":{"android":"levelo://app?vid=ffaabd9b-c32c-424e-a800-d8bcb919d448","ios":"levelo://app?vid=ffaabd9b-c32c-424e-a800-d8bcb919d448"},"vehicle_type_id":"4","last_reported":1747404624,"current_range_meters":11200,"station_id":"ce4bhh92rcd13ifvqfi0","pricing_plan_id":"cebpf4jnsgd1na2vs0mg"},{"bike_id":"069861d6-2772-4672-8c53-85152ee7a5ed","system_id":"levelo_inurba_marseille","lat":43.27376,"lon":5.36256,"is_reserved":false,"is_disabled":false,"rental_uris":{"android":"levelo://app?vid=069861d6-2772-4672-8c53-85152ee7a5ed","ios":"levelo://app?vid=069861d6-2772-4672-8c53-85152ee7a5ed"},"vehicle_type_id":"4","last_reported":1747404624,"current_range_meters":11600,"station_id":"ce4bhbh2rcd13ifvqeo0","pricing_plan_id":"cebpf4jnsgd1na2vs0mg"},{"bike_id":"d2a5fbeb-8b04-458d-95aa-219fbd34efae","system_id":"levelo_inurba_marseille","lat":43.28697,"lon":5.39981,"is_reserved":false,"is_disabled":false,"rental_uris":{"android":"levelo://app?vid=d2a5fbeb-8b04-458d-95aa-219fbd34efae","ios":"levelo://app?vid=d2a5fbeb-8b04-458d-95aa-219fbd34efae"},"vehicle_type_id":"4","last_reported":1747404624,"current_range_meters":11600,"station_id":"ce4bho92rcd13ifvqh3g","pricing_plan_id":"cebpf4jnsgd1na2vs0mg"},{"bike_id":"240aa8d0-4b03-423e-bb58-2fa786bb9aa7","system_id":"levelo_inurba_marseille","lat":43.28701,"lon":5.39991,"is_reserved":false,"is_disabled":false,"rental_uris":{"android":"levelo://app?vid=240aa8d0-4b03-423e-bb58-2fa786bb9aa7","ios":"levelo://app?vid=240aa8d0-4b03-423e-bb58-2fa786bb9aa7"},"vehicle_type_id":"4","last_reported":1747404624,"current_range_meters":11200,"station_id":"ce4bho92rcd13ifvqh3g","pricing_plan_id":"cebpf4jnsgd1na2vs0mg"},{"bike_id":"2a2dcf18-72b8-4846-a18b-e15c98e9a59d","system_id":"levelo_inurba_marseille","lat":43.301268,"lon":5.398609,"is_reserved":false,"is_disabled":false,"rental_uris":{"android":"levelo://app?vid=2a2dcf18-72b8-4846-a18b-e15c98e9a59d","ios":"levelo://app?vid=2a2dcf18-72b8-4846-a18b-e15c98e9a59d"},"vehicle_type_id":"4","last_reported":1747404624,"current_range_meters":12000,"station_id":"ce4bh0h2rcd13ifvqd40","pricing_plan_id":"cebpf4jnsgd1na2vs0mg"},{"bike_id":"3dde6bff-c456-4dce-ba3b-9b0bfbe6e942","system_id":"levelo_inurba_marseille","lat":43.3065,"lon":5.40088,"is_reserved":false,"is_disabled":false,"rental_uris":{"android":"levelo://app?vid=3dde6bff-c456-4dce-ba3b-9b0bfbe6e942","ios":"levelo://app?vid=3dde6bff-c456-4dce-ba3b-9b0bfbe6e942"},"vehicle_type_id":"4","last_reported":1747404624,"current_range_meters":11600,"station_id":"ce4bh112rcd13ifvqda0","pricing_plan_id":"cebpf4jnsgd1na2vs0mg"},{"bike_id":"a12ce63f-e089-487a-88c8-57eae2ec45dc","system_id":"levelo_inurba_marseille","lat":43.28043,"lon":5.36937,"is_reserved":false,"is_disabled":false,"rental_uris":{"android":"levelo://app?vid=a12ce63f-e089-487a-88c8-57eae2ec45dc","ios":"levelo://app?vid=a12ce63f-e089-487a-88c8-57eae2ec45dc"},"vehicle_type_id":"4","last_reported":1747404624,"current_range_meters":12000,"station_id":"ce4bha12rcd13ifvqef0","pricing_plan_id":"cebpf4jnsgd1na2vs0mg"},{"bike_id":"11d6e0d6-6d28-4a3c-9339-df07ee32ed84","system_id":"levelo_inurba_marseille","lat":43.29884,"lon":5.38901,"is_reserved":false,"is_disabled":false,"rental_uris":{"android":"levelo://app?vid=11d6e0d6-6d28-4a3c-9339-df07ee32ed84","ios":"levelo://app?vid=11d6e0d6-6d28-4a3c-9339-df07ee32ed84"},"vehicle_type_id":"4","last_reported":1747404624,"current_range_meters":11600,"station_id":"ce4bh392rcd13ifvqdl0","pricing_plan_id":"cebpf4jnsgd1na2vs0mg"},{"bike_id":"a9c086ff-d78c-4325-b6fe-ddc371682ced","system_id":"levelo_inurba_marseille","lat":43.24072,"lon":5.37761,"is_reserved":false,"is_disabled":false,"rental_uris":{"android":"levelo://app?vid=a9c086ff-d78c-4325-b6fe-ddc371682ced","ios":"levelo://app?vid=a9c086ff-d78c-4325-b6fe-ddc371682ced"},"vehicle_type_id":"4","last_reported":1747404624,"current_range_meters":12000,"station_id":"ce4bhnp2rcd13ifvqgvg","pricing_plan_id":"cebpf4jnsgd1na2vs0mg"},{"bike_id":"b44137a3-7413-44a7-af2c-fce4c057ecb7","system_id":"levelo_inurba_marseille","lat":43.27642,"lon":5.38913,"is_reserved":false,"is_disabled":false,"rental_uris":{"android":"levelo://app?vid=b44137a3-7413-44a7-af2c-fce4c057ecb7","ios":"levelo://app?vid=b44137a3-7413-44a7-af2c-fce4c057ecb7"},"vehicle_type_id":"4","last_reported":1747404624,"current_range_meters":12000,"station_id":"ce4bhi12rcd13ifvqfo0","pricing_plan_id":"cebpf4jnsgd1na2vs0mg"},{"bike_id":"765e0cfb-c888-4327-a53d-5a7e4b9b7d45","system_id":"levelo_inurba_marseille","lat":43.31351,"lon":5.36703,"is_reserved":false,"is_disabled":false,"rental_uris":{"android":"levelo://app?vid=765e0cfb-c888-4327-a53d-5a7e4b9b7d45","ios":"levelo://app?vid=765e0cfb-c888-4327-a53d-5a7e4b9b7d45"},"vehicle_type_id":"4","last_reported":1747404624,"current_range_meters":12000,"station_id":"ce4bgr92rcd13ifvqc6g","pricing_plan_id":"cebpf4jnsgd1na2vs0mg"},{"bike_id":"d25849a1-b300-46e6-bdc6-3bda23c00190","system_id":"levelo_inurba_marseille","lat":43.30412,"lon":5.41289,"is_reserved":false,"is_disabled":false,"rental_uris":{"android":"levelo://app?vid=d25849a1-b300-46e6-bdc6-3bda23c00190","ios":"levelo://app?vid=d25849a1-b300-46e6-bdc6-3bda23c00190"},"vehicle_type_id":"4","last_reported":1747404624,"current_range_meters":12000,"station_id":"ce4bhop2rcd13ifvqh8g","pricing_plan_id":"cebpf4jnsgd1na2vs0mg"},{"bike_id":"cccc096f-7caf-4736-a932-72006f71ea0f","system_id":"levelo_inurba_marseille","lat":43.28944,"lon":5.36638,"is_reserved":false,"is_disabled":false,"rental_uris":{"android":"levelo://app?vid=cccc096f-7caf-4736-a932-72006f71ea0f","ios":"levelo://app?vid=cccc096f-7caf-4736-a932-72006f71ea0f"},"vehicle_type_id":"4","last_reported":1747404624,"current_range_meters":12400,"station_id":"ce4bhap2rcd13ifvqek0","pricing_plan_id":"cebpf4jnsgd1na2vs0mg"},{"bike_id":"1d984c80-3259-414d-8e8c-83cce68ae80d","system_id":"levelo_inurba_marseille","lat":43.27938,"lon":5.41063,"is_reserved":false,"is_disabled":false,"rental_uris":{"android":"levelo://app?vid=1d984c80-3259-414d-8e8c-83cce68ae80d","ios":"levelo://app?vid=1d984c80-3259-414d-8e8c-83cce68ae80d"},"vehicle_type_id":"4","last_reported":1747404624,"current_range_meters":12400,"station_id":"ce4bhnp2rcd13ifvqh0g","pricing_plan_id":"cebpf4jnsgd1na2vs0mg"},{"bike_id":"a7edb141-b4df-4c7b-97a2-4a9acfc7aa8a","system_id":"levelo_inurba_marseille","lat":43.29111,"lon":5.38135,"is_reserved":false,"is_disabled":false,"rental_uris":{"android":"levelo://app?vid=a7edb141-b4df-4c7b-97a2-4a9acfc7aa8a","ios":"levelo://app?vid=a7edb141-b4df-4c7b-97a2-4a9acfc7aa8a"},"vehicle_type_id":"4","last_reported":1747404624,"current_range_meters":12400,"station_id":"ce4bh512rcd13ifvqe2g","pricing_plan_id":"cebpf4jnsgd1na2vs0mg"},{"bike_id":"2e709942-6161-4f1a-8c47-c5a2fddaa387","system_id":"levelo_inurba_marseille","lat":43.2748,"lon":5.42439,"is_reserved":false,"is_disabled":false,"rental_uris":{"android":"levelo://app?vid=2e709942-6161-4f1a-8c47-c5a2fddaa387","ios":"levelo://app?vid=2e709942-6161-4f1a-8c47-c5a2fddaa387"},"vehicle_type_id":"4","last_reported":1747404624,"current_range_meters":12400,"station_id":"ce4bhn92rcd13ifvqgrg","pricing_plan_id":"cebpf4jnsgd1na2vs0mg"},{"bike_id":"5cf74a5b-3237-4306-8708-835ce896cf40","system_id":"levelo_inurba_marseille","lat":43.319943,"lon":5.381537,"is_reserved":false,"is_disabled":false,"rental_uris":{"android":"levelo://app?vid=5cf74a5b-3237-4306-8708-835ce896cf40","ios":"levelo://app?vid=5cf74a5b-3237-4306-8708-835ce896cf40"},"vehicle_type_id":"4","last_reported":1747404624,"current_range_meters":12400,"station_id":"ce4bhr12rcd13ifvqhpg","pricing_plan_id":"cebpf4jnsgd1na2vs0mg"},{"bike_id":"8352cc2f-0fea-4748-9112-a15cc9e0d7cd","system_id":"levelo_inurba_marseille","lat":43.292,"lon":5.39311,"is_reserved":false,"is_disabled":false,"rental_uris":{"android":"levelo://app?vid=8352cc2f-0fea-4748-9112-a15cc9e0d7cd","ios":"levelo://app?vid=8352cc2f-0fea-4748-9112-a15cc9e0d7cd"},"vehicle_type_id":"4","last_reported":1747404624,"current_range_meters":12400,"station_id":"ce4bh192rcd13ifvqdd0","pricing_plan_id":"cebpf4jnsgd1na2vs0mg"},{"bike_id":"f7c31dd2-47f7-46c3-a769-ecda17b690c7","system_id":"levelo_inurba_marseille","lat":43.313636,"lon":5.367148,"is_reserved":false,"is_disabled":true,"rental_uris":{"android":"levelo://app?vid=f7c31dd2-47f7-46c3-a769-ecda17b690c7","ios":"levelo://app?vid=f7c31dd2-47f7-46c3-a769-ecda17b690c7"},"vehicle_type_id":"4","last_reported":1747404624,"current_range_meters":12800,"station_id":"ce4bgr92rcd13ifvqc6g","pricing_plan_id":"cebpf4jnsgd1na2vs0mg"},{"bike_id":"f58969f0-4285-4e21-8277-b68bd019a47e","system_id":"levelo_inurba_marseille","lat":43.29274,"lon":5.38448,"is_reserved":false,"is_disabled":false,"rental_uris":{"android":"levelo://app?vid=f58969f0-4285-4e21-8277-b68bd019a47e","ios":"levelo://app?vid=f58969f0-4285-4e21-8277-b68bd019a47e"},"vehicle_type_id":"4","last_reported":1747404624,"current_range_meters":12800,"station_id":"ce4bh692rcd13ifvqea0","pricing_plan_id":"cebpf4jnsgd1na2vs0mg"},{"bike_id":"adcf473f-d6cb-4cbd-9d65-859f781a96a2","system_id":"levelo_inurba_marseille","lat":43.3154,"lon":5.38036,"is_reserved":false,"is_disabled":false,"rental_uris":{"android":"levelo://app?vid=adcf473f-d6cb-4cbd-9d65-859f781a96a2","ios":"levelo://app?vid=adcf473f-d6cb-4cbd-9d65-859f781a96a2"},"vehicle_type_id":"4","last_reported":1747404624,"current_range_meters":12800,"station_id":"ce4bhsp2rcd13ifvqi50","pricing_plan_id":"cebpf4jnsgd1na2vs0mg"},{"bike_id":"8f8bac68-149d-4934-82d5-2132c1414309","system_id":"levelo_inurba_marseille","lat":43.26207,"lon":5.37926,"is_reserved":false,"is_disabled":false,"rental_uris":{"android":"levelo://app?vid=8f8bac68-149d-4934-82d5-2132c1414309","ios":"levelo://app?vid=8f8bac68-149d-4934-82d5-2132c1414309"},"vehicle_type_id":"4","last_reported":1747404624,"current_range_meters":12800,"station_id":"ce4bhjp2rcd13ifvqg90","pricing_plan_id":"cebpf4jnsgd1na2vs0mg"},{"bike_id":"daa14602-7e7d-4c39-aaed-d706317996f2","system_id":"levelo_inurba_marseille","lat":43.3117,"lon":5.38723,"is_reserved":false,"is_disabled":false,"rental_uris":{"android":"levelo://app?vid=daa14602-7e7d-4c39-aaed-d706317996f2","ios":"levelo://app?vid=daa14602-7e7d-4c39-aaed-d706317996f2"},"vehicle_type_id":"4","last_reported":1747404624,"current_range_meters":12400,"station_id":"","pricing_plan_id":"cebpf4jnsgd1na2vs0mg"},{"bike_id":"aaafdbf4-2564-4994-962f-807c25bd3ec2","system_id":"levelo_inurba_marseille","lat":43.301441,"lon":5.380716,"is_reserved":false,"is_disabled":false,"rental_uris":{"android":"levelo://app?vid=aaafdbf4-2564-4994-962f-807c25bd3ec2","ios":"levelo://app?vid=aaafdbf4-2564-4994-962f-807c25bd3ec2"},"vehicle_type_id":"4","last_reported":1747404624,"current_range_meters":13600,"station_id":"ce4bgjp2rcd13ifvqbh0","pricing_plan_id":"cebpf4jnsgd1na2vs0mg"},{"bike_id":"10a9024f-1054-42ff-9ce7-f5d21f4e6075","system_id":"levelo_inurba_marseille","lat":43.2929,"lon":5.37469,"is_reserved":false,"is_disabled":false,"rental_uris":{"android":"levelo://app?vid=10a9024f-1054-42ff-9ce7-f5d21f4e6075","ios":"levelo://app?vid=10a9024f-1054-42ff-9ce7-f5d21f4e6075"},"vehicle_type_id":"4","last_reported":1747404624,"current_range_meters":14000,"station_id":"ce4bgi12rcd13ifvqb70","pricing_plan_id":"cebpf4jnsgd1na2vs0mg"},{"bike_id":"4c50a1f4-9b8f-4402-81a6-4b92fac2f424","system_id":"levelo_inurba_marseille","lat":43.32355,"lon":5.36735,"is_reserved":false,"is_disabled":false,"rental_uris":{"android":"levelo://app?vid=4c50a1f4-9b8f-4402-81a6-4b92fac2f424","ios":"levelo://app?vid=4c50a1f4-9b8f-4402-81a6-4b92fac2f424"},"vehicle_type_id":"4","last_reported":1747404624,"current_range_meters":14000,"station_id":"ce4bhsh2rcd13ifvqi2g","pricing_plan_id":"cebpf4jnsgd1na2vs0mg"},{"bike_id":"f20d7c95-edea-41f7-80c4-cd9b03b70913","system_id":"levelo_inurba_marseille","lat":43.25721,"lon":5.41114,"is_reserved":false,"is_disabled":false,"rental_uris":{"android":"levelo://app?vid=f20d7c95-edea-41f7-80c4-cd9b03b70913","ios":"levelo://app?vid=f20d7c95-edea-41f7-80c4-cd9b03b70913"},"vehicle_type_id":"4","last_reported":1747404624,"current_range_meters":14000,"station_id":"ce4bhkp2rcd13ifvqgd0","pricing_plan_id":"cebpf4jnsgd1na2vs0mg"},{"bike_id":"e5450a20-e392-48a2-b180-9a851dc6916e","system_id":"levelo_inurba_marseille","lat":43.2318,"lon":5.39985,"is_reserved":false,"is_disabled":false,"rental_uris":{"android":"levelo://app?vid=e5450a20-e392-48a2-b180-9a851dc6916e","ios":"levelo://app?vid=e5450a20-e392-48a2-b180-9a851dc6916e"},"vehicle_type_id":"4","last_reported":1747404624,"current_range_meters":14000,"station_id":"ce4bhn12rcd13ifvqgqg","pricing_plan_id":"cebpf4jnsgd1na2vs0mg"},{"bike_id":"2899f089-bb64-4ec3-9269-d7e7ec9d6985","system_id":"levelo_inurba_marseille","lat":43.28928,"lon":5.38403,"is_reserved":false,"is_disabled":false,"rental_uris":{"android":"levelo://app?vid=2899f089-bb64-4ec3-9269-d7e7ec9d6985","ios":"levelo://app?vid=2899f089-bb64-4ec3-9269-d7e7ec9d6985"},"vehicle_type_id":"4","last_reported":1747404624,"current_range_meters":13600,"station_id":"ce4bh612rcd13ifvqe6g","pricing_plan_id":"cebpf4jnsgd1na2vs0mg"},{"bike_id":"2dc9e469-4c60-458f-9ce8-de6e9539acd6","system_id":"levelo_inurba_marseille","lat":43.29378,"lon":5.37838,"is_reserved":false,"is_disabled":false,"rental_uris":{"android":"levelo://app?vid=2dc9e469-4c60-458f-9ce8-de6e9539acd6","ios":"levelo://app?vid=2dc9e469-4c60-458f-9ce8-de6e9539acd6"},"vehicle_type_id":"4","last_reported":1747404624,"current_range_meters":14000,"station_id":"ce4bgjh2rcd13ifvqbf0","pricing_plan_id":"cebpf4jnsgd1na2vs0mg"},{"bike_id":"6d812bb8-7c84-4b9d-aa7e-2e32f2e0ab84","system_id":"levelo_inurba_marseille","lat":43.23934,"lon":5.37586,"is_reserved":false,"is_disabled":false,"rental_uris":{"android":"levelo://app?vid=6d812bb8-7c84-4b9d-aa7e-2e32f2e0ab84","ios":"levelo://app?vid=6d812bb8-7c84-4b9d-aa7e-2e32f2e0ab84"},"vehicle_type_id":"4","last_reported":1747404624,"current_range_meters":14400,"station_id":"","pricing_plan_id":"cebpf4jnsgd1na2vs0mg"},{"bike_id":"8f600fbf-ec68-4624-9822-6cce2bd50be5","system_id":"levelo_inurba_marseille","lat":43.32549,"lon":5.43248,"is_reserved":false,"is_disabled":false,"rental_uris":{"android":"levelo://app?vid=8f600fbf-ec68-4624-9822-6cce2bd50be5","ios":"levelo://app?vid=8f600fbf-ec68-4624-9822-6cce2bd50be5"},"vehicle_type_id":"4","last_reported":1747404624,"current_range_meters":14400,"station_id":"","pricing_plan_id":"cebpf4jnsgd1na2vs0mg"},{"bike_id":"0d118023-8972-4907-908e-2de4a71e9c71","system_id":"levelo_inurba_marseille","lat":43.28568,"lon":5.39495,"is_reserved":false,"is_disabled":false,"rental_uris":{"android":"levelo://app?vid=0d118023-8972-4907-908e-2de4a71e9c71","ios":"levelo://app?vid=0d118023-8972-4907-908e-2de4a71e9c71"},"vehicle_type_id":"4","last_reported":1747404624,"current_range_meters":14000,"station_id":"ce4bh292rcd13ifvqdg0","pricing_plan_id":"cebpf4jnsgd1na2vs0mg"},{"bike_id":"b976aafd-cc04-481d-a946-f2c7fc78270b","system_id":"levelo_inurba_marseille","lat":43.3145,"lon":5.36713,"is_reserved":false,"is_disabled":false,"rental_uris":{"android":"levelo://app?vid=b976aafd-cc04-481d-a946-f2c7fc78270b","ios":"levelo://app?vid=b976aafd-cc04-481d-a946-f2c7fc78270b"},"vehicle_type_id":"4","last_reported":1747404624,"current_range_meters":14400,"station_id":"ce4bgr92rcd13ifvqc6g","pricing_plan_id":"cebpf4jnsgd1na2vs0mg"},{"bike_id":"51a97926-12b0-44ee-9f0c-5bc21884757a","system_id":"levelo_inurba_marseille","lat":43.30333,"lon":5.40424,"is_reserved":false,"is_disabled":false,"rental_uris":{"android":"levelo://app?vid=51a97926-12b0-44ee-9f0c-5bc21884757a","ios":"levelo://app?vid=51a97926-12b0-44ee-9f0c-5bc21884757a"},"vehicle_type_id":"4","last_reported":1747404624,"current_range_meters":14400,"station_id":"ce4bh012rcd13ifvqd10","pricing_plan_id":"cebpf4jnsgd1na2vs0mg"},{"bike_id":"b8f48a03-1b3c-4f41-b74c-2b637af725d5","system_id":"levelo_inurba_marseille","lat":43.30425,"lon":5.39753,"is_reserved":false,"is_disabled":true,"rental_uris":{"android":"levelo://app?vid=b8f48a03-1b3c-4f41-b74c-2b637af725d5","ios":"levelo://app?vid=b8f48a03-1b3c-4f41-b74c-2b637af725d5"},"vehicle_type_id":"4","last_reported":1747404624,"current_range_meters":14400,"station_id":"ce4bh092rcd13ifvqd20","pricing_plan_id":"cebpf4jnsgd1na2vs0mg"},{"bike_id":"faa95da5-9357-44e3-8c58-79b312c5ad93","system_id":"levelo_inurba_marseille","lat":43.2841,"lon":5.37512,"is_reserved":false,"is_disabled":false,"rental_uris":{"android":"levelo://app?vid=faa95da5-9357-44e3-8c58-79b312c5ad93","ios":"levelo://app?vid=faa95da5-9357-44e3-8c58-79b312c5ad93"},"vehicle_type_id":"4","last_reported":1747404624,"current_range_meters":14400,"station_id":"ce4bh412rcd13ifvqds0","pricing_plan_id":"cebpf4jnsgd1na2vs0mg"},{"bike_id":"219c192c-35b6-4c0e-91e9-422e985b9752","system_id":"levelo_inurba_marseille","lat":43.29431,"lon":5.39776,"is_reserved":false,"is_disabled":false,"rental_uris":{"android":"levelo://app?vid=219c192c-35b6-4c0e-91e9-422e985b9752","ios":"levelo://app?vid=219c192c-35b6-4c0e-91e9-422e985b9752"},"vehicle_type_id":"4","last_reported":1747404624,"current_range_meters":14800,"station_id":"ce4bh3h2rcd13ifvqdo0","pricing_plan_id":"cebpf4jnsgd1na2vs0mg"},{"bike_id":"ea98e44b-8699-4f09-9d9a-40eab115df8f","system_id":"levelo_inurba_marseille","lat":43.2467,"lon":5.38162,"is_reserved":false,"is_disabled":false,"rental_uris":{"android":"levelo://app?vid=ea98e44b-8699-4f09-9d9a-40eab115df8f","ios":"levelo://app?vid=ea98e44b-8699-4f09-9d9a-40eab115df8f"},"vehicle_type_id":"4","last_reported":1747404624,"current_range_meters":14800,"station_id":"ce4bhih2rcd13ifvqfr0","pricing_plan_id":"cebpf4jnsgd1na2vs0mg"},{"bike_id":"08c41e24-c8a6-4f83-aac4-f77e8e318916","system_id":"levelo_inurba_marseille","lat":43.30325,"lon":5.4044,"is_reserved":false,"is_disabled":false,"rental_uris":{"android":"levelo://app?vid=08c41e24-c8a6-4f83-aac4-f77e8e318916","ios":"levelo://app?vid=08c41e24-c8a6-4f83-aac4-f77e8e318916"},"vehicle_type_id":"4","last_reported":1747404624,"current_range_meters":14800,"station_id":"ce4bh012rcd13ifvqd10","pricing_plan_id":"cebpf4jnsgd1na2vs0mg"},{"bike_id":"f495968d-d982-4514-ab98-db984cf03219","system_id":"levelo_inurba_marseille","lat":43.31425,"lon":5.38366,"is_reserved":false,"is_disabled":false,"rental_uris":{"android":"levelo://app?vid=f495968d-d982-4514-ab98-db984cf03219","ios":"levelo://app?vid=f495968d-d982-4514-ab98-db984cf03219"},"vehicle_type_id":"4","last_reported":1747404624,"current_range_meters":14800,"station_id":"","pricing_plan_id":"cebpf4jnsgd1na2vs0mg"},{"bike_id":"7673f08b-ac9e-4a96-9d1a-1911e62c1fe7","system_id":"levelo_inurba_marseille","lat":43.31312,"lon":5.36972,"is_reserved":false,"is_disabled":false,"rental_uris":{"android":"levelo://app?vid=7673f08b-ac9e-4a96-9d1a-1911e62c1fe7","ios":"levelo://app?vid=7673f08b-ac9e-4a96-9d1a-1911e62c1fe7"},"vehicle_type_id":"4","last_reported":1747404624,"current_range_meters":14800,"station_id":"","pricing_plan_id":"cebpf4jnsgd1na2vs0mg"},{"bike_id":"64dadae2-01c8-47de-a6be-84899c7c173d","system_id":"levelo_inurba_marseille","lat":43.29274,"lon":5.38426,"is_reserved":false,"is_disabled":false,"rental_uris":{"android":"levelo://app?vid=64dadae2-01c8-47de-a6be-84899c7c173d","ios":"levelo://app?vid=64dadae2-01c8-47de-a6be-84899c7c173d"},"vehicle_type_id":"4","last_reported":1747404624,"current_range_meters":14800,"station_id":"ce4bh692rcd13ifvqea0","pricing_plan_id":"cebpf4jnsgd1na2vs0mg"},{"bike_id":"72719783-6d5a-42f0-81d3-0c7b96d72a6a","system_id":"levelo_inurba_marseille","lat":43.25112,"lon":5.40329,"is_reserved":false,"is_disabled":false,"rental_uris":{"android":"levelo://app?vid=72719783-6d5a-42f0-81d3-0c7b96d72a6a","ios":"levelo://app?vid=72719783-6d5a-42f0-81d3-0c7b96d72a6a"},"vehicle_type_id":"4","last_reported":1747404624,"current_range_meters":14800,"station_id":"ce4bhlh2rcd13ifvqgig","pricing_plan_id":"cebpf4jnsgd1na2vs0mg"},{"bike_id":"aac9281e-2a1a-4dfd-b739-16911f69e7a1","system_id":"levelo_inurba_marseille","lat":43.26215,"lon":5.37438,"is_reserved":false,"is_disabled":false,"rental_uris":{"android":"levelo://app?vid=aac9281e-2a1a-4dfd-b739-16911f69e7a1","ios":"levelo://app?vid=aac9281e-2a1a-4dfd-b739-16911f69e7a1"},"vehicle_type_id":"4","last_reported":1747404624,"current_range_meters":15200,"station_id":"ce4bhgp2rcd13ifvqfc0","pricing_plan_id":"cebpf4jnsgd1na2vs0mg"},{"bike_id":"eae0ccc2-d2ed-4bb4-9c31-ccdd8f82f767","system_id":"levelo_inurba_marseille","lat":43.29635,"lon":5.40588,"is_reserved":false,"is_disabled":false,"rental_uris":{"android":"levelo://app?vid=eae0ccc2-d2ed-4bb4-9c31-ccdd8f82f767","ios":"levelo://app?vid=eae0ccc2-d2ed-4bb4-9c31-ccdd8f82f767"},"vehicle_type_id":"4","last_reported":1747404624,"current_range_meters":15200,"station_id":"ce4bh0h2rcd13ifvqd60","pricing_plan_id":"cebpf4jnsgd1na2vs0mg"},{"bike_id":"04efa6c5-73a0-4c62-b68c-eb65351a5107","system_id":"levelo_inurba_marseille","lat":43.27669,"lon":5.38892,"is_reserved":false,"is_disabled":false,"rental_uris":{"android":"levelo://app?vid=04efa6c5-73a0-4c62-b68c-eb65351a5107","ios":"levelo://app?vid=04efa6c5-73a0-4c62-b68c-eb65351a5107"},"vehicle_type_id":"4","last_reported":1747404624,"current_range_meters":15200,"station_id":"ce4bhi12rcd13ifvqfo0","pricing_plan_id":"cebpf4jnsgd1na2vs0mg"},{"bike_id":"5b2d454c-a144-4561-9796-910063ac12fa","system_id":"levelo_inurba_marseille","lat":43.27497,"lon":5.42445,"is_reserved":false,"is_disabled":false,"rental_uris":{"android":"levelo://app?vid=5b2d454c-a144-4561-9796-910063ac12fa","ios":"levelo://app?vid=5b2d454c-a144-4561-9796-910063ac12fa"},"vehicle_type_id":"4","last_reported":1747404624,"current_range_meters":15200,"station_id":"ce4bhn92rcd13ifvqgrg","pricing_plan_id":"cebpf4jnsgd1na2vs0mg"},{"bike_id":"f5bba7e2-41f8-4bb6-b202-bcb554426976","system_id":"levelo_inurba_marseille","lat":43.29173,"lon":5.3716,"is_reserved":false,"is_disabled":false,"rental_uris":{"android":"levelo://app?vid=f5bba7e2-41f8-4bb6-b202-bcb554426976","ios":"levelo://app?vid=f5bba7e2-41f8-4bb6-b202-bcb554426976"},"vehicle_type_id":"4","last_reported":1747404624,"current_range_meters":15200,"station_id":"ce4bha92rcd13ifvqeh0","pricing_plan_id":"cebpf4jnsgd1na2vs0mg"},{"bike_id":"b7f0e156-6381-40ad-8889-c4867b31fe5f","system_id":"levelo_inurba_marseille","lat":43.30418,"lon":5.41287,"is_reserved":false,"is_disabled":false,"rental_uris":{"android":"levelo://app?vid=b7f0e156-6381-40ad-8889-c4867b31fe5f","ios":"levelo://app?vid=b7f0e156-6381-40ad-8889-c4867b31fe5f"},"vehicle_type_id":"4","last_reported":1747404624,"current_range_meters":16000,"station_id":"ce4bhop2rcd13ifvqh8g","pricing_plan_id":"cebpf4jnsgd1na2vs0mg"},{"bike_id":"a0dd726d-ad01-42c6-ad84-b3c4b1ddcbff","system_id":"levelo_inurba_marseille","lat":43.323395,"lon":5.40616,"is_reserved":false,"is_disabled":false,"rental_uris":{"android":"levelo://app?vid=a0dd726d-ad01-42c6-ad84-b3c4b1ddcbff","ios":"levelo://app?vid=a0dd726d-ad01-42c6-ad84-b3c4b1ddcbff"},"vehicle_type_id":"4","last_reported":1747404624,"current_range_meters":16000,"station_id":"ce4bhq92rcd13ifvqhjg","pricing_plan_id":"cebpf4jnsgd1na2vs0mg"},{"bike_id":"35ecf6fb-9478-4377-890b-ab5e8f1a7e9f","system_id":"levelo_inurba_marseille","lat":43.2846,"lon":5.35885,"is_reserved":false,"is_disabled":false,"rental_uris":{"android":"levelo://app?vid=35ecf6fb-9478-4377-890b-ab5e8f1a7e9f","ios":"levelo://app?vid=35ecf6fb-9478-4377-890b-ab5e8f1a7e9f"},"vehicle_type_id":"4","last_reported":1747404624,"current_range_meters":16000,"station_id":"ce4bhah2rcd13ifvqei0","pricing_plan_id":"cebpf4jnsgd1na2vs0mg"},{"bike_id":"566f971b-859d-4e51-8b8f-54e06e3e0b14","system_id":"levelo_inurba_marseille","lat":43.27068,"lon":5.402723,"is_reserved":false,"is_disabled":false,"rental_uris":{"android":"levelo://app?vid=566f971b-859d-4e51-8b8f-54e06e3e0b14","ios":"levelo://app?vid=566f971b-859d-4e51-8b8f-54e06e3e0b14"},"vehicle_type_id":"4","last_reported":1747404624,"current_range_meters":16000,"station_id":"ce4bhk92rcd13ifvqgc0","pricing_plan_id":"cebpf4jnsgd1na2vs0mg"},{"bike_id":"16e1ba08-3afb-4836-86f8-64ba626765cd","system_id":"levelo_inurba_marseille","lat":43.26582,"lon":5.37268,"is_reserved":false,"is_disabled":false,"rental_uris":{"android":"levelo://app?vid=16e1ba08-3afb-4836-86f8-64ba626765cd","ios":"levelo://app?vid=16e1ba08-3afb-4836-86f8-64ba626765cd"},"vehicle_type_id":"4","last_reported":1747404624,"current_range_meters":16000,"station_id":"ce4bhg12rcd13ifvqf70","pricing_plan_id":"cebpf4jnsgd1na2vs0mg"},{"bike_id":"3b7e1cfe-4920-4ce2-8502-e5b1586f8bcd","system_id":"levelo_inurba_marseille","lat":43.24663,"lon":5.38203,"is_reserved":false,"is_disabled":false,"rental_uris":{"android":"levelo://app?vid=3b7e1cfe-4920-4ce2-8502-e5b1586f8bcd","ios":"levelo://app?vid=3b7e1cfe-4920-4ce2-8502-e5b1586f8bcd"},"vehicle_type_id":"4","last_reported":1747404624,"current_range_meters":16000,"station_id":"ce4bhih2rcd13ifvqfr0","pricing_plan_id":"cebpf4jnsgd1na2vs0mg"},{"bike_id":"208d7a25-cd6e-47fe-addd-1b889cabc092","system_id":"levelo_inurba_marseille","lat":43.28406,"lon":5.34987,"is_reserved":false,"is_disabled":false,"rental_uris":{"android":"levelo://app?vid=208d7a25-cd6e-47fe-addd-1b889cabc092","ios":"levelo://app?vid=208d7a25-cd6e-47fe-addd-1b889cabc092"},"vehicle_type_id":"4","last_reported":1747404624,"current_range_meters":16400,"station_id":"ce4bhbh2rcd13ifvqepg","pricing_plan_id":"cebpf4jnsgd1na2vs0mg"},{"bike_id":"b6584df1-e10f-450f-b386-c82e4b310718","system_id":"levelo_inurba_marseille","lat":43.26554,"lon":5.390205,"is_reserved":false,"is_disabled":false,"rental_uris":{"android":"levelo://app?vid=b6584df1-e10f-450f-b386-c82e4b310718","ios":"levelo://app?vid=b6584df1-e10f-450f-b386-c82e4b310718"},"vehicle_type_id":"4","last_reported":1747404624,"current_range_meters":16400,"station_id":"ce4bhe12rcd13ifvqf30","pricing_plan_id":"cebpf4jnsgd1na2vs0mg"},{"bike_id":"85cc8ae2-2c31-40b9-8ad0-b17743100726","system_id":"levelo_inurba_marseille","lat":43.30174,"lon":5.36632,"is_reserved":false,"is_disabled":false,"rental_uris":{"android":"levelo://app?vid=85cc8ae2-2c31-40b9-8ad0-b17743100726","ios":"levelo://app?vid=85cc8ae2-2c31-40b9-8ad0-b17743100726"},"vehicle_type_id":"4","last_reported":1747404624,"current_range_meters":16400,"station_id":"ce4bgrh2rcd13ifvqc8g","pricing_plan_id":"cebpf4jnsgd1na2vs0mg"},{"bike_id":"acbfa4ee-9b08-45f7-9310-3122b1b61fa5","system_id":"levelo_inurba_marseille","lat":43.262381,"lon":5.404668,"is_reserved":false,"is_disabled":false,"rental_uris":{"android":"levelo://app?vid=acbfa4ee-9b08-45f7-9310-3122b1b61fa5","ios":"levelo://app?vid=acbfa4ee-9b08-45f7-9310-3122b1b61fa5"},"vehicle_type_id":"4","last_reported":1747404624,"current_range_meters":16400,"station_id":"ce4bh412rcd13ifvqdr0","pricing_plan_id":"cebpf4jnsgd1na2vs0mg"},{"bike_id":"55b0a3fa-5c65-4851-816d-1af073f9dbd1","system_id":"levelo_inurba_marseille","lat":43.25748,"lon":5.41096,"is_reserved":false,"is_disabled":false,"rental_uris":{"android":"levelo://app?vid=55b0a3fa-5c65-4851-816d-1af073f9dbd1","ios":"levelo://app?vid=55b0a3fa-5c65-4851-816d-1af073f9dbd1"},"vehicle_type_id":"4","last_reported":1747404624,"current_range_meters":16400,"station_id":"ce4bhkp2rcd13ifvqgd0","pricing_plan_id":"cebpf4jnsgd1na2vs0mg"},{"bike_id":"2a9d0bc3-deae-4a39-b85c-52d709abed2e","system_id":"levelo_inurba_marseille","lat":43.30732,"lon":5.38045,"is_reserved":false,"is_disabled":false,"rental_uris":{"android":"levelo://app?vid=2a9d0bc3-deae-4a39-b85c-52d709abed2e","ios":"levelo://app?vid=2a9d0bc3-deae-4a39-b85c-52d709abed2e"},"vehicle_type_id":"4","last_reported":1747404624,"current_range_meters":16800,"station_id":"","pricing_plan_id":"cebpf4jnsgd1na2vs0mg"},{"bike_id":"98106b70-6f8a-476d-962a-f2bed2e52f0a","system_id":"levelo_inurba_marseille","lat":43.32096,"lon":5.36821,"is_reserved":false,"is_disabled":false,"rental_uris":{"android":"levelo://app?vid=98106b70-6f8a-476d-962a-f2bed2e52f0a","ios":"levelo://app?vid=98106b70-6f8a-476d-962a-f2bed2e52f0a"},"vehicle_type_id":"4","last_reported":1747404624,"current_range_meters":16800,"station_id":"ce4bhrh2rcd13ifvqhug","pricing_plan_id":"cebpf4jnsgd1na2vs0mg"},{"bike_id":"852ea9ac-6507-488a-87c5-b27d54b34b2e","system_id":"levelo_inurba_marseille","lat":43.28151,"lon":5.4263,"is_reserved":false,"is_disabled":false,"rental_uris":{"android":"levelo://app?vid=852ea9ac-6507-488a-87c5-b27d54b34b2e","ios":"levelo://app?vid=852ea9ac-6507-488a-87c5-b27d54b34b2e"},"vehicle_type_id":"4","last_reported":1747404624,"current_range_meters":16800,"station_id":"ce4bhnh2rcd13ifvqgug","pricing_plan_id":"cebpf4jnsgd1na2vs0mg"},{"bike_id":"89a5337c-a4c2-469d-9044-b33a6aa17508","system_id":"levelo_inurba_marseille","lat":43.30325,"lon":5.40435,"is_reserved":false,"is_disabled":false,"rental_uris":{"android":"levelo://app?vid=89a5337c-a4c2-469d-9044-b33a6aa17508","ios":"levelo://app?vid=89a5337c-a4c2-469d-9044-b33a6aa17508"},"vehicle_type_id":"4","last_reported":1747404624,"current_range_meters":16800,"station_id":"ce4bh012rcd13ifvqd10","pricing_plan_id":"cebpf4jnsgd1na2vs0mg"},{"bike_id":"ec442c1f-bff1-495d-9f0c-3a5985e413c0","system_id":"levelo_inurba_marseille","lat":43.2866,"lon":5.36352,"is_reserved":false,"is_disabled":false,"rental_uris":{"android":"levelo://app?vid=ec442c1f-bff1-495d-9f0c-3a5985e413c0","ios":"levelo://app?vid=ec442c1f-bff1-495d-9f0c-3a5985e413c0"},"vehicle_type_id":"4","last_reported":1747404624,"current_range_meters":16800,"station_id":"ce4bhah2rcd13ifvqej0","pricing_plan_id":"cebpf4jnsgd1na2vs0mg"},{"bike_id":"0b17ffcc-2b3b-4ab6-b715-eab29be6d45d","system_id":"levelo_inurba_marseille","lat":43.30186,"lon":5.36615,"is_reserved":false,"is_disabled":false,"rental_uris":{"android":"levelo://app?vid=0b17ffcc-2b3b-4ab6-b715-eab29be6d45d","ios":"levelo://app?vid=0b17ffcc-2b3b-4ab6-b715-eab29be6d45d"},"vehicle_type_id":"4","last_reported":1747404624,"current_range_meters":16800,"station_id":"ce4bgrh2rcd13ifvqc8g","pricing_plan_id":"cebpf4jnsgd1na2vs0mg"},{"bike_id":"b23a7761-2337-406b-b8e6-8e6d94a8d7c1","system_id":"levelo_inurba_marseille","lat":43.323581,"lon":5.367572,"is_reserved":false,"is_disabled":false,"rental_uris":{"android":"levelo://app?vid=b23a7761-2337-406b-b8e6-8e6d94a8d7c1","ios":"levelo://app?vid=b23a7761-2337-406b-b8e6-8e6d94a8d7c1"},"vehicle_type_id":"4","last_reported":1747404624,"current_range_meters":16800,"station_id":"ce4bhsh2rcd13ifvqi2g","pricing_plan_id":"cebpf4jnsgd1na2vs0mg"},{"bike_id":"b04bd58d-ab68-46b4-9085-1ddf540e912e","system_id":"levelo_inurba_marseille","lat":43.24115,"lon":5.37778,"is_reserved":false,"is_disabled":true,"rental_uris":{"android":"levelo://app?vid=b04bd58d-ab68-46b4-9085-1ddf540e912e","ios":"levelo://app?vid=b04bd58d-ab68-46b4-9085-1ddf540e912e"},"vehicle_type_id":"4","last_reported":1747404624,"current_range_meters":16800,"station_id":"","pricing_plan_id":"cebpf4jnsgd1na2vs0mg"},{"bike_id":"20a82793-fd10-415b-8a78-e28c4d6419c5","system_id":"levelo_inurba_marseille","lat":43.26203,"lon":5.37924,"is_reserved":false,"is_disabled":false,"rental_uris":{"android":"levelo://app?vid=20a82793-fd10-415b-8a78-e28c4d6419c5","ios":"levelo://app?vid=20a82793-fd10-415b-8a78-e28c4d6419c5"},"vehicle_type_id":"4","last_reported":1747404624,"current_range_meters":16800,"station_id":"ce4bhjp2rcd13ifvqg90","pricing_plan_id":"cebpf4jnsgd1na2vs0mg"},{"bike_id":"11a0dbe9-b507-4ec9-a34a-33d272456b72","system_id":"levelo_inurba_marseille","lat":43.3212,"lon":5.36783,"is_reserved":false,"is_disabled":false,"rental_uris":{"android":"levelo://app?vid=11a0dbe9-b507-4ec9-a34a-33d272456b72","ios":"levelo://app?vid=11a0dbe9-b507-4ec9-a34a-33d272456b72"},"vehicle_type_id":"4","last_reported":1747404624,"current_range_meters":17200,"station_id":"","pricing_plan_id":"cebpf4jnsgd1na2vs0mg"},{"bike_id":"1c692f5b-bd13-4316-a8b9-0c7382396173","system_id":"levelo_inurba_marseille","lat":43.2512,"lon":5.40315,"is_reserved":false,"is_disabled":false,"rental_uris":{"android":"levelo://app?vid=1c692f5b-bd13-4316-a8b9-0c7382396173","ios":"levelo://app?vid=1c692f5b-bd13-4316-a8b9-0c7382396173"},"vehicle_type_id":"4","last_reported":1747404624,"current_range_meters":16800,"station_id":"ce4bhlh2rcd13ifvqgig","pricing_plan_id":"cebpf4jnsgd1na2vs0mg"},{"bike_id":"81ce395a-ca1c-43fa-b284-1ab7159452ff","system_id":"levelo_inurba_marseille","lat":43.25938,"lon":5.40896,"is_reserved":false,"is_disabled":false,"rental_uris":{"android":"levelo://app?vid=81ce395a-ca1c-43fa-b284-1ab7159452ff","ios":"levelo://app?vid=81ce395a-ca1c-43fa-b284-1ab7159452ff"},"vehicle_type_id":"4","last_reported":1747404624,"current_range_meters":17200,"station_id":"ce4bhm92rcd13ifvqglg","pricing_plan_id":"cebpf4jnsgd1na2vs0mg"},{"bike_id":"01a491e0-b8dc-4956-8b8c-2bacfc9eb2f3","system_id":"levelo_inurba_marseille","lat":43.25585,"lon":5.38229,"is_reserved":false,"is_disabled":false,"rental_uris":{"android":"levelo://app?vid=01a491e0-b8dc-4956-8b8c-2bacfc9eb2f3","ios":"levelo://app?vid=01a491e0-b8dc-4956-8b8c-2bacfc9eb2f3"},"vehicle_type_id":"4","last_reported":1747404624,"current_range_meters":16800,"station_id":"ce4bhih2rcd13ifvqfs0","pricing_plan_id":"cebpf4jnsgd1na2vs0mg"},{"bike_id":"79e95db6-5cfb-4812-b56e-8539bb9bfb72","system_id":"levelo_inurba_marseille","lat":43.23183,"lon":5.39984,"is_reserved":false,"is_disabled":false,"rental_uris":{"android":"levelo://app?vid=79e95db6-5cfb-4812-b56e-8539bb9bfb72","ios":"levelo://app?vid=79e95db6-5cfb-4812-b56e-8539bb9bfb72"},"vehicle_type_id":"4","last_reported":1747404624,"current_range_meters":17200,"station_id":"ce4bhn12rcd13ifvqgqg","pricing_plan_id":"cebpf4jnsgd1na2vs0mg"},{"bike_id":"547d7524-1537-4866-b1a9-d0503a01eb44","system_id":"levelo_inurba_marseille","lat":43.29849,"lon":5.36266,"is_reserved":false,"is_disabled":false,"rental_uris":{"android":"levelo://app?vid=547d7524-1537-4866-b1a9-d0503a01eb44","ios":"levelo://app?vid=547d7524-1537-4866-b1a9-d0503a01eb44"},"vehicle_type_id":"4","last_reported":1747404624,"current_range_meters":17600,"station_id":"ce4bgpp2rcd13ifvqc3g","pricing_plan_id":"cebpf4jnsgd1na2vs0mg"},{"bike_id":"164e0ccc-71a3-4f79-a701-1fd69140acbc","system_id":"levelo_inurba_marseille","lat":43.26806,"lon":5.40268,"is_reserved":false,"is_disabled":false,"rental_uris":{"android":"levelo://app?vid=164e0ccc-71a3-4f79-a701-1fd69140acbc","ios":"levelo://app?vid=164e0ccc-71a3-4f79-a701-1fd69140acbc"},"vehicle_type_id":"4","last_reported":1747404624,"current_range_meters":17600,"station_id":"ce501612rcd8frsf0b60","pricing_plan_id":"cebpf4jnsgd1na2vs0mg"},{"bike_id":"c8c23b94-3bb2-4142-ae6e-7544f49c1642","system_id":"levelo_inurba_marseille","lat":43.305318,"lon":5.38428,"is_reserved":false,"is_disabled":true,"rental_uris":{"android":"levelo://app?vid=c8c23b94-3bb2-4142-ae6e-7544f49c1642","ios":"levelo://app?vid=c8c23b94-3bb2-4142-ae6e-7544f49c1642"},"vehicle_type_id":"4","last_reported":1747404624,"current_range_meters":17600,"station_id":"ce4bgg92rcd13ifvqb30","pricing_plan_id":"cebpf4jnsgd1na2vs0mg"},{"bike_id":"4d05bf7f-0df9-44c2-9c5c-4d4dd3264c95","system_id":"levelo_inurba_marseille","lat":43.24678,"lon":5.38155,"is_reserved":false,"is_disabled":false,"rental_uris":{"android":"levelo://app?vid=4d05bf7f-0df9-44c2-9c5c-4d4dd3264c95","ios":"levelo://app?vid=4d05bf7f-0df9-44c2-9c5c-4d4dd3264c95"},"vehicle_type_id":"4","last_reported":1747404624,"current_range_meters":17600,"station_id":"ce4bhih2rcd13ifvqfr0","pricing_plan_id":"cebpf4jnsgd1na2vs0mg"},{"bike_id":"1786a345-ad9d-4603-a811-f7a61d9e8aee","system_id":"levelo_inurba_marseille","lat":43.27056,"lon":5.40261,"is_reserved":false,"is_disabled":false,"rental_uris":{"android":"levelo://app?vid=1786a345-ad9d-4603-a811-f7a61d9e8aee","ios":"levelo://app?vid=1786a345-ad9d-4603-a811-f7a61d9e8aee"},"vehicle_type_id":"4","last_reported":1747404624,"current_range_meters":17600,"station_id":"ce4bhk92rcd13ifvqgc0","pricing_plan_id":"cebpf4jnsgd1na2vs0mg"},{"bike_id":"2bd790ff-7382-4303-9c50-f8d830828d37","system_id":"levelo_inurba_marseille","lat":43.30946,"lon":5.37192,"is_reserved":false,"is_disabled":false,"rental_uris":{"android":"levelo://app?vid=2bd790ff-7382-4303-9c50-f8d830828d37","ios":"levelo://app?vid=2bd790ff-7382-4303-9c50-f8d830828d37"},"vehicle_type_id":"4","last_reported":1747404624,"current_range_meters":18000,"station_id":"ce4bguh2rcd13ifvqckg","pricing_plan_id":"cebpf4jnsgd1na2vs0mg"},{"bike_id":"28b7beab-0b09-4693-9341-821f7ddf9b64","system_id":"levelo_inurba_marseille","lat":43.28617,"lon":5.35101,"is_reserved":false,"is_disabled":false,"rental_uris":{"android":"levelo://app?vid=28b7beab-0b09-4693-9341-821f7ddf9b64","ios":"levelo://app?vid=28b7beab-0b09-4693-9341-821f7ddf9b64"},"vehicle_type_id":"4","last_reported":1747404624,"current_range_meters":18000,"station_id":"ce4bhch2rcd13ifvqeug","pricing_plan_id":"cebpf4jnsgd1na2vs0mg"},{"bike_id":"45f71629-e57e-4650-a835-f5868dcfd9d1","system_id":"levelo_inurba_marseille","lat":43.29651,"lon":5.36269,"is_reserved":false,"is_disabled":false,"rental_uris":{"android":"levelo://app?vid=45f71629-e57e-4650-a835-f5868dcfd9d1","ios":"levelo://app?vid=45f71629-e57e-4650-a835-f5868dcfd9d1"},"vehicle_type_id":"4","last_reported":1747404624,"current_range_meters":18000,"station_id":"","pricing_plan_id":"cebpf4jnsgd1na2vs0mg"},{"bike_id":"65fffd0b-fbb1-433f-ab2b-622ea9469e3b","system_id":"levelo_inurba_marseille","lat":43.25937,"lon":5.40899,"is_reserved":false,"is_disabled":false,"rental_uris":{"android":"levelo://app?vid=65fffd0b-fbb1-433f-ab2b-622ea9469e3b","ios":"levelo://app?vid=65fffd0b-fbb1-433f-ab2b-622ea9469e3b"},"vehicle_type_id":"4","last_reported":1747404624,"current_range_meters":18000,"station_id":"ce4bhm92rcd13ifvqglg","pricing_plan_id":"cebpf4jnsgd1na2vs0mg"},{"bike_id":"8ca3d8c5-974d-47e3-bdff-00bc16ed707a","system_id":"levelo_inurba_marseille","lat":43.29942,"lon":5.36537,"is_reserved":false,"is_disabled":false,"rental_uris":{"android":"levelo://app?vid=8ca3d8c5-974d-47e3-bdff-00bc16ed707a","ios":"levelo://app?vid=8ca3d8c5-974d-47e3-bdff-00bc16ed707a"},"vehicle_type_id":"4","last_reported":1747404624,"current_range_meters":18000,"station_id":"ce4bgm92rcd13ifvqbr0","pricing_plan_id":"cebpf4jnsgd1na2vs0mg"},{"bike_id":"f40fed45-f5f4-4a41-a584-c5c673f5dd11","system_id":"levelo_inurba_marseille","lat":43.29025,"lon":5.38643,"is_reserved":false,"is_disabled":false,"rental_uris":{"android":"levelo://app?vid=f40fed45-f5f4-4a41-a584-c5c673f5dd11","ios":"levelo://app?vid=f40fed45-f5f4-4a41-a584-c5c673f5dd11"},"vehicle_type_id":"4","last_reported":1747404624,"current_range_meters":18000,"station_id":"ce4bh4p2rcd13ifvqe0g","pricing_plan_id":"cebpf4jnsgd1na2vs0mg"},{"bike_id":"53f3ac1c-b9fc-4806-affb-7aa087f83816","system_id":"levelo_inurba_marseille","lat":43.3112,"lon":5.37765,"is_reserved":false,"is_disabled":false,"rental_uris":{"android":"levelo://app?vid=53f3ac1c-b9fc-4806-affb-7aa087f83816","ios":"levelo://app?vid=53f3ac1c-b9fc-4806-affb-7aa087f83816"},"vehicle_type_id":"4","last_reported":1747404624,"current_range_meters":18000,"station_id":"ce4bgt92rcd13ifvqcg0","pricing_plan_id":"cebpf4jnsgd1na2vs0mg"},{"bike_id":"e82096ec-fc9d-4245-abc2-94e3f0db1f9c","system_id":"levelo_inurba_marseille","lat":43.22929,"lon":5.35377,"is_reserved":false,"is_disabled":false,"rental_uris":{"android":"levelo://app?vid=e82096ec-fc9d-4245-abc2-94e3f0db1f9c","ios":"levelo://app?vid=e82096ec-fc9d-4245-abc2-94e3f0db1f9c"},"vehicle_type_id":"4","last_reported":1747404624,"current_range_meters":18800,"station_id":"cpo3532slgdg3j2ikp40","pricing_plan_id":"cebpf4jnsgd1na2vs0mg"},{"bike_id":"10273fe1-66a1-4853-8c3b-4c8939d68db1","system_id":"levelo_inurba_marseille","lat":43.29523,"lon":5.37516,"is_reserved":false,"is_disabled":true,"rental_uris":{"android":"levelo://app?vid=10273fe1-66a1-4853-8c3b-4c8939d68db1","ios":"levelo://app?vid=10273fe1-66a1-4853-8c3b-4c8939d68db1"},"vehicle_type_id":"4","last_reported":1747404624,"current_range_meters":18800,"station_id":"ce4bgkp2rcd13ifvqbmg","pricing_plan_id":"cebpf4jnsgd1na2vs0mg"},{"bike_id":"0a5e6759-bda5-4156-8e22-99d5a8837a56","system_id":"levelo_inurba_marseille","lat":43.24667,"lon":5.38168,"is_reserved":false,"is_disabled":false,"rental_uris":{"android":"levelo://app?vid=0a5e6759-bda5-4156-8e22-99d5a8837a56","ios":"levelo://app?vid=0a5e6759-bda5-4156-8e22-99d5a8837a56"},"vehicle_type_id":"4","last_reported":1747404624,"current_range_meters":18800,"station_id":"ce4bhih2rcd13ifvqfr0","pricing_plan_id":"cebpf4jnsgd1na2vs0mg"},{"bike_id":"d7cc7bfb-4826-4985-91ac-adfd05487470","system_id":"levelo_inurba_marseille","lat":43.26556,"lon":5.37281,"is_reserved":false,"is_disabled":false,"rental_uris":{"android":"levelo://app?vid=d7cc7bfb-4826-4985-91ac-adfd05487470","ios":"levelo://app?vid=d7cc7bfb-4826-4985-91ac-adfd05487470"},"vehicle_type_id":"4","last_reported":1747404624,"current_range_meters":18800,"station_id":"ce4bhg12rcd13ifvqf70","pricing_plan_id":"cebpf4jnsgd1na2vs0mg"},{"bike_id":"9c0777bb-1361-4acd-84ab-ce8408b6fe1b","system_id":"levelo_inurba_marseille","lat":43.27396,"lon":5.42377,"is_reserved":false,"is_disabled":false,"rental_uris":{"android":"levelo://app?vid=9c0777bb-1361-4acd-84ab-ce8408b6fe1b","ios":"levelo://app?vid=9c0777bb-1361-4acd-84ab-ce8408b6fe1b"},"vehicle_type_id":"4","last_reported":1747404624,"current_range_meters":18800,"station_id":"","pricing_plan_id":"cebpf4jnsgd1na2vs0mg"},{"bike_id":"080da10f-73c7-4342-93c6-97e1aeac391e","system_id":"levelo_inurba_marseille","lat":43.23963,"lon":5.36644,"is_reserved":false,"is_disabled":true,"rental_uris":{"android":"levelo://app?vid=080da10f-73c7-4342-93c6-97e1aeac391e","ios":"levelo://app?vid=080da10f-73c7-4342-93c6-97e1aeac391e"},"vehicle_type_id":"4","last_reported":1747404624,"current_range_meters":19200,"station_id":"ce4bhi12rcd13ifvqfp0","pricing_plan_id":"cebpf4jnsgd1na2vs0mg"},{"bike_id":"ae6afd7a-d614-4e35-af62-da1bec626cd2","system_id":"levelo_inurba_marseille","lat":43.29228,"lon":5.36067,"is_reserved":false,"is_disabled":false,"rental_uris":{"android":"levelo://app?vid=ae6afd7a-d614-4e35-af62-da1bec626cd2","ios":"levelo://app?vid=ae6afd7a-d614-4e35-af62-da1bec626cd2"},"vehicle_type_id":"4","last_reported":1747404624,"current_range_meters":19200,"station_id":"ce4bhbh2rcd13ifvqeqg","pricing_plan_id":"cebpf4jnsgd1na2vs0mg"},{"bike_id":"512db903-9559-40c7-8902-6a98e3c8c53c","system_id":"levelo_inurba_marseille","lat":43.32936,"lon":5.38984,"is_reserved":false,"is_disabled":false,"rental_uris":{"android":"levelo://app?vid=512db903-9559-40c7-8902-6a98e3c8c53c","ios":"levelo://app?vid=512db903-9559-40c7-8902-6a98e3c8c53c"},"vehicle_type_id":"4","last_reported":1747404624,"current_range_meters":19200,"station_id":"","pricing_plan_id":"cebpf4jnsgd1na2vs0mg"},{"bike_id":"9b5c4bf8-8cae-4c62-971a-eb95d65fbe33","system_id":"levelo_inurba_marseille","lat":43.27972,"lon":5.38748,"is_reserved":false,"is_disabled":false,"rental_uris":{"android":"levelo://app?vid=9b5c4bf8-8cae-4c62-971a-eb95d65fbe33","ios":"levelo://app?vid=9b5c4bf8-8cae-4c62-971a-eb95d65fbe33"},"vehicle_type_id":"4","last_reported":1747404624,"current_range_meters":18800,"station_id":"ce4bhg12rcd13ifvqf80","pricing_plan_id":"cebpf4jnsgd1na2vs0mg"},{"bike_id":"62c669d6-5e4a-49d5-ab35-98fc963f7ae3","system_id":"levelo_inurba_marseille","lat":43.26945,"lon":5.40256,"is_reserved":false,"is_disabled":false,"rental_uris":{"android":"levelo://app?vid=62c669d6-5e4a-49d5-ab35-98fc963f7ae3","ios":"levelo://app?vid=62c669d6-5e4a-49d5-ab35-98fc963f7ae3"},"vehicle_type_id":"4","last_reported":1747404624,"current_range_meters":18800,"station_id":"cjm6bp8fraef2m0cb0m0","pricing_plan_id":"cebpf4jnsgd1na2vs0mg"},{"bike_id":"650fd53e-c00c-4b53-bfd7-51afb7900467","system_id":"levelo_inurba_marseille","lat":43.313448,"lon":5.385009,"is_reserved":false,"is_disabled":false,"rental_uris":{"android":"levelo://app?vid=650fd53e-c00c-4b53-bfd7-51afb7900467","ios":"levelo://app?vid=650fd53e-c00c-4b53-bfd7-51afb7900467"},"vehicle_type_id":"4","last_reported":1747404624,"current_range_meters":19200,"station_id":"ce4bgt92rcd13ifvqcf0","pricing_plan_id":"cebpf4jnsgd1na2vs0mg"},{"bike_id":"118850d3-2076-4a39-acbe-122184b93d43","system_id":"levelo_inurba_marseille","lat":43.32658,"lon":5.40995,"is_reserved":false,"is_disabled":false,"rental_uris":{"android":"levelo://app?vid=118850d3-2076-4a39-acbe-122184b93d43","ios":"levelo://app?vid=118850d3-2076-4a39-acbe-122184b93d43"},"vehicle_type_id":"4","last_reported":1747404624,"current_range_meters":19600,"station_id":"ce4bhpp2rcd13ifvqhgg","pricing_plan_id":"cebpf4jnsgd1na2vs0mg"},{"bike_id":"f6850572-adc6-4a79-a94d-8a17ddf61a8b","system_id":"levelo_inurba_marseille","lat":43.30328,"lon":5.40435,"is_reserved":false,"is_disabled":false,"rental_uris":{"android":"levelo://app?vid=f6850572-adc6-4a79-a94d-8a17ddf61a8b","ios":"levelo://app?vid=f6850572-adc6-4a79-a94d-8a17ddf61a8b"},"vehicle_type_id":"4","last_reported":1747404624,"current_range_meters":19600,"station_id":"ce4bh012rcd13ifvqd10","pricing_plan_id":"cebpf4jnsgd1na2vs0mg"},{"bike_id":"4adb73d8-f168-4ea8-8e4c-64611fe3a1c0","system_id":"levelo_inurba_marseille","lat":43.259387,"lon":5.408927,"is_reserved":false,"is_disabled":false,"rental_uris":{"android":"levelo://app?vid=4adb73d8-f168-4ea8-8e4c-64611fe3a1c0","ios":"levelo://app?vid=4adb73d8-f168-4ea8-8e4c-64611fe3a1c0"},"vehicle_type_id":"4","last_reported":1747404624,"current_range_meters":19600,"station_id":"ce4bhm92rcd13ifvqglg","pricing_plan_id":"cebpf4jnsgd1na2vs0mg"},{"bike_id":"c1d1d990-1c39-4d09-adfe-671180d666a5","system_id":"levelo_inurba_marseille","lat":43.29798,"lon":5.404,"is_reserved":false,"is_disabled":false,"rental_uris":{"android":"levelo://app?vid=c1d1d990-1c39-4d09-adfe-671180d666a5","ios":"levelo://app?vid=c1d1d990-1c39-4d09-adfe-671180d666a5"},"vehicle_type_id":"4","last_reported":1747404624,"current_range_meters":19600,"station_id":"ce4bh112rcd13ifvqd90","pricing_plan_id":"cebpf4jnsgd1na2vs0mg"},{"bike_id":"817d8df6-8088-4faf-b793-2556a2bc4d8e","system_id":"levelo_inurba_marseille","lat":43.25578,"lon":5.38228,"is_reserved":false,"is_disabled":false,"rental_uris":{"android":"levelo://app?vid=817d8df6-8088-4faf-b793-2556a2bc4d8e","ios":"levelo://app?vid=817d8df6-8088-4faf-b793-2556a2bc4d8e"},"vehicle_type_id":"4","last_reported":1747404624,"current_range_meters":19600,"station_id":"ce4bhih2rcd13ifvqfs0","pricing_plan_id":"cebpf4jnsgd1na2vs0mg"},{"bike_id":"70fee472-8240-4097-ba7f-33fe96fcac86","system_id":"levelo_inurba_marseille","lat":43.24175,"lon":5.397135,"is_reserved":false,"is_disabled":true,"rental_uris":{"android":"levelo://app?vid=70fee472-8240-4097-ba7f-33fe96fcac86","ios":"levelo://app?vid=70fee472-8240-4097-ba7f-33fe96fcac86"},"vehicle_type_id":"4","last_reported":1747404624,"current_range_meters":20000,"station_id":"ce4bhn12rcd13ifvqgpg","pricing_plan_id":"cebpf4jnsgd1na2vs0mg"},{"bike_id":"b8f3e89f-d9a0-4157-8fa0-11c13a7ac59c","system_id":"levelo_inurba_marseille","lat":43.31996,"lon":5.38168,"is_reserved":false,"is_disabled":false,"rental_uris":{"android":"levelo://app?vid=b8f3e89f-d9a0-4157-8fa0-11c13a7ac59c","ios":"levelo://app?vid=b8f3e89f-d9a0-4157-8fa0-11c13a7ac59c"},"vehicle_type_id":"4","last_reported":1747404624,"current_range_meters":19600,"station_id":"ce4bhr12rcd13ifvqhpg","pricing_plan_id":"cebpf4jnsgd1na2vs0mg"},{"bike_id":"a1ab673f-992d-4605-8eab-3749371dec09","system_id":"levelo_inurba_marseille","lat":43.30952,"lon":5.39037,"is_reserved":false,"is_disabled":false,"rental_uris":{"android":"levelo://app?vid=a1ab673f-992d-4605-8eab-3749371dec09","ios":"levelo://app?vid=a1ab673f-992d-4605-8eab-3749371dec09"},"vehicle_type_id":"4","last_reported":1747404624,"current_range_meters":20000,"station_id":"ce4bgup2rcd13ifvqco0","pricing_plan_id":"cebpf4jnsgd1na2vs0mg"},{"bike_id":"12f674e5-cd55-4bd8-8b72-4674b800f182","system_id":"levelo_inurba_marseille","lat":43.30094,"lon":5.39079,"is_reserved":false,"is_disabled":false,"rental_uris":{"android":"levelo://app?vid=12f674e5-cd55-4bd8-8b72-4674b800f182","ios":"levelo://app?vid=12f674e5-cd55-4bd8-8b72-4674b800f182"},"vehicle_type_id":"4","last_reported":1747404624,"current_range_meters":20000,"station_id":"ce4bh192rcd13ifvqdb0","pricing_plan_id":"cebpf4jnsgd1na2vs0mg"},{"bike_id":"7894f355-458a-4054-8293-a29498474067","system_id":"levelo_inurba_marseille","lat":43.29199,"lon":5.39324,"is_reserved":false,"is_disabled":false,"rental_uris":{"android":"levelo://app?vid=7894f355-458a-4054-8293-a29498474067","ios":"levelo://app?vid=7894f355-458a-4054-8293-a29498474067"},"vehicle_type_id":"4","last_reported":1747404624,"current_range_meters":20000,"station_id":"ce4bh192rcd13ifvqdd0","pricing_plan_id":"cebpf4jnsgd1na2vs0mg"},{"bike_id":"468babb5-073b-402c-a4c4-36eec32951a1","system_id":"levelo_inurba_marseille","lat":43.24667,"lon":5.38167,"is_reserved":false,"is_disabled":false,"rental_uris":{"android":"levelo://app?vid=468babb5-073b-402c-a4c4-36eec32951a1","ios":"levelo://app?vid=468babb5-073b-402c-a4c4-36eec32951a1"},"vehicle_type_id":"4","last_reported":1747404624,"current_range_meters":19600,"station_id":"ce4bhih2rcd13ifvqfr0","pricing_plan_id":"cebpf4jnsgd1na2vs0mg"},{"bike_id":"07e67825-d2d7-48e0-b14f-970c6b645709","system_id":"levelo_inurba_marseille","lat":43.30424,"lon":5.41275,"is_reserved":false,"is_disabled":false,"rental_uris":{"android":"levelo://app?vid=07e67825-d2d7-48e0-b14f-970c6b645709","ios":"levelo://app?vid=07e67825-d2d7-48e0-b14f-970c6b645709"},"vehicle_type_id":"4","last_reported":1747404624,"current_range_meters":20000,"station_id":"ce4bhop2rcd13ifvqh8g","pricing_plan_id":"cebpf4jnsgd1na2vs0mg"},{"bike_id":"363a7604-0118-4f8f-9713-996b48c5681f","system_id":"levelo_inurba_marseille","lat":43.29538,"lon":5.39395,"is_reserved":false,"is_disabled":false,"rental_uris":{"android":"levelo://app?vid=363a7604-0118-4f8f-9713-996b48c5681f","ios":"levelo://app?vid=363a7604-0118-4f8f-9713-996b48c5681f"},"vehicle_type_id":"4","last_reported":1747404624,"current_range_meters":19600,"station_id":"ce4bh292rcd13ifvqdf0","pricing_plan_id":"cebpf4jnsgd1na2vs0mg"},{"bike_id":"32ec5a9f-ba0d-4d6d-ba18-8446403a4522","system_id":"levelo_inurba_marseille","lat":43.28276,"lon":5.35076,"is_reserved":false,"is_disabled":true,"rental_uris":{"android":"levelo://app?vid=32ec5a9f-ba0d-4d6d-ba18-8446403a4522","ios":"levelo://app?vid=32ec5a9f-ba0d-4d6d-ba18-8446403a4522"},"vehicle_type_id":"4","last_reported":1747404624,"current_range_meters":20000,"station_id":"ce4bhbp2rcd13ifvqerg","pricing_plan_id":"cebpf4jnsgd1na2vs0mg"},{"bike_id":"c9c88ab3-6cfb-47a7-9f5c-394d05e6fd8b","system_id":"levelo_inurba_marseille","lat":43.31711,"lon":5.43712,"is_reserved":false,"is_disabled":false,"rental_uris":{"android":"levelo://app?vid=c9c88ab3-6cfb-47a7-9f5c-394d05e6fd8b","ios":"levelo://app?vid=c9c88ab3-6cfb-47a7-9f5c-394d05e6fd8b"},"vehicle_type_id":"4","last_reported":1747404624,"current_range_meters":20000,"station_id":"ce4bhp92rcd13ifvqhcg","pricing_plan_id":"cebpf4jnsgd1na2vs0mg"},{"bike_id":"4595279f-4bdc-49bd-a7e9-40f38832497c","system_id":"levelo_inurba_marseille","lat":43.29007,"lon":5.356083,"is_reserved":false,"is_disabled":false,"rental_uris":{"android":"levelo://app?vid=4595279f-4bdc-49bd-a7e9-40f38832497c","ios":"levelo://app?vid=4595279f-4bdc-49bd-a7e9-40f38832497c"},"vehicle_type_id":"4","last_reported":1747404624,"current_range_meters":19600,"station_id":"ce4bhb92rcd13ifvqen0","pricing_plan_id":"cebpf4jnsgd1na2vs0mg"},{"bike_id":"f295179f-de6a-498e-8e1e-839cb4939dcc","system_id":"levelo_inurba_marseille","lat":43.32485,"lon":5.36596,"is_reserved":false,"is_disabled":false,"rental_uris":{"android":"levelo://app?vid=f295179f-de6a-498e-8e1e-839cb4939dcc","ios":"levelo://app?vid=f295179f-de6a-498e-8e1e-839cb4939dcc"},"vehicle_type_id":"4","last_reported":1747404624,"current_range_meters":20000,"station_id":"ce4bhs12rcd13ifvqhvg","pricing_plan_id":"cebpf4jnsgd1na2vs0mg"},{"bike_id":"49d5b390-28e7-46fa-9b4b-42b804aa529c","system_id":"levelo_inurba_marseille","lat":43.273752,"lon":5.36254,"is_reserved":false,"is_disabled":false,"rental_uris":{"android":"levelo://app?vid=49d5b390-28e7-46fa-9b4b-42b804aa529c","ios":"levelo://app?vid=49d5b390-28e7-46fa-9b4b-42b804aa529c"},"vehicle_type_id":"4","last_reported":1747404624,"current_range_meters":20000,"station_id":"ce4bhbh2rcd13ifvqeo0","pricing_plan_id":"cebpf4jnsgd1na2vs0mg"},{"bike_id":"e3c555d4-a659-4441-a6c8-ee746a943cba","system_id":"levelo_inurba_marseille","lat":43.27323,"lon":5.39063,"is_reserved":false,"is_disabled":false,"rental_uris":{"android":"levelo://app?vid=e3c555d4-a659-4441-a6c8-ee746a943cba","ios":"levelo://app?vid=e3c555d4-a659-4441-a6c8-ee746a943cba"},"vehicle_type_id":"4","last_reported":1747404624,"current_range_meters":20000,"station_id":"ce4bhgp2rcd13ifvqfe0","pricing_plan_id":"cebpf4jnsgd1na2vs0mg"},{"bike_id":"df19a046-bc8f-4751-980f-3fc4c19f613a","system_id":"levelo_inurba_marseille","lat":43.27493,"lon":5.42453,"is_reserved":false,"is_disabled":false,"rental_uris":{"android":"levelo://app?vid=df19a046-bc8f-4751-980f-3fc4c19f613a","ios":"levelo://app?vid=df19a046-bc8f-4751-980f-3fc4c19f613a"},"vehicle_type_id":"4","last_reported":1747404624,"current_range_meters":20400,"station_id":"ce4bhn92rcd13ifvqgrg","pricing_plan_id":"cebpf4jnsgd1na2vs0mg"},{"bike_id":"17904186-72da-4fdd-8da6-249644f1bc05","system_id":"levelo_inurba_marseille","lat":43.28457,"lon":5.35886,"is_reserved":false,"is_disabled":false,"rental_uris":{"android":"levelo://app?vid=17904186-72da-4fdd-8da6-249644f1bc05","ios":"levelo://app?vid=17904186-72da-4fdd-8da6-249644f1bc05"},"vehicle_type_id":"4","last_reported":1747404624,"current_range_meters":20400,"station_id":"ce4bhah2rcd13ifvqei0","pricing_plan_id":"cebpf4jnsgd1na2vs0mg"},{"bike_id":"05f59084-fc2d-4509-84da-fb6fd49d9a18","system_id":"levelo_inurba_marseille","lat":43.308533,"lon":5.396328,"is_reserved":false,"is_disabled":false,"rental_uris":{"android":"levelo://app?vid=05f59084-fc2d-4509-84da-fb6fd49d9a18","ios":"levelo://app?vid=05f59084-fc2d-4509-84da-fb6fd49d9a18"},"vehicle_type_id":"4","last_reported":1747404624,"current_range_meters":20400,"station_id":"ce4bh012rcd13ifvqcv0","pricing_plan_id":"cebpf4jnsgd1na2vs0mg"},{"bike_id":"932fafbf-c3d0-4712-812c-036e5ebd682c","system_id":"levelo_inurba_marseille","lat":43.2512,"lon":5.40314,"is_reserved":false,"is_disabled":false,"rental_uris":{"android":"levelo://app?vid=932fafbf-c3d0-4712-812c-036e5ebd682c","ios":"levelo://app?vid=932fafbf-c3d0-4712-812c-036e5ebd682c"},