{"last_updated":1679864736,"ttl":30,"version":"2.2","data":{"bikes":[{"bike_id":"abe6aee3-08ab-42d6-b86b-5a45f3951eda","system_id":"levelo_inurba_marseille","lat":43.312239,"lon":5.368562,"is_reserved":false,"is_disabled":false,"rental_uris":{"android":"levelo://app?vid=abe6aee3-08ab-42d6-b86b-5a45f3951eda","ios":"levelo://app?vid=abe6aee3-08ab-42d6-b86b-5a45f3951eda"},"vehicle_type_id":"4","last_reported":1679864737,"current_range_meters":1200,"station_id":"ce4bgl92rcd13ifvqbq0","pricing_plan_id":"free"},{"bike_id":"4a7d31f4-1b70-484b-ba52-4b5284c03fd5","system_id":"levelo_inurba_marseille","lat":43.312239,"lon":5.368562,"is_reserved":false,"is_disabled":false,"rental_uris":{"android":"levelo://app?vid=4a7d31f4-1b70-484b-ba52-4b5284c03fd5","ios":"levelo://app?vid=4a7d31f4-1b70-484b-ba52-4b5284c03fd5"},"vehicle_type_id":"4","last_reported":1679864737,"current_range_meters":10000,"station_id":"ce4bgl92rcd13ifvqbq0","pricing_plan_id":"free"},{"bike_id":"41040c8b-69ed-447a-b6e5-c7568ad670a7","system_id":"levelo_inurba_marseille","lat":43.314811,"lon":5.373103,"is_reserved":false,"is_disabled":false,"rental_uris":{"android":"levelo://app?vid=41040c8b-69ed-447a-b6e5-c7568ad670a7","ios":"levelo://app?vid=41040c8b-69ed-447a-b6e5-c7568ad670a7"},"vehicle_type_id":"4","last_reported":1679864737,"current_range_meters":0,"station_id":"ce4bgt12rcd13ifvqcd0","pricing_plan_id":"free"},{"bike_id":"b892e1e4-0f67-4318-9af9-95b584452a62","system_id":"levelo_inurba_marseille","lat":43.317993,"lon":5.369517,"is_reserved":false,"is_disabled":false,"rental_uris":{"android":"levelo://app?vid=b892e1e4-0f67-4318-9af9-95b584452a62","ios":"levelo://app?vid=b892e1e4-0f67-4318-9af9-95b584452a62"},"vehicle_type_id":"4","last_reported":1679864737,"current_range_meters":7200,"station_id":"","pricing_plan_id":"free"},{"bike_id":"28159b16-005f-4265-a0a2-adeb875ea2c1","system_id":"levelo_inurba_marseille","lat":43.310715,"lon":5.37812,"is_reserved":false,"is_disabled":false,"rental_uris":{"android":"levelo://app?vid=28159b16-005f-4265-a0a2-adeb875ea2c1","ios":"levelo://app?vid=28159b16-005f-4265-a0a2-adeb875ea2c1"},"vehicle_type_id":"4","last_reported":1679864737,"current_range_meters":27600,"station_id":"ce4bgt12rcd13ifvqce0","pricing_plan_id":"free"},{"bike_id":"65696ac3-ba5b-455e-bc42-26e38e32dc30","system_id":"levelo_inurba_marseille","lat":43.317075,"lon":5.377367,"is_reserved":false,"is_disabled":false,"rental_uris":{"android":"levelo://app?vid=65696ac3-ba5b-455e-bc42-26e38e32dc30","ios":"levelo://app?vid=65696ac3-ba5b-455e-bc42-26e38e32dc30"},"vehicle_type_id":"4","last_reported":1679864737,"current_range_meters":20000,"station_id":"ce4bgth2rcd13ifvqch0","pricing_plan_id":"free"},{"bike_id":"ee673b97-7a15-4ee4-95e5-337583ccf2db","system_id":"levelo_inurba_marseille","lat":43.317075,"lon":5.377367,"is_reserved":false,"is_disabled":false,"rental_uris":{"android":"levelo://app?vid=ee673b97-7a15-4ee4-95e5-337583ccf2db","ios":"levelo://app?vid=ee673b97-7a15-4ee4-95e5-337583ccf2db"},"vehicle_type_id":"4","last_reported":1679864737,"current_range_meters":5600,"station_id":"ce4bgth2rcd13ifvqch0","pricing_plan_id":"free"},{"bike_id":"c5516517-c1a9-4d4f-baea-91eeae9bc2ad","system_id":"levelo_inurba_marseille","lat":43.317075,"lon":5.377367,"is_reserved":false,"is_disabled":false,"rental_uris":{"android":"levelo://app?vid=c5516517-c1a9-4d4f-baea-91eeae9bc2ad","ios":"levelo://app?vid=c5516517-c1a9-4d4f-baea-91eeae9bc2ad"},"vehicle_type_id":"4","last_reported":1679864737,"current_range_meters":2400,"station_id":"ce4bgth2rcd13ifvqch0","pricing_plan_id":"free"},{"bike_id":"db3c8a58-c66c-42bf-846d-78672da18a6c","system_id":"levelo_inurba_marseille","lat":43.30808,"lon":5.381497,"is_reserved":false,"is_disabled":false,"rental_uris":{"android":"levelo://app?vid=db3c8a58-c66c-42bf-846d-78672da18a6c","ios":"levelo://app?vid=db3c8a58-c66c-42bf-846d-78672da18a6c"},"vehicle_type_id":"4","last_reported":1679864737,"current_range_meters":0,"station_id":"","pricing_plan_id":"free"},{"bike_id":"3ba873c1-78f9-4c45-9f2d-f9c79065082f","system_id":"levelo_inurba_marseille","lat":43.308031,"lon":5.381569,"is_reserved":false,"is_disabled":false,"rental_uris":{"android":"levelo://app?vid=3ba873c1-78f9-4c45-9f2d-f9c79065082f","ios":"levelo://app?vid=3ba873c1-78f9-4c45-9f2d-f9c79065082f"},"vehicle_type_id":"4","last_reported":1679864737,"current_range_meters":0,"station_id":"","pricing_plan_id":"free"},{"bike_id":"8e573498-6b14-485f-85cc-197b96d8a5a9","system_id":"levelo_inurba_marseille","lat":43.304606,"lon":5.379026,"is_reserved":false,"is_disabled":false,"rental_uris":{"android":"levelo://app?vid=8e573498-6b14-485f-85cc-197b96d8a5a9","ios":"levelo://app?vid=8e573498-6b14-485f-85cc-197b96d8a5a9"},"vehicle_type_id":"4","last_reported":1679864737,"current_range_meters":0,"station_id":"ce4bgup2rcd13ifvqcn0","pricing_plan_id":"free"},{"bike_id":"846e581b-c9c5-4040-8011-b6e239ad1cf9","system_id":"levelo_inurba_marseille","lat":43.299124,"lon":5.37473,"is_reserved":false,"is_disabled":false,"rental_uris":{"android":"levelo://app?vid=846e581b-c9c5-4040-8011-b6e239ad1cf9","ios":"levelo://app?vid=846e581b-c9c5-4040-8011-b6e239ad1cf9"},"vehicle_type_id":"4","last_reported":1679864737,"current_range_meters":0,"station_id":"","pricing_plan_id":"free"},{"bike_id":"af5c8695-daca-4f76-a17b-9ea592da1992","system_id":"levelo_inurba_marseille","lat":43.297331,"lon":5.376832,"is_reserved":false,"is_disabled":false,"rental_uris":{"android":"levelo://app?vid=af5c8695-daca-4f76-a17b-9ea592da1992","ios":"levelo://app?vid=af5c8695-daca-4f76-a17b-9ea592da1992"},"vehicle_type_id":"4","last_reported":1679864737,"current_range_meters":0,"station_id":"","pricing_plan_id":"free"},{"bike_id":"dc9428f2-9d74-4f01-abab-f753aee95ff7","system_id":"levelo_inurba_marseille","lat":43.296921,"lon":5.376579,"is_reserved":false,"is_disabled":false,"rental_uris":{"android":"levelo://app?vid=dc9428f2-9d74-4f01-abab-f753aee95ff7","ios":"levelo://app?vid=dc9428f2-9d74-4f01-abab-f753aee95ff7"},"vehicle_type_id":"4","last_reported":1679864737,"current_range_meters":0,"station_id":"ce4bgkh2rcd13ifvqbl0","pricing_plan_id":"free"},{"bike_id":"23b1b126-c240-4252-aa0d-742b5264b993","system_id":"levelo_inurba_marseille","lat":43.296921,"lon":5.376579,"is_reserved":false,"is_disabled":false,"rental_uris":{"android":"levelo://app?vid=23b1b126-c240-4252-aa0d-742b5264b993","ios":"levelo://app?vid=23b1b126-c240-4252-aa0d-742b5264b993"},"vehicle_type_id":"4","last_reported":1679864737,"current_range_meters":0,"station_id":"ce4bgkh2rcd13ifvqbl0","pricing_plan_id":"free"},{"bike_id":"4957af2f-5f0f-471f-bd4a-f3986287913f","system_id":"levelo_inurba_marseille","lat":43.309589,"lon":5.390258,"is_reserved":false,"is_disabled":false,"rental_uris":{"android":"levelo://app?vid=4957af2f-5f0f-471f-bd4a-f3986287913f","ios":"levelo://app?vid=4957af2f-5f0f-471f-bd4a-f3986287913f"},"vehicle_type_id":"4","last_reported":1679864737,"current_range_meters":0,"station_id":"ce4bgup2rcd13ifvqco0","pricing_plan_id":"free"},{"bike_id":"22bd96c0-ff9a-4dd8-96de-d86d3758d4d9","system_id":"levelo_inurba_marseille","lat":43.2966,"lon":5.37815,"is_reserved":false,"is_disabled":false,"rental_uris":{"android":"levelo://app?vid=22bd96c0-ff9a-4dd8-96de-d86d3758d4d9","ios":"levelo://app?vid=22bd96c0-ff9a-4dd8-96de-d86d3758d4d9"},"vehicle_type_id":"4","last_reported":1679864737,"current_range_meters":0,"station_id":"ce4bgi92rcd13ifvqb90","pricing_plan_id":"free"},{"bike_id":"ee44875f-23b3-41eb-8bcc-21416150a2e0","system_id":"levelo_inurba_marseille","lat":43.304278,"lon":5.388868,"is_reserved":false,"is_disabled":false,"rental_uris":{"android":"levelo://app?vid=ee44875f-23b3-41eb-8bcc-21416150a2e0","ios":"levelo://app?vid=ee44875f-23b3-41eb-8bcc-21416150a2e0"},"vehicle_type_id":"4","last_reported":1679864737,"current_range_meters":2800,"station_id":"ce4bgk12rcd13ifvqbi0","pricing_plan_id":"free"},{"bike_id":"7ad13252-c8ef-4901-a0fe-5b24036441cc","system_id":"levelo_inurba_marseille","lat":43.304278,"lon":5.388868,"is_reserved":false,"is_disabled":false,"rental_uris":{"android":"levelo://app?vid=7ad13252-c8ef-4901-a0fe-5b24036441cc","ios":"levelo://app?vid=7ad13252-c8ef-4901-a0fe-5b24036441cc"},"vehicle_type_id":"4","last_reported":1679864737,"current_range_meters":0,"station_id":"ce4bgk12rcd13ifvqbi0","pricing_plan_id":"free"},{"bike_id":"77811361-2d8d-45d5-b346-89b307556f92","system_id":"levelo_inurba_marseille","lat":43.295944,"lon":5.378284,"is_reserved":false,"is_disabled":false,"rental_uris":{"android":"levelo://app?vid=77811361-2d8d-45d5-b346-89b307556f92","ios":"levelo://app?vid=77811361-2d8d-45d5-b346-89b307556f92"},"vehicle_type_id":"4","last_reported":1679864737,"current_range_meters":0,"station_id":"","pricing_plan_id":"free"},{"bike_id":"d5de9ace-53d3-4521-ac12-d9b4d978e0f7","system_id":"levelo_inurba_marseille","lat":43.29305,"lon":5.37171,"is_reserved":false,"is_disabled":false,"rental_uris":{"android":"levelo://app?vid=d5de9ace-53d3-4521-ac12-d9b4d978e0f7","ios":"levelo://app?vid=d5de9ace-53d3-4521-ac12-d9b4d978e0f7"},"vehicle_type_id":"4","last_reported":1679864737,"current_range_meters":0,"station_id":"","pricing_plan_id":"free"},{"bike_id":"06d2f101-7ace-48da-a5a4-d5c0bb8bbafd","system_id":"levelo_inurba_marseille","lat":43.309038,"lon":5.396546,"is_reserved":false,"is_disabled":false,"rental_uris":{"android":"levelo://app?vid=06d2f101-7ace-48da-a5a4-d5c0bb8bbafd","ios":"levelo://app?vid=06d2f101-7ace-48da-a5a4-d5c0bb8bbafd"},"vehicle_type_id":"4","last_reported":1679864737,"current_range_meters":2000,"station_id":"ce4bh012rcd13ifvqcv0","pricing_plan_id":"free"},{"bike_id":"224c9665-236a-4a2f-8046-6473211985c6","system_id":"levelo_inurba_marseille","lat":43.29033,"lon":5.35906,"is_reserved":false,"is_disabled":false,"rental_uris":{"android":"levelo://app?vid=224c9665-236a-4a2f-8046-6473211985c6","ios":"levelo://app?vid=224c9665-236a-4a2f-8046-6473211985c6"},"vehicle_type_id":"4","last_reported":1679864737,"current_range_meters":0,"station_id":"ce4bha92rcd13ifvqeg0","pricing_plan_id":"free"},{"bike_id":"60995c9c-56c0-473e-9b6e-83455aa452e2","system_id":"levelo_inurba_marseille","lat":43.289417,"lon":5.366311,"is_reserved":false,"is_disabled":false,"rental_uris":{"android":"levelo://app?vid=60995c9c-56c0-473e-9b6e-83455aa452e2","ios":"levelo://app?vid=60995c9c-56c0-473e-9b6e-83455aa452e2"},"vehicle_type_id":"4","last_reported":1679864737,"current_range_meters":0,"station_id":"","pricing_plan_id":"free"},{"bike_id":"660c76ca-7713-4cca-a795-889206550af5","system_id":"levelo_inurba_marseille","lat":43.28856,"lon":5.358371,"is_reserved":false,"is_disabled":false,"rental_uris":{"android":"levelo://app?vid=660c76ca-7713-4cca-a795-889206550af5","ios":"levelo://app?vid=660c76ca-7713-4cca-a795-889206550af5"},"vehicle_type_id":"4","last_reported":1679864737,"current_range_meters":29200,"station_id":"ce4bhb12rcd13ifvqem0","pricing_plan_id":"free"},{"bike_id":"5dbe79cc-8fb2-4919-b431-be73ab496c56","system_id":"levelo_inurba_marseille","lat":43.337463,"lon":5.37464,"is_reserved":false,"is_disabled":false,"rental_uris":{"android":"levelo://app?vid=5dbe79cc-8fb2-4919-b431-be73ab496c56","ios":"levelo://app?vid=5dbe79cc-8fb2-4919-b431-be73ab496c56"},"vehicle_type_id":"4","last_reported":1679864737,"current_range_meters":27200,"station_id":"","pricing_plan_id":"free"},{"bike_id":"68945ec7-8151-430c-bc43-aa93473c08bc","system_id":"levelo_inurba_marseille","lat":43.286593,"lon":5.363346,"is_reserved":false,"is_disabled":false,"rental_uris":{"android":"levelo://app?vid=68945ec7-8151-430c-bc43-aa93473c08bc","ios":"levelo://app?vid=68945ec7-8151-430c-bc43-aa93473c08bc"},"vehicle_type_id":"4","last_reported":1679864737,"current_range_meters":0,"station_id":"ce4bhah2rcd13ifvqej0","pricing_plan_id":"free"},{"bike_id":"5e424355-5f66-4e21-8731-89d769fb7dc2","system_id":"levelo_inurba_marseille","lat":43.29518,"lon":5.39397,"is_reserved":false,"is_disabled":false,"rental_uris":{"android":"levelo://app?vid=5e424355-5f66-4e21-8731-89d769fb7dc2","ios":"levelo://app?vid=5e424355-5f66-4e21-8731-89d769fb7dc2"},"vehicle_type_id":"4","last_reported":1679864737,"current_range_meters":5600,"station_id":"ce4bh212rcd13ifvqde0","pricing_plan_id":"free"},{"bike_id":"82bd922c-9ce1-4c60-840f-dc7b135e83fa","system_id":"levelo_inurba_marseille","lat":43.3025,"lon":5.40049,"is_reserved":false,"is_disabled":false,"rental_uris":{"android":"levelo://app?vid=82bd922c-9ce1-4c60-840f-dc7b135e83fa","ios":"levelo://app?vid=82bd922c-9ce1-4c60-840f-dc7b135e83fa"},"vehicle_type_id":"4","last_reported":1679864737,"current_range_meters":0,"station_id":"","pricing_plan_id":"free"},{"bike_id":"0dc94d3c-6a08-41a4-9be1-52cceeff8557","system_id":"levelo_inurba_marseille","lat":43.290306,"lon":5.386332,"is_reserved":false,"is_disabled":false,"rental_uris":{"android":"levelo://app?vid=0dc94d3c-6a08-41a4-9be1-52cceeff8557","ios":"levelo://app?vid=0dc94d3c-6a08-41a4-9be1-52cceeff8557"},"vehicle_type_id":"4","last_reported":1679864737,"current_range_meters":800,"station_id":"","pricing_plan_id":"free"},{"bike_id":"1d191d97-77b6-405a-b9c2-5f5dd1945ecd","system_id":"levelo_inurba_marseille","lat":43.326546,"lon":5.398445,"is_reserved":false,"is_disabled":false,"rental_uris":{"android":"levelo://app?vid=1d191d97-77b6-405a-b9c2-5f5dd1945ecd","ios":"levelo://app?vid=1d191d97-77b6-405a-b9c2-5f5dd1945ecd"},"vehicle_type_id":"4","last_reported":1679864737,"current_range_meters":4800,"station_id":"","pricing_plan_id":"free"},{"bike_id":"4170f2c8-e74b-4af5-a5f6-41a1159c55b9","system_id":"levelo_inurba_marseille","lat":43.316517,"lon":5.404375,"is_reserved":false,"is_disabled":false,"rental_uris":{"android":"levelo://app?vid=4170f2c8-e74b-4af5-a5f6-41a1159c55b9","ios":"levelo://app?vid=4170f2c8-e74b-4af5-a5f6-41a1159c55b9"},"vehicle_type_id":"4","last_reported":1679864737,"current_range_meters":5600,"station_id":"ce4bh012rcd13ifvqd00","pricing_plan_id":"free"},{"bike_id":"a6a41833-5cbc-4165-a08b-90d39c5b0da1","system_id":"levelo_inurba_marseille","lat":43.30032,"lon":5.40104,"is_reserved":false,"is_disabled":false,"rental_uris":{"android":"levelo://app?vid=a6a41833-5cbc-4165-a08b-90d39c5b0da1","ios":"levelo://app?vid=a6a41833-5cbc-4165-a08b-90d39c5b0da1"},"vehicle_type_id":"4","last_reported":1679864737,"current_range_meters":0,"station_id":"","pricing_plan_id":"free"},{"bike_id":"dfd44689-2885-48a8-bc37-5d8c40c50210","system_id":"levelo_inurba_marseille","lat":43.284534,"lon":5.358662,"is_reserved":false,"is_disabled":false,"rental_uris":{"android":"levelo://app?vid=dfd44689-2885-48a8-bc37-5d8c40c50210","ios":"levelo://app?vid=dfd44689-2885-48a8-bc37-5d8c40c50210"},"vehicle_type_id":"4","last_reported":1679864737,"current_range_meters":0,"station_id":"ce4bhah2rcd13ifvqei0","pricing_plan_id":"free"},{"bike_id":"3380b55d-d8e9-4ae0-b27f-4b0b1f88cb5c","system_id":"levelo_inurba_marseille","lat":43.295713,"lon":5.399639,"is_reserved":false,"is_disabled":false,"rental_uris":{"android":"levelo://app?vid=3380b55d-d8e9-4ae0-b27f-4b0b1f88cb5c","ios":"levelo://app?vid=3380b55d-d8e9-4ae0-b27f-4b0b1f88cb5c"},"vehicle_type_id":"4","last_reported":1679864737,"current_range_meters":0,"station_id":"ce4bh312rcd13ifvqdj0","pricing_plan_id":"free"},{"bike_id":"284315d3-f8c1-46df-9b17-5ee51240e2ea","system_id":"levelo_inurba_marseille","lat":43.284793,"lon":5.384113,"is_reserved":false,"is_disabled":false,"rental_uris":{"android":"levelo://app?vid=284315d3-f8c1-46df-9b17-5ee51240e2ea","ios":"levelo://app?vid=284315d3-f8c1-46df-9b17-5ee51240e2ea"},"vehicle_type_id":"4","last_reported":1679864737,"current_range_meters":3600,"station_id":"ce4bh512rcd13ifvqe3g","pricing_plan_id":"free"},{"bike_id":"7ea5b8d4-4a7f-4ed8-8474-5e56cfe2142a","system_id":"levelo_inurba_marseille","lat":43.288497,"lon":5.393089,"is_reserved":false,"is_disabled":false,"rental_uris":{"android":"levelo://app?vid=7ea5b8d4-4a7f-4ed8-8474-5e56cfe2142a","ios":"levelo://app?vid=7ea5b8d4-4a7f-4ed8-8474-5e56cfe2142a"},"vehicle_type_id":"4","last_reported":1679864737,"current_range_meters":2400,"station_id":"ce4bh2p2rcd13ifvqdi0","pricing_plan_id":"free"},{"bike_id":"8cdb4b30-acfe-41c9-be58-0ccba1773928","system_id":"levelo_inurba_marseille","lat":43.288497,"lon":5.393089,"is_reserved":false,"is_disabled":false,"rental_uris":{"android":"levelo://app?vid=8cdb4b30-acfe-41c9-be58-0ccba1773928","ios":"levelo://app?vid=8cdb4b30-acfe-41c9-be58-0ccba1773928"},"vehicle_type_id":"4","last_reported":1679864737,"current_range_meters":0,"station_id":"ce4bh2p2rcd13ifvqdi0","pricing_plan_id":"free"},{"bike_id":"53468947-56d1-4ad8-9744-4fdbe0f3e220","system_id":"levelo_inurba_marseille","lat":43.288497,"lon":5.393089,"is_reserved":false,"is_disabled":false,"rental_uris":{"android":"levelo://app?vid=53468947-56d1-4ad8-9744-4fdbe0f3e220","ios":"levelo://app?vid=53468947-56d1-4ad8-9744-4fdbe0f3e220"},"vehicle_type_id":"4","last_reported":1679864737,"current_range_meters":0,"station_id":"ce4bh2p2rcd13ifvqdi0","pricing_plan_id":"free"},{"bike_id":"71eb67a6-61ac-4190-b9c7-03a7df367caf","system_id":"levelo_inurba_marseille","lat":43.288497,"lon":5.393089,"is_reserved":false,"is_disabled":false,"rental_uris":{"android":"levelo://app?vid=71eb67a6-61ac-4190-b9c7-03a7df367caf","ios":"levelo://app?vid=71eb67a6-61ac-4190-b9c7-03a7df367caf"},"vehicle_type_id":"4","last_reported":1679864737,"current_range_meters":0,"station_id":"ce4bh2p2rcd13ifvqdi0","pricing_plan_id":"free"},{"bike_id":"924c9002-4ead-46d3-b3d9-84f3701ac641","system_id":"levelo_inurba_marseille","lat":43.283502,"lon":5.386471,"is_reserved":false,"is_disabled":false,"rental_uris":{"android":"levelo://app?vid=924c9002-4ead-46d3-b3d9-84f3701ac641","ios":"levelo://app?vid=924c9002-4ead-46d3-b3d9-84f3701ac641"},"vehicle_type_id":"4","last_reported":1679864737,"current_range_meters":400,"station_id":"ce4bh492rcd13ifvqdvg","pricing_plan_id":"free"},{"bike_id":"0f264fee-6664-443d-a80f-8b3e751724e9","system_id":"levelo_inurba_marseille","lat":43.2826,"lon":5.35066,"is_reserved":false,"is_disabled":false,"rental_uris":{"android":"levelo://app?vid=0f264fee-6664-443d-a80f-8b3e751724e9","ios":"levelo://app?vid=0f264fee-6664-443d-a80f-8b3e751724e9"},"vehicle_type_id":"4","last_reported":1679864737,"current_range_meters":0,"station_id":"","pricing_plan_id":"free"},{"bike_id":"a3313729-b7d9-4225-9742-46d93cba90f0","system_id":"levelo_inurba_marseille","lat":43.281044,"lon":5.378308,"is_reserved":false,"is_disabled":false,"rental_uris":{"android":"levelo://app?vid=a3313729-b7d9-4225-9742-46d93cba90f0","ios":"levelo://app?vid=a3313729-b7d9-4225-9742-46d93cba90f0"},"vehicle_type_id":"4","last_reported":1679864737,"current_range_meters":20400,"station_id":"ce4bha12rcd13ifvqee0","pricing_plan_id":"free"},{"bike_id":"c42ea1de-615a-4594-a909-7bf087ecc2a1","system_id":"levelo_inurba_marseille","lat":43.281044,"lon":5.378308,"is_reserved":false,"is_disabled":false,"rental_uris":{"android":"levelo://app?vid=c42ea1de-615a-4594-a909-7bf087ecc2a1","ios":"levelo://app?vid=c42ea1de-615a-4594-a909-7bf087ecc2a1"},"vehicle_type_id":"4","last_reported":1679864737,"current_range_meters":400,"station_id":"ce4bha12rcd13ifvqee0","pricing_plan_id":"free"},{"bike_id":"f1ed81b9-7ba6-4495-8bc8-c9ce82113d85","system_id":"levelo_inurba_marseille","lat":43.304188,"lon":5.412904,"is_reserved":false,"is_disabled":false,"rental_uris":{"android":"levelo://app?vid=f1ed81b9-7ba6-4495-8bc8-c9ce82113d85","ios":"levelo://app?vid=f1ed81b9-7ba6-4495-8bc8-c9ce82113d85"},"vehicle_type_id":"4","last_reported":1679864737,"current_range_meters":19600,"station_id":"ce4bhop2rcd13ifvqh8g","pricing_plan_id":"free"},{"bike_id":"8d2deb91-a3cc-4a44-9735-94df7b97c285","system_id":"levelo_inurba_marseille","lat":43.320045,"lon":5.415048,"is_reserved":false,"is_disabled":false,"rental_uris":{"android":"levelo://app?vid=8d2deb91-a3cc-4a44-9735-94df7b97c285","ios":"levelo://app?vid=8d2deb91-a3cc-4a44-9735-94df7b97c285"},"vehicle_type_id":"4","last_reported":1679864737,"current_range_meters":0,"station_id":"ce4bhq92rcd13ifvqhkg","pricing_plan_id":"free"},{"bike_id":"35f0750b-f50c-4b3b-8c6b-011812b0d9b4","system_id":"levelo_inurba_marseille","lat":43.32541,"lon":5.41427,"is_reserved":false,"is_disabled":false,"rental_uris":{"android":"levelo://app?vid=35f0750b-f50c-4b3b-8c6b-011812b0d9b4","ios":"levelo://app?vid=35f0750b-f50c-4b3b-8c6b-011812b0d9b4"},"vehicle_type_id":"4","last_reported":1679864737,"current_range_meters":2000,"station_id":"","pricing_plan_id":"free"},{"bike_id":"041d4dd8-4def-4880-adfa-3df00fcbbef8","system_id":"levelo_inurba_marseille","lat":43.280784,"lon":5.396622,"is_reserved":false,"is_disabled":false,"rental_uris":{"android":"levelo://app?vid=041d4dd8-4def-4880-adfa-3df00fcbbef8","ios":"levelo://app?vid=041d4dd8-4def-4880-adfa-3df00fcbbef8"},"vehicle_type_id":"4","last_reported":1679864737,"current_range_meters":800,"station_id":"ce4bho12rcd13ifvqh2g","pricing_plan_id":"free"},{"bike_id":"78afb77c-9aea-4cff-b9b7-7aab3427fa58","system_id":"levelo_inurba_marseille","lat":43.33612,"lon":5.410321,"is_reserved":false,"is_disabled":false,"rental_uris":{"android":"levelo://app?vid=78afb77c-9aea-4cff-b9b7-7aab3427fa58","ios":"levelo://app?vid=78afb77c-9aea-4cff-b9b7-7aab3427fa58"},"vehicle_type_id":"4","last_reported":1679864737,"current_range_meters":1200,"station_id":"ce4bhqh2rcd13ifvqhmg","pricing_plan_id":"free"},{"bike_id":"f92c47b1-d325-4af1-9d48-ca87bfbe0602","system_id":"levelo_inurba_marseille","lat":43.336134,"lon":5.410341,"is_reserved":false,"is_disabled":false,"rental_uris":{"android":"levelo://app?vid=f92c47b1-d325-4af1-9d48-ca87bfbe0602","ios":"levelo://app?vid=f92c47b1-d325-4af1-9d48-ca87bfbe0602"},"vehicle_type_id":"4","last_reported":1679864737,"current_range_meters":12000,"station_id":"ce4bhqh2rcd13ifvqhmg","pricing_plan_id":"free"},{"bike_id":"af35db3f-a58d-4bf4-aec8-098af38ff484","system_id":"levelo_inurba_marseille","lat":43.336134,"lon":5.410341,"is_reserved":false,"is_disabled":false,"rental_uris":{"android":"levelo://app?vid=af35db3f-a58d-4bf4-aec8-098af38ff484","ios":"levelo://app?vid=af35db3f-a58d-4bf4-aec8-098af38ff484"},"vehicle_type_id":"4","last_reported":1679864737,"current_range_meters":9600,"station_id":"ce4bhqh2rcd13ifvqhmg","pricing_plan_id":"free"},{"bike_id":"622e6c47-098c-4b11-8e3c-810f2636a14c","system_id":"levelo_inurba_marseille","lat":43.33612,"lon":5.410321,"is_reserved":false,"is_disabled":false,"rental_uris":{"android":"levelo://app?vid=622e6c47-098c-4b11-8e3c-810f2636a14c","ios":"levelo://app?vid=622e6c47-098c-4b11-8e3c-810f2636a14c"},"vehicle_type_id":"4","last_reported":1679864737,"current_range_meters":1200,"station_id":"ce4bhqh2rcd13ifvqhmg","pricing_plan_id":"free"},{"bike_id":"1af7e350-5dd2-4895-9721-ec88dd707eff","system_id":"levelo_inurba_marseille","lat":43.273129,"lon":5.390725,"is_reserved":false,"is_disabled":false,"rental_uris":{"android":"levelo://app?vid=1af7e350-5dd2-4895-9721-ec88dd707eff","ios":"levelo://app?vid=1af7e350-5dd2-4895-9721-ec88dd707eff"},"vehicle_type_id":"4","last_reported":1679864737,"current_range_meters":22400,"station_id":"ce4bhgp2rcd13ifvqfe0","pricing_plan_id":"free"},{"bike_id":"a13f3191-6646-429c-98d3-73afb7df0bdb","system_id":"levelo_inurba_marseille","lat":43.29557,"lon":5.42289,"is_reserved":false,"is_disabled":false,"rental_uris":{"android":"levelo://app?vid=a13f3191-6646-429c-98d3-73afb7df0bdb","ios":"levelo://app?vid=a13f3191-6646-429c-98d3-73afb7df0bdb"},"vehicle_type_id":"4","last_reported":1679864737,"current_range_meters":23200,"station_id":"ce4bhph2rcd13ifvqhdg","pricing_plan_id":"free"},{"bike_id":"305d0be7-5f30-4164-99ff-863ae1eef9b6","system_id":"levelo_inurba_marseille","lat":43.29556,"lon":5.422988,"is_reserved":false,"is_disabled":false,"rental_uris":{"android":"levelo://app?vid=305d0be7-5f30-4164-99ff-863ae1eef9b6","ios":"levelo://app?vid=305d0be7-5f30-4164-99ff-863ae1eef9b6"},"vehicle_type_id":"4","last_reported":1679864737,"current_range_meters":0,"station_id":"ce4bhph2rcd13ifvqhdg","pricing_plan_id":"free"},{"bike_id":"568108d3-4bd0-4edb-8733-a8fa6627ed2e","system_id":"levelo_inurba_marseille","lat":43.278128,"lon":5.407195,"is_reserved":false,"is_disabled":false,"rental_uris":{"android":"levelo://app?vid=568108d3-4bd0-4edb-8733-a8fa6627ed2e","ios":"levelo://app?vid=568108d3-4bd0-4edb-8733-a8fa6627ed2e"},"vehicle_type_id":"4","last_reported":1679864737,"current_range_meters":2000,"station_id":"ce4bhnh2rcd13ifvqgtg","pricing_plan_id":"free"},{"bike_id":"a338d855-4253-4e1e-b5f5-7dba8b9290a8","system_id":"levelo_inurba_marseille","lat":43.33873,"lon":5.41981,"is_reserved":false,"is_disabled":false,"rental_uris":{"android":"levelo://app?vid=a338d855-4253-4e1e-b5f5-7dba8b9290a8","ios":"levelo://app?vid=a338d855-4253-4e1e-b5f5-7dba8b9290a8"},"vehicle_type_id":"4","last_reported":1679864737,"current_range_meters":27200,"station_id":"","pricing_plan_id":"free"},{"bike_id":"2d8093ed-3d9e-4650-8092-1207c164e989","system_id":"levelo_inurba_marseille","lat":43.265714,"lon":5.372891,"is_reserved":false,"is_disabled":false,"rental_uris":{"android":"levelo://app?vid=2d8093ed-3d9e-4650-8092-1207c164e989","ios":"levelo://app?vid=2d8093ed-3d9e-4650-8092-1207c164e989"},"vehicle_type_id":"4","last_reported":1679864737,"current_range_meters":6000,"station_id":"ce4bhg12rcd13ifvqf70","pricing_plan_id":"free"},{"bike_id":"1235e794-8b28-47c9-94e4-d4b352e3f408","system_id":"levelo_inurba_marseille","lat":43.26549,"lon":5.372937,"is_reserved":false,"is_disabled":false,"rental_uris":{"android":"levelo://app?vid=1235e794-8b28-47c9-94e4-d4b352e3f408","ios":"levelo://app?vid=1235e794-8b28-47c9-94e4-d4b352e3f408"},"vehicle_type_id":"4","last_reported":1679864737,"current_range_meters":0,"station_id":"ce4bhg12rcd13ifvqf70","pricing_plan_id":"free"},{"bike_id":"f4da5c1e-bb08-42ce-92e5-2768460b386c","system_id":"levelo_inurba_marseille","lat":43.331864,"lon":5.431794,"is_reserved":false,"is_disabled":false,"rental_uris":{"android":"levelo://app?vid=f4da5c1e-bb08-42ce-92e5-2768460b386c","ios":"levelo://app?vid=f4da5c1e-bb08-42ce-92e5-2768460b386c"},"vehicle_type_id":"4","last_reported":1679864737,"current_range_meters":10800,"station_id":"","pricing_plan_id":"free"},{"bike_id":"d9ee510c-491e-4bc5-b33a-b6b4e44ea725","system_id":"levelo_inurba_marseille","lat":43.317104,"lon":5.436818,"is_reserved":false,"is_disabled":false,"rental_uris":{"android":"levelo://app?vid=d9ee510c-491e-4bc5-b33a-b6b4e44ea725","ios":"levelo://app?vid=d9ee510c-491e-4bc5-b33a-b6b4e44ea725"},"vehicle_type_id":"4","last_reported":1679864737,"current_range_meters":5200,"station_id":"ce4bhp92rcd13ifvqhcg","pricing_plan_id":"free"},{"bike_id":"0a1916b2-e0a8-4eb1-93d8-82fee26bf281","system_id":"levelo_inurba_marseille","lat":43.317104,"lon":5.436818,"is_reserved":false,"is_disabled":false,"rental_uris":{"android":"levelo://app?vid=0a1916b2-e0a8-4eb1-93d8-82fee26bf281","ios":"levelo://app?vid=0a1916b2-e0a8-4eb1-93d8-82fee26bf281"},"vehicle_type_id":"4","last_reported":1679864737,"current_range_meters":400,"station_id":"ce4bhp92rcd13ifvqhcg","pricing_plan_id":"free"},{"bike_id":"69600b78-0f44-40d0-ab39-402aca4eb68d","system_id":"levelo_inurba_marseille","lat":43.29896,"lon":5.43665,"is_reserved":false,"is_disabled":false,"rental_uris":{"android":"levelo://app?vid=69600b78-0f44-40d0-ab39-402aca4eb68d","ios":"levelo://app?vid=69600b78-0f44-40d0-ab39-402aca4eb68d"},"vehicle_type_id":"4","last_reported":1679864737,"current_range_meters":20400,"station_id":"ce4bhpp2rcd13ifvqhfg","pricing_plan_id":"free"},{"bike_id":"5357a8e4-a196-45ec-a1f8-1fd07c17eb75","system_id":"levelo_inurba_marseille","lat":43.260909,"lon":5.397591,"is_reserved":false,"is_disabled":false,"rental_uris":{"android":"levelo://app?vid=5357a8e4-a196-45ec-a1f8-1fd07c17eb75","ios":"levelo://app?vid=5357a8e4-a196-45ec-a1f8-1fd07c17eb75"},"vehicle_type_id":"4","last_reported":1679864737,"current_range_meters":11200,"station_id":"ce4bhi12rcd13ifvqfq0","pricing_plan_id":"free"},{"bike_id":"43207228-b3fd-475f-ae03-41f3f0ffa8ba","system_id":"levelo_inurba_marseille","lat":43.260909,"lon":5.397591,"is_reserved":false,"is_disabled":false,"rental_uris":{"android":"levelo://app?vid=43207228-b3fd-475f-ae03-41f3f0ffa8ba","ios":"levelo://app?vid=43207228-b3fd-475f-ae03-41f3f0ffa8ba"},"vehicle_type_id":"4","last_reported":1679864737,"current_range_meters":6800,"station_id":"ce4bhi12rcd13ifvqfq0","pricing_plan_id":"free"},{"bike_id":"8e344158-5c99-46b8-b84a-a0b85f26dbf4","system_id":"levelo_inurba_marseille","lat":43.260909,"lon":5.397591,"is_reserved":false,"is_disabled":false,"rental_uris":{"android":"levelo://app?vid=8e344158-5c99-46b8-b84a-a0b85f26dbf4","ios":"levelo://app?vid=8e344158-5c99-46b8-b84a-a0b85f26dbf4"},"vehicle_type_id":"4","last_reported":1679864737,"current_range_meters":3200,"station_id":"ce4bhi12rcd13ifvqfq0","pricing_plan_id":"free"},{"bike_id":"de75e9e5-a260-49bf-a5ff-1926dc5f6150","system_id":"levelo_inurba_marseille","lat":43.255756,"lon":5.382303,"is_reserved":false,"is_disabled":false,"rental_uris":{"android":"levelo://app?vid=de75e9e5-a260-49bf-a5ff-1926dc5f6150","ios":"levelo://app?vid=de75e9e5-a260-49bf-a5ff-1926dc5f6150"},"vehicle_type_id":"4","last_reported":1679864737,"current_range_meters":26000,"station_id":"ce4bhih2rcd13ifvqfs0","pricing_plan_id":"free"},{"bike_id":"ea515e7d-cc29-4390-970c-f1d77b12cd20","system_id":"levelo_inurba_marseille","lat":43.254947,"lon":5.376454,"is_reserved":false,"is_disabled":false,"rental_uris":{"android":"levelo://app?vid=ea515e7d-cc29-4390-970c-f1d77b12cd20","ios":"levelo://app?vid=ea515e7d-cc29-4390-970c-f1d77b12cd20"},"vehicle_type_id":"4","last_reported":1679864737,"current_range_meters":0,"station_id":"ce4bhh12rcd13ifvqff0","pricing_plan_id":"free"},{"bike_id":"cff3dab9-b857-454d-af8b-0ee175eb4045","system_id":"levelo_inurba_marseille","lat":43.254947,"lon":5.376454,"is_reserved":false,"is_disabled":false,"rental_uris":{"android":"levelo://app?vid=cff3dab9-b857-454d-af8b-0ee175eb4045","ios":"levelo://app?vid=cff3dab9-b857-454d-af8b-0ee175eb4045"},"vehicle_type_id":"4","last_reported":1679864737,"current_range_meters":25200,"station_id":"ce4bhh12rcd13ifvqff0","pricing_plan_id":"free"},{"bike_id":"c4bbe741-c10c-4b3c-94cf-2b04b35e90d3","system_id":"levelo_inurba_marseille","lat":43.254947,"lon":5.376454,"is_reserved":false,"is_disabled":false,"rental_uris":{"android":"levelo://app?vid=c4bbe741-c10c-4b3c-94cf-2b04b35e90d3","ios":"levelo://app?vid=c4bbe741-c10c-4b3c-94cf-2b04b35e90d3"},"vehicle_type_id":"4","last_reported":1679864737,"current_range_meters":14400,"station_id":"ce4bhh12rcd13ifvqff0","pricing_plan_id":"free"},{"bike_id":"b5505fc3-2cf8-4bb9-84fc-38472ac1234d","system_id":"levelo_inurba_marseille","lat":43.270777,"lon":5.422808,"is_reserved":false,"is_disabled":false,"rental_uris":{"android":"levelo://app?vid=b5505fc3-2cf8-4bb9-84fc-38472ac1234d","ios":"levelo://app?vid=b5505fc3-2cf8-4bb9-84fc-38472ac1234d"},"vehicle_type_id":"4","last_reported":1679864737,"current_range_meters":6400,"station_id":"ce4bhk92rcd13ifvqgb0","pricing_plan_id":"free"},{"bike_id":"08f6336a-adc1-49fc-bc78-b01afdfdfc7c","system_id":"levelo_inurba_marseille","lat":43.270721,"lon":5.422764,"is_reserved":false,"is_disabled":false,"rental_uris":{"android":"levelo://app?vid=08f6336a-adc1-49fc-bc78-b01afdfdfc7c","ios":"levelo://app?vid=08f6336a-adc1-49fc-bc78-b01afdfdfc7c"},"vehicle_type_id":"4","last_reported":1679864737,"current_range_meters":29600,"station_id":"ce4bhk92rcd13ifvqgb0","pricing_plan_id":"free"},{"bike_id":"91b41492-3837-4f8a-ab50-30fbf6b137cf","system_id":"levelo_inurba_marseille","lat":43.270721,"lon":5.422764,"is_reserved":false,"is_disabled":false,"rental_uris":{"android":"levelo://app?vid=91b41492-3837-4f8a-ab50-30fbf6b137cf","ios":"levelo://app?vid=91b41492-3837-4f8a-ab50-30fbf6b137cf"},"vehicle_type_id":"4","last_reported":1679864737,"current_range_meters":4400,"station_id":"ce4bhk92rcd13ifvqgb0","pricing_plan_id":"free"},{"bike_id":"e966b116-f1b6-413a-ac59-63e2ea4fa22f","system_id":"levelo_inurba_marseille","lat":43.270721,"lon":5.422764,"is_reserved":false,"is_disabled":false,"rental_uris":{"android":"levelo://app?vid=e966b116-f1b6-413a-ac59-63e2ea4fa22f","ios":"levelo://app?vid=e966b116-f1b6-413a-ac59-63e2ea4fa22f"},"vehicle_type_id":"4","last_reported":1679864737,"current_range_meters":3600,"station_id":"ce4bhk92rcd13ifvqgb0","pricing_plan_id":"free"},{"bike_id":"f0ba5e52-837f-4754-9829-0dac8eb1e4d5","system_id":"levelo_inurba_marseille","lat":43.250009,"lon":5.389195,"is_reserved":false,"is_disabled":false,"rental_uris":{"android":"levelo://app?vid=f0ba5e52-837f-4754-9829-0dac8eb1e4d5","ios":"levelo://app?vid=f0ba5e52-837f-4754-9829-0dac8eb1e4d5"},"vehicle_type_id":"4","last_reported":1679864737,"current_range_meters":0,"station_id":"ce4bhgp2rcd13ifvqfd0","pricing_plan_id":"free"},{"bike_id":"9fec407a-00ca-465f-8c87-4e5476d05cc9","system_id":"levelo_inurba_marseille","lat":43.25119,"lon":5.40315,"is_reserved":false,"is_disabled":false,"rental_uris":{"android":"levelo://app?vid=9fec407a-00ca-465f-8c87-4e5476d05cc9","ios":"levelo://app?vid=9fec407a-00ca-465f-8c87-4e5476d05cc9"},"vehicle_type_id":"4","last_reported":1679864737,"current_range_meters":4000,"station_id":"ce4bhlh2rcd13ifvqgig","pricing_plan_id":"free"},{"bike_id":"0e1135ae-a901-45e5-bf14-1a90eca17423","system_id":"levelo_inurba_marseille","lat":43.25102,"lon":5.403214,"is_reserved":false,"is_disabled":false,"rental_uris":{"android":"levelo://app?vid=0e1135ae-a901-45e5-bf14-1a90eca17423","ios":"levelo://app?vid=0e1135ae-a901-45e5-bf14-1a90eca17423"},"vehicle_type_id":"4","last_reported":1679864737,"current_range_meters":11600,"station_id":"ce4bhlh2rcd13ifvqgig","pricing_plan_id":"free"},{"bike_id":"326cb4f4-cbdb-455e-ab52-28a8364df52c","system_id":"levelo_inurba_marseille","lat":43.246461,"lon":5.389014,"is_reserved":false,"is_disabled":false,"rental_uris":{"android":"levelo://app?vid=326cb4f4-cbdb-455e-ab52-28a8364df52c","ios":"levelo://app?vid=326cb4f4-cbdb-455e-ab52-28a8364df52c"},"vehicle_type_id":"4","last_reported":1679864737,"current_range_meters":6400,"station_id":"ce4bhg12rcd13ifvqf60","pricing_plan_id":"free"},{"bike_id":"8bcb4702-6194-43eb-a1fc-1fd70d7344b0","system_id":"levelo_inurba_marseille","lat":43.24397,"lon":5.3712,"is_reserved":false,"is_disabled":false,"rental_uris":{"android":"levelo://app?vid=8bcb4702-6194-43eb-a1fc-1fd70d7344b0","ios":"levelo://app?vid=8bcb4702-6194-43eb-a1fc-1fd70d7344b0"},"vehicle_type_id":"4","last_reported":1679864737,"current_range_meters":26800,"station_id":"ce4bhhh2rcd13ifvqfk0","pricing_plan_id":"free"},{"bike_id":"a797e941-4426-40eb-a320-8f2d1009450d","system_id":"levelo_inurba_marseille","lat":43.245581,"lon":5.395069,"is_reserved":false,"is_disabled":false,"rental_uris":{"android":"levelo://app?vid=a797e941-4426-40eb-a320-8f2d1009450d","ios":"levelo://app?vid=a797e941-4426-40eb-a320-8f2d1009450d"},"vehicle_type_id":"4","last_reported":1679864737,"current_range_meters":400,"station_id":"ce4bhlp2rcd13ifvqgjg","pricing_plan_id":"free"},{"bike_id":"1fde9e1d-5fd5-477c-9d4f-1dd57ba6b1b7","system_id":"levelo_inurba_marseille","lat":43.24076,"lon":5.37759,"is_reserved":false,"is_disabled":false,"rental_uris":{"android":"levelo://app?vid=1fde9e1d-5fd5-477c-9d4f-1dd57ba6b1b7","ios":"levelo://app?vid=1fde9e1d-5fd5-477c-9d4f-1dd57ba6b1b7"},"vehicle_type_id":"4","last_reported":1679864737,"current_range_meters":30000,"station_id":"ce4bhnp2rcd13ifvqgvg","pricing_plan_id":"free"},{"bike_id":"01390ef5-744a-40f2-a77b-906256da51e7","system_id":"levelo_inurba_marseille","lat":43.240623,"lon":5.377642,"is_reserved":false,"is_disabled":false,"rental_uris":{"android":"levelo://app?vid=01390ef5-744a-40f2-a77b-906256da51e7","ios":"levelo://app?vid=01390ef5-744a-40f2-a77b-906256da51e7"},"vehicle_type_id":"4","last_reported":1679864737,"current_range_meters":0,"station_id":"ce4bhnp2rcd13ifvqgvg","pricing_plan_id":"free"},{"bike_id":"d245cfdb-b3f5-40a7-baa3-2406ad54b4b5","system_id":"levelo_inurba_marseille","lat":43.28535,"lon":5.45978,"is_reserved":false,"is_disabled":false,"rental_uris":{"android":"levelo://app?vid=d245cfdb-b3f5-40a7-baa3-2406ad54b4b5","ios":"levelo://app?vid=d245cfdb-b3f5-40a7-baa3-2406ad54b4b5"},"vehicle_type_id":"4","last_reported":1679864737,"current_range_meters":25600,"station_id":"","pricing_plan_id":"free"},{"bike_id":"e229d9b3-fd72-4606-a5ed-f9cbcbdd08d0","system_id":"levelo_inurba_marseille","lat":43.239588,"lon":5.366238,"is_reserved":false,"is_disabled":false,"rental_uris":{"android":"levelo://app?vid=e229d9b3-fd72-4606-a5ed-f9cbcbdd08d0","ios":"levelo://app?vid=e229d9b3-fd72-4606-a5ed-f9cbcbdd08d0"},"vehicle_type_id":"4","last_reported":1679864737,"current_range_meters":0,"station_id":"ce4bhi12rcd13ifvqfp0","pricing_plan_id":"free"},{"bike_id":"99ec9591-689f-43c6-b4f0-94293b068ab3","system_id":"levelo_inurba_marseille","lat":43.243809,"lon":5.403061,"is_reserved":false,"is_disabled":false,"rental_uris":{"android":"levelo://app?vid=99ec9591-689f-43c6-b4f0-94293b068ab3","ios":"levelo://app?vid=99ec9591-689f-43c6-b4f0-94293b068ab3"},"vehicle_type_id":"4","last_reported":1679864737,"current_range_meters":11200,"station_id":"","pricing_plan_id":"free"},{"bike_id":"9854f26e-0aee-444b-b5de-a7f77e7f5713","system_id":"levelo_inurba_marseille","lat":43.241782,"lon":5.397261,"is_reserved":false,"is_disabled":false,"rental_uris":{"android":"levelo://app?vid=9854f26e-0aee-444b-b5de-a7f77e7f5713","ios":"levelo://app?vid=9854f26e-0aee-444b-b5de-a7f77e7f5713"},"vehicle_type_id":"4","last_reported":1679864737,"current_range_meters":4800,"station_id":"ce4bhn12rcd13ifvqgpg","pricing_plan_id":"free"},{"bike_id":"d90be3db-2000-4e04-a388-d792f5ae0cb3","system_id":"levelo_inurba_marseille","lat":43.241782,"lon":5.397264,"is_reserved":false,"is_disabled":false,"rental_uris":{"android":"levelo://app?vid=d90be3db-2000-4e04-a388-d792f5ae0cb3","ios":"levelo://app?vid=d90be3db-2000-4e04-a388-d792f5ae0cb3"},"vehicle_type_id":"4","last_reported":1679864737,"current_range_meters":0,"station_id":"ce4bhn12rcd13ifvqgpg","pricing_plan_id":"free"},{"bike_id":"70d1ed66-bb3a-4af1-a162-6bab3fb83bdc","system_id":"levelo_inurba_marseille","lat":43.231923,"lon":5.355545,"is_reserved":false,"is_disabled":false,"rental_uris":{"android":"levelo://app?vid=70d1ed66-bb3a-4af1-a162-6bab3fb83bdc","ios":"levelo://app?vid=70d1ed66-bb3a-4af1-a162-6bab3fb83bdc"},"vehicle_type_id":"4","last_reported":1679864737,"current_range_meters":19200,"station_id":"ce4bhu92rcd13ifvqi70","pricing_plan_id":"free"},{"bike_id":"12b9e0b7-199c-45f2-8c4f-e74fdb124d69","system_id":"levelo_inurba_marseille","lat":43.28463,"lon":5.48688,"is_reserved":false,"is_disabled":false,"rental_uris":{"android":"levelo://app?vid=12b9e0b7-199c-45f2-8c4f-e74fdb124d69","ios":"levelo://app?vid=12b9e0b7-199c-45f2-8c4f-e74fdb124d69"},"vehicle_type_id":"4","last_reported":1679864737,"current_range_meters":7600,"station_id":"","pricing_plan_id":"free"}]}}