{"last_updated":1750946990,"ttl":60,"version":"2.2","data":{"bikes":[{"bike_id":"3da29fb8-fc97-44c6-b9ac-31dd456b2fd4","system_id":"levelo_inurba_marseille","lat":43.33771,"lon":5.37424,"is_reserved":false,"is_disabled":true,"rental_uris":{"android":"levelo://app?vid=3da29fb8-fc97-44c6-b9ac-31dd456b2fd4","ios":"levelo://app?vid=3da29fb8-fc97-44c6-b9ac-31dd456b2fd4"},"vehicle_type_id":"4","last_reported":1750946990,"current_range_meters":0,"station_id":"","pricing_plan_id":"cebpf4jnsgd1na2vs0mg"},{"bike_id":"01861ad8-a8d7-4be6-816e-651927c87584","system_id":"levelo_inurba_marseille","lat":43.33751,"lon":5.37456,"is_reserved":false,"is_disabled":true,"rental_uris":{"android":"levelo://app?vid=01861ad8-a8d7-4be6-816e-651927c87584","ios":"levelo://app?vid=01861ad8-a8d7-4be6-816e-651927c87584"},"vehicle_type_id":"4","last_reported":1750946990,"current_range_meters":0,"station_id":"","pricing_plan_id":"cebpf4jnsgd1na2vs0mg"},{"bike_id":"4eddc2d7-69fb-45d9-b0be-00e6dc641370","system_id":"levelo_inurba_marseille","lat":43.24802,"lon":5.37455,"is_reserved":false,"is_disabled":true,"rental_uris":{"android":"levelo://app?vid=4eddc2d7-69fb-45d9-b0be-00e6dc641370","ios":"levelo://app?vid=4eddc2d7-69fb-45d9-b0be-00e6dc641370"},"vehicle_type_id":"4","last_reported":1750946990,"current_range_meters":0,"station_id":"","pricing_plan_id":"cebpf4jnsgd1na2vs0mg"},{"bike_id":"62a493c7-4534-4419-ad43-0582de34a72a","system_id":"levelo_inurba_marseille","lat":43.21366,"lon":5.355183,"is_reserved":false,"is_disabled":true,"rental_uris":{"android":"levelo://app?vid=62a493c7-4534-4419-ad43-0582de34a72a","ios":"levelo://app?vid=62a493c7-4534-4419-ad43-0582de34a72a"},"vehicle_type_id":"4","last_reported":1750946990,"current_range_meters":0,"station_id":"","pricing_plan_id":"cebpf4jnsgd1na2vs0mg"},{"bike_id":"a147e67d-e0b1-425e-bbda-ae9524df353e","system_id":"levelo_inurba_marseille","lat":43.337541,"lon":5.374577,"is_reserved":false,"is_disabled":true,"rental_uris":{"android":"levelo://app?vid=a147e67d-e0b1-425e-bbda-ae9524df353e","ios":"levelo://app?vid=a147e67d-e0b1-425e-bbda-ae9524df353e"},"vehicle_type_id":"4","last_reported":1750946990,"current_range_meters":0,"station_id":"","pricing_plan_id":"cebpf4jnsgd1na2vs0mg"},{"bike_id":"a7883090-0e10-4075-944b-a3cca54bc544","system_id":"levelo_inurba_marseille","lat":43.22518,"lon":5.34793,"is_reserved":false,"is_disabled":true,"rental_uris":{"android":"levelo://app?vid=a7883090-0e10-4075-944b-a3cca54bc544","ios":"levelo://app?vid=a7883090-0e10-4075-944b-a3cca54bc544"},"vehicle_type_id":"4","last_reported":1750946990,"current_range_meters":0,"station_id":"","pricing_plan_id":"cebpf4jnsgd1na2vs0mg"},{"bike_id":"4d064f95-6dcb-4234-9e98-7c70fbb74351","system_id":"levelo_inurba_marseille","lat":43.337444,"lon":5.374475,"is_reserved":false,"is_disabled":true,"rental_uris":{"android":"levelo://app?vid=4d064f95-6dcb-4234-9e98-7c70fbb74351","ios":"levelo://app?vid=4d064f95-6dcb-4234-9e98-7c70fbb74351"},"vehicle_type_id":"4","last_reported":1750946990,"current_range_meters":0,"station_id":"","pricing_plan_id":"cebpf4jnsgd1na2vs0mg"},{"bike_id":"3f96b52d-e9fe-41f5-89e8-f487e766a984","system_id":"levelo_inurba_marseille","lat":43.31743,"lon":5.42443,"is_reserved":false,"is_disabled":true,"rental_uris":{"android":"levelo://app?vid=3f96b52d-e9fe-41f5-89e8-f487e766a984","ios":"levelo://app?vid=3f96b52d-e9fe-41f5-89e8-f487e766a984"},"vehicle_type_id":"4","last_reported":1750946990,"current_range_meters":0,"station_id":"","pricing_plan_id":"cebpf4jnsgd1na2vs0mg"},{"bike_id":"6bc90a85-4c2e-44b5-8e96-668c5179ca0c","system_id":"levelo_inurba_marseille","lat":43.2953,"lon":5.39053,"is_reserved":false,"is_disabled":true,"rental_uris":{"android":"levelo://app?vid=6bc90a85-4c2e-44b5-8e96-668c5179ca0c","ios":"levelo://app?vid=6bc90a85-4c2e-44b5-8e96-668c5179ca0c"},"vehicle_type_id":"4","last_reported":1750946990,"current_range_meters":0,"station_id":"","pricing_plan_id":"cebpf4jnsgd1na2vs0mg"},{"bike_id":"06b961c7-f3ce-4c1c-a618-db74d23ebaea","system_id":"levelo_inurba_marseille","lat":43.28928,"lon":5.37844,"is_reserved":false,"is_disabled":true,"rental_uris":{"android":"levelo://app?vid=06b961c7-f3ce-4c1c-a618-db74d23ebaea","ios":"levelo://app?vid=06b961c7-f3ce-4c1c-a618-db74d23ebaea"},"vehicle_type_id":"4","last_reported":1750946990,"current_range_meters":0,"station_id":"","pricing_plan_id":"cebpf4jnsgd1na2vs0mg"},{"bike_id":"d6609b4f-333b-43c1-9ebe-8726f5e76e88","system_id":"levelo_inurba_marseille","lat":43.337444,"lon":5.374475,"is_reserved":false,"is_disabled":true,"rental_uris":{"android":"levelo://app?vid=d6609b4f-333b-43c1-9ebe-8726f5e76e88","ios":"levelo://app?vid=d6609b4f-333b-43c1-9ebe-8726f5e76e88"},"vehicle_type_id":"4","last_reported":1750946990,"current_range_meters":0,"station_id":"","pricing_plan_id":"cebpf4jnsgd1na2vs0mg"},{"bike_id":"14903f35-1eaf-4a5d-86c3-23007b361999","system_id":"levelo_inurba_marseille","lat":43.27064,"lon":5.42274,"is_reserved":false,"is_disabled":true,"rental_uris":{"android":"levelo://app?vid=14903f35-1eaf-4a5d-86c3-23007b361999","ios":"levelo://app?vid=14903f35-1eaf-4a5d-86c3-23007b361999"},"vehicle_type_id":"4","last_reported":1750946990,"current_range_meters":0,"station_id":"","pricing_plan_id":"cebpf4jnsgd1na2vs0mg"},{"bike_id":"3583f331-6c0b-49be-9913-9dde300034d9","system_id":"levelo_inurba_marseille","lat":43.24617,"lon":5.40205,"is_reserved":false,"is_disabled":true,"rental_uris":{"android":"levelo://app?vid=3583f331-6c0b-49be-9913-9dde300034d9","ios":"levelo://app?vid=3583f331-6c0b-49be-9913-9dde300034d9"},"vehicle_type_id":"4","last_reported":1750946990,"current_range_meters":0,"station_id":"","pricing_plan_id":"cebpf4jnsgd1na2vs0mg"},{"bike_id":"b17b6606-336a-4606-9b65-af139c49de26","system_id":"levelo_inurba_marseille","lat":43.25661,"lon":5.42699,"is_reserved":false,"is_disabled":true,"rental_uris":{"android":"levelo://app?vid=b17b6606-336a-4606-9b65-af139c49de26","ios":"levelo://app?vid=b17b6606-336a-4606-9b65-af139c49de26"},"vehicle_type_id":"4","last_reported":1750946990,"current_range_meters":0,"station_id":"","pricing_plan_id":"cebpf4jnsgd1na2vs0mg"},{"bike_id":"79bf4da0-05ec-4b61-b034-b3a8b163f2e8","system_id":"levelo_inurba_marseille","lat":43.30956,"lon":5.40801,"is_reserved":false,"is_disabled":true,"rental_uris":{"android":"levelo://app?vid=79bf4da0-05ec-4b61-b034-b3a8b163f2e8","ios":"levelo://app?vid=79bf4da0-05ec-4b61-b034-b3a8b163f2e8"},"vehicle_type_id":"4","last_reported":1750946990,"current_range_meters":0,"station_id":"","pricing_plan_id":"cebpf4jnsgd1na2vs0mg"},{"bike_id":"9d3724b1-0dc8-4689-9d6a-55005a9503cb","system_id":"levelo_inurba_marseille","lat":43.286181,"lon":5.428181,"is_reserved":false,"is_disabled":true,"rental_uris":{"android":"levelo://app?vid=9d3724b1-0dc8-4689-9d6a-55005a9503cb","ios":"levelo://app?vid=9d3724b1-0dc8-4689-9d6a-55005a9503cb"},"vehicle_type_id":"4","last_reported":1750946990,"current_range_meters":0,"station_id":"","pricing_plan_id":"cebpf4jnsgd1na2vs0mg"},{"bike_id":"d2efa476-5a17-4705-b8d6-6c781a6c2e2c","system_id":"levelo_inurba_marseille","lat":43.337444,"lon":5.374475,"is_reserved":false,"is_disabled":true,"rental_uris":{"android":"levelo://app?vid=d2efa476-5a17-4705-b8d6-6c781a6c2e2c","ios":"levelo://app?vid=d2efa476-5a17-4705-b8d6-6c781a6c2e2c"},"vehicle_type_id":"4","last_reported":1750946990,"current_range_meters":0,"station_id":"","pricing_plan_id":"cebpf4jnsgd1na2vs0mg"},{"bike_id":"de7f716e-740a-4162-b212-ca32214e6b4c","system_id":"levelo_inurba_marseille","lat":43.29305,"lon":5.37464,"is_reserved":false,"is_disabled":true,"rental_uris":{"android":"levelo://app?vid=de7f716e-740a-4162-b212-ca32214e6b4c","ios":"levelo://app?vid=de7f716e-740a-4162-b212-ca32214e6b4c"},"vehicle_type_id":"4","last_reported":1750946990,"current_range_meters":0,"station_id":"ce4bgi12rcd13ifvqb70","pricing_plan_id":"cebpf4jnsgd1na2vs0mg"},{"bike_id":"edf5a335-4ea7-40f9-bc8b-52413a52e1c9","system_id":"levelo_inurba_marseille","lat":43.29765,"lon":5.38116,"is_reserved":false,"is_disabled":true,"rental_uris":{"android":"levelo://app?vid=edf5a335-4ea7-40f9-bc8b-52413a52e1c9","ios":"levelo://app?vid=edf5a335-4ea7-40f9-bc8b-52413a52e1c9"},"vehicle_type_id":"4","last_reported":1750946990,"current_range_meters":0,"station_id":"ce4bgip2rcd13ifvqbb0","pricing_plan_id":"cebpf4jnsgd1na2vs0mg"},{"bike_id":"8d528b6d-ec2d-4683-8320-5b48fac8aaf3","system_id":"levelo_inurba_marseille","lat":43.29034,"lon":5.39973,"is_reserved":false,"is_disabled":true,"rental_uris":{"android":"levelo://app?vid=8d528b6d-ec2d-4683-8320-5b48fac8aaf3","ios":"levelo://app?vid=8d528b6d-ec2d-4683-8320-5b48fac8aaf3"},"vehicle_type_id":"4","last_reported":1750946990,"current_range_meters":0,"station_id":"ce4bh392rcd13ifvqdm0","pricing_plan_id":"cebpf4jnsgd1na2vs0mg"},{"bike_id":"1fb63bd1-4c99-47b0-b519-959aa0f27347","system_id":"levelo_inurba_marseille","lat":43.28412,"lon":5.37515,"is_reserved":false,"is_disabled":true,"rental_uris":{"android":"levelo://app?vid=1fb63bd1-4c99-47b0-b519-959aa0f27347","ios":"levelo://app?vid=1fb63bd1-4c99-47b0-b519-959aa0f27347"},"vehicle_type_id":"4","last_reported":1750946990,"current_range_meters":0,"station_id":"ce4bh412rcd13ifvqds0","pricing_plan_id":"cebpf4jnsgd1na2vs0mg"},{"bike_id":"90f5f696-abca-4811-8f38-ba9dfa69fa32","system_id":"levelo_inurba_marseille","lat":43.28259,"lon":5.35078,"is_reserved":false,"is_disabled":true,"rental_uris":{"android":"levelo://app?vid=90f5f696-abca-4811-8f38-ba9dfa69fa32","ios":"levelo://app?vid=90f5f696-abca-4811-8f38-ba9dfa69fa32"},"vehicle_type_id":"4","last_reported":1750946990,"current_range_meters":0,"station_id":"ce4bhbp2rcd13ifvqerg","pricing_plan_id":"cebpf4jnsgd1na2vs0mg"},{"bike_id":"dbf461d1-742c-44e1-9b64-4228cd678682","system_id":"levelo_inurba_marseille","lat":43.2895,"lon":5.36398,"is_reserved":false,"is_disabled":true,"rental_uris":{"android":"levelo://app?vid=dbf461d1-742c-44e1-9b64-4228cd678682","ios":"levelo://app?vid=dbf461d1-742c-44e1-9b64-4228cd678682"},"vehicle_type_id":"4","last_reported":1750946990,"current_range_meters":0,"station_id":"ce4bhc92rcd13ifvqetg","pricing_plan_id":"cebpf4jnsgd1na2vs0mg"},{"bike_id":"f0d59d38-a13b-4c8c-b914-c5cbc4a22db5","system_id":"levelo_inurba_marseille","lat":43.24812,"lon":5.37464,"is_reserved":false,"is_disabled":true,"rental_uris":{"android":"levelo://app?vid=f0d59d38-a13b-4c8c-b914-c5cbc4a22db5","ios":"levelo://app?vid=f0d59d38-a13b-4c8c-b914-c5cbc4a22db5"},"vehicle_type_id":"4","last_reported":1750946990,"current_range_meters":0,"station_id":"ce4bhgh2rcd13ifvqfb0","pricing_plan_id":"cebpf4jnsgd1na2vs0mg"},{"bike_id":"01ad2112-1a6e-4e87-a406-3d7338c4ea8c","system_id":"levelo_inurba_marseille","lat":43.23137,"lon":5.43715,"is_reserved":false,"is_disabled":true,"rental_uris":{"android":"levelo://app?vid=01ad2112-1a6e-4e87-a406-3d7338c4ea8c","ios":"levelo://app?vid=01ad2112-1a6e-4e87-a406-3d7338c4ea8c"},"vehicle_type_id":"4","last_reported":1750946990,"current_range_meters":0,"station_id":"ce4bhmp2rcd13ifvqgog","pricing_plan_id":"cebpf4jnsgd1na2vs0mg"},{"bike_id":"4769f792-a05f-40dc-9029-b51be9b63776","system_id":"levelo_inurba_marseille","lat":43.27496,"lon":5.4245,"is_reserved":false,"is_disabled":true,"rental_uris":{"android":"levelo://app?vid=4769f792-a05f-40dc-9029-b51be9b63776","ios":"levelo://app?vid=4769f792-a05f-40dc-9029-b51be9b63776"},"vehicle_type_id":"4","last_reported":1750946990,"current_range_meters":0,"station_id":"ce4bhn92rcd13ifvqgrg","pricing_plan_id":"cebpf4jnsgd1na2vs0mg"},{"bike_id":"66e127fc-0d56-4d7b-97de-80afc6940195","system_id":"levelo_inurba_marseille","lat":43.2407,"lon":5.37762,"is_reserved":false,"is_disabled":true,"rental_uris":{"android":"levelo://app?vid=66e127fc-0d56-4d7b-97de-80afc6940195","ios":"levelo://app?vid=66e127fc-0d56-4d7b-97de-80afc6940195"},"vehicle_type_id":"4","last_reported":1750946990,"current_range_meters":0,"station_id":"ce4bhnp2rcd13ifvqgvg","pricing_plan_id":"cebpf4jnsgd1na2vs0mg"},{"bike_id":"c83adf78-14ca-4a80-b94a-16ed5ff617f2","system_id":"levelo_inurba_marseille","lat":43.22508,"lon":5.34779,"is_reserved":false,"is_disabled":true,"rental_uris":{"android":"levelo://app?vid=c83adf78-14ca-4a80-b94a-16ed5ff617f2","ios":"levelo://app?vid=c83adf78-14ca-4a80-b94a-16ed5ff617f2"},"vehicle_type_id":"4","last_reported":1750946990,"current_range_meters":0,"station_id":"st_cvj5dfep6f1abm77gieg","pricing_plan_id":"cebpf4jnsgd1na2vs0mg"},{"bike_id":"be6544fb-6c1c-4292-b44a-7843b5c7fb9c","system_id":"levelo_inurba_marseille","lat":43.31676,"lon":5.41375,"is_reserved":false,"is_disabled":true,"rental_uris":{"android":"levelo://app?vid=be6544fb-6c1c-4292-b44a-7843b5c7fb9c","ios":"levelo://app?vid=be6544fb-6c1c-4292-b44a-7843b5c7fb9c"},"vehicle_type_id":"4","last_reported":1750946990,"current_range_meters":400,"station_id":"","pricing_plan_id":"cebpf4jnsgd1na2vs0mg"},{"bike_id":"d8524c03-2378-45c7-911c-4c00cf0da26e","system_id":"levelo_inurba_marseille","lat":43.297036,"lon":5.365853,"is_reserved":false,"is_disabled":true,"rental_uris":{"android":"levelo://app?vid=d8524c03-2378-45c7-911c-4c00cf0da26e","ios":"levelo://app?vid=d8524c03-2378-45c7-911c-4c00cf0da26e"},"vehicle_type_id":"4","last_reported":1750946990,"current_range_meters":400,"station_id":"ce4bgn12rcd13ifvqbt0","pricing_plan_id":"cebpf4jnsgd1na2vs0mg"},{"bike_id":"65f8cafc-866e-4317-bdc5-51485a1466ee","system_id":"levelo_inurba_marseille","lat":43.30557,"lon":5.36532,"is_reserved":false,"is_disabled":true,"rental_uris":{"android":"levelo://app?vid=65f8cafc-866e-4317-bdc5-51485a1466ee","ios":"levelo://app?vid=65f8cafc-866e-4317-bdc5-51485a1466ee"},"vehicle_type_id":"4","last_reported":1750946990,"current_range_meters":400,"station_id":"ce4bgs12rcd13ifvqcag","pricing_plan_id":"cebpf4jnsgd1na2vs0mg"},{"bike_id":"359be5ec-29c6-4f39-9840-a6fc7f20cf97","system_id":"levelo_inurba_marseille","lat":43.295508,"lon":5.394533,"is_reserved":false,"is_disabled":true,"rental_uris":{"android":"levelo://app?vid=359be5ec-29c6-4f39-9840-a6fc7f20cf97","ios":"levelo://app?vid=359be5ec-29c6-4f39-9840-a6fc7f20cf97"},"vehicle_type_id":"4","last_reported":1750946990,"current_range_meters":400,"station_id":"ce4bgvh2rcd13ifvqcs0","pricing_plan_id":"cebpf4jnsgd1na2vs0mg"},{"bike_id":"f08b5f29-d8dc-4262-ab39-c2eac2a281ca","system_id":"levelo_inurba_marseille","lat":43.30317,"lon":5.40436,"is_reserved":false,"is_disabled":true,"rental_uris":{"android":"levelo://app?vid=f08b5f29-d8dc-4262-ab39-c2eac2a281ca","ios":"levelo://app?vid=f08b5f29-d8dc-4262-ab39-c2eac2a281ca"},"vehicle_type_id":"4","last_reported":1750946990,"current_range_meters":400,"station_id":"ce4bh012rcd13ifvqd10","pricing_plan_id":"cebpf4jnsgd1na2vs0mg"},{"bike_id":"b8c53b4a-30df-4af7-9567-4b8b0a96d173","system_id":"levelo_inurba_marseille","lat":43.290248,"lon":5.381373,"is_reserved":false,"is_disabled":true,"rental_uris":{"android":"levelo://app?vid=b8c53b4a-30df-4af7-9567-4b8b0a96d173","ios":"levelo://app?vid=b8c53b4a-30df-4af7-9567-4b8b0a96d173"},"vehicle_type_id":"4","last_reported":1750946990,"current_range_meters":400,"station_id":"ce4bh4p2rcd13ifvqe1g","pricing_plan_id":"cebpf4jnsgd1na2vs0mg"},{"bike_id":"f1d6e8c5-ecae-4c6c-9772-21f860186be7","system_id":"levelo_inurba_marseille","lat":43.28457,"lon":5.35902,"is_reserved":false,"is_disabled":true,"rental_uris":{"android":"levelo://app?vid=f1d6e8c5-ecae-4c6c-9772-21f860186be7","ios":"levelo://app?vid=f1d6e8c5-ecae-4c6c-9772-21f860186be7"},"vehicle_type_id":"4","last_reported":1750946990,"current_range_meters":400,"station_id":"ce4bhah2rcd13ifvqei0","pricing_plan_id":"cebpf4jnsgd1na2vs0mg"},{"bike_id":"eaee27c6-1336-4cfe-9273-3004bc1cc785","system_id":"levelo_inurba_marseille","lat":43.29041,"lon":5.35588,"is_reserved":false,"is_disabled":true,"rental_uris":{"android":"levelo://app?vid=eaee27c6-1336-4cfe-9273-3004bc1cc785","ios":"levelo://app?vid=eaee27c6-1336-4cfe-9273-3004bc1cc785"},"vehicle_type_id":"4","last_reported":1750946990,"current_range_meters":400,"station_id":"ce4bhb92rcd13ifvqen0","pricing_plan_id":"cebpf4jnsgd1na2vs0mg"},{"bike_id":"6397cae7-9baa-4a26-b97f-148004f1fef5","system_id":"levelo_inurba_marseille","lat":43.28262,"lon":5.35072,"is_reserved":false,"is_disabled":true,"rental_uris":{"android":"levelo://app?vid=6397cae7-9baa-4a26-b97f-148004f1fef5","ios":"levelo://app?vid=6397cae7-9baa-4a26-b97f-148004f1fef5"},"vehicle_type_id":"4","last_reported":1750946990,"current_range_meters":400,"station_id":"ce4bhbp2rcd13ifvqerg","pricing_plan_id":"cebpf4jnsgd1na2vs0mg"},{"bike_id":"e86686d6-4826-4269-bc19-ab9aafc7a21a","system_id":"levelo_inurba_marseille","lat":43.282661,"lon":5.350641,"is_reserved":false,"is_disabled":true,"rental_uris":{"android":"levelo://app?vid=e86686d6-4826-4269-bc19-ab9aafc7a21a","ios":"levelo://app?vid=e86686d6-4826-4269-bc19-ab9aafc7a21a"},"vehicle_type_id":"4","last_reported":1750946990,"current_range_meters":800,"station_id":"","pricing_plan_id":"cebpf4jnsgd1na2vs0mg"},{"bike_id":"75b4dd3d-6c33-4cea-b284-21a35aac4b1f","system_id":"levelo_inurba_marseille","lat":43.29489,"lon":5.38647,"is_reserved":false,"is_disabled":true,"rental_uris":{"android":"levelo://app?vid=75b4dd3d-6c33-4cea-b284-21a35aac4b1f","ios":"levelo://app?vid=75b4dd3d-6c33-4cea-b284-21a35aac4b1f"},"vehicle_type_id":"4","last_reported":1750946990,"current_range_meters":800,"station_id":"","pricing_plan_id":"cebpf4jnsgd1na2vs0mg"},{"bike_id":"ca0c4d71-0f34-4cea-8861-08c4538e3384","system_id":"levelo_inurba_marseille","lat":43.29266,"lon":5.37624,"is_reserved":false,"is_disabled":true,"rental_uris":{"android":"levelo://app?vid=ca0c4d71-0f34-4cea-8861-08c4538e3384","ios":"levelo://app?vid=ca0c4d71-0f34-4cea-8861-08c4538e3384"},"vehicle_type_id":"4","last_reported":1750946990,"current_range_meters":800,"station_id":"ce4bgi12rcd13ifvqb80","pricing_plan_id":"cebpf4jnsgd1na2vs0mg"},{"bike_id":"b1219970-66b9-47f2-9496-19976081a6ae","system_id":"levelo_inurba_marseille","lat":43.31335,"lon":5.39686,"is_reserved":false,"is_disabled":true,"rental_uris":{"android":"levelo://app?vid=b1219970-66b9-47f2-9496-19976081a6ae","ios":"levelo://app?vid=b1219970-66b9-47f2-9496-19976081a6ae"},"vehicle_type_id":"4","last_reported":1750946990,"current_range_meters":800,"station_id":"ce4bgvp2rcd13ifvqcu0","pricing_plan_id":"cebpf4jnsgd1na2vs0mg"},{"bike_id":"4bbd42ea-1129-4fd4-bc45-09ece00f32e2","system_id":"levelo_inurba_marseille","lat":43.284056,"lon":5.349829,"is_reserved":false,"is_disabled":true,"rental_uris":{"android":"levelo://app?vid=4bbd42ea-1129-4fd4-bc45-09ece00f32e2","ios":"levelo://app?vid=4bbd42ea-1129-4fd4-bc45-09ece00f32e2"},"vehicle_type_id":"4","last_reported":1750946990,"current_range_meters":800,"station_id":"ce4bhbh2rcd13ifvqepg","pricing_plan_id":"cebpf4jnsgd1na2vs0mg"},{"bike_id":"63a24d5e-ac4c-4d13-976e-82697a5077cc","system_id":"levelo_inurba_marseille","lat":43.29909,"lon":5.43662,"is_reserved":false,"is_disabled":true,"rental_uris":{"android":"levelo://app?vid=63a24d5e-ac4c-4d13-976e-82697a5077cc","ios":"levelo://app?vid=63a24d5e-ac4c-4d13-976e-82697a5077cc"},"vehicle_type_id":"4","last_reported":1750946990,"current_range_meters":800,"station_id":"ce4bhpp2rcd13ifvqhfg","pricing_plan_id":"cebpf4jnsgd1na2vs0mg"},{"bike_id":"a8c7d139-a3d4-4ad7-aa50-b5224777690a","system_id":"levelo_inurba_marseille","lat":43.301514,"lon":5.380969,"is_reserved":false,"is_disabled":true,"rental_uris":{"android":"levelo://app?vid=a8c7d139-a3d4-4ad7-aa50-b5224777690a","ios":"levelo://app?vid=a8c7d139-a3d4-4ad7-aa50-b5224777690a"},"vehicle_type_id":"4","last_reported":1750946990,"current_range_meters":1200,"station_id":"","pricing_plan_id":"cebpf4jnsgd1na2vs0mg"},{"bike_id":"445b548e-6616-457b-a02c-d45bed743c4a","system_id":"levelo_inurba_marseille","lat":43.311213,"lon":5.377693,"is_reserved":false,"is_disabled":true,"rental_uris":{"android":"levelo://app?vid=445b548e-6616-457b-a02c-d45bed743c4a","ios":"levelo://app?vid=445b548e-6616-457b-a02c-d45bed743c4a"},"vehicle_type_id":"4","last_reported":1750946990,"current_range_meters":1200,"station_id":"ce4bgt92rcd13ifvqcg0","pricing_plan_id":"cebpf4jnsgd1na2vs0mg"},{"bike_id":"813ca400-e2fa-437e-9f79-c249965bc200","system_id":"levelo_inurba_marseille","lat":43.2945,"lon":5.39744,"is_reserved":false,"is_disabled":true,"rental_uris":{"android":"levelo://app?vid=813ca400-e2fa-437e-9f79-c249965bc200","ios":"levelo://app?vid=813ca400-e2fa-437e-9f79-c249965bc200"},"vehicle_type_id":"4","last_reported":1750946990,"current_range_meters":1200,"station_id":"ce4bh3h2rcd13ifvqdo0","pricing_plan_id":"cebpf4jnsgd1na2vs0mg"},{"bike_id":"44a543a5-8a45-48b1-9ecf-53aaf871c77b","system_id":"levelo_inurba_marseille","lat":43.28406,"lon":5.37524,"is_reserved":false,"is_disabled":true,"rental_uris":{"android":"levelo://app?vid=44a543a5-8a45-48b1-9ecf-53aaf871c77b","ios":"levelo://app?vid=44a543a5-8a45-48b1-9ecf-53aaf871c77b"},"vehicle_type_id":"4","last_reported":1750946990,"current_range_meters":1200,"station_id":"ce4bh412rcd13ifvqds0","pricing_plan_id":"cebpf4jnsgd1na2vs0mg"},{"bike_id":"0b65d52d-6c8b-4ca4-affb-9c6b8929e934","system_id":"levelo_inurba_marseille","lat":43.28858,"lon":5.35835,"is_reserved":false,"is_disabled":true,"rental_uris":{"android":"levelo://app?vid=0b65d52d-6c8b-4ca4-affb-9c6b8929e934","ios":"levelo://app?vid=0b65d52d-6c8b-4ca4-affb-9c6b8929e934"},"vehicle_type_id":"4","last_reported":1750946990,"current_range_meters":1200,"station_id":"ce4bhb12rcd13ifvqem0","pricing_plan_id":"cebpf4jnsgd1na2vs0mg"},{"bike_id":"3d3dca85-4aef-4ffe-80da-7b1899bdcb9c","system_id":"levelo_inurba_marseille","lat":43.26031,"lon":5.37546,"is_reserved":false,"is_disabled":true,"rental_uris":{"android":"levelo://app?vid=3d3dca85-4aef-4ffe-80da-7b1899bdcb9c","ios":"levelo://app?vid=3d3dca85-4aef-4ffe-80da-7b1899bdcb9c"},"vehicle_type_id":"4","last_reported":1750946990,"current_range_meters":1200,"station_id":"ce4bhgh2rcd13ifvqfa0","pricing_plan_id":"cebpf4jnsgd1na2vs0mg"},{"bike_id":"d2dcb497-93b7-4324-8b9a-3684298e23a7","system_id":"levelo_inurba_marseille","lat":43.29635,"lon":5.37721,"is_reserved":false,"is_disabled":true,"rental_uris":{"android":"levelo://app?vid=d2dcb497-93b7-4324-8b9a-3684298e23a7","ios":"levelo://app?vid=d2dcb497-93b7-4324-8b9a-3684298e23a7"},"vehicle_type_id":"4","last_reported":1750946990,"current_range_meters":1600,"station_id":"ce4bgi92rcd13ifvqb90","pricing_plan_id":"cebpf4jnsgd1na2vs0mg"},{"bike_id":"bb863aa8-1e6e-4c67-ac84-d8e6ef269938","system_id":"levelo_inurba_marseille","lat":43.29266,"lon":5.37629,"is_reserved":false,"is_disabled":true,"rental_uris":{"android":"levelo://app?vid=bb863aa8-1e6e-4c67-ac84-d8e6ef269938","ios":"levelo://app?vid=bb863aa8-1e6e-4c67-ac84-d8e6ef269938"},"vehicle_type_id":"4","last_reported":1750946990,"current_range_meters":2000,"station_id":"ce4bgi12rcd13ifvqb80","pricing_plan_id":"cebpf4jnsgd1na2vs0mg"},{"bike_id":"aa65a8c3-4513-4357-9f0b-48f5d681ce41","system_id":"levelo_inurba_marseille","lat":43.2927,"lon":5.37611,"is_reserved":false,"is_disabled":true,"rental_uris":{"android":"levelo://app?vid=aa65a8c3-4513-4357-9f0b-48f5d681ce41","ios":"levelo://app?vid=aa65a8c3-4513-4357-9f0b-48f5d681ce41"},"vehicle_type_id":"4","last_reported":1750946990,"current_range_meters":2000,"station_id":"ce4bgi12rcd13ifvqb80","pricing_plan_id":"cebpf4jnsgd1na2vs0mg"},{"bike_id":"637fe29c-7fe5-45fc-ba7e-39e78bce9184","system_id":"levelo_inurba_marseille","lat":43.299715,"lon":5.385005,"is_reserved":false,"is_disabled":true,"rental_uris":{"android":"levelo://app?vid=637fe29c-7fe5-45fc-ba7e-39e78bce9184","ios":"levelo://app?vid=637fe29c-7fe5-45fc-ba7e-39e78bce9184"},"vehicle_type_id":"4","last_reported":1750946990,"current_range_meters":2000,"station_id":"ce4bgj92rcd13ifvqbd0","pricing_plan_id":"cebpf4jnsgd1na2vs0mg"},{"bike_id":"cde5aba1-3748-4aba-badd-15d3765973e7","system_id":"levelo_inurba_marseille","lat":43.30298,"lon":5.36901,"is_reserved":false,"is_disabled":true,"rental_uris":{"android":"levelo://app?vid=cde5aba1-3748-4aba-badd-15d3765973e7","ios":"levelo://app?vid=cde5aba1-3748-4aba-badd-15d3765973e7"},"vehicle_type_id":"4","last_reported":1750946990,"current_range_meters":2000,"station_id":"ce4bgqh2rcd13ifvqc5g","pricing_plan_id":"cebpf4jnsgd1na2vs0mg"},{"bike_id":"ee754e6f-ad22-4ef6-a57d-73b19d51d8ee","system_id":"levelo_inurba_marseille","lat":43.28413,"lon":5.37513,"is_reserved":false,"is_disabled":true,"rental_uris":{"android":"levelo://app?vid=ee754e6f-ad22-4ef6-a57d-73b19d51d8ee","ios":"levelo://app?vid=ee754e6f-ad22-4ef6-a57d-73b19d51d8ee"},"vehicle_type_id":"4","last_reported":1750946990,"current_range_meters":2000,"station_id":"ce4bh412rcd13ifvqds0","pricing_plan_id":"cebpf4jnsgd1na2vs0mg"},{"bike_id":"48154988-5b4c-4f76-a681-e08cff10671f","system_id":"levelo_inurba_marseille","lat":43.293303,"lon":5.376851,"is_reserved":false,"is_disabled":false,"rental_uris":{"android":"levelo://app?vid=48154988-5b4c-4f76-a681-e08cff10671f","ios":"levelo://app?vid=48154988-5b4c-4f76-a681-e08cff10671f"},"vehicle_type_id":"4","last_reported":1750946990,"current_range_meters":2800,"station_id":"ce4bgi92rcd13ifvqb90","pricing_plan_id":"cebpf4jnsgd1na2vs0mg"},{"bike_id":"198b499d-7db5-4882-9433-37cadb0537a5","system_id":"levelo_inurba_marseille","lat":43.31278,"lon":5.40156,"is_reserved":false,"is_disabled":false,"rental_uris":{"android":"levelo://app?vid=198b499d-7db5-4882-9433-37cadb0537a5","ios":"levelo://app?vid=198b499d-7db5-4882-9433-37cadb0537a5"},"vehicle_type_id":"4","last_reported":1750946990,"current_range_meters":2800,"station_id":"ce4bh092rcd13ifvqd30","pricing_plan_id":"cebpf4jnsgd1na2vs0mg"},{"bike_id":"b668564d-807c-4687-937b-c7a25e1b2ddf","system_id":"levelo_inurba_marseille","lat":43.28001,"lon":5.41663,"is_reserved":false,"is_disabled":false,"rental_uris":{"android":"levelo://app?vid=b668564d-807c-4687-937b-c7a25e1b2ddf","ios":"levelo://app?vid=b668564d-807c-4687-937b-c7a25e1b2ddf"},"vehicle_type_id":"4","last_reported":1750946990,"current_range_meters":2800,"station_id":"ce4bho12rcd13ifvqh1g","pricing_plan_id":"cebpf4jnsgd1na2vs0mg"},{"bike_id":"9c6d5151-aa3e-4b80-804e-2a4a15ec81e5","system_id":"levelo_inurba_marseille","lat":43.311297,"lon":5.424893,"is_reserved":false,"is_disabled":false,"rental_uris":{"android":"levelo://app?vid=9c6d5151-aa3e-4b80-804e-2a4a15ec81e5","ios":"levelo://app?vid=9c6d5151-aa3e-4b80-804e-2a4a15ec81e5"},"vehicle_type_id":"4","last_reported":1750946990,"current_range_meters":2800,"station_id":"ce4bhp92rcd13ifvqhag","pricing_plan_id":"cebpf4jnsgd1na2vs0mg"},{"bike_id":"c339fa6b-639b-48c8-8daf-2b4bd7c63b89","system_id":"levelo_inurba_marseille","lat":43.29797,"lon":5.38108,"is_reserved":false,"is_disabled":false,"rental_uris":{"android":"levelo://app?vid=c339fa6b-639b-48c8-8daf-2b4bd7c63b89","ios":"levelo://app?vid=c339fa6b-639b-48c8-8daf-2b4bd7c63b89"},"vehicle_type_id":"4","last_reported":1750946990,"current_range_meters":3200,"station_id":"ce4bgip2rcd13ifvqbb0","pricing_plan_id":"cebpf4jnsgd1na2vs0mg"},{"bike_id":"77c2b186-868a-4f71-ac4c-5323dd612cc0","system_id":"levelo_inurba_marseille","lat":43.30892,"lon":5.37172,"is_reserved":false,"is_disabled":false,"rental_uris":{"android":"levelo://app?vid=77c2b186-868a-4f71-ac4c-5323dd612cc0","ios":"levelo://app?vid=77c2b186-868a-4f71-ac4c-5323dd612cc0"},"vehicle_type_id":"4","last_reported":1750946990,"current_range_meters":3200,"station_id":"ce4bguh2rcd13ifvqckg","pricing_plan_id":"cebpf4jnsgd1na2vs0mg"},{"bike_id":"bf4ea4eb-9e52-47d1-85a8-ec8712c16577","system_id":"levelo_inurba_marseille","lat":43.28033,"lon":5.36948,"is_reserved":false,"is_disabled":false,"rental_uris":{"android":"levelo://app?vid=bf4ea4eb-9e52-47d1-85a8-ec8712c16577","ios":"levelo://app?vid=bf4ea4eb-9e52-47d1-85a8-ec8712c16577"},"vehicle_type_id":"4","last_reported":1750946990,"current_range_meters":3200,"station_id":"ce4bha12rcd13ifvqef0","pricing_plan_id":"cebpf4jnsgd1na2vs0mg"},{"bike_id":"c2eaec97-beee-4c2c-8624-a558b8b9a514","system_id":"levelo_inurba_marseille","lat":43.2841,"lon":5.34984,"is_reserved":false,"is_disabled":false,"rental_uris":{"android":"levelo://app?vid=c2eaec97-beee-4c2c-8624-a558b8b9a514","ios":"levelo://app?vid=c2eaec97-beee-4c2c-8624-a558b8b9a514"},"vehicle_type_id":"4","last_reported":1750946990,"current_range_meters":3200,"station_id":"ce4bhbh2rcd13ifvqepg","pricing_plan_id":"cebpf4jnsgd1na2vs0mg"},{"bike_id":"646763bc-92f1-4523-bb6e-bfe2b8cfdaa4","system_id":"levelo_inurba_marseille","lat":43.26027,"lon":5.3755,"is_reserved":false,"is_disabled":false,"rental_uris":{"android":"levelo://app?vid=646763bc-92f1-4523-bb6e-bfe2b8cfdaa4","ios":"levelo://app?vid=646763bc-92f1-4523-bb6e-bfe2b8cfdaa4"},"vehicle_type_id":"4","last_reported":1750946990,"current_range_meters":3200,"station_id":"ce4bhgh2rcd13ifvqfa0","pricing_plan_id":"cebpf4jnsgd1na2vs0mg"},{"bike_id":"7c23bcb5-9ae8-4e7f-b9e1-b6fde2203337","system_id":"levelo_inurba_marseille","lat":43.2795,"lon":5.41051,"is_reserved":false,"is_disabled":false,"rental_uris":{"android":"levelo://app?vid=7c23bcb5-9ae8-4e7f-b9e1-b6fde2203337","ios":"levelo://app?vid=7c23bcb5-9ae8-4e7f-b9e1-b6fde2203337"},"vehicle_type_id":"4","last_reported":1750946990,"current_range_meters":3200,"station_id":"ce4bhnp2rcd13ifvqh0g","pricing_plan_id":"cebpf4jnsgd1na2vs0mg"},{"bike_id":"3264cb22-e466-42d4-941f-a49a06a5a357","system_id":"levelo_inurba_marseille","lat":43.30789,"lon":5.37654,"is_reserved":false,"is_disabled":false,"rental_uris":{"android":"levelo://app?vid=3264cb22-e466-42d4-941f-a49a06a5a357","ios":"levelo://app?vid=3264cb22-e466-42d4-941f-a49a06a5a357"},"vehicle_type_id":"4","last_reported":1750946990,"current_range_meters":3600,"station_id":"ce4bgv92rcd13ifvqcq0","pricing_plan_id":"cebpf4jnsgd1na2vs0mg"},{"bike_id":"d475927d-6d48-43d5-8587-e3a7c2b553fd","system_id":"levelo_inurba_marseille","lat":43.28407,"lon":5.34987,"is_reserved":false,"is_disabled":false,"rental_uris":{"android":"levelo://app?vid=d475927d-6d48-43d5-8587-e3a7c2b553fd","ios":"levelo://app?vid=d475927d-6d48-43d5-8587-e3a7c2b553fd"},"vehicle_type_id":"4","last_reported":1750946990,"current_range_meters":3600,"station_id":"ce4bhbh2rcd13ifvqepg","pricing_plan_id":"cebpf4jnsgd1na2vs0mg"},{"bike_id":"ab923214-1afa-4570-817c-b34c456a3078","system_id":"levelo_inurba_marseille","lat":43.26936,"lon":5.3891,"is_reserved":false,"is_disabled":false,"rental_uris":{"android":"levelo://app?vid=ab923214-1afa-4570-817c-b34c456a3078","ios":"levelo://app?vid=ab923214-1afa-4570-817c-b34c456a3078"},"vehicle_type_id":"4","last_reported":1750946990,"current_range_meters":3600,"station_id":"ce4bhhh2rcd13ifvqfl0","pricing_plan_id":"cebpf4jnsgd1na2vs0mg"},{"bike_id":"c29fbf7e-7e25-4568-859a-1f5e3fb25b4c","system_id":"levelo_inurba_marseille","lat":43.2119,"lon":5.35069,"is_reserved":false,"is_disabled":false,"rental_uris":{"android":"levelo://app?vid=c29fbf7e-7e25-4568-859a-1f5e3fb25b4c","ios":"levelo://app?vid=c29fbf7e-7e25-4568-859a-1f5e3fb25b4c"},"vehicle_type_id":"4","last_reported":1750946990,"current_range_meters":3600,"station_id":"st_cvj6sg6p6f1abm77japg","pricing_plan_id":"cebpf4jnsgd1na2vs0mg"},{"bike_id":"5b69aa69-0d5a-4880-9d26-bd1ebabe3513","system_id":"levelo_inurba_marseille","lat":43.29284,"lon":5.37434,"is_reserved":false,"is_disabled":false,"rental_uris":{"android":"levelo://app?vid=5b69aa69-0d5a-4880-9d26-bd1ebabe3513","ios":"levelo://app?vid=5b69aa69-0d5a-4880-9d26-bd1ebabe3513"},"vehicle_type_id":"4","last_reported":1750946990,"current_range_meters":4000,"station_id":"ce4bgi12rcd13ifvqb70","pricing_plan_id":"cebpf4jnsgd1na2vs0mg"},{"bike_id":"f7a822d1-e105-4fa8-8955-e7e3e534b79d","system_id":"levelo_inurba_marseille","lat":43.31688,"lon":5.4048,"is_reserved":false,"is_disabled":false,"rental_uris":{"android":"levelo://app?vid=f7a822d1-e105-4fa8-8955-e7e3e534b79d","ios":"levelo://app?vid=f7a822d1-e105-4fa8-8955-e7e3e534b79d"},"vehicle_type_id":"4","last_reported":1750946990,"current_range_meters":4000,"station_id":"ce4bh012rcd13ifvqd00","pricing_plan_id":"cebpf4jnsgd1na2vs0mg"},{"bike_id":"97f28848-33a5-49b7-94e9-2f0f5d4cea45","system_id":"levelo_inurba_marseille","lat":43.24387,"lon":5.37064,"is_reserved":false,"is_disabled":false,"rental_uris":{"android":"levelo://app?vid=97f28848-33a5-49b7-94e9-2f0f5d4cea45","ios":"levelo://app?vid=97f28848-33a5-49b7-94e9-2f0f5d4cea45"},"vehicle_type_id":"4","last_reported":1750946990,"current_range_meters":4000,"station_id":"ce4bhhh2rcd13ifvqfk0","pricing_plan_id":"cebpf4jnsgd1na2vs0mg"},{"bike_id":"1730fae9-c86c-4ebc-a6d6-ed07e1c1e3dc","system_id":"levelo_inurba_marseille","lat":43.30152,"lon":5.38079,"is_reserved":false,"is_disabled":false,"rental_uris":{"android":"levelo://app?vid=1730fae9-c86c-4ebc-a6d6-ed07e1c1e3dc","ios":"levelo://app?vid=1730fae9-c86c-4ebc-a6d6-ed07e1c1e3dc"},"vehicle_type_id":"4","last_reported":1750946990,"current_range_meters":4400,"station_id":"ce4bgjp2rcd13ifvqbh0","pricing_plan_id":"cebpf4jnsgd1na2vs0mg"},{"bike_id":"72608cbf-609b-4a7a-949b-9ad63ee7dced","system_id":"levelo_inurba_marseille","lat":43.24076,"lon":5.37753,"is_reserved":false,"is_disabled":false,"rental_uris":{"android":"levelo://app?vid=72608cbf-609b-4a7a-949b-9ad63ee7dced","ios":"levelo://app?vid=72608cbf-609b-4a7a-949b-9ad63ee7dced"},"vehicle_type_id":"4","last_reported":1750946990,"current_range_meters":4400,"station_id":"ce4bhnp2rcd13ifvqgvg","pricing_plan_id":"cebpf4jnsgd1na2vs0mg"},{"bike_id":"de254073-8d17-4990-80f7-aca313118d87","system_id":"levelo_inurba_marseille","lat":43.29398,"lon":5.3936,"is_reserved":false,"is_disabled":false,"rental_uris":{"android":"levelo://app?vid=de254073-8d17-4990-80f7-aca313118d87","ios":"levelo://app?vid=de254073-8d17-4990-80f7-aca313118d87"},"vehicle_type_id":"4","last_reported":1750946990,"current_range_meters":4800,"station_id":"","pricing_plan_id":"cebpf4jnsgd1na2vs0mg"},{"bike_id":"90f751c6-59a6-46f8-b0ed-f0c4edc8a869","system_id":"levelo_inurba_marseille","lat":43.26561,"lon":5.37301,"is_reserved":false,"is_disabled":false,"rental_uris":{"android":"levelo://app?vid=90f751c6-59a6-46f8-b0ed-f0c4edc8a869","ios":"levelo://app?vid=90f751c6-59a6-46f8-b0ed-f0c4edc8a869"},"vehicle_type_id":"4","last_reported":1750946990,"current_range_meters":4800,"station_id":"ce4bhg12rcd13ifvqf70","pricing_plan_id":"cebpf4jnsgd1na2vs0mg"},{"bike_id":"67a5051a-b32e-408a-8389-c22b54eb81f6","system_id":"levelo_inurba_marseille","lat":43.33022,"lon":5.45602,"is_reserved":false,"is_disabled":false,"rental_uris":{"android":"levelo://app?vid=67a5051a-b32e-408a-8389-c22b54eb81f6","ios":"levelo://app?vid=67a5051a-b32e-408a-8389-c22b54eb81f6"},"vehicle_type_id":"4","last_reported":1750946990,"current_range_meters":5600,"station_id":"","pricing_plan_id":"cebpf4jnsgd1na2vs0mg"},{"bike_id":"d53828f3-0434-4977-b25e-bf65d4770df4","system_id":"levelo_inurba_marseille","lat":43.27381,"lon":5.36258,"is_reserved":false,"is_disabled":false,"rental_uris":{"android":"levelo://app?vid=d53828f3-0434-4977-b25e-bf65d4770df4","ios":"levelo://app?vid=d53828f3-0434-4977-b25e-bf65d4770df4"},"vehicle_type_id":"4","last_reported":1750946990,"current_range_meters":5600,"station_id":"ce4bhbh2rcd13ifvqeo0","pricing_plan_id":"cebpf4jnsgd1na2vs0mg"},{"bike_id":"dbfb2b4d-f467-42b8-bdec-0c1e515fa89f","system_id":"levelo_inurba_marseille","lat":43.29894,"lon":5.43667,"is_reserved":false,"is_disabled":false,"rental_uris":{"android":"levelo://app?vid=dbfb2b4d-f467-42b8-bdec-0c1e515fa89f","ios":"levelo://app?vid=dbfb2b4d-f467-42b8-bdec-0c1e515fa89f"},"vehicle_type_id":"4","last_reported":1750946990,"current_range_meters":5600,"station_id":"ce4bhpp2rcd13ifvqhfg","pricing_plan_id":"cebpf4jnsgd1na2vs0mg"},{"bike_id":"efeb3c70-3319-46e5-a8c1-e29db37d8a29","system_id":"levelo_inurba_marseille","lat":43.31621,"lon":5.36682,"is_reserved":false,"is_disabled":false,"rental_uris":{"android":"levelo://app?vid=efeb3c70-3319-46e5-a8c1-e29db37d8a29","ios":"levelo://app?vid=efeb3c70-3319-46e5-a8c1-e29db37d8a29"},"vehicle_type_id":"4","last_reported":1750946990,"current_range_meters":6000,"station_id":"","pricing_plan_id":"cebpf4jnsgd1na2vs0mg"},{"bike_id":"7b9243c8-c651-4937-afd4-5c29f64998cd","system_id":"levelo_inurba_marseille","lat":43.31326,"lon":5.36722,"is_reserved":false,"is_disabled":false,"rental_uris":{"android":"levelo://app?vid=7b9243c8-c651-4937-afd4-5c29f64998cd","ios":"levelo://app?vid=7b9243c8-c651-4937-afd4-5c29f64998cd"},"vehicle_type_id":"4","last_reported":1750946990,"current_range_meters":6000,"station_id":"","pricing_plan_id":"cebpf4jnsgd1na2vs0mg"},{"bike_id":"1daf21aa-5f36-4b21-bfd8-0a76ece9f7e8","system_id":"levelo_inurba_marseille","lat":43.30106,"lon":5.39062,"is_reserved":false,"is_disabled":false,"rental_uris":{"android":"levelo://app?vid=1daf21aa-5f36-4b21-bfd8-0a76ece9f7e8","ios":"levelo://app?vid=1daf21aa-5f36-4b21-bfd8-0a76ece9f7e8"},"vehicle_type_id":"4","last_reported":1750946990,"current_range_meters":6000,"station_id":"ce4bh192rcd13ifvqdb0","pricing_plan_id":"cebpf4jnsgd1na2vs0mg"},{"bike_id":"6fb26a05-4b43-43dc-ae48-3399b71b259a","system_id":"levelo_inurba_marseille","lat":43.28454,"lon":5.35889,"is_reserved":false,"is_disabled":false,"rental_uris":{"android":"levelo://app?vid=6fb26a05-4b43-43dc-ae48-3399b71b259a","ios":"levelo://app?vid=6fb26a05-4b43-43dc-ae48-3399b71b259a"},"vehicle_type_id":"4","last_reported":1750946990,"current_range_meters":6000,"station_id":"ce4bhah2rcd13ifvqei0","pricing_plan_id":"cebpf4jnsgd1na2vs0mg"},{"bike_id":"ae0ae810-5056-4abd-83c9-1f6ee956d52b","system_id":"levelo_inurba_marseille","lat":43.22933,"lon":5.3538,"is_reserved":false,"is_disabled":false,"rental_uris":{"android":"levelo://app?vid=ae0ae810-5056-4abd-83c9-1f6ee956d52b","ios":"levelo://app?vid=ae0ae810-5056-4abd-83c9-1f6ee956d52b"},"vehicle_type_id":"4","last_reported":1750946990,"current_range_meters":6000,"station_id":"cpo3532slgdg3j2ikp40","pricing_plan_id":"cebpf4jnsgd1na2vs0mg"},{"bike_id":"a1ce8b31-021a-4e31-b597-f9aa06d66182","system_id":"levelo_inurba_marseille","lat":43.28458,"lon":5.35882,"is_reserved":false,"is_disabled":false,"rental_uris":{"android":"levelo://app?vid=a1ce8b31-021a-4e31-b597-f9aa06d66182","ios":"levelo://app?vid=a1ce8b31-021a-4e31-b597-f9aa06d66182"},"vehicle_type_id":"4","last_reported":1750946990,"current_range_meters":6400,"station_id":"ce4bhah2rcd13ifvqei0","pricing_plan_id":"cebpf4jnsgd1na2vs0mg"},{"bike_id":"bf23a263-619b-4132-bedc-0de4ddebd491","system_id":"levelo_inurba_marseille","lat":43.27378,"lon":5.36254,"is_reserved":false,"is_disabled":false,"rental_uris":{"android":"levelo://app?vid=bf23a263-619b-4132-bedc-0de4ddebd491","ios":"levelo://app?vid=bf23a263-619b-4132-bedc-0de4ddebd491"},"vehicle_type_id":"4","last_reported":1750946990,"current_range_meters":6400,"station_id":"ce4bhbh2rcd13ifvqeo0","pricing_plan_id":"cebpf4jnsgd1na2vs0mg"},{"bike_id":"23f5d802-be15-4456-ac86-c424bc793a1b","system_id":"levelo_inurba_marseille","lat":43.26057,"lon":5.39402,"is_reserved":false,"is_disabled":false,"rental_uris":{"android":"levelo://app?vid=23f5d802-be15-4456-ac86-c424bc793a1b","ios":"levelo://app?vid=23f5d802-be15-4456-ac86-c424bc793a1b"},"vehicle_type_id":"4","last_reported":1750946990,"current_range_meters":6400,"station_id":"ce4bhh92rcd13ifvqfj0","pricing_plan_id":"cebpf4jnsgd1na2vs0mg"},{"bike_id":"07014974-1648-4543-9ba6-3e8b8c2bf069","system_id":"levelo_inurba_marseille","lat":43.3229,"lon":5.38266,"is_reserved":false,"is_disabled":false,"rental_uris":{"android":"levelo://app?vid=07014974-1648-4543-9ba6-3e8b8c2bf069","ios":"levelo://app?vid=07014974-1648-4543-9ba6-3e8b8c2bf069"},"vehicle_type_id":"4","last_reported":1750946990,"current_range_meters":6400,"station_id":"ce4bhr12rcd13ifvqhqg","pricing_plan_id":"cebpf4jnsgd1na2vs0mg"},{"bike_id":"4ae76d80-6995-4308-ae2c-11009a4a5996","system_id":"levelo_inurba_marseille","lat":43.31202,"lon":5.36669,"is_reserved":false,"is_disabled":false,"rental_uris":{"android":"levelo://app?vid=4ae76d80-6995-4308-ae2c-11009a4a5996","ios":"levelo://app?vid=4ae76d80-6995-4308-ae2c-11009a4a5996"},"vehicle_type_id":"4","last_reported":1750946990,"current_range_meters":6800,"station_id":"","pricing_plan_id":"cebpf4jnsgd1na2vs0mg"},{"bike_id":"586d6190-65db-4aa9-b519-90507a2f9a2e","system_id":"levelo_inurba_marseille","lat":43.311156,"lon":5.378275,"is_reserved":false,"is_disabled":false,"rental_uris":{"android":"levelo://app?vid=586d6190-65db-4aa9-b519-90507a2f9a2e","ios":"levelo://app?vid=586d6190-65db-4aa9-b519-90507a2f9a2e"},"vehicle_type_id":"4","last_reported":1750946990,"current_range_meters":6800,"station_id":"","pricing_plan_id":"cebpf4jnsgd1na2vs0mg"},{"bike_id":"d143020f-c77a-4f86-9ef4-c5c88d6db0f4","system_id":"levelo_inurba_marseille","lat":43.29943,"lon":5.36545,"is_reserved":false,"is_disabled":false,"rental_uris":{"android":"levelo://app?vid=d143020f-c77a-4f86-9ef4-c5c88d6db0f4","ios":"levelo://app?vid=d143020f-c77a-4f86-9ef4-c5c88d6db0f4"},"vehicle_type_id":"4","last_reported":1750946990,"current_range_meters":6800,"station_id":"ce4bgm92rcd13ifvqbr0","pricing_plan_id":"cebpf4jnsgd1na2vs0mg"},{"bike_id":"780fc8e9-f3b7-4620-9121-a0e686f6f124","system_id":"levelo_inurba_marseille","lat":43.31324,"lon":5.39706,"is_reserved":false,"is_disabled":false,"rental_uris":{"android":"levelo://app?vid=780fc8e9-f3b7-4620-9121-a0e686f6f124","ios":"levelo://app?vid=780fc8e9-f3b7-4620-9121-a0e686f6f124"},"vehicle_type_id":"4","last_reported":1750946990,"current_range_meters":6800,"station_id":"ce4bgvp2rcd13ifvqcu0","pricing_plan_id":"cebpf4jnsgd1na2vs0mg"},{"bike_id":"3f107644-f504-4447-80a1-0a96ff1e91b0","system_id":"levelo_inurba_marseille","lat":43.26562,"lon":5.37282,"is_reserved":false,"is_disabled":false,"rental_uris":{"android":"levelo://app?vid=3f107644-f504-4447-80a1-0a96ff1e91b0","ios":"levelo://app?vid=3f107644-f504-4447-80a1-0a96ff1e91b0"},"vehicle_type_id":"4","last_reported":1750946990,"current_range_meters":6800,"station_id":"ce4bhg12rcd13ifvqf70","pricing_plan_id":"cebpf4jnsgd1na2vs0mg"},{"bike_id":"455cd017-a26b-436f-a089-0fd4679a2f1c","system_id":"levelo_inurba_marseille","lat":43.26562,"lon":5.37332,"is_reserved":false,"is_disabled":false,"rental_uris":{"android":"levelo://app?vid=455cd017-a26b-436f-a089-0fd4679a2f1c","ios":"levelo://app?vid=455cd017-a26b-436f-a089-0fd4679a2f1c"},"vehicle_type_id":"4","last_reported":1750946990,"current_range_meters":6800,"station_id":"ce4bhg12rcd13ifvqf70","pricing_plan_id":"cebpf4jnsgd1na2vs0mg"},{"bike_id":"b6bbb8cf-901f-47ee-a995-6846b7a5317f","system_id":"levelo_inurba_marseille","lat":43.27996,"lon":5.40013,"is_reserved":false,"is_disabled":false,"rental_uris":{"android":"levelo://app?vid=b6bbb8cf-901f-47ee-a995-6846b7a5317f","ios":"levelo://app?vid=b6bbb8cf-901f-47ee-a995-6846b7a5317f"},"vehicle_type_id":"4","last_reported":1750946990,"current_range_meters":6800,"station_id":"ce4bho92rcd13ifvqh4g","pricing_plan_id":"cebpf4jnsgd1na2vs0mg"},{"bike_id":"29eb04e1-4e78-46d5-a50e-5a4725572352","system_id":"levelo_inurba_marseille","lat":43.21189,"lon":5.35071,"is_reserved":false,"is_disabled":false,"rental_uris":{"android":"levelo://app?vid=29eb04e1-4e78-46d5-a50e-5a4725572352","ios":"levelo://app?vid=29eb04e1-4e78-46d5-a50e-5a4725572352"},"vehicle_type_id":"4","last_reported":1750946990,"current_range_meters":6800,"station_id":"st_cvj6sg6p6f1abm77japg","pricing_plan_id":"cebpf4jnsgd1na2vs0mg"},{"bike_id":"85aebb63-1277-49af-91e5-22f2d655e266","system_id":"levelo_inurba_marseille","lat":43.29915,"lon":5.43681,"is_reserved":false,"is_disabled":false,"rental_uris":{"android":"levelo://app?vid=85aebb63-1277-49af-91e5-22f2d655e266","ios":"levelo://app?vid=85aebb63-1277-49af-91e5-22f2d655e266"},"vehicle_type_id":"4","last_reported":1750946990,"current_range_meters":7200,"station_id":"","pricing_plan_id":"cebpf4jnsgd1na2vs0mg"},{"bike_id":"58661f6c-8ee5-4bb2-a4e5-e38e70895468","system_id":"levelo_inurba_marseille","lat":43.274262,"lon":5.394211,"is_reserved":false,"is_disabled":false,"rental_uris":{"android":"levelo://app?vid=58661f6c-8ee5-4bb2-a4e5-e38e70895468","ios":"levelo://app?vid=58661f6c-8ee5-4bb2-a4e5-e38e70895468"},"vehicle_type_id":"4","last_reported":1750946990,"current_range_meters":7200,"station_id":"ce4bhdp2rcd13ifvqf20","pricing_plan_id":"cebpf4jnsgd1na2vs0mg"},{"bike_id":"35b14479-4a4d-4383-83de-c7fea66894b3","system_id":"levelo_inurba_marseille","lat":43.29905,"lon":5.4369,"is_reserved":false,"is_disabled":false,"rental_uris":{"android":"levelo://app?vid=35b14479-4a4d-4383-83de-c7fea66894b3","ios":"levelo://app?vid=35b14479-4a4d-4383-83de-c7fea66894b3"},"vehicle_type_id":"4","last_reported":1750946990,"current_range_meters":7200,"station_id":"ce4bhpp2rcd13ifvqhfg","pricing_plan_id":"cebpf4jnsgd1na2vs0mg"},{"bike_id":"e31dc41a-74b1-4471-8bd1-334e677119d5","system_id":"levelo_inurba_marseille","lat":43.29449,"lon":5.43376,"is_reserved":false,"is_disabled":false,"rental_uris":{"android":"levelo://app?vid=e31dc41a-74b1-4471-8bd1-334e677119d5","ios":"levelo://app?vid=e31dc41a-74b1-4471-8bd1-334e677119d5"},"vehicle_type_id":"4","last_reported":1750946990,"current_range_meters":8000,"station_id":"","pricing_plan_id":"cebpf4jnsgd1na2vs0mg"},{"bike_id":"af112b62-19de-41d4-b8d7-e14d0172315d","system_id":"levelo_inurba_marseille","lat":43.3269,"lon":5.39253,"is_reserved":false,"is_disabled":false,"rental_uris":{"android":"levelo://app?vid=af112b62-19de-41d4-b8d7-e14d0172315d","ios":"levelo://app?vid=af112b62-19de-41d4-b8d7-e14d0172315d"},"vehicle_type_id":"4","last_reported":1750946990,"current_range_meters":8000,"station_id":"","pricing_plan_id":"cebpf4jnsgd1na2vs0mg"},{"bike_id":"efee348e-5514-44ae-8136-e35749cb0f06","system_id":"levelo_inurba_marseille","lat":43.3053,"lon":5.36555,"is_reserved":false,"is_disabled":false,"rental_uris":{"android":"levelo://app?vid=efee348e-5514-44ae-8136-e35749cb0f06","ios":"levelo://app?vid=efee348e-5514-44ae-8136-e35749cb0f06"},"vehicle_type_id":"4","last_reported":1750946990,"current_range_meters":8000,"station_id":"ce4bgs12rcd13ifvqcag","pricing_plan_id":"cebpf4jnsgd1na2vs0mg"},{"bike_id":"61563aec-0ad9-4944-83fc-647dc281d530","system_id":"levelo_inurba_marseille","lat":43.2439,"lon":5.37063,"is_reserved":false,"is_disabled":false,"rental_uris":{"android":"levelo://app?vid=61563aec-0ad9-4944-83fc-647dc281d530","ios":"levelo://app?vid=61563aec-0ad9-4944-83fc-647dc281d530"},"vehicle_type_id":"4","last_reported":1750946990,"current_range_meters":8000,"station_id":"ce4bhhh2rcd13ifvqfk0","pricing_plan_id":"cebpf4jnsgd1na2vs0mg"},{"bike_id":"9f6b49b3-8b28-4018-9c18-7d21e99e5fe7","system_id":"levelo_inurba_marseille","lat":43.324799,"lon":5.365642,"is_reserved":false,"is_disabled":false,"rental_uris":{"android":"levelo://app?vid=9f6b49b3-8b28-4018-9c18-7d21e99e5fe7","ios":"levelo://app?vid=9f6b49b3-8b28-4018-9c18-7d21e99e5fe7"},"vehicle_type_id":"4","last_reported":1750946990,"current_range_meters":8000,"station_id":"ce4bhs12rcd13ifvqhvg","pricing_plan_id":"cebpf4jnsgd1na2vs0mg"},{"bike_id":"26a14eba-87a9-47b8-9607-30bd0042d428","system_id":"levelo_inurba_marseille","lat":43.31476,"lon":5.39427,"is_reserved":false,"is_disabled":false,"rental_uris":{"android":"levelo://app?vid=26a14eba-87a9-47b8-9607-30bd0042d428","ios":"levelo://app?vid=26a14eba-87a9-47b8-9607-30bd0042d428"},"vehicle_type_id":"4","last_reported":1750946990,"current_range_meters":8400,"station_id":"","pricing_plan_id":"cebpf4jnsgd1na2vs0mg"},{"bike_id":"9ce852fe-9449-4c16-b29b-642a7abdbbbf","system_id":"levelo_inurba_marseille","lat":43.27404,"lon":5.36203,"is_reserved":false,"is_disabled":false,"rental_uris":{"android":"levelo://app?vid=9ce852fe-9449-4c16-b29b-642a7abdbbbf","ios":"levelo://app?vid=9ce852fe-9449-4c16-b29b-642a7abdbbbf"},"vehicle_type_id":"4","last_reported":1750946990,"current_range_meters":8400,"station_id":"","pricing_plan_id":"cebpf4jnsgd1na2vs0mg"},{"bike_id":"54bfbfac-32d1-451e-aeba-bc4d4db55b27","system_id":"levelo_inurba_marseille","lat":43.29596,"lon":5.37536,"is_reserved":false,"is_disabled":false,"rental_uris":{"android":"levelo://app?vid=54bfbfac-32d1-451e-aeba-bc4d4db55b27","ios":"levelo://app?vid=54bfbfac-32d1-451e-aeba-bc4d4db55b27"},"vehicle_type_id":"4","last_reported":1750946990,"current_range_meters":8400,"station_id":"ce4bgh92rcd13ifvqb50","pricing_plan_id":"cebpf4jnsgd1na2vs0mg"},{"bike_id":"8ee23e83-b821-480a-8f98-5c40baeabcc0","system_id":"levelo_inurba_marseille","lat":43.3056,"lon":5.36547,"is_reserved":false,"is_disabled":false,"rental_uris":{"android":"levelo://app?vid=8ee23e83-b821-480a-8f98-5c40baeabcc0","ios":"levelo://app?vid=8ee23e83-b821-480a-8f98-5c40baeabcc0"},"vehicle_type_id":"4","last_reported":1750946990,"current_range_meters":8400,"station_id":"ce4bgs12rcd13ifvqcag","pricing_plan_id":"cebpf4jnsgd1na2vs0mg"},{"bike_id":"33405622-f379-43ae-87c9-6199abd30bbf","system_id":"levelo_inurba_marseille","lat":43.30462,"lon":5.379,"is_reserved":false,"is_disabled":false,"rental_uris":{"android":"levelo://app?vid=33405622-f379-43ae-87c9-6199abd30bbf","ios":"levelo://app?vid=33405622-f379-43ae-87c9-6199abd30bbf"},"vehicle_type_id":"4","last_reported":1750946990,"current_range_meters":8400,"station_id":"ce4bgup2rcd13ifvqcn0","pricing_plan_id":"cebpf4jnsgd1na2vs0mg"},{"bike_id":"f03e0c70-44e2-47ed-80f8-6b51f8991832","system_id":"levelo_inurba_marseille","lat":43.29,"lon":5.356098,"is_reserved":false,"is_disabled":false,"rental_uris":{"android":"levelo://app?vid=f03e0c70-44e2-47ed-80f8-6b51f8991832","ios":"levelo://app?vid=f03e0c70-44e2-47ed-80f8-6b51f8991832"},"vehicle_type_id":"4","last_reported":1750946990,"current_range_meters":8400,"station_id":"ce4bhb92rcd13ifvqen0","pricing_plan_id":"cebpf4jnsgd1na2vs0mg"},{"bike_id":"c1a662a1-03eb-4741-94d6-2a41b831eb8b","system_id":"levelo_inurba_marseille","lat":43.232117,"lon":5.40004,"is_reserved":false,"is_disabled":false,"rental_uris":{"android":"levelo://app?vid=c1a662a1-03eb-4741-94d6-2a41b831eb8b","ios":"levelo://app?vid=c1a662a1-03eb-4741-94d6-2a41b831eb8b"},"vehicle_type_id":"4","last_reported":1750946990,"current_range_meters":8400,"station_id":"ce4bhn12rcd13ifvqgqg","pricing_plan_id":"cebpf4jnsgd1na2vs0mg"},{"bike_id":"2ba4b230-cb53-4b47-806f-2cf1b3216e14","system_id":"levelo_inurba_marseille","lat":43.24081,"lon":5.37772,"is_reserved":false,"is_disabled":false,"rental_uris":{"android":"levelo://app?vid=2ba4b230-cb53-4b47-806f-2cf1b3216e14","ios":"levelo://app?vid=2ba4b230-cb53-4b47-806f-2cf1b3216e14"},"vehicle_type_id":"4","last_reported":1750946990,"current_range_meters":8400,"station_id":"ce4bhnp2rcd13ifvqgvg","pricing_plan_id":"cebpf4jnsgd1na2vs0mg"},{"bike_id":"5eee8925-0941-460b-a942-18fcb70bac7c","system_id":"levelo_inurba_marseille","lat":43.2724,"lon":5.4004,"is_reserved":false,"is_disabled":false,"rental_uris":{"android":"levelo://app?vid=5eee8925-0941-460b-a942-18fcb70bac7c","ios":"levelo://app?vid=5eee8925-0941-460b-a942-18fcb70bac7c"},"vehicle_type_id":"4","last_reported":1750946990,"current_range_meters":8800,"station_id":"","pricing_plan_id":"cebpf4jnsgd1na2vs0mg"},{"bike_id":"0682ef65-59c3-4f77-a4ed-98437231b1ba","system_id":"levelo_inurba_marseille","lat":43.30323,"lon":5.40447,"is_reserved":false,"is_disabled":false,"rental_uris":{"android":"levelo://app?vid=0682ef65-59c3-4f77-a4ed-98437231b1ba","ios":"levelo://app?vid=0682ef65-59c3-4f77-a4ed-98437231b1ba"},"vehicle_type_id":"4","last_reported":1750946990,"current_range_meters":8800,"station_id":"ce4bh012rcd13ifvqd10","pricing_plan_id":"cebpf4jnsgd1na2vs0mg"},{"bike_id":"52d39036-1902-46a8-82e9-b05fa3dae97d","system_id":"levelo_inurba_marseille","lat":43.28017,"lon":5.36927,"is_reserved":false,"is_disabled":false,"rental_uris":{"android":"levelo://app?vid=52d39036-1902-46a8-82e9-b05fa3dae97d","ios":"levelo://app?vid=52d39036-1902-46a8-82e9-b05fa3dae97d"},"vehicle_type_id":"4","last_reported":1750946990,"current_range_meters":8800,"station_id":"ce4bha12rcd13ifvqef0","pricing_plan_id":"cebpf4jnsgd1na2vs0mg"},{"bike_id":"ab6bd442-7df4-49f9-a454-4d6965b66e3d","system_id":"levelo_inurba_marseille","lat":43.27373,"lon":5.36264,"is_reserved":false,"is_disabled":false,"rental_uris":{"android":"levelo://app?vid=ab6bd442-7df4-49f9-a454-4d6965b66e3d","ios":"levelo://app?vid=ab6bd442-7df4-49f9-a454-4d6965b66e3d"},"vehicle_type_id":"4","last_reported":1750946990,"current_range_meters":8800,"station_id":"ce4bhbh2rcd13ifvqeo0","pricing_plan_id":"cebpf4jnsgd1na2vs0mg"},{"bike_id":"84f0e984-a9c6-4f89-bffb-8a893b66f365","system_id":"levelo_inurba_marseille","lat":43.21195,"lon":5.35077,"is_reserved":false,"is_disabled":false,"rental_uris":{"android":"levelo://app?vid=84f0e984-a9c6-4f89-bffb-8a893b66f365","ios":"levelo://app?vid=84f0e984-a9c6-4f89-bffb-8a893b66f365"},"vehicle_type_id":"4","last_reported":1750946990,"current_range_meters":8800,"station_id":"st_cvj6sg6p6f1abm77japg","pricing_plan_id":"cebpf4jnsgd1na2vs0mg"},{"bike_id":"9a1f0e7d-ca49-4ed3-b199-274ca3fc3afe","system_id":"levelo_inurba_marseille","lat":43.27619,"lon":5.36106,"is_reserved":false,"is_disabled":false,"rental_uris":{"android":"levelo://app?vid=9a1f0e7d-ca49-4ed3-b199-274ca3fc3afe","ios":"levelo://app?vid=9a1f0e7d-ca49-4ed3-b199-274ca3fc3afe"},"vehicle_type_id":"4","last_reported":1750946990,"current_range_meters":9200,"station_id":"ce4bgj92rcd13ifvqbe0","pricing_plan_id":"cebpf4jnsgd1na2vs0mg"},{"bike_id":"e84dcfd4-ee6e-4947-8a5f-3619bd87ff32","system_id":"levelo_inurba_marseille","lat":43.30541,"lon":5.36525,"is_reserved":false,"is_disabled":false,"rental_uris":{"android":"levelo://app?vid=e84dcfd4-ee6e-4947-8a5f-3619bd87ff32","ios":"levelo://app?vid=e84dcfd4-ee6e-4947-8a5f-3619bd87ff32"},"vehicle_type_id":"4","last_reported":1750946990,"current_range_meters":9200,"station_id":"ce4bgs12rcd13ifvqcag","pricing_plan_id":"cebpf4jnsgd1na2vs0mg"},{"bike_id":"52f90387-241d-427f-bd5c-8935de8a4773","system_id":"levelo_inurba_marseille","lat":43.284528,"lon":5.384958,"is_reserved":false,"is_disabled":false,"rental_uris":{"android":"levelo://app?vid=52f90387-241d-427f-bd5c-8935de8a4773","ios":"levelo://app?vid=52f90387-241d-427f-bd5c-8935de8a4773"},"vehicle_type_id":"4","last_reported":1750946990,"current_range_meters":9200,"station_id":"ce4bh512rcd13ifvqe3g","pricing_plan_id":"cebpf4jnsgd1na2vs0mg"},{"bike_id":"3340e194-55c6-42c4-bda5-cada7443a488","system_id":"levelo_inurba_marseille","lat":43.28272,"lon":5.35098,"is_reserved":false,"is_disabled":false,"rental_uris":{"android":"levelo://app?vid=3340e194-55c6-42c4-bda5-cada7443a488","ios":"levelo://app?vid=3340e194-55c6-42c4-bda5-cada7443a488"},"vehicle_type_id":"4","last_reported":1750946990,"current_range_meters":9200,"station_id":"ce4bhbp2rcd13ifvqerg","pricing_plan_id":"cebpf4jnsgd1na2vs0mg"},{"bike_id":"08f9708d-3485-4030-99c8-3f18fe3474b6","system_id":"levelo_inurba_marseille","lat":43.31897,"lon":5.40723,"is_reserved":false,"is_disabled":false,"rental_uris":{"android":"levelo://app?vid=08f9708d-3485-4030-99c8-3f18fe3474b6","ios":"levelo://app?vid=08f9708d-3485-4030-99c8-3f18fe3474b6"},"vehicle_type_id":"4","last_reported":1750946990,"current_range_meters":9200,"station_id":"ce4bhq12rcd13ifvqhig","pricing_plan_id":"cebpf4jnsgd1na2vs0mg"},{"bike_id":"e2f5b300-4a63-4778-aada-c29a8a0ea1e8","system_id":"levelo_inurba_marseille","lat":43.32795,"lon":5.392109,"is_reserved":false,"is_disabled":false,"rental_uris":{"android":"levelo://app?vid=e2f5b300-4a63-4778-aada-c29a8a0ea1e8","ios":"levelo://app?vid=e2f5b300-4a63-4778-aada-c29a8a0ea1e8"},"vehicle_type_id":"4","last_reported":1750946990,"current_range_meters":9600,"station_id":"","pricing_plan_id":"cebpf4jnsgd1na2vs0mg"},{"bike_id":"7daa24d1-3378-4a16-a712-4cde144a02ec","system_id":"levelo_inurba_marseille","lat":43.29369,"lon":5.3783,"is_reserved":false,"is_disabled":false,"rental_uris":{"android":"levelo://app?vid=7daa24d1-3378-4a16-a712-4cde144a02ec","ios":"levelo://app?vid=7daa24d1-3378-4a16-a712-4cde144a02ec"},"vehicle_type_id":"4","last_reported":1750946990,"current_range_meters":9600,"station_id":"ce4bgjh2rcd13ifvqbf0","pricing_plan_id":"cebpf4jnsgd1na2vs0mg"},{"bike_id":"4d6658f4-b84c-4066-af22-3348974d22c3","system_id":"levelo_inurba_marseille","lat":43.31117,"lon":5.37762,"is_reserved":false,"is_disabled":false,"rental_uris":{"android":"levelo://app?vid=4d6658f4-b84c-4066-af22-3348974d22c3","ios":"levelo://app?vid=4d6658f4-b84c-4066-af22-3348974d22c3"},"vehicle_type_id":"4","last_reported":1750946990,"current_range_meters":9600,"station_id":"ce4bgt92rcd13ifvqcg0","pricing_plan_id":"cebpf4jnsgd1na2vs0mg"},{"bike_id":"347df93f-8362-4ffa-b3bf-8349056062f4","system_id":"levelo_inurba_marseille","lat":43.29634,"lon":5.40599,"is_reserved":false,"is_disabled":false,"rental_uris":{"android":"levelo://app?vid=347df93f-8362-4ffa-b3bf-8349056062f4","ios":"levelo://app?vid=347df93f-8362-4ffa-b3bf-8349056062f4"},"vehicle_type_id":"4","last_reported":1750946990,"current_range_meters":9600,"station_id":"ce4bh0h2rcd13ifvqd60","pricing_plan_id":"cebpf4jnsgd1na2vs0mg"},{"bike_id":"b1e5ccfc-0c7b-43b5-8830-bff084ec37d6","system_id":"levelo_inurba_marseille","lat":43.28413,"lon":5.34997,"is_reserved":false,"is_disabled":false,"rental_uris":{"android":"levelo://app?vid=b1e5ccfc-0c7b-43b5-8830-bff084ec37d6","ios":"levelo://app?vid=b1e5ccfc-0c7b-43b5-8830-bff084ec37d6"},"vehicle_type_id":"4","last_reported":1750946990,"current_range_meters":9600,"station_id":"ce4bhbh2rcd13ifvqepg","pricing_plan_id":"cebpf4jnsgd1na2vs0mg"},{"bike_id":"9f8fc08c-4ea2-4b13-bdcf-a16ef9f5f2b8","system_id":"levelo_inurba_marseille","lat":43.26558,"lon":5.37275,"is_reserved":false,"is_disabled":false,"rental_uris":{"android":"levelo://app?vid=9f8fc08c-4ea2-4b13-bdcf-a16ef9f5f2b8","ios":"levelo://app?vid=9f8fc08c-4ea2-4b13-bdcf-a16ef9f5f2b8"},"vehicle_type_id":"4","last_reported":1750946990,"current_range_meters":9600,"station_id":"ce4bhg12rcd13ifvqf70","pricing_plan_id":"cebpf4jnsgd1na2vs0mg"},{"bike_id":"ca975740-45d9-40a0-bbd1-87567337002a","system_id":"levelo_inurba_marseille","lat":43.27417,"lon":5.36207,"is_reserved":false,"is_disabled":false,"rental_uris":{"android":"levelo://app?vid=ca975740-45d9-40a0-bbd1-87567337002a","ios":"levelo://app?vid=ca975740-45d9-40a0-bbd1-87567337002a"},"vehicle_type_id":"4","last_reported":1750946990,"current_range_meters":10000,"station_id":"","pricing_plan_id":"cebpf4jnsgd1na2vs0mg"},{"bike_id":"6372e062-fa5e-4359-861a-71fe78c525b4","system_id":"levelo_inurba_marseille","lat":43.30237,"lon":5.39461,"is_reserved":false,"is_disabled":false,"rental_uris":{"android":"levelo://app?vid=6372e062-fa5e-4359-861a-71fe78c525b4","ios":"levelo://app?vid=6372e062-fa5e-4359-861a-71fe78c525b4"},"vehicle_type_id":"4","last_reported":1750946990,"current_range_meters":10000,"station_id":"ce4bh0p2rcd13ifvqd70","pricing_plan_id":"cebpf4jnsgd1na2vs0mg"},{"bike_id":"9aacba6f-1c83-4fdc-b96e-b6f34422d52b","system_id":"levelo_inurba_marseille","lat":43.28941,"lon":5.36644,"is_reserved":false,"is_disabled":false,"rental_uris":{"android":"levelo://app?vid=9aacba6f-1c83-4fdc-b96e-b6f34422d52b","ios":"levelo://app?vid=9aacba6f-1c83-4fdc-b96e-b6f34422d52b"},"vehicle_type_id":"4","last_reported":1750946990,"current_range_meters":10000,"station_id":"ce4bhap2rcd13ifvqek0","pricing_plan_id":"cebpf4jnsgd1na2vs0mg"},{"bike_id":"0eccb877-8859-461a-804f-bf0cdb618938","system_id":"levelo_inurba_marseille","lat":43.26682,"lon":5.38276,"is_reserved":false,"is_disabled":false,"rental_uris":{"android":"levelo://app?vid=0eccb877-8859-461a-804f-bf0cdb618938","ios":"levelo://app?vid=0eccb877-8859-461a-804f-bf0cdb618938"},"vehicle_type_id":"4","last_reported":1750946990,"current_range_meters":10000,"station_id":"ce4bhg92rcd13ifvqf90","pricing_plan_id":"cebpf4jnsgd1na2vs0mg"},{"bike_id":"ad8f14f8-d242-4d0b-89fc-8242c6f06ba2","system_id":"levelo_inurba_marseille","lat":43.29259,"lon":5.37627,"is_reserved":false,"is_disabled":false,"rental_uris":{"android":"levelo://app?vid=ad8f14f8-d242-4d0b-89fc-8242c6f06ba2","ios":"levelo://app?vid=ad8f14f8-d242-4d0b-89fc-8242c6f06ba2"},"vehicle_type_id":"4","last_reported":1750946990,"current_range_meters":10800,"station_id":"ce4bgi12rcd13ifvqb80","pricing_plan_id":"cebpf4jnsgd1na2vs0mg"},{"bike_id":"347bd77c-407a-4169-b3b2-fa77f9be4559","system_id":"levelo_inurba_marseille","lat":43.30903,"lon":5.36855,"is_reserved":false,"is_disabled":false,"rental_uris":{"android":"levelo://app?vid=347bd77c-407a-4169-b3b2-fa77f9be4559","ios":"levelo://app?vid=347bd77c-407a-4169-b3b2-fa77f9be4559"},"vehicle_type_id":"4","last_reported":1750946990,"current_range_meters":10800,"station_id":"ce4bgn92rcd13ifvqbvg","pricing_plan_id":"cebpf4jnsgd1na2vs0mg"},{"bike_id":"3af4a0b2-531c-45f9-9ec6-cc86d3a608d6","system_id":"levelo_inurba_marseille","lat":43.30532,"lon":5.36709,"is_reserved":false,"is_disabled":false,"rental_uris":{"android":"levelo://app?vid=3af4a0b2-531c-45f9-9ec6-cc86d3a608d6","ios":"levelo://app?vid=3af4a0b2-531c-45f9-9ec6-cc86d3a608d6"},"vehicle_type_id":"4","last_reported":1750946990,"current_range_meters":10800,"station_id":"ce4bgrp2rcd13ifvqc9g","pricing_plan_id":"cebpf4jnsgd1na2vs0mg"},{"bike_id":"06dc3f09-5e93-4317-8fd5-61b36f80e007","system_id":"levelo_inurba_marseille","lat":43.30217,"lon":5.39462,"is_reserved":false,"is_disabled":false,"rental_uris":{"android":"levelo://app?vid=06dc3f09-5e93-4317-8fd5-61b36f80e007","ios":"levelo://app?vid=06dc3f09-5e93-4317-8fd5-61b36f80e007"},"vehicle_type_id":"4","last_reported":1750946990,"current_range_meters":10800,"station_id":"ce4bh0p2rcd13ifvqd70","pricing_plan_id":"cebpf4jnsgd1na2vs0mg"},{"bike_id":"cc3daeb6-a472-4cde-985a-9567caddab5f","system_id":"levelo_inurba_marseille","lat":43.280361,"lon":5.369468,"is_reserved":false,"is_disabled":false,"rental_uris":{"android":"levelo://app?vid=cc3daeb6-a472-4cde-985a-9567caddab5f","ios":"levelo://app?vid=cc3daeb6-a472-4cde-985a-9567caddab5f"},"vehicle_type_id":"4","last_reported":1750946990,"current_range_meters":10800,"station_id":"ce4bha12rcd13ifvqef0","pricing_plan_id":"cebpf4jnsgd1na2vs0mg"},{"bike_id":"370a9a08-cacc-4f1b-8ab2-43f59d6ce4eb","system_id":"levelo_inurba_marseille","lat":43.25005,"lon":5.38925,"is_reserved":false,"is_disabled":false,"rental_uris":{"android":"levelo://app?vid=370a9a08-cacc-4f1b-8ab2-43f59d6ce4eb","ios":"levelo://app?vid=370a9a08-cacc-4f1b-8ab2-43f59d6ce4eb"},"vehicle_type_id":"4","last_reported":1750946990,"current_range_meters":10800,"station_id":"ce4bhgp2rcd13ifvqfd0","pricing_plan_id":"cebpf4jnsgd1na2vs0mg"},{"bike_id":"def7bf6e-66a4-4890-a35c-872d2bc106dc","system_id":"levelo_inurba_marseille","lat":43.23159,"lon":5.43727,"is_reserved":false,"is_disabled":false,"rental_uris":{"android":"levelo://app?vid=def7bf6e-66a4-4890-a35c-872d2bc106dc","ios":"levelo://app?vid=def7bf6e-66a4-4890-a35c-872d2bc106dc"},"vehicle_type_id":"4","last_reported":1750946990,"current_range_meters":10800,"station_id":"ce4bhmp2rcd13ifvqgog","pricing_plan_id":"cebpf4jnsgd1na2vs0mg"},{"bike_id":"1e22e8ed-a6d0-41d0-9665-7a00b1575239","system_id":"levelo_inurba_marseille","lat":43.33591,"lon":5.40971,"is_reserved":false,"is_disabled":false,"rental_uris":{"android":"levelo://app?vid=1e22e8ed-a6d0-41d0-9665-7a00b1575239","ios":"levelo://app?vid=1e22e8ed-a6d0-41d0-9665-7a00b1575239"},"vehicle_type_id":"4","last_reported":1750946990,"current_range_meters":10800,"station_id":"ce4bhqh2rcd13ifvqhmg","pricing_plan_id":"cebpf4jnsgd1na2vs0mg"},{"bike_id":"a68ea415-c432-4f16-bc42-bbb610c19eac","system_id":"levelo_inurba_marseille","lat":43.336102,"lon":5.410102,"is_reserved":false,"is_disabled":false,"rental_uris":{"android":"levelo://app?vid=a68ea415-c432-4f16-bc42-bbb610c19eac","ios":"levelo://app?vid=a68ea415-c432-4f16-bc42-bbb610c19eac"},"vehicle_type_id":"4","last_reported":1750946990,"current_range_meters":10800,"station_id":"ce4bhqh2rcd13ifvqhmg","pricing_plan_id":"cebpf4jnsgd1na2vs0mg"},{"bike_id":"1c04c8f2-65b5-4e43-830b-5b38714243f6","system_id":"levelo_inurba_marseille","lat":43.33617,"lon":5.41038,"is_reserved":false,"is_disabled":false,"rental_uris":{"android":"levelo://app?vid=1c04c8f2-65b5-4e43-830b-5b38714243f6","ios":"levelo://app?vid=1c04c8f2-65b5-4e43-830b-5b38714243f6"},"vehicle_type_id":"4","last_reported":1750946990,"current_range_meters":10800,"station_id":"ce4bhqh2rcd13ifvqhmg","pricing_plan_id":"cebpf4jnsgd1na2vs0mg"},{"bike_id":"7e31d3d8-634d-4148-91b9-c985475605f1","system_id":"levelo_inurba_marseille","lat":43.313871,"lon":5.366948,"is_reserved":false,"is_disabled":false,"rental_uris":{"android":"levelo://app?vid=7e31d3d8-634d-4148-91b9-c985475605f1","ios":"levelo://app?vid=7e31d3d8-634d-4148-91b9-c985475605f1"},"vehicle_type_id":"4","last_reported":1750946990,"current_range_meters":11200,"station_id":"","pricing_plan_id":"cebpf4jnsgd1na2vs0mg"},{"bike_id":"60a2bccc-20d3-46f0-b3e8-4c2ce7c48800","system_id":"levelo_inurba_marseille","lat":43.229248,"lon":5.353737,"is_reserved":false,"is_disabled":false,"rental_uris":{"android":"levelo://app?vid=60a2bccc-20d3-46f0-b3e8-4c2ce7c48800","ios":"levelo://app?vid=60a2bccc-20d3-46f0-b3e8-4c2ce7c48800"},"vehicle_type_id":"4","last_reported":1750946990,"current_range_meters":11200,"station_id":"","pricing_plan_id":"cebpf4jnsgd1na2vs0mg"},{"bike_id":"0b064819-3aa7-4b67-b927-aca8c539a673","system_id":"levelo_inurba_marseille","lat":43.30538,"lon":5.36563,"is_reserved":false,"is_disabled":false,"rental_uris":{"android":"levelo://app?vid=0b064819-3aa7-4b67-b927-aca8c539a673","ios":"levelo://app?vid=0b064819-3aa7-4b67-b927-aca8c539a673"},"vehicle_type_id":"4","last_reported":1750946990,"current_range_meters":11200,"station_id":"ce4bgs12rcd13ifvqcag","pricing_plan_id":"cebpf4jnsgd1na2vs0mg"},{"bike_id":"988ebcbe-8322-418d-97bf-1a1b9af18390","system_id":"levelo_inurba_marseille","lat":43.26659,"lon":5.38272,"is_reserved":false,"is_disabled":false,"rental_uris":{"android":"levelo://app?vid=988ebcbe-8322-418d-97bf-1a1b9af18390","ios":"levelo://app?vid=988ebcbe-8322-418d-97bf-1a1b9af18390"},"vehicle_type_id":"4","last_reported":1750946990,"current_range_meters":11200,"station_id":"ce4bhg92rcd13ifvqf90","pricing_plan_id":"cebpf4jnsgd1na2vs0mg"},{"bike_id":"05fd4459-ea0b-4b03-8708-46771b93cbed","system_id":"levelo_inurba_marseille","lat":43.23143,"lon":5.43718,"is_reserved":false,"is_disabled":false,"rental_uris":{"android":"levelo://app?vid=05fd4459-ea0b-4b03-8708-46771b93cbed","ios":"levelo://app?vid=05fd4459-ea0b-4b03-8708-46771b93cbed"},"vehicle_type_id":"4","last_reported":1750946990,"current_range_meters":11200,"station_id":"ce4bhmp2rcd13ifvqgog","pricing_plan_id":"cebpf4jnsgd1na2vs0mg"},{"bike_id":"a9d25cad-d480-4c75-aec5-3969f1a4e6c7","system_id":"levelo_inurba_marseille","lat":43.32919,"lon":5.39065,"is_reserved":false,"is_disabled":false,"rental_uris":{"android":"levelo://app?vid=a9d25cad-d480-4c75-aec5-3969f1a4e6c7","ios":"levelo://app?vid=a9d25cad-d480-4c75-aec5-3969f1a4e6c7"},"vehicle_type_id":"4","last_reported":1750946990,"current_range_meters":11600,"station_id":"","pricing_plan_id":"cebpf4jnsgd1na2vs0mg"},{"bike_id":"a831d472-9c8d-40da-a8c3-78f771a0660e","system_id":"levelo_inurba_marseille","lat":43.29712,"lon":5.37688,"is_reserved":false,"is_disabled":false,"rental_uris":{"android":"levelo://app?vid=a831d472-9c8d-40da-a8c3-78f771a0660e","ios":"levelo://app?vid=a831d472-9c8d-40da-a8c3-78f771a0660e"},"vehicle_type_id":"4","last_reported":1750946990,"current_range_meters":11600,"station_id":"ce4bgkh2rcd13ifvqbl0","pricing_plan_id":"cebpf4jnsgd1na2vs0mg"},{"bike_id":"7ff4085a-1d54-4a13-afa5-c6449c33d1f5","system_id":"levelo_inurba_marseille","lat":43.31351,"lon":5.36716,"is_reserved":false,"is_disabled":false,"rental_uris":{"android":"levelo://app?vid=7ff4085a-1d54-4a13-afa5-c6449c33d1f5","ios":"levelo://app?vid=7ff4085a-1d54-4a13-afa5-c6449c33d1f5"},"vehicle_type_id":"4","last_reported":1750946990,"current_range_meters":11600,"station_id":"ce4bgr92rcd13ifvqc6g","pricing_plan_id":"cebpf4jnsgd1na2vs0mg"},{"bike_id":"ad4b0d57-e70a-4552-a223-13ac8ade7e28","system_id":"levelo_inurba_marseille","lat":43.29976,"lon":5.37177,"is_reserved":false,"is_disabled":false,"rental_uris":{"android":"levelo://app?vid=ad4b0d57-e70a-4552-a223-13ac8ade7e28","ios":"levelo://app?vid=ad4b0d57-e70a-4552-a223-13ac8ade7e28"},"vehicle_type_id":"4","last_reported":1750946990,"current_range_meters":11600,"station_id":"ce4bgr92rcd13ifvqc7g","pricing_plan_id":"cebpf4jnsgd1na2vs0mg"},{"bike_id":"106cbca7-8d37-483f-8fc7-de5baf9de356","system_id":"levelo_inurba_marseille","lat":43.28573,"lon":5.39502,"is_reserved":false,"is_disabled":false,"rental_uris":{"android":"levelo://app?vid=106cbca7-8d37-483f-8fc7-de5baf9de356","ios":"levelo://app?vid=106cbca7-8d37-483f-8fc7-de5baf9de356"},"vehicle_type_id":"4","last_reported":1750946990,"current_range_meters":11600,"station_id":"ce4bh292rcd13ifvqdg0","pricing_plan_id":"cebpf4jnsgd1na2vs0mg"},{"bike_id":"f932a968-3141-49eb-8c36-d27f37f34a7c","system_id":"levelo_inurba_marseille","lat":43.29884,"lon":5.38908,"is_reserved":false,"is_disabled":false,"rental_uris":{"android":"levelo://app?vid=f932a968-3141-49eb-8c36-d27f37f34a7c","ios":"levelo://app?vid=f932a968-3141-49eb-8c36-d27f37f34a7c"},"vehicle_type_id":"4","last_reported":1750946990,"current_range_meters":11600,"station_id":"ce4bh392rcd13ifvqdl0","pricing_plan_id":"cebpf4jnsgd1na2vs0mg"},{"bike_id":"d9297bcb-258f-4cc8-965a-128f8c5dbf4f","system_id":"levelo_inurba_marseille","lat":43.28616,"lon":5.35098,"is_reserved":false,"is_disabled":false,"rental_uris":{"android":"levelo://app?vid=d9297bcb-258f-4cc8-965a-128f8c5dbf4f","ios":"levelo://app?vid=d9297bcb-258f-4cc8-965a-128f8c5dbf4f"},"vehicle_type_id":"4","last_reported":1750946990,"current_range_meters":11600,"station_id":"ce4bhch2rcd13ifvqeug","pricing_plan_id":"cebpf4jnsgd1na2vs0mg"},{"bike_id":"add6291a-dee0-4030-8588-25617391e274","system_id":"levelo_inurba_marseille","lat":43.336031,"lon":5.410234,"is_reserved":false,"is_disabled":false,"rental_uris":{"android":"levelo://app?vid=add6291a-dee0-4030-8588-25617391e274","ios":"levelo://app?vid=add6291a-dee0-4030-8588-25617391e274"},"vehicle_type_id":"4","last_reported":1750946990,"current_range_meters":11600,"station_id":"ce4bhqh2rcd13ifvqhmg","pricing_plan_id":"cebpf4jnsgd1na2vs0mg"},{"bike_id":"fe1e536f-d26d-4693-b98d-b56ff09e03eb","system_id":"levelo_inurba_marseille","lat":43.32365,"lon":5.36765,"is_reserved":false,"is_disabled":false,"rental_uris":{"android":"levelo://app?vid=fe1e536f-d26d-4693-b98d-b56ff09e03eb","ios":"levelo://app?vid=fe1e536f-d26d-4693-b98d-b56ff09e03eb"},"vehicle_type_id":"4","last_reported":1750946990,"current_range_meters":11600,"station_id":"ce4bhsh2rcd13ifvqi2g","pricing_plan_id":"cebpf4jnsgd1na2vs0mg"},{"bike_id":"f47876d7-9c85-474e-92c5-7a242e08b67c","system_id":"levelo_inurba_marseille","lat":43.30569,"lon":5.37546,"is_reserved":false,"is_disabled":false,"rental_uris":{"android":"levelo://app?vid=f47876d7-9c85-474e-92c5-7a242e08b67c","ios":"levelo://app?vid=f47876d7-9c85-474e-92c5-7a242e08b67c"},"vehicle_type_id":"4","last_reported":1750946990,"current_range_meters":12000,"station_id":"","pricing_plan_id":"cebpf4jnsgd1na2vs0mg"},{"bike_id":"77a1c230-cdad-4fe2-8ee7-52f0b5ad7442","system_id":"levelo_inurba_marseille","lat":43.29743,"lon":5.38235,"is_reserved":false,"is_disabled":false,"rental_uris":{"android":"levelo://app?vid=77a1c230-cdad-4fe2-8ee7-52f0b5ad7442","ios":"levelo://app?vid=77a1c230-cdad-4fe2-8ee7-52f0b5ad7442"},"vehicle_type_id":"4","last_reported":1750946990,"current_range_meters":12000,"station_id":"","pricing_plan_id":"cebpf4jnsgd1na2vs0mg"},{"bike_id":"9abb463c-608b-4ca5-85c3-881d68762a95","system_id":"levelo_inurba_marseille","lat":43.31493,"lon":5.37303,"is_reserved":false,"is_disabled":false,"rental_uris":{"android":"levelo://app?vid=9abb463c-608b-4ca5-85c3-881d68762a95","ios":"levelo://app?vid=9abb463c-608b-4ca5-85c3-881d68762a95"},"vehicle_type_id":"4","last_reported":1750946990,"current_range_meters":12000,"station_id":"ce4bgt12rcd13ifvqcd0","pricing_plan_id":"cebpf4jnsgd1na2vs0mg"},{"bike_id":"fc3de84b-3737-40a5-8532-e9285084f216","system_id":"levelo_inurba_marseille","lat":43.3046,"lon":5.3791,"is_reserved":false,"is_disabled":false,"rental_uris":{"android":"levelo://app?vid=fc3de84b-3737-40a5-8532-e9285084f216","ios":"levelo://app?vid=fc3de84b-3737-40a5-8532-e9285084f216"},"vehicle_type_id":"4","last_reported":1750946990,"current_range_meters":12000,"station_id":"ce4bgup2rcd13ifvqcn0","pricing_plan_id":"cebpf4jnsgd1na2vs0mg"},{"bike_id":"be523e11-15ca-4f5b-a3af-c9384ddde979","system_id":"levelo_inurba_marseille","lat":43.29007,"lon":5.35619,"is_reserved":false,"is_disabled":false,"rental_uris":{"android":"levelo://app?vid=be523e11-15ca-4f5b-a3af-c9384ddde979","ios":"levelo://app?vid=be523e11-15ca-4f5b-a3af-c9384ddde979"},"vehicle_type_id":"4","last_reported":1750946990,"current_range_meters":12000,"station_id":"ce4bhb92rcd13ifvqen0","pricing_plan_id":"cebpf4jnsgd1na2vs0mg"},{"bike_id":"4d14817b-a34b-4f40-a521-31eaa5f7bbd8","system_id":"levelo_inurba_marseille","lat":43.28992,"lon":5.35615,"is_reserved":false,"is_disabled":false,"rental_uris":{"android":"levelo://app?vid=4d14817b-a34b-4f40-a521-31eaa5f7bbd8","ios":"levelo://app?vid=4d14817b-a34b-4f40-a521-31eaa5f7bbd8"},"vehicle_type_id":"4","last_reported":1750946990,"current_range_meters":12000,"station_id":"ce4bhb92rcd13ifvqen0","pricing_plan_id":"cebpf4jnsgd1na2vs0mg"},{"bike_id":"eb7c4513-9596-4f81-a257-7734c35cabb5","system_id":"levelo_inurba_marseille","lat":43.24181,"lon":5.3973,"is_reserved":false,"is_disabled":false,"rental_uris":{"android":"levelo://app?vid=eb7c4513-9596-4f81-a257-7734c35cabb5","ios":"levelo://app?vid=eb7c4513-9596-4f81-a257-7734c35cabb5"},"vehicle_type_id":"4","last_reported":1750946990,"current_range_meters":12000,"station_id":"ce4bhn12rcd13ifvqgpg","pricing_plan_id":"cebpf4jnsgd1na2vs0mg"},{"bike_id":"e28025ce-d9d1-4e85-bfe6-cf10aa53871a","system_id":"levelo_inurba_marseille","lat":43.23972,"lon":5.3654,"is_reserved":false,"is_disabled":false,"rental_uris":{"android":"levelo://app?vid=e28025ce-d9d1-4e85-bfe6-cf10aa53871a","ios":"levelo://app?vid=e28025ce-d9d1-4e85-bfe6-cf10aa53871a"},"vehicle_type_id":"4","last_reported":1750946990,"current_range_meters":12400,"station_id":"","pricing_plan_id":"cebpf4jnsgd1na2vs0mg"},{"bike_id":"44d39d1b-4107-4e7c-8dd2-3885369ebaae","system_id":"levelo_inurba_marseille","lat":43.30543,"lon":5.36552,"is_reserved":false,"is_disabled":false,"rental_uris":{"android":"levelo://app?vid=44d39d1b-4107-4e7c-8dd2-3885369ebaae","ios":"levelo://app?vid=44d39d1b-4107-4e7c-8dd2-3885369ebaae"},"vehicle_type_id":"4","last_reported":1750946990,"current_range_meters":12400,"station_id":"ce4bgs12rcd13ifvqcag","pricing_plan_id":"cebpf4jnsgd1na2vs0mg"},{"bike_id":"7a7fea85-e292-4744-a606-b25c76ab9bf0","system_id":"levelo_inurba_marseille","lat":43.26209,"lon":5.37443,"is_reserved":false,"is_disabled":false,"rental_uris":{"android":"levelo://app?vid=7a7fea85-e292-4744-a606-b25c76ab9bf0","ios":"levelo://app?vid=7a7fea85-e292-4744-a606-b25c76ab9bf0"},"vehicle_type_id":"4","last_reported":1750946990,"current_range_meters":12400,"station_id":"ce4bhgp2rcd13ifvqfc0","pricing_plan_id":"cebpf4jnsgd1na2vs0mg"},{"bike_id":"5a14250c-9869-4194-9b48-50300a64ec64","system_id":"levelo_inurba_marseille","lat":43.24389,"lon":5.37063,"is_reserved":false,"is_disabled":false,"rental_uris":{"android":"levelo://app?vid=5a14250c-9869-4194-9b48-50300a64ec64","ios":"levelo://app?vid=5a14250c-9869-4194-9b48-50300a64ec64"},"vehicle_type_id":"4","last_reported":1750946990,"current_range_meters":12400,"station_id":"ce4bhhh2rcd13ifvqfk0","pricing_plan_id":"cebpf4jnsgd1na2vs0mg"},{"bike_id":"6e0e50d7-d18e-49de-8256-9618939f2e67","system_id":"levelo_inurba_marseille","lat":43.29894,"lon":5.4366,"is_reserved":false,"is_disabled":false,"rental_uris":{"android":"levelo://app?vid=6e0e50d7-d18e-49de-8256-9618939f2e67","ios":"levelo://app?vid=6e0e50d7-d18e-49de-8256-9618939f2e67"},"vehicle_type_id":"4","last_reported":1750946990,"current_range_meters":12400,"station_id":"ce4bhpp2rcd13ifvqhfg","pricing_plan_id":"cebpf4jnsgd1na2vs0mg"},{"bike_id":"494d915e-3422-4793-bce6-1a1e1d171a61","system_id":"levelo_inurba_marseille","lat":43.2876,"lon":5.40026,"is_reserved":false,"is_disabled":false,"rental_uris":{"android":"levelo://app?vid=494d915e-3422-4793-bce6-1a1e1d171a61","ios":"levelo://app?vid=494d915e-3422-4793-bce6-1a1e1d171a61"},"vehicle_type_id":"4","last_reported":1750946990,"current_range_meters":12800,"station_id":"","pricing_plan_id":"cebpf4jnsgd1na2vs0mg"},{"bike_id":"de0f7c2b-5974-4035-a240-8ed367c0e3f3","system_id":"levelo_inurba_marseille","lat":43.31959,"lon":5.37625,"is_reserved":false,"is_disabled":false,"rental_uris":{"android":"levelo://app?vid=de0f7c2b-5974-4035-a240-8ed367c0e3f3","ios":"levelo://app?vid=de0f7c2b-5974-4035-a240-8ed367c0e3f3"},"vehicle_type_id":"4","last_reported":1750946990,"current_range_meters":12800,"station_id":"","pricing_plan_id":"cebpf4jnsgd1na2vs0mg"},{"bike_id":"5a2f6a10-dda8-473e-a622-37503f9e560d","system_id":"levelo_inurba_marseille","lat":43.30554,"lon":5.3654,"is_reserved":false,"is_disabled":false,"rental_uris":{"android":"levelo://app?vid=5a2f6a10-dda8-473e-a622-37503f9e560d","ios":"levelo://app?vid=5a2f6a10-dda8-473e-a622-37503f9e560d"},"vehicle_type_id":"4","last_reported":1750946990,"current_range_meters":12800,"station_id":"ce4bgs12rcd13ifvqcag","pricing_plan_id":"cebpf4jnsgd1na2vs0mg"},{"bike_id":"d0275d0b-da82-44ae-9aeb-7167206ceed1","system_id":"levelo_inurba_marseille","lat":43.30947,"lon":5.39089,"is_reserved":false,"is_disabled":false,"rental_uris":{"android":"levelo://app?vid=d0275d0b-da82-44ae-9aeb-7167206ceed1","ios":"levelo://app?vid=d0275d0b-da82-44ae-9aeb-7167206ceed1"},"vehicle_type_id":"4","last_reported":1750946990,"current_range_meters":12800,"station_id":"ce4bgup2rcd13ifvqco0","pricing_plan_id":"cebpf4jnsgd1na2vs0mg"},{"bike_id":"03a7b753-4345-4f2a-990f-64063356ceb2","system_id":"levelo_inurba_marseille","lat":43.284027,"lon":5.375253,"is_reserved":false,"is_disabled":false,"rental_uris":{"android":"levelo://app?vid=03a7b753-4345-4f2a-990f-64063356ceb2","ios":"levelo://app?vid=03a7b753-4345-4f2a-990f-64063356ceb2"},"vehicle_type_id":"4","last_reported":1750946990,"current_range_meters":12800,"station_id":"ce4bh412rcd13ifvqds0","pricing_plan_id":"cebpf4jnsgd1na2vs0mg"},{"bike_id":"5d97ba86-e06d-4a4a-8b00-a18d8279549a","system_id":"levelo_inurba_marseille","lat":43.28433,"lon":5.35005,"is_reserved":false,"is_disabled":false,"rental_uris":{"android":"levelo://app?vid=5d97ba86-e06d-4a4a-8b00-a18d8279549a","ios":"levelo://app?vid=5d97ba86-e06d-4a4a-8b00-a18d8279549a"},"vehicle_type_id":"4","last_reported":1750946990,"current_range_meters":12800,"station_id":"ce4bhbh2rcd13ifvqepg","pricing_plan_id":"cebpf4jnsgd1na2vs0mg"},{"bike_id":"55d10599-fbee-45e2-966c-1632d6b09676","system_id":"levelo_inurba_marseille","lat":43.26028,"lon":5.37563,"is_reserved":false,"is_disabled":false,"rental_uris":{"android":"levelo://app?vid=55d10599-fbee-45e2-966c-1632d6b09676","ios":"levelo://app?vid=55d10599-fbee-45e2-966c-1632d6b09676"},"vehicle_type_id":"4","last_reported":1750946990,"current_range_meters":13600,"station_id":"ce4bhgh2rcd13ifvqfa0","pricing_plan_id":"cebpf4jnsgd1na2vs0mg"},{"bike_id":"25483e05-9ff1-44e6-90db-fd5d2acb5443","system_id":"levelo_inurba_marseille","lat":43.27058,"lon":5.40262,"is_reserved":false,"is_disabled":false,"rental_uris":{"android":"levelo://app?vid=25483e05-9ff1-44e6-90db-fd5d2acb5443","ios":"levelo://app?vid=25483e05-9ff1-44e6-90db-fd5d2acb5443"},"vehicle_type_id":"4","last_reported":1750946990,"current_range_meters":13600,"station_id":"ce4bhk92rcd13ifvqgc0","pricing_plan_id":"cebpf4jnsgd1na2vs0mg"},{"bike_id":"b3c8c323-c043-4ac9-9065-a01f8190cb7c","system_id":"levelo_inurba_marseille","lat":43.27491,"lon":5.42461,"is_reserved":false,"is_disabled":false,"rental_uris":{"android":"levelo://app?vid=b3c8c323-c043-4ac9-9065-a01f8190cb7c","ios":"levelo://app?vid=b3c8c323-c043-4ac9-9065-a01f8190cb7c"},"vehicle_type_id":"4","last_reported":1750946990,"current_range_meters":13600,"station_id":"ce4bhn92rcd13ifvqgrg","pricing_plan_id":"cebpf4jnsgd1na2vs0mg"},{"bike_id":"70a87e8b-7ad1-4bdf-b181-5e2fc38709cd","system_id":"levelo_inurba_marseille","lat":43.2991,"lon":5.43678,"is_reserved":false,"is_disabled":false,"rental_uris":{"android":"levelo://app?vid=70a87e8b-7ad1-4bdf-b181-5e2fc38709cd","ios":"levelo://app?vid=70a87e8b-7ad1-4bdf-b181-5e2fc38709cd"},"vehicle_type_id":"4","last_reported":1750946990,"current_range_meters":13600,"station_id":"ce4bhpp2rcd13ifvqhfg","pricing_plan_id":"cebpf4jnsgd1na2vs0mg"},{"bike_id":"4b8da722-ee9e-48a4-a5e5-3a8a10364708","system_id":"levelo_inurba_marseille","lat":43.31256,"lon":5.37808,"is_reserved":false,"is_disabled":false,"rental_uris":{"android":"levelo://app?vid=4b8da722-ee9e-48a4-a5e5-3a8a10364708","ios":"levelo://app?vid=4b8da722-ee9e-48a4-a5e5-3a8a10364708"},"vehicle_type_id":"4","last_reported":1750946990,"current_range_meters":14000,"station_id":"","pricing_plan_id":"cebpf4jnsgd1na2vs0mg"},{"bike_id":"93740489-ea2f-40d1-abd6-a6c646ed4266","system_id":"levelo_inurba_marseille","lat":43.303267,"lon":5.404396,"is_reserved":false,"is_disabled":false,"rental_uris":{"android":"levelo://app?vid=93740489-ea2f-40d1-abd6-a6c646ed4266","ios":"levelo://app?vid=93740489-ea2f-40d1-abd6-a6c646ed4266"},"vehicle_type_id":"4","last_reported":1750946990,"current_range_meters":14000,"station_id":"ce4bh012rcd13ifvqd10","pricing_plan_id":"cebpf4jnsgd1na2vs0mg"},{"bike_id":"6f1e685a-c032-4a81-8b9b-407c585ed841","system_id":"levelo_inurba_marseille","lat":43.26675,"lon":5.38267,"is_reserved":false,"is_disabled":false,"rental_uris":{"android":"levelo://app?vid=6f1e685a-c032-4a81-8b9b-407c585ed841","ios":"levelo://app?vid=6f1e685a-c032-4a81-8b9b-407c585ed841"},"vehicle_type_id":"4","last_reported":1750946990,"current_range_meters":14000,"station_id":"ce4bhg92rcd13ifvqf90","pricing_plan_id":"cebpf4jnsgd1na2vs0mg"},{"bike_id":"bee3f6ad-d11d-48ff-8b42-c69689edc4e0","system_id":"levelo_inurba_marseille","lat":43.29895,"lon":5.43667,"is_reserved":false,"is_disabled":false,"rental_uris":{"android":"levelo://app?vid=bee3f6ad-d11d-48ff-8b42-c69689edc4e0","ios":"levelo://app?vid=bee3f6ad-d11d-48ff-8b42-c69689edc4e0"},"vehicle_type_id":"4","last_reported":1750946990,"current_range_meters":14000,"station_id":"ce4bhpp2rcd13ifvqhfg","pricing_plan_id":"cebpf4jnsgd1na2vs0mg"},{"bike_id":"98179140-173e-4563-aedd-e7e82214edca","system_id":"levelo_inurba_marseille","lat":43.3237,"lon":5.36763,"is_reserved":false,"is_disabled":false,"rental_uris":{"android":"levelo://app?vid=98179140-173e-4563-aedd-e7e82214edca","ios":"levelo://app?vid=98179140-173e-4563-aedd-e7e82214edca"},"vehicle_type_id":"4","last_reported":1750946990,"current_range_meters":14000,"station_id":"ce4bhsh2rcd13ifvqi2g","pricing_plan_id":"cebpf4jnsgd1na2vs0mg"},{"bike_id":"b1bc10bb-6dc2-401a-955a-0d8f83b7c4d8","system_id":"levelo_inurba_marseille","lat":43.27381,"lon":5.36255,"is_reserved":false,"is_disabled":false,"rental_uris":{"android":"levelo://app?vid=b1bc10bb-6dc2-401a-955a-0d8f83b7c4d8","ios":"levelo://app?vid=b1bc10bb-6dc2-401a-955a-0d8f83b7c4d8"},"vehicle_type_id":"4","last_reported":1750946990,"current_range_meters":14400,"station_id":"ce4bhbh2rcd13ifvqeo0","pricing_plan_id":"cebpf4jnsgd1na2vs0mg"},{"bike_id":"c080e39a-1a38-491a-8eaa-f8195003b685","system_id":"levelo_inurba_marseille","lat":43.28617,"lon":5.35101,"is_reserved":false,"is_disabled":false,"rental_uris":{"android":"levelo://app?vid=c080e39a-1a38-491a-8eaa-f8195003b685","ios":"levelo://app?vid=c080e39a-1a38-491a-8eaa-f8195003b685"},"vehicle_type_id":"4","last_reported":1750946990,"current_range_meters":14400,"station_id":"ce4bhch2rcd13ifvqeug","pricing_plan_id":"cebpf4jnsgd1na2vs0mg"},{"bike_id":"e71de2ab-2a23-498c-a879-6766d616307e","system_id":"levelo_inurba_marseille","lat":43.24801,"lon":5.37452,"is_reserved":false,"is_disabled":false,"rental_uris":{"android":"levelo://app?vid=e71de2ab-2a23-498c-a879-6766d616307e","ios":"levelo://app?vid=e71de2ab-2a23-498c-a879-6766d616307e"},"vehicle_type_id":"4","last_reported":1750946990,"current_range_meters":14400,"station_id":"ce4bhgh2rcd13ifvqfb0","pricing_plan_id":"cebpf4jnsgd1na2vs0mg"},{"bike_id":"ca0c3d93-3816-4cc0-9c7d-2768642ccefe","system_id":"levelo_inurba_marseille","lat":43.2306,"lon":5.35489,"is_reserved":false,"is_disabled":false,"rental_uris":{"android":"levelo://app?vid=ca0c3d93-3816-4cc0-9c7d-2768642ccefe","ios":"levelo://app?vid=ca0c3d93-3816-4cc0-9c7d-2768642ccefe"},"vehicle_type_id":"4","last_reported":1750946990,"current_range_meters":14400,"station_id":"cpo3342slgdg3j2ifvpg","pricing_plan_id":"cebpf4jnsgd1na2vs0mg"},{"bike_id":"d2541864-294e-4fa8-8ed4-da3902bb58d5","system_id":"levelo_inurba_marseille","lat":43.2294,"lon":5.35383,"is_reserved":false,"is_disabled":false,"rental_uris":{"android":"levelo://app?vid=d2541864-294e-4fa8-8ed4-da3902bb58d5","ios":"levelo://app?vid=d2541864-294e-4fa8-8ed4-da3902bb58d5"},"vehicle_type_id":"4","last_reported":1750946990,"current_range_meters":14400,"station_id":"cpo3532slgdg3j2ikp40","pricing_plan_id":"cebpf4jnsgd1na2vs0mg"},{"bike_id":"c394188f-0192-4bd1-a9ce-d3aa40ec049d","system_id":"levelo_inurba_marseille","lat":43.22934,"lon":5.35376,"is_reserved":false,"is_disabled":false,"rental_uris":{"android":"levelo://app?vid=c394188f-0192-4bd1-a9ce-d3aa40ec049d","ios":"levelo://app?vid=c394188f-0192-4bd1-a9ce-d3aa40ec049d"},"vehicle_type_id":"4","last_reported":1750946990,"current_range_meters":14400,"station_id":"cpo3532slgdg3j2ikp40","pricing_plan_id":"cebpf4jnsgd1na2vs0mg"},{"bike_id":"85baa472-0dcc-431c-b769-f17532940231","system_id":"levelo_inurba_marseille","lat":43.2417,"lon":5.36427,"is_reserved":false,"is_disabled":false,"rental_uris":{"android":"levelo://app?vid=85baa472-0dcc-431c-b769-f17532940231","ios":"levelo://app?vid=85baa472-0dcc-431c-b769-f17532940231"},"vehicle_type_id":"4","last_reported":1750946990,"current_range_meters":14400,"station_id":"cpo36qri1sfpv3e86is0","pricing_plan_id":"cebpf4jnsgd1na2vs0mg"},{"bike_id":"86ebd8a7-7d30-43b6-953e-6107b0f77710","system_id":"levelo_inurba_marseille","lat":43.33397,"lon":5.40091,"is_reserved":false,"is_disabled":false,"rental_uris":{"android":"levelo://app?vid=86ebd8a7-7d30-43b6-953e-6107b0f77710","ios":"levelo://app?vid=86ebd8a7-7d30-43b6-953e-6107b0f77710"},"vehicle_type_id":"4","last_reported":1750946990,"current_range_meters":14800,"station_id":"","pricing_plan_id":"cebpf4jnsgd1na2vs0mg"},{"bike_id":"e51f629a-c372-4506-805e-7b115f58434b","system_id":"levelo_inurba_marseille","lat":43.24389,"lon":5.37038,"is_reserved":false,"is_disabled":false,"rental_uris":{"android":"levelo://app?vid=e51f629a-c372-4506-805e-7b115f58434b","ios":"levelo://app?vid=e51f629a-c372-4506-805e-7b115f58434b"},"vehicle_type_id":"4","last_reported":1750946990,"current_range_meters":14800,"station_id":"ce4bhhh2rcd13ifvqfk0","pricing_plan_id":"cebpf4jnsgd1na2vs0mg"},{"bike_id":"3021410b-fb73-4b0b-abf1-c9f17440ef9d","system_id":"levelo_inurba_marseille","lat":43.30537,"lon":5.38425,"is_reserved":false,"is_disabled":false,"rental_uris":{"android":"levelo://app?vid=3021410b-fb73-4b0b-abf1-c9f17440ef9d","ios":"levelo://app?vid=3021410b-fb73-4b0b-abf1-c9f17440ef9d"},"vehicle_type_id":"4","last_reported":1750946990,"current_range_meters":15200,"station_id":"ce4bgg92rcd13ifvqb30","pricing_plan_id":"cebpf4jnsgd1na2vs0mg"},{"bike_id":"33ff2acc-5b55-48de-9529-81b3c60dbff0","system_id":"levelo_inurba_marseille","lat":43.30897,"lon":5.372957,"is_reserved":false,"is_disabled":false,"rental_uris":{"android":"levelo://app?vid=33ff2acc-5b55-48de-9529-81b3c60dbff0","ios":"levelo://app?vid=33ff2acc-5b55-48de-9529-81b3c60dbff0"},"vehicle_type_id":"4","last_reported":1750946990,"current_range_meters":16000,"station_id":"","pricing_plan_id":"cebpf4jnsgd1na2vs0mg"},{"bike_id":"bfff9aa3-24c3-4018-adc8-6e63d957af6f","system_id":"levelo_inurba_marseille","lat":43.295298,"lon":5.385396,"is_reserved":false,"is_disabled":false,"rental_uris":{"android":"levelo://app?vid=bfff9aa3-24c3-4018-adc8-6e63d957af6f","ios":"levelo://app?vid=bfff9aa3-24c3-4018-adc8-6e63d957af6f"},"vehicle_type_id":"4","last_reported":1750946990,"current_range_meters":16000,"station_id":"ce4bgih2rcd13ifvqba0","pricing_plan_id":"cebpf4jnsgd1na2vs0mg"},{"bike_id":"dd05c48f-1f18-40ef-944d-941259b4e17d","system_id":"levelo_inurba_marseille","lat":43.31122,"lon":5.37767,"is_reserved":false,"is_disabled":false,"rental_uris":{"android":"levelo://app?vid=dd05c48f-1f18-40ef-944d-941259b4e17d","ios":"levelo://app?vid=dd05c48f-1f18-40ef-944d-941259b4e17d"},"vehicle_type_id":"4","last_reported":1750946990,"current_range_meters":16000,"station_id":"ce4bgt92rcd13ifvqcg0","pricing_plan_id":"cebpf4jnsgd1na2vs0mg"},{"bike_id":"bda91582-5183-4b2e-b379-8205ce2ca01d","system_id":"levelo_inurba_marseille","lat":43.289706,"lon":5.378363,"is_reserved":false,"is_disabled":false,"rental_uris":{"android":"levelo://app?vid=bda91582-5183-4b2e-b379-8205ce2ca01d","ios":"levelo://app?vid=bda91582-5183-4b2e-b379-8205ce2ca01d"},"vehicle_type_id":"4","last_reported":1750946990,"current_range_meters":16000,"station_id":"ce4bh9p2rcd13ifvqed0","pricing_plan_id":"cebpf4jnsgd1na2vs0mg"},{"bike_id":"03259c9d-92e1-4a35-a78d-f8c138dd71cb","system_id":"levelo_inurba_marseille","lat":43.26196,"lon":5.37452,"is_reserved":false,"is_disabled":false,"rental_uris":{"android":"levelo://app?vid=03259c9d-92e1-4a35-a78d-f8c138dd71cb","ios":"levelo://app?vid=03259c9d-92e1-4a35-a78d-f8c138dd71cb"},"vehicle_type_id":"4","last_reported":1750946990,"current_range_meters":16000,"station_id":"ce4bhgp2rcd13ifvqfc0","pricing_plan_id":"cebpf4jnsgd1na2vs0mg"},{"bike_id":"5347b3ea-8752-4664-bef1-c879a2a6263a","system_id":"levelo_inurba_marseille","lat":43.23151,"lon":5.43721,"is_reserved":false,"is_disabled":false,"rental_uris":{"android":"levelo://app?vid=5347b3ea-8752-4664-bef1-c879a2a6263a","ios":"levelo://app?vid=5347b3ea-8752-4664-bef1-c879a2a6263a"},"vehicle_type_id":"4","last_reported":1750946990,"current_range_meters":16000,"station_id":"ce4bhmp2rcd13ifvqgog","pricing_plan_id":"cebpf4jnsgd1na2vs0mg"},{"bike_id":"69df2830-b1e6-490b-861e-6b2cbb12bf5c","system_id":"levelo_inurba_marseille","lat":43.28157,"lon":5.42642,"is_reserved":false,"is_disabled":false,"rental_uris":{"android":"levelo://app?vid=69df2830-b1e6-490b-861e-6b2cbb12bf5c","ios":"levelo://app?vid=69df2830-b1e6-490b-861e-6b2cbb12bf5c"},"vehicle_type_id":"4","last_reported":1750946990,"current_range_meters":16000,"station_id":"ce4bhnh2rcd13ifvqgug","pricing_plan_id":"cebpf4jnsgd1na2vs0mg"},{"bike_id":"18f75fc3-36d2-4346-ac89-776b0569a53c","system_id":"levelo_inurba_marseille","lat":43.2919,"lon":5.35819,"is_reserved":false,"is_disabled":false,"rental_uris":{"android":"levelo://app?vid=18f75fc3-36d2-4346-ac89-776b0569a53c","ios":"levelo://app?vid=18f75fc3-36d2-4346-ac89-776b0569a53c"},"vehicle_type_id":"4","last_reported":1750946990,"current_range_meters":16400,"station_id":"ce4bhb12rcd13ifvqel0","pricing_plan_id":"cebpf4jnsgd1na2vs0mg"},{"bike_id":"528ae2ff-8735-4bbe-a72a-242b45dc836b","system_id":"levelo_inurba_marseille","lat":43.25001,"lon":5.38926,"is_reserved":false,"is_disabled":false,"rental_uris":{"android":"levelo://app?vid=528ae2ff-8735-4bbe-a72a-242b45dc836b","ios":"levelo://app?vid=528ae2ff-8735-4bbe-a72a-242b45dc836b"},"vehicle_type_id":"4","last_reported":1750946990,"current_range_meters":16400,"station_id":"ce4bhgp2rcd13ifvqfd0","pricing_plan_id":"cebpf4jnsgd1na2vs0mg"},{"bike_id":"4c3c424f-b1ed-4956-b3a6-33b993b1496d","system_id":"levelo_inurba_marseille","lat":43.25506,"lon":5.37648,"is_reserved":false,"is_disabled":false,"rental_uris":{"android":"levelo://app?vid=4c3c424f-b1ed-4956-b3a6-33b993b1496d","ios":"levelo://app?vid=4c3c424f-b1ed-4956-b3a6-33b993b1496d"},"vehicle_type_id":"4","last_reported":1750946990,"current_range_meters":16400,"station_id":"ce4bhh12rcd13ifvqff0","pricing_plan_id":"cebpf4jnsgd1na2vs0mg"},{"bike_id":"0d4bf6e9-df42-44fa-90da-42f015a8ca21","system_id":"levelo_inurba_marseille","lat":43.32116,"lon":5.36775,"is_reserved":false,"is_disabled":false,"rental_uris":{"android":"levelo://app?vid=0d4bf6e9-df42-44fa-90da-42f015a8ca21","ios":"levelo://app?vid=0d4bf6e9-df42-44fa-90da-42f015a8ca21"},"vehicle_type_id":"4","last_reported":1750946990,"current_range_meters":16400,"station_id":"ce4bhrh2rcd13ifvqhug","pricing_plan_id":"cebpf4jnsgd1na2vs0mg"},{"bike_id":"ab875138-c754-4b3b-82d7-2da5a11b45cf","system_id":"levelo_inurba_marseille","lat":43.21746,"lon":5.34603,"is_reserved":false,"is_disabled":false,"rental_uris":{"android":"levelo://app?vid=ab875138-c754-4b3b-82d7-2da5a11b45cf","ios":"levelo://app?vid=ab875138-c754-4b3b-82d7-2da5a11b45cf"},"vehicle_type_id":"4","last_reported":1750946990,"current_range_meters":16400,"station_id":"st_cvj6r9ubvosntc0bgbag","pricing_plan_id":"cebpf4jnsgd1na2vs0mg"},{"bike_id":"1a500985-c816-4d83-a038-4a629f10a813","system_id":"levelo_inurba_marseille","lat":43.211973,"lon":5.35064,"is_reserved":false,"is_disabled":false,"rental_uris":{"android":"levelo://app?vid=1a500985-c816-4d83-a038-4a629f10a813","ios":"levelo://app?vid=1a500985-c816-4d83-a038-4a629f10a813"},"vehicle_type_id":"4","last_reported":1750946990,"current_range_meters":16400,"station_id":"st_cvj6sg6p6f1abm77japg","pricing_plan_id":"cebpf4jnsgd1na2vs0mg"},{"bike_id":"0880f6e8-eda0-4159-8c6f-7284fb3033e6","system_id":"levelo_inurba_marseille","lat":43.29012,"lon":5.35599,"is_reserved":false,"is_disabled":false,"rental_uris":{"android":"levelo://app?vid=0880f6e8-eda0-4159-8c6f-7284fb3033e6","ios":"levelo://app?vid=0880f6e8-eda0-4159-8c6f-7284fb3033e6"},"vehicle_type_id":"4","last_reported":1750946990,"current_range_meters":16800,"station_id":"ce4bhb92rcd13ifvqen0","pricing_plan_id":"cebpf4jnsgd1na2vs0mg"},{"bike_id":"520b2c46-2bf1-4fd2-9fca-b32997429572","system_id":"levelo_inurba_marseille","lat":43.28425,"lon":5.34985,"is_reserved":false,"is_disabled":false,"rental_uris":{"android":"levelo://app?vid=520b2c46-2bf1-4fd2-9fca-b32997429572","ios":"levelo://app?vid=520b2c46-2bf1-4fd2-9fca-b32997429572"},"vehicle_type_id":"4","last_reported":1750946990,"current_range_meters":16800,"station_id":"ce4bhbh2rcd13ifvqepg","pricing_plan_id":"cebpf4jnsgd1na2vs0mg"},{"bike_id":"00dd56d8-e1b2-4672-bc22-05410cbb86ff","system_id":"levelo_inurba_marseille","lat":43.28258,"lon":5.35087,"is_reserved":false,"is_disabled":false,"rental_uris":{"android":"levelo://app?vid=00dd56d8-e1b2-4672-bc22-05410cbb86ff","ios":"levelo://app?vid=00dd56d8-e1b2-4672-bc22-05410cbb86ff"},"vehicle_type_id":"4","last_reported":1750946990,"current_range_meters":16800,"station_id":"ce4bhbp2rcd13ifvqerg","pricing_plan_id":"cebpf4jnsgd1na2vs0mg"},{"bike_id":"2ad8c985-d1ec-4ce0-85b0-a2f74863b534","system_id":"levelo_inurba_marseille","lat":43.262128,"lon":5.37436,"is_reserved":false,"is_disabled":false,"rental_uris":{"android":"levelo://app?vid=2ad8c985-d1ec-4ce0-85b0-a2f74863b534","ios":"levelo://app?vid=2ad8c985-d1ec-4ce0-85b0-a2f74863b534"},"vehicle_type_id":"4","last_reported":1750946990,"current_range_meters":16800,"station_id":"ce4bhgp2rcd13ifvqfc0","pricing_plan_id":"cebpf4jnsgd1na2vs0mg"},{"bike_id":"89f43d06-dde6-4c45-a54a-972960036bba","system_id":"levelo_inurba_marseille","lat":43.26792,"lon":5.39412,"is_reserved":false,"is_disabled":false,"rental_uris":{"android":"levelo://app?vid=89f43d06-dde6-4c45-a54a-972960036bba","ios":"levelo://app?vid=89f43d06-dde6-4c45-a54a-972960036bba"},"vehicle_type_id":"4","last_reported":1750946990,"current_range_meters":16800,"station_id":"ce4bhh12rcd13ifvqfg0","pricing_plan_id":"cebpf4jnsgd1na2vs0mg"},{"bike_id":"9331b400-cda7-40ff-be9d-251a89293f86","system_id":"levelo_inurba_marseille","lat":43.24385,"lon":5.37066,"is_reserved":false,"is_disabled":false,"rental_uris":{"android":"levelo://app?vid=9331b400-cda7-40ff-be9d-251a89293f86","ios":"levelo://app?vid=9331b400-cda7-40ff-be9d-251a89293f86"},"vehicle_type_id":"4","last_reported":1750946990,"current_range_meters":16800,"station_id":"ce4bhhh2rcd13ifvqfk0","pricing_plan_id":"cebpf4jnsgd1na2vs0mg"},{"bike_id":"b58190a1-dbfb-4492-911d-df675647e4dc","system_id":"levelo_inurba_marseille","lat":43.26486,"lon":5.39559,"is_reserved":false,"is_disabled":false,"rental_uris":{"android":"levelo://app?vid=b58190a1-dbfb-4492-911d-df675647e4dc","ios":"levelo://app?vid=b58190a1-dbfb-4492-911d-df675647e4dc"},"vehicle_type_id":"4","last_reported":1750946990,"current_range_meters":16800,"station_id":"ce4bhi12rcd13ifvqfq0","pricing_plan_id":"cebpf4jnsgd1na2vs0mg"},{"bike_id":"018993b9-1cb8-4f5a-8e19-f62e1b360053","system_id":"levelo_inurba_marseille","lat":43.28153,"lon":5.42638,"is_reserved":false,"is_disabled":false,"rental_uris":{"android":"levelo://app?vid=018993b9-1cb8-4f5a-8e19-f62e1b360053","ios":"levelo://app?vid=018993b9-1cb8-4f5a-8e19-f62e1b360053"},"vehicle_type_id":"4","last_reported":1750946990,"current_range_meters":16800,"station_id":"ce4bhnh2rcd13ifvqgug","pricing_plan_id":"cebpf4jnsgd1na2vs0mg"},{"bike_id":"bea1a900-79f8-4426-bd61-7355893a3718","system_id":"levelo_inurba_marseille","lat":43.32355,"lon":5.36757,"is_reserved":false,"is_disabled":false,"rental_uris":{"android":"levelo://app?vid=bea1a900-79f8-4426-bd61-7355893a3718","ios":"levelo://app?vid=bea1a900-79f8-4426-bd61-7355893a3718"},"vehicle_type_id":"4","last_reported":1750946990,"current_range_meters":16800,"station_id":"ce4bhsh2rcd13ifvqi2g","pricing_plan_id":"cebpf4jnsgd1na2vs0mg"},{"bike_id":"348936c8-7c8d-4b8a-988e-b0a979920804","system_id":"levelo_inurba_marseille","lat":43.21206,"lon":5.35078,"is_reserved":false,"is_disabled":false,"rental_uris":{"android":"levelo://app?vid=348936c8-7c8d-4b8a-988e-b0a979920804","ios":"levelo://app?vid=348936c8-7c8d-4b8a-988e-b0a979920804"},"vehicle_type_id":"4","last_reported":1750946990,"current_range_meters":16800,"station_id":"st_cvj6sg6p6f1abm77japg","pricing_plan_id":"cebpf4jnsgd1na2vs0mg"},{"bike_id":"5bf004ee-1565-4675-971b-40b8b6f85f56","system_id":"levelo_inurba_marseille","lat":43.27095,"lon":5.40742,"is_reserved":false,"is_disabled":false,"rental_uris":{"android":"levelo://app?vid=5bf004ee-1565-4675-971b-40b8b6f85f56","ios":"levelo://app?vid=5bf004ee-1565-4675-971b-40b8b6f85f56"},"vehicle_type_id":"4","last_reported":1750946990,"current_range_meters":17200,"station_id":"","pricing_plan_id":"cebpf4jnsgd1na2vs0mg"},{"bike_id":"46e7b6f3-94f0-4bad-acbf-c5e6d6d585c9","system_id":"levelo_inurba_marseille","lat":43.29932,"lon":5.3745,"is_reserved":false,"is_disabled":false,"rental_uris":{"android":"levelo://app?vid=46e7b6f3-94f0-4bad-acbf-c5e6d6d585c9","ios":"levelo://app?vid=46e7b6f3-94f0-4bad-acbf-c5e6d6d585c9"},"vehicle_type_id":"4","last_reported":1750946990,"current_range_meters":17200,"station_id":"ce4bgjh2rcd13ifvqbg0","pricing_plan_id":"cebpf4jnsgd1na2vs0mg"},{"bike_id":"2a56ef43-aff0-4670-867b-f1134b2b6dd0","system_id":"levelo_inurba_marseille","lat":43.28268,"lon":5.3507,"is_reserved":false,"is_disabled":false,"rental_uris":{"android":"levelo://app?vid=2a56ef43-aff0-4670-867b-f1134b2b6dd0","ios":"levelo://app?vid=2a56ef43-aff0-4670-867b-f1134b2b6dd0"},"vehicle_type_id":"4","last_reported":1750946990,"current_range_meters":17200,"station_id":"ce4bhbp2rcd13ifvqerg","pricing_plan_id":"cebpf4jnsgd1na2vs0mg"},{"bike_id":"1d55f66e-dd62-48de-89a1-6b40fd865f1e","system_id":"levelo_inurba_marseille","lat":43.2619,"lon":5.3747,"is_reserved":false,"is_disabled":false,"rental_uris":{"android":"levelo://app?vid=1d55f66e-dd62-48de-89a1-6b40fd865f1e","ios":"levelo://app?vid=1d55f66e-dd62-48de-89a1-6b40fd865f1e"},"vehicle_type_id":"4","last_reported":1750946990,"current_range_meters":17200,"station_id":"ce4bhgp2rcd13ifvqfc0","pricing_plan_id":"cebpf4jnsgd1na2vs0mg"},{"bike_id":"1fad2f50-0fe7-4b9e-baf4-4a1bf55f6b74","system_id":"levelo_inurba_marseille","lat":43.24391,"lon":5.37063,"is_reserved":false,"is_disabled":false,"rental_uris":{"android":"levelo://app?vid=1fad2f50-0fe7-4b9e-baf4-4a1bf55f6b74","ios":"levelo://app?vid=1fad2f50-0fe7-4b9e-baf4-4a1bf55f6b74"},"vehicle_type_id":"4","last_reported":1750946990,"current_range_meters":17200,"station_id":"ce4bhhh2rcd13ifvqfk0","pricing_plan_id":"cebpf4jnsgd1na2vs0mg"},