{"last_updated":1743246430,"ttl":60,"version":"2.2","data":{"bikes":[{"bike_id":"49da6675-1e4e-4868-88ef-c39cc905aa47","system_id":"levelo_inurba_marseille","lat":43.255796,"lon":5.382268,"is_reserved":false,"is_disabled":false,"rental_uris":{"android":"levelo://app?vid=49da6675-1e4e-4868-88ef-c39cc905aa47","ios":"levelo://app?vid=49da6675-1e4e-4868-88ef-c39cc905aa47"},"vehicle_type_id":"4","last_reported":1743246430,"current_range_meters":2800,"station_id":"","pricing_plan_id":"cebpf4jnsgd1na2vs0mg"},{"bike_id":"29f84308-62bd-4c4c-9b98-e3428bf1280b","system_id":"levelo_inurba_marseille","lat":43.2603,"lon":5.37547,"is_reserved":false,"is_disabled":false,"rental_uris":{"android":"levelo://app?vid=29f84308-62bd-4c4c-9b98-e3428bf1280b","ios":"levelo://app?vid=29f84308-62bd-4c4c-9b98-e3428bf1280b"},"vehicle_type_id":"4","last_reported":1743246430,"current_range_meters":2800,"station_id":"ce4bhgh2rcd13ifvqfa0","pricing_plan_id":"cebpf4jnsgd1na2vs0mg"},{"bike_id":"78341c06-24be-4580-9828-2503dfb938de","system_id":"levelo_inurba_marseille","lat":43.3155,"lon":5.3724,"is_reserved":false,"is_disabled":false,"rental_uris":{"android":"levelo://app?vid=78341c06-24be-4580-9828-2503dfb938de","ios":"levelo://app?vid=78341c06-24be-4580-9828-2503dfb938de"},"vehicle_type_id":"4","last_reported":1743246430,"current_range_meters":2800,"station_id":"","pricing_plan_id":"cebpf4jnsgd1na2vs0mg"},{"bike_id":"c14a8fc7-e8db-45ab-b563-5fdd959cef0f","system_id":"levelo_inurba_marseille","lat":43.26016,"lon":5.41751,"is_reserved":false,"is_disabled":true,"rental_uris":{"android":"levelo://app?vid=c14a8fc7-e8db-45ab-b563-5fdd959cef0f","ios":"levelo://app?vid=c14a8fc7-e8db-45ab-b563-5fdd959cef0f"},"vehicle_type_id":"4","last_reported":1743246430,"current_range_meters":2800,"station_id":"","pricing_plan_id":"cebpf4jnsgd1na2vs0mg"},{"bike_id":"497ce44a-eda7-4df7-824b-4be485d19c94","system_id":"levelo_inurba_marseille","lat":43.32046,"lon":5.41549,"is_reserved":false,"is_disabled":false,"rental_uris":{"android":"levelo://app?vid=497ce44a-eda7-4df7-824b-4be485d19c94","ios":"levelo://app?vid=497ce44a-eda7-4df7-824b-4be485d19c94"},"vehicle_type_id":"4","last_reported":1743246430,"current_range_meters":2800,"station_id":"ce4bhq92rcd13ifvqhkg","pricing_plan_id":"cebpf4jnsgd1na2vs0mg"},{"bike_id":"c7202a36-dcf4-42c9-81fd-93a9ffadf8b5","system_id":"levelo_inurba_marseille","lat":43.27071,"lon":5.42277,"is_reserved":false,"is_disabled":false,"rental_uris":{"android":"levelo://app?vid=c7202a36-dcf4-42c9-81fd-93a9ffadf8b5","ios":"levelo://app?vid=c7202a36-dcf4-42c9-81fd-93a9ffadf8b5"},"vehicle_type_id":"4","last_reported":1743246430,"current_range_meters":2800,"station_id":"ce4bhk92rcd13ifvqgb0","pricing_plan_id":"cebpf4jnsgd1na2vs0mg"},{"bike_id":"fc8e8371-f4e9-4721-bc19-563801e389dc","system_id":"levelo_inurba_marseille","lat":43.337444,"lon":5.374475,"is_reserved":false,"is_disabled":false,"rental_uris":{"android":"levelo://app?vid=fc8e8371-f4e9-4721-bc19-563801e389dc","ios":"levelo://app?vid=fc8e8371-f4e9-4721-bc19-563801e389dc"},"vehicle_type_id":"4","last_reported":1743246430,"current_range_meters":2800,"station_id":"","pricing_plan_id":"cebpf4jnsgd1na2vs0mg"},{"bike_id":"ebe357e8-6fff-4660-9642-ef7fac2d4133","system_id":"levelo_inurba_marseille","lat":43.289759,"lon":5.378476,"is_reserved":false,"is_disabled":false,"rental_uris":{"android":"levelo://app?vid=ebe357e8-6fff-4660-9642-ef7fac2d4133","ios":"levelo://app?vid=ebe357e8-6fff-4660-9642-ef7fac2d4133"},"vehicle_type_id":"4","last_reported":1743246430,"current_range_meters":3200,"station_id":"ce4bh9p2rcd13ifvqed0","pricing_plan_id":"cebpf4jnsgd1na2vs0mg"},{"bike_id":"e0ce17cc-25cc-4e32-9642-fcfbc9f43fc5","system_id":"levelo_inurba_marseille","lat":43.27072,"lon":5.42279,"is_reserved":false,"is_disabled":false,"rental_uris":{"android":"levelo://app?vid=e0ce17cc-25cc-4e32-9642-fcfbc9f43fc5","ios":"levelo://app?vid=e0ce17cc-25cc-4e32-9642-fcfbc9f43fc5"},"vehicle_type_id":"4","last_reported":1743246430,"current_range_meters":3200,"station_id":"ce4bhk92rcd13ifvqgb0","pricing_plan_id":"cebpf4jnsgd1na2vs0mg"},{"bike_id":"b58b8814-f8a9-47a2-a108-2a33cb7f4ddb","system_id":"levelo_inurba_marseille","lat":43.27998,"lon":5.41665,"is_reserved":false,"is_disabled":false,"rental_uris":{"android":"levelo://app?vid=b58b8814-f8a9-47a2-a108-2a33cb7f4ddb","ios":"levelo://app?vid=b58b8814-f8a9-47a2-a108-2a33cb7f4ddb"},"vehicle_type_id":"4","last_reported":1743246430,"current_range_meters":3200,"station_id":"ce4bho12rcd13ifvqh1g","pricing_plan_id":"cebpf4jnsgd1na2vs0mg"},{"bike_id":"acb15d65-6dfc-4be6-b1b4-9c7b68082b9e","system_id":"levelo_inurba_marseille","lat":43.27496,"lon":5.42456,"is_reserved":false,"is_disabled":false,"rental_uris":{"android":"levelo://app?vid=acb15d65-6dfc-4be6-b1b4-9c7b68082b9e","ios":"levelo://app?vid=acb15d65-6dfc-4be6-b1b4-9c7b68082b9e"},"vehicle_type_id":"4","last_reported":1743246430,"current_range_meters":3600,"station_id":"ce4bhn92rcd13ifvqgrg","pricing_plan_id":"cebpf4jnsgd1na2vs0mg"},{"bike_id":"95767c37-97a9-4c55-b24c-9ce3e62e7940","system_id":"levelo_inurba_marseille","lat":43.29367,"lon":5.37859,"is_reserved":false,"is_disabled":false,"rental_uris":{"android":"levelo://app?vid=95767c37-97a9-4c55-b24c-9ce3e62e7940","ios":"levelo://app?vid=95767c37-97a9-4c55-b24c-9ce3e62e7940"},"vehicle_type_id":"4","last_reported":1743246430,"current_range_meters":3200,"station_id":"ce4bgjh2rcd13ifvqbf0","pricing_plan_id":"cebpf4jnsgd1na2vs0mg"},{"bike_id":"64f0ea86-1180-4755-95e1-3cbc9c8d4cf5","system_id":"levelo_inurba_marseille","lat":43.3302,"lon":5.43854,"is_reserved":false,"is_disabled":true,"rental_uris":{"android":"levelo://app?vid=64f0ea86-1180-4755-95e1-3cbc9c8d4cf5","ios":"levelo://app?vid=64f0ea86-1180-4755-95e1-3cbc9c8d4cf5"},"vehicle_type_id":"4","last_reported":1743246430,"current_range_meters":3600,"station_id":"","pricing_plan_id":"cebpf4jnsgd1na2vs0mg"},{"bike_id":"989668d5-943d-4c40-8c11-d41d31f8d6d7","system_id":"levelo_inurba_marseille","lat":43.29795,"lon":5.38103,"is_reserved":false,"is_disabled":false,"rental_uris":{"android":"levelo://app?vid=989668d5-943d-4c40-8c11-d41d31f8d6d7","ios":"levelo://app?vid=989668d5-943d-4c40-8c11-d41d31f8d6d7"},"vehicle_type_id":"4","last_reported":1743246430,"current_range_meters":3600,"station_id":"ce4bgip2rcd13ifvqbb0","pricing_plan_id":"cebpf4jnsgd1na2vs0mg"},{"bike_id":"f8f695d8-3a64-448c-91ac-d300f9b210b6","system_id":"levelo_inurba_marseille","lat":43.28483,"lon":5.38563,"is_reserved":false,"is_disabled":false,"rental_uris":{"android":"levelo://app?vid=f8f695d8-3a64-448c-91ac-d300f9b210b6","ios":"levelo://app?vid=f8f695d8-3a64-448c-91ac-d300f9b210b6"},"vehicle_type_id":"4","last_reported":1743246430,"current_range_meters":4000,"station_id":"ce4bh8p2rcd13ifvqeb0","pricing_plan_id":"cebpf4jnsgd1na2vs0mg"},{"bike_id":"850e9242-7704-4fc7-b0e6-d5ec59d44395","system_id":"levelo_inurba_marseille","lat":43.279383,"lon":5.387604,"is_reserved":false,"is_disabled":false,"rental_uris":{"android":"levelo://app?vid=850e9242-7704-4fc7-b0e6-d5ec59d44395","ios":"levelo://app?vid=850e9242-7704-4fc7-b0e6-d5ec59d44395"},"vehicle_type_id":"4","last_reported":1743246430,"current_range_meters":4000,"station_id":"","pricing_plan_id":"cebpf4jnsgd1na2vs0mg"},{"bike_id":"6026f9b7-25ae-4d64-8648-76338e9b1c4c","system_id":"levelo_inurba_marseille","lat":43.32366,"lon":5.38883,"is_reserved":false,"is_disabled":false,"rental_uris":{"android":"levelo://app?vid=6026f9b7-25ae-4d64-8648-76338e9b1c4c","ios":"levelo://app?vid=6026f9b7-25ae-4d64-8648-76338e9b1c4c"},"vehicle_type_id":"4","last_reported":1743246430,"current_range_meters":4400,"station_id":"ce4bhqp2rcd13ifvqhog","pricing_plan_id":"cebpf4jnsgd1na2vs0mg"},{"bike_id":"43c58a99-f720-4818-8d9a-b465698d3dc8","system_id":"levelo_inurba_marseille","lat":43.27905,"lon":5.38013,"is_reserved":false,"is_disabled":false,"rental_uris":{"android":"levelo://app?vid=43c58a99-f720-4818-8d9a-b465698d3dc8","ios":"levelo://app?vid=43c58a99-f720-4818-8d9a-b465698d3dc8"},"vehicle_type_id":"4","last_reported":1743246430,"current_range_meters":4400,"station_id":"ce4bhf92rcd13ifvqf50","pricing_plan_id":"cebpf4jnsgd1na2vs0mg"},{"bike_id":"ba72d8fc-57c6-4dbe-8267-6f0748e3f86e","system_id":"levelo_inurba_marseille","lat":43.29057,"lon":5.37156,"is_reserved":false,"is_disabled":false,"rental_uris":{"android":"levelo://app?vid=ba72d8fc-57c6-4dbe-8267-6f0748e3f86e","ios":"levelo://app?vid=ba72d8fc-57c6-4dbe-8267-6f0748e3f86e"},"vehicle_type_id":"4","last_reported":1743246430,"current_range_meters":4800,"station_id":"ce4bh5p2rcd13ifvqe4g","pricing_plan_id":"cebpf4jnsgd1na2vs0mg"},{"bike_id":"50ea93e6-fff8-4d2c-95d0-0b9215818caa","system_id":"levelo_inurba_marseille","lat":43.26572,"lon":5.3901,"is_reserved":false,"is_disabled":true,"rental_uris":{"android":"levelo://app?vid=50ea93e6-fff8-4d2c-95d0-0b9215818caa","ios":"levelo://app?vid=50ea93e6-fff8-4d2c-95d0-0b9215818caa"},"vehicle_type_id":"4","last_reported":1743246430,"current_range_meters":4800,"station_id":"ce4bhe12rcd13ifvqf30","pricing_plan_id":"cebpf4jnsgd1na2vs0mg"},{"bike_id":"741b9368-0d20-4a30-b781-eb0451dfa180","system_id":"levelo_inurba_marseille","lat":43.3046,"lon":5.37905,"is_reserved":false,"is_disabled":false,"rental_uris":{"android":"levelo://app?vid=741b9368-0d20-4a30-b781-eb0451dfa180","ios":"levelo://app?vid=741b9368-0d20-4a30-b781-eb0451dfa180"},"vehicle_type_id":"4","last_reported":1743246430,"current_range_meters":4800,"station_id":"ce4bgup2rcd13ifvqcn0","pricing_plan_id":"cebpf4jnsgd1na2vs0mg"},{"bike_id":"ee2588a0-8a3d-4c56-88e3-6823a90de92d","system_id":"levelo_inurba_marseille","lat":43.28098,"lon":5.38569,"is_reserved":false,"is_disabled":false,"rental_uris":{"android":"levelo://app?vid=ee2588a0-8a3d-4c56-88e3-6823a90de92d","ios":"levelo://app?vid=ee2588a0-8a3d-4c56-88e3-6823a90de92d"},"vehicle_type_id":"4","last_reported":1743246430,"current_range_meters":4800,"station_id":"","pricing_plan_id":"cebpf4jnsgd1na2vs0mg"},{"bike_id":"64614d85-14d6-4550-9679-122515eda3ee","system_id":"levelo_inurba_marseille","lat":43.26574,"lon":5.39015,"is_reserved":false,"is_disabled":true,"rental_uris":{"android":"levelo://app?vid=64614d85-14d6-4550-9679-122515eda3ee","ios":"levelo://app?vid=64614d85-14d6-4550-9679-122515eda3ee"},"vehicle_type_id":"4","last_reported":1743246430,"current_range_meters":5600,"station_id":"ce4bhe12rcd13ifvqf30","pricing_plan_id":"cebpf4jnsgd1na2vs0mg"},{"bike_id":"21d4e0eb-4bde-479a-9be8-8a06ef66049b","system_id":"levelo_inurba_marseille","lat":43.28417,"lon":5.34976,"is_reserved":false,"is_disabled":false,"rental_uris":{"android":"levelo://app?vid=21d4e0eb-4bde-479a-9be8-8a06ef66049b","ios":"levelo://app?vid=21d4e0eb-4bde-479a-9be8-8a06ef66049b"},"vehicle_type_id":"4","last_reported":1743246430,"current_range_meters":5600,"station_id":"ce4bhbh2rcd13ifvqepg","pricing_plan_id":"cebpf4jnsgd1na2vs0mg"},{"bike_id":"57f8c7cb-17ce-46c9-b07d-dc98d28c951d","system_id":"levelo_inurba_marseille","lat":43.25823,"lon":5.39436,"is_reserved":false,"is_disabled":false,"rental_uris":{"android":"levelo://app?vid=57f8c7cb-17ce-46c9-b07d-dc98d28c951d","ios":"levelo://app?vid=57f8c7cb-17ce-46c9-b07d-dc98d28c951d"},"vehicle_type_id":"4","last_reported":1743246430,"current_range_meters":5600,"station_id":"ce4bhip2rcd13ifvqft0","pricing_plan_id":"cebpf4jnsgd1na2vs0mg"},{"bike_id":"bf486d29-80ae-43fc-9394-756ed3e2b73e","system_id":"levelo_inurba_marseille","lat":43.279967,"lon":5.400143,"is_reserved":false,"is_disabled":true,"rental_uris":{"android":"levelo://app?vid=bf486d29-80ae-43fc-9394-756ed3e2b73e","ios":"levelo://app?vid=bf486d29-80ae-43fc-9394-756ed3e2b73e"},"vehicle_type_id":"4","last_reported":1743246430,"current_range_meters":6000,"station_id":"ce4bho92rcd13ifvqh4g","pricing_plan_id":"cebpf4jnsgd1na2vs0mg"},{"bike_id":"a0ca0381-c7fa-4e32-b53b-a1151f887e20","system_id":"levelo_inurba_marseille","lat":43.28267,"lon":5.35065,"is_reserved":false,"is_disabled":false,"rental_uris":{"android":"levelo://app?vid=a0ca0381-c7fa-4e32-b53b-a1151f887e20","ios":"levelo://app?vid=a0ca0381-c7fa-4e32-b53b-a1151f887e20"},"vehicle_type_id":"4","last_reported":1743246430,"current_range_meters":6000,"station_id":"ce4bhbp2rcd13ifvqerg","pricing_plan_id":"cebpf4jnsgd1na2vs0mg"},{"bike_id":"3422fc96-ce44-4d5a-883d-d518c8e19682","system_id":"levelo_inurba_marseille","lat":43.27494,"lon":5.42464,"is_reserved":false,"is_disabled":false,"rental_uris":{"android":"levelo://app?vid=3422fc96-ce44-4d5a-883d-d518c8e19682","ios":"levelo://app?vid=3422fc96-ce44-4d5a-883d-d518c8e19682"},"vehicle_type_id":"4","last_reported":1743246430,"current_range_meters":6000,"station_id":"ce4bhn92rcd13ifvqgrg","pricing_plan_id":"cebpf4jnsgd1na2vs0mg"},{"bike_id":"c3760d8d-3344-4142-a09c-2ceb87261efe","system_id":"levelo_inurba_marseille","lat":43.25573,"lon":5.38244,"is_reserved":false,"is_disabled":false,"rental_uris":{"android":"levelo://app?vid=c3760d8d-3344-4142-a09c-2ceb87261efe","ios":"levelo://app?vid=c3760d8d-3344-4142-a09c-2ceb87261efe"},"vehicle_type_id":"4","last_reported":1743246430,"current_range_meters":6000,"station_id":"ce4bhih2rcd13ifvqfs0","pricing_plan_id":"cebpf4jnsgd1na2vs0mg"},{"bike_id":"bde941ca-3c47-419a-bebf-3d1bc3f3d412","system_id":"levelo_inurba_marseille","lat":43.28478,"lon":5.38562,"is_reserved":false,"is_disabled":false,"rental_uris":{"android":"levelo://app?vid=bde941ca-3c47-419a-bebf-3d1bc3f3d412","ios":"levelo://app?vid=bde941ca-3c47-419a-bebf-3d1bc3f3d412"},"vehicle_type_id":"4","last_reported":1743246430,"current_range_meters":6000,"station_id":"ce4bh8p2rcd13ifvqeb0","pricing_plan_id":"cebpf4jnsgd1na2vs0mg"},{"bike_id":"2f1a1e9b-c068-4630-b587-be7f8b5c29de","system_id":"levelo_inurba_marseille","lat":43.32366,"lon":5.38886,"is_reserved":false,"is_disabled":false,"rental_uris":{"android":"levelo://app?vid=2f1a1e9b-c068-4630-b587-be7f8b5c29de","ios":"levelo://app?vid=2f1a1e9b-c068-4630-b587-be7f8b5c29de"},"vehicle_type_id":"4","last_reported":1743246430,"current_range_meters":6000,"station_id":"ce4bhqp2rcd13ifvqhog","pricing_plan_id":"cebpf4jnsgd1na2vs0mg"},{"bike_id":"47495999-8610-4828-bbd2-10ef05b9f4f7","system_id":"levelo_inurba_marseille","lat":43.30552,"lon":5.36553,"is_reserved":false,"is_disabled":false,"rental_uris":{"android":"levelo://app?vid=47495999-8610-4828-bbd2-10ef05b9f4f7","ios":"levelo://app?vid=47495999-8610-4828-bbd2-10ef05b9f4f7"},"vehicle_type_id":"4","last_reported":1743246430,"current_range_meters":6000,"station_id":"ce4bgs12rcd13ifvqcag","pricing_plan_id":"cebpf4jnsgd1na2vs0mg"},{"bike_id":"0a86437d-c574-45c3-9ef3-68191a2e70ac","system_id":"levelo_inurba_marseille","lat":43.2981,"lon":5.38098,"is_reserved":false,"is_disabled":false,"rental_uris":{"android":"levelo://app?vid=0a86437d-c574-45c3-9ef3-68191a2e70ac","ios":"levelo://app?vid=0a86437d-c574-45c3-9ef3-68191a2e70ac"},"vehicle_type_id":"4","last_reported":1743246430,"current_range_meters":6000,"station_id":"ce4bgip2rcd13ifvqbb0","pricing_plan_id":"cebpf4jnsgd1na2vs0mg"},{"bike_id":"4a42ca1e-41e4-4233-a4bb-a180f04564d6","system_id":"levelo_inurba_marseille","lat":43.29151,"lon":5.37165,"is_reserved":false,"is_disabled":true,"rental_uris":{"android":"levelo://app?vid=4a42ca1e-41e4-4233-a4bb-a180f04564d6","ios":"levelo://app?vid=4a42ca1e-41e4-4233-a4bb-a180f04564d6"},"vehicle_type_id":"4","last_reported":1743246430,"current_range_meters":6400,"station_id":"ce4bha92rcd13ifvqeh0","pricing_plan_id":"cebpf4jnsgd1na2vs0mg"},{"bike_id":"8646b3a9-bab0-4197-bcb4-45903747830a","system_id":"levelo_inurba_marseille","lat":43.28669,"lon":5.38648,"is_reserved":false,"is_disabled":false,"rental_uris":{"android":"levelo://app?vid=8646b3a9-bab0-4197-bcb4-45903747830a","ios":"levelo://app?vid=8646b3a9-bab0-4197-bcb4-45903747830a"},"vehicle_type_id":"4","last_reported":1743246430,"current_range_meters":6000,"station_id":"ce4bh492rcd13ifvqdug","pricing_plan_id":"cebpf4jnsgd1na2vs0mg"},{"bike_id":"e3aa46bc-34a4-48de-a128-621b33e5f277","system_id":"levelo_inurba_marseille","lat":43.29895,"lon":5.4367,"is_reserved":false,"is_disabled":false,"rental_uris":{"android":"levelo://app?vid=e3aa46bc-34a4-48de-a128-621b33e5f277","ios":"levelo://app?vid=e3aa46bc-34a4-48de-a128-621b33e5f277"},"vehicle_type_id":"4","last_reported":1743246430,"current_range_meters":6400,"station_id":"ce4bhpp2rcd13ifvqhfg","pricing_plan_id":"cebpf4jnsgd1na2vs0mg"},{"bike_id":"0009eca3-f243-43d3-a06a-66f6a4a5ccdd","system_id":"levelo_inurba_marseille","lat":43.23191,"lon":5.35558,"is_reserved":false,"is_disabled":false,"rental_uris":{"android":"levelo://app?vid=0009eca3-f243-43d3-a06a-66f6a4a5ccdd","ios":"levelo://app?vid=0009eca3-f243-43d3-a06a-66f6a4a5ccdd"},"vehicle_type_id":"4","last_reported":1743246430,"current_range_meters":6400,"station_id":"ce4bhu92rcd13ifvqi70","pricing_plan_id":"cebpf4jnsgd1na2vs0mg"},{"bike_id":"5675727c-fa55-4ea9-9b12-a402b804e91c","system_id":"levelo_inurba_marseille","lat":43.27309,"lon":5.39097,"is_reserved":false,"is_disabled":true,"rental_uris":{"android":"levelo://app?vid=5675727c-fa55-4ea9-9b12-a402b804e91c","ios":"levelo://app?vid=5675727c-fa55-4ea9-9b12-a402b804e91c"},"vehicle_type_id":"4","last_reported":1743246430,"current_range_meters":6400,"station_id":"ce4bhgp2rcd13ifvqfe0","pricing_plan_id":"cebpf4jnsgd1na2vs0mg"},{"bike_id":"372077d7-6912-4560-8e62-7c1226cc8258","system_id":"levelo_inurba_marseille","lat":43.2798,"lon":5.40064,"is_reserved":false,"is_disabled":false,"rental_uris":{"android":"levelo://app?vid=372077d7-6912-4560-8e62-7c1226cc8258","ios":"levelo://app?vid=372077d7-6912-4560-8e62-7c1226cc8258"},"vehicle_type_id":"4","last_reported":1743246430,"current_range_meters":6800,"station_id":"ce4bho92rcd13ifvqh4g","pricing_plan_id":"cebpf4jnsgd1na2vs0mg"},{"bike_id":"101118d7-4e94-4605-af65-18edbe022c23","system_id":"levelo_inurba_marseille","lat":43.30541,"lon":5.365578,"is_reserved":false,"is_disabled":false,"rental_uris":{"android":"levelo://app?vid=101118d7-4e94-4605-af65-18edbe022c23","ios":"levelo://app?vid=101118d7-4e94-4605-af65-18edbe022c23"},"vehicle_type_id":"4","last_reported":1743246430,"current_range_meters":6800,"station_id":"ce4bgs12rcd13ifvqcag","pricing_plan_id":"cebpf4jnsgd1na2vs0mg"},{"bike_id":"861ae205-c318-4688-ac53-947993e1b65f","system_id":"levelo_inurba_marseille","lat":43.24168,"lon":5.36389,"is_reserved":false,"is_disabled":false,"rental_uris":{"android":"levelo://app?vid=861ae205-c318-4688-ac53-947993e1b65f","ios":"levelo://app?vid=861ae205-c318-4688-ac53-947993e1b65f"},"vehicle_type_id":"4","last_reported":1743246430,"current_range_meters":6800,"station_id":"cpo36qri1sfpv3e86is0","pricing_plan_id":"cebpf4jnsgd1na2vs0mg"},{"bike_id":"971c92cb-66df-438d-9a85-e63af939e6ff","system_id":"levelo_inurba_marseille","lat":43.28632,"lon":5.35101,"is_reserved":false,"is_disabled":true,"rental_uris":{"android":"levelo://app?vid=971c92cb-66df-438d-9a85-e63af939e6ff","ios":"levelo://app?vid=971c92cb-66df-438d-9a85-e63af939e6ff"},"vehicle_type_id":"4","last_reported":1743246430,"current_range_meters":6800,"station_id":"ce4bhch2rcd13ifvqeug","pricing_plan_id":"cebpf4jnsgd1na2vs0mg"},{"bike_id":"c6b682a7-e903-4363-967f-d69957e8f7ed","system_id":"levelo_inurba_marseille","lat":43.28618,"lon":5.35073,"is_reserved":false,"is_disabled":false,"rental_uris":{"android":"levelo://app?vid=c6b682a7-e903-4363-967f-d69957e8f7ed","ios":"levelo://app?vid=c6b682a7-e903-4363-967f-d69957e8f7ed"},"vehicle_type_id":"4","last_reported":1743246430,"current_range_meters":6800,"station_id":"ce4bhch2rcd13ifvqeug","pricing_plan_id":"cebpf4jnsgd1na2vs0mg"},{"bike_id":"e68a3cd4-776d-477e-b868-19282e6dc1d7","system_id":"levelo_inurba_marseille","lat":43.30784,"lon":5.37652,"is_reserved":false,"is_disabled":true,"rental_uris":{"android":"levelo://app?vid=e68a3cd4-776d-477e-b868-19282e6dc1d7","ios":"levelo://app?vid=e68a3cd4-776d-477e-b868-19282e6dc1d7"},"vehicle_type_id":"4","last_reported":1743246430,"current_range_meters":6800,"station_id":"ce4bgv92rcd13ifvqcq0","pricing_plan_id":"cebpf4jnsgd1na2vs0mg"},{"bike_id":"c4f43026-a1a9-4e1f-b9af-56100a576e61","system_id":"levelo_inurba_marseille","lat":43.26033,"lon":5.37555,"is_reserved":false,"is_disabled":false,"rental_uris":{"android":"levelo://app?vid=c4f43026-a1a9-4e1f-b9af-56100a576e61","ios":"levelo://app?vid=c4f43026-a1a9-4e1f-b9af-56100a576e61"},"vehicle_type_id":"4","last_reported":1743246430,"current_range_meters":6800,"station_id":"ce4bhgh2rcd13ifvqfa0","pricing_plan_id":"cebpf4jnsgd1na2vs0mg"},{"bike_id":"90df0f14-f996-423e-b605-53c2c708242e","system_id":"levelo_inurba_marseille","lat":43.3169,"lon":5.40508,"is_reserved":false,"is_disabled":false,"rental_uris":{"android":"levelo://app?vid=90df0f14-f996-423e-b605-53c2c708242e","ios":"levelo://app?vid=90df0f14-f996-423e-b605-53c2c708242e"},"vehicle_type_id":"4","last_reported":1743246430,"current_range_meters":7200,"station_id":"ce4bh012rcd13ifvqd00","pricing_plan_id":"cebpf4jnsgd1na2vs0mg"},{"bike_id":"3d9f473a-4c7e-4e31-a5a9-f95f53593d58","system_id":"levelo_inurba_marseille","lat":43.28266,"lon":5.35066,"is_reserved":false,"is_disabled":false,"rental_uris":{"android":"levelo://app?vid=3d9f473a-4c7e-4e31-a5a9-f95f53593d58","ios":"levelo://app?vid=3d9f473a-4c7e-4e31-a5a9-f95f53593d58"},"vehicle_type_id":"4","last_reported":1743246430,"current_range_meters":7200,"station_id":"ce4bhbp2rcd13ifvqerg","pricing_plan_id":"cebpf4jnsgd1na2vs0mg"},{"bike_id":"87ce5af9-2c3f-4b34-8106-a0bd98c8708b","system_id":"levelo_inurba_marseille","lat":43.27963,"lon":5.40033,"is_reserved":false,"is_disabled":false,"rental_uris":{"android":"levelo://app?vid=87ce5af9-2c3f-4b34-8106-a0bd98c8708b","ios":"levelo://app?vid=87ce5af9-2c3f-4b34-8106-a0bd98c8708b"},"vehicle_type_id":"4","last_reported":1743246430,"current_range_meters":7200,"station_id":"ce4bho92rcd13ifvqh4g","pricing_plan_id":"cebpf4jnsgd1na2vs0mg"},{"bike_id":"a7e217da-41da-426c-b9d4-3b9979143190","system_id":"levelo_inurba_marseille","lat":43.283938,"lon":5.375114,"is_reserved":false,"is_disabled":false,"rental_uris":{"android":"levelo://app?vid=a7e217da-41da-426c-b9d4-3b9979143190","ios":"levelo://app?vid=a7e217da-41da-426c-b9d4-3b9979143190"},"vehicle_type_id":"4","last_reported":1743246430,"current_range_meters":7200,"station_id":"ce4bha12rcd13ifvqef0","pricing_plan_id":"cebpf4jnsgd1na2vs0mg"},{"bike_id":"1c14bf9c-ada4-4a36-8853-740a1a2c000a","system_id":"levelo_inurba_marseille","lat":43.23181,"lon":5.35569,"is_reserved":false,"is_disabled":false,"rental_uris":{"android":"levelo://app?vid=1c14bf9c-ada4-4a36-8853-740a1a2c000a","ios":"levelo://app?vid=1c14bf9c-ada4-4a36-8853-740a1a2c000a"},"vehicle_type_id":"4","last_reported":1743246430,"current_range_meters":7200,"station_id":"ce4bhu92rcd13ifvqi70","pricing_plan_id":"cebpf4jnsgd1na2vs0mg"},{"bike_id":"afde944a-633f-47b5-a2d3-76be709cb025","system_id":"levelo_inurba_marseille","lat":43.28729,"lon":5.36091,"is_reserved":false,"is_disabled":false,"rental_uris":{"android":"levelo://app?vid=afde944a-633f-47b5-a2d3-76be709cb025","ios":"levelo://app?vid=afde944a-633f-47b5-a2d3-76be709cb025"},"vehicle_type_id":"4","last_reported":1743246430,"current_range_meters":7200,"station_id":"cki0cbj6b192h4jlfktg","pricing_plan_id":"cebpf4jnsgd1na2vs0mg"},{"bike_id":"ac7b446a-5fec-4cbb-868e-45d0239dc236","system_id":"levelo_inurba_marseille","lat":43.24673,"lon":5.38155,"is_reserved":false,"is_disabled":false,"rental_uris":{"android":"levelo://app?vid=ac7b446a-5fec-4cbb-868e-45d0239dc236","ios":"levelo://app?vid=ac7b446a-5fec-4cbb-868e-45d0239dc236"},"vehicle_type_id":"4","last_reported":1743246430,"current_range_meters":7200,"station_id":"ce4bhih2rcd13ifvqfr0","pricing_plan_id":"cebpf4jnsgd1na2vs0mg"},{"bike_id":"846275f0-7b72-4373-a828-815bfa22388d","system_id":"levelo_inurba_marseille","lat":43.28831,"lon":5.35861,"is_reserved":false,"is_disabled":false,"rental_uris":{"android":"levelo://app?vid=846275f0-7b72-4373-a828-815bfa22388d","ios":"levelo://app?vid=846275f0-7b72-4373-a828-815bfa22388d"},"vehicle_type_id":"4","last_reported":1743246430,"current_range_meters":8000,"station_id":"ce4bhb12rcd13ifvqem0","pricing_plan_id":"cebpf4jnsgd1na2vs0mg"},{"bike_id":"cbe177f9-7359-4495-b99f-8a1700a0286f","system_id":"levelo_inurba_marseille","lat":43.28726,"lon":5.36107,"is_reserved":false,"is_disabled":false,"rental_uris":{"android":"levelo://app?vid=cbe177f9-7359-4495-b99f-8a1700a0286f","ios":"levelo://app?vid=cbe177f9-7359-4495-b99f-8a1700a0286f"},"vehicle_type_id":"4","last_reported":1743246430,"current_range_meters":8000,"station_id":"cki0cbj6b192h4jlfktg","pricing_plan_id":"cebpf4jnsgd1na2vs0mg"},{"bike_id":"cbf7e6d8-15cc-42f8-aeb7-18f70d754f9a","system_id":"levelo_inurba_marseille","lat":43.26033,"lon":5.37546,"is_reserved":false,"is_disabled":false,"rental_uris":{"android":"levelo://app?vid=cbf7e6d8-15cc-42f8-aeb7-18f70d754f9a","ios":"levelo://app?vid=cbf7e6d8-15cc-42f8-aeb7-18f70d754f9a"},"vehicle_type_id":"4","last_reported":1743246430,"current_range_meters":8000,"station_id":"ce4bhgh2rcd13ifvqfa0","pricing_plan_id":"cebpf4jnsgd1na2vs0mg"},{"bike_id":"06ef528b-6bf5-49d6-af5e-a094e3e6abea","system_id":"levelo_inurba_marseille","lat":43.26553,"lon":5.37291,"is_reserved":false,"is_disabled":true,"rental_uris":{"android":"levelo://app?vid=06ef528b-6bf5-49d6-af5e-a094e3e6abea","ios":"levelo://app?vid=06ef528b-6bf5-49d6-af5e-a094e3e6abea"},"vehicle_type_id":"4","last_reported":1743246430,"current_range_meters":8000,"station_id":"ce4bhg12rcd13ifvqf70","pricing_plan_id":"cebpf4jnsgd1na2vs0mg"},{"bike_id":"4cc2417c-0d66-42cc-a800-c7c2b9e37f65","system_id":"levelo_inurba_marseille","lat":43.2649,"lon":5.39536,"is_reserved":false,"is_disabled":false,"rental_uris":{"android":"levelo://app?vid=4cc2417c-0d66-42cc-a800-c7c2b9e37f65","ios":"levelo://app?vid=4cc2417c-0d66-42cc-a800-c7c2b9e37f65"},"vehicle_type_id":"4","last_reported":1743246430,"current_range_meters":8000,"station_id":"ce4bhi12rcd13ifvqfq0","pricing_plan_id":"cebpf4jnsgd1na2vs0mg"},{"bike_id":"d6ae2dac-bcff-421f-8aa6-f2a5b3559285","system_id":"levelo_inurba_marseille","lat":43.26493,"lon":5.39553,"is_reserved":false,"is_disabled":false,"rental_uris":{"android":"levelo://app?vid=d6ae2dac-bcff-421f-8aa6-f2a5b3559285","ios":"levelo://app?vid=d6ae2dac-bcff-421f-8aa6-f2a5b3559285"},"vehicle_type_id":"4","last_reported":1743246430,"current_range_meters":8000,"station_id":"ce4bhi12rcd13ifvqfq0","pricing_plan_id":"cebpf4jnsgd1na2vs0mg"},{"bike_id":"47ad7ef3-58ae-45f0-9b6e-4619eae20d58","system_id":"levelo_inurba_marseille","lat":43.29265,"lon":5.40907,"is_reserved":false,"is_disabled":false,"rental_uris":{"android":"levelo://app?vid=47ad7ef3-58ae-45f0-9b6e-4619eae20d58","ios":"levelo://app?vid=47ad7ef3-58ae-45f0-9b6e-4619eae20d58"},"vehicle_type_id":"4","last_reported":1743246430,"current_range_meters":8400,"station_id":"ce4bh192rcd13ifvqdc0","pricing_plan_id":"cebpf4jnsgd1na2vs0mg"},{"bike_id":"e2b1f715-2679-4f6c-b2f8-dbab8aa76308","system_id":"levelo_inurba_marseille","lat":43.28725,"lon":5.37937,"is_reserved":false,"is_disabled":false,"rental_uris":{"android":"levelo://app?vid=e2b1f715-2679-4f6c-b2f8-dbab8aa76308","ios":"levelo://app?vid=e2b1f715-2679-4f6c-b2f8-dbab8aa76308"},"vehicle_type_id":"4","last_reported":1743246430,"current_range_meters":8000,"station_id":"ce4bh9p2rcd13ifvqec0","pricing_plan_id":"cebpf4jnsgd1na2vs0mg"},{"bike_id":"17d2c56a-04b7-4565-828e-4e8647a3dd59","system_id":"levelo_inurba_marseille","lat":43.23198,"lon":5.35552,"is_reserved":false,"is_disabled":false,"rental_uris":{"android":"levelo://app?vid=17d2c56a-04b7-4565-828e-4e8647a3dd59","ios":"levelo://app?vid=17d2c56a-04b7-4565-828e-4e8647a3dd59"},"vehicle_type_id":"4","last_reported":1743246430,"current_range_meters":8400,"station_id":"ce4bhu92rcd13ifvqi70","pricing_plan_id":"cebpf4jnsgd1na2vs0mg"},{"bike_id":"f47eba55-a588-4033-a3dc-992c836c995d","system_id":"levelo_inurba_marseille","lat":43.31685,"lon":5.40532,"is_reserved":false,"is_disabled":false,"rental_uris":{"android":"levelo://app?vid=f47eba55-a588-4033-a3dc-992c836c995d","ios":"levelo://app?vid=f47eba55-a588-4033-a3dc-992c836c995d"},"vehicle_type_id":"4","last_reported":1743246430,"current_range_meters":8400,"station_id":"ce4bh012rcd13ifvqd00","pricing_plan_id":"cebpf4jnsgd1na2vs0mg"},{"bike_id":"78879d72-d868-43c9-a743-a6ab48dd9b11","system_id":"levelo_inurba_marseille","lat":43.28731,"lon":5.3608,"is_reserved":false,"is_disabled":false,"rental_uris":{"android":"levelo://app?vid=78879d72-d868-43c9-a743-a6ab48dd9b11","ios":"levelo://app?vid=78879d72-d868-43c9-a743-a6ab48dd9b11"},"vehicle_type_id":"4","last_reported":1743246430,"current_range_meters":8400,"station_id":"cki0cbj6b192h4jlfktg","pricing_plan_id":"cebpf4jnsgd1na2vs0mg"},{"bike_id":"c4ece6ce-2a31-45e9-9b34-d2d716346776","system_id":"levelo_inurba_marseille","lat":43.29194,"lon":5.35819,"is_reserved":false,"is_disabled":false,"rental_uris":{"android":"levelo://app?vid=c4ece6ce-2a31-45e9-9b34-d2d716346776","ios":"levelo://app?vid=c4ece6ce-2a31-45e9-9b34-d2d716346776"},"vehicle_type_id":"4","last_reported":1743246430,"current_range_meters":8400,"station_id":"ce4bhb12rcd13ifvqel0","pricing_plan_id":"cebpf4jnsgd1na2vs0mg"},{"bike_id":"6082a6d8-29f3-4441-bd82-d0f95ead75d7","system_id":"levelo_inurba_marseille","lat":43.231914,"lon":5.355539,"is_reserved":false,"is_disabled":false,"rental_uris":{"android":"levelo://app?vid=6082a6d8-29f3-4441-bd82-d0f95ead75d7","ios":"levelo://app?vid=6082a6d8-29f3-4441-bd82-d0f95ead75d7"},"vehicle_type_id":"4","last_reported":1743246430,"current_range_meters":8400,"station_id":"ce4bhu92rcd13ifvqi70","pricing_plan_id":"cebpf4jnsgd1na2vs0mg"},{"bike_id":"4fbfc3e6-1d5a-469b-ab70-bfc87a275095","system_id":"levelo_inurba_marseille","lat":43.23196,"lon":5.35556,"is_reserved":false,"is_disabled":false,"rental_uris":{"android":"levelo://app?vid=4fbfc3e6-1d5a-469b-ab70-bfc87a275095","ios":"levelo://app?vid=4fbfc3e6-1d5a-469b-ab70-bfc87a275095"},"vehicle_type_id":"4","last_reported":1743246430,"current_range_meters":8400,"station_id":"ce4bhu92rcd13ifvqi70","pricing_plan_id":"cebpf4jnsgd1na2vs0mg"},{"bike_id":"bb238aab-ecce-4d51-ba90-677f93725c94","system_id":"levelo_inurba_marseille","lat":43.34169,"lon":5.40904,"is_reserved":false,"is_disabled":false,"rental_uris":{"android":"levelo://app?vid=bb238aab-ecce-4d51-ba90-677f93725c94","ios":"levelo://app?vid=bb238aab-ecce-4d51-ba90-677f93725c94"},"vehicle_type_id":"4","last_reported":1743246430,"current_range_meters":8400,"station_id":"ce4bhqh2rcd13ifvqhlg","pricing_plan_id":"cebpf4jnsgd1na2vs0mg"},{"bike_id":"d5ffff0a-47db-470d-a1ce-99a37bfcd090","system_id":"levelo_inurba_marseille","lat":43.28614,"lon":5.35111,"is_reserved":false,"is_disabled":false,"rental_uris":{"android":"levelo://app?vid=d5ffff0a-47db-470d-a1ce-99a37bfcd090","ios":"levelo://app?vid=d5ffff0a-47db-470d-a1ce-99a37bfcd090"},"vehicle_type_id":"4","last_reported":1743246430,"current_range_meters":8400,"station_id":"ce4bhch2rcd13ifvqeug","pricing_plan_id":"cebpf4jnsgd1na2vs0mg"},{"bike_id":"060296df-2ff1-4f63-8421-471d49c205a3","system_id":"levelo_inurba_marseille","lat":43.30182,"lon":5.36622,"is_reserved":false,"is_disabled":false,"rental_uris":{"android":"levelo://app?vid=060296df-2ff1-4f63-8421-471d49c205a3","ios":"levelo://app?vid=060296df-2ff1-4f63-8421-471d49c205a3"},"vehicle_type_id":"4","last_reported":1743246430,"current_range_meters":8400,"station_id":"ce4bgrh2rcd13ifvqc8g","pricing_plan_id":"cebpf4jnsgd1na2vs0mg"},{"bike_id":"63c0a6fd-db17-4c20-99c3-fb8a52dbc9a0","system_id":"levelo_inurba_marseille","lat":43.30146,"lon":5.381,"is_reserved":false,"is_disabled":false,"rental_uris":{"android":"levelo://app?vid=63c0a6fd-db17-4c20-99c3-fb8a52dbc9a0","ios":"levelo://app?vid=63c0a6fd-db17-4c20-99c3-fb8a52dbc9a0"},"vehicle_type_id":"4","last_reported":1743246430,"current_range_meters":8800,"station_id":"ce4bgjp2rcd13ifvqbh0","pricing_plan_id":"cebpf4jnsgd1na2vs0mg"},{"bike_id":"7cb45fac-62b5-4ead-be9c-e53660ce9dfb","system_id":"levelo_inurba_marseille","lat":43.2873,"lon":5.39984,"is_reserved":false,"is_disabled":false,"rental_uris":{"android":"levelo://app?vid=7cb45fac-62b5-4ead-be9c-e53660ce9dfb","ios":"levelo://app?vid=7cb45fac-62b5-4ead-be9c-e53660ce9dfb"},"vehicle_type_id":"4","last_reported":1743246430,"current_range_meters":8800,"station_id":"ce4bho92rcd13ifvqh3g","pricing_plan_id":"cebpf4jnsgd1na2vs0mg"},{"bike_id":"b5ace6c6-32e3-486d-9744-efb1ce0dfa9d","system_id":"levelo_inurba_marseille","lat":43.28605,"lon":5.37063,"is_reserved":false,"is_disabled":false,"rental_uris":{"android":"levelo://app?vid=b5ace6c6-32e3-486d-9744-efb1ce0dfa9d","ios":"levelo://app?vid=b5ace6c6-32e3-486d-9744-efb1ce0dfa9d"},"vehicle_type_id":"4","last_reported":1743246430,"current_range_meters":8800,"station_id":"ce4bht12rcd13ifvqi60","pricing_plan_id":"cebpf4jnsgd1na2vs0mg"},{"bike_id":"787c5a7b-7ea5-4559-9257-3bbdf77951a7","system_id":"levelo_inurba_marseille","lat":43.31072,"lon":5.38351,"is_reserved":false,"is_disabled":true,"rental_uris":{"android":"levelo://app?vid=787c5a7b-7ea5-4559-9257-3bbdf77951a7","ios":"levelo://app?vid=787c5a7b-7ea5-4559-9257-3bbdf77951a7"},"vehicle_type_id":"4","last_reported":1743246430,"current_range_meters":8800,"station_id":"ce4bgv92rcd13ifvqcr0","pricing_plan_id":"cebpf4jnsgd1na2vs0mg"},{"bike_id":"6abcbbdb-4446-4e16-9ab2-38b0235c12cc","system_id":"levelo_inurba_marseille","lat":43.28156,"lon":5.4263,"is_reserved":false,"is_disabled":false,"rental_uris":{"android":"levelo://app?vid=6abcbbdb-4446-4e16-9ab2-38b0235c12cc","ios":"levelo://app?vid=6abcbbdb-4446-4e16-9ab2-38b0235c12cc"},"vehicle_type_id":"4","last_reported":1743246430,"current_range_meters":8800,"station_id":"ce4bhnh2rcd13ifvqgug","pricing_plan_id":"cebpf4jnsgd1na2vs0mg"},{"bike_id":"983c4c9f-ee1a-4d13-8ce7-bfd36c479f46","system_id":"levelo_inurba_marseille","lat":43.241691,"lon":5.364042,"is_reserved":false,"is_disabled":false,"rental_uris":{"android":"levelo://app?vid=983c4c9f-ee1a-4d13-8ce7-bfd36c479f46","ios":"levelo://app?vid=983c4c9f-ee1a-4d13-8ce7-bfd36c479f46"},"vehicle_type_id":"4","last_reported":1743246430,"current_range_meters":9200,"station_id":"cpo36qri1sfpv3e86is0","pricing_plan_id":"cebpf4jnsgd1na2vs0mg"},{"bike_id":"793b71c8-8f70-4406-b2e3-dcff5def2884","system_id":"levelo_inurba_marseille","lat":43.32364,"lon":5.38899,"is_reserved":false,"is_disabled":false,"rental_uris":{"android":"levelo://app?vid=793b71c8-8f70-4406-b2e3-dcff5def2884","ios":"levelo://app?vid=793b71c8-8f70-4406-b2e3-dcff5def2884"},"vehicle_type_id":"4","last_reported":1743246430,"current_range_meters":9200,"station_id":"ce4bhqp2rcd13ifvqhog","pricing_plan_id":"cebpf4jnsgd1na2vs0mg"},{"bike_id":"d110ea9c-afe8-47f1-b008-e66bc6e44a55","system_id":"levelo_inurba_marseille","lat":43.28429,"lon":5.34984,"is_reserved":false,"is_disabled":false,"rental_uris":{"android":"levelo://app?vid=d110ea9c-afe8-47f1-b008-e66bc6e44a55","ios":"levelo://app?vid=d110ea9c-afe8-47f1-b008-e66bc6e44a55"},"vehicle_type_id":"4","last_reported":1743246430,"current_range_meters":9200,"station_id":"ce4bhbh2rcd13ifvqepg","pricing_plan_id":"cebpf4jnsgd1na2vs0mg"},{"bike_id":"676aa410-285a-48fa-832f-41d35fee7288","system_id":"levelo_inurba_marseille","lat":43.28611,"lon":5.37059,"is_reserved":false,"is_disabled":false,"rental_uris":{"android":"levelo://app?vid=676aa410-285a-48fa-832f-41d35fee7288","ios":"levelo://app?vid=676aa410-285a-48fa-832f-41d35fee7288"},"vehicle_type_id":"4","last_reported":1743246430,"current_range_meters":9200,"station_id":"ce4bht12rcd13ifvqi60","pricing_plan_id":"cebpf4jnsgd1na2vs0mg"},{"bike_id":"3a2e35ff-67f7-42a4-b09b-1fe3ef6e95d8","system_id":"levelo_inurba_marseille","lat":43.22933,"lon":5.3539,"is_reserved":false,"is_disabled":false,"rental_uris":{"android":"levelo://app?vid=3a2e35ff-67f7-42a4-b09b-1fe3ef6e95d8","ios":"levelo://app?vid=3a2e35ff-67f7-42a4-b09b-1fe3ef6e95d8"},"vehicle_type_id":"4","last_reported":1743246430,"current_range_meters":9200,"station_id":"cpo3532slgdg3j2ikp40","pricing_plan_id":"cebpf4jnsgd1na2vs0mg"},{"bike_id":"201331f6-89d2-473a-a738-b22172ea4f15","system_id":"levelo_inurba_marseille","lat":43.31276,"lon":5.40175,"is_reserved":false,"is_disabled":false,"rental_uris":{"android":"levelo://app?vid=201331f6-89d2-473a-a738-b22172ea4f15","ios":"levelo://app?vid=201331f6-89d2-473a-a738-b22172ea4f15"},"vehicle_type_id":"4","last_reported":1743246430,"current_range_meters":9200,"station_id":"ce4bh092rcd13ifvqd30","pricing_plan_id":"cebpf4jnsgd1na2vs0mg"},{"bike_id":"490478ca-aced-4868-a60b-352834e113c5","system_id":"levelo_inurba_marseille","lat":43.301547,"lon":5.392838,"is_reserved":false,"is_disabled":false,"rental_uris":{"android":"levelo://app?vid=490478ca-aced-4868-a60b-352834e113c5","ios":"levelo://app?vid=490478ca-aced-4868-a60b-352834e113c5"},"vehicle_type_id":"4","last_reported":1743246430,"current_range_meters":8800,"station_id":"ce4bhap2rcd13ifvqek0","pricing_plan_id":"cebpf4jnsgd1na2vs0mg"},{"bike_id":"1a8ec8fe-cd0f-44f4-9a76-dfc354a60ccc","system_id":"levelo_inurba_marseille","lat":43.23962,"lon":5.36627,"is_reserved":false,"is_disabled":false,"rental_uris":{"android":"levelo://app?vid=1a8ec8fe-cd0f-44f4-9a76-dfc354a60ccc","ios":"levelo://app?vid=1a8ec8fe-cd0f-44f4-9a76-dfc354a60ccc"},"vehicle_type_id":"4","last_reported":1743246430,"current_range_meters":9200,"station_id":"ce4bhi12rcd13ifvqfp0","pricing_plan_id":"cebpf4jnsgd1na2vs0mg"},{"bike_id":"e6fc9531-3138-4870-b09f-a4d9f89b86fc","system_id":"levelo_inurba_marseille","lat":43.29292,"lon":5.37457,"is_reserved":false,"is_disabled":false,"rental_uris":{"android":"levelo://app?vid=e6fc9531-3138-4870-b09f-a4d9f89b86fc","ios":"levelo://app?vid=e6fc9531-3138-4870-b09f-a4d9f89b86fc"},"vehicle_type_id":"4","last_reported":1743246430,"current_range_meters":9200,"station_id":"ce4bgi12rcd13ifvqb70","pricing_plan_id":"cebpf4jnsgd1na2vs0mg"},{"bike_id":"d14cdd1e-f0b3-48a5-be5e-77128af69a2d","system_id":"levelo_inurba_marseille","lat":43.2862,"lon":5.35104,"is_reserved":false,"is_disabled":false,"rental_uris":{"android":"levelo://app?vid=d14cdd1e-f0b3-48a5-be5e-77128af69a2d","ios":"levelo://app?vid=d14cdd1e-f0b3-48a5-be5e-77128af69a2d"},"vehicle_type_id":"4","last_reported":1743246430,"current_range_meters":9200,"station_id":"ce4bhch2rcd13ifvqeug","pricing_plan_id":"cebpf4jnsgd1na2vs0mg"},{"bike_id":"e4614adf-59ca-49c9-9f29-fb2629aacd37","system_id":"levelo_inurba_marseille","lat":43.28668,"lon":5.35035,"is_reserved":false,"is_disabled":true,"rental_uris":{"android":"levelo://app?vid=e4614adf-59ca-49c9-9f29-fb2629aacd37","ios":"levelo://app?vid=e4614adf-59ca-49c9-9f29-fb2629aacd37"},"vehicle_type_id":"4","last_reported":1743246430,"current_range_meters":9200,"station_id":"","pricing_plan_id":"cebpf4jnsgd1na2vs0mg"},{"bike_id":"86402da5-f9ef-43b6-a281-06ce7c4c3160","system_id":"levelo_inurba_marseille","lat":43.28616,"lon":5.35099,"is_reserved":false,"is_disabled":false,"rental_uris":{"android":"levelo://app?vid=86402da5-f9ef-43b6-a281-06ce7c4c3160","ios":"levelo://app?vid=86402da5-f9ef-43b6-a281-06ce7c4c3160"},"vehicle_type_id":"4","last_reported":1743246430,"current_range_meters":9600,"station_id":"ce4bhch2rcd13ifvqeug","pricing_plan_id":"cebpf4jnsgd1na2vs0mg"},{"bike_id":"b1ecd358-38ec-4753-8af1-9b87454b444a","system_id":"levelo_inurba_marseille","lat":43.28639,"lon":5.35079,"is_reserved":false,"is_disabled":false,"rental_uris":{"android":"levelo://app?vid=b1ecd358-38ec-4753-8af1-9b87454b444a","ios":"levelo://app?vid=b1ecd358-38ec-4753-8af1-9b87454b444a"},"vehicle_type_id":"4","last_reported":1743246430,"current_range_meters":9600,"station_id":"ce4bhch2rcd13ifvqeug","pricing_plan_id":"cebpf4jnsgd1na2vs0mg"},{"bike_id":"4a2e9d53-b486-4a6e-b169-b95152461d61","system_id":"levelo_inurba_marseille","lat":43.280809,"lon":5.401118,"is_reserved":false,"is_disabled":false,"rental_uris":{"android":"levelo://app?vid=4a2e9d53-b486-4a6e-b169-b95152461d61","ios":"levelo://app?vid=4a2e9d53-b486-4a6e-b169-b95152461d61"},"vehicle_type_id":"4","last_reported":1743246430,"current_range_meters":9600,"station_id":"ce4bho92rcd13ifvqh4g","pricing_plan_id":"cebpf4jnsgd1na2vs0mg"},{"bike_id":"980b1b8d-c114-4f00-88f8-a0ddccb8fb71","system_id":"levelo_inurba_marseille","lat":43.28656,"lon":5.35121,"is_reserved":false,"is_disabled":false,"rental_uris":{"android":"levelo://app?vid=980b1b8d-c114-4f00-88f8-a0ddccb8fb71","ios":"levelo://app?vid=980b1b8d-c114-4f00-88f8-a0ddccb8fb71"},"vehicle_type_id":"4","last_reported":1743246430,"current_range_meters":9600,"station_id":"ce4bhch2rcd13ifvqeug","pricing_plan_id":"cebpf4jnsgd1na2vs0mg"},{"bike_id":"9bd349ae-e847-4d86-a3a7-4656a1832a5d","system_id":"levelo_inurba_marseille","lat":43.29259,"lon":5.37604,"is_reserved":false,"is_disabled":false,"rental_uris":{"android":"levelo://app?vid=9bd349ae-e847-4d86-a3a7-4656a1832a5d","ios":"levelo://app?vid=9bd349ae-e847-4d86-a3a7-4656a1832a5d"},"vehicle_type_id":"4","last_reported":1743246430,"current_range_meters":10000,"station_id":"ce4bgi12rcd13ifvqb80","pricing_plan_id":"cebpf4jnsgd1na2vs0mg"},{"bike_id":"96fa1290-e699-40b9-9109-379d3b77c6fb","system_id":"levelo_inurba_marseille","lat":43.33738,"lon":5.39191,"is_reserved":false,"is_disabled":false,"rental_uris":{"android":"levelo://app?vid=96fa1290-e699-40b9-9109-379d3b77c6fb","ios":"levelo://app?vid=96fa1290-e699-40b9-9109-379d3b77c6fb"},"vehicle_type_id":"4","last_reported":1743246430,"current_range_meters":10000,"station_id":"ce4bhr92rcd13ifvqhsg","pricing_plan_id":"cebpf4jnsgd1na2vs0mg"},{"bike_id":"eaddfac1-0bf4-4f61-8016-0c16cda63728","system_id":"levelo_inurba_marseille","lat":43.29226,"lon":5.36055,"is_reserved":false,"is_disabled":false,"rental_uris":{"android":"levelo://app?vid=eaddfac1-0bf4-4f61-8016-0c16cda63728","ios":"levelo://app?vid=eaddfac1-0bf4-4f61-8016-0c16cda63728"},"vehicle_type_id":"4","last_reported":1743246430,"current_range_meters":10000,"station_id":"ce4bhbh2rcd13ifvqeqg","pricing_plan_id":"cebpf4jnsgd1na2vs0mg"},{"bike_id":"a2dd611d-97f8-4a80-9052-0416216c6368","system_id":"levelo_inurba_marseille","lat":43.29224,"lon":5.36049,"is_reserved":false,"is_disabled":true,"rental_uris":{"android":"levelo://app?vid=a2dd611d-97f8-4a80-9052-0416216c6368","ios":"levelo://app?vid=a2dd611d-97f8-4a80-9052-0416216c6368"},"vehicle_type_id":"4","last_reported":1743246430,"current_range_meters":10000,"station_id":"ce4bhbh2rcd13ifvqeqg","pricing_plan_id":"cebpf4jnsgd1na2vs0mg"},{"bike_id":"4b2323ae-94b8-41f7-9062-4d9bd4bd549e","system_id":"levelo_inurba_marseille","lat":43.24165,"lon":5.36402,"is_reserved":false,"is_disabled":false,"rental_uris":{"android":"levelo://app?vid=4b2323ae-94b8-41f7-9062-4d9bd4bd549e","ios":"levelo://app?vid=4b2323ae-94b8-41f7-9062-4d9bd4bd549e"},"vehicle_type_id":"4","last_reported":1743246430,"current_range_meters":10000,"station_id":"cpo36qri1sfpv3e86is0","pricing_plan_id":"cebpf4jnsgd1na2vs0mg"},{"bike_id":"468c7107-c174-47b0-911e-abecc9509d56","system_id":"levelo_inurba_marseille","lat":43.26959,"lon":5.3862,"is_reserved":false,"is_disabled":false,"rental_uris":{"android":"levelo://app?vid=468c7107-c174-47b0-911e-abecc9509d56","ios":"levelo://app?vid=468c7107-c174-47b0-911e-abecc9509d56"},"vehicle_type_id":"4","last_reported":1743246430,"current_range_meters":10000,"station_id":"ce4bhh92rcd13ifvqfh0","pricing_plan_id":"cebpf4jnsgd1na2vs0mg"},{"bike_id":"fd6d4077-ad0d-4dde-a35e-0466b412f0f6","system_id":"levelo_inurba_marseille","lat":43.29617,"lon":5.3717,"is_reserved":false,"is_disabled":false,"rental_uris":{"android":"levelo://app?vid=fd6d4077-ad0d-4dde-a35e-0466b412f0f6","ios":"levelo://app?vid=fd6d4077-ad0d-4dde-a35e-0466b412f0f6"},"vehicle_type_id":"4","last_reported":1743246430,"current_range_meters":10000,"station_id":"ce4bgnh2rcd13ifvqc0g","pricing_plan_id":"cebpf4jnsgd1na2vs0mg"},{"bike_id":"f9de63e8-e5f0-486f-88e4-96470d4381e2","system_id":"levelo_inurba_marseille","lat":43.29281,"lon":5.40136,"is_reserved":false,"is_disabled":false,"rental_uris":{"android":"levelo://app?vid=f9de63e8-e5f0-486f-88e4-96470d4381e2","ios":"levelo://app?vid=f9de63e8-e5f0-486f-88e4-96470d4381e2"},"vehicle_type_id":"4","last_reported":1743246430,"current_range_meters":10800,"station_id":"ce4bh312rcd13ifvqdk0","pricing_plan_id":"cebpf4jnsgd1na2vs0mg"},{"bike_id":"b48a6d88-f06a-497d-a712-7c2549b8d2a6","system_id":"levelo_inurba_marseille","lat":43.29299,"lon":5.37166,"is_reserved":false,"is_disabled":false,"rental_uris":{"android":"levelo://app?vid=b48a6d88-f06a-497d-a712-7c2549b8d2a6","ios":"levelo://app?vid=b48a6d88-f06a-497d-a712-7c2549b8d2a6"},"vehicle_type_id":"4","last_reported":1743246430,"current_range_meters":10800,"station_id":"ce4bgh92rcd13ifvqb40","pricing_plan_id":"cebpf4jnsgd1na2vs0mg"},{"bike_id":"bc13ce4b-80c3-434c-be50-109c6ccb0031","system_id":"levelo_inurba_marseille","lat":43.292547,"lon":5.409126,"is_reserved":false,"is_disabled":false,"rental_uris":{"android":"levelo://app?vid=bc13ce4b-80c3-434c-be50-109c6ccb0031","ios":"levelo://app?vid=bc13ce4b-80c3-434c-be50-109c6ccb0031"},"vehicle_type_id":"4","last_reported":1743246430,"current_range_meters":10800,"station_id":"ce4bh192rcd13ifvqdc0","pricing_plan_id":"cebpf4jnsgd1na2vs0mg"},{"bike_id":"3f7539a9-fe9d-4bf3-a143-40a9bdd56d65","system_id":"levelo_inurba_marseille","lat":43.29552,"lon":5.42282,"is_reserved":false,"is_disabled":true,"rental_uris":{"android":"levelo://app?vid=3f7539a9-fe9d-4bf3-a143-40a9bdd56d65","ios":"levelo://app?vid=3f7539a9-fe9d-4bf3-a143-40a9bdd56d65"},"vehicle_type_id":"4","last_reported":1743246430,"current_range_meters":10800,"station_id":"ce4bhph2rcd13ifvqhdg","pricing_plan_id":"cebpf4jnsgd1na2vs0mg"},{"bike_id":"4586e23a-2d77-446c-8e8c-a15b6ae5de02","system_id":"levelo_inurba_marseille","lat":43.28601,"lon":5.38129,"is_reserved":false,"is_disabled":false,"rental_uris":{"android":"levelo://app?vid=4586e23a-2d77-446c-8e8c-a15b6ae5de02","ios":"levelo://app?vid=4586e23a-2d77-446c-8e8c-a15b6ae5de02"},"vehicle_type_id":"4","last_reported":1743246430,"current_range_meters":10800,"station_id":"","pricing_plan_id":"cebpf4jnsgd1na2vs0mg"},{"bike_id":"cc758445-8875-4408-9109-6d930a49f8ed","system_id":"levelo_inurba_marseille","lat":43.27216,"lon":5.39182,"is_reserved":false,"is_disabled":false,"rental_uris":{"android":"levelo://app?vid=cc758445-8875-4408-9109-6d930a49f8ed","ios":"levelo://app?vid=cc758445-8875-4408-9109-6d930a49f8ed"},"vehicle_type_id":"4","last_reported":1743246430,"current_range_meters":10000,"station_id":"ce4bhhp2rcd13ifvqfm0","pricing_plan_id":"cebpf4jnsgd1na2vs0mg"},{"bike_id":"88815bbf-a233-4c07-a7b8-cc43c5a6a74f","system_id":"levelo_inurba_marseille","lat":43.31378,"lon":5.38485,"is_reserved":false,"is_disabled":false,"rental_uris":{"android":"levelo://app?vid=88815bbf-a233-4c07-a7b8-cc43c5a6a74f","ios":"levelo://app?vid=88815bbf-a233-4c07-a7b8-cc43c5a6a74f"},"vehicle_type_id":"4","last_reported":1743246430,"current_range_meters":10800,"station_id":"ce4bgt92rcd13ifvqcf0","pricing_plan_id":"cebpf4jnsgd1na2vs0mg"},{"bike_id":"d31aae57-9e13-424c-8e97-0c08068df44c","system_id":"levelo_inurba_marseille","lat":43.28727,"lon":5.36082,"is_reserved":false,"is_disabled":false,"rental_uris":{"android":"levelo://app?vid=d31aae57-9e13-424c-8e97-0c08068df44c","ios":"levelo://app?vid=d31aae57-9e13-424c-8e97-0c08068df44c"},"vehicle_type_id":"4","last_reported":1743246430,"current_range_meters":11200,"station_id":"cki0cbj6b192h4jlfktg","pricing_plan_id":"cebpf4jnsgd1na2vs0mg"},{"bike_id":"875b93a8-6ea7-4787-83fd-fee22f61c7db","system_id":"levelo_inurba_marseille","lat":43.29265,"lon":5.3845,"is_reserved":false,"is_disabled":false,"rental_uris":{"android":"levelo://app?vid=875b93a8-6ea7-4787-83fd-fee22f61c7db","ios":"levelo://app?vid=875b93a8-6ea7-4787-83fd-fee22f61c7db"},"vehicle_type_id":"4","last_reported":1743246430,"current_range_meters":11200,"station_id":"ce4bh692rcd13ifvqea0","pricing_plan_id":"cebpf4jnsgd1na2vs0mg"},{"bike_id":"ead84735-1991-4501-b506-2229ced7058a","system_id":"levelo_inurba_marseille","lat":43.23063,"lon":5.35486,"is_reserved":false,"is_disabled":false,"rental_uris":{"android":"levelo://app?vid=ead84735-1991-4501-b506-2229ced7058a","ios":"levelo://app?vid=ead84735-1991-4501-b506-2229ced7058a"},"vehicle_type_id":"4","last_reported":1743246430,"current_range_meters":11200,"station_id":"cpo3342slgdg3j2ifvpg","pricing_plan_id":"cebpf4jnsgd1na2vs0mg"},{"bike_id":"6e292ba2-b4ae-47c5-bd9c-7c78af92d00e","system_id":"levelo_inurba_marseille","lat":43.28076,"lon":5.39657,"is_reserved":false,"is_disabled":false,"rental_uris":{"android":"levelo://app?vid=6e292ba2-b4ae-47c5-bd9c-7c78af92d00e","ios":"levelo://app?vid=6e292ba2-b4ae-47c5-bd9c-7c78af92d00e"},"vehicle_type_id":"4","last_reported":1743246430,"current_range_meters":11200,"station_id":"ce4bho12rcd13ifvqh2g","pricing_plan_id":"cebpf4jnsgd1na2vs0mg"},{"bike_id":"954d7183-68bc-4644-bbc7-9970234dc771","system_id":"levelo_inurba_marseille","lat":43.25581,"lon":5.38223,"is_reserved":false,"is_disabled":false,"rental_uris":{"android":"levelo://app?vid=954d7183-68bc-4644-bbc7-9970234dc771","ios":"levelo://app?vid=954d7183-68bc-4644-bbc7-9970234dc771"},"vehicle_type_id":"4","last_reported":1743246430,"current_range_meters":11200,"station_id":"ce4bhih2rcd13ifvqfs0","pricing_plan_id":"cebpf4jnsgd1na2vs0mg"},{"bike_id":"6938d0ce-f954-4fff-b95b-2d698d38a5d7","system_id":"levelo_inurba_marseille","lat":43.279349,"lon":5.410467,"is_reserved":false,"is_disabled":false,"rental_uris":{"android":"levelo://app?vid=6938d0ce-f954-4fff-b95b-2d698d38a5d7","ios":"levelo://app?vid=6938d0ce-f954-4fff-b95b-2d698d38a5d7"},"vehicle_type_id":"4","last_reported":1743246430,"current_range_meters":11200,"station_id":"ce4bhnp2rcd13ifvqh0g","pricing_plan_id":"cebpf4jnsgd1na2vs0mg"},{"bike_id":"9f2583cf-461d-4d57-8c37-99ef1e89cade","system_id":"levelo_inurba_marseille","lat":43.23186,"lon":5.35536,"is_reserved":false,"is_disabled":false,"rental_uris":{"android":"levelo://app?vid=9f2583cf-461d-4d57-8c37-99ef1e89cade","ios":"levelo://app?vid=9f2583cf-461d-4d57-8c37-99ef1e89cade"},"vehicle_type_id":"4","last_reported":1743246430,"current_range_meters":11200,"station_id":"ce4bhu92rcd13ifvqi70","pricing_plan_id":"cebpf4jnsgd1na2vs0mg"},{"bike_id":"18a7459a-9de6-4413-bb5e-bd445e06b1f8","system_id":"levelo_inurba_marseille","lat":43.29197,"lon":5.35792,"is_reserved":false,"is_disabled":false,"rental_uris":{"android":"levelo://app?vid=18a7459a-9de6-4413-bb5e-bd445e06b1f8","ios":"levelo://app?vid=18a7459a-9de6-4413-bb5e-bd445e06b1f8"},"vehicle_type_id":"4","last_reported":1743246430,"current_range_meters":11200,"station_id":"ce4bhb12rcd13ifvqel0","pricing_plan_id":"cebpf4jnsgd1na2vs0mg"},{"bike_id":"96ac20e8-5840-4579-b371-184ec6253952","system_id":"levelo_inurba_marseille","lat":43.27505,"lon":5.41039,"is_reserved":false,"is_disabled":false,"rental_uris":{"android":"levelo://app?vid=96ac20e8-5840-4579-b371-184ec6253952","ios":"levelo://app?vid=96ac20e8-5840-4579-b371-184ec6253952"},"vehicle_type_id":"4","last_reported":1743246430,"current_range_meters":11600,"station_id":"","pricing_plan_id":"cebpf4jnsgd1na2vs0mg"},{"bike_id":"8d6f8de5-aaab-4be9-b14e-007f3d70fa04","system_id":"levelo_inurba_marseille","lat":43.29023,"lon":5.38632,"is_reserved":false,"is_disabled":false,"rental_uris":{"android":"levelo://app?vid=8d6f8de5-aaab-4be9-b14e-007f3d70fa04","ios":"levelo://app?vid=8d6f8de5-aaab-4be9-b14e-007f3d70fa04"},"vehicle_type_id":"4","last_reported":1743246430,"current_range_meters":11600,"station_id":"ce4bh4p2rcd13ifvqe0g","pricing_plan_id":"cebpf4jnsgd1na2vs0mg"},{"bike_id":"88b20341-2a0e-4fdb-b281-d68aefa40a06","system_id":"levelo_inurba_marseille","lat":43.29292,"lon":5.3746,"is_reserved":false,"is_disabled":false,"rental_uris":{"android":"levelo://app?vid=88b20341-2a0e-4fdb-b281-d68aefa40a06","ios":"levelo://app?vid=88b20341-2a0e-4fdb-b281-d68aefa40a06"},"vehicle_type_id":"4","last_reported":1743246430,"current_range_meters":11600,"station_id":"ce4bgi12rcd13ifvqb70","pricing_plan_id":"cebpf4jnsgd1na2vs0mg"},{"bike_id":"53626b07-875a-4410-8672-9ca1808995ba","system_id":"levelo_inurba_marseille","lat":43.28476,"lon":5.38566,"is_reserved":false,"is_disabled":false,"rental_uris":{"android":"levelo://app?vid=53626b07-875a-4410-8672-9ca1808995ba","ios":"levelo://app?vid=53626b07-875a-4410-8672-9ca1808995ba"},"vehicle_type_id":"4","last_reported":1743246430,"current_range_meters":12000,"station_id":"ce4bh8p2rcd13ifvqeb0","pricing_plan_id":"cebpf4jnsgd1na2vs0mg"},{"bike_id":"8964994f-01e2-49e5-90d2-1dd7115283f3","system_id":"levelo_inurba_marseille","lat":43.23067,"lon":5.35489,"is_reserved":false,"is_disabled":false,"rental_uris":{"android":"levelo://app?vid=8964994f-01e2-49e5-90d2-1dd7115283f3","ios":"levelo://app?vid=8964994f-01e2-49e5-90d2-1dd7115283f3"},"vehicle_type_id":"4","last_reported":1743246430,"current_range_meters":12000,"station_id":"cpo3342slgdg3j2ifvpg","pricing_plan_id":"cebpf4jnsgd1na2vs0mg"},{"bike_id":"b10013b1-6e18-45d0-93c6-e52068d555f2","system_id":"levelo_inurba_marseille","lat":43.28461,"lon":5.35886,"is_reserved":false,"is_disabled":false,"rental_uris":{"android":"levelo://app?vid=b10013b1-6e18-45d0-93c6-e52068d555f2","ios":"levelo://app?vid=b10013b1-6e18-45d0-93c6-e52068d555f2"},"vehicle_type_id":"4","last_reported":1743246430,"current_range_meters":12000,"station_id":"ce4bhah2rcd13ifvqei0","pricing_plan_id":"cebpf4jnsgd1na2vs0mg"},{"bike_id":"7f9e733c-fa89-49ab-8010-8acb21ac5585","system_id":"levelo_inurba_marseille","lat":43.2315,"lon":5.43722,"is_reserved":false,"is_disabled":false,"rental_uris":{"android":"levelo://app?vid=7f9e733c-fa89-49ab-8010-8acb21ac5585","ios":"levelo://app?vid=7f9e733c-fa89-49ab-8010-8acb21ac5585"},"vehicle_type_id":"4","last_reported":1743246430,"current_range_meters":12000,"station_id":"ce4bhmp2rcd13ifvqgog","pricing_plan_id":"cebpf4jnsgd1na2vs0mg"},{"bike_id":"7b02f918-78bf-44ba-a3dd-89303956f071","system_id":"levelo_inurba_marseille","lat":43.30161,"lon":5.38083,"is_reserved":false,"is_disabled":false,"rental_uris":{"android":"levelo://app?vid=7b02f918-78bf-44ba-a3dd-89303956f071","ios":"levelo://app?vid=7b02f918-78bf-44ba-a3dd-89303956f071"},"vehicle_type_id":"4","last_reported":1743246430,"current_range_meters":12000,"station_id":"ce4bgjp2rcd13ifvqbh0","pricing_plan_id":"cebpf4jnsgd1na2vs0mg"},{"bike_id":"89b372e0-e34b-4448-a651-9f0d9816c98e","system_id":"levelo_inurba_marseille","lat":43.24156,"lon":5.36423,"is_reserved":false,"is_disabled":false,"rental_uris":{"android":"levelo://app?vid=89b372e0-e34b-4448-a651-9f0d9816c98e","ios":"levelo://app?vid=89b372e0-e34b-4448-a651-9f0d9816c98e"},"vehicle_type_id":"4","last_reported":1743246430,"current_range_meters":12000,"station_id":"cpo36qri1sfpv3e86is0","pricing_plan_id":"cebpf4jnsgd1na2vs0mg"},{"bike_id":"699cb6a9-80bb-4d7b-8f84-b25847471872","system_id":"levelo_inurba_marseille","lat":43.28973,"lon":5.36355,"is_reserved":false,"is_disabled":false,"rental_uris":{"android":"levelo://app?vid=699cb6a9-80bb-4d7b-8f84-b25847471872","ios":"levelo://app?vid=699cb6a9-80bb-4d7b-8f84-b25847471872"},"vehicle_type_id":"4","last_reported":1743246430,"current_range_meters":12000,"station_id":"ce4bhc92rcd13ifvqetg","pricing_plan_id":"cebpf4jnsgd1na2vs0mg"},{"bike_id":"aa8607bb-b5d2-4f91-a082-c4272120a7ed","system_id":"levelo_inurba_marseille","lat":43.28951,"lon":5.36404,"is_reserved":false,"is_disabled":true,"rental_uris":{"android":"levelo://app?vid=aa8607bb-b5d2-4f91-a082-c4272120a7ed","ios":"levelo://app?vid=aa8607bb-b5d2-4f91-a082-c4272120a7ed"},"vehicle_type_id":"4","last_reported":1743246430,"current_range_meters":12000,"station_id":"ce4bhc92rcd13ifvqetg","pricing_plan_id":"cebpf4jnsgd1na2vs0mg"},{"bike_id":"4d84894c-24d9-4f73-874b-b0df2ef91235","system_id":"levelo_inurba_marseille","lat":43.304823,"lon":5.379094,"is_reserved":false,"is_disabled":false,"rental_uris":{"android":"levelo://app?vid=4d84894c-24d9-4f73-874b-b0df2ef91235","ios":"levelo://app?vid=4d84894c-24d9-4f73-874b-b0df2ef91235"},"vehicle_type_id":"4","last_reported":1743246430,"current_range_meters":12400,"station_id":"ce4bgup2rcd13ifvqcn0","pricing_plan_id":"cebpf4jnsgd1na2vs0mg"},{"bike_id":"3f2bcfca-c616-4059-a95b-b1ee7948eb41","system_id":"levelo_inurba_marseille","lat":43.29904,"lon":5.39745,"is_reserved":false,"is_disabled":false,"rental_uris":{"android":"levelo://app?vid=3f2bcfca-c616-4059-a95b-b1ee7948eb41","ios":"levelo://app?vid=3f2bcfca-c616-4059-a95b-b1ee7948eb41"},"vehicle_type_id":"4","last_reported":1743246430,"current_range_meters":12400,"station_id":"ce4bh0h2rcd13ifvqd50","pricing_plan_id":"cebpf4jnsgd1na2vs0mg"},{"bike_id":"bd1c45cb-d5d1-4f8f-97ec-c397d56e1dd5","system_id":"levelo_inurba_marseille","lat":43.24547,"lon":5.3953,"is_reserved":false,"is_disabled":false,"rental_uris":{"android":"levelo://app?vid=bd1c45cb-d5d1-4f8f-97ec-c397d56e1dd5","ios":"levelo://app?vid=bd1c45cb-d5d1-4f8f-97ec-c397d56e1dd5"},"vehicle_type_id":"4","last_reported":1743246430,"current_range_meters":12400,"station_id":"ce4bhlp2rcd13ifvqgjg","pricing_plan_id":"cebpf4jnsgd1na2vs0mg"},{"bike_id":"43e30df2-3ea2-4192-ac27-17ac9e6bf6ec","system_id":"levelo_inurba_marseille","lat":43.32354,"lon":5.38877,"is_reserved":false,"is_disabled":false,"rental_uris":{"android":"levelo://app?vid=43e30df2-3ea2-4192-ac27-17ac9e6bf6ec","ios":"levelo://app?vid=43e30df2-3ea2-4192-ac27-17ac9e6bf6ec"},"vehicle_type_id":"4","last_reported":1743246430,"current_range_meters":12400,"station_id":"ce4bhqp2rcd13ifvqhog","pricing_plan_id":"cebpf4jnsgd1na2vs0mg"},{"bike_id":"acf1e1c3-a629-4c7b-a838-cba3f3b54603","system_id":"levelo_inurba_marseille","lat":43.31884,"lon":5.37653,"is_reserved":false,"is_disabled":false,"rental_uris":{"android":"levelo://app?vid=acf1e1c3-a629-4c7b-a838-cba3f3b54603","ios":"levelo://app?vid=acf1e1c3-a629-4c7b-a838-cba3f3b54603"},"vehicle_type_id":"4","last_reported":1743246430,"current_range_meters":12400,"station_id":"","pricing_plan_id":"cebpf4jnsgd1na2vs0mg"},{"bike_id":"ffa581ae-d027-40ca-b822-72613b2513ab","system_id":"levelo_inurba_marseille","lat":43.29022,"lon":5.38638,"is_reserved":false,"is_disabled":false,"rental_uris":{"android":"levelo://app?vid=ffa581ae-d027-40ca-b822-72613b2513ab","ios":"levelo://app?vid=ffa581ae-d027-40ca-b822-72613b2513ab"},"vehicle_type_id":"4","last_reported":1743246430,"current_range_meters":12800,"station_id":"ce4bh4p2rcd13ifvqe0g","pricing_plan_id":"cebpf4jnsgd1na2vs0mg"},{"bike_id":"f80bdad8-c86c-4683-90b6-26f666f2ddd0","system_id":"levelo_inurba_marseille","lat":43.28935,"lon":5.36648,"is_reserved":false,"is_disabled":false,"rental_uris":{"android":"levelo://app?vid=f80bdad8-c86c-4683-90b6-26f666f2ddd0","ios":"levelo://app?vid=f80bdad8-c86c-4683-90b6-26f666f2ddd0"},"vehicle_type_id":"4","last_reported":1743246430,"current_range_meters":12800,"station_id":"ce4bhap2rcd13ifvqek0","pricing_plan_id":"cebpf4jnsgd1na2vs0mg"},{"bike_id":"e778d2c3-41c1-4679-9a1b-4a8f9c81abed","system_id":"levelo_inurba_marseille","lat":43.24388,"lon":5.37055,"is_reserved":false,"is_disabled":false,"rental_uris":{"android":"levelo://app?vid=e778d2c3-41c1-4679-9a1b-4a8f9c81abed","ios":"levelo://app?vid=e778d2c3-41c1-4679-9a1b-4a8f9c81abed"},"vehicle_type_id":"4","last_reported":1743246430,"current_range_meters":12800,"station_id":"ce4bhhh2rcd13ifvqfk0","pricing_plan_id":"cebpf4jnsgd1na2vs0mg"},{"bike_id":"abd3241e-325c-4afb-bdb7-08c1b88e1658","system_id":"levelo_inurba_marseille","lat":43.288501,"lon":5.358467,"is_reserved":false,"is_disabled":false,"rental_uris":{"android":"levelo://app?vid=abd3241e-325c-4afb-bdb7-08c1b88e1658","ios":"levelo://app?vid=abd3241e-325c-4afb-bdb7-08c1b88e1658"},"vehicle_type_id":"4","last_reported":1743246430,"current_range_meters":12800,"station_id":"ce4bhb12rcd13ifvqem0","pricing_plan_id":"cebpf4jnsgd1na2vs0mg"},{"bike_id":"516eec70-9871-443d-bcef-31d65d51e4f5","system_id":"levelo_inurba_marseille","lat":43.30277,"lon":5.37704,"is_reserved":false,"is_disabled":false,"rental_uris":{"android":"levelo://app?vid=516eec70-9871-443d-bcef-31d65d51e4f5","ios":"levelo://app?vid=516eec70-9871-443d-bcef-31d65d51e4f5"},"vehicle_type_id":"4","last_reported":1743246430,"current_range_meters":12800,"station_id":"ce4bguh2rcd13ifvqcj0","pricing_plan_id":"cebpf4jnsgd1na2vs0mg"},{"bike_id":"25bb5fbc-8229-4010-b703-31f5ee6ac141","system_id":"levelo_inurba_marseille","lat":43.30596,"lon":5.36552,"is_reserved":false,"is_disabled":false,"rental_uris":{"android":"levelo://app?vid=25bb5fbc-8229-4010-b703-31f5ee6ac141","ios":"levelo://app?vid=25bb5fbc-8229-4010-b703-31f5ee6ac141"},"vehicle_type_id":"4","last_reported":1743246430,"current_range_meters":13600,"station_id":"ce4bgs12rcd13ifvqcag","pricing_plan_id":"cebpf4jnsgd1na2vs0mg"},{"bike_id":"78f5b79c-c94f-4b50-8f7c-a10e4163e48b","system_id":"levelo_inurba_marseille","lat":43.24999,"lon":5.38923,"is_reserved":false,"is_disabled":false,"rental_uris":{"android":"levelo://app?vid=78f5b79c-c94f-4b50-8f7c-a10e4163e48b","ios":"levelo://app?vid=78f5b79c-c94f-4b50-8f7c-a10e4163e48b"},"vehicle_type_id":"4","last_reported":1743246430,"current_range_meters":13600,"station_id":"ce4bhgp2rcd13ifvqfd0","pricing_plan_id":"cebpf4jnsgd1na2vs0mg"},{"bike_id":"906b540e-e920-417f-92b5-0ef35349f644","system_id":"levelo_inurba_marseille","lat":43.31538,"lon":5.39716,"is_reserved":false,"is_disabled":false,"rental_uris":{"android":"levelo://app?vid=906b540e-e920-417f-92b5-0ef35349f644","ios":"levelo://app?vid=906b540e-e920-417f-92b5-0ef35349f644"},"vehicle_type_id":"4","last_reported":1743246430,"current_range_meters":13600,"station_id":"","pricing_plan_id":"cebpf4jnsgd1na2vs0mg"},{"bike_id":"0509fd5a-cd70-40f1-b26e-3f3e3192484f","system_id":"levelo_inurba_marseille","lat":43.28942,"lon":5.36387,"is_reserved":false,"is_disabled":false,"rental_uris":{"android":"levelo://app?vid=0509fd5a-cd70-40f1-b26e-3f3e3192484f","ios":"levelo://app?vid=0509fd5a-cd70-40f1-b26e-3f3e3192484f"},"vehicle_type_id":"4","last_reported":1743246430,"current_range_meters":13600,"station_id":"ce4bhc92rcd13ifvqetg","pricing_plan_id":"cebpf4jnsgd1na2vs0mg"},{"bike_id":"d14b071d-6484-4998-9049-6481b9ce52e8","system_id":"levelo_inurba_marseille","lat":43.284867,"lon":5.385674,"is_reserved":false,"is_disabled":false,"rental_uris":{"android":"levelo://app?vid=d14b071d-6484-4998-9049-6481b9ce52e8","ios":"levelo://app?vid=d14b071d-6484-4998-9049-6481b9ce52e8"},"vehicle_type_id":"4","last_reported":1743246430,"current_range_meters":13600,"station_id":"ce4bh8p2rcd13ifvqeb0","pricing_plan_id":"cebpf4jnsgd1na2vs0mg"},{"bike_id":"00be0317-17ab-4e44-83e9-4e55c9cffd8f","system_id":"levelo_inurba_marseille","lat":43.23979,"lon":5.36618,"is_reserved":false,"is_disabled":false,"rental_uris":{"android":"levelo://app?vid=00be0317-17ab-4e44-83e9-4e55c9cffd8f","ios":"levelo://app?vid=00be0317-17ab-4e44-83e9-4e55c9cffd8f"},"vehicle_type_id":"4","last_reported":1743246430,"current_range_meters":13600,"station_id":"ce4bhi12rcd13ifvqfp0","pricing_plan_id":"cebpf4jnsgd1na2vs0mg"},{"bike_id":"381d627e-37d6-4121-b81d-88e16e658c59","system_id":"levelo_inurba_marseille","lat":43.24398,"lon":5.37044,"is_reserved":false,"is_disabled":false,"rental_uris":{"android":"levelo://app?vid=381d627e-37d6-4121-b81d-88e16e658c59","ios":"levelo://app?vid=381d627e-37d6-4121-b81d-88e16e658c59"},"vehicle_type_id":"4","last_reported":1743246430,"current_range_meters":13600,"station_id":"ce4bhhh2rcd13ifvqfk0","pricing_plan_id":"cebpf4jnsgd1na2vs0mg"},{"bike_id":"76d4ed16-8625-4a14-a5f1-d28ac2574c13","system_id":"levelo_inurba_marseille","lat":43.24554,"lon":5.39514,"is_reserved":false,"is_disabled":false,"rental_uris":{"android":"levelo://app?vid=76d4ed16-8625-4a14-a5f1-d28ac2574c13","ios":"levelo://app?vid=76d4ed16-8625-4a14-a5f1-d28ac2574c13"},"vehicle_type_id":"4","last_reported":1743246430,"current_range_meters":14000,"station_id":"","pricing_plan_id":"cebpf4jnsgd1na2vs0mg"},{"bike_id":"9f50066e-01fa-4519-9f61-8109fe65f5d9","system_id":"levelo_inurba_marseille","lat":43.28606,"lon":5.37063,"is_reserved":false,"is_disabled":false,"rental_uris":{"android":"levelo://app?vid=9f50066e-01fa-4519-9f61-8109fe65f5d9","ios":"levelo://app?vid=9f50066e-01fa-4519-9f61-8109fe65f5d9"},"vehicle_type_id":"4","last_reported":1743246430,"current_range_meters":14000,"station_id":"ce4bht12rcd13ifvqi60","pricing_plan_id":"cebpf4jnsgd1na2vs0mg"},{"bike_id":"d771bbbb-7eab-4738-a715-87a6e85b50c5","system_id":"levelo_inurba_marseille","lat":43.29263,"lon":5.38429,"is_reserved":false,"is_disabled":false,"rental_uris":{"android":"levelo://app?vid=d771bbbb-7eab-4738-a715-87a6e85b50c5","ios":"levelo://app?vid=d771bbbb-7eab-4738-a715-87a6e85b50c5"},"vehicle_type_id":"4","last_reported":1743246430,"current_range_meters":14000,"station_id":"ce4bh692rcd13ifvqea0","pricing_plan_id":"cebpf4jnsgd1na2vs0mg"},{"bike_id":"5a53d0ae-485c-4888-8827-1e6d992be149","system_id":"levelo_inurba_marseille","lat":43.30656,"lon":5.40112,"is_reserved":false,"is_disabled":false,"rental_uris":{"android":"levelo://app?vid=5a53d0ae-485c-4888-8827-1e6d992be149","ios":"levelo://app?vid=5a53d0ae-485c-4888-8827-1e6d992be149"},"vehicle_type_id":"4","last_reported":1743246430,"current_range_meters":14000,"station_id":"ce4bh112rcd13ifvqda0","pricing_plan_id":"cebpf4jnsgd1na2vs0mg"},{"bike_id":"65849553-ccdd-45ad-b077-f58ee838e45e","system_id":"levelo_inurba_marseille","lat":43.28595,"lon":5.3705,"is_reserved":false,"is_disabled":false,"rental_uris":{"android":"levelo://app?vid=65849553-ccdd-45ad-b077-f58ee838e45e","ios":"levelo://app?vid=65849553-ccdd-45ad-b077-f58ee838e45e"},"vehicle_type_id":"4","last_reported":1743246430,"current_range_meters":14000,"station_id":"ce4bht12rcd13ifvqi60","pricing_plan_id":"cebpf4jnsgd1na2vs0mg"},{"bike_id":"0994bf8a-41e8-48be-b5ae-f95c99f0faa6","system_id":"levelo_inurba_marseille","lat":43.299414,"lon":5.365534,"is_reserved":false,"is_disabled":false,"rental_uris":{"android":"levelo://app?vid=0994bf8a-41e8-48be-b5ae-f95c99f0faa6","ios":"levelo://app?vid=0994bf8a-41e8-48be-b5ae-f95c99f0faa6"},"vehicle_type_id":"4","last_reported":1743246430,"current_range_meters":14000,"station_id":"ce4bgm92rcd13ifvqbr0","pricing_plan_id":"cebpf4jnsgd1na2vs0mg"},{"bike_id":"4854182c-5e3b-4312-b39b-614ebdd62b8d","system_id":"levelo_inurba_marseille","lat":43.25914,"lon":5.40881,"is_reserved":false,"is_disabled":false,"rental_uris":{"android":"levelo://app?vid=4854182c-5e3b-4312-b39b-614ebdd62b8d","ios":"levelo://app?vid=4854182c-5e3b-4312-b39b-614ebdd62b8d"},"vehicle_type_id":"4","last_reported":1743246430,"current_range_meters":14400,"station_id":"ce4bhm92rcd13ifvqglg","pricing_plan_id":"cebpf4jnsgd1na2vs0mg"},{"bike_id":"46930d78-df44-4300-8074-cc003de1bd6d","system_id":"levelo_inurba_marseille","lat":43.24182,"lon":5.39736,"is_reserved":false,"is_disabled":false,"rental_uris":{"android":"levelo://app?vid=46930d78-df44-4300-8074-cc003de1bd6d","ios":"levelo://app?vid=46930d78-df44-4300-8074-cc003de1bd6d"},"vehicle_type_id":"4","last_reported":1743246430,"current_range_meters":14400,"station_id":"ce4bhn12rcd13ifvqgpg","pricing_plan_id":"cebpf4jnsgd1na2vs0mg"},{"bike_id":"71c3492d-a7db-46c9-9ae2-64043413803e","system_id":"levelo_inurba_marseille","lat":43.24082,"lon":5.37752,"is_reserved":false,"is_disabled":false,"rental_uris":{"android":"levelo://app?vid=71c3492d-a7db-46c9-9ae2-64043413803e","ios":"levelo://app?vid=71c3492d-a7db-46c9-9ae2-64043413803e"},"vehicle_type_id":"4","last_reported":1743246430,"current_range_meters":14400,"station_id":"ce4bhnp2rcd13ifvqgvg","pricing_plan_id":"cebpf4jnsgd1na2vs0mg"},{"bike_id":"446e74dc-3599-4696-b7f8-d3d52cabeefa","system_id":"levelo_inurba_marseille","lat":43.27058,"lon":5.40254,"is_reserved":false,"is_disabled":false,"rental_uris":{"android":"levelo://app?vid=446e74dc-3599-4696-b7f8-d3d52cabeefa","ios":"levelo://app?vid=446e74dc-3599-4696-b7f8-d3d52cabeefa"},"vehicle_type_id":"4","last_reported":1743246430,"current_range_meters":14400,"station_id":"ce4bhk92rcd13ifvqgc0","pricing_plan_id":"cebpf4jnsgd1na2vs0mg"},{"bike_id":"6e5cefdc-c3a0-481c-9ece-5cd15ff06ef5","system_id":"levelo_inurba_marseille","lat":43.30191,"lon":5.36624,"is_reserved":false,"is_disabled":false,"rental_uris":{"android":"levelo://app?vid=6e5cefdc-c3a0-481c-9ece-5cd15ff06ef5","ios":"levelo://app?vid=6e5cefdc-c3a0-481c-9ece-5cd15ff06ef5"},"vehicle_type_id":"4","last_reported":1743246430,"current_range_meters":14800,"station_id":"ce4bgrh2rcd13ifvqc8g","pricing_plan_id":"cebpf4jnsgd1na2vs0mg"},{"bike_id":"939fef5b-bbd4-4de2-b4fc-b103e449f9b5","system_id":"levelo_inurba_marseille","lat":43.25389,"lon":5.4187,"is_reserved":false,"is_disabled":false,"rental_uris":{"android":"levelo://app?vid=939fef5b-bbd4-4de2-b4fc-b103e449f9b5","ios":"levelo://app?vid=939fef5b-bbd4-4de2-b4fc-b103e449f9b5"},"vehicle_type_id":"4","last_reported":1743246430,"current_range_meters":14800,"station_id":"","pricing_plan_id":"cebpf4jnsgd1na2vs0mg"},{"bike_id":"ab9337c5-cb93-4762-be36-7274dce8953f","system_id":"levelo_inurba_marseille","lat":43.32357,"lon":5.36755,"is_reserved":false,"is_disabled":false,"rental_uris":{"android":"levelo://app?vid=ab9337c5-cb93-4762-be36-7274dce8953f","ios":"levelo://app?vid=ab9337c5-cb93-4762-be36-7274dce8953f"},"vehicle_type_id":"4","last_reported":1743246430,"current_range_meters":14800,"station_id":"ce4bhsh2rcd13ifvqi2g","pricing_plan_id":"cebpf4jnsgd1na2vs0mg"},{"bike_id":"e6967797-29d0-4947-88e5-61bc42de65df","system_id":"levelo_inurba_marseille","lat":43.28615,"lon":5.35099,"is_reserved":false,"is_disabled":false,"rental_uris":{"android":"levelo://app?vid=e6967797-29d0-4947-88e5-61bc42de65df","ios":"levelo://app?vid=e6967797-29d0-4947-88e5-61bc42de65df"},"vehicle_type_id":"4","last_reported":1743246430,"current_range_meters":14800,"station_id":"ce4bhch2rcd13ifvqeug","pricing_plan_id":"cebpf4jnsgd1na2vs0mg"},{"bike_id":"5d6e1cd4-4512-4095-b585-3cec18e1a218","system_id":"levelo_inurba_marseille","lat":43.30245,"lon":5.40043,"is_reserved":false,"is_disabled":false,"rental_uris":{"android":"levelo://app?vid=5d6e1cd4-4512-4095-b585-3cec18e1a218","ios":"levelo://app?vid=5d6e1cd4-4512-4095-b585-3cec18e1a218"},"vehicle_type_id":"4","last_reported":1743246430,"current_range_meters":14400,"station_id":"ce4bgvh2rcd13ifvqcs0","pricing_plan_id":"cebpf4jnsgd1na2vs0mg"},{"bike_id":"653ea6de-a177-4007-9cfa-5f3f77e975f6","system_id":"levelo_inurba_marseille","lat":43.24795,"lon":5.37471,"is_reserved":false,"is_disabled":false,"rental_uris":{"android":"levelo://app?vid=653ea6de-a177-4007-9cfa-5f3f77e975f6","ios":"levelo://app?vid=653ea6de-a177-4007-9cfa-5f3f77e975f6"},"vehicle_type_id":"4","last_reported":1743246430,"current_range_meters":14800,"station_id":"ce4bhgh2rcd13ifvqfb0","pricing_plan_id":"cebpf4jnsgd1na2vs0mg"},{"bike_id":"717d2fa4-1491-44c7-b7cd-240cd46cc8d4","system_id":"levelo_inurba_marseille","lat":43.30538,"lon":5.36702,"is_reserved":false,"is_disabled":false,"rental_uris":{"android":"levelo://app?vid=717d2fa4-1491-44c7-b7cd-240cd46cc8d4","ios":"levelo://app?vid=717d2fa4-1491-44c7-b7cd-240cd46cc8d4"},"vehicle_type_id":"4","last_reported":1743246430,"current_range_meters":14800,"station_id":"ce4bgrp2rcd13ifvqc9g","pricing_plan_id":"cebpf4jnsgd1na2vs0mg"},{"bike_id":"8656148e-cd0c-4ee5-a81b-c79a94ec62bb","system_id":"levelo_inurba_marseille","lat":43.3089,"lon":5.39655,"is_reserved":false,"is_disabled":false,"rental_uris":{"android":"levelo://app?vid=8656148e-cd0c-4ee5-a81b-c79a94ec62bb","ios":"levelo://app?vid=8656148e-cd0c-4ee5-a81b-c79a94ec62bb"},"vehicle_type_id":"4","last_reported":1743246430,"current_range_meters":15200,"station_id":"ce4bh012rcd13ifvqcv0","pricing_plan_id":"cebpf4jnsgd1na2vs0mg"},{"bike_id":"76e25c14-d9d1-4b92-b7a8-4acf1b9d9f5c","system_id":"levelo_inurba_marseille","lat":43.29172,"lon":5.37156,"is_reserved":false,"is_disabled":false,"rental_uris":{"android":"levelo://app?vid=76e25c14-d9d1-4b92-b7a8-4acf1b9d9f5c","ios":"levelo://app?vid=76e25c14-d9d1-4b92-b7a8-4acf1b9d9f5c"},"vehicle_type_id":"4","last_reported":1743246430,"current_range_meters":15200,"station_id":"ce4bha92rcd13ifvqeh0","pricing_plan_id":"cebpf4jnsgd1na2vs0mg"},{"bike_id":"9f8ac332-33d8-4099-9134-b77103186608","system_id":"levelo_inurba_marseille","lat":43.28608,"lon":5.37065,"is_reserved":false,"is_disabled":false,"rental_uris":{"android":"levelo://app?vid=9f8ac332-33d8-4099-9134-b77103186608","ios":"levelo://app?vid=9f8ac332-33d8-4099-9134-b77103186608"},"vehicle_type_id":"4","last_reported":1743246430,"current_range_meters":15200,"station_id":"ce4bht12rcd13ifvqi60","pricing_plan_id":"cebpf4jnsgd1na2vs0mg"},{"bike_id":"1194d893-debc-41d7-b347-816267570776","system_id":"levelo_inurba_marseille","lat":43.3372,"lon":5.392,"is_reserved":false,"is_disabled":false,"rental_uris":{"android":"levelo://app?vid=1194d893-debc-41d7-b347-816267570776","ios":"levelo://app?vid=1194d893-debc-41d7-b347-816267570776"},"vehicle_type_id":"4","last_reported":1743246430,"current_range_meters":15200,"station_id":"ce4bhr92rcd13ifvqhsg","pricing_plan_id":"cebpf4jnsgd1na2vs0mg"},{"bike_id":"ac1005b0-08b8-45c9-9895-7f639bf5e17f","system_id":"levelo_inurba_marseille","lat":43.23193,"lon":5.35544,"is_reserved":false,"is_disabled":false,"rental_uris":{"android":"levelo://app?vid=ac1005b0-08b8-45c9-9895-7f639bf5e17f","ios":"levelo://app?vid=ac1005b0-08b8-45c9-9895-7f639bf5e17f"},"vehicle_type_id":"4","last_reported":1743246430,"current_range_meters":15200,"station_id":"ce4bhu92rcd13ifvqi70","pricing_plan_id":"cebpf4jnsgd1na2vs0mg"},{"bike_id":"a90d481a-7039-457f-a5b9-3dabbed904f5","system_id":"levelo_inurba_marseille","lat":43.27935,"lon":5.41042,"is_reserved":false,"is_disabled":false,"rental_uris":{"android":"levelo://app?vid=a90d481a-7039-457f-a5b9-3dabbed904f5","ios":"levelo://app?vid=a90d481a-7039-457f-a5b9-3dabbed904f5"},"vehicle_type_id":"4","last_reported":1743246430,"current_range_meters":15200,"station_id":"ce4bhnp2rcd13ifvqh0g","pricing_plan_id":"cebpf4jnsgd1na2vs0mg"},{"bike_id":"bd90bf75-9c99-4619-93c2-7a5fd83388b5","system_id":"levelo_inurba_marseille","lat":43.313603,"lon":5.388284,"is_reserved":false,"is_disabled":false,"rental_uris":{"android":"levelo://app?vid=bd90bf75-9c99-4619-93c2-7a5fd83388b5","ios":"levelo://app?vid=bd90bf75-9c99-4619-93c2-7a5fd83388b5"},"vehicle_type_id":"4","last_reported":1743246430,"current_range_meters":16000,"station_id":"ce4bgt92rcd13ifvqcf0","pricing_plan_id":"cebpf4jnsgd1na2vs0mg"},{"bike_id":"71fe3d8c-48d0-4358-901d-55546353d839","system_id":"levelo_inurba_marseille","lat":43.32359,"lon":5.38891,"is_reserved":false,"is_disabled":false,"rental_uris":{"android":"levelo://app?vid=71fe3d8c-48d0-4358-901d-55546353d839","ios":"levelo://app?vid=71fe3d8c-48d0-4358-901d-55546353d839"},"vehicle_type_id":"4","last_reported":1743246430,"current_range_meters":16000,"station_id":"ce4bhqp2rcd13ifvqhog","pricing_plan_id":"cebpf4jnsgd1na2vs0mg"},{"bike_id":"8289ed12-207c-4527-9aa9-26999cc35458","system_id":"levelo_inurba_marseille","lat":43.2319,"lon":5.35555,"is_reserved":false,"is_disabled":false,"rental_uris":{"android":"levelo://app?vid=8289ed12-207c-4527-9aa9-26999cc35458","ios":"levelo://app?vid=8289ed12-207c-4527-9aa9-26999cc35458"},"vehicle_type_id":"4","last_reported":1743246430,"current_range_meters":16000,"station_id":"ce4bhu92rcd13ifvqi70","pricing_plan_id":"cebpf4jnsgd1na2vs0mg"},{"bike_id":"342dfb8b-a2d2-4c6d-b7f4-7d64b6463ad2","system_id":"levelo_inurba_marseille","lat":43.24083,"lon":5.3776,"is_reserved":false,"is_disabled":false,"rental_uris":{"android":"levelo://app?vid=342dfb8b-a2d2-4c6d-b7f4-7d64b6463ad2","ios":"levelo://app?vid=342dfb8b-a2d2-4c6d-b7f4-7d64b6463ad2"},"vehicle_type_id":"4","last_reported":1743246430,"current_range_meters":16000,"station_id":"ce4bhnp2rcd13ifvqgvg","pricing_plan_id":"cebpf4jnsgd1na2vs0mg"},{"bike_id":"71191a27-67fa-43ed-8843-7f3af7167268","system_id":"levelo_inurba_marseille","lat":43.25119,"lon":5.40317,"is_reserved":false,"is_disabled":false,"rental_uris":{"android":"levelo://app?vid=71191a27-67fa-43ed-8843-7f3af7167268","ios":"levelo://app?vid=71191a27-67fa-43ed-8843-7f3af7167268"},"vehicle_type_id":"4","last_reported":1743246430,"current_range_meters":15200,"station_id":"ce4bhlh2rcd13ifvqgig","pricing_plan_id":"cebpf4jnsgd1na2vs0mg"},{"bike_id":"ed5a1ae2-fa61-4587-b9a2-42244092b811","system_id":"levelo_inurba_marseille","lat":43.30148,"lon":5.38109,"is_reserved":false,"is_disabled":false,"rental_uris":{"android":"levelo://app?vid=ed5a1ae2-fa61-4587-b9a2-42244092b811","ios":"levelo://app?vid=ed5a1ae2-fa61-4587-b9a2-42244092b811"},"vehicle_type_id":"4","last_reported":1743246430,"current_range_meters":16000,"station_id":"ce4bgjp2rcd13ifvqbh0","pricing_plan_id":"cebpf4jnsgd1na2vs0mg"},{"bike_id":"98579b26-9c15-4dca-8ae6-7d823c3aab07","system_id":"levelo_inurba_marseille","lat":43.29576,"lon":5.37523,"is_reserved":false,"is_disabled":false,"rental_uris":{"android":"levelo://app?vid=98579b26-9c15-4dca-8ae6-7d823c3aab07","ios":"levelo://app?vid=98579b26-9c15-4dca-8ae6-7d823c3aab07"},"vehicle_type_id":"4","last_reported":1743246430,"current_range_meters":16000,"station_id":"ce4bgh92rcd13ifvqb50","pricing_plan_id":"cebpf4jnsgd1na2vs0mg"},{"bike_id":"2a651215-29ff-4da6-821d-6aba547eb86b","system_id":"levelo_inurba_marseille","lat":43.29215,"lon":5.36061,"is_reserved":false,"is_disabled":false,"rental_uris":{"android":"levelo://app?vid=2a651215-29ff-4da6-821d-6aba547eb86b","ios":"levelo://app?vid=2a651215-29ff-4da6-821d-6aba547eb86b"},"vehicle_type_id":"4","last_reported":1743246430,"current_range_meters":16000,"station_id":"ce4bhbh2rcd13ifvqeqg","pricing_plan_id":"cebpf4jnsgd1na2vs0mg"},{"bike_id":"b3c86987-e537-4996-93a4-5a635d62488d","system_id":"levelo_inurba_marseille","lat":43.26215,"lon":5.37445,"is_reserved":false,"is_disabled":false,"rental_uris":{"android":"levelo://app?vid=b3c86987-e537-4996-93a4-5a635d62488d","ios":"levelo://app?vid=b3c86987-e537-4996-93a4-5a635d62488d"},"vehicle_type_id":"4","last_reported":1743246430,"current_range_meters":16000,"station_id":"ce4bhgp2rcd13ifvqfc0","pricing_plan_id":"cebpf4jnsgd1na2vs0mg"},{"bike_id":"8bcc045e-f28b-442a-a0af-38457b26197c","system_id":"levelo_inurba_marseille","lat":43.2416,"lon":5.36382,"is_reserved":false,"is_disabled":false,"rental_uris":{"android":"levelo://app?vid=8bcc045e-f28b-442a-a0af-38457b26197c","ios":"levelo://app?vid=8bcc045e-f28b-442a-a0af-38457b26197c"},"vehicle_type_id":"4","last_reported":1743246430,"current_range_meters":16000,"station_id":"cpo36qri1sfpv3e86is0","pricing_plan_id":"cebpf4jnsgd1na2vs0mg"},{"bike_id":"3fc690cc-514e-49af-8c16-561a3329ac3e","system_id":"levelo_inurba_marseille","lat":43.27063,"lon":5.42271,"is_reserved":false,"is_disabled":false,"rental_uris":{"android":"levelo://app?vid=3fc690cc-514e-49af-8c16-561a3329ac3e","ios":"levelo://app?vid=3fc690cc-514e-49af-8c16-561a3329ac3e"},"vehicle_type_id":"4","last_reported":1743246430,"current_range_meters":16000,"station_id":"ce4bhk92rcd13ifvqgb0","pricing_plan_id":"cebpf4jnsgd1na2vs0mg"},{"bike_id":"c4fb15b2-b6c9-4294-89c0-c7e0702ce2ad","system_id":"levelo_inurba_marseille","lat":43.2706,"lon":5.40263,"is_reserved":false,"is_disabled":false,"rental_uris":{"android":"levelo://app?vid=c4fb15b2-b6c9-4294-89c0-c7e0702ce2ad","ios":"levelo://app?vid=c4fb15b2-b6c9-4294-89c0-c7e0702ce2ad"},"vehicle_type_id":"4","last_reported":1743246430,"current_range_meters":16400,"station_id":"ce4bhk92rcd13ifvqgc0","pricing_plan_id":"cebpf4jnsgd1na2vs0mg"},{"bike_id":"01b30980-6fea-409c-a5b2-22ab52e85a66","system_id":"levelo_inurba_marseille","lat":43.292602,"lon":5.37621,"is_reserved":false,"is_disabled":false,"rental_uris":{"android":"levelo://app?vid=01b30980-6fea-409c-a5b2-22ab52e85a66","ios":"levelo://app?vid=01b30980-6fea-409c-a5b2-22ab52e85a66"},"vehicle_type_id":"4","last_reported":1743246430,"current_range_meters":16400,"station_id":"ce4bgi12rcd13ifvqb80","pricing_plan_id":"cebpf4jnsgd1na2vs0mg"},{"bike_id":"e461c282-058d-4d0e-a7d7-55427b9828bb","system_id":"levelo_inurba_marseille","lat":43.29558,"lon":5.37505,"is_reserved":false,"is_disabled":false,"rental_uris":{"android":"levelo://app?vid=e461c282-058d-4d0e-a7d7-55427b9828bb","ios":"levelo://app?vid=e461c282-058d-4d0e-a7d7-55427b9828bb"},"vehicle_type_id":"4","last_reported":1743246430,"current_range_meters":16400,"station_id":"ce4bgh92rcd13ifvqb50","pricing_plan_id":"cebpf4jnsgd1na2vs0mg"},{"bike_id":"da21a048-f5c9-4d55-9b7a-8dcd992892ce","system_id":"levelo_inurba_marseille","lat":43.30381,"lon":5.42477,"is_reserved":false,"is_disabled":true,"rental_uris":{"android":"levelo://app?vid=da21a048-f5c9-4d55-9b7a-8dcd992892ce","ios":"levelo://app?vid=da21a048-f5c9-4d55-9b7a-8dcd992892ce"},"vehicle_type_id":"4","last_reported":1743246430,"current_range_meters":16400,"station_id":"ce4bhoh2rcd13ifvqh6g","pricing_plan_id":"cebpf4jnsgd1na2vs0mg"},{"bike_id":"cccdfc50-9172-4019-9d86-2d339a3ec58f","system_id":"levelo_inurba_marseille","lat":43.24668,"lon":5.38164,"is_reserved":false,"is_disabled":false,"rental_uris":{"android":"levelo://app?vid=cccdfc50-9172-4019-9d86-2d339a3ec58f","ios":"levelo://app?vid=cccdfc50-9172-4019-9d86-2d339a3ec58f"},"vehicle_type_id":"4","last_reported":1743246430,"current_range_meters":16400,"station_id":"ce4bhih2rcd13ifvqfr0","pricing_plan_id":"cebpf4jnsgd1na2vs0mg"},{"bike_id":"5b678497-5991-4096-8590-81c26594731b","system_id":"levelo_inurba_marseille","lat":43.2815,"lon":5.42644,"is_reserved":false,"is_disabled":false,"rental_uris":{"android":"levelo://app?vid=5b678497-5991-4096-8590-81c26594731b","ios":"levelo://app?vid=5b678497-5991-4096-8590-81c26594731b"},"vehicle_type_id":"4","last_reported":1743246430,"current_range_meters":16400,"station_id":"ce4bhnh2rcd13ifvqgug","pricing_plan_id":"cebpf4jnsgd1na2vs0mg"},{"bike_id":"d724537e-d470-448f-bfa0-429e37902de0","system_id":"levelo_inurba_marseille","lat":43.28272,"lon":5.35067,"is_reserved":false,"is_disabled":false,"rental_uris":{"android":"levelo://app?vid=d724537e-d470-448f-bfa0-429e37902de0","ios":"levelo://app?vid=d724537e-d470-448f-bfa0-429e37902de0"},"vehicle_type_id":"4","last_reported":1743246430,"current_range_meters":16400,"station_id":"ce4bhbp2rcd13ifvqerg","pricing_plan_id":"cebpf4jnsgd1na2vs0mg"},{"bike_id":"ea212a2c-ebda-4fd3-87a5-afdf194e9b39","system_id":"levelo_inurba_marseille","lat":43.31577,"lon":5.3895,"is_reserved":false,"is_disabled":false,"rental_uris":{"android":"levelo://app?vid=ea212a2c-ebda-4fd3-87a5-afdf194e9b39","ios":"levelo://app?vid=ea212a2c-ebda-4fd3-87a5-afdf194e9b39"},"vehicle_type_id":"4","last_reported":1743246430,"current_range_meters":16400,"station_id":"","pricing_plan_id":"cebpf4jnsgd1na2vs0mg"},{"bike_id":"860f6837-d8af-4d01-b895-5a0420462367","system_id":"levelo_inurba_marseille","lat":43.30356,"lon":5.41877,"is_reserved":false,"is_disabled":false,"rental_uris":{"android":"levelo://app?vid=860f6837-d8af-4d01-b895-5a0420462367","ios":"levelo://app?vid=860f6837-d8af-4d01-b895-5a0420462367"},"vehicle_type_id":"4","last_reported":1743246430,"current_range_meters":16400,"station_id":"ce4bhop2rcd13ifvqh7g","pricing_plan_id":"cebpf4jnsgd1na2vs0mg"},{"bike_id":"f8feeb6c-4c74-49d7-9bbd-fe1d815b652b","system_id":"levelo_inurba_marseille","lat":43.32345,"lon":5.38873,"is_reserved":false,"is_disabled":false,"rental_uris":{"android":"levelo://app?vid=f8feeb6c-4c74-49d7-9bbd-fe1d815b652b","ios":"levelo://app?vid=f8feeb6c-4c74-49d7-9bbd-fe1d815b652b"},"vehicle_type_id":"4","last_reported":1743246430,"current_range_meters":16400,"station_id":"ce4bhqp2rcd13ifvqhog","pricing_plan_id":"cebpf4jnsgd1na2vs0mg"},{"bike_id":"6f439825-70a5-4894-95ce-4cbdbc3c0dae","system_id":"levelo_inurba_marseille","lat":43.34147,"lon":5.40894,"is_reserved":false,"is_disabled":false,"rental_uris":{"android":"levelo://app?vid=6f439825-70a5-4894-95ce-4cbdbc3c0dae","ios":"levelo://app?vid=6f439825-70a5-4894-95ce-4cbdbc3c0dae"},"vehicle_type_id":"4","last_reported":1743246430,"current_range_meters":16400,"station_id":"ce4bhqh2rcd13ifvqhlg","pricing_plan_id":"cebpf4jnsgd1na2vs0mg"},{"bike_id":"0a9ec2eb-1e79-43a5-ae4d-326ab3ba938e","system_id":"levelo_inurba_marseille","lat":43.28637,"lon":5.35098,"is_reserved":false,"is_disabled":false,"rental_uris":{"android":"levelo://app?vid=0a9ec2eb-1e79-43a5-ae4d-326ab3ba938e","ios":"levelo://app?vid=0a9ec2eb-1e79-43a5-ae4d-326ab3ba938e"},"vehicle_type_id":"4","last_reported":1743246430,"current_range_meters":16400,"station_id":"ce4bhch2rcd13ifvqeug","pricing_plan_id":"cebpf4jnsgd1na2vs0mg"},{"bike_id":"be673301-13ca-4a2c-8a99-164fbb783611","system_id":"levelo_inurba_marseille","lat":43.24079,"lon":5.37756,"is_reserved":false,"is_disabled":false,"rental_uris":{"android":"levelo://app?vid=be673301-13ca-4a2c-8a99-164fbb783611","ios":"levelo://app?vid=be673301-13ca-4a2c-8a99-164fbb783611"},"vehicle_type_id":"4","last_reported":1743246430,"current_range_meters":16400,"station_id":"ce4bhnp2rcd13ifvqgvg","pricing_plan_id":"cebpf4jnsgd1na2vs0mg"},{"bike_id":"0e9d92a7-df29-43d8-906d-2a51c6561f7d","system_id":"levelo_inurba_marseille","lat":43.28426,"lon":5.34986,"is_reserved":false,"is_disabled":false,"rental_uris":{"android":"levelo://app?vid=0e9d92a7-df29-43d8-906d-2a51c6561f7d","ios":"levelo://app?vid=0e9d92a7-df29-43d8-906d-2a51c6561f7d"},"vehicle_type_id":"4","last_reported":1743246430,"current_range_meters":16400,"station_id":"ce4bhbh2rcd13ifvqepg","pricing_plan_id":"cebpf4jnsgd1na2vs0mg"},{"bike_id":"b27b83ee-bd34-494b-878e-84f69ee4ca06","system_id":"levelo_inurba_marseille","lat":43.2995,"lon":5.36497,"is_reserved":false,"is_disabled":false,"rental_uris":{"android":"levelo://app?vid=b27b83ee-bd34-494b-878e-84f69ee4ca06","ios":"levelo://app?vid=b27b83ee-bd34-494b-878e-84f69ee4ca06"},"vehicle_type_id":"4","last_reported":1743246430,"current_range_meters":16800,"station_id":"ce4bgm92rcd13ifvqbr0","pricing_plan_id":"cebpf4jnsgd1na2vs0mg"},{"bike_id":"59359988-faf5-47a1-b5f8-d319a6e1abfa","system_id":"levelo_inurba_marseille","lat":43.284145,"lon":5.349882,"is_reserved":false,"is_disabled":false,"rental_uris":{"android":"levelo://app?vid=59359988-faf5-47a1-b5f8-d319a6e1abfa","ios":"levelo://app?vid=59359988-faf5-47a1-b5f8-d319a6e1abfa"},"vehicle_type_id":"4","last_reported":1743246430,"current_range_meters":16800,"station_id":"ce4bhbh2rcd13ifvqepg","pricing_plan_id":"cebpf4jnsgd1na2vs0mg"},{"bike_id":"936627ce-2d98-4b08-be4d-c8b4627e7825","system_id":"levelo_inurba_marseille","lat":43.28038,"lon":5.36949,"is_reserved":false,"is_disabled":false,"rental_uris":{"android":"levelo://app?vid=936627ce-2d98-4b08-be4d-c8b4627e7825","ios":"levelo://app?vid=936627ce-2d98-4b08-be4d-c8b4627e7825"},"vehicle_type_id":"4","last_reported":1743246430,"current_range_meters":16800,"station_id":"ce4bha12rcd13ifvqef0","pricing_plan_id":"cebpf4jnsgd1na2vs0mg"},{"bike_id":"7fcdb0f9-3334-43bd-bbaa-eef4e1209a76","system_id":"levelo_inurba_marseille","lat":43.30327,"lon":5.40451,"is_reserved":false,"is_disabled":false,"rental_uris":{"android":"levelo://app?vid=7fcdb0f9-3334-43bd-bbaa-eef4e1209a76","ios":"levelo://app?vid=7fcdb0f9-3334-43bd-bbaa-eef4e1209a76"},"vehicle_type_id":"4","last_reported":1743246430,"current_range_meters":16800,"station_id":"ce4bh012rcd13ifvqd10","pricing_plan_id":"cebpf4jnsgd1na2vs0mg"},{"bike_id":"0a054900-ac8c-4b77-a7f1-aac9c1d65319","system_id":"levelo_inurba_marseille","lat":43.22897,"lon":5.35351,"is_reserved":false,"is_disabled":false,"rental_uris":{"android":"levelo://app?vid=0a054900-ac8c-4b77-a7f1-aac9c1d65319","ios":"levelo://app?vid=0a054900-ac8c-4b77-a7f1-aac9c1d65319"},"vehicle_type_id":"4","last_reported":1743246430,"current_range_meters":16800,"station_id":"cpo3532slgdg3j2ikp40","pricing_plan_id":"cebpf4jnsgd1na2vs0mg"},{"bike_id":"6ef18dd7-1cb9-4ef6-bfdd-052cde57f183","system_id":"levelo_inurba_marseille","lat":43.32103,"lon":5.3678,"is_reserved":false,"is_disabled":false,"rental_uris":{"android":"levelo://app?vid=6ef18dd7-1cb9-4ef6-bfdd-052cde57f183","ios":"levelo://app?vid=6ef18dd7-1cb9-4ef6-bfdd-052cde57f183"},"vehicle_type_id":"4","last_reported":1743246430,"current_range_meters":16800,"station_id":"ce4bhrh2rcd13ifvqhug","pricing_plan_id":"cebpf4jnsgd1na2vs0mg"},{"bike_id":"275bc6b6-1772-4183-a522-de0f246b39c2","system_id":"levelo_inurba_marseille","lat":43.31539,"lon":5.38807,"is_reserved":false,"is_disabled":false,"rental_uris":{"android":"levelo://app?vid=275bc6b6-1772-4183-a522-de0f246b39c2","ios":"levelo://app?vid=275bc6b6-1772-4183-a522-de0f246b39c2"},"vehicle_type_id":"4","last_reported":1743246430,"current_range_meters":17200,"station_id":"","pricing_plan_id":"cebpf4jnsgd1na2vs0mg"},{"bike_id":"57574d51-3863-4dfd-a480-3fb0acc908a0","system_id":"levelo_inurba_marseille","lat":43.28624,"lon":5.35102,"is_reserved":false,"is_disabled":false,"rental_uris":{"android":"levelo://app?vid=57574d51-3863-4dfd-a480-3fb0acc908a0","ios":"levelo://app?vid=57574d51-3863-4dfd-a480-3fb0acc908a0"},"vehicle_type_id":"4","last_reported":1743246430,"current_range_meters":17200,"station_id":"ce4bhch2rcd13ifvqeug","pricing_plan_id":"cebpf4jnsgd1na2vs0mg"},{"bike_id":"9f56b330-c65d-46b8-9104-d4c1f94fc7f0","system_id":"levelo_inurba_marseille","lat":43.27422,"lon":5.39398,"is_reserved":false,"is_disabled":false,"rental_uris":{"android":"levelo://app?vid=9f56b330-c65d-46b8-9104-d4c1f94fc7f0","ios":"levelo://app?vid=9f56b330-c65d-46b8-9104-d4c1f94fc7f0"},"vehicle_type_id":"4","last_reported":1743246430,"current_range_meters":17200,"station_id":"ce4bhdp2rcd13ifvqf20","pricing_plan_id":"cebpf4jnsgd1na2vs0mg"},{"bike_id":"54515fce-857a-4325-921e-50ff9fda8271","system_id":"levelo_inurba_marseille","lat":43.295403,"lon":5.39422,"is_reserved":false,"is_disabled":false,"rental_uris":{"android":"levelo://app?vid=54515fce-857a-4325-921e-50ff9fda8271","ios":"levelo://app?vid=54515fce-857a-4325-921e-50ff9fda8271"},"vehicle_type_id":"4","last_reported":1743246430,"current_range_meters":16800,"station_id":"ce4bh392rcd13ifvqdl0","pricing_plan_id":"cebpf4jnsgd1na2vs0mg"},{"bike_id":"5b95f651-4d72-4a47-a293-dc61d01d6b28","system_id":"levelo_inurba_marseille","lat":43.25581,"lon":5.38237,"is_reserved":false,"is_disabled":false,"rental_uris":{"android":"levelo://app?vid=5b95f651-4d72-4a47-a293-dc61d01d6b28","ios":"levelo://app?vid=5b95f651-4d72-4a47-a293-dc61d01d6b28"},"vehicle_type_id":"4","last_reported":1743246430,"current_range_meters":17200,"station_id":"ce4bhih2rcd13ifvqfs0","pricing_plan_id":"cebpf4jnsgd1na2vs0mg"},{"bike_id":"0757cf3f-539b-4b03-8952-cdc7af88e624","system_id":"levelo_inurba_marseille","lat":43.29304,"lon":5.37171,"is_reserved":false,"is_disabled":false,"rental_uris":{"android":"levelo://app?vid=0757cf3f-539b-4b03-8952-cdc7af88e624","ios":"levelo://app?vid=0757cf3f-539b-4b03-8952-cdc7af88e624"},"vehicle_type_id":"4","last_reported":1743246430,"current_range_meters":17200,"station_id":"ce4bgh92rcd13ifvqb40","pricing_plan_id":"cebpf4jnsgd1na2vs0mg"},{"bike_id":"72489482-6a46-4ece-9ae9-e6f174de3361","system_id":"levelo_inurba_marseille","lat":43.28932,"lon":5.38404,"is_reserved":false,"is_disabled":false,"rental_uris":{"android":"levelo://app?vid=72489482-6a46-4ece-9ae9-e6f174de3361","ios":"levelo://app?vid=72489482-6a46-4ece-9ae9-e6f174de3361"},"vehicle_type_id":"4","last_reported":1743246430,"current_range_meters":17600,"station_id":"ce4bh612rcd13ifvqe6g","pricing_plan_id":"cebpf4jnsgd1na2vs0mg"},{"bike_id":"9805d1d8-e29e-42a0-9d63-f8bc2aea07c1","system_id":"levelo_inurba_marseille","lat":43.2922,"lon":5.36048,"is_reserved":false,"is_disabled":false,"rental_uris":{"android":"levelo://app?vid=9805d1d8-e29e-42a0-9d63-f8bc2aea07c1","ios":"levelo://app?vid=9805d1d8-e29e-42a0-9d63-f8bc2aea07c1"},"vehicle_type_id":"4","last_reported":1743246430,"current_range_meters":17600,"station_id":"ce4bhbh2rcd13ifvqeqg","pricing_plan_id":"cebpf4jnsgd1na2vs0mg"},{"bike_id":"8b2d202f-3842-485f-9c17-2d065d94f070","system_id":"levelo_inurba_marseille","lat":43.30541,"lon":5.38422,"is_reserved":false,"is_disabled":false,"rental_uris":{"android":"levelo://app?vid=8b2d202f-3842-485f-9c17-2d065d94f070","ios":"levelo://app?vid=8b2d202f-3842-485f-9c17-2d065d94f070"},"vehicle_type_id":"4","last_reported":1743246430,"current_range_meters":17600,"station_id":"ce4bgg92rcd13ifvqb30","pricing_plan_id":"cebpf4jnsgd1na2vs0mg"},{"bike_id":"86983360-6030-4547-8008-40afede7d3a7","system_id":"levelo_inurba_marseille","lat":43.29625,"lon":5.37706,"is_reserved":false,"is_disabled":false,"rental_uris":{"android":"levelo://app?vid=86983360-6030-4547-8008-40afede7d3a7","ios":"levelo://app?vid=86983360-6030-4547-8008-40afede7d3a7"},"vehicle_type_id":"4","last_reported":1743246430,"current_range_meters":17600,"station_id":"ce4bgi92rcd13ifvqb90","pricing_plan_id":"cebpf4jnsgd1na2vs0mg"},{"bike_id":"fd0c68ce-15c9-49db-828e-64b63c838dcd","system_id":"levelo_inurba_marseille","lat":43.30146,"lon":5.38109,"is_reserved":false,"is_disabled":false,"rental_uris":{"android":"levelo://app?vid=fd0c68ce-15c9-49db-828e-64b63c838dcd","ios":"levelo://app?vid=fd0c68ce-15c9-49db-828e-64b63c838dcd"},"vehicle_type_id":"4","last_reported":1743246430,"current_range_meters":17600,"station_id":"ce4bgjp2rcd13ifvqbh0","pricing_plan_id":"cebpf4jnsgd1na2vs0mg"},{"bike_id":"e88d5bbc-8b62-40d5-bc9b-9d4a296807d4","system_id":"levelo_inurba_marseille","lat":43.29003,"lon":5.35613,"is_reserved":false,"is_disabled":false,"rental_uris":{"android":"levelo://app?vid=e88d5bbc-8b62-40d5-bc9b-9d4a296807d4","ios":"levelo://app?vid=e88d5bbc-8b62-40d5-bc9b-9d4a296807d4"},"vehicle_type_id":"4","last_reported":1743246430,"current_range_meters":18000,"station_id":"ce4bhb92rcd13ifvqen0","pricing_plan_id":"cebpf4jnsgd1na2vs0mg"},{"bike_id":"76859129-4009-4843-90a4-dc4d2b65271a","system_id":"levelo_inurba_marseille","lat":43.24172,"lon":5.36417,"is_reserved":false,"is_disabled":false,"rental_uris":{"android":"levelo://app?vid=76859129-4009-4843-90a4-dc4d2b65271a","ios":"levelo://app?vid=76859129-4009-4843-90a4-dc4d2b65271a"},"vehicle_type_id":"4","last_reported":1743246430,"current_range_meters":18000,"station_id":"cpo36qri1sfpv3e86is0","pricing_plan_id":"cebpf4jnsgd1na2vs0mg"},{"bike_id":"8800990b-0588-4701-9f9b-d00ff201f1bf","system_id":"levelo_inurba_marseille","lat":43.31776,"lon":5.39031,"is_reserved":false,"is_disabled":false,"rental_uris":{"android":"levelo://app?vid=8800990b-0588-4701-9f9b-d00ff201f1bf","ios":"levelo://app?vid=8800990b-0588-4701-9f9b-d00ff201f1bf"},"vehicle_type_id":"4","last_reported":1743246430,"current_range_meters":18000,"station_id":"ce4bhqp2rcd13ifvqhng","pricing_plan_id":"cebpf4jnsgd1na2vs0mg"},{"bike_id":"3ec698cd-de7e-43e4-abfe-9cb6c63c0b7b","system_id":"levelo_inurba_marseille","lat":43.23966,"lon":5.366247,"is_reserved":false,"is_disabled":false,"rental_uris":{"android":"levelo://app?vid=3ec698cd-de7e-43e4-abfe-9cb6c63c0b7b","ios":"levelo://app?vid=3ec698cd-de7e-43e4-abfe-9cb6c63c0b7b"},"vehicle_type_id":"4","last_reported":1743246430,"current_range_meters":18000,"station_id":"ce4bhi12rcd13ifvqfp0","pricing_plan_id":"cebpf4jnsgd1na2vs0mg"},{"bike_id":"e8b84388-8991-4c9f-8e03-5fdc68601c5e","system_id":"levelo_inurba_marseille","lat":43.27565,"lon":5.38423,"is_reserved":false,"is_disabled":false,"rental_uris":{"android":"levelo://app?vid=e8b84388-8991-4c9f-8e03-5fdc68601c5e","ios":"levelo://app?vid=e8b84388-8991-4c9f-8e03-5fdc68601c5e"},"vehicle_type_id":"4","last_reported":1743246430,"current_range_meters":18000,"station_id":"ce4bhh92rcd13ifvqfi0","pricing_plan_id":"cebpf4jnsgd1na2vs0mg"},{"bike_id":"d8f58a2a-3c84-4b3a-83fe-90a870a3a96e","system_id":"levelo_inurba_marseille","lat":43.27058,"lon":5.40263,"is_reserved":false,"is_disabled":false,"rental_uris":{"android":"levelo://app?vid=d8f58a2a-3c84-4b3a-83fe-90a870a3a96e","ios":"levelo://app?vid=d8f58a2a-3c84-4b3a-83fe-90a870a3a96e"},"vehicle_type_id":"4","last_reported":1743246430,"current_range_meters":18000,"station_id":"ce4bhk92rcd13ifvqgc0","pricing_plan_id":"cebpf4jnsgd1na2vs0mg"},{"bike_id":"0c5484cf-3222-4c0f-9222-fb8a05d18a6c","system_id":"levelo_inurba_marseille","lat":43.296,"lon":5.38089,"is_reserved":false,"is_disabled":false,"rental_uris":{"android":"levelo://app?vid=0c5484cf-3222-4c0f-9222-fb8a05d18a6c","ios":"levelo://app?vid=0c5484cf-3222-4c0f-9222-fb8a05d18a6c"},"vehicle_type_id":"4","last_reported":1743246430,"current_range_meters":18000,"station_id":"ce4bgl12rcd13ifvqbo0","pricing_plan_id":"cebpf4jnsgd1na2vs0mg"},{"bike_id":"1959cc84-d2d5-4b16-bac3-c017c27eb3d7","system_id":"levelo_inurba_marseille","lat":43.32349,"lon":5.36739,"is_reserved":false,"is_disabled":false,"rental_uris":{"android":"levelo://app?vid=1959cc84-d2d5-4b16-bac3-c017c27eb3d7","ios":"levelo://app?vid=1959cc84-d2d5-4b16-bac3-c017c27eb3d7"},"vehicle_type_id":"4","last_reported":1743246430,"current_range_meters":18800,"station_id":"ce4bhsh2rcd13ifvqi2g","pricing_plan_id":"cebpf4jnsgd1na2vs0mg"},{"bike_id":"ba10d81e-d971-4de8-a62f-4294a16a2230","system_id":"levelo_inurba_marseille","lat":43.31994,"lon":5.38144,"is_reserved":false,"is_disabled":false,"rental_uris":{"android":"levelo://app?vid=ba10d81e-d971-4de8-a62f-4294a16a2230","ios":"levelo://app?vid=ba10d81e-d971-4de8-a62f-4294a16a2230"},"vehicle_type_id":"4","last_reported":1743246430,"current_range_meters":18800,"station_id":"ce4bhr12rcd13ifvqhpg","pricing_plan_id":"cebpf4jnsgd1na2vs0mg"},{"bike_id":"ccc6c96d-a261-4484-8714-a66d774b5a25","system_id":"levelo_inurba_marseille","lat":43.31276,"lon":5.401807,"is_reserved":false,"is_disabled":false,"rental_uris":{"android":"levelo://app?vid=ccc6c96d-a261-4484-8714-a66d774b5a25","ios":"levelo://app?vid=ccc6c96d-a261-4484-8714-a66d774b5a25"},"vehicle_type_id":"4","last_reported":1743246430,"current_range_meters":18800,"station_id":"ce4bh092rcd13ifvqd30","pricing_plan_id":"cebpf4jnsgd1na2vs0mg"},{"bike_id":"d2bdab8d-508c-4617-a487-d6f2ad6bec6a","system_id":"levelo_inurba_marseille","lat":43.28632,"lon":5.35109,"is_reserved":false,"is_disabled":false,"rental_uris":{"android":"levelo://app?vid=d2bdab8d-508c-4617-a487-d6f2ad6bec6a","ios":"levelo://app?vid=d2bdab8d-508c-4617-a487-d6f2ad6bec6a"},"vehicle_type_id":"4","last_reported":1743246430,"current_range_meters":18800,"station_id":"ce4bhch2rcd13ifvqeug","pricing_plan_id":"cebpf4jnsgd1na2vs0mg"},{"bike_id":"c2e94277-389b-4482-ae7e-0f90e44fa1e2","system_id":"levelo_inurba_marseille","lat":43.32133,"lon":5.3676,"is_reserved":false,"is_disabled":false,"rental_uris":{"android":"levelo://app?vid=c2e94277-389b-4482-ae7e-0f90e44fa1e2","ios":"levelo://app?vid=c2e94277-389b-4482-ae7e-0f90e44fa1e2"},"vehicle_type_id":"4","last_reported":1743246430,"current_range_meters":18800,"station_id":"ce4bhrh2rcd13ifvqhug","pricing_plan_id":"cebpf4jnsgd1na2vs0mg"},{"bike_id":"97c1220e-f5ad-4c82-bf88-230bc2ad41f8","system_id":"levelo_inurba_marseille","lat":43.28844,"lon":5.35842,"is_reserved":false,"is_disabled":false,"rental_uris":{"android":"levelo://app?vid=97c1220e-f5ad-4c82-bf88-230bc2ad41f8","ios":"levelo://app?vid=97c1220e-f5ad-4c82-bf88-230bc2ad41f8"},"vehicle_type_id":"4","last_reported":1743246430,"current_range_meters":18800,"station_id":"ce4bhb12rcd13ifvqem0","pricing_plan_id":"cebpf4jnsgd1na2vs0mg"},{"bike_id":"2ce059fe-0226-4810-8898-f81ce47c5d0f","system_id":"levelo_inurba_marseille","lat":43.29059,"lon":5.35973,"is_reserved":false,"is_disabled":true,"rental_uris":{"android":"levelo://app?vid=2ce059fe-0226-4810-8898-f81ce47c5d0f","ios":"levelo://app?vid=2ce059fe-0226-4810-8898-f81ce47c5d0f"},"vehicle_type_id":"4","last_reported":1743246430,"current_range_meters":18800,"station_id":"ce4bha92rcd13ifvqeg0","pricing_plan_id":"cebpf4jnsgd1na2vs0mg"},{"bike_id":"3c923253-0a0b-4c75-a63a-cdc1218da2bb","system_id":"levelo_inurba_marseille","lat":43.29598,"lon":5.37744,"is_reserved":false,"is_disabled":false,"rental_uris":{"android":"levelo://app?vid=3c923253-0a0b-4c75-a63a-cdc1218da2bb","ios":"levelo://app?vid=3c923253-0a0b-4c75-a63a-cdc1218da2bb"},"vehicle_type_id":"4","last_reported":1743246430,"current_range_meters":18800,"station_id":"ce4bgi92rcd13ifvqb90","pricing_plan_id":"cebpf4jnsgd1na2vs0mg"},