{"last_updated":1732367804,"ttl":60,"version":"2.2","data":{"bikes":[{"bike_id":"154da856-6b57-4f93-99e3-44191cbbb014","system_id":"levelo_inurba_marseille","lat":43.29201,"lon":5.39327,"is_reserved":false,"is_disabled":false,"rental_uris":{"android":"levelo://app?vid=154da856-6b57-4f93-99e3-44191cbbb014","ios":"levelo://app?vid=154da856-6b57-4f93-99e3-44191cbbb014"},"vehicle_type_id":"4","last_reported":1732367804,"current_range_meters":2800,"station_id":"ce4bh192rcd13ifvqdd0","pricing_plan_id":"cebpf4jnsgd1na2vs0mg"},{"bike_id":"59650fac-19ec-4b99-8496-ef09a9ad2761","system_id":"levelo_inurba_marseille","lat":43.26929,"lon":5.3892,"is_reserved":false,"is_disabled":false,"rental_uris":{"android":"levelo://app?vid=59650fac-19ec-4b99-8496-ef09a9ad2761","ios":"levelo://app?vid=59650fac-19ec-4b99-8496-ef09a9ad2761"},"vehicle_type_id":"4","last_reported":1732367804,"current_range_meters":28800,"station_id":"ce4bhhh2rcd13ifvqfl0","pricing_plan_id":"cebpf4jnsgd1na2vs0mg"},{"bike_id":"098ef2c5-51ae-46a9-96d9-8bb6ff23be9e","system_id":"levelo_inurba_marseille","lat":43.29528,"lon":5.38548,"is_reserved":false,"is_disabled":false,"rental_uris":{"android":"levelo://app?vid=098ef2c5-51ae-46a9-96d9-8bb6ff23be9e","ios":"levelo://app?vid=098ef2c5-51ae-46a9-96d9-8bb6ff23be9e"},"vehicle_type_id":"4","last_reported":1732367804,"current_range_meters":24000,"station_id":"ce4bgih2rcd13ifvqba0","pricing_plan_id":"cebpf4jnsgd1na2vs0mg"},{"bike_id":"b8dbbfe5-996d-4a1b-aae8-d83b3b315d08","system_id":"levelo_inurba_marseille","lat":43.31084,"lon":5.42429,"is_reserved":false,"is_disabled":true,"rental_uris":{"android":"levelo://app?vid=b8dbbfe5-996d-4a1b-aae8-d83b3b315d08","ios":"levelo://app?vid=b8dbbfe5-996d-4a1b-aae8-d83b3b315d08"},"vehicle_type_id":"4","last_reported":1732367804,"current_range_meters":0,"station_id":"ce4bhp92rcd13ifvqhag","pricing_plan_id":"cebpf4jnsgd1na2vs0mg"},{"bike_id":"ac10654d-2ec7-40fe-ab44-0840abdc5133","system_id":"levelo_inurba_marseille","lat":43.29576,"lon":5.36733,"is_reserved":false,"is_disabled":false,"rental_uris":{"android":"levelo://app?vid=ac10654d-2ec7-40fe-ab44-0840abdc5133","ios":"levelo://app?vid=ac10654d-2ec7-40fe-ab44-0840abdc5133"},"vehicle_type_id":"4","last_reported":1732367804,"current_range_meters":13600,"station_id":"ce4bgph2rcd13ifvqc2g","pricing_plan_id":"cebpf4jnsgd1na2vs0mg"},{"bike_id":"5fd683e1-4200-427d-b022-85d61b63da51","system_id":"levelo_inurba_marseille","lat":43.29564,"lon":5.37501,"is_reserved":false,"is_disabled":false,"rental_uris":{"android":"levelo://app?vid=5fd683e1-4200-427d-b022-85d61b63da51","ios":"levelo://app?vid=5fd683e1-4200-427d-b022-85d61b63da51"},"vehicle_type_id":"4","last_reported":1732367804,"current_range_meters":37600,"station_id":"ce4bgh92rcd13ifvqb50","pricing_plan_id":"cebpf4jnsgd1na2vs0mg"},{"bike_id":"ddff9828-29ce-43eb-8c9e-3b5142b59947","system_id":"levelo_inurba_marseille","lat":43.2963,"lon":5.406,"is_reserved":false,"is_disabled":true,"rental_uris":{"android":"levelo://app?vid=ddff9828-29ce-43eb-8c9e-3b5142b59947","ios":"levelo://app?vid=ddff9828-29ce-43eb-8c9e-3b5142b59947"},"vehicle_type_id":"4","last_reported":1732367804,"current_range_meters":1200,"station_id":"ce4bh0h2rcd13ifvqd60","pricing_plan_id":"cebpf4jnsgd1na2vs0mg"},{"bike_id":"797a1324-b92a-421d-a709-b337532c4ebd","system_id":"levelo_inurba_marseille","lat":43.29618,"lon":5.37157,"is_reserved":false,"is_disabled":false,"rental_uris":{"android":"levelo://app?vid=797a1324-b92a-421d-a709-b337532c4ebd","ios":"levelo://app?vid=797a1324-b92a-421d-a709-b337532c4ebd"},"vehicle_type_id":"4","last_reported":1732367804,"current_range_meters":28800,"station_id":"ce4bgnh2rcd13ifvqc0g","pricing_plan_id":"cebpf4jnsgd1na2vs0mg"},{"bike_id":"9e38786f-f502-4c1c-9428-59d535da9860","system_id":"levelo_inurba_marseille","lat":43.27609,"lon":5.36109,"is_reserved":false,"is_disabled":true,"rental_uris":{"android":"levelo://app?vid=9e38786f-f502-4c1c-9428-59d535da9860","ios":"levelo://app?vid=9e38786f-f502-4c1c-9428-59d535da9860"},"vehicle_type_id":"4","last_reported":1732367804,"current_range_meters":0,"station_id":"ce4bgj92rcd13ifvqbe0","pricing_plan_id":"cebpf4jnsgd1na2vs0mg"},{"bike_id":"8a121b48-1f5b-4c33-b9ca-47a97d05b778","system_id":"levelo_inurba_marseille","lat":43.32481,"lon":5.365526,"is_reserved":false,"is_disabled":false,"rental_uris":{"android":"levelo://app?vid=8a121b48-1f5b-4c33-b9ca-47a97d05b778","ios":"levelo://app?vid=8a121b48-1f5b-4c33-b9ca-47a97d05b778"},"vehicle_type_id":"4","last_reported":1732367804,"current_range_meters":10000,"station_id":"ce4bhs12rcd13ifvqhvg","pricing_plan_id":"cebpf4jnsgd1na2vs0mg"},{"bike_id":"4441f99d-07ad-49b5-a5b6-5cb62c19fe38","system_id":"levelo_inurba_marseille","lat":43.29565,"lon":5.3751,"is_reserved":false,"is_disabled":false,"rental_uris":{"android":"levelo://app?vid=4441f99d-07ad-49b5-a5b6-5cb62c19fe38","ios":"levelo://app?vid=4441f99d-07ad-49b5-a5b6-5cb62c19fe38"},"vehicle_type_id":"4","last_reported":1732367804,"current_range_meters":38800,"station_id":"ce4bgh92rcd13ifvqb50","pricing_plan_id":"cebpf4jnsgd1na2vs0mg"},{"bike_id":"ec2cdb1e-f102-4107-ac7e-abc6434d77b5","system_id":"levelo_inurba_marseille","lat":43.28927,"lon":5.38408,"is_reserved":false,"is_disabled":false,"rental_uris":{"android":"levelo://app?vid=ec2cdb1e-f102-4107-ac7e-abc6434d77b5","ios":"levelo://app?vid=ec2cdb1e-f102-4107-ac7e-abc6434d77b5"},"vehicle_type_id":"4","last_reported":1732367804,"current_range_meters":19200,"station_id":"ce4bh612rcd13ifvqe6g","pricing_plan_id":"cebpf4jnsgd1na2vs0mg"},{"bike_id":"29eb6871-2e19-4376-8c44-442b8698a4b1","system_id":"levelo_inurba_marseille","lat":43.29263,"lon":5.38441,"is_reserved":false,"is_disabled":false,"rental_uris":{"android":"levelo://app?vid=29eb6871-2e19-4376-8c44-442b8698a4b1","ios":"levelo://app?vid=29eb6871-2e19-4376-8c44-442b8698a4b1"},"vehicle_type_id":"4","last_reported":1732367804,"current_range_meters":34000,"station_id":"ce4bh692rcd13ifvqea0","pricing_plan_id":"cebpf4jnsgd1na2vs0mg"},{"bike_id":"566a6257-3459-4e08-bba6-79633ce5e103","system_id":"levelo_inurba_marseille","lat":43.28348,"lon":5.38097,"is_reserved":false,"is_disabled":true,"rental_uris":{"android":"levelo://app?vid=566a6257-3459-4e08-bba6-79633ce5e103","ios":"levelo://app?vid=566a6257-3459-4e08-bba6-79633ce5e103"},"vehicle_type_id":"4","last_reported":1732367804,"current_range_meters":4000,"station_id":"ce4bh412rcd13ifvqdr0","pricing_plan_id":"cebpf4jnsgd1na2vs0mg"},{"bike_id":"aa42da89-8117-4284-b8b3-026d1d9dbf7e","system_id":"levelo_inurba_marseille","lat":43.28492,"lon":5.38572,"is_reserved":false,"is_disabled":false,"rental_uris":{"android":"levelo://app?vid=aa42da89-8117-4284-b8b3-026d1d9dbf7e","ios":"levelo://app?vid=aa42da89-8117-4284-b8b3-026d1d9dbf7e"},"vehicle_type_id":"4","last_reported":1732367804,"current_range_meters":26800,"station_id":"ce4bh8p2rcd13ifvqeb0","pricing_plan_id":"cebpf4jnsgd1na2vs0mg"},{"bike_id":"d3a939c1-c073-43b5-a24f-f191fd9ab4ab","system_id":"levelo_inurba_marseille","lat":43.26193,"lon":5.37457,"is_reserved":false,"is_disabled":false,"rental_uris":{"android":"levelo://app?vid=d3a939c1-c073-43b5-a24f-f191fd9ab4ab","ios":"levelo://app?vid=d3a939c1-c073-43b5-a24f-f191fd9ab4ab"},"vehicle_type_id":"4","last_reported":1732367804,"current_range_meters":36800,"station_id":"ce4bhgp2rcd13ifvqfc0","pricing_plan_id":"cebpf4jnsgd1na2vs0mg"},{"bike_id":"92aca063-e395-402a-a362-69eb5641c33c","system_id":"levelo_inurba_marseille","lat":43.28612,"lon":5.35102,"is_reserved":false,"is_disabled":false,"rental_uris":{"android":"levelo://app?vid=92aca063-e395-402a-a362-69eb5641c33c","ios":"levelo://app?vid=92aca063-e395-402a-a362-69eb5641c33c"},"vehicle_type_id":"4","last_reported":1732367804,"current_range_meters":38800,"station_id":"ce4bhch2rcd13ifvqeug","pricing_plan_id":"cebpf4jnsgd1na2vs0mg"},{"bike_id":"1bf3df05-5514-495e-9d6c-74f52d417820","system_id":"levelo_inurba_marseille","lat":43.25868,"lon":5.39902,"is_reserved":false,"is_disabled":false,"rental_uris":{"android":"levelo://app?vid=1bf3df05-5514-495e-9d6c-74f52d417820","ios":"levelo://app?vid=1bf3df05-5514-495e-9d6c-74f52d417820"},"vehicle_type_id":"4","last_reported":1732367804,"current_range_meters":38800,"station_id":"ce4bhl92rcd13ifvqghg","pricing_plan_id":"cebpf4jnsgd1na2vs0mg"},{"bike_id":"7ed373fa-e29c-4ceb-b4cf-b4727f191d71","system_id":"levelo_inurba_marseille","lat":43.29849,"lon":5.36285,"is_reserved":false,"is_disabled":false,"rental_uris":{"android":"levelo://app?vid=7ed373fa-e29c-4ceb-b4cf-b4727f191d71","ios":"levelo://app?vid=7ed373fa-e29c-4ceb-b4cf-b4727f191d71"},"vehicle_type_id":"4","last_reported":1732367804,"current_range_meters":38800,"station_id":"ce4bgpp2rcd13ifvqc3g","pricing_plan_id":"cebpf4jnsgd1na2vs0mg"},{"bike_id":"561692a1-369c-4ac8-a04a-5193554f2e90","system_id":"levelo_inurba_marseille","lat":43.3211,"lon":5.36773,"is_reserved":false,"is_disabled":false,"rental_uris":{"android":"levelo://app?vid=561692a1-369c-4ac8-a04a-5193554f2e90","ios":"levelo://app?vid=561692a1-369c-4ac8-a04a-5193554f2e90"},"vehicle_type_id":"4","last_reported":1732367804,"current_range_meters":26000,"station_id":"ce4bhrh2rcd13ifvqhug","pricing_plan_id":"cebpf4jnsgd1na2vs0mg"},{"bike_id":"a3dfa29f-d880-4cbe-b909-b4e217158e03","system_id":"levelo_inurba_marseille","lat":43.27175,"lon":5.40996,"is_reserved":false,"is_disabled":false,"rental_uris":{"android":"levelo://app?vid=a3dfa29f-d880-4cbe-b909-b4e217158e03","ios":"levelo://app?vid=a3dfa29f-d880-4cbe-b909-b4e217158e03"},"vehicle_type_id":"4","last_reported":1732367804,"current_range_meters":34000,"station_id":"ce4bhl12rcd13ifvqgf0","pricing_plan_id":"cebpf4jnsgd1na2vs0mg"},{"bike_id":"84e9b51c-e9db-46c6-8adc-548b6f6fb7bb","system_id":"levelo_inurba_marseille","lat":43.23192,"lon":5.35556,"is_reserved":false,"is_disabled":true,"rental_uris":{"android":"levelo://app?vid=84e9b51c-e9db-46c6-8adc-548b6f6fb7bb","ios":"levelo://app?vid=84e9b51c-e9db-46c6-8adc-548b6f6fb7bb"},"vehicle_type_id":"4","last_reported":1732367804,"current_range_meters":0,"station_id":"ce4bhu92rcd13ifvqi70","pricing_plan_id":"cebpf4jnsgd1na2vs0mg"},{"bike_id":"820066a6-584d-4591-90de-c8b8c4c11607","system_id":"levelo_inurba_marseille","lat":43.29721,"lon":5.37687,"is_reserved":false,"is_disabled":false,"rental_uris":{"android":"levelo://app?vid=820066a6-584d-4591-90de-c8b8c4c11607","ios":"levelo://app?vid=820066a6-584d-4591-90de-c8b8c4c11607"},"vehicle_type_id":"4","last_reported":1732367804,"current_range_meters":23200,"station_id":"ce4bgkh2rcd13ifvqbl0","pricing_plan_id":"cebpf4jnsgd1na2vs0mg"},{"bike_id":"b14625c4-4963-492d-a490-d30b19465ca3","system_id":"levelo_inurba_marseille","lat":43.29522,"lon":5.37508,"is_reserved":false,"is_disabled":false,"rental_uris":{"android":"levelo://app?vid=b14625c4-4963-492d-a490-d30b19465ca3","ios":"levelo://app?vid=b14625c4-4963-492d-a490-d30b19465ca3"},"vehicle_type_id":"4","last_reported":1732367804,"current_range_meters":39200,"station_id":"ce4bgkp2rcd13ifvqbmg","pricing_plan_id":"cebpf4jnsgd1na2vs0mg"},{"bike_id":"ae22a332-da36-4807-a05e-264d328761ce","system_id":"levelo_inurba_marseille","lat":43.317067,"lon":5.377427,"is_reserved":false,"is_disabled":false,"rental_uris":{"android":"levelo://app?vid=ae22a332-da36-4807-a05e-264d328761ce","ios":"levelo://app?vid=ae22a332-da36-4807-a05e-264d328761ce"},"vehicle_type_id":"4","last_reported":1732367804,"current_range_meters":23200,"station_id":"ce4bgth2rcd13ifvqch0","pricing_plan_id":"cebpf4jnsgd1na2vs0mg"},{"bike_id":"5c3000a0-a190-4007-a723-aa2707fd1ce3","system_id":"levelo_inurba_marseille","lat":43.22944,"lon":5.35401,"is_reserved":false,"is_disabled":false,"rental_uris":{"android":"levelo://app?vid=5c3000a0-a190-4007-a723-aa2707fd1ce3","ios":"levelo://app?vid=5c3000a0-a190-4007-a723-aa2707fd1ce3"},"vehicle_type_id":"4","last_reported":1732367804,"current_range_meters":38800,"station_id":"cpo3532slgdg3j2ikp40","pricing_plan_id":"cebpf4jnsgd1na2vs0mg"},{"bike_id":"43f46bf3-f48a-4e3b-a7e7-77d3d97dd715","system_id":"levelo_inurba_marseille","lat":43.29677,"lon":5.37287,"is_reserved":false,"is_disabled":false,"rental_uris":{"android":"levelo://app?vid=43f46bf3-f48a-4e3b-a7e7-77d3d97dd715","ios":"levelo://app?vid=43f46bf3-f48a-4e3b-a7e7-77d3d97dd715"},"vehicle_type_id":"4","last_reported":1732367804,"current_range_meters":39200,"station_id":"ce4bgk12rcd13ifvqbj0","pricing_plan_id":"cebpf4jnsgd1na2vs0mg"},{"bike_id":"824f2997-0e2e-47a0-8272-c899b9937a9f","system_id":"levelo_inurba_marseille","lat":43.29312,"lon":5.37171,"is_reserved":false,"is_disabled":false,"rental_uris":{"android":"levelo://app?vid=824f2997-0e2e-47a0-8272-c899b9937a9f","ios":"levelo://app?vid=824f2997-0e2e-47a0-8272-c899b9937a9f"},"vehicle_type_id":"4","last_reported":1732367804,"current_range_meters":38800,"station_id":"ce4bgh92rcd13ifvqb40","pricing_plan_id":"cebpf4jnsgd1na2vs0mg"},{"bike_id":"6a2df70c-4e94-45ba-b67d-45bd465ca49d","system_id":"levelo_inurba_marseille","lat":43.2919,"lon":5.39312,"is_reserved":false,"is_disabled":true,"rental_uris":{"android":"levelo://app?vid=6a2df70c-4e94-45ba-b67d-45bd465ca49d","ios":"levelo://app?vid=6a2df70c-4e94-45ba-b67d-45bd465ca49d"},"vehicle_type_id":"4","last_reported":1732367804,"current_range_meters":36000,"station_id":"ce4bh192rcd13ifvqdd0","pricing_plan_id":"cebpf4jnsgd1na2vs0mg"},{"bike_id":"b9b9ed17-2332-448e-a260-27c24592bd4a","system_id":"levelo_inurba_marseille","lat":43.29524,"lon":5.37503,"is_reserved":false,"is_disabled":true,"rental_uris":{"android":"levelo://app?vid=b9b9ed17-2332-448e-a260-27c24592bd4a","ios":"levelo://app?vid=b9b9ed17-2332-448e-a260-27c24592bd4a"},"vehicle_type_id":"4","last_reported":1732367804,"current_range_meters":35200,"station_id":"ce4bgkp2rcd13ifvqbmg","pricing_plan_id":"cebpf4jnsgd1na2vs0mg"},{"bike_id":"26479aef-d375-4cfa-80cb-6c406e5eb636","system_id":"levelo_inurba_marseille","lat":43.24668,"lon":5.38159,"is_reserved":false,"is_disabled":false,"rental_uris":{"android":"levelo://app?vid=26479aef-d375-4cfa-80cb-6c406e5eb636","ios":"levelo://app?vid=26479aef-d375-4cfa-80cb-6c406e5eb636"},"vehicle_type_id":"4","last_reported":1732367804,"current_range_meters":32800,"station_id":"ce4bhih2rcd13ifvqfr0","pricing_plan_id":"cebpf4jnsgd1na2vs0mg"},{"bike_id":"ed28ba6e-f3fc-4936-b664-de9948c0c366","system_id":"levelo_inurba_marseille","lat":43.27848,"lon":5.37946,"is_reserved":false,"is_disabled":false,"rental_uris":{"android":"levelo://app?vid=ed28ba6e-f3fc-4936-b664-de9948c0c366","ios":"levelo://app?vid=ed28ba6e-f3fc-4936-b664-de9948c0c366"},"vehicle_type_id":"4","last_reported":1732367804,"current_range_meters":38800,"station_id":"ce4bhf92rcd13ifvqf50","pricing_plan_id":"cebpf4jnsgd1na2vs0mg"},{"bike_id":"a70a93ff-1ced-4e9b-963c-8900c1d589f1","system_id":"levelo_inurba_marseille","lat":43.29773,"lon":5.37107,"is_reserved":false,"is_disabled":false,"rental_uris":{"android":"levelo://app?vid=a70a93ff-1ced-4e9b-963c-8900c1d589f1","ios":"levelo://app?vid=a70a93ff-1ced-4e9b-963c-8900c1d589f1"},"vehicle_type_id":"4","last_reported":1732367804,"current_range_meters":21600,"station_id":"ce4bgop2rcd13ifvqc1g","pricing_plan_id":"cebpf4jnsgd1na2vs0mg"},{"bike_id":"ff3594ee-f948-4832-9680-599cfdacc368","system_id":"levelo_inurba_marseille","lat":43.27179,"lon":5.41,"is_reserved":false,"is_disabled":false,"rental_uris":{"android":"levelo://app?vid=ff3594ee-f948-4832-9680-599cfdacc368","ios":"levelo://app?vid=ff3594ee-f948-4832-9680-599cfdacc368"},"vehicle_type_id":"4","last_reported":1732367804,"current_range_meters":37600,"station_id":"ce4bhl12rcd13ifvqgf0","pricing_plan_id":"cebpf4jnsgd1na2vs0mg"},{"bike_id":"e2be356d-c236-4732-87f9-b18817c2cd8c","system_id":"levelo_inurba_marseille","lat":43.27317,"lon":5.39083,"is_reserved":false,"is_disabled":false,"rental_uris":{"android":"levelo://app?vid=e2be356d-c236-4732-87f9-b18817c2cd8c","ios":"levelo://app?vid=e2be356d-c236-4732-87f9-b18817c2cd8c"},"vehicle_type_id":"4","last_reported":1732367804,"current_range_meters":8000,"station_id":"ce4bhgp2rcd13ifvqfe0","pricing_plan_id":"cebpf4jnsgd1na2vs0mg"},{"bike_id":"856c5296-7fea-42cc-be09-a6b9a37c0b30","system_id":"levelo_inurba_marseille","lat":43.27374,"lon":5.36266,"is_reserved":false,"is_disabled":true,"rental_uris":{"android":"levelo://app?vid=856c5296-7fea-42cc-be09-a6b9a37c0b30","ios":"levelo://app?vid=856c5296-7fea-42cc-be09-a6b9a37c0b30"},"vehicle_type_id":"4","last_reported":1732367804,"current_range_meters":0,"station_id":"ce4bhbh2rcd13ifvqeo0","pricing_plan_id":"cebpf4jnsgd1na2vs0mg"},{"bike_id":"4a82b23d-6a0a-4eae-a7f9-7f58588db032","system_id":"levelo_inurba_marseille","lat":43.28412,"lon":5.37517,"is_reserved":false,"is_disabled":false,"rental_uris":{"android":"levelo://app?vid=4a82b23d-6a0a-4eae-a7f9-7f58588db032","ios":"levelo://app?vid=4a82b23d-6a0a-4eae-a7f9-7f58588db032"},"vehicle_type_id":"4","last_reported":1732367804,"current_range_meters":12400,"station_id":"ce4bh412rcd13ifvqds0","pricing_plan_id":"cebpf4jnsgd1na2vs0mg"},{"bike_id":"0ddfa46a-4055-4654-8da1-794fa513a354","system_id":"levelo_inurba_marseille","lat":43.26195,"lon":5.37919,"is_reserved":false,"is_disabled":false,"rental_uris":{"android":"levelo://app?vid=0ddfa46a-4055-4654-8da1-794fa513a354","ios":"levelo://app?vid=0ddfa46a-4055-4654-8da1-794fa513a354"},"vehicle_type_id":"4","last_reported":1732367804,"current_range_meters":6400,"station_id":"ce4bhjp2rcd13ifvqg90","pricing_plan_id":"cebpf4jnsgd1na2vs0mg"},{"bike_id":"4612bd9f-c9f5-4e7f-9b0d-20ec8c4628db","system_id":"levelo_inurba_marseille","lat":43.2803,"lon":5.36953,"is_reserved":false,"is_disabled":false,"rental_uris":{"android":"levelo://app?vid=4612bd9f-c9f5-4e7f-9b0d-20ec8c4628db","ios":"levelo://app?vid=4612bd9f-c9f5-4e7f-9b0d-20ec8c4628db"},"vehicle_type_id":"4","last_reported":1732367804,"current_range_meters":30400,"station_id":"ce4bha12rcd13ifvqef0","pricing_plan_id":"cebpf4jnsgd1na2vs0mg"},{"bike_id":"6900d816-1e7e-4c9a-87ce-235f1bc2d92b","system_id":"levelo_inurba_marseille","lat":43.24386,"lon":5.37059,"is_reserved":false,"is_disabled":false,"rental_uris":{"android":"levelo://app?vid=6900d816-1e7e-4c9a-87ce-235f1bc2d92b","ios":"levelo://app?vid=6900d816-1e7e-4c9a-87ce-235f1bc2d92b"},"vehicle_type_id":"4","last_reported":1732367804,"current_range_meters":18800,"station_id":"ce4bhhh2rcd13ifvqfk0","pricing_plan_id":"cebpf4jnsgd1na2vs0mg"},{"bike_id":"9a122f92-8d1b-4a84-9637-aeed9243668f","system_id":"levelo_inurba_marseille","lat":43.28942,"lon":5.36633,"is_reserved":false,"is_disabled":true,"rental_uris":{"android":"levelo://app?vid=9a122f92-8d1b-4a84-9637-aeed9243668f","ios":"levelo://app?vid=9a122f92-8d1b-4a84-9637-aeed9243668f"},"vehicle_type_id":"4","last_reported":1732367804,"current_range_meters":38800,"station_id":"ce4bhap2rcd13ifvqek0","pricing_plan_id":"cebpf4jnsgd1na2vs0mg"},{"bike_id":"ebd21c7a-b63d-473e-9407-73c1c91944c1","system_id":"levelo_inurba_marseille","lat":43.25088,"lon":5.3952,"is_reserved":false,"is_disabled":false,"rental_uris":{"android":"levelo://app?vid=ebd21c7a-b63d-473e-9407-73c1c91944c1","ios":"levelo://app?vid=ebd21c7a-b63d-473e-9407-73c1c91944c1"},"vehicle_type_id":"4","last_reported":1732367804,"current_range_meters":39200,"station_id":"ce4bhm12rcd13ifvqgkg","pricing_plan_id":"cebpf4jnsgd1na2vs0mg"},{"bike_id":"bcb8fa6a-fbef-46a5-a147-33eaeaac57de","system_id":"levelo_inurba_marseille","lat":43.27675,"lon":5.38909,"is_reserved":false,"is_disabled":false,"rental_uris":{"android":"levelo://app?vid=bcb8fa6a-fbef-46a5-a147-33eaeaac57de","ios":"levelo://app?vid=bcb8fa6a-fbef-46a5-a147-33eaeaac57de"},"vehicle_type_id":"4","last_reported":1732367804,"current_range_meters":3600,"station_id":"ce4bhi12rcd13ifvqfo0","pricing_plan_id":"cebpf4jnsgd1na2vs0mg"},{"bike_id":"79f1abd0-baa0-4166-895e-0f1fd1e05346","system_id":"levelo_inurba_marseille","lat":43.27491,"lon":5.42455,"is_reserved":false,"is_disabled":false,"rental_uris":{"android":"levelo://app?vid=79f1abd0-baa0-4166-895e-0f1fd1e05346","ios":"levelo://app?vid=79f1abd0-baa0-4166-895e-0f1fd1e05346"},"vehicle_type_id":"4","last_reported":1732367804,"current_range_meters":24400,"station_id":"ce4bhn92rcd13ifvqgrg","pricing_plan_id":"cebpf4jnsgd1na2vs0mg"},{"bike_id":"8da1be4d-ebfd-4ca9-810b-7e370dfb5b46","system_id":"levelo_inurba_marseille","lat":43.32652,"lon":5.40994,"is_reserved":false,"is_disabled":false,"rental_uris":{"android":"levelo://app?vid=8da1be4d-ebfd-4ca9-810b-7e370dfb5b46","ios":"levelo://app?vid=8da1be4d-ebfd-4ca9-810b-7e370dfb5b46"},"vehicle_type_id":"4","last_reported":1732367804,"current_range_meters":22800,"station_id":"ce4bhpp2rcd13ifvqhgg","pricing_plan_id":"cebpf4jnsgd1na2vs0mg"},{"bike_id":"ebe2b43b-e5bb-4158-835b-e46b2ce0d167","system_id":"levelo_inurba_marseille","lat":43.22928,"lon":5.35374,"is_reserved":false,"is_disabled":false,"rental_uris":{"android":"levelo://app?vid=ebe2b43b-e5bb-4158-835b-e46b2ce0d167","ios":"levelo://app?vid=ebe2b43b-e5bb-4158-835b-e46b2ce0d167"},"vehicle_type_id":"4","last_reported":1732367804,"current_range_meters":30000,"station_id":"cpo3532slgdg3j2ikp40","pricing_plan_id":"cebpf4jnsgd1na2vs0mg"},{"bike_id":"e8ec90a8-e3ac-4578-b106-ef1f11b0e38f","system_id":"levelo_inurba_marseille","lat":43.2987,"lon":5.39734,"is_reserved":false,"is_disabled":false,"rental_uris":{"android":"levelo://app?vid=e8ec90a8-e3ac-4578-b106-ef1f11b0e38f","ios":"levelo://app?vid=e8ec90a8-e3ac-4578-b106-ef1f11b0e38f"},"vehicle_type_id":"4","last_reported":1732367804,"current_range_meters":22800,"station_id":"ce4bh0h2rcd13ifvqd50","pricing_plan_id":"cebpf4jnsgd1na2vs0mg"},{"bike_id":"fa8314ae-1864-43c4-8fa1-c6e47ea1e55c","system_id":"levelo_inurba_marseille","lat":43.32112,"lon":5.36776,"is_reserved":false,"is_disabled":false,"rental_uris":{"android":"levelo://app?vid=fa8314ae-1864-43c4-8fa1-c6e47ea1e55c","ios":"levelo://app?vid=fa8314ae-1864-43c4-8fa1-c6e47ea1e55c"},"vehicle_type_id":"4","last_reported":1732367804,"current_range_meters":28000,"station_id":"ce4bhrh2rcd13ifvqhug","pricing_plan_id":"cebpf4jnsgd1na2vs0mg"},{"bike_id":"9076cb3b-34f3-44a7-a93d-afdbe44e24e6","system_id":"levelo_inurba_marseille","lat":43.24186,"lon":5.39726,"is_reserved":false,"is_disabled":false,"rental_uris":{"android":"levelo://app?vid=9076cb3b-34f3-44a7-a93d-afdbe44e24e6","ios":"levelo://app?vid=9076cb3b-34f3-44a7-a93d-afdbe44e24e6"},"vehicle_type_id":"4","last_reported":1732367804,"current_range_meters":38800,"station_id":"ce4bhn12rcd13ifvqgpg","pricing_plan_id":"cebpf4jnsgd1na2vs0mg"},{"bike_id":"09fc4934-fd5a-4041-9fff-9801743e68b5","system_id":"levelo_inurba_marseille","lat":43.305859,"lon":5.375528,"is_reserved":false,"is_disabled":false,"rental_uris":{"android":"levelo://app?vid=09fc4934-fd5a-4041-9fff-9801743e68b5","ios":"levelo://app?vid=09fc4934-fd5a-4041-9fff-9801743e68b5"},"vehicle_type_id":"4","last_reported":1732367804,"current_range_meters":39200,"station_id":"ce4bgup2rcd13ifvqcn0","pricing_plan_id":"cebpf4jnsgd1na2vs0mg"},{"bike_id":"93e22be2-ce4d-4082-96d3-753b4a20df2d","system_id":"levelo_inurba_marseille","lat":43.24075,"lon":5.37761,"is_reserved":false,"is_disabled":false,"rental_uris":{"android":"levelo://app?vid=93e22be2-ce4d-4082-96d3-753b4a20df2d","ios":"levelo://app?vid=93e22be2-ce4d-4082-96d3-753b4a20df2d"},"vehicle_type_id":"4","last_reported":1732367804,"current_range_meters":36000,"station_id":"ce4bhnp2rcd13ifvqgvg","pricing_plan_id":"cebpf4jnsgd1na2vs0mg"},{"bike_id":"d3a7f609-252d-4f84-9290-8b544666800d","system_id":"levelo_inurba_marseille","lat":43.29307,"lon":5.37453,"is_reserved":false,"is_disabled":false,"rental_uris":{"android":"levelo://app?vid=d3a7f609-252d-4f84-9290-8b544666800d","ios":"levelo://app?vid=d3a7f609-252d-4f84-9290-8b544666800d"},"vehicle_type_id":"4","last_reported":1732367804,"current_range_meters":38800,"station_id":"ce4bgi12rcd13ifvqb70","pricing_plan_id":"cebpf4jnsgd1na2vs0mg"},{"bike_id":"4614c3ce-fa32-4b49-800d-cf02516d6ab9","system_id":"levelo_inurba_marseille","lat":43.32357,"lon":5.38895,"is_reserved":false,"is_disabled":false,"rental_uris":{"android":"levelo://app?vid=4614c3ce-fa32-4b49-800d-cf02516d6ab9","ios":"levelo://app?vid=4614c3ce-fa32-4b49-800d-cf02516d6ab9"},"vehicle_type_id":"4","last_reported":1732367804,"current_range_meters":24400,"station_id":"ce4bhqp2rcd13ifvqhog","pricing_plan_id":"cebpf4jnsgd1na2vs0mg"},{"bike_id":"0ecb0e70-6e2f-4c40-ae14-77249cd56bd7","system_id":"levelo_inurba_marseille","lat":43.27965,"lon":5.38743,"is_reserved":false,"is_disabled":true,"rental_uris":{"android":"levelo://app?vid=0ecb0e70-6e2f-4c40-ae14-77249cd56bd7","ios":"levelo://app?vid=0ecb0e70-6e2f-4c40-ae14-77249cd56bd7"},"vehicle_type_id":"4","last_reported":1732367804,"current_range_meters":22400,"station_id":"ce4bhg12rcd13ifvqf80","pricing_plan_id":"cebpf4jnsgd1na2vs0mg"},{"bike_id":"f8a8a492-aaea-4018-90af-bfa3e05e159b","system_id":"levelo_inurba_marseille","lat":43.32667,"lon":5.40998,"is_reserved":false,"is_disabled":false,"rental_uris":{"android":"levelo://app?vid=f8a8a492-aaea-4018-90af-bfa3e05e159b","ios":"levelo://app?vid=f8a8a492-aaea-4018-90af-bfa3e05e159b"},"vehicle_type_id":"4","last_reported":1732367804,"current_range_meters":23200,"station_id":"ce4bhpp2rcd13ifvqhgg","pricing_plan_id":"cebpf4jnsgd1na2vs0mg"},{"bike_id":"6df41b18-b8ac-47d0-9841-6264427b88bb","system_id":"levelo_inurba_marseille","lat":43.312746,"lon":5.401734,"is_reserved":false,"is_disabled":false,"rental_uris":{"android":"levelo://app?vid=6df41b18-b8ac-47d0-9841-6264427b88bb","ios":"levelo://app?vid=6df41b18-b8ac-47d0-9841-6264427b88bb"},"vehicle_type_id":"4","last_reported":1732367804,"current_range_meters":10000,"station_id":"ce4bh092rcd13ifvqd30","pricing_plan_id":"cebpf4jnsgd1na2vs0mg"},{"bike_id":"16e4bdc6-43dd-4435-82a6-f137002a2daa","system_id":"levelo_inurba_marseille","lat":43.29622,"lon":5.37162,"is_reserved":false,"is_disabled":false,"rental_uris":{"android":"levelo://app?vid=16e4bdc6-43dd-4435-82a6-f137002a2daa","ios":"levelo://app?vid=16e4bdc6-43dd-4435-82a6-f137002a2daa"},"vehicle_type_id":"4","last_reported":1732367804,"current_range_meters":35200,"station_id":"ce4bgnh2rcd13ifvqc0g","pricing_plan_id":"cebpf4jnsgd1na2vs0mg"},{"bike_id":"f9e35db8-2f7a-4f43-8c70-83778761d42d","system_id":"levelo_inurba_marseille","lat":43.2319,"lon":5.3556,"is_reserved":false,"is_disabled":false,"rental_uris":{"android":"levelo://app?vid=f9e35db8-2f7a-4f43-8c70-83778761d42d","ios":"levelo://app?vid=f9e35db8-2f7a-4f43-8c70-83778761d42d"},"vehicle_type_id":"4","last_reported":1732367804,"current_range_meters":31200,"station_id":"ce4bhu92rcd13ifvqi70","pricing_plan_id":"cebpf4jnsgd1na2vs0mg"},{"bike_id":"468b32f6-47cf-4a34-acef-b5c3e7c26316","system_id":"levelo_inurba_marseille","lat":43.27567,"lon":5.38422,"is_reserved":false,"is_disabled":false,"rental_uris":{"android":"levelo://app?vid=468b32f6-47cf-4a34-acef-b5c3e7c26316","ios":"levelo://app?vid=468b32f6-47cf-4a34-acef-b5c3e7c26316"},"vehicle_type_id":"4","last_reported":1732367804,"current_range_meters":22000,"station_id":"ce4bhh92rcd13ifvqfi0","pricing_plan_id":"cebpf4jnsgd1na2vs0mg"},{"bike_id":"97bd727d-4157-4df9-9d3e-5f89db3af946","system_id":"levelo_inurba_marseille","lat":43.28462,"lon":5.35895,"is_reserved":false,"is_disabled":false,"rental_uris":{"android":"levelo://app?vid=97bd727d-4157-4df9-9d3e-5f89db3af946","ios":"levelo://app?vid=97bd727d-4157-4df9-9d3e-5f89db3af946"},"vehicle_type_id":"4","last_reported":1732367804,"current_range_meters":28400,"station_id":"ce4bhah2rcd13ifvqei0","pricing_plan_id":"cebpf4jnsgd1na2vs0mg"},{"bike_id":"1108659d-c798-48fb-a758-9ac015354e35","system_id":"levelo_inurba_marseille","lat":43.26205,"lon":5.37944,"is_reserved":false,"is_disabled":false,"rental_uris":{"android":"levelo://app?vid=1108659d-c798-48fb-a758-9ac015354e35","ios":"levelo://app?vid=1108659d-c798-48fb-a758-9ac015354e35"},"vehicle_type_id":"4","last_reported":1732367804,"current_range_meters":24000,"station_id":"ce4bhjp2rcd13ifvqg90","pricing_plan_id":"cebpf4jnsgd1na2vs0mg"},{"bike_id":"1f5a72a0-3240-401f-8965-8959c734d798","system_id":"levelo_inurba_marseille","lat":43.23954,"lon":5.36637,"is_reserved":false,"is_disabled":false,"rental_uris":{"android":"levelo://app?vid=1f5a72a0-3240-401f-8965-8959c734d798","ios":"levelo://app?vid=1f5a72a0-3240-401f-8965-8959c734d798"},"vehicle_type_id":"4","last_reported":1732367804,"current_range_meters":38800,"station_id":"ce4bhi12rcd13ifvqfp0","pricing_plan_id":"cebpf4jnsgd1na2vs0mg"},{"bike_id":"6f356d40-76b6-4bc9-9bea-361e30764fe1","system_id":"levelo_inurba_marseille","lat":43.23062,"lon":5.35492,"is_reserved":false,"is_disabled":false,"rental_uris":{"android":"levelo://app?vid=6f356d40-76b6-4bc9-9bea-361e30764fe1","ios":"levelo://app?vid=6f356d40-76b6-4bc9-9bea-361e30764fe1"},"vehicle_type_id":"4","last_reported":1732367804,"current_range_meters":32000,"station_id":"cpo3342slgdg3j2ifvpg","pricing_plan_id":"cebpf4jnsgd1na2vs0mg"},{"bike_id":"e46bf823-ddb4-44ad-8125-91c73d7a20fb","system_id":"levelo_inurba_marseille","lat":43.29519,"lon":5.39043,"is_reserved":false,"is_disabled":false,"rental_uris":{"android":"levelo://app?vid=e46bf823-ddb4-44ad-8125-91c73d7a20fb","ios":"levelo://app?vid=e46bf823-ddb4-44ad-8125-91c73d7a20fb"},"vehicle_type_id":"4","last_reported":1732367804,"current_range_meters":36400,"station_id":"ce4bh3p2rcd13ifvqdp0","pricing_plan_id":"cebpf4jnsgd1na2vs0mg"},{"bike_id":"3d3e1c02-e434-42cd-a71e-c228de53e864","system_id":"levelo_inurba_marseille","lat":43.24384,"lon":5.37056,"is_reserved":false,"is_disabled":false,"rental_uris":{"android":"levelo://app?vid=3d3e1c02-e434-42cd-a71e-c228de53e864","ios":"levelo://app?vid=3d3e1c02-e434-42cd-a71e-c228de53e864"},"vehicle_type_id":"4","last_reported":1732367804,"current_range_meters":12800,"station_id":"ce4bhhh2rcd13ifvqfk0","pricing_plan_id":"cebpf4jnsgd1na2vs0mg"},{"bike_id":"5d89816e-0afd-4910-9a3d-37d05296c402","system_id":"levelo_inurba_marseille","lat":43.32482,"lon":5.36563,"is_reserved":false,"is_disabled":false,"rental_uris":{"android":"levelo://app?vid=5d89816e-0afd-4910-9a3d-37d05296c402","ios":"levelo://app?vid=5d89816e-0afd-4910-9a3d-37d05296c402"},"vehicle_type_id":"4","last_reported":1732367804,"current_range_meters":35600,"station_id":"ce4bhs12rcd13ifvqhvg","pricing_plan_id":"cebpf4jnsgd1na2vs0mg"},{"bike_id":"d3e3e973-f89c-4419-9e76-db3faf490d9b","system_id":"levelo_inurba_marseille","lat":43.30148,"lon":5.38078,"is_reserved":false,"is_disabled":false,"rental_uris":{"android":"levelo://app?vid=d3e3e973-f89c-4419-9e76-db3faf490d9b","ios":"levelo://app?vid=d3e3e973-f89c-4419-9e76-db3faf490d9b"},"vehicle_type_id":"4","last_reported":1732367804,"current_range_meters":32800,"station_id":"ce4bgjp2rcd13ifvqbh0","pricing_plan_id":"cebpf4jnsgd1na2vs0mg"},{"bike_id":"8ff099be-11a1-475e-a650-e48af0b58548","system_id":"levelo_inurba_marseille","lat":43.29525,"lon":5.39047,"is_reserved":false,"is_disabled":false,"rental_uris":{"android":"levelo://app?vid=8ff099be-11a1-475e-a650-e48af0b58548","ios":"levelo://app?vid=8ff099be-11a1-475e-a650-e48af0b58548"},"vehicle_type_id":"4","last_reported":1732367804,"current_range_meters":38400,"station_id":"ce4bh3p2rcd13ifvqdp0","pricing_plan_id":"cebpf4jnsgd1na2vs0mg"},{"bike_id":"4cb716de-3f19-43d4-b34b-8b9ce425eaf2","system_id":"levelo_inurba_marseille","lat":43.25859,"lon":5.39904,"is_reserved":false,"is_disabled":false,"rental_uris":{"android":"levelo://app?vid=4cb716de-3f19-43d4-b34b-8b9ce425eaf2","ios":"levelo://app?vid=4cb716de-3f19-43d4-b34b-8b9ce425eaf2"},"vehicle_type_id":"4","last_reported":1732367804,"current_range_meters":24400,"station_id":"ce4bhl92rcd13ifvqghg","pricing_plan_id":"cebpf4jnsgd1na2vs0mg"},{"bike_id":"4cfff91a-3b0c-4130-af1b-8c3563250973","system_id":"levelo_inurba_marseille","lat":43.30211,"lon":5.39471,"is_reserved":false,"is_disabled":false,"rental_uris":{"android":"levelo://app?vid=4cfff91a-3b0c-4130-af1b-8c3563250973","ios":"levelo://app?vid=4cfff91a-3b0c-4130-af1b-8c3563250973"},"vehicle_type_id":"4","last_reported":1732367804,"current_range_meters":22800,"station_id":"ce4bh0p2rcd13ifvqd70","pricing_plan_id":"cebpf4jnsgd1na2vs0mg"},{"bike_id":"b7cf8947-6cab-433b-878b-33ce954624e6","system_id":"levelo_inurba_marseille","lat":43.30782,"lon":5.37644,"is_reserved":false,"is_disabled":false,"rental_uris":{"android":"levelo://app?vid=b7cf8947-6cab-433b-878b-33ce954624e6","ios":"levelo://app?vid=b7cf8947-6cab-433b-878b-33ce954624e6"},"vehicle_type_id":"4","last_reported":1732367804,"current_range_meters":34800,"station_id":"ce4bgv92rcd13ifvqcq0","pricing_plan_id":"cebpf4jnsgd1na2vs0mg"},{"bike_id":"f1c0194a-d687-4668-8c71-70ffc5515c4c","system_id":"levelo_inurba_marseille","lat":43.29572,"lon":5.37507,"is_reserved":false,"is_disabled":false,"rental_uris":{"android":"levelo://app?vid=f1c0194a-d687-4668-8c71-70ffc5515c4c","ios":"levelo://app?vid=f1c0194a-d687-4668-8c71-70ffc5515c4c"},"vehicle_type_id":"4","last_reported":1732367804,"current_range_meters":36000,"station_id":"ce4bgh92rcd13ifvqb50","pricing_plan_id":"cebpf4jnsgd1na2vs0mg"},{"bike_id":"a39fd15f-d160-4487-ba9f-a267a8fc4f2c","system_id":"levelo_inurba_marseille","lat":43.27208,"lon":5.39193,"is_reserved":false,"is_disabled":true,"rental_uris":{"android":"levelo://app?vid=a39fd15f-d160-4487-ba9f-a267a8fc4f2c","ios":"levelo://app?vid=a39fd15f-d160-4487-ba9f-a267a8fc4f2c"},"vehicle_type_id":"4","last_reported":1732367804,"current_range_meters":0,"station_id":"ce4bhhp2rcd13ifvqfm0","pricing_plan_id":"cebpf4jnsgd1na2vs0mg"},{"bike_id":"294eeb79-af1b-495a-909f-216801ae6b41","system_id":"levelo_inurba_marseille","lat":43.337444,"lon":5.374475,"is_reserved":false,"is_disabled":true,"rental_uris":{"android":"levelo://app?vid=294eeb79-af1b-495a-909f-216801ae6b41","ios":"levelo://app?vid=294eeb79-af1b-495a-909f-216801ae6b41"},"vehicle_type_id":"4","last_reported":1732367804,"current_range_meters":0,"station_id":"","pricing_plan_id":"cebpf4jnsgd1na2vs0mg"},{"bike_id":"e5d63661-ea2d-4e9d-bdce-dbbf19d65c3c","system_id":"levelo_inurba_marseille","lat":43.32364,"lon":5.3676,"is_reserved":false,"is_disabled":false,"rental_uris":{"android":"levelo://app?vid=e5d63661-ea2d-4e9d-bdce-dbbf19d65c3c","ios":"levelo://app?vid=e5d63661-ea2d-4e9d-bdce-dbbf19d65c3c"},"vehicle_type_id":"4","last_reported":1732367804,"current_range_meters":39200,"station_id":"ce4bhsh2rcd13ifvqi2g","pricing_plan_id":"cebpf4jnsgd1na2vs0mg"},{"bike_id":"b6549676-fc5d-4316-8e28-6cbe5f477b5b","system_id":"levelo_inurba_marseille","lat":43.22929,"lon":5.35375,"is_reserved":false,"is_disabled":false,"rental_uris":{"android":"levelo://app?vid=b6549676-fc5d-4316-8e28-6cbe5f477b5b","ios":"levelo://app?vid=b6549676-fc5d-4316-8e28-6cbe5f477b5b"},"vehicle_type_id":"4","last_reported":1732367804,"current_range_meters":25200,"station_id":"cpo3532slgdg3j2ikp40","pricing_plan_id":"cebpf4jnsgd1na2vs0mg"},{"bike_id":"82836d88-a205-4698-83cb-ec433acb4526","system_id":"levelo_inurba_marseille","lat":43.22926,"lon":5.35379,"is_reserved":false,"is_disabled":false,"rental_uris":{"android":"levelo://app?vid=82836d88-a205-4698-83cb-ec433acb4526","ios":"levelo://app?vid=82836d88-a205-4698-83cb-ec433acb4526"},"vehicle_type_id":"4","last_reported":1732367804,"current_range_meters":20400,"station_id":"cpo3532slgdg3j2ikp40","pricing_plan_id":"cebpf4jnsgd1na2vs0mg"},{"bike_id":"90cc99af-54e0-4698-bffa-7f2f1beb1a95","system_id":"levelo_inurba_marseille","lat":43.27989,"lon":5.41668,"is_reserved":false,"is_disabled":false,"rental_uris":{"android":"levelo://app?vid=90cc99af-54e0-4698-bffa-7f2f1beb1a95","ios":"levelo://app?vid=90cc99af-54e0-4698-bffa-7f2f1beb1a95"},"vehicle_type_id":"4","last_reported":1732367804,"current_range_meters":40000,"station_id":"ce4bho12rcd13ifvqh1g","pricing_plan_id":"cebpf4jnsgd1na2vs0mg"},{"bike_id":"e1bc9dfe-4404-4863-9b28-afdcb8eaddff","system_id":"levelo_inurba_marseille","lat":43.28567,"lon":5.39495,"is_reserved":false,"is_disabled":false,"rental_uris":{"android":"levelo://app?vid=e1bc9dfe-4404-4863-9b28-afdcb8eaddff","ios":"levelo://app?vid=e1bc9dfe-4404-4863-9b28-afdcb8eaddff"},"vehicle_type_id":"4","last_reported":1732367804,"current_range_meters":4000,"station_id":"ce4bh292rcd13ifvqdg0","pricing_plan_id":"cebpf4jnsgd1na2vs0mg"},{"bike_id":"d8257acd-5e46-4dc3-9925-e47c871aad93","system_id":"levelo_inurba_marseille","lat":43.300923,"lon":5.390893,"is_reserved":false,"is_disabled":true,"rental_uris":{"android":"levelo://app?vid=d8257acd-5e46-4dc3-9925-e47c871aad93","ios":"levelo://app?vid=d8257acd-5e46-4dc3-9925-e47c871aad93"},"vehicle_type_id":"4","last_reported":1732367804,"current_range_meters":1200,"station_id":"ce4bh192rcd13ifvqdb0","pricing_plan_id":"cebpf4jnsgd1na2vs0mg"},{"bike_id":"cd78312a-142a-42d0-92e1-dbc654bf8bb4","system_id":"levelo_inurba_marseille","lat":43.24188,"lon":5.39735,"is_reserved":false,"is_disabled":true,"rental_uris":{"android":"levelo://app?vid=cd78312a-142a-42d0-92e1-dbc654bf8bb4","ios":"levelo://app?vid=cd78312a-142a-42d0-92e1-dbc654bf8bb4"},"vehicle_type_id":"4","last_reported":1732367804,"current_range_meters":14800,"station_id":"ce4bhn12rcd13ifvqgpg","pricing_plan_id":"cebpf4jnsgd1na2vs0mg"},{"bike_id":"f28c82ad-6f3c-4c01-88a7-477b9b26f762","system_id":"levelo_inurba_marseille","lat":43.2395,"lon":5.36646,"is_reserved":false,"is_disabled":false,"rental_uris":{"android":"levelo://app?vid=f28c82ad-6f3c-4c01-88a7-477b9b26f762","ios":"levelo://app?vid=f28c82ad-6f3c-4c01-88a7-477b9b26f762"},"vehicle_type_id":"4","last_reported":1732367804,"current_range_meters":27200,"station_id":"ce4bhi12rcd13ifvqfp0","pricing_plan_id":"cebpf4jnsgd1na2vs0mg"},{"bike_id":"11c5ed7c-dad2-4605-8db8-4918d0818190","system_id":"levelo_inurba_marseille","lat":43.31725,"lon":5.42404,"is_reserved":false,"is_disabled":false,"rental_uris":{"android":"levelo://app?vid=11c5ed7c-dad2-4605-8db8-4918d0818190","ios":"levelo://app?vid=11c5ed7c-dad2-4605-8db8-4918d0818190"},"vehicle_type_id":"4","last_reported":1732367804,"current_range_meters":38400,"station_id":"ce4bhp92rcd13ifvqhbg","pricing_plan_id":"cebpf4jnsgd1na2vs0mg"},{"bike_id":"3dedd3a3-3784-47e0-bd52-94265bd44a24","system_id":"levelo_inurba_marseille","lat":43.24546,"lon":5.37327,"is_reserved":false,"is_disabled":true,"rental_uris":{"android":"levelo://app?vid=3dedd3a3-3784-47e0-bd52-94265bd44a24","ios":"levelo://app?vid=3dedd3a3-3784-47e0-bd52-94265bd44a24"},"vehicle_type_id":"4","last_reported":1732367804,"current_range_meters":0,"station_id":"","pricing_plan_id":"cebpf4jnsgd1na2vs0mg"},{"bike_id":"3d5804f7-bc71-4554-90ef-441d6c9cd61b","system_id":"levelo_inurba_marseille","lat":43.269342,"lon":5.389263,"is_reserved":false,"is_disabled":false,"rental_uris":{"android":"levelo://app?vid=3d5804f7-bc71-4554-90ef-441d6c9cd61b","ios":"levelo://app?vid=3d5804f7-bc71-4554-90ef-441d6c9cd61b"},"vehicle_type_id":"4","last_reported":1732367804,"current_range_meters":7200,"station_id":"ce4bhhh2rcd13ifvqfl0","pricing_plan_id":"cebpf4jnsgd1na2vs0mg"},{"bike_id":"cdf5c5a2-69ae-4c4c-91c2-cbb206bcd2a1","system_id":"levelo_inurba_marseille","lat":43.24084,"lon":5.37761,"is_reserved":false,"is_disabled":false,"rental_uris":{"android":"levelo://app?vid=cdf5c5a2-69ae-4c4c-91c2-cbb206bcd2a1","ios":"levelo://app?vid=cdf5c5a2-69ae-4c4c-91c2-cbb206bcd2a1"},"vehicle_type_id":"4","last_reported":1732367804,"current_range_meters":8800,"station_id":"ce4bhnp2rcd13ifvqgvg","pricing_plan_id":"cebpf4jnsgd1na2vs0mg"},{"bike_id":"64cf8a74-ede6-4cd9-96d7-521f265a03d3","system_id":"levelo_inurba_marseille","lat":43.24544,"lon":5.39522,"is_reserved":false,"is_disabled":false,"rental_uris":{"android":"levelo://app?vid=64cf8a74-ede6-4cd9-96d7-521f265a03d3","ios":"levelo://app?vid=64cf8a74-ede6-4cd9-96d7-521f265a03d3"},"vehicle_type_id":"4","last_reported":1732367804,"current_range_meters":18000,"station_id":"ce4bhlp2rcd13ifvqgjg","pricing_plan_id":"cebpf4jnsgd1na2vs0mg"},{"bike_id":"994195f6-b5da-4158-a5b5-8b38baad32b0","system_id":"levelo_inurba_marseille","lat":43.33726,"lon":5.39195,"is_reserved":false,"is_disabled":false,"rental_uris":{"android":"levelo://app?vid=994195f6-b5da-4158-a5b5-8b38baad32b0","ios":"levelo://app?vid=994195f6-b5da-4158-a5b5-8b38baad32b0"},"vehicle_type_id":"4","last_reported":1732367804,"current_range_meters":32000,"station_id":"ce4bhr92rcd13ifvqhsg","pricing_plan_id":"cebpf4jnsgd1na2vs0mg"},{"bike_id":"7c2f19f3-5373-4c2a-87bb-e1fd3ef39822","system_id":"levelo_inurba_marseille","lat":43.26559,"lon":5.3901,"is_reserved":false,"is_disabled":true,"rental_uris":{"android":"levelo://app?vid=7c2f19f3-5373-4c2a-87bb-e1fd3ef39822","ios":"levelo://app?vid=7c2f19f3-5373-4c2a-87bb-e1fd3ef39822"},"vehicle_type_id":"4","last_reported":1732367804,"current_range_meters":25200,"station_id":"ce4bhe12rcd13ifvqf30","pricing_plan_id":"cebpf4jnsgd1na2vs0mg"},{"bike_id":"36ef9a42-f4d8-45f5-adc2-b51fb9b962d0","system_id":"levelo_inurba_marseille","lat":43.34143,"lon":5.40899,"is_reserved":false,"is_disabled":false,"rental_uris":{"android":"levelo://app?vid=36ef9a42-f4d8-45f5-adc2-b51fb9b962d0","ios":"levelo://app?vid=36ef9a42-f4d8-45f5-adc2-b51fb9b962d0"},"vehicle_type_id":"4","last_reported":1732367804,"current_range_meters":38800,"station_id":"ce4bhqh2rcd13ifvqhlg","pricing_plan_id":"cebpf4jnsgd1na2vs0mg"},{"bike_id":"c04936aa-7f1e-40be-98cd-ea995a095345","system_id":"levelo_inurba_marseille","lat":43.3047,"lon":5.37903,"is_reserved":false,"is_disabled":false,"rental_uris":{"android":"levelo://app?vid=c04936aa-7f1e-40be-98cd-ea995a095345","ios":"levelo://app?vid=c04936aa-7f1e-40be-98cd-ea995a095345"},"vehicle_type_id":"4","last_reported":1732367804,"current_range_meters":27200,"station_id":"ce4bgup2rcd13ifvqcn0","pricing_plan_id":"cebpf4jnsgd1na2vs0mg"},{"bike_id":"6ce6086b-6084-46f4-ba4b-69f8aaaa51b2","system_id":"levelo_inurba_marseille","lat":43.30534,"lon":5.38428,"is_reserved":false,"is_disabled":true,"rental_uris":{"android":"levelo://app?vid=6ce6086b-6084-46f4-ba4b-69f8aaaa51b2","ios":"levelo://app?vid=6ce6086b-6084-46f4-ba4b-69f8aaaa51b2"},"vehicle_type_id":"4","last_reported":1732367804,"current_range_meters":28800,"station_id":"ce4bgg92rcd13ifvqb30","pricing_plan_id":"cebpf4jnsgd1na2vs0mg"},{"bike_id":"1fe36207-a189-42b7-a2ae-a1bed57e3dd0","system_id":"levelo_inurba_marseille","lat":43.2603,"lon":5.37555,"is_reserved":false,"is_disabled":false,"rental_uris":{"android":"levelo://app?vid=1fe36207-a189-42b7-a2ae-a1bed57e3dd0","ios":"levelo://app?vid=1fe36207-a189-42b7-a2ae-a1bed57e3dd0"},"vehicle_type_id":"4","last_reported":1732367804,"current_range_meters":14000,"station_id":"ce4bhgh2rcd13ifvqfa0","pricing_plan_id":"cebpf4jnsgd1na2vs0mg"},{"bike_id":"c44f537a-bc33-4d10-ad80-2dc8e659d7be","system_id":"levelo_inurba_marseille","lat":43.31714,"lon":5.37752,"is_reserved":false,"is_disabled":false,"rental_uris":{"android":"levelo://app?vid=c44f537a-bc33-4d10-ad80-2dc8e659d7be","ios":"levelo://app?vid=c44f537a-bc33-4d10-ad80-2dc8e659d7be"},"vehicle_type_id":"4","last_reported":1732367804,"current_range_meters":24000,"station_id":"ce4bgth2rcd13ifvqch0","pricing_plan_id":"cebpf4jnsgd1na2vs0mg"},{"bike_id":"51ce6112-ca51-4a26-8335-063dea88ee84","system_id":"levelo_inurba_marseille","lat":43.266783,"lon":5.389667,"is_reserved":false,"is_disabled":false,"rental_uris":{"android":"levelo://app?vid=51ce6112-ca51-4a26-8335-063dea88ee84","ios":"levelo://app?vid=51ce6112-ca51-4a26-8335-063dea88ee84"},"vehicle_type_id":"4","last_reported":1732367804,"current_range_meters":7200,"station_id":"","pricing_plan_id":"cebpf4jnsgd1na2vs0mg"},{"bike_id":"974b45d9-3e9e-46a0-bc0f-461f5453a67a","system_id":"levelo_inurba_marseille","lat":43.29719,"lon":5.36604,"is_reserved":false,"is_disabled":false,"rental_uris":{"android":"levelo://app?vid=974b45d9-3e9e-46a0-bc0f-461f5453a67a","ios":"levelo://app?vid=974b45d9-3e9e-46a0-bc0f-461f5453a67a"},"vehicle_type_id":"4","last_reported":1732367804,"current_range_meters":12000,"station_id":"ce4bgn12rcd13ifvqbt0","pricing_plan_id":"cebpf4jnsgd1na2vs0mg"},{"bike_id":"fc0b1b0c-9a21-495d-be52-0d91f5503bfa","system_id":"levelo_inurba_marseille","lat":43.22925,"lon":5.35381,"is_reserved":false,"is_disabled":false,"rental_uris":{"android":"levelo://app?vid=fc0b1b0c-9a21-495d-be52-0d91f5503bfa","ios":"levelo://app?vid=fc0b1b0c-9a21-495d-be52-0d91f5503bfa"},"vehicle_type_id":"4","last_reported":1732367804,"current_range_meters":22000,"station_id":"cpo3532slgdg3j2ikp40","pricing_plan_id":"cebpf4jnsgd1na2vs0mg"},{"bike_id":"21fde41f-7169-43a6-9efd-af1bb926f9a9","system_id":"levelo_inurba_marseille","lat":43.24662,"lon":5.38165,"is_reserved":false,"is_disabled":false,"rental_uris":{"android":"levelo://app?vid=21fde41f-7169-43a6-9efd-af1bb926f9a9","ios":"levelo://app?vid=21fde41f-7169-43a6-9efd-af1bb926f9a9"},"vehicle_type_id":"4","last_reported":1732367804,"current_range_meters":38800,"station_id":"ce4bhih2rcd13ifvqfr0","pricing_plan_id":"cebpf4jnsgd1na2vs0mg"},{"bike_id":"db32add3-6121-4d3d-b2ce-225f1865f13c","system_id":"levelo_inurba_marseille","lat":43.30281,"lon":5.37723,"is_reserved":false,"is_disabled":false,"rental_uris":{"android":"levelo://app?vid=db32add3-6121-4d3d-b2ce-225f1865f13c","ios":"levelo://app?vid=db32add3-6121-4d3d-b2ce-225f1865f13c"},"vehicle_type_id":"4","last_reported":1732367804,"current_range_meters":38800,"station_id":"ce4bguh2rcd13ifvqcj0","pricing_plan_id":"cebpf4jnsgd1na2vs0mg"},{"bike_id":"1147eb7b-b574-484a-a1ea-272e38121667","system_id":"levelo_inurba_marseille","lat":43.29628,"lon":5.40601,"is_reserved":false,"is_disabled":false,"rental_uris":{"android":"levelo://app?vid=1147eb7b-b574-484a-a1ea-272e38121667","ios":"levelo://app?vid=1147eb7b-b574-484a-a1ea-272e38121667"},"vehicle_type_id":"4","last_reported":1732367804,"current_range_meters":36000,"station_id":"ce4bh0h2rcd13ifvqd60","pricing_plan_id":"cebpf4jnsgd1na2vs0mg"},{"bike_id":"97437fd5-e381-403b-962e-cf899defef24","system_id":"levelo_inurba_marseille","lat":43.3248,"lon":5.36572,"is_reserved":false,"is_disabled":false,"rental_uris":{"android":"levelo://app?vid=97437fd5-e381-403b-962e-cf899defef24","ios":"levelo://app?vid=97437fd5-e381-403b-962e-cf899defef24"},"vehicle_type_id":"4","last_reported":1732367804,"current_range_meters":25600,"station_id":"ce4bhs12rcd13ifvqhvg","pricing_plan_id":"cebpf4jnsgd1na2vs0mg"},{"bike_id":"68f9bc67-7a46-4c54-8555-1eed96ca8ef0","system_id":"levelo_inurba_marseille","lat":43.32107,"lon":5.36778,"is_reserved":false,"is_disabled":false,"rental_uris":{"android":"levelo://app?vid=68f9bc67-7a46-4c54-8555-1eed96ca8ef0","ios":"levelo://app?vid=68f9bc67-7a46-4c54-8555-1eed96ca8ef0"},"vehicle_type_id":"4","last_reported":1732367804,"current_range_meters":36400,"station_id":"ce4bhrh2rcd13ifvqhug","pricing_plan_id":"cebpf4jnsgd1na2vs0mg"},{"bike_id":"537d42b5-9590-4ccc-9b1f-d6591041c133","system_id":"levelo_inurba_marseille","lat":43.30212,"lon":5.39474,"is_reserved":false,"is_disabled":false,"rental_uris":{"android":"levelo://app?vid=537d42b5-9590-4ccc-9b1f-d6591041c133","ios":"levelo://app?vid=537d42b5-9590-4ccc-9b1f-d6591041c133"},"vehicle_type_id":"4","last_reported":1732367804,"current_range_meters":38400,"station_id":"ce4bh0p2rcd13ifvqd70","pricing_plan_id":"cebpf4jnsgd1na2vs0mg"},{"bike_id":"063115e9-6f47-4eb0-9625-8f724283aa7f","system_id":"levelo_inurba_marseille","lat":43.28941,"lon":5.36639,"is_reserved":false,"is_disabled":false,"rental_uris":{"android":"levelo://app?vid=063115e9-6f47-4eb0-9625-8f724283aa7f","ios":"levelo://app?vid=063115e9-6f47-4eb0-9625-8f724283aa7f"},"vehicle_type_id":"4","last_reported":1732367804,"current_range_meters":38000,"station_id":"ce4bhap2rcd13ifvqek0","pricing_plan_id":"cebpf4jnsgd1na2vs0mg"},{"bike_id":"dab91a37-38d9-40d1-92ef-9579082d09de","system_id":"levelo_inurba_marseille","lat":43.26552,"lon":5.37294,"is_reserved":false,"is_disabled":false,"rental_uris":{"android":"levelo://app?vid=dab91a37-38d9-40d1-92ef-9579082d09de","ios":"levelo://app?vid=dab91a37-38d9-40d1-92ef-9579082d09de"},"vehicle_type_id":"4","last_reported":1732367804,"current_range_meters":18800,"station_id":"ce4bhg12rcd13ifvqf70","pricing_plan_id":"cebpf4jnsgd1na2vs0mg"},{"bike_id":"438578fc-7baf-4f66-a3b2-0426d16984fc","system_id":"levelo_inurba_marseille","lat":43.27025,"lon":5.42309,"is_reserved":false,"is_disabled":false,"rental_uris":{"android":"levelo://app?vid=438578fc-7baf-4f66-a3b2-0426d16984fc","ios":"levelo://app?vid=438578fc-7baf-4f66-a3b2-0426d16984fc"},"vehicle_type_id":"4","last_reported":1732367804,"current_range_meters":19600,"station_id":"ce4bhk92rcd13ifvqgb0","pricing_plan_id":"cebpf4jnsgd1na2vs0mg"},{"bike_id":"fc849981-4b43-4619-b03a-5d4a4adc88a0","system_id":"levelo_inurba_marseille","lat":43.27317,"lon":5.39097,"is_reserved":false,"is_disabled":false,"rental_uris":{"android":"levelo://app?vid=fc849981-4b43-4619-b03a-5d4a4adc88a0","ios":"levelo://app?vid=fc849981-4b43-4619-b03a-5d4a4adc88a0"},"vehicle_type_id":"4","last_reported":1732367804,"current_range_meters":4400,"station_id":"ce4bhgp2rcd13ifvqfe0","pricing_plan_id":"cebpf4jnsgd1na2vs0mg"},{"bike_id":"d60edd73-4923-4330-b16d-caf6d1490a7d","system_id":"levelo_inurba_marseille","lat":43.31539,"lon":5.38024,"is_reserved":false,"is_disabled":false,"rental_uris":{"android":"levelo://app?vid=d60edd73-4923-4330-b16d-caf6d1490a7d","ios":"levelo://app?vid=d60edd73-4923-4330-b16d-caf6d1490a7d"},"vehicle_type_id":"4","last_reported":1732367804,"current_range_meters":10000,"station_id":"ce4bhsp2rcd13ifvqi50","pricing_plan_id":"cebpf4jnsgd1na2vs0mg"},{"bike_id":"200c8427-b417-4683-89df-d9b9fe130c53","system_id":"levelo_inurba_marseille","lat":43.30886,"lon":5.37196,"is_reserved":false,"is_disabled":false,"rental_uris":{"android":"levelo://app?vid=200c8427-b417-4683-89df-d9b9fe130c53","ios":"levelo://app?vid=200c8427-b417-4683-89df-d9b9fe130c53"},"vehicle_type_id":"4","last_reported":1732367804,"current_range_meters":38400,"station_id":"ce4bguh2rcd13ifvqckg","pricing_plan_id":"cebpf4jnsgd1na2vs0mg"},{"bike_id":"3c507e5a-46d7-43af-9852-54ee0365dd0e","system_id":"levelo_inurba_marseille","lat":43.30134,"lon":5.39884,"is_reserved":false,"is_disabled":true,"rental_uris":{"android":"levelo://app?vid=3c507e5a-46d7-43af-9852-54ee0365dd0e","ios":"levelo://app?vid=3c507e5a-46d7-43af-9852-54ee0365dd0e"},"vehicle_type_id":"4","last_reported":1732367804,"current_range_meters":0,"station_id":"ce4bh0h2rcd13ifvqd40","pricing_plan_id":"cebpf4jnsgd1na2vs0mg"},{"bike_id":"2ce56eac-607f-4aee-97f1-1efe9a148076","system_id":"levelo_inurba_marseille","lat":43.22927,"lon":5.35377,"is_reserved":false,"is_disabled":false,"rental_uris":{"android":"levelo://app?vid=2ce56eac-607f-4aee-97f1-1efe9a148076","ios":"levelo://app?vid=2ce56eac-607f-4aee-97f1-1efe9a148076"},"vehicle_type_id":"4","last_reported":1732367804,"current_range_meters":9600,"station_id":"cpo3532slgdg3j2ikp40","pricing_plan_id":"cebpf4jnsgd1na2vs0mg"},{"bike_id":"3c5d0254-2542-44e0-aa08-1a8753e937a8","system_id":"levelo_inurba_marseille","lat":43.26687,"lon":5.38273,"is_reserved":false,"is_disabled":false,"rental_uris":{"android":"levelo://app?vid=3c5d0254-2542-44e0-aa08-1a8753e937a8","ios":"levelo://app?vid=3c5d0254-2542-44e0-aa08-1a8753e937a8"},"vehicle_type_id":"4","last_reported":1732367804,"current_range_meters":36000,"station_id":"ce4bhg92rcd13ifvqf90","pricing_plan_id":"cebpf4jnsgd1na2vs0mg"},{"bike_id":"dd3b09fe-b71a-401a-b299-a88383f47f1c","system_id":"levelo_inurba_marseille","lat":43.337444,"lon":5.374475,"is_reserved":false,"is_disabled":false,"rental_uris":{"android":"levelo://app?vid=dd3b09fe-b71a-401a-b299-a88383f47f1c","ios":"levelo://app?vid=dd3b09fe-b71a-401a-b299-a88383f47f1c"},"vehicle_type_id":"4","last_reported":1732367804,"current_range_meters":35600,"station_id":"","pricing_plan_id":"cebpf4jnsgd1na2vs0mg"},{"bike_id":"b9fecf59-3c80-4f52-bafe-65b853e2ea1a","system_id":"levelo_inurba_marseille","lat":43.28412,"lon":5.34986,"is_reserved":false,"is_disabled":false,"rental_uris":{"android":"levelo://app?vid=b9fecf59-3c80-4f52-bafe-65b853e2ea1a","ios":"levelo://app?vid=b9fecf59-3c80-4f52-bafe-65b853e2ea1a"},"vehicle_type_id":"4","last_reported":1732367804,"current_range_meters":20800,"station_id":"ce4bhbh2rcd13ifvqepg","pricing_plan_id":"cebpf4jnsgd1na2vs0mg"},{"bike_id":"c74abcec-f83d-46ae-b5a9-0a57cc1c1c41","system_id":"levelo_inurba_marseille","lat":43.23183,"lon":5.3556,"is_reserved":false,"is_disabled":false,"rental_uris":{"android":"levelo://app?vid=c74abcec-f83d-46ae-b5a9-0a57cc1c1c41","ios":"levelo://app?vid=c74abcec-f83d-46ae-b5a9-0a57cc1c1c41"},"vehicle_type_id":"4","last_reported":1732367804,"current_range_meters":34000,"station_id":"ce4bhu92rcd13ifvqi70","pricing_plan_id":"cebpf4jnsgd1na2vs0mg"},{"bike_id":"70efe11f-246e-4816-84be-0fd24c72d35e","system_id":"levelo_inurba_marseille","lat":43.24669,"lon":5.38161,"is_reserved":false,"is_disabled":false,"rental_uris":{"android":"levelo://app?vid=70efe11f-246e-4816-84be-0fd24c72d35e","ios":"levelo://app?vid=70efe11f-246e-4816-84be-0fd24c72d35e"},"vehicle_type_id":"4","last_reported":1732367804,"current_range_meters":24800,"station_id":"ce4bhih2rcd13ifvqfr0","pricing_plan_id":"cebpf4jnsgd1na2vs0mg"},{"bike_id":"1d72f03c-a57a-43c3-977e-003f4dfd2b0e","system_id":"levelo_inurba_marseille","lat":43.26787,"lon":5.39414,"is_reserved":false,"is_disabled":false,"rental_uris":{"android":"levelo://app?vid=1d72f03c-a57a-43c3-977e-003f4dfd2b0e","ios":"levelo://app?vid=1d72f03c-a57a-43c3-977e-003f4dfd2b0e"},"vehicle_type_id":"4","last_reported":1732367804,"current_range_meters":30400,"station_id":"ce4bhh12rcd13ifvqfg0","pricing_plan_id":"cebpf4jnsgd1na2vs0mg"},{"bike_id":"c398b6ed-d269-476e-ae31-38d108cc139c","system_id":"levelo_inurba_marseille","lat":43.30505,"lon":5.37107,"is_reserved":false,"is_disabled":false,"rental_uris":{"android":"levelo://app?vid=c398b6ed-d269-476e-ae31-38d108cc139c","ios":"levelo://app?vid=c398b6ed-d269-476e-ae31-38d108cc139c"},"vehicle_type_id":"4","last_reported":1732367804,"current_range_meters":35600,"station_id":"","pricing_plan_id":"cebpf4jnsgd1na2vs0mg"},{"bike_id":"c3a9fd83-5a98-42b2-a8f7-5104c351d62e","system_id":"levelo_inurba_marseille","lat":43.30458,"lon":5.379,"is_reserved":false,"is_disabled":false,"rental_uris":{"android":"levelo://app?vid=c3a9fd83-5a98-42b2-a8f7-5104c351d62e","ios":"levelo://app?vid=c3a9fd83-5a98-42b2-a8f7-5104c351d62e"},"vehicle_type_id":"4","last_reported":1732367804,"current_range_meters":38400,"station_id":"ce4bgup2rcd13ifvqcn0","pricing_plan_id":"cebpf4jnsgd1na2vs0mg"},{"bike_id":"a07f3b18-b7e9-4865-b1d3-2e0773f13888","system_id":"levelo_inurba_marseille","lat":43.24809,"lon":5.37458,"is_reserved":false,"is_disabled":false,"rental_uris":{"android":"levelo://app?vid=a07f3b18-b7e9-4865-b1d3-2e0773f13888","ios":"levelo://app?vid=a07f3b18-b7e9-4865-b1d3-2e0773f13888"},"vehicle_type_id":"4","last_reported":1732367804,"current_range_meters":6400,"station_id":"ce4bhgh2rcd13ifvqfb0","pricing_plan_id":"cebpf4jnsgd1na2vs0mg"},{"bike_id":"1eff5ce5-2d56-4465-a12c-60db9ec2175a","system_id":"levelo_inurba_marseille","lat":43.22928,"lon":5.35383,"is_reserved":false,"is_disabled":false,"rental_uris":{"android":"levelo://app?vid=1eff5ce5-2d56-4465-a12c-60db9ec2175a","ios":"levelo://app?vid=1eff5ce5-2d56-4465-a12c-60db9ec2175a"},"vehicle_type_id":"4","last_reported":1732367804,"current_range_meters":37600,"station_id":"cpo3532slgdg3j2ikp40","pricing_plan_id":"cebpf4jnsgd1na2vs0mg"},{"bike_id":"e3f12011-d89c-42ab-8a1a-7013db32f1da","system_id":"levelo_inurba_marseille","lat":43.30814,"lon":5.38165,"is_reserved":false,"is_disabled":false,"rental_uris":{"android":"levelo://app?vid=e3f12011-d89c-42ab-8a1a-7013db32f1da","ios":"levelo://app?vid=e3f12011-d89c-42ab-8a1a-7013db32f1da"},"vehicle_type_id":"4","last_reported":1732367804,"current_range_meters":14400,"station_id":"ce4bgt12rcd13ifvqce0","pricing_plan_id":"cebpf4jnsgd1na2vs0mg"},{"bike_id":"cbc2167d-639d-4b33-b914-3ad6f36f2868","system_id":"levelo_inurba_marseille","lat":43.22925,"lon":5.35372,"is_reserved":false,"is_disabled":false,"rental_uris":{"android":"levelo://app?vid=cbc2167d-639d-4b33-b914-3ad6f36f2868","ios":"levelo://app?vid=cbc2167d-639d-4b33-b914-3ad6f36f2868"},"vehicle_type_id":"4","last_reported":1732367804,"current_range_meters":6400,"station_id":"cpo3532slgdg3j2ikp40","pricing_plan_id":"cebpf4jnsgd1na2vs0mg"},{"bike_id":"ce635bf4-d6b1-40cb-9d8a-ca98c4d59533","system_id":"levelo_inurba_marseille","lat":43.28102,"lon":5.39913,"is_reserved":false,"is_disabled":false,"rental_uris":{"android":"levelo://app?vid=ce635bf4-d6b1-40cb-9d8a-ca98c4d59533","ios":"levelo://app?vid=ce635bf4-d6b1-40cb-9d8a-ca98c4d59533"},"vehicle_type_id":"4","last_reported":1732367804,"current_range_meters":33200,"station_id":"ce4bgip2rcd13ifvqbb0","pricing_plan_id":"cebpf4jnsgd1na2vs0mg"},{"bike_id":"aceb966a-e5bc-4340-9be3-5367f9ac3630","system_id":"levelo_inurba_marseille","lat":43.29531,"lon":5.37497,"is_reserved":false,"is_disabled":false,"rental_uris":{"android":"levelo://app?vid=aceb966a-e5bc-4340-9be3-5367f9ac3630","ios":"levelo://app?vid=aceb966a-e5bc-4340-9be3-5367f9ac3630"},"vehicle_type_id":"4","last_reported":1732367804,"current_range_meters":24800,"station_id":"ce4bgkp2rcd13ifvqbmg","pricing_plan_id":"cebpf4jnsgd1na2vs0mg"},{"bike_id":"459421a7-270d-40d2-af40-a14d0bb4e5a3","system_id":"levelo_inurba_marseille","lat":43.25862,"lon":5.39907,"is_reserved":false,"is_disabled":false,"rental_uris":{"android":"levelo://app?vid=459421a7-270d-40d2-af40-a14d0bb4e5a3","ios":"levelo://app?vid=459421a7-270d-40d2-af40-a14d0bb4e5a3"},"vehicle_type_id":"4","last_reported":1732367804,"current_range_meters":35600,"station_id":"ce4bhl92rcd13ifvqghg","pricing_plan_id":"cebpf4jnsgd1na2vs0mg"},{"bike_id":"997f523e-2972-4d81-bdb0-fec30c99e8d3","system_id":"levelo_inurba_marseille","lat":43.24802,"lon":5.37457,"is_reserved":false,"is_disabled":false,"rental_uris":{"android":"levelo://app?vid=997f523e-2972-4d81-bdb0-fec30c99e8d3","ios":"levelo://app?vid=997f523e-2972-4d81-bdb0-fec30c99e8d3"},"vehicle_type_id":"4","last_reported":1732367804,"current_range_meters":38000,"station_id":"ce4bhgh2rcd13ifvqfb0","pricing_plan_id":"cebpf4jnsgd1na2vs0mg"},{"bike_id":"e6cd0c8f-d7f7-4b8c-b79a-5062102cc9cc","system_id":"levelo_inurba_marseille","lat":43.29565,"lon":5.3752,"is_reserved":false,"is_disabled":false,"rental_uris":{"android":"levelo://app?vid=e6cd0c8f-d7f7-4b8c-b79a-5062102cc9cc","ios":"levelo://app?vid=e6cd0c8f-d7f7-4b8c-b79a-5062102cc9cc"},"vehicle_type_id":"4","last_reported":1732367804,"current_range_meters":38800,"station_id":"ce4bgh92rcd13ifvqb50","pricing_plan_id":"cebpf4jnsgd1na2vs0mg"},{"bike_id":"f796b412-9140-415f-9f98-4b489dc2b14e","system_id":"levelo_inurba_marseille","lat":43.26936,"lon":5.40246,"is_reserved":false,"is_disabled":false,"rental_uris":{"android":"levelo://app?vid=f796b412-9140-415f-9f98-4b489dc2b14e","ios":"levelo://app?vid=f796b412-9140-415f-9f98-4b489dc2b14e"},"vehicle_type_id":"4","last_reported":1732367804,"current_range_meters":36400,"station_id":"cjm6bp8fraef2m0cb0m0","pricing_plan_id":"cebpf4jnsgd1na2vs0mg"},{"bike_id":"70ec2fde-977f-4cda-9c94-7de7ba636977","system_id":"levelo_inurba_marseille","lat":43.26558,"lon":5.37284,"is_reserved":false,"is_disabled":false,"rental_uris":{"android":"levelo://app?vid=70ec2fde-977f-4cda-9c94-7de7ba636977","ios":"levelo://app?vid=70ec2fde-977f-4cda-9c94-7de7ba636977"},"vehicle_type_id":"4","last_reported":1732367804,"current_range_meters":3200,"station_id":"ce4bhg12rcd13ifvqf70","pricing_plan_id":"cebpf4jnsgd1na2vs0mg"},{"bike_id":"0a0508c7-4eee-4d1f-a301-d4cbdd85f067","system_id":"levelo_inurba_marseille","lat":43.27317,"lon":5.39088,"is_reserved":false,"is_disabled":false,"rental_uris":{"android":"levelo://app?vid=0a0508c7-4eee-4d1f-a301-d4cbdd85f067","ios":"levelo://app?vid=0a0508c7-4eee-4d1f-a301-d4cbdd85f067"},"vehicle_type_id":"4","last_reported":1732367804,"current_range_meters":19200,"station_id":"ce4bhgp2rcd13ifvqfe0","pricing_plan_id":"cebpf4jnsgd1na2vs0mg"},{"bike_id":"2671fb8a-3452-46fd-bec4-bd169133378c","system_id":"levelo_inurba_marseille","lat":43.26682,"lon":5.38268,"is_reserved":false,"is_disabled":true,"rental_uris":{"android":"levelo://app?vid=2671fb8a-3452-46fd-bec4-bd169133378c","ios":"levelo://app?vid=2671fb8a-3452-46fd-bec4-bd169133378c"},"vehicle_type_id":"4","last_reported":1732367804,"current_range_meters":0,"station_id":"ce4bhg92rcd13ifvqf90","pricing_plan_id":"cebpf4jnsgd1na2vs0mg"},{"bike_id":"a89ea2d2-9f7a-4ca0-b4c6-6693004d86cf","system_id":"levelo_inurba_marseille","lat":43.24806,"lon":5.37456,"is_reserved":false,"is_disabled":false,"rental_uris":{"android":"levelo://app?vid=a89ea2d2-9f7a-4ca0-b4c6-6693004d86cf","ios":"levelo://app?vid=a89ea2d2-9f7a-4ca0-b4c6-6693004d86cf"},"vehicle_type_id":"4","last_reported":1732367804,"current_range_meters":3200,"station_id":"ce4bhgh2rcd13ifvqfb0","pricing_plan_id":"cebpf4jnsgd1na2vs0mg"},{"bike_id":"8f965d98-ed0b-4d4e-889d-7e115e8d38c5","system_id":"levelo_inurba_marseille","lat":43.31719,"lon":5.4241,"is_reserved":false,"is_disabled":false,"rental_uris":{"android":"levelo://app?vid=8f965d98-ed0b-4d4e-889d-7e115e8d38c5","ios":"levelo://app?vid=8f965d98-ed0b-4d4e-889d-7e115e8d38c5"},"vehicle_type_id":"4","last_reported":1732367804,"current_range_meters":8800,"station_id":"ce4bhp92rcd13ifvqhbg","pricing_plan_id":"cebpf4jnsgd1na2vs0mg"},{"bike_id":"1752c724-2da7-45b5-8b48-74d9be0dc05d","system_id":"levelo_inurba_marseille","lat":43.27993,"lon":5.40016,"is_reserved":false,"is_disabled":false,"rental_uris":{"android":"levelo://app?vid=1752c724-2da7-45b5-8b48-74d9be0dc05d","ios":"levelo://app?vid=1752c724-2da7-45b5-8b48-74d9be0dc05d"},"vehicle_type_id":"4","last_reported":1732367804,"current_range_meters":8000,"station_id":"ce4bho92rcd13ifvqh4g","pricing_plan_id":"cebpf4jnsgd1na2vs0mg"},{"bike_id":"d03de03b-2274-44c7-9a5f-9dee18d21d66","system_id":"levelo_inurba_marseille","lat":43.29305,"lon":5.37469,"is_reserved":false,"is_disabled":false,"rental_uris":{"android":"levelo://app?vid=d03de03b-2274-44c7-9a5f-9dee18d21d66","ios":"levelo://app?vid=d03de03b-2274-44c7-9a5f-9dee18d21d66"},"vehicle_type_id":"4","last_reported":1732367804,"current_range_meters":38400,"station_id":"ce4bgi12rcd13ifvqb70","pricing_plan_id":"cebpf4jnsgd1na2vs0mg"},{"bike_id":"75bd5727-7b2c-4eca-82b1-3f7b35bab696","system_id":"levelo_inurba_marseille","lat":43.27807,"lon":5.40716,"is_reserved":false,"is_disabled":false,"rental_uris":{"android":"levelo://app?vid=75bd5727-7b2c-4eca-82b1-3f7b35bab696","ios":"levelo://app?vid=75bd5727-7b2c-4eca-82b1-3f7b35bab696"},"vehicle_type_id":"4","last_reported":1732367804,"current_range_meters":30400,"station_id":"ce4bhnh2rcd13ifvqgtg","pricing_plan_id":"cebpf4jnsgd1na2vs0mg"},{"bike_id":"5ac64788-d797-450b-b5cf-69fefb7d4be1","system_id":"levelo_inurba_marseille","lat":43.30616,"lon":5.37215,"is_reserved":false,"is_disabled":false,"rental_uris":{"android":"levelo://app?vid=5ac64788-d797-450b-b5cf-69fefb7d4be1","ios":"levelo://app?vid=5ac64788-d797-450b-b5cf-69fefb7d4be1"},"vehicle_type_id":"4","last_reported":1732367804,"current_range_meters":39200,"station_id":"ce4bgqh2rcd13ifvqc4g","pricing_plan_id":"cebpf4jnsgd1na2vs0mg"},{"bike_id":"f099390a-c100-4560-9274-ff7be92824ac","system_id":"levelo_inurba_marseille","lat":43.30295,"lon":5.3772,"is_reserved":false,"is_disabled":false,"rental_uris":{"android":"levelo://app?vid=f099390a-c100-4560-9274-ff7be92824ac","ios":"levelo://app?vid=f099390a-c100-4560-9274-ff7be92824ac"},"vehicle_type_id":"4","last_reported":1732367804,"current_range_meters":40000,"station_id":"ce4bguh2rcd13ifvqcj0","pricing_plan_id":"cebpf4jnsgd1na2vs0mg"},{"bike_id":"133c0635-6ac4-49a6-b3b8-4ad5dda949c5","system_id":"levelo_inurba_marseille","lat":43.31717,"lon":5.37758,"is_reserved":false,"is_disabled":true,"rental_uris":{"android":"levelo://app?vid=133c0635-6ac4-49a6-b3b8-4ad5dda949c5","ios":"levelo://app?vid=133c0635-6ac4-49a6-b3b8-4ad5dda949c5"},"vehicle_type_id":"4","last_reported":1732367804,"current_range_meters":38800,"station_id":"ce4bgth2rcd13ifvqch0","pricing_plan_id":"cebpf4jnsgd1na2vs0mg"},{"bike_id":"7dca1225-3e09-4c41-9010-8cf519cde639","system_id":"levelo_inurba_marseille","lat":43.30536,"lon":5.36718,"is_reserved":false,"is_disabled":false,"rental_uris":{"android":"levelo://app?vid=7dca1225-3e09-4c41-9010-8cf519cde639","ios":"levelo://app?vid=7dca1225-3e09-4c41-9010-8cf519cde639"},"vehicle_type_id":"4","last_reported":1732367804,"current_range_meters":37600,"station_id":"ce4bgrp2rcd13ifvqc9g","pricing_plan_id":"cebpf4jnsgd1na2vs0mg"},{"bike_id":"b60ef808-5579-4507-8e03-7bbe542ab1cc","system_id":"levelo_inurba_marseille","lat":43.303695,"lon":5.418997,"is_reserved":false,"is_disabled":false,"rental_uris":{"android":"levelo://app?vid=b60ef808-5579-4507-8e03-7bbe542ab1cc","ios":"levelo://app?vid=b60ef808-5579-4507-8e03-7bbe542ab1cc"},"vehicle_type_id":"4","last_reported":1732367804,"current_range_meters":38400,"station_id":"ce4bhop2rcd13ifvqh7g","pricing_plan_id":"cebpf4jnsgd1na2vs0mg"},{"bike_id":"dffeccd3-600e-418b-9fc1-99c6dfe6c759","system_id":"levelo_inurba_marseille","lat":43.30138,"lon":5.37415,"is_reserved":false,"is_disabled":false,"rental_uris":{"android":"levelo://app?vid=dffeccd3-600e-418b-9fc1-99c6dfe6c759","ios":"levelo://app?vid=dffeccd3-600e-418b-9fc1-99c6dfe6c759"},"vehicle_type_id":"4","last_reported":1732367804,"current_range_meters":22800,"station_id":"ce4bgs92rcd13ifvqcc0","pricing_plan_id":"cebpf4jnsgd1na2vs0mg"},{"bike_id":"d99d745a-edcb-4d3d-bf9d-7fa79bc2aaf5","system_id":"levelo_inurba_marseille","lat":43.31992,"lon":5.3815,"is_reserved":false,"is_disabled":false,"rental_uris":{"android":"levelo://app?vid=d99d745a-edcb-4d3d-bf9d-7fa79bc2aaf5","ios":"levelo://app?vid=d99d745a-edcb-4d3d-bf9d-7fa79bc2aaf5"},"vehicle_type_id":"4","last_reported":1732367804,"current_range_meters":11200,"station_id":"ce4bhr12rcd13ifvqhpg","pricing_plan_id":"cebpf4jnsgd1na2vs0mg"},{"bike_id":"c9880b47-fbbb-4e4a-9da2-2304114fa137","system_id":"levelo_inurba_marseille","lat":43.26032,"lon":5.37546,"is_reserved":false,"is_disabled":false,"rental_uris":{"android":"levelo://app?vid=c9880b47-fbbb-4e4a-9da2-2304114fa137","ios":"levelo://app?vid=c9880b47-fbbb-4e4a-9da2-2304114fa137"},"vehicle_type_id":"4","last_reported":1732367804,"current_range_meters":11200,"station_id":"ce4bhgh2rcd13ifvqfa0","pricing_plan_id":"cebpf4jnsgd1na2vs0mg"},{"bike_id":"671608a0-20df-4ad2-a92b-921c603a51b9","system_id":"levelo_inurba_marseille","lat":43.29277,"lon":5.40126,"is_reserved":false,"is_disabled":false,"rental_uris":{"android":"levelo://app?vid=671608a0-20df-4ad2-a92b-921c603a51b9","ios":"levelo://app?vid=671608a0-20df-4ad2-a92b-921c603a51b9"},"vehicle_type_id":"4","last_reported":1732367804,"current_range_meters":38800,"station_id":"ce4bh312rcd13ifvqdk0","pricing_plan_id":"cebpf4jnsgd1na2vs0mg"},{"bike_id":"15e09a02-40d9-4ff0-82a6-abf80a362c5c","system_id":"levelo_inurba_marseille","lat":43.28359,"lon":5.38628,"is_reserved":false,"is_disabled":false,"rental_uris":{"android":"levelo://app?vid=15e09a02-40d9-4ff0-82a6-abf80a362c5c","ios":"levelo://app?vid=15e09a02-40d9-4ff0-82a6-abf80a362c5c"},"vehicle_type_id":"4","last_reported":1732367804,"current_range_meters":8400,"station_id":"ce4bh492rcd13ifvqdvg","pricing_plan_id":"cebpf4jnsgd1na2vs0mg"},{"bike_id":"552ae1f9-34eb-4d70-a19b-3616d3661778","system_id":"levelo_inurba_marseille","lat":43.33715,"lon":5.39179,"is_reserved":false,"is_disabled":false,"rental_uris":{"android":"levelo://app?vid=552ae1f9-34eb-4d70-a19b-3616d3661778","ios":"levelo://app?vid=552ae1f9-34eb-4d70-a19b-3616d3661778"},"vehicle_type_id":"4","last_reported":1732367804,"current_range_meters":20800,"station_id":"ce4bhr92rcd13ifvqhsg","pricing_plan_id":"cebpf4jnsgd1na2vs0mg"},{"bike_id":"f7f3756c-1ec7-4782-9c87-6273f87b6774","system_id":"levelo_inurba_marseille","lat":43.337444,"lon":5.374475,"is_reserved":false,"is_disabled":true,"rental_uris":{"android":"levelo://app?vid=f7f3756c-1ec7-4782-9c87-6273f87b6774","ios":"levelo://app?vid=f7f3756c-1ec7-4782-9c87-6273f87b6774"},"vehicle_type_id":"4","last_reported":1732367804,"current_range_meters":32800,"station_id":"","pricing_plan_id":"cebpf4jnsgd1na2vs0mg"},{"bike_id":"740f162e-a0c7-4af9-899d-283ea1409dc6","system_id":"levelo_inurba_marseille","lat":43.26934,"lon":5.38917,"is_reserved":false,"is_disabled":true,"rental_uris":{"android":"levelo://app?vid=740f162e-a0c7-4af9-899d-283ea1409dc6","ios":"levelo://app?vid=740f162e-a0c7-4af9-899d-283ea1409dc6"},"vehicle_type_id":"4","last_reported":1732367804,"current_range_meters":36800,"station_id":"ce4bhhh2rcd13ifvqfl0","pricing_plan_id":"cebpf4jnsgd1na2vs0mg"},{"bike_id":"e8f826ec-cf1d-427e-a65b-cf83f280be00","system_id":"levelo_inurba_marseille","lat":43.27055,"lon":5.40263,"is_reserved":false,"is_disabled":true,"rental_uris":{"android":"levelo://app?vid=e8f826ec-cf1d-427e-a65b-cf83f280be00","ios":"levelo://app?vid=e8f826ec-cf1d-427e-a65b-cf83f280be00"},"vehicle_type_id":"4","last_reported":1732367804,"current_range_meters":800,"station_id":"ce4bhk92rcd13ifvqgc0","pricing_plan_id":"cebpf4jnsgd1na2vs0mg"},{"bike_id":"99280cf8-c049-4d28-b9ac-acaa05e32f0f","system_id":"levelo_inurba_marseille","lat":43.29549,"lon":5.42282,"is_reserved":false,"is_disabled":false,"rental_uris":{"android":"levelo://app?vid=99280cf8-c049-4d28-b9ac-acaa05e32f0f","ios":"levelo://app?vid=99280cf8-c049-4d28-b9ac-acaa05e32f0f"},"vehicle_type_id":"4","last_reported":1732367804,"current_range_meters":40000,"station_id":"ce4bhph2rcd13ifvqhdg","pricing_plan_id":"cebpf4jnsgd1na2vs0mg"},{"bike_id":"36929a35-ca9b-47ee-b33c-595a7384bcff","system_id":"levelo_inurba_marseille","lat":43.33016,"lon":5.39033,"is_reserved":false,"is_disabled":false,"rental_uris":{"android":"levelo://app?vid=36929a35-ca9b-47ee-b33c-595a7384bcff","ios":"levelo://app?vid=36929a35-ca9b-47ee-b33c-595a7384bcff"},"vehicle_type_id":"4","last_reported":1732367804,"current_range_meters":26000,"station_id":"ce4bhr92rcd13ifvqhrg","pricing_plan_id":"cebpf4jnsgd1na2vs0mg"},{"bike_id":"e7f48f28-6d51-4a45-b5a7-1fbbaa7fd4e2","system_id":"levelo_inurba_marseille","lat":43.2962,"lon":5.37156,"is_reserved":false,"is_disabled":false,"rental_uris":{"android":"levelo://app?vid=e7f48f28-6d51-4a45-b5a7-1fbbaa7fd4e2","ios":"levelo://app?vid=e7f48f28-6d51-4a45-b5a7-1fbbaa7fd4e2"},"vehicle_type_id":"4","last_reported":1732367804,"current_range_meters":39200,"station_id":"ce4bgnh2rcd13ifvqc0g","pricing_plan_id":"cebpf4jnsgd1na2vs0mg"},{"bike_id":"e74125a9-74c4-4830-af92-47ce6562e6bd","system_id":"levelo_inurba_marseille","lat":43.24649,"lon":5.38903,"is_reserved":false,"is_disabled":false,"rental_uris":{"android":"levelo://app?vid=e74125a9-74c4-4830-af92-47ce6562e6bd","ios":"levelo://app?vid=e74125a9-74c4-4830-af92-47ce6562e6bd"},"vehicle_type_id":"4","last_reported":1732367804,"current_range_meters":38800,"station_id":"ce4bhg12rcd13ifvqf60","pricing_plan_id":"cebpf4jnsgd1na2vs0mg"},{"bike_id":"004b1cb8-188f-4e0a-83af-382dd195ad54","system_id":"levelo_inurba_marseille","lat":43.23192,"lon":5.35548,"is_reserved":false,"is_disabled":false,"rental_uris":{"android":"levelo://app?vid=004b1cb8-188f-4e0a-83af-382dd195ad54","ios":"levelo://app?vid=004b1cb8-188f-4e0a-83af-382dd195ad54"},"vehicle_type_id":"4","last_reported":1732367804,"current_range_meters":29600,"station_id":"ce4bhu92rcd13ifvqi70","pricing_plan_id":"cebpf4jnsgd1na2vs0mg"},{"bike_id":"8b4c21d6-a285-4121-a2fe-9e556ef8817d","system_id":"levelo_inurba_marseille","lat":43.23058,"lon":5.35494,"is_reserved":false,"is_disabled":false,"rental_uris":{"android":"levelo://app?vid=8b4c21d6-a285-4121-a2fe-9e556ef8817d","ios":"levelo://app?vid=8b4c21d6-a285-4121-a2fe-9e556ef8817d"},"vehicle_type_id":"4","last_reported":1732367804,"current_range_meters":9600,"station_id":"cpo3342slgdg3j2ifvpg","pricing_plan_id":"cebpf4jnsgd1na2vs0mg"},{"bike_id":"a3a4d349-0228-4793-b777-1f7ce7c73256","system_id":"levelo_inurba_marseille","lat":43.3171,"lon":5.37756,"is_reserved":false,"is_disabled":false,"rental_uris":{"android":"levelo://app?vid=a3a4d349-0228-4793-b777-1f7ce7c73256","ios":"levelo://app?vid=a3a4d349-0228-4793-b777-1f7ce7c73256"},"vehicle_type_id":"4","last_reported":1732367804,"current_range_meters":21600,"station_id":"ce4bgth2rcd13ifvqch0","pricing_plan_id":"cebpf4jnsgd1na2vs0mg"},{"bike_id":"e6f8cb3f-b639-4bb2-83ed-e7938eaf04ea","system_id":"levelo_inurba_marseille","lat":43.32109,"lon":5.36769,"is_reserved":false,"is_disabled":false,"rental_uris":{"android":"levelo://app?vid=e6f8cb3f-b639-4bb2-83ed-e7938eaf04ea","ios":"levelo://app?vid=e6f8cb3f-b639-4bb2-83ed-e7938eaf04ea"},"vehicle_type_id":"4","last_reported":1732367804,"current_range_meters":16000,"station_id":"ce4bhrh2rcd13ifvqhug","pricing_plan_id":"cebpf4jnsgd1na2vs0mg"},{"bike_id":"89228f68-3127-4436-9201-8331b38355c7","system_id":"levelo_inurba_marseille","lat":43.25728,"lon":5.41109,"is_reserved":false,"is_disabled":true,"rental_uris":{"android":"levelo://app?vid=89228f68-3127-4436-9201-8331b38355c7","ios":"levelo://app?vid=89228f68-3127-4436-9201-8331b38355c7"},"vehicle_type_id":"4","last_reported":1732367804,"current_range_meters":0,"station_id":"ce4bhkp2rcd13ifvqgd0","pricing_plan_id":"cebpf4jnsgd1na2vs0mg"},{"bike_id":"4deb61da-883d-4063-aafd-8434d4e4d606","system_id":"levelo_inurba_marseille","lat":43.29872,"lon":5.38914,"is_reserved":false,"is_disabled":false,"rental_uris":{"android":"levelo://app?vid=4deb61da-883d-4063-aafd-8434d4e4d606","ios":"levelo://app?vid=4deb61da-883d-4063-aafd-8434d4e4d606"},"vehicle_type_id":"4","last_reported":1732367804,"current_range_meters":37600,"station_id":"ce4bh392rcd13ifvqdl0","pricing_plan_id":"cebpf4jnsgd1na2vs0mg"},{"bike_id":"29fb895b-8948-42c3-9cf9-e4b5a361d278","system_id":"levelo_inurba_marseille","lat":43.28422,"lon":5.34983,"is_reserved":false,"is_disabled":false,"rental_uris":{"android":"levelo://app?vid=29fb895b-8948-42c3-9cf9-e4b5a361d278","ios":"levelo://app?vid=29fb895b-8948-42c3-9cf9-e4b5a361d278"},"vehicle_type_id":"4","last_reported":1732367804,"current_range_meters":32400,"station_id":"ce4bhbh2rcd13ifvqepg","pricing_plan_id":"cebpf4jnsgd1na2vs0mg"},{"bike_id":"e5951ee3-4a5a-4ebb-b469-096c5188dfa3","system_id":"levelo_inurba_marseille","lat":43.23184,"lon":5.35554,"is_reserved":false,"is_disabled":false,"rental_uris":{"android":"levelo://app?vid=e5951ee3-4a5a-4ebb-b469-096c5188dfa3","ios":"levelo://app?vid=e5951ee3-4a5a-4ebb-b469-096c5188dfa3"},"vehicle_type_id":"4","last_reported":1732367804,"current_range_meters":24400,"station_id":"ce4bhu92rcd13ifvqi70","pricing_plan_id":"cebpf4jnsgd1na2vs0mg"},{"bike_id":"7f7a648a-b722-4755-a42f-0b246a38fdc1","system_id":"levelo_inurba_marseille","lat":43.27056,"lon":5.40261,"is_reserved":false,"is_disabled":false,"rental_uris":{"android":"levelo://app?vid=7f7a648a-b722-4755-a42f-0b246a38fdc1","ios":"levelo://app?vid=7f7a648a-b722-4755-a42f-0b246a38fdc1"},"vehicle_type_id":"4","last_reported":1732367804,"current_range_meters":19200,"station_id":"ce4bhk92rcd13ifvqgc0","pricing_plan_id":"cebpf4jnsgd1na2vs0mg"},{"bike_id":"7ba53167-2d73-48cc-ac7e-7b18d81d04a9","system_id":"levelo_inurba_marseille","lat":43.2718,"lon":5.40996,"is_reserved":false,"is_disabled":false,"rental_uris":{"android":"levelo://app?vid=7ba53167-2d73-48cc-ac7e-7b18d81d04a9","ios":"levelo://app?vid=7ba53167-2d73-48cc-ac7e-7b18d81d04a9"},"vehicle_type_id":"4","last_reported":1732367804,"current_range_meters":25600,"station_id":"ce4bhl12rcd13ifvqgf0","pricing_plan_id":"cebpf4jnsgd1na2vs0mg"},{"bike_id":"53aedfa4-4049-4759-bc95-757addd8c685","system_id":"levelo_inurba_marseille","lat":43.26548,"lon":5.37296,"is_reserved":false,"is_disabled":true,"rental_uris":{"android":"levelo://app?vid=53aedfa4-4049-4759-bc95-757addd8c685","ios":"levelo://app?vid=53aedfa4-4049-4759-bc95-757addd8c685"},"vehicle_type_id":"4","last_reported":1732367804,"current_range_meters":800,"station_id":"ce4bhg12rcd13ifvqf70","pricing_plan_id":"cebpf4jnsgd1na2vs0mg"},{"bike_id":"0d4df7b4-f528-499b-ae2d-56faf46c117a","system_id":"levelo_inurba_marseille","lat":43.31234,"lon":5.36869,"is_reserved":false,"is_disabled":false,"rental_uris":{"android":"levelo://app?vid=0d4df7b4-f528-499b-ae2d-56faf46c117a","ios":"levelo://app?vid=0d4df7b4-f528-499b-ae2d-56faf46c117a"},"vehicle_type_id":"4","last_reported":1732367804,"current_range_meters":26800,"station_id":"ce4bgl92rcd13ifvqbq0","pricing_plan_id":"cebpf4jnsgd1na2vs0mg"},{"bike_id":"e89acc00-2b06-4720-9a63-22cf0d597a07","system_id":"levelo_inurba_marseille","lat":43.25007,"lon":5.38918,"is_reserved":false,"is_disabled":false,"rental_uris":{"android":"levelo://app?vid=e89acc00-2b06-4720-9a63-22cf0d597a07","ios":"levelo://app?vid=e89acc00-2b06-4720-9a63-22cf0d597a07"},"vehicle_type_id":"4","last_reported":1732367804,"current_range_meters":35200,"station_id":"ce4bhgp2rcd13ifvqfd0","pricing_plan_id":"cebpf4jnsgd1na2vs0mg"},{"bike_id":"830ab6f1-9f97-4b81-a374-96032fba99d2","system_id":"levelo_inurba_marseille","lat":43.24465,"lon":5.36938,"is_reserved":false,"is_disabled":true,"rental_uris":{"android":"levelo://app?vid=830ab6f1-9f97-4b81-a374-96032fba99d2","ios":"levelo://app?vid=830ab6f1-9f97-4b81-a374-96032fba99d2"},"vehicle_type_id":"4","last_reported":1732367804,"current_range_meters":22400,"station_id":"","pricing_plan_id":"cebpf4jnsgd1na2vs0mg"},{"bike_id":"6c948e9c-d5b3-4fe5-a918-1bd2f7c83b02","system_id":"levelo_inurba_marseille","lat":43.32113,"lon":5.36771,"is_reserved":false,"is_disabled":false,"rental_uris":{"android":"levelo://app?vid=6c948e9c-d5b3-4fe5-a918-1bd2f7c83b02","ios":"levelo://app?vid=6c948e9c-d5b3-4fe5-a918-1bd2f7c83b02"},"vehicle_type_id":"4","last_reported":1732367804,"current_range_meters":33200,"station_id":"ce4bhrh2rcd13ifvqhug","pricing_plan_id":"cebpf4jnsgd1na2vs0mg"},{"bike_id":"9e620abf-d324-4f99-84fc-d67e71109f2a","system_id":"levelo_inurba_marseille","lat":43.31077,"lon":5.42434,"is_reserved":false,"is_disabled":true,"rental_uris":{"android":"levelo://app?vid=9e620abf-d324-4f99-84fc-d67e71109f2a","ios":"levelo://app?vid=9e620abf-d324-4f99-84fc-d67e71109f2a"},"vehicle_type_id":"4","last_reported":1732367804,"current_range_meters":0,"station_id":"ce4bhp92rcd13ifvqhag","pricing_plan_id":"cebpf4jnsgd1na2vs0mg"},{"bike_id":"9388a7ff-9c5c-4c26-9899-39b2408cf7e3","system_id":"levelo_inurba_marseille","lat":43.31025,"lon":5.38342,"is_reserved":false,"is_disabled":true,"rental_uris":{"android":"levelo://app?vid=9388a7ff-9c5c-4c26-9899-39b2408cf7e3","ios":"levelo://app?vid=9388a7ff-9c5c-4c26-9899-39b2408cf7e3"},"vehicle_type_id":"4","last_reported":1732367804,"current_range_meters":0,"station_id":"","pricing_plan_id":"cebpf4jnsgd1na2vs0mg"},{"bike_id":"f31f2d7c-a631-47dd-850e-5d0b7089aaba","system_id":"levelo_inurba_marseille","lat":43.24662,"lon":5.3816,"is_reserved":false,"is_disabled":false,"rental_uris":{"android":"levelo://app?vid=f31f2d7c-a631-47dd-850e-5d0b7089aaba","ios":"levelo://app?vid=f31f2d7c-a631-47dd-850e-5d0b7089aaba"},"vehicle_type_id":"4","last_reported":1732367804,"current_range_meters":17200,"station_id":"ce4bhih2rcd13ifvqfr0","pricing_plan_id":"cebpf4jnsgd1na2vs0mg"},{"bike_id":"fdca708b-ceed-489c-97eb-45e14ba1b8c0","system_id":"levelo_inurba_marseille","lat":43.3237,"lon":5.38887,"is_reserved":false,"is_disabled":false,"rental_uris":{"android":"levelo://app?vid=fdca708b-ceed-489c-97eb-45e14ba1b8c0","ios":"levelo://app?vid=fdca708b-ceed-489c-97eb-45e14ba1b8c0"},"vehicle_type_id":"4","last_reported":1732367804,"current_range_meters":14400,"station_id":"ce4bhqp2rcd13ifvqhog","pricing_plan_id":"cebpf4jnsgd1na2vs0mg"},{"bike_id":"2789cc19-5efd-472e-b75f-cb519e577f7d","system_id":"levelo_inurba_marseille","lat":43.2737,"lon":5.3626,"is_reserved":false,"is_disabled":false,"rental_uris":{"android":"levelo://app?vid=2789cc19-5efd-472e-b75f-cb519e577f7d","ios":"levelo://app?vid=2789cc19-5efd-472e-b75f-cb519e577f7d"},"vehicle_type_id":"4","last_reported":1732367804,"current_range_meters":12000,"station_id":"ce4bhbh2rcd13ifvqeo0","pricing_plan_id":"cebpf4jnsgd1na2vs0mg"},{"bike_id":"5c53cfbd-2547-413a-b79a-f8cc3b1ca992","system_id":"levelo_inurba_marseille","lat":43.32109,"lon":5.3678,"is_reserved":false,"is_disabled":false,"rental_uris":{"android":"levelo://app?vid=5c53cfbd-2547-413a-b79a-f8cc3b1ca992","ios":"levelo://app?vid=5c53cfbd-2547-413a-b79a-f8cc3b1ca992"},"vehicle_type_id":"4","last_reported":1732367804,"current_range_meters":10000,"station_id":"ce4bhrh2rcd13ifvqhug","pricing_plan_id":"cebpf4jnsgd1na2vs0mg"},{"bike_id":"9efd8c15-c1c0-4821-a907-77be611467c4","system_id":"levelo_inurba_marseille","lat":43.23192,"lon":5.35547,"is_reserved":false,"is_disabled":false,"rental_uris":{"android":"levelo://app?vid=9efd8c15-c1c0-4821-a907-77be611467c4","ios":"levelo://app?vid=9efd8c15-c1c0-4821-a907-77be611467c4"},"vehicle_type_id":"4","last_reported":1732367804,"current_range_meters":18800,"station_id":"ce4bhu92rcd13ifvqi70","pricing_plan_id":"cebpf4jnsgd1na2vs0mg"},{"bike_id":"caa0a0b0-bd2a-4f91-8941-7403ad8b323f","system_id":"levelo_inurba_marseille","lat":43.25132,"lon":5.40339,"is_reserved":false,"is_disabled":false,"rental_uris":{"android":"levelo://app?vid=caa0a0b0-bd2a-4f91-8941-7403ad8b323f","ios":"levelo://app?vid=caa0a0b0-bd2a-4f91-8941-7403ad8b323f"},"vehicle_type_id":"4","last_reported":1732367804,"current_range_meters":11600,"station_id":"ce4bhlh2rcd13ifvqgig","pricing_plan_id":"cebpf4jnsgd1na2vs0mg"},{"bike_id":"85c01c0b-dd5c-4809-bf61-68287b12d903","system_id":"levelo_inurba_marseille","lat":43.32371,"lon":5.38885,"is_reserved":false,"is_disabled":false,"rental_uris":{"android":"levelo://app?vid=85c01c0b-dd5c-4809-bf61-68287b12d903","ios":"levelo://app?vid=85c01c0b-dd5c-4809-bf61-68287b12d903"},"vehicle_type_id":"4","last_reported":1732367804,"current_range_meters":30800,"station_id":"ce4bhqp2rcd13ifvqhog","pricing_plan_id":"cebpf4jnsgd1na2vs0mg"},{"bike_id":"11c71bd9-c0bf-4cf1-82af-f0f558006db9","system_id":"levelo_inurba_marseille","lat":43.29911,"lon":5.37479,"is_reserved":false,"is_disabled":false,"rental_uris":{"android":"levelo://app?vid=11c71bd9-c0bf-4cf1-82af-f0f558006db9","ios":"levelo://app?vid=11c71bd9-c0bf-4cf1-82af-f0f558006db9"},"vehicle_type_id":"4","last_reported":1732367804,"current_range_meters":27200,"station_id":"ce4bgjh2rcd13ifvqbg0","pricing_plan_id":"cebpf4jnsgd1na2vs0mg"},{"bike_id":"1073b731-dcd7-45d3-817b-61751d569f08","system_id":"levelo_inurba_marseille","lat":43.25496,"lon":5.37649,"is_reserved":false,"is_disabled":false,"rental_uris":{"android":"levelo://app?vid=1073b731-dcd7-45d3-817b-61751d569f08","ios":"levelo://app?vid=1073b731-dcd7-45d3-817b-61751d569f08"},"vehicle_type_id":"4","last_reported":1732367804,"current_range_meters":26800,"station_id":"ce4bhh12rcd13ifvqff0","pricing_plan_id":"cebpf4jnsgd1na2vs0mg"},{"bike_id":"56ca6b93-ca3d-4dfc-8e20-e35c24d8bd07","system_id":"levelo_inurba_marseille","lat":43.337444,"lon":5.374475,"is_reserved":false,"is_disabled":true,"rental_uris":{"android":"levelo://app?vid=56ca6b93-ca3d-4dfc-8e20-e35c24d8bd07","ios":"levelo://app?vid=56ca6b93-ca3d-4dfc-8e20-e35c24d8bd07"},"vehicle_type_id":"4","last_reported":1732367804,"current_range_meters":800,"station_id":"","pricing_plan_id":"cebpf4jnsgd1na2vs0mg"},{"bike_id":"8b913213-c82c-4e11-967e-7d3c72942d7d","system_id":"levelo_inurba_marseille","lat":43.27991,"lon":5.40019,"is_reserved":false,"is_disabled":false,"rental_uris":{"android":"levelo://app?vid=8b913213-c82c-4e11-967e-7d3c72942d7d","ios":"levelo://app?vid=8b913213-c82c-4e11-967e-7d3c72942d7d"},"vehicle_type_id":"4","last_reported":1732367804,"current_range_meters":38800,"station_id":"ce4bho92rcd13ifvqh4g","pricing_plan_id":"cebpf4jnsgd1na2vs0mg"},{"bike_id":"056076dc-aeb8-47ea-a8e4-0b648fb0416e","system_id":"levelo_inurba_marseille","lat":43.27943,"lon":5.41052,"is_reserved":false,"is_disabled":false,"rental_uris":{"android":"levelo://app?vid=056076dc-aeb8-47ea-a8e4-0b648fb0416e","ios":"levelo://app?vid=056076dc-aeb8-47ea-a8e4-0b648fb0416e"},"vehicle_type_id":"4","last_reported":1732367804,"current_range_meters":3600,"station_id":"ce4bhnp2rcd13ifvqh0g","pricing_plan_id":"cebpf4jnsgd1na2vs0mg"},{"bike_id":"1f741346-28e9-475e-945e-50145fcc1501","system_id":"levelo_inurba_marseille","lat":43.26931,"lon":5.38921,"is_reserved":false,"is_disabled":true,"rental_uris":{"android":"levelo://app?vid=1f741346-28e9-475e-945e-50145fcc1501","ios":"levelo://app?vid=1f741346-28e9-475e-945e-50145fcc1501"},"vehicle_type_id":"4","last_reported":1732367804,"current_range_meters":0,"station_id":"ce4bhhh2rcd13ifvqfl0","pricing_plan_id":"cebpf4jnsgd1na2vs0mg"},{"bike_id":"0c0284d3-2160-4ed3-9743-ad06a5b34516","system_id":"levelo_inurba_marseille","lat":43.30466,"lon":5.37897,"is_reserved":false,"is_disabled":false,"rental_uris":{"android":"levelo://app?vid=0c0284d3-2160-4ed3-9743-ad06a5b34516","ios":"levelo://app?vid=0c0284d3-2160-4ed3-9743-ad06a5b34516"},"vehicle_type_id":"4","last_reported":1732367804,"current_range_meters":39200,"station_id":"ce4bgup2rcd13ifvqcn0","pricing_plan_id":"cebpf4jnsgd1na2vs0mg"},{"bike_id":"e9fc18e1-4686-452d-b29b-bde3e9705fd0","system_id":"levelo_inurba_marseille","lat":43.24071,"lon":5.37758,"is_reserved":false,"is_disabled":false,"rental_uris":{"android":"levelo://app?vid=e9fc18e1-4686-452d-b29b-bde3e9705fd0","ios":"levelo://app?vid=e9fc18e1-4686-452d-b29b-bde3e9705fd0"},"vehicle_type_id":"4","last_reported":1732367804,"current_range_meters":10800,"station_id":"ce4bhnp2rcd13ifvqgvg","pricing_plan_id":"cebpf4jnsgd1na2vs0mg"},{"bike_id":"d4a54f7a-9944-4d6a-a4dd-f20b929ca914","system_id":"levelo_inurba_marseille","lat":43.29516,"lon":5.39058,"is_reserved":false,"is_disabled":false,"rental_uris":{"android":"levelo://app?vid=d4a54f7a-9944-4d6a-a4dd-f20b929ca914","ios":"levelo://app?vid=d4a54f7a-9944-4d6a-a4dd-f20b929ca914"},"vehicle_type_id":"4","last_reported":1732367804,"current_range_meters":36800,"station_id":"ce4bh3p2rcd13ifvqdp0","pricing_plan_id":"cebpf4jnsgd1na2vs0mg"},{"bike_id":"8ed38d32-aafb-4457-8ef7-cbf9ca4d7abc","system_id":"levelo_inurba_marseille","lat":43.27617,"lon":5.36109,"is_reserved":false,"is_disabled":false,"rental_uris":{"android":"levelo://app?vid=8ed38d32-aafb-4457-8ef7-cbf9ca4d7abc","ios":"levelo://app?vid=8ed38d32-aafb-4457-8ef7-cbf9ca4d7abc"},"vehicle_type_id":"4","last_reported":1732367804,"current_range_meters":35200,"station_id":"ce4bgj92rcd13ifvqbe0","pricing_plan_id":"cebpf4jnsgd1na2vs0mg"},{"bike_id":"0b5cb5ac-9bb1-426d-bfa2-58603f83b433","system_id":"levelo_inurba_marseille","lat":43.30607,"lon":5.37233,"is_reserved":false,"is_disabled":false,"rental_uris":{"android":"levelo://app?vid=0b5cb5ac-9bb1-426d-bfa2-58603f83b433","ios":"levelo://app?vid=0b5cb5ac-9bb1-426d-bfa2-58603f83b433"},"vehicle_type_id":"4","last_reported":1732367804,"current_range_meters":24000,"station_id":"ce4bgqh2rcd13ifvqc4g","pricing_plan_id":"cebpf4jnsgd1na2vs0mg"},{"bike_id":"9484666f-7d4b-4dae-9bda-a0aea41ab787","system_id":"levelo_inurba_marseille","lat":43.29224,"lon":5.3607,"is_reserved":false,"is_disabled":false,"rental_uris":{"android":"levelo://app?vid=9484666f-7d4b-4dae-9bda-a0aea41ab787","ios":"levelo://app?vid=9484666f-7d4b-4dae-9bda-a0aea41ab787"},"vehicle_type_id":"4","last_reported":1732367804,"current_range_meters":23200,"station_id":"ce4bhbh2rcd13ifvqeqg","pricing_plan_id":"cebpf4jnsgd1na2vs0mg"},{"bike_id":"19ae508e-20e3-4da1-950e-1e53bc6f7adf","system_id":"levelo_inurba_marseille","lat":43.30504,"lon":5.36818,"is_reserved":false,"is_disabled":false,"rental_uris":{"android":"levelo://app?vid=19ae508e-20e3-4da1-950e-1e53bc6f7adf","ios":"levelo://app?vid=19ae508e-20e3-4da1-950e-1e53bc6f7adf"},"vehicle_type_id":"4","last_reported":1732367804,"current_range_meters":27200,"station_id":"","pricing_plan_id":"cebpf4jnsgd1na2vs0mg"},{"bike_id":"f69c285f-5a57-461d-aa0c-c84a132a3d57","system_id":"levelo_inurba_marseille","lat":43.2572,"lon":5.41119,"is_reserved":false,"is_disabled":false,"rental_uris":{"android":"levelo://app?vid=f69c285f-5a57-461d-aa0c-c84a132a3d57","ios":"levelo://app?vid=f69c285f-5a57-461d-aa0c-c84a132a3d57"},"vehicle_type_id":"4","last_reported":1732367804,"current_range_meters":7200,"station_id":"ce4bhkp2rcd13ifvqgd0","pricing_plan_id":"cebpf4jnsgd1na2vs0mg"},{"bike_id":"11dc5a4b-e325-4438-9541-d2add67a0a3b","system_id":"levelo_inurba_marseille","lat":43.26553,"lon":5.37282,"is_reserved":false,"is_disabled":false,"rental_uris":{"android":"levelo://app?vid=11dc5a4b-e325-4438-9541-d2add67a0a3b","ios":"levelo://app?vid=11dc5a4b-e325-4438-9541-d2add67a0a3b"},"vehicle_type_id":"4","last_reported":1732367804,"current_range_meters":28800,"station_id":"ce4bhg12rcd13ifvqf70","pricing_plan_id":"cebpf4jnsgd1na2vs0mg"},{"bike_id":"54a61f21-a9dd-486f-b70f-c7fb63c84e10","system_id":"levelo_inurba_marseille","lat":43.29711,"lon":5.37692,"is_reserved":false,"is_disabled":true,"rental_uris":{"android":"levelo://app?vid=54a61f21-a9dd-486f-b70f-c7fb63c84e10","ios":"levelo://app?vid=54a61f21-a9dd-486f-b70f-c7fb63c84e10"},"vehicle_type_id":"4","last_reported":1732367804,"current_range_meters":400,"station_id":"ce4bgkh2rcd13ifvqbl0","pricing_plan_id":"cebpf4jnsgd1na2vs0mg"},{"bike_id":"718b3104-e91a-4bc1-8262-8fdfe5629b76","system_id":"levelo_inurba_marseille","lat":43.31762,"lon":5.39018,"is_reserved":false,"is_disabled":false,"rental_uris":{"android":"levelo://app?vid=718b3104-e91a-4bc1-8262-8fdfe5629b76","ios":"levelo://app?vid=718b3104-e91a-4bc1-8262-8fdfe5629b76"},"vehicle_type_id":"4","last_reported":1732367804,"current_range_meters":5600,"station_id":"ce4bhqp2rcd13ifvqhng","pricing_plan_id":"cebpf4jnsgd1na2vs0mg"},{"bike_id":"5759f2a0-df74-4f73-b800-d8a883455418","system_id":"levelo_inurba_marseille","lat":43.28478,"lon":5.38426,"is_reserved":false,"is_disabled":false,"rental_uris":{"android":"levelo://app?vid=5759f2a0-df74-4f73-b800-d8a883455418","ios":"levelo://app?vid=5759f2a0-df74-4f73-b800-d8a883455418"},"vehicle_type_id":"4","last_reported":1732367804,"current_range_meters":28400,"station_id":"ce4bh512rcd13ifvqe3g","pricing_plan_id":"cebpf4jnsgd1na2vs0mg"},{"bike_id":"7770b1cc-2a54-4d08-8255-6bed2fc397aa","system_id":"levelo_inurba_marseille","lat":43.23178,"lon":5.35548,"is_reserved":false,"is_disabled":false,"rental_uris":{"android":"levelo://app?vid=7770b1cc-2a54-4d08-8255-6bed2fc397aa","ios":"levelo://app?vid=7770b1cc-2a54-4d08-8255-6bed2fc397aa"},"vehicle_type_id":"4","last_reported":1732367804,"current_range_meters":4800,"station_id":"ce4bhu92rcd13ifvqi70","pricing_plan_id":"cebpf4jnsgd1na2vs0mg"},{"bike_id":"7f723b0b-cbe8-4f68-b8fe-2ce3d5e983bd","system_id":"levelo_inurba_marseille","lat":43.32102,"lon":5.36768,"is_reserved":false,"is_disabled":true,"rental_uris":{"android":"levelo://app?vid=7f723b0b-cbe8-4f68-b8fe-2ce3d5e983bd","ios":"levelo://app?vid=7f723b0b-cbe8-4f68-b8fe-2ce3d5e983bd"},"vehicle_type_id":"4","last_reported":1732367804,"current_range_meters":35600,"station_id":"","pricing_plan_id":"cebpf4jnsgd1na2vs0mg"},{"bike_id":"577b5ce8-c8a1-4aa2-a2d4-4577b3cf7687","system_id":"levelo_inurba_marseille","lat":43.26549,"lon":5.37287,"is_reserved":false,"is_disabled":false,"rental_uris":{"android":"levelo://app?vid=577b5ce8-c8a1-4aa2-a2d4-4577b3cf7687","ios":"levelo://app?vid=577b5ce8-c8a1-4aa2-a2d4-4577b3cf7687"},"vehicle_type_id":"4","last_reported":1732367804,"current_range_meters":6400,"station_id":"ce4bhg12rcd13ifvqf70","pricing_plan_id":"cebpf4jnsgd1na2vs0mg"},{"bike_id":"c998fc24-158c-4dbf-8e62-5ac925ffcaf1","system_id":"levelo_inurba_marseille","lat":43.28144,"lon":5.42648,"is_reserved":false,"is_disabled":false,"rental_uris":{"android":"levelo://app?vid=c998fc24-158c-4dbf-8e62-5ac925ffcaf1","ios":"levelo://app?vid=c998fc24-158c-4dbf-8e62-5ac925ffcaf1"},"vehicle_type_id":"4","last_reported":1732367804,"current_range_meters":22000,"station_id":"ce4bhnh2rcd13ifvqgug","pricing_plan_id":"cebpf4jnsgd1na2vs0mg"},{"bike_id":"d7ac1deb-9fc6-4191-8dbf-b21d405850b4","system_id":"levelo_inurba_marseille","lat":43.3014,"lon":5.37418,"is_reserved":false,"is_disabled":false,"rental_uris":{"android":"levelo://app?vid=d7ac1deb-9fc6-4191-8dbf-b21d405850b4","ios":"levelo://app?vid=d7ac1deb-9fc6-4191-8dbf-b21d405850b4"},"vehicle_type_id":"4","last_reported":1732367804,"current_range_meters":39200,"station_id":"ce4bgs92rcd13ifvqcc0","pricing_plan_id":"cebpf4jnsgd1na2vs0mg"},{"bike_id":"cee81c8e-d296-49d5-888a-e371a4863f4e","system_id":"levelo_inurba_marseille","lat":43.25728,"lon":5.41106,"is_reserved":false,"is_disabled":false,"rental_uris":{"android":"levelo://app?vid=cee81c8e-d296-49d5-888a-e371a4863f4e","ios":"levelo://app?vid=cee81c8e-d296-49d5-888a-e371a4863f4e"},"vehicle_type_id":"4","last_reported":1732367804,"current_range_meters":39200,"station_id":"ce4bhkp2rcd13ifvqgd0","pricing_plan_id":"cebpf4jnsgd1na2vs0mg"},{"bike_id":"7e9061cd-5627-407a-8c6f-fcf878e75a40","system_id":"levelo_inurba_marseille","lat":43.27946,"lon":5.41058,"is_reserved":false,"is_disabled":true,"rental_uris":{"android":"levelo://app?vid=7e9061cd-5627-407a-8c6f-fcf878e75a40","ios":"levelo://app?vid=7e9061cd-5627-407a-8c6f-fcf878e75a40"},"vehicle_type_id":"4","last_reported":1732367804,"current_range_meters":18000,"station_id":"ce4bhnp2rcd13ifvqh0g","pricing_plan_id":"cebpf4jnsgd1na2vs0mg"},{"bike_id":"aa960f22-4f9c-484d-b1e4-f1c5727b8bad","system_id":"levelo_inurba_marseille","lat":43.23176,"lon":5.39996,"is_reserved":false,"is_disabled":false,"rental_uris":{"android":"levelo://app?vid=aa960f22-4f9c-484d-b1e4-f1c5727b8bad","ios":"levelo://app?vid=aa960f22-4f9c-484d-b1e4-f1c5727b8bad"},"vehicle_type_id":"4","last_reported":1732367804,"current_range_meters":13600,"station_id":"ce4bhn12rcd13ifvqgqg","pricing_plan_id":"cebpf4jnsgd1na2vs0mg"},{"bike_id":"0aa2ee5b-29e3-4db8-9ffd-eb5f7b56cdbc","system_id":"levelo_inurba_marseille","lat":43.27433,"lon":5.3941,"is_reserved":false,"is_disabled":true,"rental_uris":{"android":"levelo://app?vid=0aa2ee5b-29e3-4db8-9ffd-eb5f7b56cdbc","ios":"levelo://app?vid=0aa2ee5b-29e3-4db8-9ffd-eb5f7b56cdbc"},"vehicle_type_id":"4","last_reported":1732367804,"current_range_meters":33600,"station_id":"ce4bhdp2rcd13ifvqf20","pricing_plan_id":"cebpf4jnsgd1na2vs0mg"},{"bike_id":"43eb7303-d80c-491b-a2f3-6366c7854f1b","system_id":"levelo_inurba_marseille","lat":43.2655,"lon":5.37295,"is_reserved":false,"is_disabled":true,"rental_uris":{"android":"levelo://app?vid=43eb7303-d80c-491b-a2f3-6366c7854f1b","ios":"levelo://app?vid=43eb7303-d80c-491b-a2f3-6366c7854f1b"},"vehicle_type_id":"4","last_reported":1732367804,"current_range_meters":0,"station_id":"ce4bhg12rcd13ifvqf70","pricing_plan_id":"cebpf4jnsgd1na2vs0mg"},{"bike_id":"d425ce1d-67ad-4fbb-9adf-4b43b48db1d1","system_id":"levelo_inurba_marseille","lat":43.25864,"lon":5.39913,"is_reserved":false,"is_disabled":false,"rental_uris":{"android":"levelo://app?vid=d425ce1d-67ad-4fbb-9adf-4b43b48db1d1","ios":"levelo://app?vid=d425ce1d-67ad-4fbb-9adf-4b43b48db1d1"},"vehicle_type_id":"4","last_reported":1732367804,"current_range_meters":38800,"station_id":"ce4bhl92rcd13ifvqghg","pricing_plan_id":"cebpf4jnsgd1na2vs0mg"},{"bike_id":"f566568c-12bd-4a43-81dc-2040abd0f129","system_id":"levelo_inurba_marseille","lat":43.30542,"lon":5.38442,"is_reserved":false,"is_disabled":false,"rental_uris":{"android":"levelo://app?vid=f566568c-12bd-4a43-81dc-2040abd0f129","ios":"levelo://app?vid=f566568c-12bd-4a43-81dc-2040abd0f129"},"vehicle_type_id":"4","last_reported":1732367804,"current_range_meters":26800,"station_id":"ce4bgg92rcd13ifvqb30","pricing_plan_id":"cebpf4jnsgd1na2vs0mg"},{"bike_id":"3909f6ec-491c-40c8-a2d0-18b2d34ecaad","system_id":"levelo_inurba_marseille","lat":43.2396,"lon":5.36639,"is_reserved":false,"is_disabled":false,"rental_uris":{"android":"levelo://app?vid=3909f6ec-491c-40c8-a2d0-18b2d34ecaad","ios":"levelo://app?vid=3909f6ec-491c-40c8-a2d0-18b2d34ecaad"},"vehicle_type_id":"4","last_reported":1732367804,"current_range_meters":12000,"station_id":"ce4bhi12rcd13ifvqfp0","pricing_plan_id":"cebpf4jnsgd1na2vs0mg"},{"bike_id":"de21c370-3fbb-4be8-8e93-a8031c3454c0","system_id":"levelo_inurba_marseille","lat":43.29567,"lon":5.37505,"is_reserved":false,"is_disabled":false,"rental_uris":{"android":"levelo://app?vid=de21c370-3fbb-4be8-8e93-a8031c3454c0","ios":"levelo://app?vid=de21c370-3fbb-4be8-8e93-a8031c3454c0"},"vehicle_type_id":"4","last_reported":1732367804,"current_range_meters":32400,"station_id":"ce4bgh92rcd13ifvqb50","pricing_plan_id":"cebpf4jnsgd1na2vs0mg"},{"bike_id":"5e3c5162-3526-4068-a178-c2f38ac7dbb8","system_id":"levelo_inurba_marseille","lat":43.27905,"lon":5.38012,"is_reserved":false,"is_disabled":false,"rental_uris":{"android":"levelo://app?vid=5e3c5162-3526-4068-a178-c2f38ac7dbb8","ios":"levelo://app?vid=5e3c5162-3526-4068-a178-c2f38ac7dbb8"},"vehicle_type_id":"4","last_reported":1732367804,"current_range_meters":38800,"station_id":"ce4bhf92rcd13ifvqf50","pricing_plan_id":"cebpf4jnsgd1na2vs0mg"},{"bike_id":"40c18cd3-c72d-48e2-b684-87f6d0c8281c","system_id":"levelo_inurba_marseille","lat":43.286139,"lon":5.351031,"is_reserved":false,"is_disabled":false,"rental_uris":{"android":"levelo://app?vid=40c18cd3-c72d-48e2-b684-87f6d0c8281c","ios":"levelo://app?vid=40c18cd3-c72d-48e2-b684-87f6d0c8281c"},"vehicle_type_id":"4","last_reported":1732367804,"current_range_meters":38800,"station_id":"ce4bhch2rcd13ifvqeug","pricing_plan_id":"cebpf4jnsgd1na2vs0mg"},{"bike_id":"12a19c10-f897-4c0e-9448-fec8aac092ce","system_id":"levelo_inurba_marseille","lat":43.25829,"lon":5.39432,"is_reserved":false,"is_disabled":true,"rental_uris":{"android":"levelo://app?vid=12a19c10-f897-4c0e-9448-fec8aac092ce","ios":"levelo://app?vid=12a19c10-f897-4c0e-9448-fec8aac092ce"},"vehicle_type_id":"4","last_reported":1732367804,"current_range_meters":6400,"station_id":"ce4bhip2rcd13ifvqft0","pricing_plan_id":"cebpf4jnsgd1na2vs0mg"},{"bike_id":"0b461065-b445-49bb-a95d-36715bd00179","system_id":"levelo_inurba_marseille","lat":43.30801,"lon":5.43525,"is_reserved":false,"is_disabled":false,"rental_uris":{"android":"levelo://app?vid=0b461065-b445-49bb-a95d-36715bd00179","ios":"levelo://app?vid=0b461065-b445-49bb-a95d-36715bd00179"},"vehicle_type_id":"4","last_reported":1732367804,"current_range_meters":17200,"station_id":"ce4bhph2rcd13ifvqheg","pricing_plan_id":"cebpf4jnsgd1na2vs0mg"},{"bike_id":"5da144ac-a649-419e-922e-caaa3813c599","system_id":"levelo_inurba_marseille","lat":43.30275,"lon":5.37702,"is_reserved":false,"is_disabled":false,"rental_uris":{"android":"levelo://app?vid=5da144ac-a649-419e-922e-caaa3813c599","ios":"levelo://app?vid=5da144ac-a649-419e-922e-caaa3813c599"},"vehicle_type_id":"4","last_reported":1732367804,"current_range_meters":20400,"station_id":"ce4bguh2rcd13ifvqcj0","pricing_plan_id":"cebpf4jnsgd1na2vs0mg"},{"bike_id":"315d2204-dedc-4e1b-b03d-2b096030fcf4","system_id":"levelo_inurba_marseille","lat":43.299216,"lon":5.374653,"is_reserved":false,"is_disabled":false,"rental_uris":{"android":"levelo://app?vid=315d2204-dedc-4e1b-b03d-2b096030fcf4","ios":"levelo://app?vid=315d2204-dedc-4e1b-b03d-2b096030fcf4"},"vehicle_type_id":"4","last_reported":1732367804,"current_range_meters":30000,"station_id":"ce4bgjh2rcd13ifvqbg0","pricing_plan_id":"cebpf4jnsgd1na2vs0mg"},{"bike_id":"305acac5-e7ed-475b-b1a8-a82369b97363","system_id":"levelo_inurba_marseille","lat":43.30884,"lon":5.39641,"is_reserved":false,"is_disabled":true,"rental_uris":{"android":"levelo://app?vid=305acac5-e7ed-475b-b1a8-a82369b97363","ios":"levelo://app?vid=305acac5-e7ed-475b-b1a8-a82369b97363"},"vehicle_type_id":"4","last_reported":1732367804,"current_range_meters":8400,"station_id":"ce4bh012rcd13ifvqcv0","pricing_plan_id":"cebpf4jnsgd1na2vs0mg"},{"bike_id":"f1537700-48e8-46ac-aa53-14c5c1caae3b","system_id":"levelo_inurba_marseille","lat":43.26683,"lon":5.38271,"is_reserved":false,"is_disabled":false,"rental_uris":{"android":"levelo://app?vid=f1537700-48e8-46ac-aa53-14c5c1caae3b","ios":"levelo://app?vid=f1537700-48e8-46ac-aa53-14c5c1caae3b"},"vehicle_type_id":"4","last_reported":1732367804,"current_range_meters":8000,"station_id":"ce4bhg92rcd13ifvqf90","pricing_plan_id":"cebpf4jnsgd1na2vs0mg"},