{"last_updated":1700597222,"ttl":30,"version":"2.2","data":{"bikes":[{"bike_id":"a131bb97-059b-4078-8111-a23b5d5608f9","system_id":"levelo_inurba_marseille","lat":43.312239,"lon":5.368562,"is_reserved":false,"is_disabled":false,"rental_uris":{"android":"levelo://app?vid=a131bb97-059b-4078-8111-a23b5d5608f9","ios":"levelo://app?vid=a131bb97-059b-4078-8111-a23b5d5608f9"},"vehicle_type_id":"4","last_reported":1700597223,"current_range_meters":23600,"station_id":"ce4bgl92rcd13ifvqbq0","pricing_plan_id":"free"},{"bike_id":"eeef4dbc-7602-4f26-b2c1-c3771c9b5dae","system_id":"levelo_inurba_marseille","lat":43.3115,"lon":5.36889,"is_reserved":false,"is_disabled":false,"rental_uris":{"android":"levelo://app?vid=eeef4dbc-7602-4f26-b2c1-c3771c9b5dae","ios":"levelo://app?vid=eeef4dbc-7602-4f26-b2c1-c3771c9b5dae"},"vehicle_type_id":"4","last_reported":1700597223,"current_range_meters":0,"station_id":"","pricing_plan_id":"free"},{"bike_id":"81308199-ed47-43d6-8ab6-fd5c1fcfbe84","system_id":"levelo_inurba_marseille","lat":43.314811,"lon":5.373103,"is_reserved":false,"is_disabled":false,"rental_uris":{"android":"levelo://app?vid=81308199-ed47-43d6-8ab6-fd5c1fcfbe84","ios":"levelo://app?vid=81308199-ed47-43d6-8ab6-fd5c1fcfbe84"},"vehicle_type_id":"4","last_reported":1700597223,"current_range_meters":14000,"station_id":"ce4bgt12rcd13ifvqcd0","pricing_plan_id":"free"},{"bike_id":"19f43f17-b8ad-43de-a6cd-d499c2e08192","system_id":"levelo_inurba_marseille","lat":43.309039,"lon":5.371797,"is_reserved":false,"is_disabled":false,"rental_uris":{"android":"levelo://app?vid=19f43f17-b8ad-43de-a6cd-d499c2e08192","ios":"levelo://app?vid=19f43f17-b8ad-43de-a6cd-d499c2e08192"},"vehicle_type_id":"4","last_reported":1700597223,"current_range_meters":18000,"station_id":"ce4bguh2rcd13ifvqckg","pricing_plan_id":"free"},{"bike_id":"2bc311dc-da0b-403e-8cae-84f8764bc67c","system_id":"levelo_inurba_marseille","lat":43.30679,"lon":5.3679,"is_reserved":false,"is_disabled":false,"rental_uris":{"android":"levelo://app?vid=2bc311dc-da0b-403e-8cae-84f8764bc67c","ios":"levelo://app?vid=2bc311dc-da0b-403e-8cae-84f8764bc67c"},"vehicle_type_id":"4","last_reported":1700597223,"current_range_meters":2000,"station_id":"","pricing_plan_id":"free"},{"bike_id":"790d8068-0ca3-4ee2-ac94-5b1995eb78d3","system_id":"levelo_inurba_marseille","lat":43.319625,"lon":5.370642,"is_reserved":false,"is_disabled":false,"rental_uris":{"android":"levelo://app?vid=790d8068-0ca3-4ee2-ac94-5b1995eb78d3","ios":"levelo://app?vid=790d8068-0ca3-4ee2-ac94-5b1995eb78d3"},"vehicle_type_id":"4","last_reported":1700597223,"current_range_meters":0,"station_id":"","pricing_plan_id":"free"},{"bike_id":"c7aa8bf9-672a-4f08-9018-a677608035a0","system_id":"levelo_inurba_marseille","lat":43.305989,"lon":5.37225,"is_reserved":false,"is_disabled":false,"rental_uris":{"android":"levelo://app?vid=c7aa8bf9-672a-4f08-9018-a677608035a0","ios":"levelo://app?vid=c7aa8bf9-672a-4f08-9018-a677608035a0"},"vehicle_type_id":"4","last_reported":1700597223,"current_range_meters":15200,"station_id":"ce4bgqh2rcd13ifvqc4g","pricing_plan_id":"free"},{"bike_id":"212e54df-23e9-4167-a00b-5776eee0f535","system_id":"levelo_inurba_marseille","lat":43.311125,"lon":5.377624,"is_reserved":false,"is_disabled":false,"rental_uris":{"android":"levelo://app?vid=212e54df-23e9-4167-a00b-5776eee0f535","ios":"levelo://app?vid=212e54df-23e9-4167-a00b-5776eee0f535"},"vehicle_type_id":"4","last_reported":1700597223,"current_range_meters":12400,"station_id":"ce4bgt92rcd13ifvqcg0","pricing_plan_id":"free"},{"bike_id":"06284047-1e80-4933-bc3c-a8606f20a4a9","system_id":"levelo_inurba_marseille","lat":43.308184,"lon":5.376537,"is_reserved":false,"is_disabled":false,"rental_uris":{"android":"levelo://app?vid=06284047-1e80-4933-bc3c-a8606f20a4a9","ios":"levelo://app?vid=06284047-1e80-4933-bc3c-a8606f20a4a9"},"vehicle_type_id":"4","last_reported":1700597223,"current_range_meters":18800,"station_id":"ce4bgv92rcd13ifvqcq0","pricing_plan_id":"free"},{"bike_id":"062b335d-abb8-4a60-8451-39007cb58897","system_id":"levelo_inurba_marseille","lat":43.307945,"lon":5.376487,"is_reserved":false,"is_disabled":false,"rental_uris":{"android":"levelo://app?vid=062b335d-abb8-4a60-8451-39007cb58897","ios":"levelo://app?vid=062b335d-abb8-4a60-8451-39007cb58897"},"vehicle_type_id":"4","last_reported":1700597223,"current_range_meters":3600,"station_id":"ce4bgv92rcd13ifvqcq0","pricing_plan_id":"free"},{"bike_id":"a527c447-e514-490c-a00f-9f4800406ef0","system_id":"levelo_inurba_marseille","lat":43.307945,"lon":5.376487,"is_reserved":false,"is_disabled":false,"rental_uris":{"android":"levelo://app?vid=a527c447-e514-490c-a00f-9f4800406ef0","ios":"levelo://app?vid=a527c447-e514-490c-a00f-9f4800406ef0"},"vehicle_type_id":"4","last_reported":1700597223,"current_range_meters":12800,"station_id":"ce4bgv92rcd13ifvqcq0","pricing_plan_id":"free"},{"bike_id":"33e6b54c-f13f-4125-a676-600fbde04dd8","system_id":"levelo_inurba_marseille","lat":43.30304,"lon":5.368987,"is_reserved":false,"is_disabled":false,"rental_uris":{"android":"levelo://app?vid=33e6b54c-f13f-4125-a676-600fbde04dd8","ios":"levelo://app?vid=33e6b54c-f13f-4125-a676-600fbde04dd8"},"vehicle_type_id":"4","last_reported":1700597223,"current_range_meters":29600,"station_id":"ce4bgqh2rcd13ifvqc5g","pricing_plan_id":"free"},{"bike_id":"e5e5b4de-e01c-43c9-8077-44ca2a29dd54","system_id":"levelo_inurba_marseille","lat":43.301939,"lon":5.366286,"is_reserved":false,"is_disabled":false,"rental_uris":{"android":"levelo://app?vid=e5e5b4de-e01c-43c9-8077-44ca2a29dd54","ios":"levelo://app?vid=e5e5b4de-e01c-43c9-8077-44ca2a29dd54"},"vehicle_type_id":"4","last_reported":1700597223,"current_range_meters":28400,"station_id":"ce4bgrh2rcd13ifvqc8g","pricing_plan_id":"free"},{"bike_id":"65d0661a-1a1b-4639-bb28-4807f1680ce8","system_id":"levelo_inurba_marseille","lat":43.301811,"lon":5.366198,"is_reserved":false,"is_disabled":false,"rental_uris":{"android":"levelo://app?vid=65d0661a-1a1b-4639-bb28-4807f1680ce8","ios":"levelo://app?vid=65d0661a-1a1b-4639-bb28-4807f1680ce8"},"vehicle_type_id":"4","last_reported":1700597223,"current_range_meters":0,"station_id":"ce4bgt12rcd13ifvqce0","pricing_plan_id":"free"},{"bike_id":"48a74d5b-9e9b-4e46-8934-c71f4d287e2b","system_id":"levelo_inurba_marseille","lat":43.308012,"lon":5.381511,"is_reserved":false,"is_disabled":false,"rental_uris":{"android":"levelo://app?vid=48a74d5b-9e9b-4e46-8934-c71f4d287e2b","ios":"levelo://app?vid=48a74d5b-9e9b-4e46-8934-c71f4d287e2b"},"vehicle_type_id":"4","last_reported":1700597223,"current_range_meters":3600,"station_id":"ce4bgt12rcd13ifvqce0","pricing_plan_id":"free"},{"bike_id":"0327687b-f51e-4077-bf49-2ec73a6de092","system_id":"levelo_inurba_marseille","lat":43.32239,"lon":5.375718,"is_reserved":false,"is_disabled":false,"rental_uris":{"android":"levelo://app?vid=0327687b-f51e-4077-bf49-2ec73a6de092","ios":"levelo://app?vid=0327687b-f51e-4077-bf49-2ec73a6de092"},"vehicle_type_id":"4","last_reported":1700597223,"current_range_meters":19600,"station_id":"","pricing_plan_id":"free"},{"bike_id":"0a5559e1-179d-4d75-8b73-c68130e7f5b9","system_id":"levelo_inurba_marseille","lat":43.308012,"lon":5.381511,"is_reserved":false,"is_disabled":false,"rental_uris":{"android":"levelo://app?vid=0a5559e1-179d-4d75-8b73-c68130e7f5b9","ios":"levelo://app?vid=0a5559e1-179d-4d75-8b73-c68130e7f5b9"},"vehicle_type_id":"4","last_reported":1700597223,"current_range_meters":0,"station_id":"ce4bgt12rcd13ifvqce0","pricing_plan_id":"free"},{"bike_id":"5be98b68-5fba-4d9d-898c-789260117124","system_id":"levelo_inurba_marseille","lat":43.32472,"lon":5.36563,"is_reserved":false,"is_disabled":false,"rental_uris":{"android":"levelo://app?vid=5be98b68-5fba-4d9d-898c-789260117124","ios":"levelo://app?vid=5be98b68-5fba-4d9d-898c-789260117124"},"vehicle_type_id":"4","last_reported":1700597223,"current_range_meters":29200,"station_id":"ce4bhs12rcd13ifvqhvg","pricing_plan_id":"free"},{"bike_id":"a037806c-504f-410e-8380-5102d23eea79","system_id":"levelo_inurba_marseille","lat":43.324771,"lon":5.36557,"is_reserved":false,"is_disabled":false,"rental_uris":{"android":"levelo://app?vid=a037806c-504f-410e-8380-5102d23eea79","ios":"levelo://app?vid=a037806c-504f-410e-8380-5102d23eea79"},"vehicle_type_id":"4","last_reported":1700597223,"current_range_meters":29600,"station_id":"ce4bhs12rcd13ifvqhvg","pricing_plan_id":"free"},{"bike_id":"a0c175c7-8763-48b2-96c0-ee3535174374","system_id":"levelo_inurba_marseille","lat":43.324798,"lon":5.365711,"is_reserved":false,"is_disabled":false,"rental_uris":{"android":"levelo://app?vid=a0c175c7-8763-48b2-96c0-ee3535174374","ios":"levelo://app?vid=a0c175c7-8763-48b2-96c0-ee3535174374"},"vehicle_type_id":"4","last_reported":1700597223,"current_range_meters":28800,"station_id":"ce4bhs12rcd13ifvqhvg","pricing_plan_id":"free"},{"bike_id":"d8484603-e03e-4bf5-ad27-dcf079b1c3a0","system_id":"levelo_inurba_marseille","lat":43.302784,"lon":5.377158,"is_reserved":false,"is_disabled":false,"rental_uris":{"android":"levelo://app?vid=d8484603-e03e-4bf5-ad27-dcf079b1c3a0","ios":"levelo://app?vid=d8484603-e03e-4bf5-ad27-dcf079b1c3a0"},"vehicle_type_id":"4","last_reported":1700597223,"current_range_meters":3600,"station_id":"ce4bguh2rcd13ifvqcj0","pricing_plan_id":"free"},{"bike_id":"510d0105-b866-48bb-8bdb-59b0079c0d7a","system_id":"levelo_inurba_marseille","lat":43.319935,"lon":5.381699,"is_reserved":false,"is_disabled":false,"rental_uris":{"android":"levelo://app?vid=510d0105-b866-48bb-8bdb-59b0079c0d7a","ios":"levelo://app?vid=510d0105-b866-48bb-8bdb-59b0079c0d7a"},"vehicle_type_id":"4","last_reported":1700597223,"current_range_meters":25600,"station_id":"ce4bhr12rcd13ifvqhpg","pricing_plan_id":"free"},{"bike_id":"4b4fe3d7-722a-45a1-81fc-9a019167f268","system_id":"levelo_inurba_marseille","lat":43.31998,"lon":5.38157,"is_reserved":false,"is_disabled":false,"rental_uris":{"android":"levelo://app?vid=4b4fe3d7-722a-45a1-81fc-9a019167f268","ios":"levelo://app?vid=4b4fe3d7-722a-45a1-81fc-9a019167f268"},"vehicle_type_id":"4","last_reported":1700597223,"current_range_meters":25200,"station_id":"ce4bhr12rcd13ifvqhpg","pricing_plan_id":"free"},{"bike_id":"b6bef19b-9ba8-4d51-8b70-c38bf53a3315","system_id":"levelo_inurba_marseille","lat":43.31999,"lon":5.38157,"is_reserved":false,"is_disabled":false,"rental_uris":{"android":"levelo://app?vid=b6bef19b-9ba8-4d51-8b70-c38bf53a3315","ios":"levelo://app?vid=b6bef19b-9ba8-4d51-8b70-c38bf53a3315"},"vehicle_type_id":"4","last_reported":1700597223,"current_range_meters":10800,"station_id":"ce4bhr12rcd13ifvqhpg","pricing_plan_id":"free"},{"bike_id":"b4e7e8a5-429b-4fa9-b969-621639380068","system_id":"levelo_inurba_marseille","lat":43.31373,"lon":5.3849,"is_reserved":false,"is_disabled":false,"rental_uris":{"android":"levelo://app?vid=b4e7e8a5-429b-4fa9-b969-621639380068","ios":"levelo://app?vid=b4e7e8a5-429b-4fa9-b969-621639380068"},"vehicle_type_id":"4","last_reported":1700597223,"current_range_meters":0,"station_id":"ce4bgt92rcd13ifvqcf0","pricing_plan_id":"free"},{"bike_id":"d44db64d-89f3-4e22-bc23-cdbd9c34a2b1","system_id":"levelo_inurba_marseille","lat":43.313571,"lon":5.384829,"is_reserved":false,"is_disabled":false,"rental_uris":{"android":"levelo://app?vid=d44db64d-89f3-4e22-bc23-cdbd9c34a2b1","ios":"levelo://app?vid=d44db64d-89f3-4e22-bc23-cdbd9c34a2b1"},"vehicle_type_id":"4","last_reported":1700597223,"current_range_meters":3600,"station_id":"ce4bgt92rcd13ifvqcf0","pricing_plan_id":"free"},{"bike_id":"75dbf869-f2eb-4cfe-aa7b-56dd6192ae47","system_id":"levelo_inurba_marseille","lat":43.299222,"lon":5.365554,"is_reserved":false,"is_disabled":false,"rental_uris":{"android":"levelo://app?vid=75dbf869-f2eb-4cfe-aa7b-56dd6192ae47","ios":"levelo://app?vid=75dbf869-f2eb-4cfe-aa7b-56dd6192ae47"},"vehicle_type_id":"4","last_reported":1700597223,"current_range_meters":0,"station_id":"ce4bgm92rcd13ifvqbr0","pricing_plan_id":"free"},{"bike_id":"59a35182-086c-4020-951e-31e400cd4bd6","system_id":"levelo_inurba_marseille","lat":43.29974,"lon":5.3718,"is_reserved":false,"is_disabled":false,"rental_uris":{"android":"levelo://app?vid=59a35182-086c-4020-951e-31e400cd4bd6","ios":"levelo://app?vid=59a35182-086c-4020-951e-31e400cd4bd6"},"vehicle_type_id":"4","last_reported":1700597223,"current_range_meters":6000,"station_id":"ce4bgr92rcd13ifvqc7g","pricing_plan_id":"free"},{"bike_id":"c4d62be2-2c9f-411d-9f2f-5f836e1834e3","system_id":"levelo_inurba_marseille","lat":43.298433,"lon":5.362774,"is_reserved":false,"is_disabled":false,"rental_uris":{"android":"levelo://app?vid=c4d62be2-2c9f-411d-9f2f-5f836e1834e3","ios":"levelo://app?vid=c4d62be2-2c9f-411d-9f2f-5f836e1834e3"},"vehicle_type_id":"4","last_reported":1700597223,"current_range_meters":0,"station_id":"ce4bgpp2rcd13ifvqc3g","pricing_plan_id":"free"},{"bike_id":"71b2aab1-81c2-4370-a0ce-f83b4b3193a1","system_id":"levelo_inurba_marseille","lat":43.31165,"lon":5.38707,"is_reserved":false,"is_disabled":false,"rental_uris":{"android":"levelo://app?vid=71b2aab1-81c2-4370-a0ce-f83b4b3193a1","ios":"levelo://app?vid=71b2aab1-81c2-4370-a0ce-f83b4b3193a1"},"vehicle_type_id":"4","last_reported":1700597223,"current_range_meters":12000,"station_id":"ce4bgv12rcd13ifvqcp0","pricing_plan_id":"free"},{"bike_id":"e007fafb-d625-40c5-9834-f1386ae919b7","system_id":"levelo_inurba_marseille","lat":43.311627,"lon":5.3871,"is_reserved":false,"is_disabled":false,"rental_uris":{"android":"levelo://app?vid=e007fafb-d625-40c5-9834-f1386ae919b7","ios":"levelo://app?vid=e007fafb-d625-40c5-9834-f1386ae919b7"},"vehicle_type_id":"4","last_reported":1700597223,"current_range_meters":2800,"station_id":"ce4bgv12rcd13ifvqcp0","pricing_plan_id":"free"},{"bike_id":"572a0db2-7ee4-49e3-bc13-bd5516e5135f","system_id":"levelo_inurba_marseille","lat":43.31173,"lon":5.38712,"is_reserved":false,"is_disabled":false,"rental_uris":{"android":"levelo://app?vid=572a0db2-7ee4-49e3-bc13-bd5516e5135f","ios":"levelo://app?vid=572a0db2-7ee4-49e3-bc13-bd5516e5135f"},"vehicle_type_id":"4","last_reported":1700597223,"current_range_meters":25200,"station_id":"ce4bgv12rcd13ifvqcp0","pricing_plan_id":"free"},{"bike_id":"49b4c99f-3943-404a-b65e-c89bfa758a3d","system_id":"levelo_inurba_marseille","lat":43.31169,"lon":5.3872,"is_reserved":false,"is_disabled":false,"rental_uris":{"android":"levelo://app?vid=49b4c99f-3943-404a-b65e-c89bfa758a3d","ios":"levelo://app?vid=49b4c99f-3943-404a-b65e-c89bfa758a3d"},"vehicle_type_id":"4","last_reported":1700597223,"current_range_meters":23200,"station_id":"ce4bgv12rcd13ifvqcp0","pricing_plan_id":"free"},{"bike_id":"fba27455-dee1-4b26-877d-b9bd46efd025","system_id":"levelo_inurba_marseille","lat":43.311722,"lon":5.387247,"is_reserved":false,"is_disabled":false,"rental_uris":{"android":"levelo://app?vid=fba27455-dee1-4b26-877d-b9bd46efd025","ios":"levelo://app?vid=fba27455-dee1-4b26-877d-b9bd46efd025"},"vehicle_type_id":"4","last_reported":1700597223,"current_range_meters":6800,"station_id":"ce4bgv12rcd13ifvqcp0","pricing_plan_id":"free"},{"bike_id":"7764c78b-ba47-45a6-adfc-da73a9e540b9","system_id":"levelo_inurba_marseille","lat":43.299243,"lon":5.37481,"is_reserved":false,"is_disabled":false,"rental_uris":{"android":"levelo://app?vid=7764c78b-ba47-45a6-adfc-da73a9e540b9","ios":"levelo://app?vid=7764c78b-ba47-45a6-adfc-da73a9e540b9"},"vehicle_type_id":"4","last_reported":1700597223,"current_range_meters":1600,"station_id":"ce4bgjh2rcd13ifvqbg0","pricing_plan_id":"free"},{"bike_id":"24256210-dd9b-4e06-8284-ac9b4520be6f","system_id":"levelo_inurba_marseille","lat":43.328273,"lon":5.366838,"is_reserved":false,"is_disabled":false,"rental_uris":{"android":"levelo://app?vid=24256210-dd9b-4e06-8284-ac9b4520be6f","ios":"levelo://app?vid=24256210-dd9b-4e06-8284-ac9b4520be6f"},"vehicle_type_id":"4","last_reported":1700597223,"current_range_meters":0,"station_id":"ce4bhs92rcd13ifvqi0g","pricing_plan_id":"free"},{"bike_id":"f897f878-03f2-44c9-be56-d2c82e44cbbe","system_id":"levelo_inurba_marseille","lat":43.328371,"lon":5.366909,"is_reserved":false,"is_disabled":false,"rental_uris":{"android":"levelo://app?vid=f897f878-03f2-44c9-be56-d2c82e44cbbe","ios":"levelo://app?vid=f897f878-03f2-44c9-be56-d2c82e44cbbe"},"vehicle_type_id":"4","last_reported":1700597223,"current_range_meters":13200,"station_id":"ce4bhs92rcd13ifvqi0g","pricing_plan_id":"free"},{"bike_id":"dda427cb-e457-40de-b726-af9234973f62","system_id":"levelo_inurba_marseille","lat":43.29711,"lon":5.36609,"is_reserved":false,"is_disabled":false,"rental_uris":{"android":"levelo://app?vid=dda427cb-e457-40de-b726-af9234973f62","ios":"levelo://app?vid=dda427cb-e457-40de-b726-af9234973f62"},"vehicle_type_id":"4","last_reported":1700597223,"current_range_meters":14000,"station_id":"ce4bgn12rcd13ifvqbt0","pricing_plan_id":"free"},{"bike_id":"b3b14612-8fa8-4fae-9eb2-d532b89723da","system_id":"levelo_inurba_marseille","lat":43.299028,"lon":5.381509,"is_reserved":false,"is_disabled":false,"rental_uris":{"android":"levelo://app?vid=b3b14612-8fa8-4fae-9eb2-d532b89723da","ios":"levelo://app?vid=b3b14612-8fa8-4fae-9eb2-d532b89723da"},"vehicle_type_id":"4","last_reported":1700597223,"current_range_meters":22400,"station_id":"ce4bgj12rcd13ifvqbc0","pricing_plan_id":"free"},{"bike_id":"9fb402a7-7a41-4473-81d2-1fec663a6035","system_id":"levelo_inurba_marseille","lat":43.305598,"lon":5.3887,"is_reserved":false,"is_disabled":false,"rental_uris":{"android":"levelo://app?vid=9fb402a7-7a41-4473-81d2-1fec663a6035","ios":"levelo://app?vid=9fb402a7-7a41-4473-81d2-1fec663a6035"},"vehicle_type_id":"4","last_reported":1700597223,"current_range_meters":28000,"station_id":"","pricing_plan_id":"free"},{"bike_id":"79dacdf6-a1f2-4eb4-8209-f5e43bda8af7","system_id":"levelo_inurba_marseille","lat":43.317557,"lon":5.390173,"is_reserved":false,"is_disabled":false,"rental_uris":{"android":"levelo://app?vid=79dacdf6-a1f2-4eb4-8209-f5e43bda8af7","ios":"levelo://app?vid=79dacdf6-a1f2-4eb4-8209-f5e43bda8af7"},"vehicle_type_id":"4","last_reported":1700597223,"current_range_meters":17600,"station_id":"ce4bhqp2rcd13ifvqhng","pricing_plan_id":"free"},{"bike_id":"360e43db-dd66-41f7-920b-7d36b4fbce3d","system_id":"levelo_inurba_marseille","lat":43.30432,"lon":5.38883,"is_reserved":false,"is_disabled":false,"rental_uris":{"android":"levelo://app?vid=360e43db-dd66-41f7-920b-7d36b4fbce3d","ios":"levelo://app?vid=360e43db-dd66-41f7-920b-7d36b4fbce3d"},"vehicle_type_id":"4","last_reported":1700597223,"current_range_meters":0,"station_id":"ce4bgk12rcd13ifvqbi0","pricing_plan_id":"free"},{"bike_id":"3059d4c1-3d42-4321-a339-0fea9a03ef82","system_id":"levelo_inurba_marseille","lat":43.328154,"lon":5.380034,"is_reserved":false,"is_disabled":false,"rental_uris":{"android":"levelo://app?vid=3059d4c1-3d42-4321-a339-0fea9a03ef82","ios":"levelo://app?vid=3059d4c1-3d42-4321-a339-0fea9a03ef82"},"vehicle_type_id":"4","last_reported":1700597223,"current_range_meters":0,"station_id":"","pricing_plan_id":"free"},{"bike_id":"53708ff1-1e30-4a05-9bb9-f9c63d91fb67","system_id":"levelo_inurba_marseille","lat":43.297797,"lon":5.38107,"is_reserved":false,"is_disabled":false,"rental_uris":{"android":"levelo://app?vid=53708ff1-1e30-4a05-9bb9-f9c63d91fb67","ios":"levelo://app?vid=53708ff1-1e30-4a05-9bb9-f9c63d91fb67"},"vehicle_type_id":"4","last_reported":1700597223,"current_range_meters":0,"station_id":"ce4bgip2rcd13ifvqbb0","pricing_plan_id":"free"},{"bike_id":"4916ed20-d299-487b-a6ab-595a132c44f7","system_id":"levelo_inurba_marseille","lat":43.296263,"lon":5.377094,"is_reserved":false,"is_disabled":false,"rental_uris":{"android":"levelo://app?vid=4916ed20-d299-487b-a6ab-595a132c44f7","ios":"levelo://app?vid=4916ed20-d299-487b-a6ab-595a132c44f7"},"vehicle_type_id":"4","last_reported":1700597223,"current_range_meters":18000,"station_id":"ce4bgi92rcd13ifvqb90","pricing_plan_id":"free"},{"bike_id":"740734f0-9713-4b8a-8810-5364172e83f2","system_id":"levelo_inurba_marseille","lat":43.297562,"lon":5.381022,"is_reserved":false,"is_disabled":false,"rental_uris":{"android":"levelo://app?vid=740734f0-9713-4b8a-8810-5364172e83f2","ios":"levelo://app?vid=740734f0-9713-4b8a-8810-5364172e83f2"},"vehicle_type_id":"4","last_reported":1700597223,"current_range_meters":0,"station_id":"","pricing_plan_id":"free"},{"bike_id":"659d9b95-fe0a-431d-9d28-ce3b74f5b738","system_id":"levelo_inurba_marseille","lat":43.299707,"lon":5.384859,"is_reserved":false,"is_disabled":false,"rental_uris":{"android":"levelo://app?vid=659d9b95-fe0a-431d-9d28-ce3b74f5b738","ios":"levelo://app?vid=659d9b95-fe0a-431d-9d28-ce3b74f5b738"},"vehicle_type_id":"4","last_reported":1700597223,"current_range_meters":0,"station_id":"ce4bgj92rcd13ifvqbd0","pricing_plan_id":"free"},{"bike_id":"20c4251f-da9f-4903-a793-97d49947e03a","system_id":"levelo_inurba_marseille","lat":43.313571,"lon":5.384829,"is_reserved":false,"is_disabled":false,"rental_uris":{"android":"levelo://app?vid=20c4251f-da9f-4903-a793-97d49947e03a","ios":"levelo://app?vid=20c4251f-da9f-4903-a793-97d49947e03a"},"vehicle_type_id":"4","last_reported":1700597223,"current_range_meters":4800,"station_id":"ce4bgt92rcd13ifvqcf0","pricing_plan_id":"free"},{"bike_id":"6b621983-5e9e-42f7-990d-ad5a093820d2","system_id":"levelo_inurba_marseille","lat":43.293801,"lon":5.363066,"is_reserved":false,"is_disabled":false,"rental_uris":{"android":"levelo://app?vid=6b621983-5e9e-42f7-990d-ad5a093820d2","ios":"levelo://app?vid=6b621983-5e9e-42f7-990d-ad5a093820d2"},"vehicle_type_id":"4","last_reported":1700597223,"current_range_meters":14800,"station_id":"","pricing_plan_id":"free"},{"bike_id":"a8278f43-2fa1-44bf-950c-bb3486f33882","system_id":"levelo_inurba_marseille","lat":43.32369,"lon":5.38879,"is_reserved":false,"is_disabled":false,"rental_uris":{"android":"levelo://app?vid=a8278f43-2fa1-44bf-950c-bb3486f33882","ios":"levelo://app?vid=a8278f43-2fa1-44bf-950c-bb3486f33882"},"vehicle_type_id":"4","last_reported":1700597223,"current_range_meters":3200,"station_id":"ce4bhqp2rcd13ifvqhog","pricing_plan_id":"free"},{"bike_id":"4e4fe3b3-1944-48b4-b9da-2069b851783e","system_id":"levelo_inurba_marseille","lat":43.32367,"lon":5.38881,"is_reserved":false,"is_disabled":false,"rental_uris":{"android":"levelo://app?vid=4e4fe3b3-1944-48b4-b9da-2069b851783e","ios":"levelo://app?vid=4e4fe3b3-1944-48b4-b9da-2069b851783e"},"vehicle_type_id":"4","last_reported":1700597223,"current_range_meters":14800,"station_id":"ce4bhqp2rcd13ifvqhog","pricing_plan_id":"free"},{"bike_id":"9848a84a-e002-4f14-90ee-18e4e6536af8","system_id":"levelo_inurba_marseille","lat":43.32366,"lon":5.38887,"is_reserved":false,"is_disabled":false,"rental_uris":{"android":"levelo://app?vid=9848a84a-e002-4f14-90ee-18e4e6536af8","ios":"levelo://app?vid=9848a84a-e002-4f14-90ee-18e4e6536af8"},"vehicle_type_id":"4","last_reported":1700597223,"current_range_meters":0,"station_id":"ce4bhqp2rcd13ifvqhog","pricing_plan_id":"free"},{"bike_id":"18d12119-6832-40e8-a839-85af965c5a22","system_id":"levelo_inurba_marseille","lat":43.32369,"lon":5.38885,"is_reserved":false,"is_disabled":false,"rental_uris":{"android":"levelo://app?vid=18d12119-6832-40e8-a839-85af965c5a22","ios":"levelo://app?vid=18d12119-6832-40e8-a839-85af965c5a22"},"vehicle_type_id":"4","last_reported":1700597223,"current_range_meters":0,"station_id":"ce4bhqp2rcd13ifvqhog","pricing_plan_id":"free"},{"bike_id":"3b3b69b4-94e5-4d21-922a-c9a8050b7bd4","system_id":"levelo_inurba_marseille","lat":43.29601,"lon":5.381084,"is_reserved":false,"is_disabled":false,"rental_uris":{"android":"levelo://app?vid=3b3b69b4-94e5-4d21-922a-c9a8050b7bd4","ios":"levelo://app?vid=3b3b69b4-94e5-4d21-922a-c9a8050b7bd4"},"vehicle_type_id":"4","last_reported":1700597223,"current_range_meters":27200,"station_id":"ce4bgl12rcd13ifvqbo0","pricing_plan_id":"free"},{"bike_id":"85f7f2a8-eaa2-45ff-b755-107ef7f57e64","system_id":"levelo_inurba_marseille","lat":43.29602,"lon":5.381084,"is_reserved":false,"is_disabled":false,"rental_uris":{"android":"levelo://app?vid=85f7f2a8-eaa2-45ff-b755-107ef7f57e64","ios":"levelo://app?vid=85f7f2a8-eaa2-45ff-b755-107ef7f57e64"},"vehicle_type_id":"4","last_reported":1700597223,"current_range_meters":11600,"station_id":"ce4bgl12rcd13ifvqbo0","pricing_plan_id":"free"},{"bike_id":"27640357-b067-41f3-9417-55e322e0cc95","system_id":"levelo_inurba_marseille","lat":43.29602,"lon":5.381084,"is_reserved":false,"is_disabled":false,"rental_uris":{"android":"levelo://app?vid=27640357-b067-41f3-9417-55e322e0cc95","ios":"levelo://app?vid=27640357-b067-41f3-9417-55e322e0cc95"},"vehicle_type_id":"4","last_reported":1700597223,"current_range_meters":0,"station_id":"ce4bgl12rcd13ifvqbo0","pricing_plan_id":"free"},{"bike_id":"d08f04bf-d1cb-49fb-9aa7-04e7f7676b3c","system_id":"levelo_inurba_marseille","lat":43.32337,"lon":5.38974,"is_reserved":false,"is_disabled":false,"rental_uris":{"android":"levelo://app?vid=d08f04bf-d1cb-49fb-9aa7-04e7f7676b3c","ios":"levelo://app?vid=d08f04bf-d1cb-49fb-9aa7-04e7f7676b3c"},"vehicle_type_id":"4","last_reported":1700597223,"current_range_meters":0,"station_id":"","pricing_plan_id":"free"},{"bike_id":"a68cb37d-015b-4bcc-9bdc-2a0eef6fef7e","system_id":"levelo_inurba_marseille","lat":43.292749,"lon":5.368402,"is_reserved":false,"is_disabled":false,"rental_uris":{"android":"levelo://app?vid=a68cb37d-015b-4bcc-9bdc-2a0eef6fef7e","ios":"levelo://app?vid=a68cb37d-015b-4bcc-9bdc-2a0eef6fef7e"},"vehicle_type_id":"4","last_reported":1700597223,"current_range_meters":7600,"station_id":"ce4bhbp2rcd13ifvqesg","pricing_plan_id":"free"},{"bike_id":"9848df3b-9324-4444-a9d2-6a7153c5d068","system_id":"levelo_inurba_marseille","lat":43.292785,"lon":5.368407,"is_reserved":false,"is_disabled":false,"rental_uris":{"android":"levelo://app?vid=9848df3b-9324-4444-a9d2-6a7153c5d068","ios":"levelo://app?vid=9848df3b-9324-4444-a9d2-6a7153c5d068"},"vehicle_type_id":"4","last_reported":1700597223,"current_range_meters":22400,"station_id":"ce4bhbp2rcd13ifvqesg","pricing_plan_id":"free"},{"bike_id":"e986b1f5-56f8-45a8-8cf5-6bc9915898b8","system_id":"levelo_inurba_marseille","lat":43.293259,"lon":5.371586,"is_reserved":false,"is_disabled":false,"rental_uris":{"android":"levelo://app?vid=e986b1f5-56f8-45a8-8cf5-6bc9915898b8","ios":"levelo://app?vid=e986b1f5-56f8-45a8-8cf5-6bc9915898b8"},"vehicle_type_id":"4","last_reported":1700597223,"current_range_meters":13200,"station_id":"ce4bgh92rcd13ifvqb40","pricing_plan_id":"free"},{"bike_id":"b8f5ff51-3eaf-451e-8cc4-edcdce4824cc","system_id":"levelo_inurba_marseille","lat":43.292749,"lon":5.368402,"is_reserved":false,"is_disabled":false,"rental_uris":{"android":"levelo://app?vid=b8f5ff51-3eaf-451e-8cc4-edcdce4824cc","ios":"levelo://app?vid=b8f5ff51-3eaf-451e-8cc4-edcdce4824cc"},"vehicle_type_id":"4","last_reported":1700597223,"current_range_meters":31200,"station_id":"ce4bhbp2rcd13ifvqesg","pricing_plan_id":"free"},{"bike_id":"b2020263-304c-4a2f-adae-6171c8611fff","system_id":"levelo_inurba_marseille","lat":43.292749,"lon":5.368402,"is_reserved":false,"is_disabled":false,"rental_uris":{"android":"levelo://app?vid=b2020263-304c-4a2f-adae-6171c8611fff","ios":"levelo://app?vid=b2020263-304c-4a2f-adae-6171c8611fff"},"vehicle_type_id":"4","last_reported":1700597223,"current_range_meters":29600,"station_id":"ce4bhbp2rcd13ifvqesg","pricing_plan_id":"free"},{"bike_id":"781de499-f49b-4c89-b14d-8994a57a42a5","system_id":"levelo_inurba_marseille","lat":43.293259,"lon":5.371586,"is_reserved":false,"is_disabled":false,"rental_uris":{"android":"levelo://app?vid=781de499-f49b-4c89-b14d-8994a57a42a5","ios":"levelo://app?vid=781de499-f49b-4c89-b14d-8994a57a42a5"},"vehicle_type_id":"4","last_reported":1700597223,"current_range_meters":6400,"station_id":"ce4bgh92rcd13ifvqb40","pricing_plan_id":"free"},{"bike_id":"6ebc8d7e-e091-4114-a6df-8af41c478444","system_id":"levelo_inurba_marseille","lat":43.292749,"lon":5.368402,"is_reserved":false,"is_disabled":false,"rental_uris":{"android":"levelo://app?vid=6ebc8d7e-e091-4114-a6df-8af41c478444","ios":"levelo://app?vid=6ebc8d7e-e091-4114-a6df-8af41c478444"},"vehicle_type_id":"4","last_reported":1700597223,"current_range_meters":31200,"station_id":"ce4bhbp2rcd13ifvqesg","pricing_plan_id":"free"},{"bike_id":"bb180b8b-93fe-4851-b82a-dcd60037e2e7","system_id":"levelo_inurba_marseille","lat":43.303002,"lon":5.392142,"is_reserved":false,"is_disabled":false,"rental_uris":{"android":"levelo://app?vid=bb180b8b-93fe-4851-b82a-dcd60037e2e7","ios":"levelo://app?vid=bb180b8b-93fe-4851-b82a-dcd60037e2e7"},"vehicle_type_id":"4","last_reported":1700597223,"current_range_meters":5200,"station_id":"ce4bgkh2rcd13ifvqbk0","pricing_plan_id":"free"},{"bike_id":"4da1aabc-ea26-4179-bbe4-1d682e8f12c3","system_id":"levelo_inurba_marseille","lat":43.313291,"lon":5.396838,"is_reserved":false,"is_disabled":false,"rental_uris":{"android":"levelo://app?vid=4da1aabc-ea26-4179-bbe4-1d682e8f12c3","ios":"levelo://app?vid=4da1aabc-ea26-4179-bbe4-1d682e8f12c3"},"vehicle_type_id":"4","last_reported":1700597223,"current_range_meters":4800,"station_id":"ce4bgvp2rcd13ifvqcu0","pricing_plan_id":"free"},{"bike_id":"b7a5d4d2-7263-4d4f-bcde-11a7fc39f326","system_id":"levelo_inurba_marseille","lat":43.29194,"lon":5.357965,"is_reserved":false,"is_disabled":false,"rental_uris":{"android":"levelo://app?vid=b7a5d4d2-7263-4d4f-bcde-11a7fc39f326","ios":"levelo://app?vid=b7a5d4d2-7263-4d4f-bcde-11a7fc39f326"},"vehicle_type_id":"4","last_reported":1700597223,"current_range_meters":29200,"station_id":"ce4bhb12rcd13ifvqel0","pricing_plan_id":"free"},{"bike_id":"b21c3816-4a43-436c-96e5-ea2e98c071d4","system_id":"levelo_inurba_marseille","lat":43.313291,"lon":5.396838,"is_reserved":false,"is_disabled":false,"rental_uris":{"android":"levelo://app?vid=b21c3816-4a43-436c-96e5-ea2e98c071d4","ios":"levelo://app?vid=b21c3816-4a43-436c-96e5-ea2e98c071d4"},"vehicle_type_id":"4","last_reported":1700597223,"current_range_meters":18000,"station_id":"ce4bgvp2rcd13ifvqcu0","pricing_plan_id":"free"},{"bike_id":"2b48f807-3d81-4e4c-aba9-11fff2258b5c","system_id":"levelo_inurba_marseille","lat":43.313291,"lon":5.396838,"is_reserved":false,"is_disabled":false,"rental_uris":{"android":"levelo://app?vid=2b48f807-3d81-4e4c-aba9-11fff2258b5c","ios":"levelo://app?vid=2b48f807-3d81-4e4c-aba9-11fff2258b5c"},"vehicle_type_id":"4","last_reported":1700597223,"current_range_meters":1600,"station_id":"ce4bgvp2rcd13ifvqcu0","pricing_plan_id":"free"},{"bike_id":"27bc9d45-d2dd-4876-a3aa-2b0df997ba0e","system_id":"levelo_inurba_marseille","lat":43.29192,"lon":5.35794,"is_reserved":false,"is_disabled":false,"rental_uris":{"android":"levelo://app?vid=27bc9d45-d2dd-4876-a3aa-2b0df997ba0e","ios":"levelo://app?vid=27bc9d45-d2dd-4876-a3aa-2b0df997ba0e"},"vehicle_type_id":"4","last_reported":1700597223,"current_range_meters":30000,"station_id":"ce4bhb12rcd13ifvqel0","pricing_plan_id":"free"},{"bike_id":"764af471-e076-4c7b-836c-ec0f1a6cc104","system_id":"levelo_inurba_marseille","lat":43.313305,"lon":5.39691,"is_reserved":false,"is_disabled":false,"rental_uris":{"android":"levelo://app?vid=764af471-e076-4c7b-836c-ec0f1a6cc104","ios":"levelo://app?vid=764af471-e076-4c7b-836c-ec0f1a6cc104"},"vehicle_type_id":"4","last_reported":1700597223,"current_range_meters":18000,"station_id":"ce4bgvp2rcd13ifvqcu0","pricing_plan_id":"free"},{"bike_id":"fbfed483-aabb-48b3-a2ba-6b821d7fe5c9","system_id":"levelo_inurba_marseille","lat":43.309038,"lon":5.396546,"is_reserved":false,"is_disabled":false,"rental_uris":{"android":"levelo://app?vid=fbfed483-aabb-48b3-a2ba-6b821d7fe5c9","ios":"levelo://app?vid=fbfed483-aabb-48b3-a2ba-6b821d7fe5c9"},"vehicle_type_id":"4","last_reported":1700597223,"current_range_meters":2400,"station_id":"ce4bh012rcd13ifvqcv0","pricing_plan_id":"free"},{"bike_id":"f92a19e5-0f90-44dc-a5c5-efc441e3ba16","system_id":"levelo_inurba_marseille","lat":43.309038,"lon":5.396546,"is_reserved":false,"is_disabled":false,"rental_uris":{"android":"levelo://app?vid=f92a19e5-0f90-44dc-a5c5-efc441e3ba16","ios":"levelo://app?vid=f92a19e5-0f90-44dc-a5c5-efc441e3ba16"},"vehicle_type_id":"4","last_reported":1700597223,"current_range_meters":21200,"station_id":"ce4bh012rcd13ifvqcv0","pricing_plan_id":"free"},{"bike_id":"ec80e128-152d-4da7-91a4-7071a68698a9","system_id":"levelo_inurba_marseille","lat":43.309038,"lon":5.396546,"is_reserved":false,"is_disabled":false,"rental_uris":{"android":"levelo://app?vid=ec80e128-152d-4da7-91a4-7071a68698a9","ios":"levelo://app?vid=ec80e128-152d-4da7-91a4-7071a68698a9"},"vehicle_type_id":"4","last_reported":1700597223,"current_range_meters":0,"station_id":"ce4bh012rcd13ifvqcv0","pricing_plan_id":"free"},{"bike_id":"36e9a425-f5c8-4672-8a19-916ec1b2e4ca","system_id":"levelo_inurba_marseille","lat":43.29189,"lon":5.35791,"is_reserved":false,"is_disabled":false,"rental_uris":{"android":"levelo://app?vid=36e9a425-f5c8-4672-8a19-916ec1b2e4ca","ios":"levelo://app?vid=36e9a425-f5c8-4672-8a19-916ec1b2e4ca"},"vehicle_type_id":"4","last_reported":1700597223,"current_range_meters":28400,"station_id":"ce4bhb12rcd13ifvqel0","pricing_plan_id":"free"},{"bike_id":"c97c518b-be57-4af7-849e-2bbc2e971522","system_id":"levelo_inurba_marseille","lat":43.31332,"lon":5.39699,"is_reserved":false,"is_disabled":false,"rental_uris":{"android":"levelo://app?vid=c97c518b-be57-4af7-849e-2bbc2e971522","ios":"levelo://app?vid=c97c518b-be57-4af7-849e-2bbc2e971522"},"vehicle_type_id":"4","last_reported":1700597223,"current_range_meters":0,"station_id":"ce4bgvp2rcd13ifvqcu0","pricing_plan_id":"free"},{"bike_id":"6d84f195-20fd-4657-b77a-d13c1b7a9220","system_id":"levelo_inurba_marseille","lat":43.309047,"lon":5.396551,"is_reserved":false,"is_disabled":false,"rental_uris":{"android":"levelo://app?vid=6d84f195-20fd-4657-b77a-d13c1b7a9220","ios":"levelo://app?vid=6d84f195-20fd-4657-b77a-d13c1b7a9220"},"vehicle_type_id":"4","last_reported":1700597223,"current_range_meters":1600,"station_id":"ce4bh012rcd13ifvqcv0","pricing_plan_id":"free"},{"bike_id":"c6591405-597b-4a84-9753-4d8dabd9b307","system_id":"levelo_inurba_marseille","lat":43.29184,"lon":5.35795,"is_reserved":false,"is_disabled":false,"rental_uris":{"android":"levelo://app?vid=c6591405-597b-4a84-9753-4d8dabd9b307","ios":"levelo://app?vid=c6591405-597b-4a84-9753-4d8dabd9b307"},"vehicle_type_id":"4","last_reported":1700597223,"current_range_meters":31200,"station_id":"ce4bhb12rcd13ifvqel0","pricing_plan_id":"free"},{"bike_id":"eca9d464-6432-40fc-a29a-36bcf5ef2c45","system_id":"levelo_inurba_marseille","lat":43.309038,"lon":5.396546,"is_reserved":false,"is_disabled":false,"rental_uris":{"android":"levelo://app?vid=eca9d464-6432-40fc-a29a-36bcf5ef2c45","ios":"levelo://app?vid=eca9d464-6432-40fc-a29a-36bcf5ef2c45"},"vehicle_type_id":"4","last_reported":1700597223,"current_range_meters":4400,"station_id":"ce4bh012rcd13ifvqcv0","pricing_plan_id":"free"},{"bike_id":"c966cce9-73aa-4ca0-9793-b5821691c634","system_id":"levelo_inurba_marseille","lat":43.29529,"lon":5.385581,"is_reserved":false,"is_disabled":false,"rental_uris":{"android":"levelo://app?vid=c966cce9-73aa-4ca0-9793-b5821691c634","ios":"levelo://app?vid=c966cce9-73aa-4ca0-9793-b5821691c634"},"vehicle_type_id":"4","last_reported":1700597223,"current_range_meters":5200,"station_id":"ce4bgih2rcd13ifvqba0","pricing_plan_id":"free"},{"bike_id":"1d10a1b1-d55f-4279-928a-9c6858f32ca9","system_id":"levelo_inurba_marseille","lat":43.33231,"lon":5.380687,"is_reserved":false,"is_disabled":false,"rental_uris":{"android":"levelo://app?vid=1d10a1b1-d55f-4279-928a-9c6858f32ca9","ios":"levelo://app?vid=1d10a1b1-d55f-4279-928a-9c6858f32ca9"},"vehicle_type_id":"4","last_reported":1700597223,"current_range_meters":2400,"station_id":"","pricing_plan_id":"free"},{"bike_id":"44a6a811-0616-44d1-b875-ac77a4e28007","system_id":"levelo_inurba_marseille","lat":43.29529,"lon":5.385581,"is_reserved":false,"is_disabled":false,"rental_uris":{"android":"levelo://app?vid=44a6a811-0616-44d1-b875-ac77a4e28007","ios":"levelo://app?vid=44a6a811-0616-44d1-b875-ac77a4e28007"},"vehicle_type_id":"4","last_reported":1700597223,"current_range_meters":10800,"station_id":"ce4bgih2rcd13ifvqba0","pricing_plan_id":"free"},{"bike_id":"8e0e8d0d-8e8a-43cc-8004-185a85cf0466","system_id":"levelo_inurba_marseille","lat":43.290779,"lon":5.371482,"is_reserved":false,"is_disabled":false,"rental_uris":{"android":"levelo://app?vid=8e0e8d0d-8e8a-43cc-8004-185a85cf0466","ios":"levelo://app?vid=8e0e8d0d-8e8a-43cc-8004-185a85cf0466"},"vehicle_type_id":"4","last_reported":1700597223,"current_range_meters":13600,"station_id":"ce4bh5p2rcd13ifvqe4g","pricing_plan_id":"free"},{"bike_id":"e8ae8422-2a6c-46f9-b171-6b47ab517277","system_id":"levelo_inurba_marseille","lat":43.29344,"lon":5.382465,"is_reserved":false,"is_disabled":false,"rental_uris":{"android":"levelo://app?vid=e8ae8422-2a6c-46f9-b171-6b47ab517277","ios":"levelo://app?vid=e8ae8422-2a6c-46f9-b171-6b47ab517277"},"vehicle_type_id":"4","last_reported":1700597223,"current_range_meters":0,"station_id":"","pricing_plan_id":"free"},{"bike_id":"7ef5133c-a510-442b-b4e0-362388e7dc22","system_id":"levelo_inurba_marseille","lat":43.28931,"lon":5.36635,"is_reserved":false,"is_disabled":false,"rental_uris":{"android":"levelo://app?vid=7ef5133c-a510-442b-b4e0-362388e7dc22","ios":"levelo://app?vid=7ef5133c-a510-442b-b4e0-362388e7dc22"},"vehicle_type_id":"4","last_reported":1700597223,"current_range_meters":0,"station_id":"ce4bhap2rcd13ifvqek0","pricing_plan_id":"free"},{"bike_id":"89b29b5a-d802-43db-962f-ffe92f87d98e","system_id":"levelo_inurba_marseille","lat":43.29261,"lon":5.38427,"is_reserved":false,"is_disabled":false,"rental_uris":{"android":"levelo://app?vid=89b29b5a-d802-43db-962f-ffe92f87d98e","ios":"levelo://app?vid=89b29b5a-d802-43db-962f-ffe92f87d98e"},"vehicle_type_id":"4","last_reported":1700597223,"current_range_meters":20400,"station_id":"ce4bh692rcd13ifvqea0","pricing_plan_id":"free"},{"bike_id":"2645bdcb-ce5d-48e6-83e7-b949d60b3988","system_id":"levelo_inurba_marseille","lat":43.292557,"lon":5.384407,"is_reserved":false,"is_disabled":false,"rental_uris":{"android":"levelo://app?vid=2645bdcb-ce5d-48e6-83e7-b949d60b3988","ios":"levelo://app?vid=2645bdcb-ce5d-48e6-83e7-b949d60b3988"},"vehicle_type_id":"4","last_reported":1700597223,"current_range_meters":28400,"station_id":"ce4bh692rcd13ifvqea0","pricing_plan_id":"free"},{"bike_id":"c7882023-4d8b-4bbb-adc6-515c2e2b08dc","system_id":"levelo_inurba_marseille","lat":43.33043,"lon":5.38922,"is_reserved":false,"is_disabled":false,"rental_uris":{"android":"levelo://app?vid=c7882023-4d8b-4bbb-adc6-515c2e2b08dc","ios":"levelo://app?vid=c7882023-4d8b-4bbb-adc6-515c2e2b08dc"},"vehicle_type_id":"4","last_reported":1700597223,"current_range_meters":0,"station_id":"ce4bhr92rcd13ifvqhrg","pricing_plan_id":"free"},{"bike_id":"c0691913-4d43-42af-9fa5-975aa1a8621b","system_id":"levelo_inurba_marseille","lat":43.290927,"lon":5.38155,"is_reserved":false,"is_disabled":false,"rental_uris":{"android":"levelo://app?vid=c0691913-4d43-42af-9fa5-975aa1a8621b","ios":"levelo://app?vid=c0691913-4d43-42af-9fa5-975aa1a8621b"},"vehicle_type_id":"4","last_reported":1700597223,"current_range_meters":0,"station_id":"ce4bh512rcd13ifvqe2g","pricing_plan_id":"free"},{"bike_id":"0d85ffb4-e67b-480d-bb1a-3afe2d7e4bd6","system_id":"levelo_inurba_marseille","lat":43.290624,"lon":5.359245,"is_reserved":false,"is_disabled":false,"rental_uris":{"android":"levelo://app?vid=0d85ffb4-e67b-480d-bb1a-3afe2d7e4bd6","ios":"levelo://app?vid=0d85ffb4-e67b-480d-bb1a-3afe2d7e4bd6"},"vehicle_type_id":"4","last_reported":1700597223,"current_range_meters":29200,"station_id":"ce4bha92rcd13ifvqeg0","pricing_plan_id":"free"},{"bike_id":"c6aebcf1-9924-4688-8956-4725818c5258","system_id":"levelo_inurba_marseille","lat":43.29528,"lon":5.39029,"is_reserved":false,"is_disabled":false,"rental_uris":{"android":"levelo://app?vid=c6aebcf1-9924-4688-8956-4725818c5258","ios":"levelo://app?vid=c6aebcf1-9924-4688-8956-4725818c5258"},"vehicle_type_id":"4","last_reported":1700597223,"current_range_meters":0,"station_id":"ce4bh3p2rcd13ifvqdp0","pricing_plan_id":"free"},{"bike_id":"56ae1ae3-2366-4a70-8b2d-f5360d93553f","system_id":"levelo_inurba_marseille","lat":43.28856,"lon":5.358371,"is_reserved":false,"is_disabled":false,"rental_uris":{"android":"levelo://app?vid=56ae1ae3-2366-4a70-8b2d-f5360d93553f","ios":"levelo://app?vid=56ae1ae3-2366-4a70-8b2d-f5360d93553f"},"vehicle_type_id":"4","last_reported":1700597223,"current_range_meters":14000,"station_id":"ce4bhb12rcd13ifvqem0","pricing_plan_id":"free"},{"bike_id":"c34173f9-5dd8-458e-8a79-9e9340d6ba55","system_id":"levelo_inurba_marseille","lat":43.28856,"lon":5.358371,"is_reserved":false,"is_disabled":false,"rental_uris":{"android":"levelo://app?vid=c34173f9-5dd8-458e-8a79-9e9340d6ba55","ios":"levelo://app?vid=c34173f9-5dd8-458e-8a79-9e9340d6ba55"},"vehicle_type_id":"4","last_reported":1700597223,"current_range_meters":1200,"station_id":"ce4bhb12rcd13ifvqem0","pricing_plan_id":"free"},{"bike_id":"aad9a792-6976-4183-919a-aef819ff2e25","system_id":"levelo_inurba_marseille","lat":43.31251,"lon":5.40162,"is_reserved":false,"is_disabled":false,"rental_uris":{"android":"levelo://app?vid=aad9a792-6976-4183-919a-aef819ff2e25","ios":"levelo://app?vid=aad9a792-6976-4183-919a-aef819ff2e25"},"vehicle_type_id":"4","last_reported":1700597223,"current_range_meters":2000,"station_id":"","pricing_plan_id":"free"},{"bike_id":"4166f851-581a-4a7f-944e-d13829034fa9","system_id":"levelo_inurba_marseille","lat":43.309371,"lon":5.401449,"is_reserved":false,"is_disabled":false,"rental_uris":{"android":"levelo://app?vid=4166f851-581a-4a7f-944e-d13829034fa9","ios":"levelo://app?vid=4166f851-581a-4a7f-944e-d13829034fa9"},"vehicle_type_id":"4","last_reported":1700597223,"current_range_meters":0,"station_id":"ce4bgvp2rcd13ifvqct0","pricing_plan_id":"free"},{"bike_id":"3e80dcd8-a329-470b-b197-d74a5d021a25","system_id":"levelo_inurba_marseille","lat":43.33747,"lon":5.37463,"is_reserved":false,"is_disabled":false,"rental_uris":{"android":"levelo://app?vid=3e80dcd8-a329-470b-b197-d74a5d021a25","ios":"levelo://app?vid=3e80dcd8-a329-470b-b197-d74a5d021a25"},"vehicle_type_id":"4","last_reported":1700597223,"current_range_meters":31200,"station_id":"","pricing_plan_id":"free"},{"bike_id":"7c0ffb5d-fbbe-4fd6-984f-fef0cc3500d0","system_id":"levelo_inurba_marseille","lat":43.33759,"lon":5.37428,"is_reserved":false,"is_disabled":false,"rental_uris":{"android":"levelo://app?vid=7c0ffb5d-fbbe-4fd6-984f-fef0cc3500d0","ios":"levelo://app?vid=7c0ffb5d-fbbe-4fd6-984f-fef0cc3500d0"},"vehicle_type_id":"4","last_reported":1700597223,"current_range_meters":29600,"station_id":"","pricing_plan_id":"free"},{"bike_id":"9cd39201-5a49-4174-824c-419b775459f9","system_id":"levelo_inurba_marseille","lat":43.33771,"lon":5.374318,"is_reserved":false,"is_disabled":false,"rental_uris":{"android":"levelo://app?vid=9cd39201-5a49-4174-824c-419b775459f9","ios":"levelo://app?vid=9cd39201-5a49-4174-824c-419b775459f9"},"vehicle_type_id":"4","last_reported":1700597223,"current_range_meters":31200,"station_id":"","pricing_plan_id":"free"},{"bike_id":"63941cb1-92d5-4724-b592-69a7499de2d3","system_id":"levelo_inurba_marseille","lat":43.30642,"lon":5.401031,"is_reserved":false,"is_disabled":false,"rental_uris":{"android":"levelo://app?vid=63941cb1-92d5-4724-b592-69a7499de2d3","ios":"levelo://app?vid=63941cb1-92d5-4724-b592-69a7499de2d3"},"vehicle_type_id":"4","last_reported":1700597223,"current_range_meters":25600,"station_id":"ce4bh112rcd13ifvqda0","pricing_plan_id":"free"},{"bike_id":"d6389510-6802-49ef-b98a-747986969890","system_id":"levelo_inurba_marseille","lat":43.337712,"lon":5.374356,"is_reserved":false,"is_disabled":false,"rental_uris":{"android":"levelo://app?vid=d6389510-6802-49ef-b98a-747986969890","ios":"levelo://app?vid=d6389510-6802-49ef-b98a-747986969890"},"vehicle_type_id":"4","last_reported":1700597223,"current_range_meters":29200,"station_id":"","pricing_plan_id":"free"},{"bike_id":"059ddb7d-1142-4894-9b5a-c5a46ec41b02","system_id":"levelo_inurba_marseille","lat":43.337695,"lon":5.374467,"is_reserved":false,"is_disabled":false,"rental_uris":{"android":"levelo://app?vid=059ddb7d-1142-4894-9b5a-c5a46ec41b02","ios":"levelo://app?vid=059ddb7d-1142-4894-9b5a-c5a46ec41b02"},"vehicle_type_id":"4","last_reported":1700597223,"current_range_meters":29200,"station_id":"","pricing_plan_id":"free"},{"bike_id":"2bd2ca8f-5f8f-4fab-b1a6-2497741988f1","system_id":"levelo_inurba_marseille","lat":43.33775,"lon":5.374329,"is_reserved":false,"is_disabled":false,"rental_uris":{"android":"levelo://app?vid=2bd2ca8f-5f8f-4fab-b1a6-2497741988f1","ios":"levelo://app?vid=2bd2ca8f-5f8f-4fab-b1a6-2497741988f1"},"vehicle_type_id":"4","last_reported":1700597223,"current_range_meters":29600,"station_id":"","pricing_plan_id":"free"},{"bike_id":"4c09723e-dac1-4a29-ae81-cfe55ee97129","system_id":"levelo_inurba_marseille","lat":43.33779,"lon":5.3741,"is_reserved":false,"is_disabled":false,"rental_uris":{"android":"levelo://app?vid=4c09723e-dac1-4a29-ae81-cfe55ee97129","ios":"levelo://app?vid=4c09723e-dac1-4a29-ae81-cfe55ee97129"},"vehicle_type_id":"4","last_reported":1700597223,"current_range_meters":27600,"station_id":"","pricing_plan_id":"free"},{"bike_id":"906843f4-dafc-4a00-8562-af0cc52b2c6b","system_id":"levelo_inurba_marseille","lat":43.30652,"lon":5.40105,"is_reserved":false,"is_disabled":false,"rental_uris":{"android":"levelo://app?vid=906843f4-dafc-4a00-8562-af0cc52b2c6b","ios":"levelo://app?vid=906843f4-dafc-4a00-8562-af0cc52b2c6b"},"vehicle_type_id":"4","last_reported":1700597223,"current_range_meters":0,"station_id":"ce4bh112rcd13ifvqda0","pricing_plan_id":"free"},{"bike_id":"a8ed96ea-2aa3-4cb8-86ae-fea3787e127e","system_id":"levelo_inurba_marseille","lat":43.33777,"lon":5.374338,"is_reserved":false,"is_disabled":false,"rental_uris":{"android":"levelo://app?vid=a8ed96ea-2aa3-4cb8-86ae-fea3787e127e","ios":"levelo://app?vid=a8ed96ea-2aa3-4cb8-86ae-fea3787e127e"},"vehicle_type_id":"4","last_reported":1700597223,"current_range_meters":28800,"station_id":"","pricing_plan_id":"free"},{"bike_id":"2b3f4cef-d88a-414c-b2cc-9d2a98e793f1","system_id":"levelo_inurba_marseille","lat":43.3377,"lon":5.3749,"is_reserved":false,"is_disabled":false,"rental_uris":{"android":"levelo://app?vid=2b3f4cef-d88a-414c-b2cc-9d2a98e793f1","ios":"levelo://app?vid=2b3f4cef-d88a-414c-b2cc-9d2a98e793f1"},"vehicle_type_id":"4","last_reported":1700597223,"current_range_meters":10000,"station_id":"","pricing_plan_id":"free"},{"bike_id":"c23a038d-8fe5-437f-bbe5-513359d786e1","system_id":"levelo_inurba_marseille","lat":43.33771,"lon":5.37487,"is_reserved":false,"is_disabled":false,"rental_uris":{"android":"levelo://app?vid=c23a038d-8fe5-437f-bbe5-513359d786e1","ios":"levelo://app?vid=c23a038d-8fe5-437f-bbe5-513359d786e1"},"vehicle_type_id":"4","last_reported":1700597223,"current_range_meters":29200,"station_id":"","pricing_plan_id":"free"},{"bike_id":"dedd3e4f-e4e1-4fe0-afd5-fc320bdd5588","system_id":"levelo_inurba_marseille","lat":43.33772,"lon":5.37486,"is_reserved":false,"is_disabled":false,"rental_uris":{"android":"levelo://app?vid=dedd3e4f-e4e1-4fe0-afd5-fc320bdd5588","ios":"levelo://app?vid=dedd3e4f-e4e1-4fe0-afd5-fc320bdd5588"},"vehicle_type_id":"4","last_reported":1700597223,"current_range_meters":26800,"station_id":"","pricing_plan_id":"free"},{"bike_id":"1e5f9b7c-ce69-4d52-80d0-edbd66d45f4f","system_id":"levelo_inurba_marseille","lat":43.28727,"lon":5.36078,"is_reserved":false,"is_disabled":false,"rental_uris":{"android":"levelo://app?vid=1e5f9b7c-ce69-4d52-80d0-edbd66d45f4f","ios":"levelo://app?vid=1e5f9b7c-ce69-4d52-80d0-edbd66d45f4f"},"vehicle_type_id":"4","last_reported":1700597223,"current_range_meters":30000,"station_id":"cki0cbj6b192h4jlfktg","pricing_plan_id":"free"},{"bike_id":"7f3c6d53-e83a-4eb5-8a75-71e541b013a2","system_id":"levelo_inurba_marseille","lat":43.28724,"lon":5.36092,"is_reserved":false,"is_disabled":false,"rental_uris":{"android":"levelo://app?vid=7f3c6d53-e83a-4eb5-8a75-71e541b013a2","ios":"levelo://app?vid=7f3c6d53-e83a-4eb5-8a75-71e541b013a2"},"vehicle_type_id":"4","last_reported":1700597223,"current_range_meters":11600,"station_id":"cki0cbj6b192h4jlfktg","pricing_plan_id":"free"},{"bike_id":"70bf1fd8-c051-4161-a10e-c760b71856cd","system_id":"levelo_inurba_marseille","lat":43.28724,"lon":5.36092,"is_reserved":false,"is_disabled":false,"rental_uris":{"android":"levelo://app?vid=70bf1fd8-c051-4161-a10e-c760b71856cd","ios":"levelo://app?vid=70bf1fd8-c051-4161-a10e-c760b71856cd"},"vehicle_type_id":"4","last_reported":1700597223,"current_range_meters":22400,"station_id":"cki0cbj6b192h4jlfktg","pricing_plan_id":"free"},{"bike_id":"54bafbc3-ecf7-48c0-a614-f8ace818ec52","system_id":"levelo_inurba_marseille","lat":43.28718,"lon":5.36091,"is_reserved":false,"is_disabled":false,"rental_uris":{"android":"levelo://app?vid=54bafbc3-ecf7-48c0-a614-f8ace818ec52","ios":"levelo://app?vid=54bafbc3-ecf7-48c0-a614-f8ace818ec52"},"vehicle_type_id":"4","last_reported":1700597223,"current_range_meters":4400,"station_id":"cki0cbj6b192h4jlfktg","pricing_plan_id":"free"},{"bike_id":"39708262-1435-437e-ad5e-1d060b4fbaa0","system_id":"levelo_inurba_marseille","lat":43.28719,"lon":5.36083,"is_reserved":false,"is_disabled":false,"rental_uris":{"android":"levelo://app?vid=39708262-1435-437e-ad5e-1d060b4fbaa0","ios":"levelo://app?vid=39708262-1435-437e-ad5e-1d060b4fbaa0"},"vehicle_type_id":"4","last_reported":1700597223,"current_range_meters":5200,"station_id":"cki0cbj6b192h4jlfktg","pricing_plan_id":"free"},{"bike_id":"5aa8ff98-98bc-4b95-a8fc-ba24aab95f38","system_id":"levelo_inurba_marseille","lat":43.28719,"lon":5.360814,"is_reserved":false,"is_disabled":false,"rental_uris":{"android":"levelo://app?vid=5aa8ff98-98bc-4b95-a8fc-ba24aab95f38","ios":"levelo://app?vid=5aa8ff98-98bc-4b95-a8fc-ba24aab95f38"},"vehicle_type_id":"4","last_reported":1700597223,"current_range_meters":9600,"station_id":"cki0cbj6b192h4jlfktg","pricing_plan_id":"free"},{"bike_id":"22ea8213-4d84-400c-aece-3f6fd6226cb1","system_id":"levelo_inurba_marseille","lat":43.286591,"lon":5.363346,"is_reserved":false,"is_disabled":false,"rental_uris":{"android":"levelo://app?vid=22ea8213-4d84-400c-aece-3f6fd6226cb1","ios":"levelo://app?vid=22ea8213-4d84-400c-aece-3f6fd6226cb1"},"vehicle_type_id":"4","last_reported":1700597223,"current_range_meters":16000,"station_id":"ce4bhah2rcd13ifvqej0","pricing_plan_id":"free"},{"bike_id":"3123c8c1-c13a-45e2-a52e-66047a42fd94","system_id":"levelo_inurba_marseille","lat":43.29873,"lon":5.39733,"is_reserved":false,"is_disabled":false,"rental_uris":{"android":"levelo://app?vid=3123c8c1-c13a-45e2-a52e-66047a42fd94","ios":"levelo://app?vid=3123c8c1-c13a-45e2-a52e-66047a42fd94"},"vehicle_type_id":"4","last_reported":1700597223,"current_range_meters":0,"station_id":"ce4bh0h2rcd13ifvqd50","pricing_plan_id":"free"},{"bike_id":"4743d5d7-be7d-4576-bcef-d8dd24978bd4","system_id":"levelo_inurba_marseille","lat":43.295194,"lon":5.39397,"is_reserved":false,"is_disabled":false,"rental_uris":{"android":"levelo://app?vid=4743d5d7-be7d-4576-bcef-d8dd24978bd4","ios":"levelo://app?vid=4743d5d7-be7d-4576-bcef-d8dd24978bd4"},"vehicle_type_id":"4","last_reported":1700597223,"current_range_meters":23600,"station_id":"ce4bh292rcd13ifvqdf0","pricing_plan_id":"free"},{"bike_id":"e014dcec-1670-451f-b81d-496ef8d2b9c6","system_id":"levelo_inurba_marseille","lat":43.289307,"lon":5.38406,"is_reserved":false,"is_disabled":false,"rental_uris":{"android":"levelo://app?vid=e014dcec-1670-451f-b81d-496ef8d2b9c6","ios":"levelo://app?vid=e014dcec-1670-451f-b81d-496ef8d2b9c6"},"vehicle_type_id":"4","last_reported":1700597223,"current_range_meters":4400,"station_id":"ce4bh612rcd13ifvqe6g","pricing_plan_id":"free"},{"bike_id":"5a3914f8-6d02-4163-91fb-3288bc9a951d","system_id":"levelo_inurba_marseille","lat":43.29031,"lon":5.38634,"is_reserved":false,"is_disabled":false,"rental_uris":{"android":"levelo://app?vid=5a3914f8-6d02-4163-91fb-3288bc9a951d","ios":"levelo://app?vid=5a3914f8-6d02-4163-91fb-3288bc9a951d"},"vehicle_type_id":"4","last_reported":1700597223,"current_range_meters":14400,"station_id":"","pricing_plan_id":"free"},{"bike_id":"7f747f99-2551-4a7d-91bc-bd240437708e","system_id":"levelo_inurba_marseille","lat":43.29026,"lon":5.38624,"is_reserved":false,"is_disabled":false,"rental_uris":{"android":"levelo://app?vid=7f747f99-2551-4a7d-91bc-bd240437708e","ios":"levelo://app?vid=7f747f99-2551-4a7d-91bc-bd240437708e"},"vehicle_type_id":"4","last_reported":1700597223,"current_range_meters":16800,"station_id":"","pricing_plan_id":"free"},{"bike_id":"48f13903-06f4-49f7-9caa-772c15252d5b","system_id":"levelo_inurba_marseille","lat":43.28921,"lon":5.3839,"is_reserved":false,"is_disabled":false,"rental_uris":{"android":"levelo://app?vid=48f13903-06f4-49f7-9caa-772c15252d5b","ios":"levelo://app?vid=48f13903-06f4-49f7-9caa-772c15252d5b"},"vehicle_type_id":"4","last_reported":1700597223,"current_range_meters":5200,"station_id":"ce4bh612rcd13ifvqe6g","pricing_plan_id":"free"},{"bike_id":"94589290-4758-4aba-90cd-ab5a1095fe83","system_id":"levelo_inurba_marseille","lat":43.302759,"lon":5.400793,"is_reserved":false,"is_disabled":false,"rental_uris":{"android":"levelo://app?vid=94589290-4758-4aba-90cd-ab5a1095fe83","ios":"levelo://app?vid=94589290-4758-4aba-90cd-ab5a1095fe83"},"vehicle_type_id":"4","last_reported":1700597223,"current_range_meters":19600,"station_id":"ce4bgvh2rcd13ifvqcs0","pricing_plan_id":"free"},{"bike_id":"587797ad-7dfe-49a2-9404-a32255c8619a","system_id":"levelo_inurba_marseille","lat":43.286152,"lon":5.370623,"is_reserved":false,"is_disabled":false,"rental_uris":{"android":"levelo://app?vid=587797ad-7dfe-49a2-9404-a32255c8619a","ios":"levelo://app?vid=587797ad-7dfe-49a2-9404-a32255c8619a"},"vehicle_type_id":"4","last_reported":1700597223,"current_range_meters":22800,"station_id":"ce4bht12rcd13ifvqi60","pricing_plan_id":"free"},{"bike_id":"e20842cd-8eea-4741-8c73-0475dbb8d81a","system_id":"levelo_inurba_marseille","lat":43.286039,"lon":5.370681,"is_reserved":false,"is_disabled":false,"rental_uris":{"android":"levelo://app?vid=e20842cd-8eea-4741-8c73-0475dbb8d81a","ios":"levelo://app?vid=e20842cd-8eea-4741-8c73-0475dbb8d81a"},"vehicle_type_id":"4","last_reported":1700597223,"current_range_meters":31200,"station_id":"ce4bht12rcd13ifvqi60","pricing_plan_id":"free"},{"bike_id":"103037f0-b8c2-4b7e-bb4e-0c3ed55d65e6","system_id":"levelo_inurba_marseille","lat":43.286099,"lon":5.370627,"is_reserved":false,"is_disabled":false,"rental_uris":{"android":"levelo://app?vid=103037f0-b8c2-4b7e-bb4e-0c3ed55d65e6","ios":"levelo://app?vid=103037f0-b8c2-4b7e-bb4e-0c3ed55d65e6"},"vehicle_type_id":"4","last_reported":1700597223,"current_range_meters":17600,"station_id":"ce4bht12rcd13ifvqi60","pricing_plan_id":"free"},{"bike_id":"821c6e44-35a6-49f9-91ed-c3e1465af153","system_id":"levelo_inurba_marseille","lat":43.287185,"lon":5.379373,"is_reserved":false,"is_disabled":false,"rental_uris":{"android":"levelo://app?vid=821c6e44-35a6-49f9-91ed-c3e1465af153","ios":"levelo://app?vid=821c6e44-35a6-49f9-91ed-c3e1465af153"},"vehicle_type_id":"4","last_reported":1700597223,"current_range_meters":11600,"station_id":"ce4bh9p2rcd13ifvqec0","pricing_plan_id":"free"},{"bike_id":"2bf8e80a-7845-4263-93a9-405fdb2a7031","system_id":"levelo_inurba_marseille","lat":43.287185,"lon":5.379373,"is_reserved":false,"is_disabled":false,"rental_uris":{"android":"levelo://app?vid=2bf8e80a-7845-4263-93a9-405fdb2a7031","ios":"levelo://app?vid=2bf8e80a-7845-4263-93a9-405fdb2a7031"},"vehicle_type_id":"4","last_reported":1700597223,"current_range_meters":0,"station_id":"ce4bh9p2rcd13ifvqec0","pricing_plan_id":"free"},{"bike_id":"e9d88b11-cafa-48b2-9b6d-6d5932fa99c1","system_id":"levelo_inurba_marseille","lat":43.287184,"lon":5.37937,"is_reserved":false,"is_disabled":false,"rental_uris":{"android":"levelo://app?vid=e9d88b11-cafa-48b2-9b6d-6d5932fa99c1","ios":"levelo://app?vid=e9d88b11-cafa-48b2-9b6d-6d5932fa99c1"},"vehicle_type_id":"4","last_reported":1700597223,"current_range_meters":5200,"station_id":"ce4bh9p2rcd13ifvqec0","pricing_plan_id":"free"},{"bike_id":"6330ae62-b664-4e6f-b2b3-0c89ac44e1b5","system_id":"levelo_inurba_marseille","lat":43.316447,"lon":5.40437,"is_reserved":false,"is_disabled":false,"rental_uris":{"android":"levelo://app?vid=6330ae62-b664-4e6f-b2b3-0c89ac44e1b5","ios":"levelo://app?vid=6330ae62-b664-4e6f-b2b3-0c89ac44e1b5"},"vehicle_type_id":"4","last_reported":1700597223,"current_range_meters":21200,"station_id":"ce4bh012rcd13ifvqd00","pricing_plan_id":"free"},{"bike_id":"eee285e4-1788-47a6-8d06-b90ba3f1eeb4","system_id":"levelo_inurba_marseille","lat":43.3165,"lon":5.40437,"is_reserved":false,"is_disabled":false,"rental_uris":{"android":"levelo://app?vid=eee285e4-1788-47a6-8d06-b90ba3f1eeb4","ios":"levelo://app?vid=eee285e4-1788-47a6-8d06-b90ba3f1eeb4"},"vehicle_type_id":"4","last_reported":1700597223,"current_range_meters":2000,"station_id":"ce4bh012rcd13ifvqd00","pricing_plan_id":"free"},{"bike_id":"a23c57ea-021f-4199-8b91-a2921f0050d0","system_id":"levelo_inurba_marseille","lat":43.316517,"lon":5.404375,"is_reserved":false,"is_disabled":false,"rental_uris":{"android":"levelo://app?vid=a23c57ea-021f-4199-8b91-a2921f0050d0","ios":"levelo://app?vid=a23c57ea-021f-4199-8b91-a2921f0050d0"},"vehicle_type_id":"4","last_reported":1700597223,"current_range_meters":15200,"station_id":"ce4bh012rcd13ifvqd00","pricing_plan_id":"free"},{"bike_id":"6e5daa10-e27e-40ce-b551-0318deaa4f63","system_id":"levelo_inurba_marseille","lat":43.292055,"lon":5.393203,"is_reserved":false,"is_disabled":false,"rental_uris":{"android":"levelo://app?vid=6e5daa10-e27e-40ce-b551-0318deaa4f63","ios":"levelo://app?vid=6e5daa10-e27e-40ce-b551-0318deaa4f63"},"vehicle_type_id":"4","last_reported":1700597223,"current_range_meters":0,"station_id":"ce4bh192rcd13ifvqdd0","pricing_plan_id":"free"},{"bike_id":"abb0ea22-75eb-4892-ab8a-b6710ca00125","system_id":"levelo_inurba_marseille","lat":43.28462,"lon":5.35893,"is_reserved":false,"is_disabled":false,"rental_uris":{"android":"levelo://app?vid=abb0ea22-75eb-4892-ab8a-b6710ca00125","ios":"levelo://app?vid=abb0ea22-75eb-4892-ab8a-b6710ca00125"},"vehicle_type_id":"4","last_reported":1700597223,"current_range_meters":31200,"station_id":"ce4bhah2rcd13ifvqei0","pricing_plan_id":"free"},{"bike_id":"32d0c4b3-4975-4c54-b911-a5834e4d69b1","system_id":"levelo_inurba_marseille","lat":43.28461,"lon":5.35894,"is_reserved":false,"is_disabled":false,"rental_uris":{"android":"levelo://app?vid=32d0c4b3-4975-4c54-b911-a5834e4d69b1","ios":"levelo://app?vid=32d0c4b3-4975-4c54-b911-a5834e4d69b1"},"vehicle_type_id":"4","last_reported":1700597223,"current_range_meters":31200,"station_id":"ce4bhah2rcd13ifvqei0","pricing_plan_id":"free"},{"bike_id":"c4899c4c-8199-4647-bf2c-fc8c8282ade6","system_id":"levelo_inurba_marseille","lat":43.284604,"lon":5.358971,"is_reserved":false,"is_disabled":false,"rental_uris":{"android":"levelo://app?vid=c4899c4c-8199-4647-bf2c-fc8c8282ade6","ios":"levelo://app?vid=c4899c4c-8199-4647-bf2c-fc8c8282ade6"},"vehicle_type_id":"4","last_reported":1700597223,"current_range_meters":30400,"station_id":"ce4bhah2rcd13ifvqei0","pricing_plan_id":"free"},{"bike_id":"c657ac86-030e-435d-9dcb-b0f1c15fc09d","system_id":"levelo_inurba_marseille","lat":43.28461,"lon":5.35892,"is_reserved":false,"is_disabled":false,"rental_uris":{"android":"levelo://app?vid=c657ac86-030e-435d-9dcb-b0f1c15fc09d","ios":"levelo://app?vid=c657ac86-030e-435d-9dcb-b0f1c15fc09d"},"vehicle_type_id":"4","last_reported":1700597223,"current_range_meters":24400,"station_id":"ce4bhah2rcd13ifvqei0","pricing_plan_id":"free"},{"bike_id":"e726453c-f0df-48ae-913a-222f08f0c172","system_id":"levelo_inurba_marseille","lat":43.2846,"lon":5.35898,"is_reserved":false,"is_disabled":false,"rental_uris":{"android":"levelo://app?vid=e726453c-f0df-48ae-913a-222f08f0c172","ios":"levelo://app?vid=e726453c-f0df-48ae-913a-222f08f0c172"},"vehicle_type_id":"4","last_reported":1700597223,"current_range_meters":30800,"station_id":"ce4bhah2rcd13ifvqei0","pricing_plan_id":"free"},{"bike_id":"d97a8db0-b756-4841-8e3c-6174868ac14f","system_id":"levelo_inurba_marseille","lat":43.28461,"lon":5.358909,"is_reserved":false,"is_disabled":false,"rental_uris":{"android":"levelo://app?vid=d97a8db0-b756-4841-8e3c-6174868ac14f","ios":"levelo://app?vid=d97a8db0-b756-4841-8e3c-6174868ac14f"},"vehicle_type_id":"4","last_reported":1700597223,"current_range_meters":6000,"station_id":"","pricing_plan_id":"free"},{"bike_id":"278e215b-8d4d-4543-a0fb-76752307b930","system_id":"levelo_inurba_marseille","lat":43.28462,"lon":5.35879,"is_reserved":false,"is_disabled":false,"rental_uris":{"android":"levelo://app?vid=278e215b-8d4d-4543-a0fb-76752307b930","ios":"levelo://app?vid=278e215b-8d4d-4543-a0fb-76752307b930"},"vehicle_type_id":"4","last_reported":1700597223,"current_range_meters":30800,"station_id":"","pricing_plan_id":"free"},{"bike_id":"3c7792f7-7e92-4b8f-bd4a-9b98fdfc5346","system_id":"levelo_inurba_marseille","lat":43.28459,"lon":5.35895,"is_reserved":false,"is_disabled":false,"rental_uris":{"android":"levelo://app?vid=3c7792f7-7e92-4b8f-bd4a-9b98fdfc5346","ios":"levelo://app?vid=3c7792f7-7e92-4b8f-bd4a-9b98fdfc5346"},"vehicle_type_id":"4","last_reported":1700597223,"current_range_meters":12800,"station_id":"ce4bhah2rcd13ifvqei0","pricing_plan_id":"free"},{"bike_id":"453fab20-5e89-48c3-b143-9d8335682de2","system_id":"levelo_inurba_marseille","lat":43.2846,"lon":5.35886,"is_reserved":false,"is_disabled":false,"rental_uris":{"android":"levelo://app?vid=453fab20-5e89-48c3-b143-9d8335682de2","ios":"levelo://app?vid=453fab20-5e89-48c3-b143-9d8335682de2"},"vehicle_type_id":"4","last_reported":1700597223,"current_range_meters":31200,"station_id":"ce4bhah2rcd13ifvqei0","pricing_plan_id":"free"},{"bike_id":"8f32b0ce-57ff-44cb-9774-721f197214c2","system_id":"levelo_inurba_marseille","lat":43.284582,"lon":5.358792,"is_reserved":false,"is_disabled":false,"rental_uris":{"android":"levelo://app?vid=8f32b0ce-57ff-44cb-9774-721f197214c2","ios":"levelo://app?vid=8f32b0ce-57ff-44cb-9774-721f197214c2"},"vehicle_type_id":"4","last_reported":1700597223,"current_range_meters":26400,"station_id":"ce4bhah2rcd13ifvqei0","pricing_plan_id":"free"},{"bike_id":"1230b657-e005-4dad-b234-311363cb0927","system_id":"levelo_inurba_marseille","lat":43.284534,"lon":5.358662,"is_reserved":false,"is_disabled":false,"rental_uris":{"android":"levelo://app?vid=1230b657-e005-4dad-b234-311363cb0927","ios":"levelo://app?vid=1230b657-e005-4dad-b234-311363cb0927"},"vehicle_type_id":"4","last_reported":1700597223,"current_range_meters":29200,"station_id":"ce4bhah2rcd13ifvqei0","pricing_plan_id":"free"},{"bike_id":"4856b4a9-cdd5-4f58-961a-bf51d3810386","system_id":"levelo_inurba_marseille","lat":43.294314,"lon":5.397498,"is_reserved":false,"is_disabled":false,"rental_uris":{"android":"levelo://app?vid=4856b4a9-cdd5-4f58-961a-bf51d3810386","ios":"levelo://app?vid=4856b4a9-cdd5-4f58-961a-bf51d3810386"},"vehicle_type_id":"4","last_reported":1700597223,"current_range_meters":800,"station_id":"ce4bh3h2rcd13ifvqdo0","pricing_plan_id":"free"},{"bike_id":"9ad725ba-8857-4107-98f3-7efac68c7d1d","system_id":"levelo_inurba_marseille","lat":43.285848,"lon":5.350787,"is_reserved":false,"is_disabled":false,"rental_uris":{"android":"levelo://app?vid=9ad725ba-8857-4107-98f3-7efac68c7d1d","ios":"levelo://app?vid=9ad725ba-8857-4107-98f3-7efac68c7d1d"},"vehicle_type_id":"4","last_reported":1700597223,"current_range_meters":31200,"station_id":"ce4bhch2rcd13ifvqeug","pricing_plan_id":"free"},{"bike_id":"ce6948d1-e0ba-432a-8972-6a74ab291470","system_id":"levelo_inurba_marseille","lat":43.28617,"lon":5.35108,"is_reserved":false,"is_disabled":false,"rental_uris":{"android":"levelo://app?vid=ce6948d1-e0ba-432a-8972-6a74ab291470","ios":"levelo://app?vid=ce6948d1-e0ba-432a-8972-6a74ab291470"},"vehicle_type_id":"4","last_reported":1700597223,"current_range_meters":30800,"station_id":"ce4bhch2rcd13ifvqeug","pricing_plan_id":"free"},{"bike_id":"36043778-724e-41cd-9ad0-4790e36fb65d","system_id":"levelo_inurba_marseille","lat":43.285848,"lon":5.350787,"is_reserved":false,"is_disabled":false,"rental_uris":{"android":"levelo://app?vid=36043778-724e-41cd-9ad0-4790e36fb65d","ios":"levelo://app?vid=36043778-724e-41cd-9ad0-4790e36fb65d"},"vehicle_type_id":"4","last_reported":1700597223,"current_range_meters":30800,"station_id":"ce4bhch2rcd13ifvqeug","pricing_plan_id":"free"},{"bike_id":"7754355b-46aa-47c2-8444-ad6d06bda7d9","system_id":"levelo_inurba_marseille","lat":43.28617,"lon":5.35104,"is_reserved":false,"is_disabled":false,"rental_uris":{"android":"levelo://app?vid=7754355b-46aa-47c2-8444-ad6d06bda7d9","ios":"levelo://app?vid=7754355b-46aa-47c2-8444-ad6d06bda7d9"},"vehicle_type_id":"4","last_reported":1700597223,"current_range_meters":29600,"station_id":"ce4bhch2rcd13ifvqeug","pricing_plan_id":"free"},{"bike_id":"048c235f-0c9d-48d0-a580-8c9e0281cf7a","system_id":"levelo_inurba_marseille","lat":43.286179,"lon":5.351005,"is_reserved":false,"is_disabled":false,"rental_uris":{"android":"levelo://app?vid=048c235f-0c9d-48d0-a580-8c9e0281cf7a","ios":"levelo://app?vid=048c235f-0c9d-48d0-a580-8c9e0281cf7a"},"vehicle_type_id":"4","last_reported":1700597223,"current_range_meters":30800,"station_id":"ce4bhch2rcd13ifvqeug","pricing_plan_id":"free"},{"bike_id":"47d82943-55b7-4d5f-81f3-ba919299497b","system_id":"levelo_inurba_marseille","lat":43.28612,"lon":5.35103,"is_reserved":false,"is_disabled":false,"rental_uris":{"android":"levelo://app?vid=47d82943-55b7-4d5f-81f3-ba919299497b","ios":"levelo://app?vid=47d82943-55b7-4d5f-81f3-ba919299497b"},"vehicle_type_id":"4","last_reported":1700597223,"current_range_meters":31200,"station_id":"ce4bhch2rcd13ifvqeug","pricing_plan_id":"free"},{"bike_id":"93591452-78a8-4deb-aa6d-58319e661151","system_id":"levelo_inurba_marseille","lat":43.286086,"lon":5.351127,"is_reserved":false,"is_disabled":false,"rental_uris":{"android":"levelo://app?vid=93591452-78a8-4deb-aa6d-58319e661151","ios":"levelo://app?vid=93591452-78a8-4deb-aa6d-58319e661151"},"vehicle_type_id":"4","last_reported":1700597223,"current_range_meters":25600,"station_id":"ce4bhch2rcd13ifvqeug","pricing_plan_id":"free"},{"bike_id":"9190d375-98bf-487f-b305-f6a237d451a5","system_id":"levelo_inurba_marseille","lat":43.284274,"lon":5.375138,"is_reserved":false,"is_disabled":false,"rental_uris":{"android":"levelo://app?vid=9190d375-98bf-487f-b305-f6a237d451a5","ios":"levelo://app?vid=9190d375-98bf-487f-b305-f6a237d451a5"},"vehicle_type_id":"4","last_reported":1700597223,"current_range_meters":0,"station_id":"ce4bh412rcd13ifvqds0","pricing_plan_id":"free"},{"bike_id":"be2e9053-6a07-4690-b43a-c38c714fe3c5","system_id":"levelo_inurba_marseille","lat":43.31888,"lon":5.40729,"is_reserved":false,"is_disabled":false,"rental_uris":{"android":"levelo://app?vid=be2e9053-6a07-4690-b43a-c38c714fe3c5","ios":"levelo://app?vid=be2e9053-6a07-4690-b43a-c38c714fe3c5"},"vehicle_type_id":"4","last_reported":1700597223,"current_range_meters":6800,"station_id":"ce4bhq12rcd13ifvqhig","pricing_plan_id":"free"},{"bike_id":"35b19955-8c3e-4374-b999-0b151664b0e8","system_id":"levelo_inurba_marseille","lat":43.33237,"lon":5.3985,"is_reserved":false,"is_disabled":false,"rental_uris":{"android":"levelo://app?vid=35b19955-8c3e-4374-b999-0b151664b0e8","ios":"levelo://app?vid=35b19955-8c3e-4374-b999-0b151664b0e8"},"vehicle_type_id":"4","last_reported":1700597223,"current_range_meters":0,"station_id":"","pricing_plan_id":"free"},{"bike_id":"518f8349-77de-4086-a57b-fc5a8d9348e2","system_id":"levelo_inurba_marseille","lat":43.33717,"lon":5.391857,"is_reserved":false,"is_disabled":false,"rental_uris":{"android":"levelo://app?vid=518f8349-77de-4086-a57b-fc5a8d9348e2","ios":"levelo://app?vid=518f8349-77de-4086-a57b-fc5a8d9348e2"},"vehicle_type_id":"4","last_reported":1700597223,"current_range_meters":25600,"station_id":"ce4bhr92rcd13ifvqhsg","pricing_plan_id":"free"},{"bike_id":"641932c5-19e2-4901-9c84-b288f7cafb16","system_id":"levelo_inurba_marseille","lat":43.323464,"lon":5.406297,"is_reserved":false,"is_disabled":false,"rental_uris":{"android":"levelo://app?vid=641932c5-19e2-4901-9c84-b288f7cafb16","ios":"levelo://app?vid=641932c5-19e2-4901-9c84-b288f7cafb16"},"vehicle_type_id":"4","last_reported":1700597223,"current_range_meters":30000,"station_id":"ce4bhq92rcd13ifvqhjg","pricing_plan_id":"free"},{"bike_id":"d760a953-d420-4506-a976-6ee815d4426b","system_id":"levelo_inurba_marseille","lat":43.284793,"lon":5.384113,"is_reserved":false,"is_disabled":false,"rental_uris":{"android":"levelo://app?vid=d760a953-d420-4506-a976-6ee815d4426b","ios":"levelo://app?vid=d760a953-d420-4506-a976-6ee815d4426b"},"vehicle_type_id":"4","last_reported":1700597223,"current_range_meters":25600,"station_id":"ce4bh512rcd13ifvqe3g","pricing_plan_id":"free"},{"bike_id":"b4319b18-5548-4691-90e2-2eac47989fae","system_id":"levelo_inurba_marseille","lat":43.323464,"lon":5.406297,"is_reserved":false,"is_disabled":false,"rental_uris":{"android":"levelo://app?vid=b4319b18-5548-4691-90e2-2eac47989fae","ios":"levelo://app?vid=b4319b18-5548-4691-90e2-2eac47989fae"},"vehicle_type_id":"4","last_reported":1700597223,"current_range_meters":31200,"station_id":"ce4bhq92rcd13ifvqhjg","pricing_plan_id":"free"},{"bike_id":"ec69a0bd-1b26-49d5-93ca-98396ff01a14","system_id":"levelo_inurba_marseille","lat":43.284793,"lon":5.384113,"is_reserved":false,"is_disabled":false,"rental_uris":{"android":"levelo://app?vid=ec69a0bd-1b26-49d5-93ca-98396ff01a14","ios":"levelo://app?vid=ec69a0bd-1b26-49d5-93ca-98396ff01a14"},"vehicle_type_id":"4","last_reported":1700597223,"current_range_meters":29600,"station_id":"ce4bh512rcd13ifvqe3g","pricing_plan_id":"free"},{"bike_id":"75180641-c6d2-4422-b32d-ce07cbd8ea9b","system_id":"levelo_inurba_marseille","lat":43.284787,"lon":5.384116,"is_reserved":false,"is_disabled":false,"rental_uris":{"android":"levelo://app?vid=75180641-c6d2-4422-b32d-ce07cbd8ea9b","ios":"levelo://app?vid=75180641-c6d2-4422-b32d-ce07cbd8ea9b"},"vehicle_type_id":"4","last_reported":1700597223,"current_range_meters":18800,"station_id":"ce4bh512rcd13ifvqe3g","pricing_plan_id":"free"},{"bike_id":"dc580d6e-8add-4802-b6a5-4fabfca90f8b","system_id":"levelo_inurba_marseille","lat":43.297946,"lon":5.404063,"is_reserved":false,"is_disabled":false,"rental_uris":{"android":"levelo://app?vid=dc580d6e-8add-4802-b6a5-4fabfca90f8b","ios":"levelo://app?vid=dc580d6e-8add-4802-b6a5-4fabfca90f8b"},"vehicle_type_id":"4","last_reported":1700597223,"current_range_meters":5600,"station_id":"ce4bh112rcd13ifvqd90","pricing_plan_id":"free"},{"bike_id":"e57c9540-512f-4490-8f63-010ef0e8c825","system_id":"levelo_inurba_marseille","lat":43.284219,"lon":5.3497,"is_reserved":false,"is_disabled":false,"rental_uris":{"android":"levelo://app?vid=e57c9540-512f-4490-8f63-010ef0e8c825","ios":"levelo://app?vid=e57c9540-512f-4490-8f63-010ef0e8c825"},"vehicle_type_id":"4","last_reported":1700597223,"current_range_meters":28000,"station_id":"ce4bhbh2rcd13ifvqepg","pricing_plan_id":"free"},{"bike_id":"a915fd1c-9128-4c2f-bc4f-b0c446622785","system_id":"levelo_inurba_marseille","lat":43.284217,"lon":5.349697,"is_reserved":false,"is_disabled":false,"rental_uris":{"android":"levelo://app?vid=a915fd1c-9128-4c2f-bc4f-b0c446622785","ios":"levelo://app?vid=a915fd1c-9128-4c2f-bc4f-b0c446622785"},"vehicle_type_id":"4","last_reported":1700597223,"current_range_meters":25200,"station_id":"ce4bhbh2rcd13ifvqepg","pricing_plan_id":"free"},{"bike_id":"c8cfd9ab-d3bf-4c62-a1f3-f8793f300892","system_id":"levelo_inurba_marseille","lat":43.284156,"lon":5.349929,"is_reserved":false,"is_disabled":false,"rental_uris":{"android":"levelo://app?vid=c8cfd9ab-d3bf-4c62-a1f3-f8793f300892","ios":"levelo://app?vid=c8cfd9ab-d3bf-4c62-a1f3-f8793f300892"},"vehicle_type_id":"4","last_reported":1700597223,"current_range_meters":30000,"station_id":"ce4bhbh2rcd13ifvqepg","pricing_plan_id":"free"},{"bike_id":"6d068ae4-8aba-4958-a002-11c2ac3f318a","system_id":"levelo_inurba_marseille","lat":43.282754,"lon":5.350519,"is_reserved":false,"is_disabled":false,"rental_uris":{"android":"levelo://app?vid=6d068ae4-8aba-4958-a002-11c2ac3f318a","ios":"levelo://app?vid=6d068ae4-8aba-4958-a002-11c2ac3f318a"},"vehicle_type_id":"4","last_reported":1700597223,"current_range_meters":31200,"station_id":"ce4bhbp2rcd13ifvqerg","pricing_plan_id":"free"},{"bike_id":"29b2d1ae-72bd-4a6b-9046-838ae37f2595","system_id":"levelo_inurba_marseille","lat":43.282754,"lon":5.350519,"is_reserved":false,"is_disabled":false,"rental_uris":{"android":"levelo://app?vid=29b2d1ae-72bd-4a6b-9046-838ae37f2595","ios":"levelo://app?vid=29b2d1ae-72bd-4a6b-9046-838ae37f2595"},"vehicle_type_id":"4","last_reported":1700597223,"current_range_meters":31200,"station_id":"ce4bhbp2rcd13ifvqerg","pricing_plan_id":"free"},{"bike_id":"74e481aa-25b5-4f5b-b8cd-79b4a634f242","system_id":"levelo_inurba_marseille","lat":43.28268,"lon":5.350781,"is_reserved":false,"is_disabled":false,"rental_uris":{"android":"levelo://app?vid=74e481aa-25b5-4f5b-b8cd-79b4a634f242","ios":"levelo://app?vid=74e481aa-25b5-4f5b-b8cd-79b4a634f242"},"vehicle_type_id":"4","last_reported":1700597223,"current_range_meters":31200,"station_id":"ce4bhbp2rcd13ifvqerg","pricing_plan_id":"free"},{"bike_id":"49b4c011-618e-45f7-b321-5a2afe0f4e49","system_id":"levelo_inurba_marseille","lat":43.282754,"lon":5.350519,"is_reserved":false,"is_disabled":false,"rental_uris":{"android":"levelo://app?vid=49b4c011-618e-45f7-b321-5a2afe0f4e49","ios":"levelo://app?vid=49b4c011-618e-45f7-b321-5a2afe0f4e49"},"vehicle_type_id":"4","last_reported":1700597223,"current_range_meters":25200,"station_id":"ce4bhbp2rcd13ifvqerg","pricing_plan_id":"free"},{"bike_id":"0571e252-5acc-4741-aa6f-ba8321e320f8","system_id":"levelo_inurba_marseille","lat":43.282744,"lon":5.350533,"is_reserved":false,"is_disabled":false,"rental_uris":{"android":"levelo://app?vid=0571e252-5acc-4741-aa6f-ba8321e320f8","ios":"levelo://app?vid=0571e252-5acc-4741-aa6f-ba8321e320f8"},"vehicle_type_id":"4","last_reported":1700597223,"current_range_meters":31200,"station_id":"ce4bhbp2rcd13ifvqerg","pricing_plan_id":"free"},{"bike_id":"eace2be8-2781-4338-ba7d-44b9df37bcb4","system_id":"levelo_inurba_marseille","lat":43.28044,"lon":5.36947,"is_reserved":false,"is_disabled":false,"rental_uris":{"android":"levelo://app?vid=eace2be8-2781-4338-ba7d-44b9df37bcb4","ios":"levelo://app?vid=eace2be8-2781-4338-ba7d-44b9df37bcb4"},"vehicle_type_id":"4","last_reported":1700597223,"current_range_meters":31200,"station_id":"ce4bha12rcd13ifvqef0","pricing_plan_id":"free"},{"bike_id":"f67f1079-4710-467e-8c34-9d2002a36f9b","system_id":"levelo_inurba_marseille","lat":43.282744,"lon":5.350533,"is_reserved":false,"is_disabled":false,"rental_uris":{"android":"levelo://app?vid=f67f1079-4710-467e-8c34-9d2002a36f9b","ios":"levelo://app?vid=f67f1079-4710-467e-8c34-9d2002a36f9b"},"vehicle_type_id":"4","last_reported":1700597223,"current_range_meters":25200,"station_id":"ce4bhbp2rcd13ifvqerg","pricing_plan_id":"free"},{"bike_id":"aa4139f5-27aa-49e1-a8f1-fc54a1da2de8","system_id":"levelo_inurba_marseille","lat":43.280336,"lon":5.369555,"is_reserved":false,"is_disabled":false,"rental_uris":{"android":"levelo://app?vid=aa4139f5-27aa-49e1-a8f1-fc54a1da2de8","ios":"levelo://app?vid=aa4139f5-27aa-49e1-a8f1-fc54a1da2de8"},"vehicle_type_id":"4","last_reported":1700597223,"current_range_meters":15600,"station_id":"ce4bha12rcd13ifvqef0","pricing_plan_id":"free"},{"bike_id":"15c37d9f-ad9f-4b2e-a894-6fdc82fe94a9","system_id":"levelo_inurba_marseille","lat":43.290412,"lon":5.399633,"is_reserved":false,"is_disabled":false,"rental_uris":{"android":"levelo://app?vid=15c37d9f-ad9f-4b2e-a894-6fdc82fe94a9","ios":"levelo://app?vid=15c37d9f-ad9f-4b2e-a894-6fdc82fe94a9"},"vehicle_type_id":"4","last_reported":1700597223,"current_range_meters":0,"station_id":"ce4bh392rcd13ifvqdm0","pricing_plan_id":"free"},{"bike_id":"5eba4dee-ffd0-43cd-9b11-aff5fe48a5b6","system_id":"levelo_inurba_marseille","lat":43.281044,"lon":5.378308,"is_reserved":false,"is_disabled":false,"rental_uris":{"android":"levelo://app?vid=5eba4dee-ffd0-43cd-9b11-aff5fe48a5b6","ios":"levelo://app?vid=5eba4dee-ffd0-43cd-9b11-aff5fe48a5b6"},"vehicle_type_id":"4","last_reported":1700597223,"current_range_meters":30400,"station_id":"ce4bha12rcd13ifvqee0","pricing_plan_id":"free"},{"bike_id":"5d2f5558-0276-4c45-aa8c-e9772d542e57","system_id":"levelo_inurba_marseille","lat":43.279087,"lon":5.380114,"is_reserved":false,"is_disabled":false,"rental_uris":{"android":"levelo://app?vid=5d2f5558-0276-4c45-aa8c-e9772d542e57","ios":"levelo://app?vid=5d2f5558-0276-4c45-aa8c-e9772d542e57"},"vehicle_type_id":"4","last_reported":1700597223,"current_range_meters":10000,"station_id":"ce4bhf92rcd13ifvqf50","pricing_plan_id":"free"},{"bike_id":"910bc7b9-7625-489e-8b67-479a173a44fd","system_id":"levelo_inurba_marseille","lat":43.279087,"lon":5.380114,"is_reserved":false,"is_disabled":false,"rental_uris":{"android":"levelo://app?vid=910bc7b9-7625-489e-8b67-479a173a44fd","ios":"levelo://app?vid=910bc7b9-7625-489e-8b67-479a173a44fd"},"vehicle_type_id":"4","last_reported":1700597223,"current_range_meters":19600,"station_id":"ce4bhf92rcd13ifvqf50","pricing_plan_id":"free"},{"bike_id":"4e099e90-709e-4c69-b3ab-2311f879de30","system_id":"levelo_inurba_marseille","lat":43.279087,"lon":5.380114,"is_reserved":false,"is_disabled":false,"rental_uris":{"android":"levelo://app?vid=4e099e90-709e-4c69-b3ab-2311f879de30","ios":"levelo://app?vid=4e099e90-709e-4c69-b3ab-2311f879de30"},"vehicle_type_id":"4","last_reported":1700597223,"current_range_meters":800,"station_id":"ce4bhf92rcd13ifvqf50","pricing_plan_id":"free"},{"bike_id":"70853f1b-d654-4188-b0de-2d2b3eabdccc","system_id":"levelo_inurba_marseille","lat":43.279742,"lon":5.38744,"is_reserved":false,"is_disabled":false,"rental_uris":{"android":"levelo://app?vid=70853f1b-d654-4188-b0de-2d2b3eabdccc","ios":"levelo://app?vid=70853f1b-d654-4188-b0de-2d2b3eabdccc"},"vehicle_type_id":"4","last_reported":1700597223,"current_range_meters":1200,"station_id":"ce4bhg12rcd13ifvqf80","pricing_plan_id":"free"},{"bike_id":"cf7c6503-d761-4e4a-b826-f55f74848caf","system_id":"levelo_inurba_marseille","lat":43.34884,"lon":5.3751,"is_reserved":false,"is_disabled":false,"rental_uris":{"android":"levelo://app?vid=cf7c6503-d761-4e4a-b826-f55f74848caf","ios":"levelo://app?vid=cf7c6503-d761-4e4a-b826-f55f74848caf"},"vehicle_type_id":"4","last_reported":1700597223,"current_range_meters":8000,"station_id":"","pricing_plan_id":"free"},{"bike_id":"3e7eb395-d49c-48dc-8f7d-c5cca1c18e26","system_id":"levelo_inurba_marseille","lat":43.276771,"lon":5.388799,"is_reserved":false,"is_disabled":false,"rental_uris":{"android":"levelo://app?vid=3e7eb395-d49c-48dc-8f7d-c5cca1c18e26","ios":"levelo://app?vid=3e7eb395-d49c-48dc-8f7d-c5cca1c18e26"},"vehicle_type_id":"4","last_reported":1700597223,"current_range_meters":20000,"station_id":"ce4bhi12rcd13ifvqfo0","pricing_plan_id":"free"},{"bike_id":"736b1083-7c43-440b-ad19-86b49321d04b","system_id":"levelo_inurba_marseille","lat":43.279553,"lon":5.39317,"is_reserved":false,"is_disabled":false,"rental_uris":{"android":"levelo://app?vid=736b1083-7c43-440b-ad19-86b49321d04b","ios":"levelo://app?vid=736b1083-7c43-440b-ad19-86b49321d04b"},"vehicle_type_id":"4","last_reported":1700597223,"current_range_meters":0,"station_id":"","pricing_plan_id":"free"},{"bike_id":"094903b1-167e-41c9-983f-be2bb2c37b6e","system_id":"levelo_inurba_marseille","lat":43.280784,"lon":5.396622,"is_reserved":false,"is_disabled":false,"rental_uris":{"android":"levelo://app?vid=094903b1-167e-41c9-983f-be2bb2c37b6e","ios":"levelo://app?vid=094903b1-167e-41c9-983f-be2bb2c37b6e"},"vehicle_type_id":"4","last_reported":1700597223,"current_range_meters":14000,"station_id":"ce4bho12rcd13ifvqh2g","pricing_plan_id":"free"},{"bike_id":"12681f64-7f1c-4260-9944-2c0443dff2c3","system_id":"levelo_inurba_marseille","lat":43.278399,"lon":5.392139,"is_reserved":false,"is_disabled":false,"rental_uris":{"android":"levelo://app?vid=12681f64-7f1c-4260-9944-2c0443dff2c3","ios":"levelo://app?vid=12681f64-7f1c-4260-9944-2c0443dff2c3"},"vehicle_type_id":"4","last_reported":1700597223,"current_range_meters":14000,"station_id":"ce4bhjp2rcd13ifvqga0","pricing_plan_id":"free"},{"bike_id":"0d190716-f10f-49c7-81ae-883e031abba8","system_id":"levelo_inurba_marseille","lat":43.278399,"lon":5.392139,"is_reserved":false,"is_disabled":false,"rental_uris":{"android":"levelo://app?vid=0d190716-f10f-49c7-81ae-883e031abba8","ios":"levelo://app?vid=0d190716-f10f-49c7-81ae-883e031abba8"},"vehicle_type_id":"4","last_reported":1700597223,"current_range_meters":10000,"station_id":"ce4bhjp2rcd13ifvqga0","pricing_plan_id":"free"},{"bike_id":"88fdd8f0-3689-4857-af04-f7263958a8f2","system_id":"levelo_inurba_marseille","lat":43.273609,"lon":5.362708,"is_reserved":false,"is_disabled":false,"rental_uris":{"android":"levelo://app?vid=88fdd8f0-3689-4857-af04-f7263958a8f2","ios":"levelo://app?vid=88fdd8f0-3689-4857-af04-f7263958a8f2"},"vehicle_type_id":"4","last_reported":1700597223,"current_range_meters":4000,"station_id":"ce4bhbh2rcd13ifvqeo0","pricing_plan_id":"free"},{"bike_id":"e1b55124-3678-4f35-bcd5-df0abc78cbb3","system_id":"levelo_inurba_marseille","lat":43.33612,"lon":5.410321,"is_reserved":false,"is_disabled":false,"rental_uris":{"android":"levelo://app?vid=e1b55124-3678-4f35-bcd5-df0abc78cbb3","ios":"levelo://app?vid=e1b55124-3678-4f35-bcd5-df0abc78cbb3"},"vehicle_type_id":"4","last_reported":1700597223,"current_range_meters":26000,"station_id":"ce4bhqh2rcd13ifvqhmg","pricing_plan_id":"free"},{"bike_id":"a54e6ac9-45f4-4d69-80ef-f8ef72cce69e","system_id":"levelo_inurba_marseille","lat":43.276769,"lon":5.388787,"is_reserved":false,"is_disabled":false,"rental_uris":{"android":"levelo://app?vid=a54e6ac9-45f4-4d69-80ef-f8ef72cce69e","ios":"levelo://app?vid=a54e6ac9-45f4-4d69-80ef-f8ef72cce69e"},"vehicle_type_id":"4","last_reported":1700597223,"current_range_meters":24400,"station_id":"ce4bhi12rcd13ifvqfo0","pricing_plan_id":"free"},{"bike_id":"57c3f3f4-0cd5-4104-9546-deca7ce974c9","system_id":"levelo_inurba_marseille","lat":43.28005,"lon":5.40011,"is_reserved":false,"is_disabled":false,"rental_uris":{"android":"levelo://app?vid=57c3f3f4-0cd5-4104-9546-deca7ce974c9","ios":"levelo://app?vid=57c3f3f4-0cd5-4104-9546-deca7ce974c9"},"vehicle_type_id":"4","last_reported":1700597223,"current_range_meters":10800,"station_id":"ce4bho92rcd13ifvqh4g","pricing_plan_id":"free"},{"bike_id":"3bfa0976-7f7d-4d39-9c8b-5307944446d6","system_id":"levelo_inurba_marseille","lat":43.28002,"lon":5.40006,"is_reserved":false,"is_disabled":false,"rental_uris":{"android":"levelo://app?vid=3bfa0976-7f7d-4d39-9c8b-5307944446d6","ios":"levelo://app?vid=3bfa0976-7f7d-4d39-9c8b-5307944446d6"},"vehicle_type_id":"4","last_reported":1700597223,"current_range_meters":25600,"station_id":"ce4bho92rcd13ifvqh4g","pricing_plan_id":"free"},{"bike_id":"85bf9ec3-1169-48ae-88be-8caa8f1c3fa7","system_id":"levelo_inurba_marseille","lat":43.27998,"lon":5.40003,"is_reserved":false,"is_disabled":false,"rental_uris":{"android":"levelo://app?vid=85bf9ec3-1169-48ae-88be-8caa8f1c3fa7","ios":"levelo://app?vid=85bf9ec3-1169-48ae-88be-8caa8f1c3fa7"},"vehicle_type_id":"4","last_reported":1700597223,"current_range_meters":8400,"station_id":"ce4bho92rcd13ifvqh4g","pricing_plan_id":"free"},{"bike_id":"132963d4-79cc-40f4-81e8-9df7bcbc3078","system_id":"levelo_inurba_marseille","lat":43.279987,"lon":5.400063,"is_reserved":false,"is_disabled":false,"rental_uris":{"android":"levelo://app?vid=132963d4-79cc-40f4-81e8-9df7bcbc3078","ios":"levelo://app?vid=132963d4-79cc-40f4-81e8-9df7bcbc3078"},"vehicle_type_id":"4","last_reported":1700597223,"current_range_meters":0,"station_id":"ce4bho92rcd13ifvqh4g","pricing_plan_id":"free"},{"bike_id":"9f0c418d-62e7-45d4-87d2-6c8423eebd87","system_id":"levelo_inurba_marseille","lat":43.280013,"lon":5.400187,"is_reserved":false,"is_disabled":false,"rental_uris":{"android":"levelo://app?vid=9f0c418d-62e7-45d4-87d2-6c8423eebd87","ios":"levelo://app?vid=9f0c418d-62e7-45d4-87d2-6c8423eebd87"},"vehicle_type_id":"4","last_reported":1700597223,"current_range_meters":6800,"station_id":"ce4bho92rcd13ifvqh4g","pricing_plan_id":"free"},{"bike_id":"dedd9891-c9b4-49e9-ace9-7c9c3068a2fe","system_id":"levelo_inurba_marseille","lat":43.279952,"lon":5.400085,"is_reserved":false,"is_disabled":false,"rental_uris":{"android":"levelo://app?vid=dedd9891-c9b4-49e9-ace9-7c9c3068a2fe","ios":"levelo://app?vid=dedd9891-c9b4-49e9-ace9-7c9c3068a2fe"},"vehicle_type_id":"4","last_reported":1700597223,"current_range_meters":6400,"station_id":"ce4bho92rcd13ifvqh4g","pricing_plan_id":"free"},{"bike_id":"0b7925e1-ca23-4c79-bc2f-aa8ffbf6c4c4","system_id":"levelo_inurba_marseille","lat":43.279952,"lon":5.400085,"is_reserved":false,"is_disabled":false,"rental_uris":{"android":"levelo://app?vid=0b7925e1-ca23-4c79-bc2f-aa8ffbf6c4c4","ios":"levelo://app?vid=0b7925e1-ca23-4c79-bc2f-aa8ffbf6c4c4"},"vehicle_type_id":"4","last_reported":1700597223,"current_range_meters":4800,"station_id":"ce4bho92rcd13ifvqh4g","pricing_plan_id":"free"},{"bike_id":"d78c0502-53bb-4c6a-94b2-c73cd6f0904e","system_id":"levelo_inurba_marseille","lat":43.279952,"lon":5.400085,"is_reserved":false,"is_disabled":false,"rental_uris":{"android":"levelo://app?vid=d78c0502-53bb-4c6a-94b2-c73cd6f0904e","ios":"levelo://app?vid=d78c0502-53bb-4c6a-94b2-c73cd6f0904e"},"vehicle_type_id":"4","last_reported":1700597223,"current_range_meters":3600,"station_id":"ce4bho92rcd13ifvqh4g","pricing_plan_id":"free"},{"bike_id":"b41d3944-bf97-4e30-8da0-36b4be7a9429","system_id":"levelo_inurba_marseille","lat":43.279952,"lon":5.400085,"is_reserved":false,"is_disabled":false,"rental_uris":{"android":"levelo://app?vid=b41d3944-bf97-4e30-8da0-36b4be7a9429","ios":"levelo://app?vid=b41d3944-bf97-4e30-8da0-36b4be7a9429"},"vehicle_type_id":"4","last_reported":1700597223,"current_range_meters":15600,"station_id":"ce4bho92rcd13ifvqh4g","pricing_plan_id":"free"},{"bike_id":"b5205dcc-29c6-40b2-8ad9-7dccfb0e095a","system_id":"levelo_inurba_marseille","lat":43.279952,"lon":5.400085,"is_reserved":false,"is_disabled":false,"rental_uris":{"android":"levelo://app?vid=b5205dcc-29c6-40b2-8ad9-7dccfb0e095a","ios":"levelo://app?vid=b5205dcc-29c6-40b2-8ad9-7dccfb0e095a"},"vehicle_type_id":"4","last_reported":1700597223,"current_range_meters":0,"station_id":"ce4bho92rcd13ifvqh4g","pricing_plan_id":"free"},{"bike_id":"ec799ea0-d19d-4191-bb52-6f7c94f1beda","system_id":"levelo_inurba_marseille","lat":43.310785,"lon":5.424305,"is_reserved":false,"is_disabled":false,"rental_uris":{"android":"levelo://app?vid=ec799ea0-d19d-4191-bb52-6f7c94f1beda","ios":"levelo://app?vid=ec799ea0-d19d-4191-bb52-6f7c94f1beda"},"vehicle_type_id":"4","last_reported":1700597223,"current_range_meters":6000,"station_id":"ce4bhp92rcd13ifvqhag","pricing_plan_id":"free"},{"bike_id":"685b64b8-b7bc-4da3-9f11-7c3d6189d529","system_id":"levelo_inurba_marseille","lat":43.310807,"lon":5.424283,"is_reserved":false,"is_disabled":false,"rental_uris":{"android":"levelo://app?vid=685b64b8-b7bc-4da3-9f11-7c3d6189d529","ios":"levelo://app?vid=685b64b8-b7bc-4da3-9f11-7c3d6189d529"},"vehicle_type_id":"4","last_reported":1700597223,"current_range_meters":0,"station_id":"ce4bhp92rcd13ifvqhag","pricing_plan_id":"free"},{"bike_id":"114187af-32af-4dba-9a5b-7cf8db15d20c","system_id":"levelo_inurba_marseille","lat":43.310785,"lon":5.424305,"is_reserved":false,"is_disabled":false,"rental_uris":{"android":"levelo://app?vid=114187af-32af-4dba-9a5b-7cf8db15d20c","ios":"levelo://app?vid=114187af-32af-4dba-9a5b-7cf8db15d20c"},"vehicle_type_id":"4","last_reported":1700597223,"current_range_meters":28000,"station_id":"ce4bhp92rcd13ifvqhag","pricing_plan_id":"free"},{"bike_id":"ac9bf6a1-c96f-4133-87a6-52d4b07e03ea","system_id":"levelo_inurba_marseille","lat":43.317121,"lon":5.423936,"is_reserved":false,"is_disabled":false,"rental_uris":{"android":"levelo://app?vid=ac9bf6a1-c96f-4133-87a6-52d4b07e03ea","ios":"levelo://app?vid=ac9bf6a1-c96f-4133-87a6-52d4b07e03ea"},"vehicle_type_id":"4","last_reported":1700597223,"current_range_meters":22400,"station_id":"ce4bhp92rcd13ifvqhbg","pricing_plan_id":"free"},{"bike_id":"f592bd96-cc29-4f0f-b6af-90518383de8e","system_id":"levelo_inurba_marseille","lat":43.340804,"lon":5.410219,"is_reserved":false,"is_disabled":false,"rental_uris":{"android":"levelo://app?vid=f592bd96-cc29-4f0f-b6af-90518383de8e","ios":"levelo://app?vid=f592bd96-cc29-4f0f-b6af-90518383de8e"},"vehicle_type_id":"4","last_reported":1700597223,"current_range_meters":10800,"station_id":"ce4bhqh2rcd13ifvqhlg","pricing_plan_id":"free"},{"bike_id":"2e782566-b68d-457e-a61b-0e85a264cbc4","system_id":"levelo_inurba_marseille","lat":43.304096,"lon":5.425385,"is_reserved":false,"is_disabled":false,"rental_uris":{"android":"levelo://app?vid=2e782566-b68d-457e-a61b-0e85a264cbc4","ios":"levelo://app?vid=2e782566-b68d-457e-a61b-0e85a264cbc4"},"vehicle_type_id":"4","last_reported":1700597223,"current_range_meters":0,"station_id":"ce4bhoh2rcd13ifvqh6g","pricing_plan_id":"free"},{"bike_id":"d63f0213-db4d-4ade-9fb5-b0161bcbc51a","system_id":"levelo_inurba_marseille","lat":43.272376,"lon":5.392469,"is_reserved":false,"is_disabled":false,"rental_uris":{"android":"levelo://app?vid=d63f0213-db4d-4ade-9fb5-b0161bcbc51a","ios":"levelo://app?vid=d63f0213-db4d-4ade-9fb5-b0161bcbc51a"},"vehicle_type_id":"4","last_reported":1700597223,"current_range_meters":0,"station_id":"","pricing_plan_id":"free"},{"bike_id":"d0bb53f7-f1b8-4609-a668-27efdac67f66","system_id":"levelo_inurba_marseille","lat":43.27198,"lon":5.3925,"is_reserved":false,"is_disabled":false,"rental_uris":{"android":"levelo://app?vid=d0bb53f7-f1b8-4609-a668-27efdac67f66","ios":"levelo://app?vid=d0bb53f7-f1b8-4609-a668-27efdac67f66"},"vehicle_type_id":"4","last_reported":1700597223,"current_range_meters":0,"station_id":"","pricing_plan_id":"free"},{"bike_id":"cbc2fb9f-e1d7-438a-87af-611b36f7eeb3","system_id":"levelo_inurba_marseille","lat":43.271891,"lon":5.392412,"is_reserved":false,"is_disabled":false,"rental_uris":{"android":"levelo://app?vid=cbc2fb9f-e1d7-438a-87af-611b36f7eeb3","ios":"levelo://app?vid=cbc2fb9f-e1d7-438a-87af-611b36f7eeb3"},"vehicle_type_id":"4","last_reported":1700597223,"current_range_meters":0,"station_id":"","pricing_plan_id":"free"},{"bike_id":"92017e91-4f9b-4304-a3bb-3eb9a46e72b7","system_id":"levelo_inurba_marseille","lat":43.278128,"lon":5.407195,"is_reserved":false,"is_disabled":false,"rental_uris":{"android":"levelo://app?vid=92017e91-4f9b-4304-a3bb-3eb9a46e72b7","ios":"levelo://app?vid=92017e91-4f9b-4304-a3bb-3eb9a46e72b7"},"vehicle_type_id":"4","last_reported":1700597223,"current_range_meters":4000,"station_id":"ce4bhnh2rcd13ifvqgtg","pricing_plan_id":"free"},{"bike_id":"38c8ef2a-9778-459e-bc44-4209d3ca8425","system_id":"levelo_inurba_marseille","lat":43.278128,"lon":5.407195,"is_reserved":false,"is_disabled":false,"rental_uris":{"android":"levelo://app?vid=38c8ef2a-9778-459e-bc44-4209d3ca8425","ios":"levelo://app?vid=38c8ef2a-9778-459e-bc44-4209d3ca8425"},"vehicle_type_id":"4","last_reported":1700597223,"current_range_meters":4000,"station_id":"ce4bhnh2rcd13ifvqgtg","pricing_plan_id":"free"},{"bike_id":"ca100ee4-e6fb-43ab-8203-a625022635c9","system_id":"levelo_inurba_marseille","lat":43.278128,"lon":5.407195,"is_reserved":false,"is_disabled":false,"rental_uris":{"android":"levelo://app?vid=ca100ee4-e6fb-43ab-8203-a625022635c9","ios":"levelo://app?vid=ca100ee4-e6fb-43ab-8203-a625022635c9"},"vehicle_type_id":"4","last_reported":1700597223,"current_range_meters":12000,"station_id":"ce4bhnh2rcd13ifvqgtg","pricing_plan_id":"free"},{"bike_id":"32d94b9f-116c-4ef2-8fde-7564ce1f654f","system_id":"levelo_inurba_marseille","lat":43.278128,"lon":5.407195,"is_reserved":false,"is_disabled":false,"rental_uris":{"android":"levelo://app?vid=32d94b9f-116c-4ef2-8fde-7564ce1f654f","ios":"levelo://app?vid=32d94b9f-116c-4ef2-8fde-7564ce1f654f"},"vehicle_type_id":"4","last_reported":1700597223,"current_range_meters":14800,"station_id":"ce4bhnh2rcd13ifvqgtg","pricing_plan_id":"free"},{"bike_id":"ec166817-0bff-49c5-bade-210bd2da7e7a","system_id":"levelo_inurba_marseille","lat":43.27821,"lon":5.40723,"is_reserved":false,"is_disabled":false,"rental_uris":{"android":"levelo://app?vid=ec166817-0bff-49c5-bade-210bd2da7e7a","ios":"levelo://app?vid=ec166817-0bff-49c5-bade-210bd2da7e7a"},"vehicle_type_id":"4","last_reported":1700597223,"current_range_meters":12800,"station_id":"ce4bhnh2rcd13ifvqgtg","pricing_plan_id":"free"},{"bike_id":"c13e2750-848c-4c20-84c3-fa5884a2c374","system_id":"levelo_inurba_marseille","lat":43.27957,"lon":5.41046,"is_reserved":false,"is_disabled":false,"rental_uris":{"android":"levelo://app?vid=c13e2750-848c-4c20-84c3-fa5884a2c374","ios":"levelo://app?vid=c13e2750-848c-4c20-84c3-fa5884a2c374"},"vehicle_type_id":"4","last_reported":1700597223,"current_range_meters":1200,"station_id":"ce4bhnp2rcd13ifvqh0g","pricing_plan_id":"free"},{"bike_id":"d317b05d-5268-44f1-9b5d-eeed69bb1e30","system_id":"levelo_inurba_marseille","lat":43.27946,"lon":5.41044,"is_reserved":false,"is_disabled":false,"rental_uris":{"android":"levelo://app?vid=d317b05d-5268-44f1-9b5d-eeed69bb1e30","ios":"levelo://app?vid=d317b05d-5268-44f1-9b5d-eeed69bb1e30"},"vehicle_type_id":"4","last_reported":1700597223,"current_range_meters":3600,"station_id":"ce4bhnp2rcd13ifvqh0g","pricing_plan_id":"free"},{"bike_id":"1e3fcf25-2efe-41de-baed-9247ecdd1f21","system_id":"levelo_inurba_marseille","lat":43.269319,"lon":5.389397,"is_reserved":false,"is_disabled":false,"rental_uris":{"android":"levelo://app?vid=1e3fcf25-2efe-41de-baed-9247ecdd1f21","ios":"levelo://app?vid=1e3fcf25-2efe-41de-baed-9247ecdd1f21"},"vehicle_type_id":"4","last_reported":1700597223,"current_range_meters":27200,"station_id":"ce4bhhh2rcd13ifvqfl0","pricing_plan_id":"free"},{"bike_id":"be19b6bc-3f21-490e-92b7-2ed7d476706b","system_id":"levelo_inurba_marseille","lat":43.26565,"lon":5.37287,"is_reserved":false,"is_disabled":false,"rental_uris":{"android":"levelo://app?vid=be19b6bc-3f21-490e-92b7-2ed7d476706b","ios":"levelo://app?vid=be19b6bc-3f21-490e-92b7-2ed7d476706b"},"vehicle_type_id":"4","last_reported":1700597223,"current_range_meters":22800,"station_id":"ce4bhg12rcd13ifvqf70","pricing_plan_id":"free"},{"bike_id":"a6f1d0fe-57ac-4cb4-b1f3-6d4a6a8ed399","system_id":"levelo_inurba_marseille","lat":43.26556,"lon":5.37289,"is_reserved":false,"is_disabled":false,"rental_uris":{"android":"levelo://app?vid=a6f1d0fe-57ac-4cb4-b1f3-6d4a6a8ed399","ios":"levelo://app?vid=a6f1d0fe-57ac-4cb4-b1f3-6d4a6a8ed399"},"vehicle_type_id":"4","last_reported":1700597223,"current_range_meters":24400,"station_id":"ce4bhg12rcd13ifvqf70","pricing_plan_id":"free"},{"bike_id":"28e8ce00-6b21-4e06-9930-c7c4408cc650","system_id":"levelo_inurba_marseille","lat":43.326174,"lon":5.430584,"is_reserved":false,"is_disabled":false,"rental_uris":{"android":"levelo://app?vid=28e8ce00-6b21-4e06-9930-c7c4408cc650","ios":"levelo://app?vid=28e8ce00-6b21-4e06-9930-c7c4408cc650"},"vehicle_type_id":"4","last_reported":1700597223,"current_range_meters":9600,"station_id":"","pricing_plan_id":"free"},{"bike_id":"1f6b953e-5841-4f5b-9a7b-9e601ebef2cc","system_id":"levelo_inurba_marseille","lat":43.30802,"lon":5.43519,"is_reserved":false,"is_disabled":false,"rental_uris":{"android":"levelo://app?vid=1f6b953e-5841-4f5b-9a7b-9e601ebef2cc","ios":"levelo://app?vid=1f6b953e-5841-4f5b-9a7b-9e601ebef2cc"},"vehicle_type_id":"4","last_reported":1700597223,"current_range_meters":24000,"station_id":"ce4bhph2rcd13ifvqheg","pricing_plan_id":"free"},{"bike_id":"844cea97-1ba2-4d8c-ae81-d2f35ef6a3d9","system_id":"levelo_inurba_marseille","lat":43.265571,"lon":5.390032,"is_reserved":false,"is_disabled":false,"rental_uris":{"android":"levelo://app?vid=844cea97-1ba2-4d8c-ae81-d2f35ef6a3d9","ios":"levelo://app?vid=844cea97-1ba2-4d8c-ae81-d2f35ef6a3d9"},"vehicle_type_id":"4","last_reported":1700597223,"current_range_meters":7200,"station_id":"ce4bhe12rcd13ifvqf30","pricing_plan_id":"free"},{"bike_id":"956326c6-e30a-4174-9ebf-c5d16986009b","system_id":"levelo_inurba_marseille","lat":43.26948,"lon":5.40241,"is_reserved":false,"is_disabled":false,"rental_uris":{"android":"levelo://app?vid=956326c6-e30a-4174-9ebf-c5d16986009b","ios":"levelo://app?vid=956326c6-e30a-4174-9ebf-c5d16986009b"},"vehicle_type_id":"4","last_reported":1700597223,"current_range_meters":2000,"station_id":"cjm6bp8fraef2m0cb0m0","pricing_plan_id":"free"},{"bike_id":"0308a83d-2772-4a0a-8d51-b0f224382097","system_id":"levelo_inurba_marseille","lat":43.261782,"lon":5.374515,"is_reserved":false,"is_disabled":false,"rental_uris":{"android":"levelo://app?vid=0308a83d-2772-4a0a-8d51-b0f224382097","ios":"levelo://app?vid=0308a83d-2772-4a0a-8d51-b0f224382097"},"vehicle_type_id":"4","last_reported":1700597223,"current_range_meters":20000,"station_id":"ce4bhgp2rcd13ifvqfc0","pricing_plan_id":"free"},{"bike_id":"728a19e6-72e6-4282-a441-7449a88937fb","system_id":"levelo_inurba_marseille","lat":43.261782,"lon":5.374515,"is_reserved":false,"is_disabled":false,"rental_uris":{"android":"levelo://app?vid=728a19e6-72e6-4282-a441-7449a88937fb","ios":"levelo://app?vid=728a19e6-72e6-4282-a441-7449a88937fb"},"vehicle_type_id":"4","last_reported":1700597223,"current_range_meters":24400,"station_id":"ce4bhgp2rcd13ifvqfc0","pricing_plan_id":"free"},{"bike_id":"2cddf8b2-a10b-4074-9577-abfff0401706","system_id":"levelo_inurba_marseille","lat":43.317104,"lon":5.436818,"is_reserved":false,"is_disabled":false,"rental_uris":{"android":"levelo://app?vid=2cddf8b2-a10b-4074-9577-abfff0401706","ios":"levelo://app?vid=2cddf8b2-a10b-4074-9577-abfff0401706"},"vehicle_type_id":"4","last_reported":1700597223,"current_range_meters":26400,"station_id":"ce4bhp92rcd13ifvqhcg","pricing_plan_id":"free"},{"bike_id":"d5d21d9f-534b-4ecf-b092-ea0f0a9db776","system_id":"levelo_inurba_marseille","lat":43.317104,"lon":5.436818,"is_reserved":false,"is_disabled":false,"rental_uris":{"android":"levelo://app?vid=d5d21d9f-534b-4ecf-b092-ea0f0a9db776","ios":"levelo://app?vid=d5d21d9f-534b-4ecf-b092-ea0f0a9db776"},"vehicle_type_id":"4","last_reported":1700597223,"current_range_meters":24000,"station_id":"ce4bhp92rcd13ifvqhcg","pricing_plan_id":"free"},{"bike_id":"1b901329-a95c-4dd3-a509-146900733f8b","system_id":"levelo_inurba_marseille","lat":43.26202,"lon":5.379299,"is_reserved":false,"is_disabled":false,"rental_uris":{"android":"levelo://app?vid=1b901329-a95c-4dd3-a509-146900733f8b","ios":"levelo://app?vid=1b901329-a95c-4dd3-a509-146900733f8b"},"vehicle_type_id":"4","last_reported":1700597223,"current_range_meters":5200,"station_id":"ce4bhjp2rcd13ifvqg90","pricing_plan_id":"free"},{"bike_id":"cb16d7ee-4d8d-44c4-bc7a-142b1234ab63","system_id":"levelo_inurba_marseille","lat":43.31725,"lon":5.43786,"is_reserved":false,"is_disabled":false,"rental_uris":{"android":"levelo://app?vid=cb16d7ee-4d8d-44c4-bc7a-142b1234ab63","ios":"levelo://app?vid=cb16d7ee-4d8d-44c4-bc7a-142b1234ab63"},"vehicle_type_id":"4","last_reported":1700597223,"current_range_meters":6000,"station_id":"","pricing_plan_id":"free"},{"bike_id":"04bb3993-7df0-4611-b671-63861d1ec3cc","system_id":"levelo_inurba_marseille","lat":43.26419,"lon":5.39216,"is_reserved":false,"is_disabled":false,"rental_uris":{"android":"levelo://app?vid=04bb3993-7df0-4611-b671-63861d1ec3cc","ios":"levelo://app?vid=04bb3993-7df0-4611-b671-63861d1ec3cc"},"vehicle_type_id":"4","last_reported":1700597223,"current_range_meters":26800,"station_id":"","pricing_plan_id":"free"},{"bike_id":"49a31422-5d81-4e67-953b-55705c98f239","system_id":"levelo_inurba_marseille","lat":43.279687,"lon":5.422373,"is_reserved":false,"is_disabled":false,"rental_uris":{"android":"levelo://app?vid=49a31422-5d81-4e67-953b-55705c98f239","ios":"levelo://app?vid=49a31422-5d81-4e67-953b-55705c98f239"},"vehicle_type_id":"4","last_reported":1700597223,"current_range_meters":28000,"station_id":"","pricing_plan_id":"free"},