{"last_updated":1777329568,"ttl":60,"version":"2.2","data":{"bikes":[{"bike_id":"bcaa0bf2-26bd-43d4-abe5-1d8c9ff08b9d","system_id":"levelo_inurba_marseille","lat":43.30245,"lon":5.40051,"is_reserved":false,"is_disabled":false,"rental_uris":{"android":"levelo://app?vid=bcaa0bf2-26bd-43d4-abe5-1d8c9ff08b9d","ios":"levelo://app?vid=bcaa0bf2-26bd-43d4-abe5-1d8c9ff08b9d"},"vehicle_type_id":"4","last_reported":1777329568,"current_range_meters":2800,"station_id":"ce4bgvh2rcd13ifvqcs0","pricing_plan_id":"cebpf4jnsgd1na2vs0mg"},{"bike_id":"23f6ffd1-d7ef-4064-af4f-7d343232baf4","system_id":"levelo_inurba_marseille","lat":43.28415,"lon":5.37493,"is_reserved":false,"is_disabled":false,"rental_uris":{"android":"levelo://app?vid=23f6ffd1-d7ef-4064-af4f-7d343232baf4","ios":"levelo://app?vid=23f6ffd1-d7ef-4064-af4f-7d343232baf4"},"vehicle_type_id":"4","last_reported":1777329568,"current_range_meters":2800,"station_id":"ce4bh412rcd13ifvqds0","pricing_plan_id":"cebpf4jnsgd1na2vs0mg"},{"bike_id":"ba232b12-0530-4684-bdcc-232e54b7d12b","system_id":"levelo_inurba_marseille","lat":43.25001,"lon":5.38923,"is_reserved":false,"is_disabled":false,"rental_uris":{"android":"levelo://app?vid=ba232b12-0530-4684-bdcc-232e54b7d12b","ios":"levelo://app?vid=ba232b12-0530-4684-bdcc-232e54b7d12b"},"vehicle_type_id":"4","last_reported":1777329568,"current_range_meters":2800,"station_id":"ce4bhgp2rcd13ifvqfd0","pricing_plan_id":"cebpf4jnsgd1na2vs0mg"},{"bike_id":"a632310f-b301-47f4-aa72-15143af75781","system_id":"levelo_inurba_marseille","lat":43.28153,"lon":5.42644,"is_reserved":false,"is_disabled":false,"rental_uris":{"android":"levelo://app?vid=a632310f-b301-47f4-aa72-15143af75781","ios":"levelo://app?vid=a632310f-b301-47f4-aa72-15143af75781"},"vehicle_type_id":"4","last_reported":1777329568,"current_range_meters":2800,"station_id":"ce4bhnh2rcd13ifvqgug","pricing_plan_id":"cebpf4jnsgd1na2vs0mg"},{"bike_id":"50fcb081-4b05-4355-adf3-07f022c0399c","system_id":"levelo_inurba_marseille","lat":43.30993,"lon":5.37913,"is_reserved":false,"is_disabled":false,"rental_uris":{"android":"levelo://app?vid=50fcb081-4b05-4355-adf3-07f022c0399c","ios":"levelo://app?vid=50fcb081-4b05-4355-adf3-07f022c0399c"},"vehicle_type_id":"4","last_reported":1777329568,"current_range_meters":2800,"station_id":"","pricing_plan_id":"cebpf4jnsgd1na2vs0mg"},{"bike_id":"5676b1df-3102-49f0-94ea-6bd037dc90c9","system_id":"levelo_inurba_marseille","lat":43.31132,"lon":5.38054,"is_reserved":false,"is_disabled":false,"rental_uris":{"android":"levelo://app?vid=5676b1df-3102-49f0-94ea-6bd037dc90c9","ios":"levelo://app?vid=5676b1df-3102-49f0-94ea-6bd037dc90c9"},"vehicle_type_id":"4","last_reported":1777329568,"current_range_meters":3200,"station_id":"","pricing_plan_id":"cebpf4jnsgd1na2vs0mg"},{"bike_id":"2c5074ca-c137-4cbf-bb08-088c41bfffa2","system_id":"levelo_inurba_marseille","lat":43.28859,"lon":5.39323,"is_reserved":false,"is_disabled":false,"rental_uris":{"android":"levelo://app?vid=2c5074ca-c137-4cbf-bb08-088c41bfffa2","ios":"levelo://app?vid=2c5074ca-c137-4cbf-bb08-088c41bfffa2"},"vehicle_type_id":"4","last_reported":1777329568,"current_range_meters":3200,"station_id":"ce4bh2p2rcd13ifvqdi0","pricing_plan_id":"cebpf4jnsgd1na2vs0mg"},{"bike_id":"1f13452b-ac27-48ca-bbd2-1255b0865067","system_id":"levelo_inurba_marseille","lat":43.27839,"lon":5.37936,"is_reserved":false,"is_disabled":false,"rental_uris":{"android":"levelo://app?vid=1f13452b-ac27-48ca-bbd2-1255b0865067","ios":"levelo://app?vid=1f13452b-ac27-48ca-bbd2-1255b0865067"},"vehicle_type_id":"4","last_reported":1777329568,"current_range_meters":3200,"station_id":"","pricing_plan_id":"cebpf4jnsgd1na2vs0mg"},{"bike_id":"efab80e6-a52f-4ebb-a76f-0e659da61b64","system_id":"levelo_inurba_marseille","lat":43.24673,"lon":5.38162,"is_reserved":false,"is_disabled":false,"rental_uris":{"android":"levelo://app?vid=efab80e6-a52f-4ebb-a76f-0e659da61b64","ios":"levelo://app?vid=efab80e6-a52f-4ebb-a76f-0e659da61b64"},"vehicle_type_id":"4","last_reported":1777329568,"current_range_meters":3200,"station_id":"ce4bhih2rcd13ifvqfr0","pricing_plan_id":"cebpf4jnsgd1na2vs0mg"},{"bike_id":"b93958f5-4f1a-49e3-8c4b-90b6af009865","system_id":"levelo_inurba_marseille","lat":43.27374,"lon":5.36272,"is_reserved":false,"is_disabled":false,"rental_uris":{"android":"levelo://app?vid=b93958f5-4f1a-49e3-8c4b-90b6af009865","ios":"levelo://app?vid=b93958f5-4f1a-49e3-8c4b-90b6af009865"},"vehicle_type_id":"4","last_reported":1777329568,"current_range_meters":3200,"station_id":"ce4bhbh2rcd13ifvqeo0","pricing_plan_id":"cebpf4jnsgd1na2vs0mg"},{"bike_id":"205e913a-57aa-4cb3-a5b3-6e46e5a47176","system_id":"levelo_inurba_marseille","lat":43.29709,"lon":5.36979,"is_reserved":false,"is_disabled":false,"rental_uris":{"android":"levelo://app?vid=205e913a-57aa-4cb3-a5b3-6e46e5a47176","ios":"levelo://app?vid=205e913a-57aa-4cb3-a5b3-6e46e5a47176"},"vehicle_type_id":"4","last_reported":1777329568,"current_range_meters":3200,"station_id":"","pricing_plan_id":"cebpf4jnsgd1na2vs0mg"},{"bike_id":"17a645ef-86ba-4d79-9b5d-35ac2166080f","system_id":"levelo_inurba_marseille","lat":43.29882,"lon":5.42128,"is_reserved":false,"is_disabled":false,"rental_uris":{"android":"levelo://app?vid=17a645ef-86ba-4d79-9b5d-35ac2166080f","ios":"levelo://app?vid=17a645ef-86ba-4d79-9b5d-35ac2166080f"},"vehicle_type_id":"4","last_reported":1777329568,"current_range_meters":3200,"station_id":"st_d6tc004otcvc738tfe70","pricing_plan_id":"cebpf4jnsgd1na2vs0mg"},{"bike_id":"1e467ca0-2768-4108-a598-baca0cc991f8","system_id":"levelo_inurba_marseille","lat":43.27487,"lon":5.41579,"is_reserved":false,"is_disabled":true,"rental_uris":{"android":"levelo://app?vid=1e467ca0-2768-4108-a598-baca0cc991f8","ios":"levelo://app?vid=1e467ca0-2768-4108-a598-baca0cc991f8"},"vehicle_type_id":"4","last_reported":1777329568,"current_range_meters":3200,"station_id":"st_d6im8g6chgec73a5pndg","pricing_plan_id":"cebpf4jnsgd1na2vs0mg"},{"bike_id":"3e34be22-8cba-4fde-b852-5eb604dfd620","system_id":"levelo_inurba_marseille","lat":43.31685,"lon":5.37278,"is_reserved":false,"is_disabled":false,"rental_uris":{"android":"levelo://app?vid=3e34be22-8cba-4fde-b852-5eb604dfd620","ios":"levelo://app?vid=3e34be22-8cba-4fde-b852-5eb604dfd620"},"vehicle_type_id":"4","last_reported":1777329568,"current_range_meters":3600,"station_id":"","pricing_plan_id":"cebpf4jnsgd1na2vs0mg"},{"bike_id":"30d902e6-ac27-4115-98fd-2af5e6512802","system_id":"levelo_inurba_marseille","lat":43.29727,"lon":5.37688,"is_reserved":false,"is_disabled":true,"rental_uris":{"android":"levelo://app?vid=30d902e6-ac27-4115-98fd-2af5e6512802","ios":"levelo://app?vid=30d902e6-ac27-4115-98fd-2af5e6512802"},"vehicle_type_id":"4","last_reported":1777329568,"current_range_meters":3600,"station_id":"ce4bgkh2rcd13ifvqbl0","pricing_plan_id":"cebpf4jnsgd1na2vs0mg"},{"bike_id":"ff0392ad-6699-47a9-a733-e1bb75237839","system_id":"levelo_inurba_marseille","lat":43.29878,"lon":5.38907,"is_reserved":false,"is_disabled":false,"rental_uris":{"android":"levelo://app?vid=ff0392ad-6699-47a9-a733-e1bb75237839","ios":"levelo://app?vid=ff0392ad-6699-47a9-a733-e1bb75237839"},"vehicle_type_id":"4","last_reported":1777329568,"current_range_meters":3600,"station_id":"ce4bh392rcd13ifvqdl0","pricing_plan_id":"cebpf4jnsgd1na2vs0mg"},{"bike_id":"fd583349-9e7d-4e5b-8155-1da1a7a44b99","system_id":"levelo_inurba_marseille","lat":43.27947,"lon":5.41042,"is_reserved":false,"is_disabled":false,"rental_uris":{"android":"levelo://app?vid=fd583349-9e7d-4e5b-8155-1da1a7a44b99","ios":"levelo://app?vid=fd583349-9e7d-4e5b-8155-1da1a7a44b99"},"vehicle_type_id":"4","last_reported":1777329568,"current_range_meters":3600,"station_id":"ce4bhnp2rcd13ifvqh0g","pricing_plan_id":"cebpf4jnsgd1na2vs0mg"},{"bike_id":"35a6efba-6e56-4656-8dc6-121dcaca4930","system_id":"levelo_inurba_marseille","lat":43.25604,"lon":5.38619,"is_reserved":false,"is_disabled":false,"rental_uris":{"android":"levelo://app?vid=35a6efba-6e56-4656-8dc6-121dcaca4930","ios":"levelo://app?vid=35a6efba-6e56-4656-8dc6-121dcaca4930"},"vehicle_type_id":"4","last_reported":1777329568,"current_range_meters":3600,"station_id":"","pricing_plan_id":"cebpf4jnsgd1na2vs0mg"},{"bike_id":"ad06fbeb-2893-47bd-9310-693ccba410e9","system_id":"levelo_inurba_marseille","lat":43.28763,"lon":5.46823,"is_reserved":false,"is_disabled":false,"rental_uris":{"android":"levelo://app?vid=ad06fbeb-2893-47bd-9310-693ccba410e9","ios":"levelo://app?vid=ad06fbeb-2893-47bd-9310-693ccba410e9"},"vehicle_type_id":"4","last_reported":1777329568,"current_range_meters":4000,"station_id":"","pricing_plan_id":"cebpf4jnsgd1na2vs0mg"},{"bike_id":"3daa3b5c-dec3-42c1-9eb0-efb7ae17438a","system_id":"levelo_inurba_marseille","lat":43.27689,"lon":5.38883,"is_reserved":false,"is_disabled":false,"rental_uris":{"android":"levelo://app?vid=3daa3b5c-dec3-42c1-9eb0-efb7ae17438a","ios":"levelo://app?vid=3daa3b5c-dec3-42c1-9eb0-efb7ae17438a"},"vehicle_type_id":"4","last_reported":1777329568,"current_range_meters":4000,"station_id":"ce4bhi12rcd13ifvqfo0","pricing_plan_id":"cebpf4jnsgd1na2vs0mg"},{"bike_id":"cf4537a9-051c-4080-9a3f-93f632ce0082","system_id":"levelo_inurba_marseille","lat":43.337444,"lon":5.374475,"is_reserved":false,"is_disabled":false,"rental_uris":{"android":"levelo://app?vid=cf4537a9-051c-4080-9a3f-93f632ce0082","ios":"levelo://app?vid=cf4537a9-051c-4080-9a3f-93f632ce0082"},"vehicle_type_id":"4","last_reported":1777329568,"current_range_meters":4000,"station_id":"","pricing_plan_id":"cebpf4jnsgd1na2vs0mg"},{"bike_id":"bdab1e31-d7ea-4c8e-b3d6-57aabe73b361","system_id":"levelo_inurba_marseille","lat":43.2858,"lon":5.39471,"is_reserved":false,"is_disabled":true,"rental_uris":{"android":"levelo://app?vid=bdab1e31-d7ea-4c8e-b3d6-57aabe73b361","ios":"levelo://app?vid=bdab1e31-d7ea-4c8e-b3d6-57aabe73b361"},"vehicle_type_id":"4","last_reported":1777329568,"current_range_meters":4000,"station_id":"ce4bh292rcd13ifvqdg0","pricing_plan_id":"cebpf4jnsgd1na2vs0mg"},{"bike_id":"b21748b2-fb24-4ee6-8e6a-c7c61264faec","system_id":"levelo_inurba_marseille","lat":43.27389,"lon":5.42236,"is_reserved":false,"is_disabled":false,"rental_uris":{"android":"levelo://app?vid=b21748b2-fb24-4ee6-8e6a-c7c61264faec","ios":"levelo://app?vid=b21748b2-fb24-4ee6-8e6a-c7c61264faec"},"vehicle_type_id":"4","last_reported":1777329568,"current_range_meters":4000,"station_id":"","pricing_plan_id":"cebpf4jnsgd1na2vs0mg"},{"bike_id":"6702339c-6bbd-44c0-bb90-353a1b7436d9","system_id":"levelo_inurba_marseille","lat":43.24657,"lon":5.43168,"is_reserved":false,"is_disabled":false,"rental_uris":{"android":"levelo://app?vid=6702339c-6bbd-44c0-bb90-353a1b7436d9","ios":"levelo://app?vid=6702339c-6bbd-44c0-bb90-353a1b7436d9"},"vehicle_type_id":"4","last_reported":1777329568,"current_range_meters":4000,"station_id":"st_d2m6c4gdas8pm72e190g","pricing_plan_id":"cebpf4jnsgd1na2vs0mg"},{"bike_id":"0738b116-46d6-4576-94a4-021d359c563e","system_id":"levelo_inurba_marseille","lat":43.28354,"lon":5.38102,"is_reserved":false,"is_disabled":false,"rental_uris":{"android":"levelo://app?vid=0738b116-46d6-4576-94a4-021d359c563e","ios":"levelo://app?vid=0738b116-46d6-4576-94a4-021d359c563e"},"vehicle_type_id":"4","last_reported":1777329568,"current_range_meters":4000,"station_id":"ce4bh412rcd13ifvqdr0","pricing_plan_id":"cebpf4jnsgd1na2vs0mg"},{"bike_id":"531596aa-b42c-45f6-a465-0d6b22171143","system_id":"levelo_inurba_marseille","lat":43.30929,"lon":5.40157,"is_reserved":false,"is_disabled":false,"rental_uris":{"android":"levelo://app?vid=531596aa-b42c-45f6-a465-0d6b22171143","ios":"levelo://app?vid=531596aa-b42c-45f6-a465-0d6b22171143"},"vehicle_type_id":"4","last_reported":1777329568,"current_range_meters":4000,"station_id":"ce4bgvp2rcd13ifvqct0","pricing_plan_id":"cebpf4jnsgd1na2vs0mg"},{"bike_id":"91e4eed8-7aa0-4ca6-bc8b-33ffc5693469","system_id":"levelo_inurba_marseille","lat":43.31334,"lon":5.37908,"is_reserved":false,"is_disabled":false,"rental_uris":{"android":"levelo://app?vid=91e4eed8-7aa0-4ca6-bc8b-33ffc5693469","ios":"levelo://app?vid=91e4eed8-7aa0-4ca6-bc8b-33ffc5693469"},"vehicle_type_id":"4","last_reported":1777329568,"current_range_meters":4400,"station_id":"","pricing_plan_id":"cebpf4jnsgd1na2vs0mg"},{"bike_id":"d2a170e9-4683-45e4-8ad8-6a20e503868b","system_id":"levelo_inurba_marseille","lat":43.2551,"lon":5.37659,"is_reserved":false,"is_disabled":true,"rental_uris":{"android":"levelo://app?vid=d2a170e9-4683-45e4-8ad8-6a20e503868b","ios":"levelo://app?vid=d2a170e9-4683-45e4-8ad8-6a20e503868b"},"vehicle_type_id":"4","last_reported":1777329568,"current_range_meters":4400,"station_id":"ce4bhh12rcd13ifvqff0","pricing_plan_id":"cebpf4jnsgd1na2vs0mg"},{"bike_id":"c94021b7-854c-46bb-ae91-7c5fc5228b99","system_id":"levelo_inurba_marseille","lat":43.31166,"lon":5.38706,"is_reserved":false,"is_disabled":false,"rental_uris":{"android":"levelo://app?vid=c94021b7-854c-46bb-ae91-7c5fc5228b99","ios":"levelo://app?vid=c94021b7-854c-46bb-ae91-7c5fc5228b99"},"vehicle_type_id":"4","last_reported":1777329568,"current_range_meters":4400,"station_id":"ce4bgv12rcd13ifvqcp0","pricing_plan_id":"cebpf4jnsgd1na2vs0mg"},{"bike_id":"7e17da21-de27-4e4b-9912-876e46bc8a36","system_id":"levelo_inurba_marseille","lat":43.32089,"lon":5.36796,"is_reserved":false,"is_disabled":false,"rental_uris":{"android":"levelo://app?vid=7e17da21-de27-4e4b-9912-876e46bc8a36","ios":"levelo://app?vid=7e17da21-de27-4e4b-9912-876e46bc8a36"},"vehicle_type_id":"4","last_reported":1777329568,"current_range_meters":4400,"station_id":"ce4bhrh2rcd13ifvqhug","pricing_plan_id":"cebpf4jnsgd1na2vs0mg"},{"bike_id":"ad26b8dc-edee-444c-8fc3-cb83169b331a","system_id":"levelo_inurba_marseille","lat":43.28161,"lon":5.42637,"is_reserved":false,"is_disabled":false,"rental_uris":{"android":"levelo://app?vid=ad26b8dc-edee-444c-8fc3-cb83169b331a","ios":"levelo://app?vid=ad26b8dc-edee-444c-8fc3-cb83169b331a"},"vehicle_type_id":"4","last_reported":1777329568,"current_range_meters":4400,"station_id":"ce4bhnh2rcd13ifvqgug","pricing_plan_id":"cebpf4jnsgd1na2vs0mg"},{"bike_id":"70293194-d5cb-42ed-b8ce-7bdd782db57b","system_id":"levelo_inurba_marseille","lat":43.31239,"lon":5.3685,"is_reserved":false,"is_disabled":false,"rental_uris":{"android":"levelo://app?vid=70293194-d5cb-42ed-b8ce-7bdd782db57b","ios":"levelo://app?vid=70293194-d5cb-42ed-b8ce-7bdd782db57b"},"vehicle_type_id":"4","last_reported":1777329568,"current_range_meters":4400,"station_id":"ce4bgl92rcd13ifvqbq0","pricing_plan_id":"cebpf4jnsgd1na2vs0mg"},{"bike_id":"10d2c39a-e24d-4c10-9b33-f3f6db153578","system_id":"levelo_inurba_marseille","lat":43.31713,"lon":5.43706,"is_reserved":false,"is_disabled":false,"rental_uris":{"android":"levelo://app?vid=10d2c39a-e24d-4c10-9b33-f3f6db153578","ios":"levelo://app?vid=10d2c39a-e24d-4c10-9b33-f3f6db153578"},"vehicle_type_id":"4","last_reported":1777329568,"current_range_meters":4800,"station_id":"ce4bhp92rcd13ifvqhcg","pricing_plan_id":"cebpf4jnsgd1na2vs0mg"},{"bike_id":"435297f7-e5fc-4160-b337-aaa007c8b5cf","system_id":"levelo_inurba_marseille","lat":43.28475,"lon":5.48392,"is_reserved":false,"is_disabled":false,"rental_uris":{"android":"levelo://app?vid=435297f7-e5fc-4160-b337-aaa007c8b5cf","ios":"levelo://app?vid=435297f7-e5fc-4160-b337-aaa007c8b5cf"},"vehicle_type_id":"4","last_reported":1777329568,"current_range_meters":4800,"station_id":"st_d3svhcjqgbts73a3dn0g","pricing_plan_id":"cebpf4jnsgd1na2vs0mg"},{"bike_id":"d8e1c25f-ad45-48ab-bf4c-1dc7ef44ab09","system_id":"levelo_inurba_marseille","lat":43.296219,"lon":5.377174,"is_reserved":false,"is_disabled":false,"rental_uris":{"android":"levelo://app?vid=d8e1c25f-ad45-48ab-bf4c-1dc7ef44ab09","ios":"levelo://app?vid=d8e1c25f-ad45-48ab-bf4c-1dc7ef44ab09"},"vehicle_type_id":"4","last_reported":1777329568,"current_range_meters":4800,"station_id":"ce4bgi92rcd13ifvqb90","pricing_plan_id":"cebpf4jnsgd1na2vs0mg"},{"bike_id":"dd1a46ba-8d11-4ca4-a48b-231b4cd1a3c5","system_id":"levelo_inurba_marseille","lat":43.28023,"lon":5.36936,"is_reserved":false,"is_disabled":false,"rental_uris":{"android":"levelo://app?vid=dd1a46ba-8d11-4ca4-a48b-231b4cd1a3c5","ios":"levelo://app?vid=dd1a46ba-8d11-4ca4-a48b-231b4cd1a3c5"},"vehicle_type_id":"4","last_reported":1777329568,"current_range_meters":4800,"station_id":"ce4bha12rcd13ifvqef0","pricing_plan_id":"cebpf4jnsgd1na2vs0mg"},{"bike_id":"80b161cc-6e40-44e8-9454-73c670e460e2","system_id":"levelo_inurba_marseille","lat":43.28479,"lon":5.48385,"is_reserved":false,"is_disabled":false,"rental_uris":{"android":"levelo://app?vid=80b161cc-6e40-44e8-9454-73c670e460e2","ios":"levelo://app?vid=80b161cc-6e40-44e8-9454-73c670e460e2"},"vehicle_type_id":"4","last_reported":1777329568,"current_range_meters":4800,"station_id":"","pricing_plan_id":"cebpf4jnsgd1na2vs0mg"},{"bike_id":"f5f0e7ea-8273-4eda-b4ea-7c050b2d7246","system_id":"levelo_inurba_marseille","lat":43.28704,"lon":5.37387,"is_reserved":false,"is_disabled":false,"rental_uris":{"android":"levelo://app?vid=f5f0e7ea-8273-4eda-b4ea-7c050b2d7246","ios":"levelo://app?vid=f5f0e7ea-8273-4eda-b4ea-7c050b2d7246"},"vehicle_type_id":"4","last_reported":1777329568,"current_range_meters":4800,"station_id":"ce4bh3p2rcd13ifvqdq0","pricing_plan_id":"cebpf4jnsgd1na2vs0mg"},{"bike_id":"127186fe-87fe-4347-8c14-2b72a4effa84","system_id":"levelo_inurba_marseille","lat":43.321045,"lon":5.367552,"is_reserved":false,"is_disabled":false,"rental_uris":{"android":"levelo://app?vid=127186fe-87fe-4347-8c14-2b72a4effa84","ios":"levelo://app?vid=127186fe-87fe-4347-8c14-2b72a4effa84"},"vehicle_type_id":"4","last_reported":1777329568,"current_range_meters":4800,"station_id":"ce4bhrh2rcd13ifvqhug","pricing_plan_id":"cebpf4jnsgd1na2vs0mg"},{"bike_id":"d7f82704-aabe-4a2e-beaa-56fe6c2f65b8","system_id":"levelo_inurba_marseille","lat":43.23966,"lon":5.36636,"is_reserved":false,"is_disabled":false,"rental_uris":{"android":"levelo://app?vid=d7f82704-aabe-4a2e-beaa-56fe6c2f65b8","ios":"levelo://app?vid=d7f82704-aabe-4a2e-beaa-56fe6c2f65b8"},"vehicle_type_id":"4","last_reported":1777329568,"current_range_meters":4800,"station_id":"ce4bhi12rcd13ifvqfp0","pricing_plan_id":"cebpf4jnsgd1na2vs0mg"},{"bike_id":"96664ea6-aa56-4a76-9a26-e509828ee890","system_id":"levelo_inurba_marseille","lat":43.30095,"lon":5.39119,"is_reserved":false,"is_disabled":false,"rental_uris":{"android":"levelo://app?vid=96664ea6-aa56-4a76-9a26-e509828ee890","ios":"levelo://app?vid=96664ea6-aa56-4a76-9a26-e509828ee890"},"vehicle_type_id":"4","last_reported":1777329568,"current_range_meters":5600,"station_id":"ce4bh192rcd13ifvqdb0","pricing_plan_id":"cebpf4jnsgd1na2vs0mg"},{"bike_id":"95fcacf0-7086-4a79-916d-eb3549d744d3","system_id":"levelo_inurba_marseille","lat":43.337444,"lon":5.374475,"is_reserved":false,"is_disabled":false,"rental_uris":{"android":"levelo://app?vid=95fcacf0-7086-4a79-916d-eb3549d744d3","ios":"levelo://app?vid=95fcacf0-7086-4a79-916d-eb3549d744d3"},"vehicle_type_id":"4","last_reported":1777329568,"current_range_meters":5600,"station_id":"","pricing_plan_id":"cebpf4jnsgd1na2vs0mg"},{"bike_id":"3c9ce41d-7d0e-4321-95b6-f75f0599af83","system_id":"levelo_inurba_marseille","lat":43.27989,"lon":5.41653,"is_reserved":false,"is_disabled":false,"rental_uris":{"android":"levelo://app?vid=3c9ce41d-7d0e-4321-95b6-f75f0599af83","ios":"levelo://app?vid=3c9ce41d-7d0e-4321-95b6-f75f0599af83"},"vehicle_type_id":"4","last_reported":1777329568,"current_range_meters":5600,"station_id":"ce4bho12rcd13ifvqh1g","pricing_plan_id":"cebpf4jnsgd1na2vs0mg"},{"bike_id":"ac4eb49f-3c14-42c4-ba54-ac72a41c7cf6","system_id":"levelo_inurba_marseille","lat":43.30112,"lon":5.3907,"is_reserved":false,"is_disabled":false,"rental_uris":{"android":"levelo://app?vid=ac4eb49f-3c14-42c4-ba54-ac72a41c7cf6","ios":"levelo://app?vid=ac4eb49f-3c14-42c4-ba54-ac72a41c7cf6"},"vehicle_type_id":"4","last_reported":1777329568,"current_range_meters":5600,"station_id":"ce4bh192rcd13ifvqdb0","pricing_plan_id":"cebpf4jnsgd1na2vs0mg"},{"bike_id":"6bdb8174-9b4d-49a1-b558-901e900bda98","system_id":"levelo_inurba_marseille","lat":43.30799,"lon":5.38162,"is_reserved":false,"is_disabled":false,"rental_uris":{"android":"levelo://app?vid=6bdb8174-9b4d-49a1-b558-901e900bda98","ios":"levelo://app?vid=6bdb8174-9b4d-49a1-b558-901e900bda98"},"vehicle_type_id":"4","last_reported":1777329568,"current_range_meters":5600,"station_id":"ce4bgt12rcd13ifvqce0","pricing_plan_id":"cebpf4jnsgd1na2vs0mg"},{"bike_id":"1c267b42-3346-4d3e-b54a-e87588a5d7e7","system_id":"levelo_inurba_marseille","lat":43.23169,"lon":5.43728,"is_reserved":false,"is_disabled":false,"rental_uris":{"android":"levelo://app?vid=1c267b42-3346-4d3e-b54a-e87588a5d7e7","ios":"levelo://app?vid=1c267b42-3346-4d3e-b54a-e87588a5d7e7"},"vehicle_type_id":"4","last_reported":1777329568,"current_range_meters":5600,"station_id":"ce4bhmp2rcd13ifvqgog","pricing_plan_id":"cebpf4jnsgd1na2vs0mg"},{"bike_id":"f0c74e8b-a798-4dae-9ccd-9d533f5a173e","system_id":"levelo_inurba_marseille","lat":43.312,"lon":5.38709,"is_reserved":false,"is_disabled":true,"rental_uris":{"android":"levelo://app?vid=f0c74e8b-a798-4dae-9ccd-9d533f5a173e","ios":"levelo://app?vid=f0c74e8b-a798-4dae-9ccd-9d533f5a173e"},"vehicle_type_id":"4","last_reported":1777329568,"current_range_meters":5600,"station_id":"ce4bgv12rcd13ifvqcp0","pricing_plan_id":"cebpf4jnsgd1na2vs0mg"},{"bike_id":"69a2d223-bf66-4571-9613-79c65e1e1d32","system_id":"levelo_inurba_marseille","lat":43.29679,"lon":5.36609,"is_reserved":false,"is_disabled":false,"rental_uris":{"android":"levelo://app?vid=69a2d223-bf66-4571-9613-79c65e1e1d32","ios":"levelo://app?vid=69a2d223-bf66-4571-9613-79c65e1e1d32"},"vehicle_type_id":"4","last_reported":1777329568,"current_range_meters":5600,"station_id":"ce4bgn12rcd13ifvqbt0","pricing_plan_id":"cebpf4jnsgd1na2vs0mg"},{"bike_id":"c02a1909-80f9-49d1-add2-2bcd74a25027","system_id":"levelo_inurba_marseille","lat":43.27183,"lon":5.40999,"is_reserved":false,"is_disabled":false,"rental_uris":{"android":"levelo://app?vid=c02a1909-80f9-49d1-add2-2bcd74a25027","ios":"levelo://app?vid=c02a1909-80f9-49d1-add2-2bcd74a25027"},"vehicle_type_id":"4","last_reported":1777329568,"current_range_meters":5600,"station_id":"ce4bhl12rcd13ifvqgf0","pricing_plan_id":"cebpf4jnsgd1na2vs0mg"},{"bike_id":"e2cae97f-59e6-4efd-8e6f-8c29bb62e7ad","system_id":"levelo_inurba_marseille","lat":43.28231,"lon":5.39069,"is_reserved":false,"is_disabled":false,"rental_uris":{"android":"levelo://app?vid=e2cae97f-59e6-4efd-8e6f-8c29bb62e7ad","ios":"levelo://app?vid=e2cae97f-59e6-4efd-8e6f-8c29bb62e7ad"},"vehicle_type_id":"4","last_reported":1777329568,"current_range_meters":6000,"station_id":"ce4bhn92rcd13ifvqgsg","pricing_plan_id":"cebpf4jnsgd1na2vs0mg"},{"bike_id":"115163e2-f37e-4e24-b64a-2263c66e46dc","system_id":"levelo_inurba_marseille","lat":43.29796,"lon":5.37093,"is_reserved":false,"is_disabled":false,"rental_uris":{"android":"levelo://app?vid=115163e2-f37e-4e24-b64a-2263c66e46dc","ios":"levelo://app?vid=115163e2-f37e-4e24-b64a-2263c66e46dc"},"vehicle_type_id":"4","last_reported":1777329568,"current_range_meters":6000,"station_id":"ce4bgop2rcd13ifvqc1g","pricing_plan_id":"cebpf4jnsgd1na2vs0mg"},{"bike_id":"2519ee8d-92c6-419f-941a-6566274d07bb","system_id":"levelo_inurba_marseille","lat":43.30889,"lon":5.39638,"is_reserved":false,"is_disabled":false,"rental_uris":{"android":"levelo://app?vid=2519ee8d-92c6-419f-941a-6566274d07bb","ios":"levelo://app?vid=2519ee8d-92c6-419f-941a-6566274d07bb"},"vehicle_type_id":"4","last_reported":1777329568,"current_range_meters":6000,"station_id":"ce4bh012rcd13ifvqcv0","pricing_plan_id":"cebpf4jnsgd1na2vs0mg"},{"bike_id":"41c4b54e-2172-478f-8288-0b23d9fa6e85","system_id":"levelo_inurba_marseille","lat":43.28447,"lon":5.39204,"is_reserved":false,"is_disabled":false,"rental_uris":{"android":"levelo://app?vid=41c4b54e-2172-478f-8288-0b23d9fa6e85","ios":"levelo://app?vid=41c4b54e-2172-478f-8288-0b23d9fa6e85"},"vehicle_type_id":"4","last_reported":1777329568,"current_range_meters":6000,"station_id":"ce4bhoh2rcd13ifvqh5g","pricing_plan_id":"cebpf4jnsgd1na2vs0mg"},{"bike_id":"781d8d3d-fabf-4ca2-9f47-16929586692d","system_id":"levelo_inurba_marseille","lat":43.27516,"lon":5.43483,"is_reserved":false,"is_disabled":false,"rental_uris":{"android":"levelo://app?vid=781d8d3d-fabf-4ca2-9f47-16929586692d","ios":"levelo://app?vid=781d8d3d-fabf-4ca2-9f47-16929586692d"},"vehicle_type_id":"4","last_reported":1777329568,"current_range_meters":6000,"station_id":"","pricing_plan_id":"cebpf4jnsgd1na2vs0mg"},{"bike_id":"03c9cb36-982a-4f64-b63a-7e83eb3e7ce2","system_id":"levelo_inurba_marseille","lat":43.29039,"lon":5.38658,"is_reserved":false,"is_disabled":false,"rental_uris":{"android":"levelo://app?vid=03c9cb36-982a-4f64-b63a-7e83eb3e7ce2","ios":"levelo://app?vid=03c9cb36-982a-4f64-b63a-7e83eb3e7ce2"},"vehicle_type_id":"4","last_reported":1777329568,"current_range_meters":6000,"station_id":"ce4bh4p2rcd13ifvqe0g","pricing_plan_id":"cebpf4jnsgd1na2vs0mg"},{"bike_id":"b85c9b72-1292-432c-b6d2-ec7df9f59052","system_id":"levelo_inurba_marseille","lat":43.28675,"lon":5.38664,"is_reserved":false,"is_disabled":false,"rental_uris":{"android":"levelo://app?vid=b85c9b72-1292-432c-b6d2-ec7df9f59052","ios":"levelo://app?vid=b85c9b72-1292-432c-b6d2-ec7df9f59052"},"vehicle_type_id":"4","last_reported":1777329568,"current_range_meters":6000,"station_id":"ce4bh492rcd13ifvqdug","pricing_plan_id":"cebpf4jnsgd1na2vs0mg"},{"bike_id":"6c0e44b5-b4c6-4989-a0ec-b3c6d257ac1d","system_id":"levelo_inurba_marseille","lat":43.33186,"lon":5.37828,"is_reserved":false,"is_disabled":false,"rental_uris":{"android":"levelo://app?vid=6c0e44b5-b4c6-4989-a0ec-b3c6d257ac1d","ios":"levelo://app?vid=6c0e44b5-b4c6-4989-a0ec-b3c6d257ac1d"},"vehicle_type_id":"4","last_reported":1777329568,"current_range_meters":6400,"station_id":"","pricing_plan_id":"cebpf4jnsgd1na2vs0mg"},{"bike_id":"5367fafd-42a5-4c52-bd35-5d85953af91c","system_id":"levelo_inurba_marseille","lat":43.3092,"lon":5.38018,"is_reserved":false,"is_disabled":true,"rental_uris":{"android":"levelo://app?vid=5367fafd-42a5-4c52-bd35-5d85953af91c","ios":"levelo://app?vid=5367fafd-42a5-4c52-bd35-5d85953af91c"},"vehicle_type_id":"4","last_reported":1777329568,"current_range_meters":6400,"station_id":"","pricing_plan_id":"cebpf4jnsgd1na2vs0mg"},{"bike_id":"2f755aa1-105e-447f-807e-a8d37a45e600","system_id":"levelo_inurba_marseille","lat":43.28976,"lon":5.3931,"is_reserved":false,"is_disabled":false,"rental_uris":{"android":"levelo://app?vid=2f755aa1-105e-447f-807e-a8d37a45e600","ios":"levelo://app?vid=2f755aa1-105e-447f-807e-a8d37a45e600"},"vehicle_type_id":"4","last_reported":1777329568,"current_range_meters":6400,"station_id":"","pricing_plan_id":"cebpf4jnsgd1na2vs0mg"},{"bike_id":"c9a5deaf-f776-47ca-bce8-1efc7dbe0cef","system_id":"levelo_inurba_marseille","lat":43.30104,"lon":5.39071,"is_reserved":false,"is_disabled":false,"rental_uris":{"android":"levelo://app?vid=c9a5deaf-f776-47ca-bce8-1efc7dbe0cef","ios":"levelo://app?vid=c9a5deaf-f776-47ca-bce8-1efc7dbe0cef"},"vehicle_type_id":"4","last_reported":1777329568,"current_range_meters":6400,"station_id":"ce4bh192rcd13ifvqdb0","pricing_plan_id":"cebpf4jnsgd1na2vs0mg"},{"bike_id":"9f2fc3f7-556e-4c37-a225-50c0d5d924cd","system_id":"levelo_inurba_marseille","lat":43.24645,"lon":5.43118,"is_reserved":false,"is_disabled":false,"rental_uris":{"android":"levelo://app?vid=9f2fc3f7-556e-4c37-a225-50c0d5d924cd","ios":"levelo://app?vid=9f2fc3f7-556e-4c37-a225-50c0d5d924cd"},"vehicle_type_id":"4","last_reported":1777329568,"current_range_meters":6400,"station_id":"st_d2m6c4gdas8pm72e190g","pricing_plan_id":"cebpf4jnsgd1na2vs0mg"},{"bike_id":"d91a79ea-757d-4fb0-822d-efffb3df9a9a","system_id":"levelo_inurba_marseille","lat":43.24655,"lon":5.38898,"is_reserved":false,"is_disabled":false,"rental_uris":{"android":"levelo://app?vid=d91a79ea-757d-4fb0-822d-efffb3df9a9a","ios":"levelo://app?vid=d91a79ea-757d-4fb0-822d-efffb3df9a9a"},"vehicle_type_id":"4","last_reported":1777329568,"current_range_meters":6400,"station_id":"ce4bhg12rcd13ifvqf60","pricing_plan_id":"cebpf4jnsgd1na2vs0mg"},{"bike_id":"6b9ceb44-f98b-4474-bf14-5e53602be7a5","system_id":"levelo_inurba_marseille","lat":43.33548,"lon":5.37477,"is_reserved":false,"is_disabled":false,"rental_uris":{"android":"levelo://app?vid=6b9ceb44-f98b-4474-bf14-5e53602be7a5","ios":"levelo://app?vid=6b9ceb44-f98b-4474-bf14-5e53602be7a5"},"vehicle_type_id":"4","last_reported":1777329568,"current_range_meters":6400,"station_id":"st_d46tts09ee8s73dlu43g","pricing_plan_id":"cebpf4jnsgd1na2vs0mg"},{"bike_id":"12811a9c-eb10-4b33-9d8f-ee152e8f6264","system_id":"levelo_inurba_marseille","lat":43.26052,"lon":5.3939,"is_reserved":false,"is_disabled":false,"rental_uris":{"android":"levelo://app?vid=12811a9c-eb10-4b33-9d8f-ee152e8f6264","ios":"levelo://app?vid=12811a9c-eb10-4b33-9d8f-ee152e8f6264"},"vehicle_type_id":"4","last_reported":1777329568,"current_range_meters":6400,"station_id":"ce4bhh92rcd13ifvqfj0","pricing_plan_id":"cebpf4jnsgd1na2vs0mg"},{"bike_id":"55ffa9cb-0e63-4320-8c55-2d765a24cf5f","system_id":"levelo_inurba_marseille","lat":43.24168,"lon":5.36383,"is_reserved":false,"is_disabled":false,"rental_uris":{"android":"levelo://app?vid=55ffa9cb-0e63-4320-8c55-2d765a24cf5f","ios":"levelo://app?vid=55ffa9cb-0e63-4320-8c55-2d765a24cf5f"},"vehicle_type_id":"4","last_reported":1777329568,"current_range_meters":6400,"station_id":"cpo36qri1sfpv3e86is0","pricing_plan_id":"cebpf4jnsgd1na2vs0mg"},{"bike_id":"9bceb821-de64-4da8-93fd-a6ddc5e635c0","system_id":"levelo_inurba_marseille","lat":43.29579,"lon":5.3998,"is_reserved":false,"is_disabled":false,"rental_uris":{"android":"levelo://app?vid=9bceb821-de64-4da8-93fd-a6ddc5e635c0","ios":"levelo://app?vid=9bceb821-de64-4da8-93fd-a6ddc5e635c0"},"vehicle_type_id":"4","last_reported":1777329568,"current_range_meters":6400,"station_id":"ce4bh312rcd13ifvqdj0","pricing_plan_id":"cebpf4jnsgd1na2vs0mg"},{"bike_id":"2e013045-b635-4629-a87d-995ec1628a85","system_id":"levelo_inurba_marseille","lat":43.32127,"lon":5.3682,"is_reserved":false,"is_disabled":false,"rental_uris":{"android":"levelo://app?vid=2e013045-b635-4629-a87d-995ec1628a85","ios":"levelo://app?vid=2e013045-b635-4629-a87d-995ec1628a85"},"vehicle_type_id":"4","last_reported":1777329568,"current_range_meters":6400,"station_id":"","pricing_plan_id":"cebpf4jnsgd1na2vs0mg"},{"bike_id":"0f1d3d83-e8b0-4d8e-a0c9-aba4c5bbe46c","system_id":"levelo_inurba_marseille","lat":43.28925,"lon":5.36617,"is_reserved":false,"is_disabled":true,"rental_uris":{"android":"levelo://app?vid=0f1d3d83-e8b0-4d8e-a0c9-aba4c5bbe46c","ios":"levelo://app?vid=0f1d3d83-e8b0-4d8e-a0c9-aba4c5bbe46c"},"vehicle_type_id":"4","last_reported":1777329568,"current_range_meters":6400,"station_id":"ce4bhap2rcd13ifvqek0","pricing_plan_id":"cebpf4jnsgd1na2vs0mg"},{"bike_id":"f3887d6f-5f58-4650-a2da-9d2cb7467222","system_id":"levelo_inurba_marseille","lat":43.30187,"lon":5.39992,"is_reserved":false,"is_disabled":false,"rental_uris":{"android":"levelo://app?vid=f3887d6f-5f58-4650-a2da-9d2cb7467222","ios":"levelo://app?vid=f3887d6f-5f58-4650-a2da-9d2cb7467222"},"vehicle_type_id":"4","last_reported":1777329568,"current_range_meters":6400,"station_id":"ce4bgvh2rcd13ifvqcs0","pricing_plan_id":"cebpf4jnsgd1na2vs0mg"},{"bike_id":"c39de570-e7a4-42a3-bc87-effa0cfb5c9c","system_id":"levelo_inurba_marseille","lat":43.31051,"lon":5.37177,"is_reserved":false,"is_disabled":false,"rental_uris":{"android":"levelo://app?vid=c39de570-e7a4-42a3-bc87-effa0cfb5c9c","ios":"levelo://app?vid=c39de570-e7a4-42a3-bc87-effa0cfb5c9c"},"vehicle_type_id":"4","last_reported":1777329568,"current_range_meters":6400,"station_id":"st_d4kl2rp97mjs73e7tdfg","pricing_plan_id":"cebpf4jnsgd1na2vs0mg"},{"bike_id":"bf755b54-9bfc-4f5a-b759-04d952b762e5","system_id":"levelo_inurba_marseille","lat":43.24388,"lon":5.37069,"is_reserved":false,"is_disabled":false,"rental_uris":{"android":"levelo://app?vid=bf755b54-9bfc-4f5a-b759-04d952b762e5","ios":"levelo://app?vid=bf755b54-9bfc-4f5a-b759-04d952b762e5"},"vehicle_type_id":"4","last_reported":1777329568,"current_range_meters":6400,"station_id":"ce4bhhh2rcd13ifvqfk0","pricing_plan_id":"cebpf4jnsgd1na2vs0mg"},{"bike_id":"db5f1b84-43d9-4c3e-87fe-c4a395815fa8","system_id":"levelo_inurba_marseille","lat":43.24945,"lon":5.40496,"is_reserved":false,"is_disabled":false,"rental_uris":{"android":"levelo://app?vid=db5f1b84-43d9-4c3e-87fe-c4a395815fa8","ios":"levelo://app?vid=db5f1b84-43d9-4c3e-87fe-c4a395815fa8"},"vehicle_type_id":"4","last_reported":1777329568,"current_range_meters":6400,"station_id":"st_d2ngiaodas8pm72gd1h0","pricing_plan_id":"cebpf4jnsgd1na2vs0mg"},{"bike_id":"fbb49548-0e6f-4f34-b4f9-7953d4130f20","system_id":"levelo_inurba_marseille","lat":43.30298,"lon":5.392,"is_reserved":false,"is_disabled":false,"rental_uris":{"android":"levelo://app?vid=fbb49548-0e6f-4f34-b4f9-7953d4130f20","ios":"levelo://app?vid=fbb49548-0e6f-4f34-b4f9-7953d4130f20"},"vehicle_type_id":"4","last_reported":1777329568,"current_range_meters":6400,"station_id":"ce4bgkh2rcd13ifvqbk0","pricing_plan_id":"cebpf4jnsgd1na2vs0mg"},{"bike_id":"d20ccda7-29ef-4aa5-bbf2-63f1e6c3dcf5","system_id":"levelo_inurba_marseille","lat":43.32115,"lon":5.36774,"is_reserved":false,"is_disabled":false,"rental_uris":{"android":"levelo://app?vid=d20ccda7-29ef-4aa5-bbf2-63f1e6c3dcf5","ios":"levelo://app?vid=d20ccda7-29ef-4aa5-bbf2-63f1e6c3dcf5"},"vehicle_type_id":"4","last_reported":1777329568,"current_range_meters":6400,"station_id":"ce4bhrh2rcd13ifvqhug","pricing_plan_id":"cebpf4jnsgd1na2vs0mg"},{"bike_id":"4126aa0b-3227-4073-9684-002f7077bd65","system_id":"levelo_inurba_marseille","lat":43.24947,"lon":5.4049,"is_reserved":false,"is_disabled":false,"rental_uris":{"android":"levelo://app?vid=4126aa0b-3227-4073-9684-002f7077bd65","ios":"levelo://app?vid=4126aa0b-3227-4073-9684-002f7077bd65"},"vehicle_type_id":"4","last_reported":1777329568,"current_range_meters":6800,"station_id":"st_d2ngiaodas8pm72gd1h0","pricing_plan_id":"cebpf4jnsgd1na2vs0mg"},{"bike_id":"8f13b61e-8a25-4927-8213-0f8d3090195b","system_id":"levelo_inurba_marseille","lat":43.28477,"lon":5.484,"is_reserved":false,"is_disabled":false,"rental_uris":{"android":"levelo://app?vid=8f13b61e-8a25-4927-8213-0f8d3090195b","ios":"levelo://app?vid=8f13b61e-8a25-4927-8213-0f8d3090195b"},"vehicle_type_id":"4","last_reported":1777329568,"current_range_meters":6800,"station_id":"","pricing_plan_id":"cebpf4jnsgd1na2vs0mg"},{"bike_id":"aa17bdd3-a685-4a8c-80f5-de0221303c8c","system_id":"levelo_inurba_marseille","lat":43.29676,"lon":5.37803,"is_reserved":false,"is_disabled":false,"rental_uris":{"android":"levelo://app?vid=aa17bdd3-a685-4a8c-80f5-de0221303c8c","ios":"levelo://app?vid=aa17bdd3-a685-4a8c-80f5-de0221303c8c"},"vehicle_type_id":"4","last_reported":1777329568,"current_range_meters":6800,"station_id":"ce4bgi92rcd13ifvqb90","pricing_plan_id":"cebpf4jnsgd1na2vs0mg"},{"bike_id":"8e77f3ba-38f8-4add-b61b-b2f308d4dba7","system_id":"levelo_inurba_marseille","lat":43.24657,"lon":5.3815,"is_reserved":false,"is_disabled":false,"rental_uris":{"android":"levelo://app?vid=8e77f3ba-38f8-4add-b61b-b2f308d4dba7","ios":"levelo://app?vid=8e77f3ba-38f8-4add-b61b-b2f308d4dba7"},"vehicle_type_id":"4","last_reported":1777329568,"current_range_meters":6800,"station_id":"ce4bhih2rcd13ifvqfr0","pricing_plan_id":"cebpf4jnsgd1na2vs0mg"},{"bike_id":"5cbef2a7-8e83-4097-9949-5967c82353a9","system_id":"levelo_inurba_marseille","lat":43.32486,"lon":5.38283,"is_reserved":false,"is_disabled":false,"rental_uris":{"android":"levelo://app?vid=5cbef2a7-8e83-4097-9949-5967c82353a9","ios":"levelo://app?vid=5cbef2a7-8e83-4097-9949-5967c82353a9"},"vehicle_type_id":"4","last_reported":1777329568,"current_range_meters":6800,"station_id":"st_d4asgbiv49dc73anf9m0","pricing_plan_id":"cebpf4jnsgd1na2vs0mg"},{"bike_id":"b06f20e2-7b40-4e46-b06e-55bc14e04088","system_id":"levelo_inurba_marseille","lat":43.24506,"lon":5.42716,"is_reserved":false,"is_disabled":false,"rental_uris":{"android":"levelo://app?vid=b06f20e2-7b40-4e46-b06e-55bc14e04088","ios":"levelo://app?vid=b06f20e2-7b40-4e46-b06e-55bc14e04088"},"vehicle_type_id":"4","last_reported":1777329568,"current_range_meters":6800,"station_id":"","pricing_plan_id":"cebpf4jnsgd1na2vs0mg"},{"bike_id":"77f1be50-d55c-4753-b02a-0b5e7117e7c7","system_id":"levelo_inurba_marseille","lat":43.31305,"lon":5.38194,"is_reserved":false,"is_disabled":false,"rental_uris":{"android":"levelo://app?vid=77f1be50-d55c-4753-b02a-0b5e7117e7c7","ios":"levelo://app?vid=77f1be50-d55c-4753-b02a-0b5e7117e7c7"},"vehicle_type_id":"4","last_reported":1777329568,"current_range_meters":6800,"station_id":"","pricing_plan_id":"cebpf4jnsgd1na2vs0mg"},{"bike_id":"45975912-e80e-42bd-80d4-178eefaa9458","system_id":"levelo_inurba_marseille","lat":43.28841,"lon":5.39342,"is_reserved":false,"is_disabled":false,"rental_uris":{"android":"levelo://app?vid=45975912-e80e-42bd-80d4-178eefaa9458","ios":"levelo://app?vid=45975912-e80e-42bd-80d4-178eefaa9458"},"vehicle_type_id":"4","last_reported":1777329568,"current_range_meters":6800,"station_id":"ce4bh2p2rcd13ifvqdi0","pricing_plan_id":"cebpf4jnsgd1na2vs0mg"},{"bike_id":"2e1487b5-ffbe-4174-a3cb-5f2ca03b60ce","system_id":"levelo_inurba_marseille","lat":43.28482,"lon":5.48388,"is_reserved":false,"is_disabled":false,"rental_uris":{"android":"levelo://app?vid=2e1487b5-ffbe-4174-a3cb-5f2ca03b60ce","ios":"levelo://app?vid=2e1487b5-ffbe-4174-a3cb-5f2ca03b60ce"},"vehicle_type_id":"4","last_reported":1777329568,"current_range_meters":6800,"station_id":"st_d3svhcjqgbts73a3dn0g","pricing_plan_id":"cebpf4jnsgd1na2vs0mg"},{"bike_id":"6b8549bf-30d2-490f-8f61-d9ca43e4d06c","system_id":"levelo_inurba_marseille","lat":43.27013,"lon":5.40249,"is_reserved":false,"is_disabled":false,"rental_uris":{"android":"levelo://app?vid=6b8549bf-30d2-490f-8f61-d9ca43e4d06c","ios":"levelo://app?vid=6b8549bf-30d2-490f-8f61-d9ca43e4d06c"},"vehicle_type_id":"4","last_reported":1777329568,"current_range_meters":6800,"station_id":"","pricing_plan_id":"cebpf4jnsgd1na2vs0mg"},{"bike_id":"f13fe151-afeb-4327-9952-17422c4d2706","system_id":"levelo_inurba_marseille","lat":43.25402,"lon":5.41893,"is_reserved":false,"is_disabled":false,"rental_uris":{"android":"levelo://app?vid=f13fe151-afeb-4327-9952-17422c4d2706","ios":"levelo://app?vid=f13fe151-afeb-4327-9952-17422c4d2706"},"vehicle_type_id":"4","last_reported":1777329568,"current_range_meters":6800,"station_id":"","pricing_plan_id":"cebpf4jnsgd1na2vs0mg"},{"bike_id":"7d24a3ee-0eb9-47a1-8904-33af700bdc69","system_id":"levelo_inurba_marseille","lat":43.28478,"lon":5.48393,"is_reserved":false,"is_disabled":false,"rental_uris":{"android":"levelo://app?vid=7d24a3ee-0eb9-47a1-8904-33af700bdc69","ios":"levelo://app?vid=7d24a3ee-0eb9-47a1-8904-33af700bdc69"},"vehicle_type_id":"4","last_reported":1777329568,"current_range_meters":7200,"station_id":"st_d3svhcjqgbts73a3dn0g","pricing_plan_id":"cebpf4jnsgd1na2vs0mg"},{"bike_id":"1c3e83c0-3a81-41a0-bdbf-3ea6df10e5d2","system_id":"levelo_inurba_marseille","lat":43.2803,"lon":5.3694,"is_reserved":false,"is_disabled":false,"rental_uris":{"android":"levelo://app?vid=1c3e83c0-3a81-41a0-bdbf-3ea6df10e5d2","ios":"levelo://app?vid=1c3e83c0-3a81-41a0-bdbf-3ea6df10e5d2"},"vehicle_type_id":"4","last_reported":1777329568,"current_range_meters":7200,"station_id":"ce4bha12rcd13ifvqef0","pricing_plan_id":"cebpf4jnsgd1na2vs0mg"},{"bike_id":"27cd71a7-0940-4415-a67f-21597fbf1cd9","system_id":"levelo_inurba_marseille","lat":43.34534,"lon":5.37787,"is_reserved":false,"is_disabled":false,"rental_uris":{"android":"levelo://app?vid=27cd71a7-0940-4415-a67f-21597fbf1cd9","ios":"levelo://app?vid=27cd71a7-0940-4415-a67f-21597fbf1cd9"},"vehicle_type_id":"4","last_reported":1777329568,"current_range_meters":7200,"station_id":"","pricing_plan_id":"cebpf4jnsgd1na2vs0mg"},{"bike_id":"2207323a-44e2-4f1a-a95e-92cd1d0b6f9b","system_id":"levelo_inurba_marseille","lat":43.29186,"lon":5.35801,"is_reserved":false,"is_disabled":false,"rental_uris":{"android":"levelo://app?vid=2207323a-44e2-4f1a-a95e-92cd1d0b6f9b","ios":"levelo://app?vid=2207323a-44e2-4f1a-a95e-92cd1d0b6f9b"},"vehicle_type_id":"4","last_reported":1777329568,"current_range_meters":7200,"station_id":"ce4bhb12rcd13ifvqel0","pricing_plan_id":"cebpf4jnsgd1na2vs0mg"},{"bike_id":"4ba88d8e-2daa-44b9-94a7-860408423931","system_id":"levelo_inurba_marseille","lat":43.30456,"lon":5.38818,"is_reserved":false,"is_disabled":false,"rental_uris":{"android":"levelo://app?vid=4ba88d8e-2daa-44b9-94a7-860408423931","ios":"levelo://app?vid=4ba88d8e-2daa-44b9-94a7-860408423931"},"vehicle_type_id":"4","last_reported":1777329568,"current_range_meters":7200,"station_id":"","pricing_plan_id":"cebpf4jnsgd1na2vs0mg"},{"bike_id":"8b1f5d0b-fff3-453f-8e5c-32008a7ce404","system_id":"levelo_inurba_marseille","lat":43.26985,"lon":5.40329,"is_reserved":false,"is_disabled":false,"rental_uris":{"android":"levelo://app?vid=8b1f5d0b-fff3-453f-8e5c-32008a7ce404","ios":"levelo://app?vid=8b1f5d0b-fff3-453f-8e5c-32008a7ce404"},"vehicle_type_id":"4","last_reported":1777329568,"current_range_meters":7200,"station_id":"cjm6bp8fraef2m0cb0m0","pricing_plan_id":"cebpf4jnsgd1na2vs0mg"},{"bike_id":"99b0db6f-dcff-4455-9282-a2a21a6ff5c6","system_id":"levelo_inurba_marseille","lat":43.29211,"lon":5.39313,"is_reserved":false,"is_disabled":false,"rental_uris":{"android":"levelo://app?vid=99b0db6f-dcff-4455-9282-a2a21a6ff5c6","ios":"levelo://app?vid=99b0db6f-dcff-4455-9282-a2a21a6ff5c6"},"vehicle_type_id":"4","last_reported":1777329568,"current_range_meters":7200,"station_id":"ce4bh192rcd13ifvqdd0","pricing_plan_id":"cebpf4jnsgd1na2vs0mg"},{"bike_id":"b504488c-4a5c-43df-b299-e768506d1980","system_id":"levelo_inurba_marseille","lat":43.29308,"lon":5.37158,"is_reserved":false,"is_disabled":true,"rental_uris":{"android":"levelo://app?vid=b504488c-4a5c-43df-b299-e768506d1980","ios":"levelo://app?vid=b504488c-4a5c-43df-b299-e768506d1980"},"vehicle_type_id":"4","last_reported":1777329568,"current_range_meters":7200,"station_id":"ce4bgh92rcd13ifvqb40","pricing_plan_id":"cebpf4jnsgd1na2vs0mg"},{"bike_id":"65be2cd8-ab0d-46ba-80d2-20d5752f09bd","system_id":"levelo_inurba_marseille","lat":43.33031,"lon":5.3904,"is_reserved":false,"is_disabled":false,"rental_uris":{"android":"levelo://app?vid=65be2cd8-ab0d-46ba-80d2-20d5752f09bd","ios":"levelo://app?vid=65be2cd8-ab0d-46ba-80d2-20d5752f09bd"},"vehicle_type_id":"4","last_reported":1777329568,"current_range_meters":7200,"station_id":"ce4bhr92rcd13ifvqhrg","pricing_plan_id":"cebpf4jnsgd1na2vs0mg"},{"bike_id":"14869599-ab60-4e86-8f2c-d0b35d29b95e","system_id":"levelo_inurba_marseille","lat":43.25637,"lon":5.41856,"is_reserved":false,"is_disabled":false,"rental_uris":{"android":"levelo://app?vid=14869599-ab60-4e86-8f2c-d0b35d29b95e","ios":"levelo://app?vid=14869599-ab60-4e86-8f2c-d0b35d29b95e"},"vehicle_type_id":"4","last_reported":1777329568,"current_range_meters":7200,"station_id":"","pricing_plan_id":"cebpf4jnsgd1na2vs0mg"},{"bike_id":"37244ceb-f46a-4f7e-a58c-443ff14c31a6","system_id":"levelo_inurba_marseille","lat":43.24814,"lon":5.37467,"is_reserved":false,"is_disabled":false,"rental_uris":{"android":"levelo://app?vid=37244ceb-f46a-4f7e-a58c-443ff14c31a6","ios":"levelo://app?vid=37244ceb-f46a-4f7e-a58c-443ff14c31a6"},"vehicle_type_id":"4","last_reported":1777329568,"current_range_meters":7200,"station_id":"ce4bhgh2rcd13ifvqfb0","pricing_plan_id":"cebpf4jnsgd1na2vs0mg"},{"bike_id":"64633d88-7e11-4956-bb07-afe41f84a160","system_id":"levelo_inurba_marseille","lat":43.31141,"lon":5.37734,"is_reserved":false,"is_disabled":false,"rental_uris":{"android":"levelo://app?vid=64633d88-7e11-4956-bb07-afe41f84a160","ios":"levelo://app?vid=64633d88-7e11-4956-bb07-afe41f84a160"},"vehicle_type_id":"4","last_reported":1777329568,"current_range_meters":7200,"station_id":"ce4bgt92rcd13ifvqcg0","pricing_plan_id":"cebpf4jnsgd1na2vs0mg"},{"bike_id":"336f5cbc-6c28-4ddb-88c7-6ffc052d9724","system_id":"levelo_inurba_marseille","lat":43.31722,"lon":5.42399,"is_reserved":false,"is_disabled":false,"rental_uris":{"android":"levelo://app?vid=336f5cbc-6c28-4ddb-88c7-6ffc052d9724","ios":"levelo://app?vid=336f5cbc-6c28-4ddb-88c7-6ffc052d9724"},"vehicle_type_id":"4","last_reported":1777329568,"current_range_meters":7200,"station_id":"ce4bhp92rcd13ifvqhbg","pricing_plan_id":"cebpf4jnsgd1na2vs0mg"},{"bike_id":"ba620f84-46cc-4f3a-aef3-014ddc408667","system_id":"levelo_inurba_marseille","lat":43.30893,"lon":5.3962,"is_reserved":false,"is_disabled":false,"rental_uris":{"android":"levelo://app?vid=ba620f84-46cc-4f3a-aef3-014ddc408667","ios":"levelo://app?vid=ba620f84-46cc-4f3a-aef3-014ddc408667"},"vehicle_type_id":"4","last_reported":1777329568,"current_range_meters":7200,"station_id":"ce4bh012rcd13ifvqcv0","pricing_plan_id":"cebpf4jnsgd1na2vs0mg"},{"bike_id":"dfd285f1-0a48-44f6-b0d7-8286d4981c32","system_id":"levelo_inurba_marseille","lat":43.25337,"lon":5.42152,"is_reserved":false,"is_disabled":false,"rental_uris":{"android":"levelo://app?vid=dfd285f1-0a48-44f6-b0d7-8286d4981c32","ios":"levelo://app?vid=dfd285f1-0a48-44f6-b0d7-8286d4981c32"},"vehicle_type_id":"4","last_reported":1777329568,"current_range_meters":7200,"station_id":"st_d2m65c5bi1j21697t3ng","pricing_plan_id":"cebpf4jnsgd1na2vs0mg"},{"bike_id":"b4d9b492-c746-46ed-bddf-343e9b749f81","system_id":"levelo_inurba_marseille","lat":43.33714,"lon":5.36917,"is_reserved":false,"is_disabled":true,"rental_uris":{"android":"levelo://app?vid=b4d9b492-c746-46ed-bddf-343e9b749f81","ios":"levelo://app?vid=b4d9b492-c746-46ed-bddf-343e9b749f81"},"vehicle_type_id":"4","last_reported":1777329568,"current_range_meters":7200,"station_id":"","pricing_plan_id":"cebpf4jnsgd1na2vs0mg"},{"bike_id":"1b777b2a-868b-41f8-a934-5ffefe1d9742","system_id":"levelo_inurba_marseille","lat":43.2807,"lon":5.39638,"is_reserved":false,"is_disabled":false,"rental_uris":{"android":"levelo://app?vid=1b777b2a-868b-41f8-a934-5ffefe1d9742","ios":"levelo://app?vid=1b777b2a-868b-41f8-a934-5ffefe1d9742"},"vehicle_type_id":"4","last_reported":1777329568,"current_range_meters":7200,"station_id":"ce4bho12rcd13ifvqh2g","pricing_plan_id":"cebpf4jnsgd1na2vs0mg"},{"bike_id":"1d51c702-75ba-494d-89c9-6b8c4379e860","system_id":"levelo_inurba_marseille","lat":43.31199,"lon":5.37796,"is_reserved":false,"is_disabled":false,"rental_uris":{"android":"levelo://app?vid=1d51c702-75ba-494d-89c9-6b8c4379e860","ios":"levelo://app?vid=1d51c702-75ba-494d-89c9-6b8c4379e860"},"vehicle_type_id":"4","last_reported":1777329568,"current_range_meters":7200,"station_id":"","pricing_plan_id":"cebpf4jnsgd1na2vs0mg"},{"bike_id":"30bbf904-fe93-4f57-a563-817621f396a4","system_id":"levelo_inurba_marseille","lat":43.28113,"lon":5.37836,"is_reserved":false,"is_disabled":false,"rental_uris":{"android":"levelo://app?vid=30bbf904-fe93-4f57-a563-817621f396a4","ios":"levelo://app?vid=30bbf904-fe93-4f57-a563-817621f396a4"},"vehicle_type_id":"4","last_reported":1777329568,"current_range_meters":7200,"station_id":"ce4bha12rcd13ifvqee0","pricing_plan_id":"cebpf4jnsgd1na2vs0mg"},{"bike_id":"857afe8d-0afc-4ff7-bb19-627f3197cacc","system_id":"levelo_inurba_marseille","lat":43.26554,"lon":5.37303,"is_reserved":false,"is_disabled":false,"rental_uris":{"android":"levelo://app?vid=857afe8d-0afc-4ff7-bb19-627f3197cacc","ios":"levelo://app?vid=857afe8d-0afc-4ff7-bb19-627f3197cacc"},"vehicle_type_id":"4","last_reported":1777329568,"current_range_meters":8000,"station_id":"ce4bhg12rcd13ifvqf70","pricing_plan_id":"cebpf4jnsgd1na2vs0mg"},{"bike_id":"f447fec5-f118-42c2-be2c-8ef32b6d20a2","system_id":"levelo_inurba_marseille","lat":43.25963,"lon":5.41685,"is_reserved":false,"is_disabled":false,"rental_uris":{"android":"levelo://app?vid=f447fec5-f118-42c2-be2c-8ef32b6d20a2","ios":"levelo://app?vid=f447fec5-f118-42c2-be2c-8ef32b6d20a2"},"vehicle_type_id":"4","last_reported":1777329568,"current_range_meters":8000,"station_id":"","pricing_plan_id":"cebpf4jnsgd1na2vs0mg"},{"bike_id":"8ac0bd5f-2f2a-4833-ada5-2e9beded5ddb","system_id":"levelo_inurba_marseille","lat":43.31503,"lon":5.39136,"is_reserved":false,"is_disabled":false,"rental_uris":{"android":"levelo://app?vid=8ac0bd5f-2f2a-4833-ada5-2e9beded5ddb","ios":"levelo://app?vid=8ac0bd5f-2f2a-4833-ada5-2e9beded5ddb"},"vehicle_type_id":"4","last_reported":1777329568,"current_range_meters":8000,"station_id":"","pricing_plan_id":"cebpf4jnsgd1na2vs0mg"},{"bike_id":"16d472fe-eb19-4acc-8aa8-94088ad37de6","system_id":"levelo_inurba_marseille","lat":43.35202,"lon":5.36392,"is_reserved":false,"is_disabled":false,"rental_uris":{"android":"levelo://app?vid=16d472fe-eb19-4acc-8aa8-94088ad37de6","ios":"levelo://app?vid=16d472fe-eb19-4acc-8aa8-94088ad37de6"},"vehicle_type_id":"4","last_reported":1777329568,"current_range_meters":8000,"station_id":"","pricing_plan_id":"cebpf4jnsgd1na2vs0mg"},{"bike_id":"e5cd69c7-9379-4379-93b8-62cf25a54177","system_id":"levelo_inurba_marseille","lat":43.337497,"lon":5.374492,"is_reserved":false,"is_disabled":false,"rental_uris":{"android":"levelo://app?vid=e5cd69c7-9379-4379-93b8-62cf25a54177","ios":"levelo://app?vid=e5cd69c7-9379-4379-93b8-62cf25a54177"},"vehicle_type_id":"4","last_reported":1777329568,"current_range_meters":8000,"station_id":"","pricing_plan_id":"cebpf4jnsgd1na2vs0mg"},{"bike_id":"9f9ab910-a023-4363-9524-c19e2f166cf1","system_id":"levelo_inurba_marseille","lat":43.31981,"lon":5.3813,"is_reserved":false,"is_disabled":false,"rental_uris":{"android":"levelo://app?vid=9f9ab910-a023-4363-9524-c19e2f166cf1","ios":"levelo://app?vid=9f9ab910-a023-4363-9524-c19e2f166cf1"},"vehicle_type_id":"4","last_reported":1777329568,"current_range_meters":8000,"station_id":"ce4bhr12rcd13ifvqhpg","pricing_plan_id":"cebpf4jnsgd1na2vs0mg"},{"bike_id":"e993cba1-46e4-4461-855f-3f2092ae4ac8","system_id":"levelo_inurba_marseille","lat":43.28412,"lon":5.34988,"is_reserved":false,"is_disabled":true,"rental_uris":{"android":"levelo://app?vid=e993cba1-46e4-4461-855f-3f2092ae4ac8","ios":"levelo://app?vid=e993cba1-46e4-4461-855f-3f2092ae4ac8"},"vehicle_type_id":"4","last_reported":1777329568,"current_range_meters":8000,"station_id":"ce4bhbh2rcd13ifvqepg","pricing_plan_id":"cebpf4jnsgd1na2vs0mg"},{"bike_id":"4d06cad1-2e4a-4159-99f3-38d6bcb9cc90","system_id":"levelo_inurba_marseille","lat":43.23204,"lon":5.35541,"is_reserved":false,"is_disabled":false,"rental_uris":{"android":"levelo://app?vid=4d06cad1-2e4a-4159-99f3-38d6bcb9cc90","ios":"levelo://app?vid=4d06cad1-2e4a-4159-99f3-38d6bcb9cc90"},"vehicle_type_id":"4","last_reported":1777329568,"current_range_meters":8000,"station_id":"ce4bhu92rcd13ifvqi70","pricing_plan_id":"cebpf4jnsgd1na2vs0mg"},{"bike_id":"369ccb57-d03b-41f4-a2b8-8a53088742e0","system_id":"levelo_inurba_marseille","lat":43.298,"lon":5.39308,"is_reserved":false,"is_disabled":false,"rental_uris":{"android":"levelo://app?vid=369ccb57-d03b-41f4-a2b8-8a53088742e0","ios":"levelo://app?vid=369ccb57-d03b-41f4-a2b8-8a53088742e0"},"vehicle_type_id":"4","last_reported":1777329568,"current_range_meters":8000,"station_id":"chh1huq6cuj3fo74tm60","pricing_plan_id":"cebpf4jnsgd1na2vs0mg"},{"bike_id":"a7ef47ae-ac7a-4811-8371-2ebdbd6eea38","system_id":"levelo_inurba_marseille","lat":43.21739,"lon":5.34587,"is_reserved":false,"is_disabled":false,"rental_uris":{"android":"levelo://app?vid=a7ef47ae-ac7a-4811-8371-2ebdbd6eea38","ios":"levelo://app?vid=a7ef47ae-ac7a-4811-8371-2ebdbd6eea38"},"vehicle_type_id":"4","last_reported":1777329568,"current_range_meters":8000,"station_id":"st_cvj6r9ubvosntc0bgbag","pricing_plan_id":"cebpf4jnsgd1na2vs0mg"},{"bike_id":"d14de05e-8665-4c3d-949e-102c763303bf","system_id":"levelo_inurba_marseille","lat":43.28616,"lon":5.37062,"is_reserved":false,"is_disabled":false,"rental_uris":{"android":"levelo://app?vid=d14de05e-8665-4c3d-949e-102c763303bf","ios":"levelo://app?vid=d14de05e-8665-4c3d-949e-102c763303bf"},"vehicle_type_id":"4","last_reported":1777329568,"current_range_meters":8000,"station_id":"ce4bht12rcd13ifvqi60","pricing_plan_id":"cebpf4jnsgd1na2vs0mg"},{"bike_id":"d0633771-e198-482e-aee8-099fb72776d5","system_id":"levelo_inurba_marseille","lat":43.23206,"lon":5.40031,"is_reserved":false,"is_disabled":true,"rental_uris":{"android":"levelo://app?vid=d0633771-e198-482e-aee8-099fb72776d5","ios":"levelo://app?vid=d0633771-e198-482e-aee8-099fb72776d5"},"vehicle_type_id":"4","last_reported":1777329568,"current_range_meters":8000,"station_id":"ce4bhn12rcd13ifvqgqg","pricing_plan_id":"cebpf4jnsgd1na2vs0mg"},{"bike_id":"9ce63d40-6d31-4810-9d08-18099d265915","system_id":"levelo_inurba_marseille","lat":43.30135,"lon":5.39882,"is_reserved":false,"is_disabled":false,"rental_uris":{"android":"levelo://app?vid=9ce63d40-6d31-4810-9d08-18099d265915","ios":"levelo://app?vid=9ce63d40-6d31-4810-9d08-18099d265915"},"vehicle_type_id":"4","last_reported":1777329568,"current_range_meters":8000,"station_id":"ce4bh0h2rcd13ifvqd40","pricing_plan_id":"cebpf4jnsgd1na2vs0mg"},{"bike_id":"486a6bd7-6877-47a7-872d-b6d92138ce35","system_id":"levelo_inurba_marseille","lat":43.28185,"lon":5.42609,"is_reserved":false,"is_disabled":false,"rental_uris":{"android":"levelo://app?vid=486a6bd7-6877-47a7-872d-b6d92138ce35","ios":"levelo://app?vid=486a6bd7-6877-47a7-872d-b6d92138ce35"},"vehicle_type_id":"4","last_reported":1777329568,"current_range_meters":8000,"station_id":"ce4bhnh2rcd13ifvqgug","pricing_plan_id":"cebpf4jnsgd1na2vs0mg"},{"bike_id":"f68f1035-28b2-4d29-bb46-2eba59d9dd05","system_id":"levelo_inurba_marseille","lat":43.29044,"lon":5.35883,"is_reserved":false,"is_disabled":false,"rental_uris":{"android":"levelo://app?vid=f68f1035-28b2-4d29-bb46-2eba59d9dd05","ios":"levelo://app?vid=f68f1035-28b2-4d29-bb46-2eba59d9dd05"},"vehicle_type_id":"4","last_reported":1777329568,"current_range_meters":8000,"station_id":"ce4bha92rcd13ifvqeg0","pricing_plan_id":"cebpf4jnsgd1na2vs0mg"},{"bike_id":"ccc93f81-d267-42e7-aeed-99231751eaf2","system_id":"levelo_inurba_marseille","lat":43.29934,"lon":5.36538,"is_reserved":false,"is_disabled":false,"rental_uris":{"android":"levelo://app?vid=ccc93f81-d267-42e7-aeed-99231751eaf2","ios":"levelo://app?vid=ccc93f81-d267-42e7-aeed-99231751eaf2"},"vehicle_type_id":"4","last_reported":1777329568,"current_range_meters":8000,"station_id":"ce4bgm92rcd13ifvqbr0","pricing_plan_id":"cebpf4jnsgd1na2vs0mg"},{"bike_id":"dc4f256b-dad1-4b0e-b0aa-70815278bacb","system_id":"levelo_inurba_marseille","lat":43.28967,"lon":5.39318,"is_reserved":false,"is_disabled":false,"rental_uris":{"android":"levelo://app?vid=dc4f256b-dad1-4b0e-b0aa-70815278bacb","ios":"levelo://app?vid=dc4f256b-dad1-4b0e-b0aa-70815278bacb"},"vehicle_type_id":"4","last_reported":1777329568,"current_range_meters":8000,"station_id":"","pricing_plan_id":"cebpf4jnsgd1na2vs0mg"},{"bike_id":"9f543810-4dfb-4951-9c10-acd2d2940820","system_id":"levelo_inurba_marseille","lat":43.28574,"lon":5.39496,"is_reserved":false,"is_disabled":true,"rental_uris":{"android":"levelo://app?vid=9f543810-4dfb-4951-9c10-acd2d2940820","ios":"levelo://app?vid=9f543810-4dfb-4951-9c10-acd2d2940820"},"vehicle_type_id":"4","last_reported":1777329568,"current_range_meters":8000,"station_id":"ce4bh292rcd13ifvqdg0","pricing_plan_id":"cebpf4jnsgd1na2vs0mg"},{"bike_id":"52773601-2a24-4a86-9c82-463ed16cf75e","system_id":"levelo_inurba_marseille","lat":43.26229,"lon":5.38769,"is_reserved":false,"is_disabled":false,"rental_uris":{"android":"levelo://app?vid=52773601-2a24-4a86-9c82-463ed16cf75e","ios":"levelo://app?vid=52773601-2a24-4a86-9c82-463ed16cf75e"},"vehicle_type_id":"4","last_reported":1777329568,"current_range_meters":8000,"station_id":"","pricing_plan_id":"cebpf4jnsgd1na2vs0mg"},{"bike_id":"5966df63-83c6-4f34-ae95-a22fe39c03ab","system_id":"levelo_inurba_marseille","lat":43.26573,"lon":5.38983,"is_reserved":false,"is_disabled":true,"rental_uris":{"android":"levelo://app?vid=5966df63-83c6-4f34-ae95-a22fe39c03ab","ios":"levelo://app?vid=5966df63-83c6-4f34-ae95-a22fe39c03ab"},"vehicle_type_id":"4","last_reported":1777329568,"current_range_meters":8000,"station_id":"ce4bhe12rcd13ifvqf30","pricing_plan_id":"cebpf4jnsgd1na2vs0mg"},{"bike_id":"647c318a-9d6f-4d4d-954d-250588901504","system_id":"levelo_inurba_marseille","lat":43.28966,"lon":5.36386,"is_reserved":false,"is_disabled":false,"rental_uris":{"android":"levelo://app?vid=647c318a-9d6f-4d4d-954d-250588901504","ios":"levelo://app?vid=647c318a-9d6f-4d4d-954d-250588901504"},"vehicle_type_id":"4","last_reported":1777329568,"current_range_meters":8000,"station_id":"ce4bhc92rcd13ifvqetg","pricing_plan_id":"cebpf4jnsgd1na2vs0mg"},{"bike_id":"272adfe1-16c9-4d3d-bb04-2ed96330910c","system_id":"levelo_inurba_marseille","lat":43.28864,"lon":5.39309,"is_reserved":false,"is_disabled":false,"rental_uris":{"android":"levelo://app?vid=272adfe1-16c9-4d3d-bb04-2ed96330910c","ios":"levelo://app?vid=272adfe1-16c9-4d3d-bb04-2ed96330910c"},"vehicle_type_id":"4","last_reported":1777329568,"current_range_meters":8000,"station_id":"ce4bh2p2rcd13ifvqdi0","pricing_plan_id":"cebpf4jnsgd1na2vs0mg"},{"bike_id":"dc448c65-e602-41a5-9c4d-2affcc9188fb","system_id":"levelo_inurba_marseille","lat":43.2928,"lon":5.40121,"is_reserved":false,"is_disabled":false,"rental_uris":{"android":"levelo://app?vid=dc448c65-e602-41a5-9c4d-2affcc9188fb","ios":"levelo://app?vid=dc448c65-e602-41a5-9c4d-2affcc9188fb"},"vehicle_type_id":"4","last_reported":1777329568,"current_range_meters":8000,"station_id":"ce4bh312rcd13ifvqdk0","pricing_plan_id":"cebpf4jnsgd1na2vs0mg"},{"bike_id":"c04c42cf-36a4-4a3c-b656-dde2fe1bae7e","system_id":"levelo_inurba_marseille","lat":43.28574,"lon":5.40268,"is_reserved":false,"is_disabled":false,"rental_uris":{"android":"levelo://app?vid=c04c42cf-36a4-4a3c-b656-dde2fe1bae7e","ios":"levelo://app?vid=c04c42cf-36a4-4a3c-b656-dde2fe1bae7e"},"vehicle_type_id":"4","last_reported":1777329568,"current_range_meters":8000,"station_id":"","pricing_plan_id":"cebpf4jnsgd1na2vs0mg"},{"bike_id":"baa55d1a-8e1e-46c2-9459-c2953120d083","system_id":"levelo_inurba_marseille","lat":43.28417,"lon":5.34961,"is_reserved":false,"is_disabled":false,"rental_uris":{"android":"levelo://app?vid=baa55d1a-8e1e-46c2-9459-c2953120d083","ios":"levelo://app?vid=baa55d1a-8e1e-46c2-9459-c2953120d083"},"vehicle_type_id":"4","last_reported":1777329568,"current_range_meters":8400,"station_id":"ce4bhbh2rcd13ifvqepg","pricing_plan_id":"cebpf4jnsgd1na2vs0mg"},{"bike_id":"3462feaa-c9a2-441c-b3a1-f70058c367e6","system_id":"levelo_inurba_marseille","lat":43.24394,"lon":5.37065,"is_reserved":false,"is_disabled":false,"rental_uris":{"android":"levelo://app?vid=3462feaa-c9a2-441c-b3a1-f70058c367e6","ios":"levelo://app?vid=3462feaa-c9a2-441c-b3a1-f70058c367e6"},"vehicle_type_id":"4","last_reported":1777329568,"current_range_meters":8400,"station_id":"ce4bhhh2rcd13ifvqfk0","pricing_plan_id":"cebpf4jnsgd1na2vs0mg"},{"bike_id":"f813821a-ce52-40b8-a9c3-302d9351356b","system_id":"levelo_inurba_marseille","lat":43.25797,"lon":5.38857,"is_reserved":false,"is_disabled":true,"rental_uris":{"android":"levelo://app?vid=f813821a-ce52-40b8-a9c3-302d9351356b","ios":"levelo://app?vid=f813821a-ce52-40b8-a9c3-302d9351356b"},"vehicle_type_id":"4","last_reported":1777329568,"current_range_meters":8400,"station_id":"","pricing_plan_id":"cebpf4jnsgd1na2vs0mg"},{"bike_id":"906bb9fa-4cee-445f-bfb8-ea0d07cc33ac","system_id":"levelo_inurba_marseille","lat":43.2836,"lon":5.38095,"is_reserved":false,"is_disabled":false,"rental_uris":{"android":"levelo://app?vid=906bb9fa-4cee-445f-bfb8-ea0d07cc33ac","ios":"levelo://app?vid=906bb9fa-4cee-445f-bfb8-ea0d07cc33ac"},"vehicle_type_id":"4","last_reported":1777329568,"current_range_meters":8400,"station_id":"ce4bh412rcd13ifvqdr0","pricing_plan_id":"cebpf4jnsgd1na2vs0mg"},{"bike_id":"0d4dfb01-63c5-4be7-bdb0-5163c6b2578c","system_id":"levelo_inurba_marseille","lat":43.31899,"lon":5.36799,"is_reserved":false,"is_disabled":false,"rental_uris":{"android":"levelo://app?vid=0d4dfb01-63c5-4be7-bdb0-5163c6b2578c","ios":"levelo://app?vid=0d4dfb01-63c5-4be7-bdb0-5163c6b2578c"},"vehicle_type_id":"4","last_reported":1777329568,"current_range_meters":8400,"station_id":"st_d6o2h0d0559c73evc1b0","pricing_plan_id":"cebpf4jnsgd1na2vs0mg"},{"bike_id":"f34173ba-e522-42fc-89f1-ad871c6b29c4","system_id":"levelo_inurba_marseille","lat":43.29479,"lon":5.43302,"is_reserved":false,"is_disabled":false,"rental_uris":{"android":"levelo://app?vid=f34173ba-e522-42fc-89f1-ad871c6b29c4","ios":"levelo://app?vid=f34173ba-e522-42fc-89f1-ad871c6b29c4"},"vehicle_type_id":"4","last_reported":1777329568,"current_range_meters":8400,"station_id":"st_d3j5ugp08ojc73fj9d10","pricing_plan_id":"cebpf4jnsgd1na2vs0mg"},{"bike_id":"e593377f-0b04-468e-be39-461905e9f322","system_id":"levelo_inurba_marseille","lat":43.24644,"lon":5.3889,"is_reserved":false,"is_disabled":false,"rental_uris":{"android":"levelo://app?vid=e593377f-0b04-468e-be39-461905e9f322","ios":"levelo://app?vid=e593377f-0b04-468e-be39-461905e9f322"},"vehicle_type_id":"4","last_reported":1777329568,"current_range_meters":8400,"station_id":"ce4bhg12rcd13ifvqf60","pricing_plan_id":"cebpf4jnsgd1na2vs0mg"},{"bike_id":"46aaf4f9-b338-4fcb-84f1-722ce76dcda0","system_id":"levelo_inurba_marseille","lat":43.32565,"lon":5.41444,"is_reserved":false,"is_disabled":false,"rental_uris":{"android":"levelo://app?vid=46aaf4f9-b338-4fcb-84f1-722ce76dcda0","ios":"levelo://app?vid=46aaf4f9-b338-4fcb-84f1-722ce76dcda0"},"vehicle_type_id":"4","last_reported":1777329568,"current_range_meters":8400,"station_id":"ce4bhq12rcd13ifvqhhg","pricing_plan_id":"cebpf4jnsgd1na2vs0mg"},{"bike_id":"b5088cd7-5e45-457a-ae9f-32446d67355c","system_id":"levelo_inurba_marseille","lat":43.32373,"lon":5.36933,"is_reserved":false,"is_disabled":false,"rental_uris":{"android":"levelo://app?vid=b5088cd7-5e45-457a-ae9f-32446d67355c","ios":"levelo://app?vid=b5088cd7-5e45-457a-ae9f-32446d67355c"},"vehicle_type_id":"4","last_reported":1777329568,"current_range_meters":8400,"station_id":"","pricing_plan_id":"cebpf4jnsgd1na2vs0mg"},{"bike_id":"74929e98-c2e0-43cc-b447-0901251d01cb","system_id":"levelo_inurba_marseille","lat":43.2549,"lon":5.37677,"is_reserved":false,"is_disabled":false,"rental_uris":{"android":"levelo://app?vid=74929e98-c2e0-43cc-b447-0901251d01cb","ios":"levelo://app?vid=74929e98-c2e0-43cc-b447-0901251d01cb"},"vehicle_type_id":"4","last_reported":1777329568,"current_range_meters":8400,"station_id":"ce4bhh12rcd13ifvqff0","pricing_plan_id":"cebpf4jnsgd1na2vs0mg"},{"bike_id":"d2276d1c-4dd8-4805-b674-72347073e05f","system_id":"levelo_inurba_marseille","lat":43.28887,"lon":5.4253,"is_reserved":false,"is_disabled":false,"rental_uris":{"android":"levelo://app?vid=d2276d1c-4dd8-4805-b674-72347073e05f","ios":"levelo://app?vid=d2276d1c-4dd8-4805-b674-72347073e05f"},"vehicle_type_id":"4","last_reported":1777329568,"current_range_meters":8400,"station_id":"st_d3b462108ojc7389ooeg","pricing_plan_id":"cebpf4jnsgd1na2vs0mg"},{"bike_id":"e9e489ed-5efb-43d0-ac34-79efe72d0544","system_id":"levelo_inurba_marseille","lat":43.29269,"lon":5.38433,"is_reserved":false,"is_disabled":false,"rental_uris":{"android":"levelo://app?vid=e9e489ed-5efb-43d0-ac34-79efe72d0544","ios":"levelo://app?vid=e9e489ed-5efb-43d0-ac34-79efe72d0544"},"vehicle_type_id":"4","last_reported":1777329568,"current_range_meters":8400,"station_id":"ce4bh692rcd13ifvqea0","pricing_plan_id":"cebpf4jnsgd1na2vs0mg"},{"bike_id":"f9f92c5c-5f51-4e1c-a4a4-da02d7396e3a","system_id":"levelo_inurba_marseille","lat":43.21744,"lon":5.34608,"is_reserved":false,"is_disabled":false,"rental_uris":{"android":"levelo://app?vid=f9f92c5c-5f51-4e1c-a4a4-da02d7396e3a","ios":"levelo://app?vid=f9f92c5c-5f51-4e1c-a4a4-da02d7396e3a"},"vehicle_type_id":"4","last_reported":1777329568,"current_range_meters":8400,"station_id":"st_cvj6r9ubvosntc0bgbag","pricing_plan_id":"cebpf4jnsgd1na2vs0mg"},{"bike_id":"2b2662f1-d28b-44f2-b2c8-61c6569e4c3d","system_id":"levelo_inurba_marseille","lat":43.29275,"lon":5.4013,"is_reserved":false,"is_disabled":true,"rental_uris":{"android":"levelo://app?vid=2b2662f1-d28b-44f2-b2c8-61c6569e4c3d","ios":"levelo://app?vid=2b2662f1-d28b-44f2-b2c8-61c6569e4c3d"},"vehicle_type_id":"4","last_reported":1777329568,"current_range_meters":8400,"station_id":"ce4bh312rcd13ifvqdk0","pricing_plan_id":"cebpf4jnsgd1na2vs0mg"},{"bike_id":"3109b0e0-cfd8-4009-92c0-9fa7911dfae1","system_id":"levelo_inurba_marseille","lat":43.31316,"lon":5.39688,"is_reserved":false,"is_disabled":false,"rental_uris":{"android":"levelo://app?vid=3109b0e0-cfd8-4009-92c0-9fa7911dfae1","ios":"levelo://app?vid=3109b0e0-cfd8-4009-92c0-9fa7911dfae1"},"vehicle_type_id":"4","last_reported":1777329568,"current_range_meters":8400,"station_id":"ce4bgvp2rcd13ifvqcu0","pricing_plan_id":"cebpf4jnsgd1na2vs0mg"},{"bike_id":"c5eb2544-6363-4bb7-8f1a-002e9224c711","system_id":"levelo_inurba_marseille","lat":43.31166,"lon":5.38678,"is_reserved":false,"is_disabled":false,"rental_uris":{"android":"levelo://app?vid=c5eb2544-6363-4bb7-8f1a-002e9224c711","ios":"levelo://app?vid=c5eb2544-6363-4bb7-8f1a-002e9224c711"},"vehicle_type_id":"4","last_reported":1777329568,"current_range_meters":8400,"station_id":"ce4bgv12rcd13ifvqcp0","pricing_plan_id":"cebpf4jnsgd1na2vs0mg"},{"bike_id":"1313d3cc-feb5-4a48-99b3-cb4d7635e1e9","system_id":"levelo_inurba_marseille","lat":43.32579,"lon":5.3806,"is_reserved":false,"is_disabled":false,"rental_uris":{"android":"levelo://app?vid=1313d3cc-feb5-4a48-99b3-cb4d7635e1e9","ios":"levelo://app?vid=1313d3cc-feb5-4a48-99b3-cb4d7635e1e9"},"vehicle_type_id":"4","last_reported":1777329568,"current_range_meters":8400,"station_id":"","pricing_plan_id":"cebpf4jnsgd1na2vs0mg"},{"bike_id":"f7cd50ab-86b6-4ec0-a44d-57bbb6fb2471","system_id":"levelo_inurba_marseille","lat":43.28849,"lon":5.39352,"is_reserved":false,"is_disabled":false,"rental_uris":{"android":"levelo://app?vid=f7cd50ab-86b6-4ec0-a44d-57bbb6fb2471","ios":"levelo://app?vid=f7cd50ab-86b6-4ec0-a44d-57bbb6fb2471"},"vehicle_type_id":"4","last_reported":1777329568,"current_range_meters":8400,"station_id":"ce4bh2p2rcd13ifvqdi0","pricing_plan_id":"cebpf4jnsgd1na2vs0mg"},{"bike_id":"9daae5fc-029a-4575-8080-71abfd7ee94e","system_id":"levelo_inurba_marseille","lat":43.21193,"lon":5.35076,"is_reserved":false,"is_disabled":false,"rental_uris":{"android":"levelo://app?vid=9daae5fc-029a-4575-8080-71abfd7ee94e","ios":"levelo://app?vid=9daae5fc-029a-4575-8080-71abfd7ee94e"},"vehicle_type_id":"4","last_reported":1777329568,"current_range_meters":8400,"station_id":"st_cvj6sg6p6f1abm77japg","pricing_plan_id":"cebpf4jnsgd1na2vs0mg"},{"bike_id":"99509319-e197-4965-9aea-685b4beb5cf9","system_id":"levelo_inurba_marseille","lat":43.27923,"lon":5.39583,"is_reserved":false,"is_disabled":false,"rental_uris":{"android":"levelo://app?vid=99509319-e197-4965-9aea-685b4beb5cf9","ios":"levelo://app?vid=99509319-e197-4965-9aea-685b4beb5cf9"},"vehicle_type_id":"4","last_reported":1777329568,"current_range_meters":8400,"station_id":"ce4bhf92rcd13ifvqf40","pricing_plan_id":"cebpf4jnsgd1na2vs0mg"},{"bike_id":"24a8bbd8-14c9-4f18-8e3a-66cf13da1d52","system_id":"levelo_inurba_marseille","lat":43.2875,"lon":5.36064,"is_reserved":false,"is_disabled":false,"rental_uris":{"android":"levelo://app?vid=24a8bbd8-14c9-4f18-8e3a-66cf13da1d52","ios":"levelo://app?vid=24a8bbd8-14c9-4f18-8e3a-66cf13da1d52"},"vehicle_type_id":"4","last_reported":1777329568,"current_range_meters":8400,"station_id":"cki0cbj6b192h4jlfktg","pricing_plan_id":"cebpf4jnsgd1na2vs0mg"},{"bike_id":"53aa454e-4f31-4c1f-96b1-d63386a5fa5c","system_id":"levelo_inurba_marseille","lat":43.24813,"lon":5.37457,"is_reserved":false,"is_disabled":false,"rental_uris":{"android":"levelo://app?vid=53aa454e-4f31-4c1f-96b1-d63386a5fa5c","ios":"levelo://app?vid=53aa454e-4f31-4c1f-96b1-d63386a5fa5c"},"vehicle_type_id":"4","last_reported":1777329568,"current_range_meters":8400,"station_id":"ce4bhgh2rcd13ifvqfb0","pricing_plan_id":"cebpf4jnsgd1na2vs0mg"},{"bike_id":"48567729-a37d-43a5-be29-532eb15e1964","system_id":"levelo_inurba_marseille","lat":43.28951,"lon":5.3643,"is_reserved":false,"is_disabled":false,"rental_uris":{"android":"levelo://app?vid=48567729-a37d-43a5-be29-532eb15e1964","ios":"levelo://app?vid=48567729-a37d-43a5-be29-532eb15e1964"},"vehicle_type_id":"4","last_reported":1777329568,"current_range_meters":8400,"station_id":"ce4bhc92rcd13ifvqetg","pricing_plan_id":"cebpf4jnsgd1na2vs0mg"},{"bike_id":"a5c29ba6-9a3f-4a7f-8701-9a67e027726e","system_id":"levelo_inurba_marseille","lat":43.248,"lon":5.37457,"is_reserved":false,"is_disabled":false,"rental_uris":{"android":"levelo://app?vid=a5c29ba6-9a3f-4a7f-8701-9a67e027726e","ios":"levelo://app?vid=a5c29ba6-9a3f-4a7f-8701-9a67e027726e"},"vehicle_type_id":"4","last_reported":1777329568,"current_range_meters":8400,"station_id":"ce4bhgh2rcd13ifvqfb0","pricing_plan_id":"cebpf4jnsgd1na2vs0mg"},{"bike_id":"ca970bed-dff0-40b1-aa6e-d0db5b10d8ee","system_id":"levelo_inurba_marseille","lat":43.27403,"lon":5.39372,"is_reserved":false,"is_disabled":true,"rental_uris":{"android":"levelo://app?vid=ca970bed-dff0-40b1-aa6e-d0db5b10d8ee","ios":"levelo://app?vid=ca970bed-dff0-40b1-aa6e-d0db5b10d8ee"},"vehicle_type_id":"4","last_reported":1777329568,"current_range_meters":8800,"station_id":"ce4bhdp2rcd13ifvqf20","pricing_plan_id":"cebpf4jnsgd1na2vs0mg"},{"bike_id":"94ee6d81-bcf9-42d0-b1b9-f6174c047c11","system_id":"levelo_inurba_marseille","lat":43.2998,"lon":5.37187,"is_reserved":false,"is_disabled":false,"rental_uris":{"android":"levelo://app?vid=94ee6d81-bcf9-42d0-b1b9-f6174c047c11","ios":"levelo://app?vid=94ee6d81-bcf9-42d0-b1b9-f6174c047c11"},"vehicle_type_id":"4","last_reported":1777329568,"current_range_meters":8800,"station_id":"ce4bgr92rcd13ifvqc7g","pricing_plan_id":"cebpf4jnsgd1na2vs0mg"},{"bike_id":"2017126d-6ab2-4d28-96d4-0d25b064d9b4","system_id":"levelo_inurba_marseille","lat":43.25118,"lon":5.40319,"is_reserved":false,"is_disabled":false,"rental_uris":{"android":"levelo://app?vid=2017126d-6ab2-4d28-96d4-0d25b064d9b4","ios":"levelo://app?vid=2017126d-6ab2-4d28-96d4-0d25b064d9b4"},"vehicle_type_id":"4","last_reported":1777329568,"current_range_meters":8800,"station_id":"ce4bhlh2rcd13ifvqgig","pricing_plan_id":"cebpf4jnsgd1na2vs0mg"},{"bike_id":"e67acc8f-2ca9-403b-9a72-d3f8278b7623","system_id":"levelo_inurba_marseille","lat":43.24853,"lon":5.37434,"is_reserved":false,"is_disabled":false,"rental_uris":{"android":"levelo://app?vid=e67acc8f-2ca9-403b-9a72-d3f8278b7623","ios":"levelo://app?vid=e67acc8f-2ca9-403b-9a72-d3f8278b7623"},"vehicle_type_id":"4","last_reported":1777329568,"current_range_meters":8800,"station_id":"","pricing_plan_id":"cebpf4jnsgd1na2vs0mg"},{"bike_id":"fd22e8ad-f64d-443a-8458-84fef3c805b5","system_id":"levelo_inurba_marseille","lat":43.24808,"lon":5.37448,"is_reserved":false,"is_disabled":false,"rental_uris":{"android":"levelo://app?vid=fd22e8ad-f64d-443a-8458-84fef3c805b5","ios":"levelo://app?vid=fd22e8ad-f64d-443a-8458-84fef3c805b5"},"vehicle_type_id":"4","last_reported":1777329568,"current_range_meters":8800,"station_id":"ce4bhgh2rcd13ifvqfb0","pricing_plan_id":"cebpf4jnsgd1na2vs0mg"},{"bike_id":"9a54fe80-e9a9-443a-ac41-a45c15c4d1fd","system_id":"levelo_inurba_marseille","lat":43.30887,"lon":5.39628,"is_reserved":false,"is_disabled":true,"rental_uris":{"android":"levelo://app?vid=9a54fe80-e9a9-443a-ac41-a45c15c4d1fd","ios":"levelo://app?vid=9a54fe80-e9a9-443a-ac41-a45c15c4d1fd"},"vehicle_type_id":"4","last_reported":1777329568,"current_range_meters":8800,"station_id":"ce4bh012rcd13ifvqcv0","pricing_plan_id":"cebpf4jnsgd1na2vs0mg"},{"bike_id":"7691273e-33d0-40e7-9122-ebb011af1b54","system_id":"levelo_inurba_marseille","lat":43.24659,"lon":5.38137,"is_reserved":false,"is_disabled":false,"rental_uris":{"android":"levelo://app?vid=7691273e-33d0-40e7-9122-ebb011af1b54","ios":"levelo://app?vid=7691273e-33d0-40e7-9122-ebb011af1b54"},"vehicle_type_id":"4","last_reported":1777329568,"current_range_meters":8800,"station_id":"ce4bhih2rcd13ifvqfr0","pricing_plan_id":"cebpf4jnsgd1na2vs0mg"},{"bike_id":"626afedd-d732-4bc8-be6f-6408a29380b2","system_id":"levelo_inurba_marseille","lat":43.21195,"lon":5.35087,"is_reserved":false,"is_disabled":false,"rental_uris":{"android":"levelo://app?vid=626afedd-d732-4bc8-be6f-6408a29380b2","ios":"levelo://app?vid=626afedd-d732-4bc8-be6f-6408a29380b2"},"vehicle_type_id":"4","last_reported":1777329568,"current_range_meters":8800,"station_id":"st_cvj6sg6p6f1abm77japg","pricing_plan_id":"cebpf4jnsgd1na2vs0mg"},{"bike_id":"20f579e4-bb0c-44b0-8f96-d7af0d62c620","system_id":"levelo_inurba_marseille","lat":43.25089,"lon":5.39507,"is_reserved":false,"is_disabled":false,"rental_uris":{"android":"levelo://app?vid=20f579e4-bb0c-44b0-8f96-d7af0d62c620","ios":"levelo://app?vid=20f579e4-bb0c-44b0-8f96-d7af0d62c620"},"vehicle_type_id":"4","last_reported":1777329568,"current_range_meters":8800,"station_id":"ce4bhm12rcd13ifvqgkg","pricing_plan_id":"cebpf4jnsgd1na2vs0mg"},{"bike_id":"76907408-a8ff-4688-9cbf-66e48bb415e8","system_id":"levelo_inurba_marseille","lat":43.287,"lon":5.46682,"is_reserved":false,"is_disabled":false,"rental_uris":{"android":"levelo://app?vid=76907408-a8ff-4688-9cbf-66e48bb415e8","ios":"levelo://app?vid=76907408-a8ff-4688-9cbf-66e48bb415e8"},"vehicle_type_id":"4","last_reported":1777329568,"current_range_meters":8800,"station_id":"st_d6tc3vkotcvc738tfjhg","pricing_plan_id":"cebpf4jnsgd1na2vs0mg"},{"bike_id":"987eda33-b3ad-4fac-a63c-0e3ff496e921","system_id":"levelo_inurba_marseille","lat":43.32346,"lon":5.36739,"is_reserved":false,"is_disabled":false,"rental_uris":{"android":"levelo://app?vid=987eda33-b3ad-4fac-a63c-0e3ff496e921","ios":"levelo://app?vid=987eda33-b3ad-4fac-a63c-0e3ff496e921"},"vehicle_type_id":"4","last_reported":1777329568,"current_range_meters":8800,"station_id":"ce4bhsh2rcd13ifvqi2g","pricing_plan_id":"cebpf4jnsgd1na2vs0mg"},{"bike_id":"afde96ac-1493-4085-af72-e5da568a87fd","system_id":"levelo_inurba_marseille","lat":43.28479,"lon":5.48381,"is_reserved":false,"is_disabled":false,"rental_uris":{"android":"levelo://app?vid=afde96ac-1493-4085-af72-e5da568a87fd","ios":"levelo://app?vid=afde96ac-1493-4085-af72-e5da568a87fd"},"vehicle_type_id":"4","last_reported":1777329568,"current_range_meters":8800,"station_id":"st_d3svhcjqgbts73a3dn0g","pricing_plan_id":"cebpf4jnsgd1na2vs0mg"},{"bike_id":"f0139309-3da0-445b-ae20-7e213ec938ff","system_id":"levelo_inurba_marseille","lat":43.29061,"lon":5.35897,"is_reserved":false,"is_disabled":false,"rental_uris":{"android":"levelo://app?vid=f0139309-3da0-445b-ae20-7e213ec938ff","ios":"levelo://app?vid=f0139309-3da0-445b-ae20-7e213ec938ff"},"vehicle_type_id":"4","last_reported":1777329568,"current_range_meters":8800,"station_id":"ce4bha92rcd13ifvqeg0","pricing_plan_id":"cebpf4jnsgd1na2vs0mg"},{"bike_id":"c4118d6e-3609-4ae2-8c49-d5d7613597bc","system_id":"levelo_inurba_marseille","lat":43.24182,"lon":5.3639,"is_reserved":false,"is_disabled":false,"rental_uris":{"android":"levelo://app?vid=c4118d6e-3609-4ae2-8c49-d5d7613597bc","ios":"levelo://app?vid=c4118d6e-3609-4ae2-8c49-d5d7613597bc"},"vehicle_type_id":"4","last_reported":1777329568,"current_range_meters":8800,"station_id":"cpo36qri1sfpv3e86is0","pricing_plan_id":"cebpf4jnsgd1na2vs0mg"},{"bike_id":"20111a87-41c4-4eaf-9fe8-f7469b02a4e4","system_id":"levelo_inurba_marseille","lat":43.30119,"lon":5.43122,"is_reserved":false,"is_disabled":false,"rental_uris":{"android":"levelo://app?vid=20111a87-41c4-4eaf-9fe8-f7469b02a4e4","ios":"levelo://app?vid=20111a87-41c4-4eaf-9fe8-f7469b02a4e4"},"vehicle_type_id":"4","last_reported":1777329568,"current_range_meters":8800,"station_id":"st_d3js3co5814s73ftftug","pricing_plan_id":"cebpf4jnsgd1na2vs0mg"},{"bike_id":"6b4aa15b-259f-4e69-9c10-9ad064f7be7c","system_id":"levelo_inurba_marseille","lat":43.25589,"lon":5.38214,"is_reserved":false,"is_disabled":false,"rental_uris":{"android":"levelo://app?vid=6b4aa15b-259f-4e69-9c10-9ad064f7be7c","ios":"levelo://app?vid=6b4aa15b-259f-4e69-9c10-9ad064f7be7c"},"vehicle_type_id":"4","last_reported":1777329568,"current_range_meters":8800,"station_id":"ce4bhih2rcd13ifvqfs0","pricing_plan_id":"cebpf4jnsgd1na2vs0mg"},{"bike_id":"f5ac82a1-eeda-403a-8b8b-36b77199cda8","system_id":"levelo_inurba_marseille","lat":43.24983,"lon":5.39652,"is_reserved":false,"is_disabled":false,"rental_uris":{"android":"levelo://app?vid=f5ac82a1-eeda-403a-8b8b-36b77199cda8","ios":"levelo://app?vid=f5ac82a1-eeda-403a-8b8b-36b77199cda8"},"vehicle_type_id":"4","last_reported":1777329568,"current_range_meters":8800,"station_id":"","pricing_plan_id":"cebpf4jnsgd1na2vs0mg"},{"bike_id":"8b4e6bd3-1e82-4277-a45a-3a8abaa4e3ab","system_id":"levelo_inurba_marseille","lat":43.28486,"lon":5.48392,"is_reserved":false,"is_disabled":false,"rental_uris":{"android":"levelo://app?vid=8b4e6bd3-1e82-4277-a45a-3a8abaa4e3ab","ios":"levelo://app?vid=8b4e6bd3-1e82-4277-a45a-3a8abaa4e3ab"},"vehicle_type_id":"4","last_reported":1777329568,"current_range_meters":8800,"station_id":"","pricing_plan_id":"cebpf4jnsgd1na2vs0mg"},{"bike_id":"8336c23d-8601-4b9f-9210-861ea2d5b59b","system_id":"levelo_inurba_marseille","lat":43.29525,"lon":5.39033,"is_reserved":false,"is_disabled":false,"rental_uris":{"android":"levelo://app?vid=8336c23d-8601-4b9f-9210-861ea2d5b59b","ios":"levelo://app?vid=8336c23d-8601-4b9f-9210-861ea2d5b59b"},"vehicle_type_id":"4","last_reported":1777329568,"current_range_meters":8800,"station_id":"ce4bh3p2rcd13ifvqdp0","pricing_plan_id":"cebpf4jnsgd1na2vs0mg"},{"bike_id":"1d5c57ee-71b3-4f86-a533-dc692ae6e112","system_id":"levelo_inurba_marseille","lat":43.31363,"lon":5.38487,"is_reserved":false,"is_disabled":false,"rental_uris":{"android":"levelo://app?vid=1d5c57ee-71b3-4f86-a533-dc692ae6e112","ios":"levelo://app?vid=1d5c57ee-71b3-4f86-a533-dc692ae6e112"},"vehicle_type_id":"4","last_reported":1777329568,"current_range_meters":9200,"station_id":"ce4bgt92rcd13ifvqcf0","pricing_plan_id":"cebpf4jnsgd1na2vs0mg"},{"bike_id":"5099fcc8-f95e-4589-bb9a-71165fa185c1","system_id":"levelo_inurba_marseille","lat":43.28515,"lon":5.38543,"is_reserved":false,"is_disabled":false,"rental_uris":{"android":"levelo://app?vid=5099fcc8-f95e-4589-bb9a-71165fa185c1","ios":"levelo://app?vid=5099fcc8-f95e-4589-bb9a-71165fa185c1"},"vehicle_type_id":"4","last_reported":1777329568,"current_range_meters":9200,"station_id":"ce4bh8p2rcd13ifvqeb0","pricing_plan_id":"cebpf4jnsgd1na2vs0mg"},{"bike_id":"3c37dbd8-05d1-42e0-9359-7f79e94a3922","system_id":"levelo_inurba_marseille","lat":43.26228,"lon":5.40448,"is_reserved":false,"is_disabled":false,"rental_uris":{"android":"levelo://app?vid=3c37dbd8-05d1-42e0-9359-7f79e94a3922","ios":"levelo://app?vid=3c37dbd8-05d1-42e0-9359-7f79e94a3922"},"vehicle_type_id":"4","last_reported":1777329568,"current_range_meters":9200,"station_id":"ce4bhmh2rcd13ifvqgmg","pricing_plan_id":"cebpf4jnsgd1na2vs0mg"},{"bike_id":"f8e44a3c-c653-40ee-b87d-9af094d24fac","system_id":"levelo_inurba_marseille","lat":43.30821,"lon":5.39973,"is_reserved":false,"is_disabled":false,"rental_uris":{"android":"levelo://app?vid=f8e44a3c-c653-40ee-b87d-9af094d24fac","ios":"levelo://app?vid=f8e44a3c-c653-40ee-b87d-9af094d24fac"},"vehicle_type_id":"4","last_reported":1777329568,"current_range_meters":9200,"station_id":"","pricing_plan_id":"cebpf4jnsgd1na2vs0mg"},{"bike_id":"fd1cd0d2-0b61-48a7-b8ac-5a43e93d2eaa","system_id":"levelo_inurba_marseille","lat":43.30096,"lon":5.39077,"is_reserved":false,"is_disabled":false,"rental_uris":{"android":"levelo://app?vid=fd1cd0d2-0b61-48a7-b8ac-5a43e93d2eaa","ios":"levelo://app?vid=fd1cd0d2-0b61-48a7-b8ac-5a43e93d2eaa"},"vehicle_type_id":"4","last_reported":1777329568,"current_range_meters":9200,"station_id":"ce4bh192rcd13ifvqdb0","pricing_plan_id":"cebpf4jnsgd1na2vs0mg"},{"bike_id":"fb55a29e-fc68-4bb3-9b50-a2d7150b05aa","system_id":"levelo_inurba_marseille","lat":43.30644,"lon":5.401,"is_reserved":false,"is_disabled":false,"rental_uris":{"android":"levelo://app?vid=fb55a29e-fc68-4bb3-9b50-a2d7150b05aa","ios":"levelo://app?vid=fb55a29e-fc68-4bb3-9b50-a2d7150b05aa"},"vehicle_type_id":"4","last_reported":1777329568,"current_range_meters":9200,"station_id":"ce4bh112rcd13ifvqda0","pricing_plan_id":"cebpf4jnsgd1na2vs0mg"},{"bike_id":"60ae7bab-1a5c-4f05-9d31-31cb1f6608ec","system_id":"levelo_inurba_marseille","lat":43.2509,"lon":5.39516,"is_reserved":false,"is_disabled":false,"rental_uris":{"android":"levelo://app?vid=60ae7bab-1a5c-4f05-9d31-31cb1f6608ec","ios":"levelo://app?vid=60ae7bab-1a5c-4f05-9d31-31cb1f6608ec"},"vehicle_type_id":"4","last_reported":1777329568,"current_range_meters":9200,"station_id":"ce4bhm12rcd13ifvqgkg","pricing_plan_id":"cebpf4jnsgd1na2vs0mg"},{"bike_id":"dabc5e28-b9df-4b1a-affa-f2e365a8b45b","system_id":"levelo_inurba_marseille","lat":43.32107,"lon":5.36769,"is_reserved":false,"is_disabled":false,"rental_uris":{"android":"levelo://app?vid=dabc5e28-b9df-4b1a-affa-f2e365a8b45b","ios":"levelo://app?vid=dabc5e28-b9df-4b1a-affa-f2e365a8b45b"},"vehicle_type_id":"4","last_reported":1777329568,"current_range_meters":9200,"station_id":"ce4bhrh2rcd13ifvqhug","pricing_plan_id":"cebpf4jnsgd1na2vs0mg"},{"bike_id":"152f6ba7-28ae-4b6f-adfb-15349721d471","system_id":"levelo_inurba_marseille","lat":43.29188,"lon":5.39327,"is_reserved":false,"is_disabled":false,"rental_uris":{"android":"levelo://app?vid=152f6ba7-28ae-4b6f-adfb-15349721d471","ios":"levelo://app?vid=152f6ba7-28ae-4b6f-adfb-15349721d471"},"vehicle_type_id":"4","last_reported":1777329568,"current_range_meters":9200,"station_id":"ce4bh192rcd13ifvqdd0","pricing_plan_id":"cebpf4jnsgd1na2vs0mg"},{"bike_id":"d128858b-bebf-45c5-838d-de7a7a289000","system_id":"levelo_inurba_marseille","lat":43.29792,"lon":5.39335,"is_reserved":false,"is_disabled":false,"rental_uris":{"android":"levelo://app?vid=d128858b-bebf-45c5-838d-de7a7a289000","ios":"levelo://app?vid=d128858b-bebf-45c5-838d-de7a7a289000"},"vehicle_type_id":"4","last_reported":1777329568,"current_range_meters":9200,"station_id":"chh1huq6cuj3fo74tm60","pricing_plan_id":"cebpf4jnsgd1na2vs0mg"},{"bike_id":"ea0e9f70-3cf6-4747-81ce-1d670e663ee1","system_id":"levelo_inurba_marseille","lat":43.2957,"lon":5.3997,"is_reserved":false,"is_disabled":false,"rental_uris":{"android":"levelo://app?vid=ea0e9f70-3cf6-4747-81ce-1d670e663ee1","ios":"levelo://app?vid=ea0e9f70-3cf6-4747-81ce-1d670e663ee1"},"vehicle_type_id":"4","last_reported":1777329568,"current_range_meters":9200,"station_id":"ce4bh312rcd13ifvqdj0","pricing_plan_id":"cebpf4jnsgd1na2vs0mg"},{"bike_id":"94b1d427-102e-4c64-aa76-0c93e226150f","system_id":"levelo_inurba_marseille","lat":43.28474,"lon":5.48405,"is_reserved":false,"is_disabled":false,"rental_uris":{"android":"levelo://app?vid=94b1d427-102e-4c64-aa76-0c93e226150f","ios":"levelo://app?vid=94b1d427-102e-4c64-aa76-0c93e226150f"},"vehicle_type_id":"4","last_reported":1777329568,"current_range_meters":9200,"station_id":"st_d3svhcjqgbts73a3dn0g","pricing_plan_id":"cebpf4jnsgd1na2vs0mg"},{"bike_id":"7db19171-5729-4c67-91fd-7ba01dabc5cd","system_id":"levelo_inurba_marseille","lat":43.28709,"lon":5.37383,"is_reserved":false,"is_disabled":false,"rental_uris":{"android":"levelo://app?vid=7db19171-5729-4c67-91fd-7ba01dabc5cd","ios":"levelo://app?vid=7db19171-5729-4c67-91fd-7ba01dabc5cd"},"vehicle_type_id":"4","last_reported":1777329568,"current_range_meters":9200,"station_id":"ce4bh3p2rcd13ifvqdq0","pricing_plan_id":"cebpf4jnsgd1na2vs0mg"},{"bike_id":"81e52b6e-bff7-4875-a0d8-d533ea21c465","system_id":"levelo_inurba_marseille","lat":43.28156,"lon":5.42618,"is_reserved":false,"is_disabled":false,"rental_uris":{"android":"levelo://app?vid=81e52b6e-bff7-4875-a0d8-d533ea21c465","ios":"levelo://app?vid=81e52b6e-bff7-4875-a0d8-d533ea21c465"},"vehicle_type_id":"4","last_reported":1777329568,"current_range_meters":9200,"station_id":"ce4bhnh2rcd13ifvqgug","pricing_plan_id":"cebpf4jnsgd1na2vs0mg"},{"bike_id":"84b7cd77-f30f-4fac-b8ad-2b060a6cd19b","system_id":"levelo_inurba_marseille","lat":43.29909,"lon":5.39745,"is_reserved":false,"is_disabled":false,"rental_uris":{"android":"levelo://app?vid=84b7cd77-f30f-4fac-b8ad-2b060a6cd19b","ios":"levelo://app?vid=84b7cd77-f30f-4fac-b8ad-2b060a6cd19b"},"vehicle_type_id":"4","last_reported":1777329568,"current_range_meters":9200,"station_id":"ce4bh0h2rcd13ifvqd50","pricing_plan_id":"cebpf4jnsgd1na2vs0mg"},{"bike_id":"193da35d-fd36-4904-af23-eec7bb9c4e4b","system_id":"levelo_inurba_marseille","lat":43.28212,"lon":5.39044,"is_reserved":false,"is_disabled":false,"rental_uris":{"android":"levelo://app?vid=193da35d-fd36-4904-af23-eec7bb9c4e4b","ios":"levelo://app?vid=193da35d-fd36-4904-af23-eec7bb9c4e4b"},"vehicle_type_id":"4","last_reported":1777329568,"current_range_meters":9200,"station_id":"ce4bhn92rcd13ifvqgsg","pricing_plan_id":"cebpf4jnsgd1na2vs0mg"},{"bike_id":"e382ba24-bb4a-4069-862d-738585d83370","system_id":"levelo_inurba_marseille","lat":43.27814,"lon":5.40719,"is_reserved":false,"is_disabled":false,"rental_uris":{"android":"levelo://app?vid=e382ba24-bb4a-4069-862d-738585d83370","ios":"levelo://app?vid=e382ba24-bb4a-4069-862d-738585d83370"},"vehicle_type_id":"4","last_reported":1777329568,"current_range_meters":9200,"station_id":"ce4bhnh2rcd13ifvqgtg","pricing_plan_id":"cebpf4jnsgd1na2vs0mg"},{"bike_id":"906f7108-febf-40ba-b432-178e412912d2","system_id":"levelo_inurba_marseille","lat":43.28368,"lon":5.38086,"is_reserved":false,"is_disabled":false,"rental_uris":{"android":"levelo://app?vid=906f7108-febf-40ba-b432-178e412912d2","ios":"levelo://app?vid=906f7108-febf-40ba-b432-178e412912d2"},"vehicle_type_id":"4","last_reported":1777329568,"current_range_meters":9200,"station_id":"ce4bh412rcd13ifvqdr0","pricing_plan_id":"cebpf4jnsgd1na2vs0mg"},{"bike_id":"3534e92c-7f9f-471d-a177-a0eabee4f338","system_id":"levelo_inurba_marseille","lat":43.29885,"lon":5.42085,"is_reserved":false,"is_disabled":false,"rental_uris":{"android":"levelo://app?vid=3534e92c-7f9f-471d-a177-a0eabee4f338","ios":"levelo://app?vid=3534e92c-7f9f-471d-a177-a0eabee4f338"},"vehicle_type_id":"4","last_reported":1777329568,"current_range_meters":9200,"station_id":"","pricing_plan_id":"cebpf4jnsgd1na2vs0mg"},{"bike_id":"ccc64b12-fba8-4953-9e4c-789c15629674","system_id":"levelo_inurba_marseille","lat":43.23213,"lon":5.35068,"is_reserved":false,"is_disabled":false,"rental_uris":{"android":"levelo://app?vid=ccc64b12-fba8-4953-9e4c-789c15629674","ios":"levelo://app?vid=ccc64b12-fba8-4953-9e4c-789c15629674"},"vehicle_type_id":"4","last_reported":1777329568,"current_range_meters":9200,"station_id":"","pricing_plan_id":"cebpf4jnsgd1na2vs0mg"},{"bike_id":"68ecf2f6-4ac5-45b8-9640-383e9e07a83c","system_id":"levelo_inurba_marseille","lat":43.24566,"lon":5.41575,"is_reserved":false,"is_disabled":false,"rental_uris":{"android":"levelo://app?vid=68ecf2f6-4ac5-45b8-9640-383e9e07a83c","ios":"levelo://app?vid=68ecf2f6-4ac5-45b8-9640-383e9e07a83c"},"vehicle_type_id":"4","last_reported":1777329568,"current_range_meters":9200,"station_id":"","pricing_plan_id":"cebpf4jnsgd1na2vs0mg"},{"bike_id":"e5a38a57-f482-4b24-aa4f-e4a7978b3480","system_id":"levelo_inurba_marseille","lat":43.30427,"lon":5.42466,"is_reserved":false,"is_disabled":false,"rental_uris":{"android":"levelo://app?vid=e5a38a57-f482-4b24-aa4f-e4a7978b3480","ios":"levelo://app?vid=e5a38a57-f482-4b24-aa4f-e4a7978b3480"},"vehicle_type_id":"4","last_reported":1777329568,"current_range_meters":9200,"station_id":"ce4bhoh2rcd13ifvqh6g","pricing_plan_id":"cebpf4jnsgd1na2vs0mg"},{"bike_id":"f13c1412-9987-4b53-aa5c-79a6ecb2ba2d","system_id":"levelo_inurba_marseille","lat":43.32352,"lon":5.3674,"is_reserved":false,"is_disabled":false,"rental_uris":{"android":"levelo://app?vid=f13c1412-9987-4b53-aa5c-79a6ecb2ba2d","ios":"levelo://app?vid=f13c1412-9987-4b53-aa5c-79a6ecb2ba2d"},"vehicle_type_id":"4","last_reported":1777329568,"current_range_meters":9200,"station_id":"ce4bhsh2rcd13ifvqi2g","pricing_plan_id":"cebpf4jnsgd1na2vs0mg"},{"bike_id":"a0306c08-5a06-4f9b-a597-306fad71f9a8","system_id":"levelo_inurba_marseille","lat":43.30882,"lon":5.3962,"is_reserved":false,"is_disabled":false,"rental_uris":{"android":"levelo://app?vid=a0306c08-5a06-4f9b-a597-306fad71f9a8","ios":"levelo://app?vid=a0306c08-5a06-4f9b-a597-306fad71f9a8"},"vehicle_type_id":"4","last_reported":1777329568,"current_range_meters":9200,"station_id":"ce4bh012rcd13ifvqcv0","pricing_plan_id":"cebpf4jnsgd1na2vs0mg"},{"bike_id":"0c04dc5c-4ad7-4dcf-8291-8a64ac9feca1","system_id":"levelo_inurba_marseille","lat":43.29871,"lon":5.36288,"is_reserved":false,"is_disabled":false,"rental_uris":{"android":"levelo://app?vid=0c04dc5c-4ad7-4dcf-8291-8a64ac9feca1","ios":"levelo://app?vid=0c04dc5c-4ad7-4dcf-8291-8a64ac9feca1"},"vehicle_type_id":"4","last_reported":1777329568,"current_range_meters":9200,"station_id":"ce4bgpp2rcd13ifvqc3g","pricing_plan_id":"cebpf4jnsgd1na2vs0mg"},{"bike_id":"3bb3e953-7b28-4b68-a5fa-b232ff0c32b8","system_id":"levelo_inurba_marseille","lat":43.28877,"lon":5.39269,"is_reserved":false,"is_disabled":false,"rental_uris":{"android":"levelo://app?vid=3bb3e953-7b28-4b68-a5fa-b232ff0c32b8","ios":"levelo://app?vid=3bb3e953-7b28-4b68-a5fa-b232ff0c32b8"},"vehicle_type_id":"4","last_reported":1777329568,"current_range_meters":9200,"station_id":"ce4bh2p2rcd13ifvqdi0","pricing_plan_id":"cebpf4jnsgd1na2vs0mg"},{"bike_id":"efbe742c-385a-4fcb-bad4-5e74e09fe9ac","system_id":"levelo_inurba_marseille","lat":43.30738,"lon":5.42434,"is_reserved":false,"is_disabled":false,"rental_uris":{"android":"levelo://app?vid=efbe742c-385a-4fcb-bad4-5e74e09fe9ac","ios":"levelo://app?vid=efbe742c-385a-4fcb-bad4-5e74e09fe9ac"},"vehicle_type_id":"4","last_reported":1777329568,"current_range_meters":9200,"station_id":"st_cvj6ca6bvosntc0bfgr0","pricing_plan_id":"cebpf4jnsgd1na2vs0mg"},{"bike_id":"841de2a1-eba5-4893-b90a-b7052038a263","system_id":"levelo_inurba_marseille","lat":43.30895,"lon":5.3964,"is_reserved":false,"is_disabled":false,"rental_uris":{"android":"levelo://app?vid=841de2a1-eba5-4893-b90a-b7052038a263","ios":"levelo://app?vid=841de2a1-eba5-4893-b90a-b7052038a263"},"vehicle_type_id":"4","last_reported":1777329568,"current_range_meters":9200,"station_id":"ce4bh012rcd13ifvqcv0","pricing_plan_id":"cebpf4jnsgd1na2vs0mg"},{"bike_id":"b9885613-2ab7-4bfa-8e62-7d197a46e827","system_id":"levelo_inurba_marseille","lat":43.25081,"lon":5.39518,"is_reserved":false,"is_disabled":false,"rental_uris":{"android":"levelo://app?vid=b9885613-2ab7-4bfa-8e62-7d197a46e827","ios":"levelo://app?vid=b9885613-2ab7-4bfa-8e62-7d197a46e827"},"vehicle_type_id":"4","last_reported":1777329568,"current_range_meters":9200,"station_id":"ce4bhm12rcd13ifvqgkg","pricing_plan_id":"cebpf4jnsgd1na2vs0mg"},{"bike_id":"819f824d-530b-4c9e-adb7-e3b742a5d8c9","system_id":"levelo_inurba_marseille","lat":43.30888,"lon":5.39613,"is_reserved":false,"is_disabled":false,"rental_uris":{"android":"levelo://app?vid=819f824d-530b-4c9e-adb7-e3b742a5d8c9","ios":"levelo://app?vid=819f824d-530b-4c9e-adb7-e3b742a5d8c9"},"vehicle_type_id":"4","last_reported":1777329568,"current_range_meters":9200,"station_id":"ce4bh012rcd13ifvqcv0","pricing_plan_id":"cebpf4jnsgd1na2vs0mg"},{"bike_id":"835b890c-8b59-44c6-9d4b-9eeecdc3eb6a","system_id":"levelo_inurba_marseille","lat":43.24187,"lon":5.39758,"is_reserved":false,"is_disabled":false,"rental_uris":{"android":"levelo://app?vid=835b890c-8b59-44c6-9d4b-9eeecdc3eb6a","ios":"levelo://app?vid=835b890c-8b59-44c6-9d4b-9eeecdc3eb6a"},"vehicle_type_id":"4","last_reported":1777329568,"current_range_meters":9600,"station_id":"ce4bhn12rcd13ifvqgpg","pricing_plan_id":"cebpf4jnsgd1na2vs0mg"},{"bike_id":"4541a58b-5803-4873-8531-8182c7674429","system_id":"levelo_inurba_marseille","lat":43.28487,"lon":5.48419,"is_reserved":false,"is_disabled":false,"rental_uris":{"android":"levelo://app?vid=4541a58b-5803-4873-8531-8182c7674429","ios":"levelo://app?vid=4541a58b-5803-4873-8531-8182c7674429"},"vehicle_type_id":"4","last_reported":1777329568,"current_range_meters":9600,"station_id":"st_d3svhcjqgbts73a3dn0g","pricing_plan_id":"cebpf4jnsgd1na2vs0mg"},{"bike_id":"23b9edcd-305b-48b3-b42b-c5b2d1a2cdca","system_id":"levelo_inurba_marseille","lat":43.27052,"lon":5.38606,"is_reserved":false,"is_disabled":false,"rental_uris":{"android":"levelo://app?vid=23b9edcd-305b-48b3-b42b-c5b2d1a2cdca","ios":"levelo://app?vid=23b9edcd-305b-48b3-b42b-c5b2d1a2cdca"},"vehicle_type_id":"4","last_reported":1777329568,"current_range_meters":9600,"station_id":"","pricing_plan_id":"cebpf4jnsgd1na2vs0mg"},{"bike_id":"bdc7799c-e449-46c3-8a73-d7daeb6d1ade","system_id":"levelo_inurba_marseille","lat":43.25642,"lon":5.41838,"is_reserved":false,"is_disabled":false,"rental_uris":{"android":"levelo://app?vid=bdc7799c-e449-46c3-8a73-d7daeb6d1ade","ios":"levelo://app?vid=bdc7799c-e449-46c3-8a73-d7daeb6d1ade"},"vehicle_type_id":"4","last_reported":1777329568,"current_range_meters":9600,"station_id":"","pricing_plan_id":"cebpf4jnsgd1na2vs0mg"},{"bike_id":"77b8dc02-51af-44fd-a00a-7f7f390da885","system_id":"levelo_inurba_marseille","lat":43.28002,"lon":5.41655,"is_reserved":false,"is_disabled":false,"rental_uris":{"android":"levelo://app?vid=77b8dc02-51af-44fd-a00a-7f7f390da885","ios":"levelo://app?vid=77b8dc02-51af-44fd-a00a-7f7f390da885"},"vehicle_type_id":"4","last_reported":1777329568,"current_range_meters":9600,"station_id":"ce4bho12rcd13ifvqh1g","pricing_plan_id":"cebpf4jnsgd1na2vs0mg"},{"bike_id":"58531717-4481-454d-8b8d-39158b11632d","system_id":"levelo_inurba_marseille","lat":43.29195,"lon":5.35801,"is_reserved":false,"is_disabled":false,"rental_uris":{"android":"levelo://app?vid=58531717-4481-454d-8b8d-39158b11632d","ios":"levelo://app?vid=58531717-4481-454d-8b8d-39158b11632d"},"vehicle_type_id":"4","last_reported":1777329568,"current_range_meters":9600,"station_id":"ce4bhb12rcd13ifvqel0","pricing_plan_id":"cebpf4jnsgd1na2vs0mg"},{"bike_id":"59a6ffd3-fc8e-46b0-bc4b-3fba7e21dc28","system_id":"levelo_inurba_marseille","lat":43.23901,"lon":5.375,"is_reserved":false,"is_disabled":false,"rental_uris":{"android":"levelo://app?vid=59a6ffd3-fc8e-46b0-bc4b-3fba7e21dc28","ios":"levelo://app?vid=59a6ffd3-fc8e-46b0-bc4b-3fba7e21dc28"},"vehicle_type_id":"4","last_reported":1777329568,"current_range_meters":9600,"station_id":"st_d6sm7csbq4hs73f8fpjg","pricing_plan_id":"cebpf4jnsgd1na2vs0mg"},{"bike_id":"afa4e258-7028-4336-abc2-ac6b2f10f6cc","system_id":"levelo_inurba_marseille","lat":43.24827,"lon":5.37422,"is_reserved":false,"is_disabled":false,"rental_uris":{"android":"levelo://app?vid=afa4e258-7028-4336-abc2-ac6b2f10f6cc","ios":"levelo://app?vid=afa4e258-7028-4336-abc2-ac6b2f10f6cc"},"vehicle_type_id":"4","last_reported":1777329568,"current_range_meters":9600,"station_id":"ce4bhgh2rcd13ifvqfb0","pricing_plan_id":"cebpf4jnsgd1na2vs0mg"},{"bike_id":"14c8c80d-a180-4fc5-a7e3-0193f468869e","system_id":"levelo_inurba_marseille","lat":43.28606,"lon":5.39886,"is_reserved":false,"is_disabled":false,"rental_uris":{"android":"levelo://app?vid=14c8c80d-a180-4fc5-a7e3-0193f468869e","ios":"levelo://app?vid=14c8c80d-a180-4fc5-a7e3-0193f468869e"},"vehicle_type_id":"4","last_reported":1777329568,"current_range_meters":9600,"station_id":"st_d4a7ka997mjs738ck50g","pricing_plan_id":"cebpf4jnsgd1na2vs0mg"},{"bike_id":"88cac7ca-0ff7-48b2-a605-b97cc08c4127","system_id":"levelo_inurba_marseille","lat":43.28049,"lon":5.36943,"is_reserved":false,"is_disabled":false,"rental_uris":{"android":"levelo://app?vid=88cac7ca-0ff7-48b2-a605-b97cc08c4127","ios":"levelo://app?vid=88cac7ca-0ff7-48b2-a605-b97cc08c4127"},"vehicle_type_id":"4","last_reported":1777329568,"current_range_meters":9600,"station_id":"ce4bha12rcd13ifvqef0","pricing_plan_id":"cebpf4jnsgd1na2vs0mg"},{"bike_id":"92b0e79d-5118-4cdc-a154-ad1d52d847b8","system_id":"levelo_inurba_marseille","lat":43.29608,"lon":5.36065,"is_reserved":false,"is_disabled":false,"rental_uris":{"android":"levelo://app?vid=92b0e79d-5118-4cdc-a154-ad1d52d847b8","ios":"levelo://app?vid=92b0e79d-5118-4cdc-a154-ad1d52d847b8"},"vehicle_type_id":"4","last_reported":1777329568,"current_range_meters":9600,"station_id":"","pricing_plan_id":"cebpf4jnsgd1na2vs0mg"},{"bike_id":"35a6cb4b-5d8c-4bef-b99f-fe238abc9fa9","system_id":"levelo_inurba_marseille","lat":43.21743,"lon":5.34598,"is_reserved":false,"is_disabled":false,"rental_uris":{"android":"levelo://app?vid=35a6cb4b-5d8c-4bef-b99f-fe238abc9fa9","ios":"levelo://app?vid=35a6cb4b-5d8c-4bef-b99f-fe238abc9fa9"},"vehicle_type_id":"4","last_reported":1777329568,"current_range_meters":9600,"station_id":"st_cvj6r9ubvosntc0bgbag","pricing_plan_id":"cebpf4jnsgd1na2vs0mg"},{"bike_id":"8dc1ef37-abdf-464a-a2a5-8795c083c97b","system_id":"levelo_inurba_marseille","lat":43.27658,"lon":5.35837,"is_reserved":false,"is_disabled":false,"rental_uris":{"android":"levelo://app?vid=8dc1ef37-abdf-464a-a2a5-8795c083c97b","ios":"levelo://app?vid=8dc1ef37-abdf-464a-a2a5-8795c083c97b"},"vehicle_type_id":"4","last_reported":1777329568,"current_range_meters":9600,"station_id":"","pricing_plan_id":"cebpf4jnsgd1na2vs0mg"},{"bike_id":"cd324fe1-c77e-46f1-9019-dce862ef312c","system_id":"levelo_inurba_marseille","lat":43.29198,"lon":5.3932,"is_reserved":false,"is_disabled":false,"rental_uris":{"android":"levelo://app?vid=cd324fe1-c77e-46f1-9019-dce862ef312c","ios":"levelo://app?vid=cd324fe1-c77e-46f1-9019-dce862ef312c"},"vehicle_type_id":"4","last_reported":1777329568,"current_range_meters":9600,"station_id":"ce4bh192rcd13ifvqdd0","pricing_plan_id":"cebpf4jnsgd1na2vs0mg"},{"bike_id":"c85d9b34-5f64-47d6-a9bc-54c7eee87ca4","system_id":"levelo_inurba_marseille","lat":43.29871,"lon":5.38901,"is_reserved":false,"is_disabled":false,"rental_uris":{"android":"levelo://app?vid=c85d9b34-5f64-47d6-a9bc-54c7eee87ca4","ios":"levelo://app?vid=c85d9b34-5f64-47d6-a9bc-54c7eee87ca4"},"vehicle_type_id":"4","last_reported":1777329568,"current_range_meters":9600,"station_id":"ce4bh392rcd13ifvqdl0","pricing_plan_id":"cebpf4jnsgd1na2vs0mg"},{"bike_id":"1a63ed86-01c3-463f-88a6-ebf0e2c92b7a","system_id":"levelo_inurba_marseille","lat":43.31224,"lon":5.36836,"is_reserved":false,"is_disabled":false,"rental_uris":{"android":"levelo://app?vid=1a63ed86-01c3-463f-88a6-ebf0e2c92b7a","ios":"levelo://app?vid=1a63ed86-01c3-463f-88a6-ebf0e2c92b7a"},"vehicle_type_id":"4","last_reported":1777329568,"current_range_meters":9600,"station_id":"ce4bgl92rcd13ifvqbq0","pricing_plan_id":"cebpf4jnsgd1na2vs0mg"},{"bike_id":"04efbdb6-9a20-4be6-b9d8-337fb14f5357","system_id":"levelo_inurba_marseille","lat":43.29883,"lon":5.3973,"is_reserved":false,"is_disabled":false,"rental_uris":{"android":"levelo://app?vid=04efbdb6-9a20-4be6-b9d8-337fb14f5357","ios":"levelo://app?vid=04efbdb6-9a20-4be6-b9d8-337fb14f5357"},"vehicle_type_id":"4","last_reported":1777329568,"current_range_meters":9600,"station_id":"ce4bh0h2rcd13ifvqd50","pricing_plan_id":"cebpf4jnsgd1na2vs0mg"},{"bike_id":"b74f6e85-86ec-4cac-816a-53872c6d4c79","system_id":"levelo_inurba_marseille","lat":43.25838,"lon":5.39436,"is_reserved":false,"is_disabled":false,"rental_uris":{"android":"levelo://app?vid=b74f6e85-86ec-4cac-816a-53872c6d4c79","ios":"levelo://app?vid=b74f6e85-86ec-4cac-816a-53872c6d4c79"},"vehicle_type_id":"4","last_reported":1777329568,"current_range_meters":9600,"station_id":"ce4bhip2rcd13ifvqft0","pricing_plan_id":"cebpf4jnsgd1na2vs0mg"},{"bike_id":"dbe62709-63cb-4ecb-b3bb-4e4694ad295e","system_id":"levelo_inurba_marseille","lat":43.31603,"lon":5.41922,"is_reserved":false,"is_disabled":false,"rental_uris":{"android":"levelo://app?vid=dbe62709-63cb-4ecb-b3bb-4e4694ad295e","ios":"levelo://app?vid=dbe62709-63cb-4ecb-b3bb-4e4694ad295e"},"vehicle_type_id":"4","last_reported":1777329568,"current_range_meters":10000,"station_id":"","pricing_plan_id":"cebpf4jnsgd1na2vs0mg"},{"bike_id":"a17b2fbf-8606-49a8-ae8b-5fed72d5e1ba","system_id":"levelo_inurba_marseille","lat":43.23196,"lon":5.39971,"is_reserved":false,"is_disabled":false,"rental_uris":{"android":"levelo://app?vid=a17b2fbf-8606-49a8-ae8b-5fed72d5e1ba","ios":"levelo://app?vid=a17b2fbf-8606-49a8-ae8b-5fed72d5e1ba"},"vehicle_type_id":"4","last_reported":1777329568,"current_range_meters":10000,"station_id":"ce4bhn12rcd13ifvqgqg","pricing_plan_id":"cebpf4jnsgd1na2vs0mg"},