{"last_updated":1773733606,"ttl":60,"version":"2.2","data":{"bikes":[{"bike_id":"d303483e-dcc0-4907-bbc6-b766a59074d4","system_id":"levelo_inurba_marseille","lat":43.28541,"lon":5.44135,"is_reserved":false,"is_disabled":false,"rental_uris":{"android":"levelo://app?vid=d303483e-dcc0-4907-bbc6-b766a59074d4","ios":"levelo://app?vid=d303483e-dcc0-4907-bbc6-b766a59074d4"},"vehicle_type_id":"4","last_reported":1773733607,"current_range_meters":400,"station_id":"st_d3j3df2ikq2c7380ej80","pricing_plan_id":"cebpf4jnsgd1na2vs0mg"},{"bike_id":"d0aa40c2-f41b-4a13-a756-89465c8ced2f","system_id":"levelo_inurba_marseille","lat":43.26758,"lon":5.39423,"is_reserved":false,"is_disabled":false,"rental_uris":{"android":"levelo://app?vid=d0aa40c2-f41b-4a13-a756-89465c8ced2f","ios":"levelo://app?vid=d0aa40c2-f41b-4a13-a756-89465c8ced2f"},"vehicle_type_id":"4","last_reported":1773733607,"current_range_meters":1200,"station_id":"ce4bhh12rcd13ifvqfg0","pricing_plan_id":"cebpf4jnsgd1na2vs0mg"},{"bike_id":"33090029-f845-49b7-8206-25ff29ffa267","system_id":"levelo_inurba_marseille","lat":43.31488,"lon":5.37319,"is_reserved":false,"is_disabled":false,"rental_uris":{"android":"levelo://app?vid=33090029-f845-49b7-8206-25ff29ffa267","ios":"levelo://app?vid=33090029-f845-49b7-8206-25ff29ffa267"},"vehicle_type_id":"4","last_reported":1773733607,"current_range_meters":2000,"station_id":"ce4bgt12rcd13ifvqcd0","pricing_plan_id":"cebpf4jnsgd1na2vs0mg"},{"bike_id":"7ee8d230-e429-4fae-927f-7a22b79397b7","system_id":"levelo_inurba_marseille","lat":43.33762,"lon":5.37476,"is_reserved":false,"is_disabled":true,"rental_uris":{"android":"levelo://app?vid=7ee8d230-e429-4fae-927f-7a22b79397b7","ios":"levelo://app?vid=7ee8d230-e429-4fae-927f-7a22b79397b7"},"vehicle_type_id":"4","last_reported":1773733607,"current_range_meters":2800,"station_id":"","pricing_plan_id":"cebpf4jnsgd1na2vs0mg"},{"bike_id":"e58d955a-2716-4c0b-872f-aff8fc00a1eb","system_id":"levelo_inurba_marseille","lat":43.25933,"lon":5.40911,"is_reserved":false,"is_disabled":false,"rental_uris":{"android":"levelo://app?vid=e58d955a-2716-4c0b-872f-aff8fc00a1eb","ios":"levelo://app?vid=e58d955a-2716-4c0b-872f-aff8fc00a1eb"},"vehicle_type_id":"4","last_reported":1773733607,"current_range_meters":2800,"station_id":"ce4bhm92rcd13ifvqglg","pricing_plan_id":"cebpf4jnsgd1na2vs0mg"},{"bike_id":"ccb54f6f-537f-4ee3-8bf1-50606846f171","system_id":"levelo_inurba_marseille","lat":43.28716,"lon":5.35204,"is_reserved":false,"is_disabled":false,"rental_uris":{"android":"levelo://app?vid=ccb54f6f-537f-4ee3-8bf1-50606846f171","ios":"levelo://app?vid=ccb54f6f-537f-4ee3-8bf1-50606846f171"},"vehicle_type_id":"4","last_reported":1773733607,"current_range_meters":2800,"station_id":"","pricing_plan_id":"cebpf4jnsgd1na2vs0mg"},{"bike_id":"c1bf3ef1-963d-4207-8611-d7e29cc6c1d1","system_id":"levelo_inurba_marseille","lat":43.2819,"lon":5.42659,"is_reserved":false,"is_disabled":false,"rental_uris":{"android":"levelo://app?vid=c1bf3ef1-963d-4207-8611-d7e29cc6c1d1","ios":"levelo://app?vid=c1bf3ef1-963d-4207-8611-d7e29cc6c1d1"},"vehicle_type_id":"4","last_reported":1773733607,"current_range_meters":2800,"station_id":"ce4bhnh2rcd13ifvqgug","pricing_plan_id":"cebpf4jnsgd1na2vs0mg"},{"bike_id":"5c6bcaf2-3895-415c-b8c2-27c24d5ead77","system_id":"levelo_inurba_marseille","lat":43.22557,"lon":5.41648,"is_reserved":false,"is_disabled":false,"rental_uris":{"android":"levelo://app?vid=5c6bcaf2-3895-415c-b8c2-27c24d5ead77","ios":"levelo://app?vid=5c6bcaf2-3895-415c-b8c2-27c24d5ead77"},"vehicle_type_id":"4","last_reported":1773733607,"current_range_meters":2800,"station_id":"st_d2o4gvlbi1j2169b742g","pricing_plan_id":"cebpf4jnsgd1na2vs0mg"},{"bike_id":"a9428847-5c01-45cc-95a7-d94a1278d422","system_id":"levelo_inurba_marseille","lat":43.29241,"lon":5.36065,"is_reserved":false,"is_disabled":false,"rental_uris":{"android":"levelo://app?vid=a9428847-5c01-45cc-95a7-d94a1278d422","ios":"levelo://app?vid=a9428847-5c01-45cc-95a7-d94a1278d422"},"vehicle_type_id":"4","last_reported":1773733607,"current_range_meters":2800,"station_id":"ce4bhbh2rcd13ifvqeqg","pricing_plan_id":"cebpf4jnsgd1na2vs0mg"},{"bike_id":"979b7308-caae-4dbc-96bc-a7c453dd1981","system_id":"levelo_inurba_marseille","lat":43.34144,"lon":5.40909,"is_reserved":false,"is_disabled":false,"rental_uris":{"android":"levelo://app?vid=979b7308-caae-4dbc-96bc-a7c453dd1981","ios":"levelo://app?vid=979b7308-caae-4dbc-96bc-a7c453dd1981"},"vehicle_type_id":"4","last_reported":1773733607,"current_range_meters":2800,"station_id":"ce4bhqh2rcd13ifvqhlg","pricing_plan_id":"cebpf4jnsgd1na2vs0mg"},{"bike_id":"d41531be-a0e5-4a36-8b6a-b5eb2213f9ba","system_id":"levelo_inurba_marseille","lat":43.27317,"lon":5.39076,"is_reserved":false,"is_disabled":false,"rental_uris":{"android":"levelo://app?vid=d41531be-a0e5-4a36-8b6a-b5eb2213f9ba","ios":"levelo://app?vid=d41531be-a0e5-4a36-8b6a-b5eb2213f9ba"},"vehicle_type_id":"4","last_reported":1773733607,"current_range_meters":2800,"station_id":"ce4bhgp2rcd13ifvqfe0","pricing_plan_id":"cebpf4jnsgd1na2vs0mg"},{"bike_id":"6f1681e6-745f-4763-a26a-a8cfdac1adae","system_id":"levelo_inurba_marseille","lat":43.30313,"lon":5.36907,"is_reserved":false,"is_disabled":true,"rental_uris":{"android":"levelo://app?vid=6f1681e6-745f-4763-a26a-a8cfdac1adae","ios":"levelo://app?vid=6f1681e6-745f-4763-a26a-a8cfdac1adae"},"vehicle_type_id":"4","last_reported":1773733607,"current_range_meters":3200,"station_id":"ce4bgqh2rcd13ifvqc5g","pricing_plan_id":"cebpf4jnsgd1na2vs0mg"},{"bike_id":"bed28392-0da1-43b5-9fd6-079b95697677","system_id":"levelo_inurba_marseille","lat":43.246546,"lon":5.381586,"is_reserved":false,"is_disabled":false,"rental_uris":{"android":"levelo://app?vid=bed28392-0da1-43b5-9fd6-079b95697677","ios":"levelo://app?vid=bed28392-0da1-43b5-9fd6-079b95697677"},"vehicle_type_id":"4","last_reported":1773733607,"current_range_meters":3200,"station_id":"ce4bhih2rcd13ifvqfr0","pricing_plan_id":"cebpf4jnsgd1na2vs0mg"},{"bike_id":"829665f1-b68f-4bbf-91c8-eefb5c7e02ac","system_id":"levelo_inurba_marseille","lat":43.310355,"lon":5.371072,"is_reserved":false,"is_disabled":false,"rental_uris":{"android":"levelo://app?vid=829665f1-b68f-4bbf-91c8-eefb5c7e02ac","ios":"levelo://app?vid=829665f1-b68f-4bbf-91c8-eefb5c7e02ac"},"vehicle_type_id":"4","last_reported":1773733607,"current_range_meters":3200,"station_id":"st_d4kl2rp97mjs73e7tdfg","pricing_plan_id":"cebpf4jnsgd1na2vs0mg"},{"bike_id":"6684ef43-aed7-4c02-8193-b5dcc2905571","system_id":"levelo_inurba_marseille","lat":43.25325,"lon":5.42147,"is_reserved":false,"is_disabled":false,"rental_uris":{"android":"levelo://app?vid=6684ef43-aed7-4c02-8193-b5dcc2905571","ios":"levelo://app?vid=6684ef43-aed7-4c02-8193-b5dcc2905571"},"vehicle_type_id":"4","last_reported":1773733607,"current_range_meters":3200,"station_id":"st_d2m65c5bi1j21697t3ng","pricing_plan_id":"cebpf4jnsgd1na2vs0mg"},{"bike_id":"b50a2122-1199-42ae-991c-eb622a3b1e41","system_id":"levelo_inurba_marseille","lat":43.30245,"lon":5.37717,"is_reserved":false,"is_disabled":false,"rental_uris":{"android":"levelo://app?vid=b50a2122-1199-42ae-991c-eb622a3b1e41","ios":"levelo://app?vid=b50a2122-1199-42ae-991c-eb622a3b1e41"},"vehicle_type_id":"4","last_reported":1773733607,"current_range_meters":3200,"station_id":"ce4bguh2rcd13ifvqcj0","pricing_plan_id":"cebpf4jnsgd1na2vs0mg"},{"bike_id":"2be48d0d-c988-40d6-948e-4adda5345ace","system_id":"levelo_inurba_marseille","lat":43.29778,"lon":5.42741,"is_reserved":false,"is_disabled":false,"rental_uris":{"android":"levelo://app?vid=2be48d0d-c988-40d6-948e-4adda5345ace","ios":"levelo://app?vid=2be48d0d-c988-40d6-948e-4adda5345ace"},"vehicle_type_id":"4","last_reported":1773733607,"current_range_meters":3200,"station_id":"st_d3md5207bmas73dh9klg","pricing_plan_id":"cebpf4jnsgd1na2vs0mg"},{"bike_id":"73806190-d7df-4322-93c0-d6bee78abccb","system_id":"levelo_inurba_marseille","lat":43.27415,"lon":5.3899,"is_reserved":false,"is_disabled":false,"rental_uris":{"android":"levelo://app?vid=73806190-d7df-4322-93c0-d6bee78abccb","ios":"levelo://app?vid=73806190-d7df-4322-93c0-d6bee78abccb"},"vehicle_type_id":"4","last_reported":1773733607,"current_range_meters":3200,"station_id":"","pricing_plan_id":"cebpf4jnsgd1na2vs0mg"},{"bike_id":"d028e4a4-7e69-4ca0-b42c-3a8774b6d06c","system_id":"levelo_inurba_marseille","lat":43.28736,"lon":5.37936,"is_reserved":false,"is_disabled":false,"rental_uris":{"android":"levelo://app?vid=d028e4a4-7e69-4ca0-b42c-3a8774b6d06c","ios":"levelo://app?vid=d028e4a4-7e69-4ca0-b42c-3a8774b6d06c"},"vehicle_type_id":"4","last_reported":1773733607,"current_range_meters":3200,"station_id":"ce4bh9p2rcd13ifvqec0","pricing_plan_id":"cebpf4jnsgd1na2vs0mg"},{"bike_id":"ae806b6c-66e4-4515-a066-3b4cbcb9edbc","system_id":"levelo_inurba_marseille","lat":43.30133,"lon":5.37414,"is_reserved":false,"is_disabled":false,"rental_uris":{"android":"levelo://app?vid=ae806b6c-66e4-4515-a066-3b4cbcb9edbc","ios":"levelo://app?vid=ae806b6c-66e4-4515-a066-3b4cbcb9edbc"},"vehicle_type_id":"4","last_reported":1773733607,"current_range_meters":3200,"station_id":"ce4bgs92rcd13ifvqcc0","pricing_plan_id":"cebpf4jnsgd1na2vs0mg"},{"bike_id":"8981a264-bb51-4ae3-ad85-aacf4ed53951","system_id":"levelo_inurba_marseille","lat":43.27506,"lon":5.42443,"is_reserved":false,"is_disabled":false,"rental_uris":{"android":"levelo://app?vid=8981a264-bb51-4ae3-ad85-aacf4ed53951","ios":"levelo://app?vid=8981a264-bb51-4ae3-ad85-aacf4ed53951"},"vehicle_type_id":"4","last_reported":1773733607,"current_range_meters":3200,"station_id":"","pricing_plan_id":"cebpf4jnsgd1na2vs0mg"},{"bike_id":"4b66d87f-df59-44c5-bb47-d7e0503e1b42","system_id":"levelo_inurba_marseille","lat":43.21756,"lon":5.34608,"is_reserved":false,"is_disabled":false,"rental_uris":{"android":"levelo://app?vid=4b66d87f-df59-44c5-bb47-d7e0503e1b42","ios":"levelo://app?vid=4b66d87f-df59-44c5-bb47-d7e0503e1b42"},"vehicle_type_id":"4","last_reported":1773733607,"current_range_meters":3200,"station_id":"st_cvj6r9ubvosntc0bgbag","pricing_plan_id":"cebpf4jnsgd1na2vs0mg"},{"bike_id":"16ec8de2-7797-46a8-9aff-ec827b63b48f","system_id":"levelo_inurba_marseille","lat":43.24648,"lon":5.38185,"is_reserved":false,"is_disabled":false,"rental_uris":{"android":"levelo://app?vid=16ec8de2-7797-46a8-9aff-ec827b63b48f","ios":"levelo://app?vid=16ec8de2-7797-46a8-9aff-ec827b63b48f"},"vehicle_type_id":"4","last_reported":1773733607,"current_range_meters":3200,"station_id":"ce4bhih2rcd13ifvqfr0","pricing_plan_id":"cebpf4jnsgd1na2vs0mg"},{"bike_id":"a8c11763-251e-4b93-9a01-e0a3db398ee7","system_id":"levelo_inurba_marseille","lat":43.28018,"lon":5.41647,"is_reserved":false,"is_disabled":false,"rental_uris":{"android":"levelo://app?vid=a8c11763-251e-4b93-9a01-e0a3db398ee7","ios":"levelo://app?vid=a8c11763-251e-4b93-9a01-e0a3db398ee7"},"vehicle_type_id":"4","last_reported":1773733607,"current_range_meters":3600,"station_id":"ce4bho12rcd13ifvqh1g","pricing_plan_id":"cebpf4jnsgd1na2vs0mg"},{"bike_id":"2778616b-557d-4bc9-baa4-30bd01142988","system_id":"levelo_inurba_marseille","lat":43.24064,"lon":5.37755,"is_reserved":false,"is_disabled":false,"rental_uris":{"android":"levelo://app?vid=2778616b-557d-4bc9-baa4-30bd01142988","ios":"levelo://app?vid=2778616b-557d-4bc9-baa4-30bd01142988"},"vehicle_type_id":"4","last_reported":1773733607,"current_range_meters":3600,"station_id":"ce4bhnp2rcd13ifvqgvg","pricing_plan_id":"cebpf4jnsgd1na2vs0mg"},{"bike_id":"692c57a8-6969-40e6-9369-18804d84063c","system_id":"levelo_inurba_marseille","lat":43.30905,"lon":5.3685,"is_reserved":false,"is_disabled":false,"rental_uris":{"android":"levelo://app?vid=692c57a8-6969-40e6-9369-18804d84063c","ios":"levelo://app?vid=692c57a8-6969-40e6-9369-18804d84063c"},"vehicle_type_id":"4","last_reported":1773733607,"current_range_meters":3600,"station_id":"ce4bgn92rcd13ifvqbvg","pricing_plan_id":"cebpf4jnsgd1na2vs0mg"},{"bike_id":"4b338ce8-5a1d-45ae-98e5-89395f01eed6","system_id":"levelo_inurba_marseille","lat":43.28408,"lon":5.3726,"is_reserved":false,"is_disabled":true,"rental_uris":{"android":"levelo://app?vid=4b338ce8-5a1d-45ae-98e5-89395f01eed6","ios":"levelo://app?vid=4b338ce8-5a1d-45ae-98e5-89395f01eed6"},"vehicle_type_id":"4","last_reported":1773733607,"current_range_meters":3600,"station_id":"ce4bh412rcd13ifvqds0","pricing_plan_id":"cebpf4jnsgd1na2vs0mg"},{"bike_id":"c8431d5e-fe62-4c51-a67e-06bd269df984","system_id":"levelo_inurba_marseille","lat":43.33616,"lon":5.37461,"is_reserved":false,"is_disabled":false,"rental_uris":{"android":"levelo://app?vid=c8431d5e-fe62-4c51-a67e-06bd269df984","ios":"levelo://app?vid=c8431d5e-fe62-4c51-a67e-06bd269df984"},"vehicle_type_id":"4","last_reported":1773733607,"current_range_meters":3600,"station_id":"","pricing_plan_id":"cebpf4jnsgd1na2vs0mg"},{"bike_id":"a57fd276-80d6-4f2f-8fbc-0c5a46f65dce","system_id":"levelo_inurba_marseille","lat":43.30902,"lon":5.36855,"is_reserved":false,"is_disabled":false,"rental_uris":{"android":"levelo://app?vid=a57fd276-80d6-4f2f-8fbc-0c5a46f65dce","ios":"levelo://app?vid=a57fd276-80d6-4f2f-8fbc-0c5a46f65dce"},"vehicle_type_id":"4","last_reported":1773733607,"current_range_meters":3600,"station_id":"ce4bgn92rcd13ifvqbvg","pricing_plan_id":"cebpf4jnsgd1na2vs0mg"},{"bike_id":"367d1ebd-1fe7-4381-bb25-dac6bfe4a266","system_id":"levelo_inurba_marseille","lat":43.25328,"lon":5.42188,"is_reserved":false,"is_disabled":false,"rental_uris":{"android":"levelo://app?vid=367d1ebd-1fe7-4381-bb25-dac6bfe4a266","ios":"levelo://app?vid=367d1ebd-1fe7-4381-bb25-dac6bfe4a266"},"vehicle_type_id":"4","last_reported":1773733607,"current_range_meters":3600,"station_id":"st_d2m65c5bi1j21697t3ng","pricing_plan_id":"cebpf4jnsgd1na2vs0mg"},{"bike_id":"4fb702b1-5215-4524-9260-909a50753239","system_id":"levelo_inurba_marseille","lat":43.21757,"lon":5.34649,"is_reserved":false,"is_disabled":false,"rental_uris":{"android":"levelo://app?vid=4fb702b1-5215-4524-9260-909a50753239","ios":"levelo://app?vid=4fb702b1-5215-4524-9260-909a50753239"},"vehicle_type_id":"4","last_reported":1773733607,"current_range_meters":3600,"station_id":"st_cvj6r9ubvosntc0bgbag","pricing_plan_id":"cebpf4jnsgd1na2vs0mg"},{"bike_id":"f241c30b-2b1a-4f86-a532-796da72b8ac2","system_id":"levelo_inurba_marseille","lat":43.21215,"lon":5.35057,"is_reserved":false,"is_disabled":false,"rental_uris":{"android":"levelo://app?vid=f241c30b-2b1a-4f86-a532-796da72b8ac2","ios":"levelo://app?vid=f241c30b-2b1a-4f86-a532-796da72b8ac2"},"vehicle_type_id":"4","last_reported":1773733607,"current_range_meters":3600,"station_id":"st_cvj6sg6p6f1abm77japg","pricing_plan_id":"cebpf4jnsgd1na2vs0mg"},{"bike_id":"bb16aae8-6e92-476a-8466-22984fcc8951","system_id":"levelo_inurba_marseille","lat":43.24069,"lon":5.37747,"is_reserved":false,"is_disabled":false,"rental_uris":{"android":"levelo://app?vid=bb16aae8-6e92-476a-8466-22984fcc8951","ios":"levelo://app?vid=bb16aae8-6e92-476a-8466-22984fcc8951"},"vehicle_type_id":"4","last_reported":1773733607,"current_range_meters":3600,"station_id":"ce4bhnp2rcd13ifvqgvg","pricing_plan_id":"cebpf4jnsgd1na2vs0mg"},{"bike_id":"41a475e8-8f60-49e5-932c-2037737c2411","system_id":"levelo_inurba_marseille","lat":43.3359,"lon":5.37458,"is_reserved":false,"is_disabled":false,"rental_uris":{"android":"levelo://app?vid=41a475e8-8f60-49e5-932c-2037737c2411","ios":"levelo://app?vid=41a475e8-8f60-49e5-932c-2037737c2411"},"vehicle_type_id":"4","last_reported":1773733607,"current_range_meters":3600,"station_id":"st_d46tts09ee8s73dlu43g","pricing_plan_id":"cebpf4jnsgd1na2vs0mg"},{"bike_id":"9f96e3e5-0df4-4f85-8707-d098d0747392","system_id":"levelo_inurba_marseille","lat":43.25342,"lon":5.42153,"is_reserved":false,"is_disabled":false,"rental_uris":{"android":"levelo://app?vid=9f96e3e5-0df4-4f85-8707-d098d0747392","ios":"levelo://app?vid=9f96e3e5-0df4-4f85-8707-d098d0747392"},"vehicle_type_id":"4","last_reported":1773733607,"current_range_meters":4000,"station_id":"st_d2m65c5bi1j21697t3ng","pricing_plan_id":"cebpf4jnsgd1na2vs0mg"},{"bike_id":"c6d69b4d-4c87-44fe-a02d-92b1370b69aa","system_id":"levelo_inurba_marseille","lat":43.22555,"lon":5.41634,"is_reserved":false,"is_disabled":false,"rental_uris":{"android":"levelo://app?vid=c6d69b4d-4c87-44fe-a02d-92b1370b69aa","ios":"levelo://app?vid=c6d69b4d-4c87-44fe-a02d-92b1370b69aa"},"vehicle_type_id":"4","last_reported":1773733607,"current_range_meters":4000,"station_id":"st_d2o4gvlbi1j2169b742g","pricing_plan_id":"cebpf4jnsgd1na2vs0mg"},{"bike_id":"a3eb6664-f79f-4fcc-a176-332c8301346f","system_id":"levelo_inurba_marseille","lat":43.28412,"lon":5.34992,"is_reserved":false,"is_disabled":false,"rental_uris":{"android":"levelo://app?vid=a3eb6664-f79f-4fcc-a176-332c8301346f","ios":"levelo://app?vid=a3eb6664-f79f-4fcc-a176-332c8301346f"},"vehicle_type_id":"4","last_reported":1773733607,"current_range_meters":4000,"station_id":"ce4bhbh2rcd13ifvqepg","pricing_plan_id":"cebpf4jnsgd1na2vs0mg"},{"bike_id":"6bf65720-8266-4d1b-8965-d8f376442203","system_id":"levelo_inurba_marseille","lat":43.2535,"lon":5.42196,"is_reserved":false,"is_disabled":false,"rental_uris":{"android":"levelo://app?vid=6bf65720-8266-4d1b-8965-d8f376442203","ios":"levelo://app?vid=6bf65720-8266-4d1b-8965-d8f376442203"},"vehicle_type_id":"4","last_reported":1773733607,"current_range_meters":4000,"station_id":"st_d2m65c5bi1j21697t3ng","pricing_plan_id":"cebpf4jnsgd1na2vs0mg"},{"bike_id":"8431c0ae-c291-4e69-8c30-9ab81ad19a14","system_id":"levelo_inurba_marseille","lat":43.26558,"lon":5.373,"is_reserved":false,"is_disabled":false,"rental_uris":{"android":"levelo://app?vid=8431c0ae-c291-4e69-8c30-9ab81ad19a14","ios":"levelo://app?vid=8431c0ae-c291-4e69-8c30-9ab81ad19a14"},"vehicle_type_id":"4","last_reported":1773733607,"current_range_meters":4000,"station_id":"ce4bhg12rcd13ifvqf70","pricing_plan_id":"cebpf4jnsgd1na2vs0mg"},{"bike_id":"4d876322-584a-4b9d-934a-70855e7e71e2","system_id":"levelo_inurba_marseille","lat":43.29574,"lon":5.3996,"is_reserved":false,"is_disabled":true,"rental_uris":{"android":"levelo://app?vid=4d876322-584a-4b9d-934a-70855e7e71e2","ios":"levelo://app?vid=4d876322-584a-4b9d-934a-70855e7e71e2"},"vehicle_type_id":"4","last_reported":1773733607,"current_range_meters":4000,"station_id":"ce4bh312rcd13ifvqdj0","pricing_plan_id":"cebpf4jnsgd1na2vs0mg"},{"bike_id":"9d8618ab-de6a-46c3-b454-d4196c014401","system_id":"levelo_inurba_marseille","lat":43.28415,"lon":5.34979,"is_reserved":false,"is_disabled":false,"rental_uris":{"android":"levelo://app?vid=9d8618ab-de6a-46c3-b454-d4196c014401","ios":"levelo://app?vid=9d8618ab-de6a-46c3-b454-d4196c014401"},"vehicle_type_id":"4","last_reported":1773733607,"current_range_meters":4000,"station_id":"ce4bhbh2rcd13ifvqepg","pricing_plan_id":"cebpf4jnsgd1na2vs0mg"},{"bike_id":"ff6903f8-7d6d-4329-9980-dd36491025a5","system_id":"levelo_inurba_marseille","lat":43.2847,"lon":5.48398,"is_reserved":false,"is_disabled":false,"rental_uris":{"android":"levelo://app?vid=ff6903f8-7d6d-4329-9980-dd36491025a5","ios":"levelo://app?vid=ff6903f8-7d6d-4329-9980-dd36491025a5"},"vehicle_type_id":"4","last_reported":1773733607,"current_range_meters":4000,"station_id":"st_d3svhcjqgbts73a3dn0g","pricing_plan_id":"cebpf4jnsgd1na2vs0mg"},{"bike_id":"a8261f75-c49a-4d8a-8d78-59cefb23f437","system_id":"levelo_inurba_marseille","lat":43.29843,"lon":5.36285,"is_reserved":false,"is_disabled":true,"rental_uris":{"android":"levelo://app?vid=a8261f75-c49a-4d8a-8d78-59cefb23f437","ios":"levelo://app?vid=a8261f75-c49a-4d8a-8d78-59cefb23f437"},"vehicle_type_id":"4","last_reported":1773733607,"current_range_meters":4000,"station_id":"ce4bgpp2rcd13ifvqc3g","pricing_plan_id":"cebpf4jnsgd1na2vs0mg"},{"bike_id":"e7d20ce8-61ee-4df3-9ba4-585a7648c721","system_id":"levelo_inurba_marseille","lat":43.24645,"lon":5.43156,"is_reserved":false,"is_disabled":false,"rental_uris":{"android":"levelo://app?vid=e7d20ce8-61ee-4df3-9ba4-585a7648c721","ios":"levelo://app?vid=e7d20ce8-61ee-4df3-9ba4-585a7648c721"},"vehicle_type_id":"4","last_reported":1773733607,"current_range_meters":4000,"station_id":"","pricing_plan_id":"cebpf4jnsgd1na2vs0mg"},{"bike_id":"a64c7316-4124-45b6-aec3-937069d4f72f","system_id":"levelo_inurba_marseille","lat":43.21759,"lon":5.34605,"is_reserved":false,"is_disabled":false,"rental_uris":{"android":"levelo://app?vid=a64c7316-4124-45b6-aec3-937069d4f72f","ios":"levelo://app?vid=a64c7316-4124-45b6-aec3-937069d4f72f"},"vehicle_type_id":"4","last_reported":1773733607,"current_range_meters":4000,"station_id":"st_cvj6r9ubvosntc0bgbag","pricing_plan_id":"cebpf4jnsgd1na2vs0mg"},{"bike_id":"7077099d-bec4-45e6-9cb2-740f7185bcfe","system_id":"levelo_inurba_marseille","lat":43.31118,"lon":5.37114,"is_reserved":false,"is_disabled":false,"rental_uris":{"android":"levelo://app?vid=7077099d-bec4-45e6-9cb2-740f7185bcfe","ios":"levelo://app?vid=7077099d-bec4-45e6-9cb2-740f7185bcfe"},"vehicle_type_id":"4","last_reported":1773733607,"current_range_meters":4000,"station_id":"","pricing_plan_id":"cebpf4jnsgd1na2vs0mg"},{"bike_id":"77544f93-4c79-4f7d-bc23-e3b22fb17113","system_id":"levelo_inurba_marseille","lat":43.31707,"lon":5.37751,"is_reserved":false,"is_disabled":false,"rental_uris":{"android":"levelo://app?vid=77544f93-4c79-4f7d-bc23-e3b22fb17113","ios":"levelo://app?vid=77544f93-4c79-4f7d-bc23-e3b22fb17113"},"vehicle_type_id":"4","last_reported":1773733607,"current_range_meters":4000,"station_id":"ce4bgth2rcd13ifvqch0","pricing_plan_id":"cebpf4jnsgd1na2vs0mg"},{"bike_id":"ef275710-a738-4425-a373-87c195840051","system_id":"levelo_inurba_marseille","lat":43.30727,"lon":5.42423,"is_reserved":false,"is_disabled":false,"rental_uris":{"android":"levelo://app?vid=ef275710-a738-4425-a373-87c195840051","ios":"levelo://app?vid=ef275710-a738-4425-a373-87c195840051"},"vehicle_type_id":"4","last_reported":1773733607,"current_range_meters":4000,"station_id":"st_cvj6ca6bvosntc0bfgr0","pricing_plan_id":"cebpf4jnsgd1na2vs0mg"},{"bike_id":"ca5af02f-49f7-48db-a0c5-85c6fd8e11c9","system_id":"levelo_inurba_marseille","lat":43.2501,"lon":5.3892,"is_reserved":false,"is_disabled":true,"rental_uris":{"android":"levelo://app?vid=ca5af02f-49f7-48db-a0c5-85c6fd8e11c9","ios":"levelo://app?vid=ca5af02f-49f7-48db-a0c5-85c6fd8e11c9"},"vehicle_type_id":"4","last_reported":1773733607,"current_range_meters":4000,"station_id":"ce4bhgp2rcd13ifvqfd0","pricing_plan_id":"cebpf4jnsgd1na2vs0mg"},{"bike_id":"7d5e5488-b062-4979-8056-f7926cc5db5b","system_id":"levelo_inurba_marseille","lat":43.28477,"lon":5.48396,"is_reserved":false,"is_disabled":false,"rental_uris":{"android":"levelo://app?vid=7d5e5488-b062-4979-8056-f7926cc5db5b","ios":"levelo://app?vid=7d5e5488-b062-4979-8056-f7926cc5db5b"},"vehicle_type_id":"4","last_reported":1773733607,"current_range_meters":4000,"station_id":"","pricing_plan_id":"cebpf4jnsgd1na2vs0mg"},{"bike_id":"5c26df43-1e37-4b56-b0df-ea8817bbb052","system_id":"levelo_inurba_marseille","lat":43.24065,"lon":5.37757,"is_reserved":false,"is_disabled":false,"rental_uris":{"android":"levelo://app?vid=5c26df43-1e37-4b56-b0df-ea8817bbb052","ios":"levelo://app?vid=5c26df43-1e37-4b56-b0df-ea8817bbb052"},"vehicle_type_id":"4","last_reported":1773733607,"current_range_meters":4000,"station_id":"ce4bhnp2rcd13ifvqgvg","pricing_plan_id":"cebpf4jnsgd1na2vs0mg"},{"bike_id":"15c6f95a-b983-4283-9be7-875f500d7490","system_id":"levelo_inurba_marseille","lat":43.27332,"lon":5.39076,"is_reserved":false,"is_disabled":false,"rental_uris":{"android":"levelo://app?vid=15c6f95a-b983-4283-9be7-875f500d7490","ios":"levelo://app?vid=15c6f95a-b983-4283-9be7-875f500d7490"},"vehicle_type_id":"4","last_reported":1773733607,"current_range_meters":4400,"station_id":"ce4bhgp2rcd13ifvqfe0","pricing_plan_id":"cebpf4jnsgd1na2vs0mg"},{"bike_id":"cba57cad-d420-4d54-ad4a-ca4a23dab8c4","system_id":"levelo_inurba_marseille","lat":43.30532,"lon":5.36715,"is_reserved":false,"is_disabled":false,"rental_uris":{"android":"levelo://app?vid=cba57cad-d420-4d54-ad4a-ca4a23dab8c4","ios":"levelo://app?vid=cba57cad-d420-4d54-ad4a-ca4a23dab8c4"},"vehicle_type_id":"4","last_reported":1773733607,"current_range_meters":4400,"station_id":"ce4bgrp2rcd13ifvqc9g","pricing_plan_id":"cebpf4jnsgd1na2vs0mg"},{"bike_id":"9cb55d20-a7eb-44cb-b8b5-e241c5520e9d","system_id":"levelo_inurba_marseille","lat":43.2927,"lon":5.36849,"is_reserved":false,"is_disabled":false,"rental_uris":{"android":"levelo://app?vid=9cb55d20-a7eb-44cb-b8b5-e241c5520e9d","ios":"levelo://app?vid=9cb55d20-a7eb-44cb-b8b5-e241c5520e9d"},"vehicle_type_id":"4","last_reported":1773733607,"current_range_meters":4400,"station_id":"ce4bhbp2rcd13ifvqesg","pricing_plan_id":"cebpf4jnsgd1na2vs0mg"},{"bike_id":"b3fb0cd9-0d50-4402-b1d7-e0ca7cbbf02f","system_id":"levelo_inurba_marseille","lat":43.22554,"lon":5.41636,"is_reserved":false,"is_disabled":false,"rental_uris":{"android":"levelo://app?vid=b3fb0cd9-0d50-4402-b1d7-e0ca7cbbf02f","ios":"levelo://app?vid=b3fb0cd9-0d50-4402-b1d7-e0ca7cbbf02f"},"vehicle_type_id":"4","last_reported":1773733607,"current_range_meters":4400,"station_id":"st_d2o4gvlbi1j2169b742g","pricing_plan_id":"cebpf4jnsgd1na2vs0mg"},{"bike_id":"f9957fdd-b7fb-4862-b889-704cc630d45b","system_id":"levelo_inurba_marseille","lat":43.3025,"lon":5.400792,"is_reserved":false,"is_disabled":false,"rental_uris":{"android":"levelo://app?vid=f9957fdd-b7fb-4862-b889-704cc630d45b","ios":"levelo://app?vid=f9957fdd-b7fb-4862-b889-704cc630d45b"},"vehicle_type_id":"4","last_reported":1773733607,"current_range_meters":4400,"station_id":"","pricing_plan_id":"cebpf4jnsgd1na2vs0mg"},{"bike_id":"879a873f-004f-4af1-a55c-41f0a4bec7bc","system_id":"levelo_inurba_marseille","lat":43.21183,"lon":5.3507,"is_reserved":false,"is_disabled":false,"rental_uris":{"android":"levelo://app?vid=879a873f-004f-4af1-a55c-41f0a4bec7bc","ios":"levelo://app?vid=879a873f-004f-4af1-a55c-41f0a4bec7bc"},"vehicle_type_id":"4","last_reported":1773733607,"current_range_meters":4400,"station_id":"st_cvj6sg6p6f1abm77japg","pricing_plan_id":"cebpf4jnsgd1na2vs0mg"},{"bike_id":"91f440a2-b37f-4186-bada-b6ca9b83b739","system_id":"levelo_inurba_marseille","lat":43.23915,"lon":5.3742,"is_reserved":false,"is_disabled":false,"rental_uris":{"android":"levelo://app?vid=91f440a2-b37f-4186-bada-b6ca9b83b739","ios":"levelo://app?vid=91f440a2-b37f-4186-bada-b6ca9b83b739"},"vehicle_type_id":"4","last_reported":1773733607,"current_range_meters":4400,"station_id":"","pricing_plan_id":"cebpf4jnsgd1na2vs0mg"},{"bike_id":"dca64d5b-4592-40c0-99de-3b7a12612010","system_id":"levelo_inurba_marseille","lat":43.24804,"lon":5.37461,"is_reserved":false,"is_disabled":false,"rental_uris":{"android":"levelo://app?vid=dca64d5b-4592-40c0-99de-3b7a12612010","ios":"levelo://app?vid=dca64d5b-4592-40c0-99de-3b7a12612010"},"vehicle_type_id":"4","last_reported":1773733607,"current_range_meters":4400,"station_id":"ce4bhgh2rcd13ifvqfb0","pricing_plan_id":"cebpf4jnsgd1na2vs0mg"},{"bike_id":"20d965c2-9356-4a2d-b2d1-b586da5c97e8","system_id":"levelo_inurba_marseille","lat":43.28155,"lon":5.40595,"is_reserved":false,"is_disabled":true,"rental_uris":{"android":"levelo://app?vid=20d965c2-9356-4a2d-b2d1-b586da5c97e8","ios":"levelo://app?vid=20d965c2-9356-4a2d-b2d1-b586da5c97e8"},"vehicle_type_id":"4","last_reported":1773733607,"current_range_meters":4800,"station_id":"","pricing_plan_id":"cebpf4jnsgd1na2vs0mg"},{"bike_id":"7e4878ae-c376-48c8-ad77-0c9152653552","system_id":"levelo_inurba_marseille","lat":43.27465,"lon":5.41597,"is_reserved":false,"is_disabled":false,"rental_uris":{"android":"levelo://app?vid=7e4878ae-c376-48c8-ad77-0c9152653552","ios":"levelo://app?vid=7e4878ae-c376-48c8-ad77-0c9152653552"},"vehicle_type_id":"4","last_reported":1773733607,"current_range_meters":4800,"station_id":"st_d6im8g6chgec73a5pndg","pricing_plan_id":"cebpf4jnsgd1na2vs0mg"},{"bike_id":"f6a3f884-fc7c-472e-860f-f2b30afd183f","system_id":"levelo_inurba_marseille","lat":43.3042,"lon":5.39742,"is_reserved":false,"is_disabled":false,"rental_uris":{"android":"levelo://app?vid=f6a3f884-fc7c-472e-860f-f2b30afd183f","ios":"levelo://app?vid=f6a3f884-fc7c-472e-860f-f2b30afd183f"},"vehicle_type_id":"4","last_reported":1773733607,"current_range_meters":4800,"station_id":"ce4bh092rcd13ifvqd20","pricing_plan_id":"cebpf4jnsgd1na2vs0mg"},{"bike_id":"8b8fae1d-fa4d-45c5-aa74-be39da1b22dc","system_id":"levelo_inurba_marseille","lat":43.30134,"lon":5.400777,"is_reserved":false,"is_disabled":false,"rental_uris":{"android":"levelo://app?vid=8b8fae1d-fa4d-45c5-aa74-be39da1b22dc","ios":"levelo://app?vid=8b8fae1d-fa4d-45c5-aa74-be39da1b22dc"},"vehicle_type_id":"4","last_reported":1773733607,"current_range_meters":4800,"station_id":"ce4bh092rcd13ifvqd20","pricing_plan_id":"cebpf4jnsgd1na2vs0mg"},{"bike_id":"26202659-445f-404d-b446-d181a4a7df71","system_id":"levelo_inurba_marseille","lat":43.33547,"lon":5.37464,"is_reserved":false,"is_disabled":false,"rental_uris":{"android":"levelo://app?vid=26202659-445f-404d-b446-d181a4a7df71","ios":"levelo://app?vid=26202659-445f-404d-b446-d181a4a7df71"},"vehicle_type_id":"4","last_reported":1773733607,"current_range_meters":4800,"station_id":"st_d46tts09ee8s73dlu43g","pricing_plan_id":"cebpf4jnsgd1na2vs0mg"},{"bike_id":"8a8d4a1e-15c6-4949-bffe-3fd6397d7d83","system_id":"levelo_inurba_marseille","lat":43.30521,"lon":5.36724,"is_reserved":false,"is_disabled":false,"rental_uris":{"android":"levelo://app?vid=8a8d4a1e-15c6-4949-bffe-3fd6397d7d83","ios":"levelo://app?vid=8a8d4a1e-15c6-4949-bffe-3fd6397d7d83"},"vehicle_type_id":"4","last_reported":1773733607,"current_range_meters":4800,"station_id":"ce4bgrp2rcd13ifvqc9g","pricing_plan_id":"cebpf4jnsgd1na2vs0mg"},{"bike_id":"d06b1804-70fd-40ad-8edd-a00949173812","system_id":"levelo_inurba_marseille","lat":43.23197,"lon":5.40017,"is_reserved":false,"is_disabled":false,"rental_uris":{"android":"levelo://app?vid=d06b1804-70fd-40ad-8edd-a00949173812","ios":"levelo://app?vid=d06b1804-70fd-40ad-8edd-a00949173812"},"vehicle_type_id":"4","last_reported":1773733607,"current_range_meters":4800,"station_id":"ce4bhn12rcd13ifvqgqg","pricing_plan_id":"cebpf4jnsgd1na2vs0mg"},{"bike_id":"d89134ff-a044-45c7-94db-9ed2eccb039f","system_id":"levelo_inurba_marseille","lat":43.3135,"lon":5.38497,"is_reserved":false,"is_disabled":true,"rental_uris":{"android":"levelo://app?vid=d89134ff-a044-45c7-94db-9ed2eccb039f","ios":"levelo://app?vid=d89134ff-a044-45c7-94db-9ed2eccb039f"},"vehicle_type_id":"4","last_reported":1773733607,"current_range_meters":4800,"station_id":"ce4bgt92rcd13ifvqcf0","pricing_plan_id":"cebpf4jnsgd1na2vs0mg"},{"bike_id":"a2cdbaf8-da8c-4ca1-8f7a-3609363ed87c","system_id":"levelo_inurba_marseille","lat":43.30139,"lon":5.37424,"is_reserved":false,"is_disabled":false,"rental_uris":{"android":"levelo://app?vid=a2cdbaf8-da8c-4ca1-8f7a-3609363ed87c","ios":"levelo://app?vid=a2cdbaf8-da8c-4ca1-8f7a-3609363ed87c"},"vehicle_type_id":"4","last_reported":1773733607,"current_range_meters":4800,"station_id":"ce4bgs92rcd13ifvqcc0","pricing_plan_id":"cebpf4jnsgd1na2vs0mg"},{"bike_id":"5247c951-a74f-455c-8348-09a4b4062d01","system_id":"levelo_inurba_marseille","lat":43.21757,"lon":5.34607,"is_reserved":false,"is_disabled":false,"rental_uris":{"android":"levelo://app?vid=5247c951-a74f-455c-8348-09a4b4062d01","ios":"levelo://app?vid=5247c951-a74f-455c-8348-09a4b4062d01"},"vehicle_type_id":"4","last_reported":1773733607,"current_range_meters":4800,"station_id":"st_cvj6r9ubvosntc0bgbag","pricing_plan_id":"cebpf4jnsgd1na2vs0mg"},{"bike_id":"2017d76c-1108-4f09-8749-bdd3d957591b","system_id":"levelo_inurba_marseille","lat":43.29334,"lon":5.3785,"is_reserved":false,"is_disabled":false,"rental_uris":{"android":"levelo://app?vid=2017d76c-1108-4f09-8749-bdd3d957591b","ios":"levelo://app?vid=2017d76c-1108-4f09-8749-bdd3d957591b"},"vehicle_type_id":"4","last_reported":1773733607,"current_range_meters":4800,"station_id":"ce4bgjh2rcd13ifvqbf0","pricing_plan_id":"cebpf4jnsgd1na2vs0mg"},{"bike_id":"2d475c7c-0764-4ac9-8950-41d5059b573b","system_id":"levelo_inurba_marseille","lat":43.28489,"lon":5.48416,"is_reserved":false,"is_disabled":false,"rental_uris":{"android":"levelo://app?vid=2d475c7c-0764-4ac9-8950-41d5059b573b","ios":"levelo://app?vid=2d475c7c-0764-4ac9-8950-41d5059b573b"},"vehicle_type_id":"4","last_reported":1773733607,"current_range_meters":5600,"station_id":"","pricing_plan_id":"cebpf4jnsgd1na2vs0mg"},{"bike_id":"1c80d65f-5a5b-4286-b809-cfa0b084b10b","system_id":"levelo_inurba_marseille","lat":43.25939,"lon":5.40908,"is_reserved":false,"is_disabled":false,"rental_uris":{"android":"levelo://app?vid=1c80d65f-5a5b-4286-b809-cfa0b084b10b","ios":"levelo://app?vid=1c80d65f-5a5b-4286-b809-cfa0b084b10b"},"vehicle_type_id":"4","last_reported":1773733607,"current_range_meters":5600,"station_id":"ce4bhm92rcd13ifvqglg","pricing_plan_id":"cebpf4jnsgd1na2vs0mg"},{"bike_id":"87cf2c9e-dd79-479c-9e15-2f0aaae6b8ee","system_id":"levelo_inurba_marseille","lat":43.31439,"lon":5.37324,"is_reserved":false,"is_disabled":false,"rental_uris":{"android":"levelo://app?vid=87cf2c9e-dd79-479c-9e15-2f0aaae6b8ee","ios":"levelo://app?vid=87cf2c9e-dd79-479c-9e15-2f0aaae6b8ee"},"vehicle_type_id":"4","last_reported":1773733607,"current_range_meters":5600,"station_id":"ce4bgt12rcd13ifvqcd0","pricing_plan_id":"cebpf4jnsgd1na2vs0mg"},{"bike_id":"0f53d472-bee4-40de-8ab2-7656a789b4f7","system_id":"levelo_inurba_marseille","lat":43.22459,"lon":5.34904,"is_reserved":false,"is_disabled":false,"rental_uris":{"android":"levelo://app?vid=0f53d472-bee4-40de-8ab2-7656a789b4f7","ios":"levelo://app?vid=0f53d472-bee4-40de-8ab2-7656a789b4f7"},"vehicle_type_id":"4","last_reported":1773733607,"current_range_meters":5600,"station_id":"","pricing_plan_id":"cebpf4jnsgd1na2vs0mg"},{"bike_id":"20dd7d86-c4dc-4d33-83b0-519cc08235a3","system_id":"levelo_inurba_marseille","lat":43.26219,"lon":5.37445,"is_reserved":false,"is_disabled":false,"rental_uris":{"android":"levelo://app?vid=20dd7d86-c4dc-4d33-83b0-519cc08235a3","ios":"levelo://app?vid=20dd7d86-c4dc-4d33-83b0-519cc08235a3"},"vehicle_type_id":"4","last_reported":1773733607,"current_range_meters":5600,"station_id":"ce4bhgp2rcd13ifvqfc0","pricing_plan_id":"cebpf4jnsgd1na2vs0mg"},{"bike_id":"5ceea874-16bc-4dc6-9858-1b3ce34dfda6","system_id":"levelo_inurba_marseille","lat":43.2849,"lon":5.48396,"is_reserved":false,"is_disabled":false,"rental_uris":{"android":"levelo://app?vid=5ceea874-16bc-4dc6-9858-1b3ce34dfda6","ios":"levelo://app?vid=5ceea874-16bc-4dc6-9858-1b3ce34dfda6"},"vehicle_type_id":"4","last_reported":1773733607,"current_range_meters":5600,"station_id":"st_d3svhcjqgbts73a3dn0g","pricing_plan_id":"cebpf4jnsgd1na2vs0mg"},{"bike_id":"5c13d3bc-3946-4016-b223-a96c424763ee","system_id":"levelo_inurba_marseille","lat":43.24159,"lon":5.36398,"is_reserved":false,"is_disabled":false,"rental_uris":{"android":"levelo://app?vid=5c13d3bc-3946-4016-b223-a96c424763ee","ios":"levelo://app?vid=5c13d3bc-3946-4016-b223-a96c424763ee"},"vehicle_type_id":"4","last_reported":1773733607,"current_range_meters":5600,"station_id":"cpo36qri1sfpv3e86is0","pricing_plan_id":"cebpf4jnsgd1na2vs0mg"},{"bike_id":"3b2d3b2b-9e7f-43fe-b40c-4cc1b73a89cf","system_id":"levelo_inurba_marseille","lat":43.28483,"lon":5.38433,"is_reserved":false,"is_disabled":true,"rental_uris":{"android":"levelo://app?vid=3b2d3b2b-9e7f-43fe-b40c-4cc1b73a89cf","ios":"levelo://app?vid=3b2d3b2b-9e7f-43fe-b40c-4cc1b73a89cf"},"vehicle_type_id":"4","last_reported":1773733607,"current_range_meters":5600,"station_id":"ce4bh512rcd13ifvqe3g","pricing_plan_id":"cebpf4jnsgd1na2vs0mg"},{"bike_id":"deeaa617-f647-4e25-a9ab-c9cffe07ca63","system_id":"levelo_inurba_marseille","lat":43.29499,"lon":5.43292,"is_reserved":false,"is_disabled":false,"rental_uris":{"android":"levelo://app?vid=deeaa617-f647-4e25-a9ab-c9cffe07ca63","ios":"levelo://app?vid=deeaa617-f647-4e25-a9ab-c9cffe07ca63"},"vehicle_type_id":"4","last_reported":1773733607,"current_range_meters":5600,"station_id":"st_d3j5ugp08ojc73fj9d10","pricing_plan_id":"cebpf4jnsgd1na2vs0mg"},{"bike_id":"cf7e06e7-174f-44ce-bebf-7de04dbdbc0d","system_id":"levelo_inurba_marseille","lat":43.30328,"lon":5.36901,"is_reserved":false,"is_disabled":true,"rental_uris":{"android":"levelo://app?vid=cf7e06e7-174f-44ce-bebf-7de04dbdbc0d","ios":"levelo://app?vid=cf7e06e7-174f-44ce-bebf-7de04dbdbc0d"},"vehicle_type_id":"4","last_reported":1773733607,"current_range_meters":6000,"station_id":"ce4bgqh2rcd13ifvqc5g","pricing_plan_id":"cebpf4jnsgd1na2vs0mg"},{"bike_id":"796ed888-5e80-4248-a7be-20570706635d","system_id":"levelo_inurba_marseille","lat":43.23788,"lon":5.36657,"is_reserved":false,"is_disabled":false,"rental_uris":{"android":"levelo://app?vid=796ed888-5e80-4248-a7be-20570706635d","ios":"levelo://app?vid=796ed888-5e80-4248-a7be-20570706635d"},"vehicle_type_id":"4","last_reported":1773733607,"current_range_meters":6000,"station_id":"st_d3nk18o9ro0c73en2l3g","pricing_plan_id":"cebpf4jnsgd1na2vs0mg"},{"bike_id":"54e1430e-f603-4f12-94e1-97898e39d9f4","system_id":"levelo_inurba_marseille","lat":43.31047,"lon":5.37167,"is_reserved":false,"is_disabled":false,"rental_uris":{"android":"levelo://app?vid=54e1430e-f603-4f12-94e1-97898e39d9f4","ios":"levelo://app?vid=54e1430e-f603-4f12-94e1-97898e39d9f4"},"vehicle_type_id":"4","last_reported":1773733607,"current_range_meters":6000,"station_id":"st_d4kl2rp97mjs73e7tdfg","pricing_plan_id":"cebpf4jnsgd1na2vs0mg"},{"bike_id":"cca6ab88-ddce-4053-9bf9-c71892882cd4","system_id":"levelo_inurba_marseille","lat":43.30151,"lon":5.38094,"is_reserved":false,"is_disabled":false,"rental_uris":{"android":"levelo://app?vid=cca6ab88-ddce-4053-9bf9-c71892882cd4","ios":"levelo://app?vid=cca6ab88-ddce-4053-9bf9-c71892882cd4"},"vehicle_type_id":"4","last_reported":1773733607,"current_range_meters":6000,"station_id":"ce4bgjp2rcd13ifvqbh0","pricing_plan_id":"cebpf4jnsgd1na2vs0mg"},{"bike_id":"7fbc82da-1717-40f5-8e22-a284df5edd5a","system_id":"levelo_inurba_marseille","lat":43.24644,"lon":5.43156,"is_reserved":false,"is_disabled":false,"rental_uris":{"android":"levelo://app?vid=7fbc82da-1717-40f5-8e22-a284df5edd5a","ios":"levelo://app?vid=7fbc82da-1717-40f5-8e22-a284df5edd5a"},"vehicle_type_id":"4","last_reported":1773733607,"current_range_meters":6000,"station_id":"","pricing_plan_id":"cebpf4jnsgd1na2vs0mg"},{"bike_id":"fcc16676-bdcc-453d-943e-a6082336e83f","system_id":"levelo_inurba_marseille","lat":43.29827,"lon":5.44106,"is_reserved":false,"is_disabled":false,"rental_uris":{"android":"levelo://app?vid=fcc16676-bdcc-453d-943e-a6082336e83f","ios":"levelo://app?vid=fcc16676-bdcc-453d-943e-a6082336e83f"},"vehicle_type_id":"4","last_reported":1773733607,"current_range_meters":6400,"station_id":"st_d3jp68qikq2c7381ktn0","pricing_plan_id":"cebpf4jnsgd1na2vs0mg"},{"bike_id":"b5a6141d-ba50-4acc-8bdc-bdaeedf60276","system_id":"levelo_inurba_marseille","lat":43.29532,"lon":5.3754,"is_reserved":false,"is_disabled":true,"rental_uris":{"android":"levelo://app?vid=b5a6141d-ba50-4acc-8bdc-bdaeedf60276","ios":"levelo://app?vid=b5a6141d-ba50-4acc-8bdc-bdaeedf60276"},"vehicle_type_id":"4","last_reported":1773733607,"current_range_meters":6400,"station_id":"ce4bgkp2rcd13ifvqbmg","pricing_plan_id":"cebpf4jnsgd1na2vs0mg"},{"bike_id":"4c3d3553-54d0-46a3-acda-d420768e23c3","system_id":"levelo_inurba_marseille","lat":43.27389,"lon":5.36265,"is_reserved":false,"is_disabled":false,"rental_uris":{"android":"levelo://app?vid=4c3d3553-54d0-46a3-acda-d420768e23c3","ios":"levelo://app?vid=4c3d3553-54d0-46a3-acda-d420768e23c3"},"vehicle_type_id":"4","last_reported":1773733607,"current_range_meters":6400,"station_id":"ce4bhbh2rcd13ifvqeo0","pricing_plan_id":"cebpf4jnsgd1na2vs0mg"},{"bike_id":"7fefc9b6-5fbf-4935-8bdf-082e7ba9286a","system_id":"levelo_inurba_marseille","lat":43.25936,"lon":5.40895,"is_reserved":false,"is_disabled":false,"rental_uris":{"android":"levelo://app?vid=7fefc9b6-5fbf-4935-8bdf-082e7ba9286a","ios":"levelo://app?vid=7fefc9b6-5fbf-4935-8bdf-082e7ba9286a"},"vehicle_type_id":"4","last_reported":1773733607,"current_range_meters":6400,"station_id":"ce4bhm92rcd13ifvqglg","pricing_plan_id":"cebpf4jnsgd1na2vs0mg"},{"bike_id":"4ca2074d-5be8-4f09-a2f9-0200664389f9","system_id":"levelo_inurba_marseille","lat":43.30755,"lon":5.42433,"is_reserved":false,"is_disabled":false,"rental_uris":{"android":"levelo://app?vid=4ca2074d-5be8-4f09-a2f9-0200664389f9","ios":"levelo://app?vid=4ca2074d-5be8-4f09-a2f9-0200664389f9"},"vehicle_type_id":"4","last_reported":1773733607,"current_range_meters":6400,"station_id":"st_cvj6ca6bvosntc0bfgr0","pricing_plan_id":"cebpf4jnsgd1na2vs0mg"},{"bike_id":"55ad6576-3c79-4a6b-881b-323a7e8b70a1","system_id":"levelo_inurba_marseille","lat":43.24982,"lon":5.38951,"is_reserved":false,"is_disabled":false,"rental_uris":{"android":"levelo://app?vid=55ad6576-3c79-4a6b-881b-323a7e8b70a1","ios":"levelo://app?vid=55ad6576-3c79-4a6b-881b-323a7e8b70a1"},"vehicle_type_id":"4","last_reported":1773733607,"current_range_meters":6800,"station_id":"ce4bhgp2rcd13ifvqfd0","pricing_plan_id":"cebpf4jnsgd1na2vs0mg"},{"bike_id":"08889860-c3d9-415f-ada2-b4f20b226c04","system_id":"levelo_inurba_marseille","lat":43.27285,"lon":5.39091,"is_reserved":false,"is_disabled":true,"rental_uris":{"android":"levelo://app?vid=08889860-c3d9-415f-ada2-b4f20b226c04","ios":"levelo://app?vid=08889860-c3d9-415f-ada2-b4f20b226c04"},"vehicle_type_id":"4","last_reported":1773733607,"current_range_meters":6800,"station_id":"ce4bhgp2rcd13ifvqfe0","pricing_plan_id":"cebpf4jnsgd1na2vs0mg"},{"bike_id":"69d2e5d2-aab9-4fc9-a42e-b520c7e8b4f1","system_id":"levelo_inurba_marseille","lat":43.23055,"lon":5.35501,"is_reserved":false,"is_disabled":false,"rental_uris":{"android":"levelo://app?vid=69d2e5d2-aab9-4fc9-a42e-b520c7e8b4f1","ios":"levelo://app?vid=69d2e5d2-aab9-4fc9-a42e-b520c7e8b4f1"},"vehicle_type_id":"4","last_reported":1773733607,"current_range_meters":6800,"station_id":"cpo3342slgdg3j2ifvpg","pricing_plan_id":"cebpf4jnsgd1na2vs0mg"},{"bike_id":"9cb07ab3-75f5-4b10-84f8-b86a241dd760","system_id":"levelo_inurba_marseille","lat":43.24922,"lon":5.40497,"is_reserved":false,"is_disabled":false,"rental_uris":{"android":"levelo://app?vid=9cb07ab3-75f5-4b10-84f8-b86a241dd760","ios":"levelo://app?vid=9cb07ab3-75f5-4b10-84f8-b86a241dd760"},"vehicle_type_id":"4","last_reported":1773733607,"current_range_meters":6800,"station_id":"st_d2ngiaodas8pm72gd1h0","pricing_plan_id":"cebpf4jnsgd1na2vs0mg"},{"bike_id":"88858f89-fe21-45f8-acbb-9ce67472ddb3","system_id":"levelo_inurba_marseille","lat":43.22937,"lon":5.35374,"is_reserved":false,"is_disabled":false,"rental_uris":{"android":"levelo://app?vid=88858f89-fe21-45f8-acbb-9ce67472ddb3","ios":"levelo://app?vid=88858f89-fe21-45f8-acbb-9ce67472ddb3"},"vehicle_type_id":"4","last_reported":1773733607,"current_range_meters":6800,"station_id":"cpo3532slgdg3j2ikp40","pricing_plan_id":"cebpf4jnsgd1na2vs0mg"},{"bike_id":"e4b515b3-5a64-4f24-8a63-3407e3500a15","system_id":"levelo_inurba_marseille","lat":43.24315,"lon":5.40225,"is_reserved":false,"is_disabled":false,"rental_uris":{"android":"levelo://app?vid=e4b515b3-5a64-4f24-8a63-3407e3500a15","ios":"levelo://app?vid=e4b515b3-5a64-4f24-8a63-3407e3500a15"},"vehicle_type_id":"4","last_reported":1773733607,"current_range_meters":6800,"station_id":"","pricing_plan_id":"cebpf4jnsgd1na2vs0mg"},{"bike_id":"d114d824-e871-4708-87e4-8f178331015c","system_id":"levelo_inurba_marseille","lat":43.26512,"lon":5.39076,"is_reserved":false,"is_disabled":false,"rental_uris":{"android":"levelo://app?vid=d114d824-e871-4708-87e4-8f178331015c","ios":"levelo://app?vid=d114d824-e871-4708-87e4-8f178331015c"},"vehicle_type_id":"4","last_reported":1773733607,"current_range_meters":6800,"station_id":"","pricing_plan_id":"cebpf4jnsgd1na2vs0mg"},{"bike_id":"99b3399f-a7f1-46ba-9d8d-17a6644bc2b4","system_id":"levelo_inurba_marseille","lat":43.21746,"lon":5.3461,"is_reserved":false,"is_disabled":false,"rental_uris":{"android":"levelo://app?vid=99b3399f-a7f1-46ba-9d8d-17a6644bc2b4","ios":"levelo://app?vid=99b3399f-a7f1-46ba-9d8d-17a6644bc2b4"},"vehicle_type_id":"4","last_reported":1773733607,"current_range_meters":6800,"station_id":"st_cvj6r9ubvosntc0bgbag","pricing_plan_id":"cebpf4jnsgd1na2vs0mg"},{"bike_id":"5546bd0f-7ced-4964-ba48-a430fa2adf47","system_id":"levelo_inurba_marseille","lat":43.21781,"lon":5.34592,"is_reserved":false,"is_disabled":true,"rental_uris":{"android":"levelo://app?vid=5546bd0f-7ced-4964-ba48-a430fa2adf47","ios":"levelo://app?vid=5546bd0f-7ced-4964-ba48-a430fa2adf47"},"vehicle_type_id":"4","last_reported":1773733607,"current_range_meters":7200,"station_id":"st_cvj6r9ubvosntc0bgbag","pricing_plan_id":"cebpf4jnsgd1na2vs0mg"},{"bike_id":"feaf2e83-6bc7-46d3-b8dc-e52b9fc8cf3e","system_id":"levelo_inurba_marseille","lat":43.22552,"lon":5.41649,"is_reserved":false,"is_disabled":false,"rental_uris":{"android":"levelo://app?vid=feaf2e83-6bc7-46d3-b8dc-e52b9fc8cf3e","ios":"levelo://app?vid=feaf2e83-6bc7-46d3-b8dc-e52b9fc8cf3e"},"vehicle_type_id":"4","last_reported":1773733607,"current_range_meters":7200,"station_id":"st_d2o4gvlbi1j2169b742g","pricing_plan_id":"cebpf4jnsgd1na2vs0mg"},{"bike_id":"c0ddb57f-e5f5-4ce0-b6c4-75fd2010b9ba","system_id":"levelo_inurba_marseille","lat":43.27504,"lon":5.41627,"is_reserved":false,"is_disabled":false,"rental_uris":{"android":"levelo://app?vid=c0ddb57f-e5f5-4ce0-b6c4-75fd2010b9ba","ios":"levelo://app?vid=c0ddb57f-e5f5-4ce0-b6c4-75fd2010b9ba"},"vehicle_type_id":"4","last_reported":1773733607,"current_range_meters":7200,"station_id":"st_d6im8g6chgec73a5pndg","pricing_plan_id":"cebpf4jnsgd1na2vs0mg"},{"bike_id":"37968066-0b78-49a9-89f8-964d9774907e","system_id":"levelo_inurba_marseille","lat":43.26558,"lon":5.3729,"is_reserved":false,"is_disabled":false,"rental_uris":{"android":"levelo://app?vid=37968066-0b78-49a9-89f8-964d9774907e","ios":"levelo://app?vid=37968066-0b78-49a9-89f8-964d9774907e"},"vehicle_type_id":"4","last_reported":1773733607,"current_range_meters":7200,"station_id":"ce4bhg12rcd13ifvqf70","pricing_plan_id":"cebpf4jnsgd1na2vs0mg"},{"bike_id":"9b44eabc-9473-4aeb-8589-934e8f4a2c0e","system_id":"levelo_inurba_marseille","lat":43.22938,"lon":5.3539,"is_reserved":false,"is_disabled":false,"rental_uris":{"android":"levelo://app?vid=9b44eabc-9473-4aeb-8589-934e8f4a2c0e","ios":"levelo://app?vid=9b44eabc-9473-4aeb-8589-934e8f4a2c0e"},"vehicle_type_id":"4","last_reported":1773733607,"current_range_meters":7200,"station_id":"cpo3532slgdg3j2ikp40","pricing_plan_id":"cebpf4jnsgd1na2vs0mg"},{"bike_id":"3dad20a7-e396-4101-adc6-30f4c7f64d56","system_id":"levelo_inurba_marseille","lat":43.24995,"lon":5.38938,"is_reserved":false,"is_disabled":false,"rental_uris":{"android":"levelo://app?vid=3dad20a7-e396-4101-adc6-30f4c7f64d56","ios":"levelo://app?vid=3dad20a7-e396-4101-adc6-30f4c7f64d56"},"vehicle_type_id":"4","last_reported":1773733607,"current_range_meters":7200,"station_id":"ce4bhgp2rcd13ifvqfd0","pricing_plan_id":"cebpf4jnsgd1na2vs0mg"},{"bike_id":"d6f4fcc9-529e-44c9-8ab1-66a46ec0a2d7","system_id":"levelo_inurba_marseille","lat":43.29658,"lon":5.37461,"is_reserved":false,"is_disabled":false,"rental_uris":{"android":"levelo://app?vid=d6f4fcc9-529e-44c9-8ab1-66a46ec0a2d7","ios":"levelo://app?vid=d6f4fcc9-529e-44c9-8ab1-66a46ec0a2d7"},"vehicle_type_id":"4","last_reported":1773733607,"current_range_meters":7200,"station_id":"","pricing_plan_id":"cebpf4jnsgd1na2vs0mg"},{"bike_id":"da9ebfed-3b5b-4569-a9e8-b61332b81bab","system_id":"levelo_inurba_marseille","lat":43.24087,"lon":5.37769,"is_reserved":false,"is_disabled":false,"rental_uris":{"android":"levelo://app?vid=da9ebfed-3b5b-4569-a9e8-b61332b81bab","ios":"levelo://app?vid=da9ebfed-3b5b-4569-a9e8-b61332b81bab"},"vehicle_type_id":"4","last_reported":1773733607,"current_range_meters":7200,"station_id":"ce4bhnp2rcd13ifvqgvg","pricing_plan_id":"cebpf4jnsgd1na2vs0mg"},{"bike_id":"df20bf0e-9c4a-4578-906f-eb4a10df313e","system_id":"levelo_inurba_marseille","lat":43.30156,"lon":5.38092,"is_reserved":false,"is_disabled":false,"rental_uris":{"android":"levelo://app?vid=df20bf0e-9c4a-4578-906f-eb4a10df313e","ios":"levelo://app?vid=df20bf0e-9c4a-4578-906f-eb4a10df313e"},"vehicle_type_id":"4","last_reported":1773733607,"current_range_meters":7200,"station_id":"ce4bgjp2rcd13ifvqbh0","pricing_plan_id":"cebpf4jnsgd1na2vs0mg"},{"bike_id":"faa8d18a-3767-4f17-b9c5-3e2ab989e6d0","system_id":"levelo_inurba_marseille","lat":43.25097,"lon":5.39527,"is_reserved":false,"is_disabled":false,"rental_uris":{"android":"levelo://app?vid=faa8d18a-3767-4f17-b9c5-3e2ab989e6d0","ios":"levelo://app?vid=faa8d18a-3767-4f17-b9c5-3e2ab989e6d0"},"vehicle_type_id":"4","last_reported":1773733607,"current_range_meters":7200,"station_id":"ce4bhm12rcd13ifvqgkg","pricing_plan_id":"cebpf4jnsgd1na2vs0mg"},{"bike_id":"b3e3399c-3837-42b8-afac-39674642005e","system_id":"levelo_inurba_marseille","lat":43.2979,"lon":5.42722,"is_reserved":false,"is_disabled":false,"rental_uris":{"android":"levelo://app?vid=b3e3399c-3837-42b8-afac-39674642005e","ios":"levelo://app?vid=b3e3399c-3837-42b8-afac-39674642005e"},"vehicle_type_id":"4","last_reported":1773733607,"current_range_meters":7200,"station_id":"","pricing_plan_id":"cebpf4jnsgd1na2vs0mg"},{"bike_id":"4edc1e69-f919-4c2f-a6b8-66257e87a54f","system_id":"levelo_inurba_marseille","lat":43.28465,"lon":5.48397,"is_reserved":false,"is_disabled":false,"rental_uris":{"android":"levelo://app?vid=4edc1e69-f919-4c2f-a6b8-66257e87a54f","ios":"levelo://app?vid=4edc1e69-f919-4c2f-a6b8-66257e87a54f"},"vehicle_type_id":"4","last_reported":1773733607,"current_range_meters":7200,"station_id":"","pricing_plan_id":"cebpf4jnsgd1na2vs0mg"},{"bike_id":"41b7b418-9b4f-4bf0-a387-6295ab4a59a6","system_id":"levelo_inurba_marseille","lat":43.2583,"lon":5.39436,"is_reserved":false,"is_disabled":false,"rental_uris":{"android":"levelo://app?vid=41b7b418-9b4f-4bf0-a387-6295ab4a59a6","ios":"levelo://app?vid=41b7b418-9b4f-4bf0-a387-6295ab4a59a6"},"vehicle_type_id":"4","last_reported":1773733607,"current_range_meters":7200,"station_id":"ce4bhip2rcd13ifvqft0","pricing_plan_id":"cebpf4jnsgd1na2vs0mg"},{"bike_id":"03812eec-b185-465c-8c48-7984e651c3d0","system_id":"levelo_inurba_marseille","lat":43.33034,"lon":5.39026,"is_reserved":false,"is_disabled":false,"rental_uris":{"android":"levelo://app?vid=03812eec-b185-465c-8c48-7984e651c3d0","ios":"levelo://app?vid=03812eec-b185-465c-8c48-7984e651c3d0"},"vehicle_type_id":"4","last_reported":1773733607,"current_range_meters":8000,"station_id":"ce4bhr92rcd13ifvqhrg","pricing_plan_id":"cebpf4jnsgd1na2vs0mg"},{"bike_id":"57f59ea7-9661-484b-ab62-8930e39b76a3","system_id":"levelo_inurba_marseille","lat":43.23793,"lon":5.36633,"is_reserved":false,"is_disabled":false,"rental_uris":{"android":"levelo://app?vid=57f59ea7-9661-484b-ab62-8930e39b76a3","ios":"levelo://app?vid=57f59ea7-9661-484b-ab62-8930e39b76a3"},"vehicle_type_id":"4","last_reported":1773733607,"current_range_meters":8000,"station_id":"st_d3nk18o9ro0c73en2l3g","pricing_plan_id":"cebpf4jnsgd1na2vs0mg"},{"bike_id":"7b1b5c19-ad61-4ef5-9885-6a7c3f30da71","system_id":"levelo_inurba_marseille","lat":43.26767,"lon":5.39421,"is_reserved":false,"is_disabled":false,"rental_uris":{"android":"levelo://app?vid=7b1b5c19-ad61-4ef5-9885-6a7c3f30da71","ios":"levelo://app?vid=7b1b5c19-ad61-4ef5-9885-6a7c3f30da71"},"vehicle_type_id":"4","last_reported":1773733607,"current_range_meters":8000,"station_id":"ce4bhh12rcd13ifvqfg0","pricing_plan_id":"cebpf4jnsgd1na2vs0mg"},{"bike_id":"9ffcd30b-650f-4436-9b49-3da9737f924f","system_id":"levelo_inurba_marseille","lat":43.31064,"lon":5.37176,"is_reserved":false,"is_disabled":false,"rental_uris":{"android":"levelo://app?vid=9ffcd30b-650f-4436-9b49-3da9737f924f","ios":"levelo://app?vid=9ffcd30b-650f-4436-9b49-3da9737f924f"},"vehicle_type_id":"4","last_reported":1773733607,"current_range_meters":8000,"station_id":"st_d4kl2rp97mjs73e7tdfg","pricing_plan_id":"cebpf4jnsgd1na2vs0mg"},{"bike_id":"4eeecf6d-6108-42a0-b77f-fc0c0b55b73c","system_id":"levelo_inurba_marseille","lat":43.29897,"lon":5.37466,"is_reserved":false,"is_disabled":true,"rental_uris":{"android":"levelo://app?vid=4eeecf6d-6108-42a0-b77f-fc0c0b55b73c","ios":"levelo://app?vid=4eeecf6d-6108-42a0-b77f-fc0c0b55b73c"},"vehicle_type_id":"4","last_reported":1773733607,"current_range_meters":8000,"station_id":"ce4bgjh2rcd13ifvqbg0","pricing_plan_id":"cebpf4jnsgd1na2vs0mg"},{"bike_id":"010a9f6e-3baf-4328-b2cc-6d9ecc86357b","system_id":"levelo_inurba_marseille","lat":43.31478,"lon":5.37302,"is_reserved":false,"is_disabled":false,"rental_uris":{"android":"levelo://app?vid=010a9f6e-3baf-4328-b2cc-6d9ecc86357b","ios":"levelo://app?vid=010a9f6e-3baf-4328-b2cc-6d9ecc86357b"},"vehicle_type_id":"4","last_reported":1773733607,"current_range_meters":8000,"station_id":"ce4bgt12rcd13ifvqcd0","pricing_plan_id":"cebpf4jnsgd1na2vs0mg"},{"bike_id":"b21e3be4-c7ed-41ef-8b12-6d82d73722e2","system_id":"levelo_inurba_marseille","lat":43.2483,"lon":5.37458,"is_reserved":false,"is_disabled":false,"rental_uris":{"android":"levelo://app?vid=b21e3be4-c7ed-41ef-8b12-6d82d73722e2","ios":"levelo://app?vid=b21e3be4-c7ed-41ef-8b12-6d82d73722e2"},"vehicle_type_id":"4","last_reported":1773733607,"current_range_meters":8000,"station_id":"ce4bhgh2rcd13ifvqfb0","pricing_plan_id":"cebpf4jnsgd1na2vs0mg"},{"bike_id":"53336338-5141-44ec-bb59-6df2460b79a8","system_id":"levelo_inurba_marseille","lat":43.30209,"lon":5.39453,"is_reserved":false,"is_disabled":true,"rental_uris":{"android":"levelo://app?vid=53336338-5141-44ec-bb59-6df2460b79a8","ios":"levelo://app?vid=53336338-5141-44ec-bb59-6df2460b79a8"},"vehicle_type_id":"4","last_reported":1773733607,"current_range_meters":8000,"station_id":"ce4bh0p2rcd13ifvqd70","pricing_plan_id":"cebpf4jnsgd1na2vs0mg"},{"bike_id":"fea3358b-abc0-4f17-856a-4131c4d369d6","system_id":"levelo_inurba_marseille","lat":43.262315,"lon":5.404307,"is_reserved":false,"is_disabled":false,"rental_uris":{"android":"levelo://app?vid=fea3358b-abc0-4f17-856a-4131c4d369d6","ios":"levelo://app?vid=fea3358b-abc0-4f17-856a-4131c4d369d6"},"vehicle_type_id":"4","last_reported":1773733607,"current_range_meters":8000,"station_id":"ce4bhmh2rcd13ifvqgmg","pricing_plan_id":"cebpf4jnsgd1na2vs0mg"},{"bike_id":"8cb2a7a3-90e1-4b31-8c3b-89053d13e1d9","system_id":"levelo_inurba_marseille","lat":43.23202,"lon":5.35551,"is_reserved":false,"is_disabled":false,"rental_uris":{"android":"levelo://app?vid=8cb2a7a3-90e1-4b31-8c3b-89053d13e1d9","ios":"levelo://app?vid=8cb2a7a3-90e1-4b31-8c3b-89053d13e1d9"},"vehicle_type_id":"4","last_reported":1773733607,"current_range_meters":8000,"station_id":"ce4bhu92rcd13ifvqi70","pricing_plan_id":"cebpf4jnsgd1na2vs0mg"},{"bike_id":"c6ea2f5c-9526-441d-9d85-62feef7bcd12","system_id":"levelo_inurba_marseille","lat":43.31224,"lon":5.3687,"is_reserved":false,"is_disabled":false,"rental_uris":{"android":"levelo://app?vid=c6ea2f5c-9526-441d-9d85-62feef7bcd12","ios":"levelo://app?vid=c6ea2f5c-9526-441d-9d85-62feef7bcd12"},"vehicle_type_id":"4","last_reported":1773733607,"current_range_meters":8000,"station_id":"ce4bgl92rcd13ifvqbq0","pricing_plan_id":"cebpf4jnsgd1na2vs0mg"},{"bike_id":"6f83eb31-b48e-41cc-86f8-dc0cead3d767","system_id":"levelo_inurba_marseille","lat":43.21198,"lon":5.35072,"is_reserved":false,"is_disabled":false,"rental_uris":{"android":"levelo://app?vid=6f83eb31-b48e-41cc-86f8-dc0cead3d767","ios":"levelo://app?vid=6f83eb31-b48e-41cc-86f8-dc0cead3d767"},"vehicle_type_id":"4","last_reported":1773733607,"current_range_meters":8000,"station_id":"st_cvj6sg6p6f1abm77japg","pricing_plan_id":"cebpf4jnsgd1na2vs0mg"},{"bike_id":"d19cc7f8-fc7d-498a-a39d-447555cca4d6","system_id":"levelo_inurba_marseille","lat":43.31697,"lon":5.37799,"is_reserved":false,"is_disabled":false,"rental_uris":{"android":"levelo://app?vid=d19cc7f8-fc7d-498a-a39d-447555cca4d6","ios":"levelo://app?vid=d19cc7f8-fc7d-498a-a39d-447555cca4d6"},"vehicle_type_id":"4","last_reported":1773733607,"current_range_meters":8000,"station_id":"ce4bgth2rcd13ifvqch0","pricing_plan_id":"cebpf4jnsgd1na2vs0mg"},{"bike_id":"019469e2-77a8-4d0c-9467-93ec69d40b64","system_id":"levelo_inurba_marseille","lat":43.33588,"lon":5.41006,"is_reserved":false,"is_disabled":false,"rental_uris":{"android":"levelo://app?vid=019469e2-77a8-4d0c-9467-93ec69d40b64","ios":"levelo://app?vid=019469e2-77a8-4d0c-9467-93ec69d40b64"},"vehicle_type_id":"4","last_reported":1773733607,"current_range_meters":8000,"station_id":"ce4bhqh2rcd13ifvqhmg","pricing_plan_id":"cebpf4jnsgd1na2vs0mg"},{"bike_id":"a650f10d-9ab2-42e1-a1ec-b23d66310508","system_id":"levelo_inurba_marseille","lat":43.27365,"lon":5.42395,"is_reserved":false,"is_disabled":true,"rental_uris":{"android":"levelo://app?vid=a650f10d-9ab2-42e1-a1ec-b23d66310508","ios":"levelo://app?vid=a650f10d-9ab2-42e1-a1ec-b23d66310508"},"vehicle_type_id":"4","last_reported":1773733607,"current_range_meters":8000,"station_id":"","pricing_plan_id":"cebpf4jnsgd1na2vs0mg"},{"bike_id":"c6bad372-41ad-42c1-be12-31c25e37b1de","system_id":"levelo_inurba_marseille","lat":43.30148,"lon":5.38105,"is_reserved":false,"is_disabled":true,"rental_uris":{"android":"levelo://app?vid=c6bad372-41ad-42c1-be12-31c25e37b1de","ios":"levelo://app?vid=c6bad372-41ad-42c1-be12-31c25e37b1de"},"vehicle_type_id":"4","last_reported":1773733607,"current_range_meters":8000,"station_id":"ce4bgjp2rcd13ifvqbh0","pricing_plan_id":"cebpf4jnsgd1na2vs0mg"},{"bike_id":"99ba46b4-4c6f-44d5-9c27-ad82efd84c9b","system_id":"levelo_inurba_marseille","lat":43.21243,"lon":5.35126,"is_reserved":false,"is_disabled":false,"rental_uris":{"android":"levelo://app?vid=99ba46b4-4c6f-44d5-9c27-ad82efd84c9b","ios":"levelo://app?vid=99ba46b4-4c6f-44d5-9c27-ad82efd84c9b"},"vehicle_type_id":"4","last_reported":1773733607,"current_range_meters":8000,"station_id":"","pricing_plan_id":"cebpf4jnsgd1na2vs0mg"},{"bike_id":"0542897e-188d-4165-9b5c-2301d4b57446","system_id":"levelo_inurba_marseille","lat":43.3122,"lon":5.36843,"is_reserved":false,"is_disabled":false,"rental_uris":{"android":"levelo://app?vid=0542897e-188d-4165-9b5c-2301d4b57446","ios":"levelo://app?vid=0542897e-188d-4165-9b5c-2301d4b57446"},"vehicle_type_id":"4","last_reported":1773733607,"current_range_meters":8000,"station_id":"ce4bgl92rcd13ifvqbq0","pricing_plan_id":"cebpf4jnsgd1na2vs0mg"},{"bike_id":"37b76a4a-4617-40ad-8663-848e6cf36fa3","system_id":"levelo_inurba_marseille","lat":43.31516,"lon":5.36587,"is_reserved":false,"is_disabled":false,"rental_uris":{"android":"levelo://app?vid=37b76a4a-4617-40ad-8663-848e6cf36fa3","ios":"levelo://app?vid=37b76a4a-4617-40ad-8663-848e6cf36fa3"},"vehicle_type_id":"4","last_reported":1773733607,"current_range_meters":8000,"station_id":"","pricing_plan_id":"cebpf4jnsgd1na2vs0mg"},{"bike_id":"44abcca0-01f1-457d-9700-f4ae6bcdaacd","system_id":"levelo_inurba_marseille","lat":43.30942,"lon":5.39047,"is_reserved":false,"is_disabled":true,"rental_uris":{"android":"levelo://app?vid=44abcca0-01f1-457d-9700-f4ae6bcdaacd","ios":"levelo://app?vid=44abcca0-01f1-457d-9700-f4ae6bcdaacd"},"vehicle_type_id":"4","last_reported":1773733607,"current_range_meters":8000,"station_id":"ce4bgup2rcd13ifvqco0","pricing_plan_id":"cebpf4jnsgd1na2vs0mg"},{"bike_id":"947e1acd-8816-4ff5-9c35-e02eb3948228","system_id":"levelo_inurba_marseille","lat":43.29927,"lon":5.43721,"is_reserved":false,"is_disabled":false,"rental_uris":{"android":"levelo://app?vid=947e1acd-8816-4ff5-9c35-e02eb3948228","ios":"levelo://app?vid=947e1acd-8816-4ff5-9c35-e02eb3948228"},"vehicle_type_id":"4","last_reported":1773733607,"current_range_meters":8000,"station_id":"","pricing_plan_id":"cebpf4jnsgd1na2vs0mg"},{"bike_id":"75056a4b-7dce-4842-b5f6-e3da4f22a752","system_id":"levelo_inurba_marseille","lat":43.21756,"lon":5.34601,"is_reserved":false,"is_disabled":false,"rental_uris":{"android":"levelo://app?vid=75056a4b-7dce-4842-b5f6-e3da4f22a752","ios":"levelo://app?vid=75056a4b-7dce-4842-b5f6-e3da4f22a752"},"vehicle_type_id":"4","last_reported":1773733607,"current_range_meters":8000,"station_id":"st_cvj6r9ubvosntc0bgbag","pricing_plan_id":"cebpf4jnsgd1na2vs0mg"},{"bike_id":"36bcefea-1744-478b-a4f4-a282d99e8251","system_id":"levelo_inurba_marseille","lat":43.24547,"lon":5.3953,"is_reserved":false,"is_disabled":true,"rental_uris":{"android":"levelo://app?vid=36bcefea-1744-478b-a4f4-a282d99e8251","ios":"levelo://app?vid=36bcefea-1744-478b-a4f4-a282d99e8251"},"vehicle_type_id":"4","last_reported":1773733607,"current_range_meters":8000,"station_id":"ce4bhlp2rcd13ifvqgjg","pricing_plan_id":"cebpf4jnsgd1na2vs0mg"},{"bike_id":"a79e9eb1-8673-4dde-843b-dd2d68e5d0a6","system_id":"levelo_inurba_marseille","lat":43.30135,"lon":5.38118,"is_reserved":false,"is_disabled":false,"rental_uris":{"android":"levelo://app?vid=a79e9eb1-8673-4dde-843b-dd2d68e5d0a6","ios":"levelo://app?vid=a79e9eb1-8673-4dde-843b-dd2d68e5d0a6"},"vehicle_type_id":"4","last_reported":1773733607,"current_range_meters":8000,"station_id":"","pricing_plan_id":"cebpf4jnsgd1na2vs0mg"},{"bike_id":"3a2c16fa-f087-430f-a626-5009aeb4e722","system_id":"levelo_inurba_marseille","lat":43.27495,"lon":5.41604,"is_reserved":false,"is_disabled":true,"rental_uris":{"android":"levelo://app?vid=3a2c16fa-f087-430f-a626-5009aeb4e722","ios":"levelo://app?vid=3a2c16fa-f087-430f-a626-5009aeb4e722"},"vehicle_type_id":"4","last_reported":1773733607,"current_range_meters":8000,"station_id":"st_d6im8g6chgec73a5pndg","pricing_plan_id":"cebpf4jnsgd1na2vs0mg"},{"bike_id":"7d5b3664-02ce-4451-b3f2-afda1ab3ce3d","system_id":"levelo_inurba_marseille","lat":43.33546,"lon":5.37454,"is_reserved":false,"is_disabled":false,"rental_uris":{"android":"levelo://app?vid=7d5b3664-02ce-4451-b3f2-afda1ab3ce3d","ios":"levelo://app?vid=7d5b3664-02ce-4451-b3f2-afda1ab3ce3d"},"vehicle_type_id":"4","last_reported":1773733607,"current_range_meters":8000,"station_id":"st_d46tts09ee8s73dlu43g","pricing_plan_id":"cebpf4jnsgd1na2vs0mg"},{"bike_id":"70fdc065-93d6-4dd2-977b-71ec2a296371","system_id":"levelo_inurba_marseille","lat":43.21734,"lon":5.346,"is_reserved":false,"is_disabled":false,"rental_uris":{"android":"levelo://app?vid=70fdc065-93d6-4dd2-977b-71ec2a296371","ios":"levelo://app?vid=70fdc065-93d6-4dd2-977b-71ec2a296371"},"vehicle_type_id":"4","last_reported":1773733607,"current_range_meters":8400,"station_id":"st_cvj6r9ubvosntc0bgbag","pricing_plan_id":"cebpf4jnsgd1na2vs0mg"},{"bike_id":"f6c860f4-9c2e-4a13-b509-50fb1709859b","system_id":"levelo_inurba_marseille","lat":43.21183,"lon":5.35069,"is_reserved":false,"is_disabled":false,"rental_uris":{"android":"levelo://app?vid=f6c860f4-9c2e-4a13-b509-50fb1709859b","ios":"levelo://app?vid=f6c860f4-9c2e-4a13-b509-50fb1709859b"},"vehicle_type_id":"4","last_reported":1773733607,"current_range_meters":8400,"station_id":"st_cvj6sg6p6f1abm77japg","pricing_plan_id":"cebpf4jnsgd1na2vs0mg"},{"bike_id":"86f3c3e6-1877-45e4-95fe-47aa36990f39","system_id":"levelo_inurba_marseille","lat":43.31003,"lon":5.3716,"is_reserved":false,"is_disabled":false,"rental_uris":{"android":"levelo://app?vid=86f3c3e6-1877-45e4-95fe-47aa36990f39","ios":"levelo://app?vid=86f3c3e6-1877-45e4-95fe-47aa36990f39"},"vehicle_type_id":"4","last_reported":1773733607,"current_range_meters":8400,"station_id":"","pricing_plan_id":"cebpf4jnsgd1na2vs0mg"},{"bike_id":"a198b19a-147f-4fb3-822c-608a1d587cb8","system_id":"levelo_inurba_marseille","lat":43.21759,"lon":5.34593,"is_reserved":false,"is_disabled":false,"rental_uris":{"android":"levelo://app?vid=a198b19a-147f-4fb3-822c-608a1d587cb8","ios":"levelo://app?vid=a198b19a-147f-4fb3-822c-608a1d587cb8"},"vehicle_type_id":"4","last_reported":1773733607,"current_range_meters":8400,"station_id":"st_cvj6r9ubvosntc0bgbag","pricing_plan_id":"cebpf4jnsgd1na2vs0mg"},{"bike_id":"a172fb4c-0d89-4238-b899-c9d8e15b8540","system_id":"levelo_inurba_marseille","lat":43.2175,"lon":5.34615,"is_reserved":false,"is_disabled":false,"rental_uris":{"android":"levelo://app?vid=a172fb4c-0d89-4238-b899-c9d8e15b8540","ios":"levelo://app?vid=a172fb4c-0d89-4238-b899-c9d8e15b8540"},"vehicle_type_id":"4","last_reported":1773733607,"current_range_meters":8400,"station_id":"st_cvj6r9ubvosntc0bgbag","pricing_plan_id":"cebpf4jnsgd1na2vs0mg"},{"bike_id":"a18b068d-ee72-4ec9-8811-6eb4a904a5af","system_id":"levelo_inurba_marseille","lat":43.27375,"lon":5.36261,"is_reserved":false,"is_disabled":false,"rental_uris":{"android":"levelo://app?vid=a18b068d-ee72-4ec9-8811-6eb4a904a5af","ios":"levelo://app?vid=a18b068d-ee72-4ec9-8811-6eb4a904a5af"},"vehicle_type_id":"4","last_reported":1773733607,"current_range_meters":8400,"station_id":"ce4bhbh2rcd13ifvqeo0","pricing_plan_id":"cebpf4jnsgd1na2vs0mg"},{"bike_id":"85926107-e597-45a0-9a31-957d3d5f535c","system_id":"levelo_inurba_marseille","lat":43.29183,"lon":5.35794,"is_reserved":false,"is_disabled":false,"rental_uris":{"android":"levelo://app?vid=85926107-e597-45a0-9a31-957d3d5f535c","ios":"levelo://app?vid=85926107-e597-45a0-9a31-957d3d5f535c"},"vehicle_type_id":"4","last_reported":1773733607,"current_range_meters":8400,"station_id":"ce4bhb12rcd13ifvqel0","pricing_plan_id":"cebpf4jnsgd1na2vs0mg"},{"bike_id":"a9bf5289-9f8f-47c7-87e4-10466567bbec","system_id":"levelo_inurba_marseille","lat":43.28875,"lon":5.36508,"is_reserved":false,"is_disabled":false,"rental_uris":{"android":"levelo://app?vid=a9bf5289-9f8f-47c7-87e4-10466567bbec","ios":"levelo://app?vid=a9bf5289-9f8f-47c7-87e4-10466567bbec"},"vehicle_type_id":"4","last_reported":1773733607,"current_range_meters":8400,"station_id":"","pricing_plan_id":"cebpf4jnsgd1na2vs0mg"},{"bike_id":"cc5fc361-e677-4693-8a3b-54577a2e489f","system_id":"levelo_inurba_marseille","lat":43.30541,"lon":5.36557,"is_reserved":false,"is_disabled":false,"rental_uris":{"android":"levelo://app?vid=cc5fc361-e677-4693-8a3b-54577a2e489f","ios":"levelo://app?vid=cc5fc361-e677-4693-8a3b-54577a2e489f"},"vehicle_type_id":"4","last_reported":1773733607,"current_range_meters":8400,"station_id":"ce4bgs12rcd13ifvqcag","pricing_plan_id":"cebpf4jnsgd1na2vs0mg"},{"bike_id":"4758d3f8-edf7-48c4-932a-34b8f81efb84","system_id":"levelo_inurba_marseille","lat":43.25339,"lon":5.42176,"is_reserved":false,"is_disabled":false,"rental_uris":{"android":"levelo://app?vid=4758d3f8-edf7-48c4-932a-34b8f81efb84","ios":"levelo://app?vid=4758d3f8-edf7-48c4-932a-34b8f81efb84"},"vehicle_type_id":"4","last_reported":1773733607,"current_range_meters":8400,"station_id":"st_d2m65c5bi1j21697t3ng","pricing_plan_id":"cebpf4jnsgd1na2vs0mg"},{"bike_id":"1f5bfe55-41d9-43f3-a84f-b130fbed01d6","system_id":"levelo_inurba_marseille","lat":43.21183,"lon":5.3508,"is_reserved":false,"is_disabled":false,"rental_uris":{"android":"levelo://app?vid=1f5bfe55-41d9-43f3-a84f-b130fbed01d6","ios":"levelo://app?vid=1f5bfe55-41d9-43f3-a84f-b130fbed01d6"},"vehicle_type_id":"4","last_reported":1773733607,"current_range_meters":8400,"station_id":"st_cvj6sg6p6f1abm77japg","pricing_plan_id":"cebpf4jnsgd1na2vs0mg"},{"bike_id":"e4d2ece5-1e4a-4549-91d4-161778ebf1e1","system_id":"levelo_inurba_marseille","lat":43.298,"lon":5.38109,"is_reserved":false,"is_disabled":false,"rental_uris":{"android":"levelo://app?vid=e4d2ece5-1e4a-4549-91d4-161778ebf1e1","ios":"levelo://app?vid=e4d2ece5-1e4a-4549-91d4-161778ebf1e1"},"vehicle_type_id":"4","last_reported":1773733607,"current_range_meters":8400,"station_id":"ce4bgip2rcd13ifvqbb0","pricing_plan_id":"cebpf4jnsgd1na2vs0mg"},{"bike_id":"5efbfe77-f336-4734-90ae-6b59653d3d20","system_id":"levelo_inurba_marseille","lat":43.26589,"lon":5.39051,"is_reserved":false,"is_disabled":true,"rental_uris":{"android":"levelo://app?vid=5efbfe77-f336-4734-90ae-6b59653d3d20","ios":"levelo://app?vid=5efbfe77-f336-4734-90ae-6b59653d3d20"},"vehicle_type_id":"4","last_reported":1773733607,"current_range_meters":8400,"station_id":"","pricing_plan_id":"cebpf4jnsgd1na2vs0mg"},{"bike_id":"6c7da26a-6e3c-4915-81a4-435886bc144f","system_id":"levelo_inurba_marseille","lat":43.23233,"lon":5.35546,"is_reserved":false,"is_disabled":false,"rental_uris":{"android":"levelo://app?vid=6c7da26a-6e3c-4915-81a4-435886bc144f","ios":"levelo://app?vid=6c7da26a-6e3c-4915-81a4-435886bc144f"},"vehicle_type_id":"4","last_reported":1773733607,"current_range_meters":8400,"station_id":"ce4bhu92rcd13ifvqi70","pricing_plan_id":"cebpf4jnsgd1na2vs0mg"},{"bike_id":"811cb60e-c2e0-4eff-a720-ab1d90d9f80a","system_id":"levelo_inurba_marseille","lat":43.23378,"lon":5.4124,"is_reserved":false,"is_disabled":false,"rental_uris":{"android":"levelo://app?vid=811cb60e-c2e0-4eff-a720-ab1d90d9f80a","ios":"levelo://app?vid=811cb60e-c2e0-4eff-a720-ab1d90d9f80a"},"vehicle_type_id":"4","last_reported":1773733607,"current_range_meters":8400,"station_id":"","pricing_plan_id":"cebpf4jnsgd1na2vs0mg"},{"bike_id":"f7149018-82ef-4598-a861-51a45f2db631","system_id":"levelo_inurba_marseille","lat":43.25935,"lon":5.40911,"is_reserved":false,"is_disabled":false,"rental_uris":{"android":"levelo://app?vid=f7149018-82ef-4598-a861-51a45f2db631","ios":"levelo://app?vid=f7149018-82ef-4598-a861-51a45f2db631"},"vehicle_type_id":"4","last_reported":1773733607,"current_range_meters":8400,"station_id":"ce4bhm92rcd13ifvqglg","pricing_plan_id":"cebpf4jnsgd1na2vs0mg"},{"bike_id":"1f30759f-6331-4ddd-bc9a-6b33c2e8e2e5","system_id":"levelo_inurba_marseille","lat":43.21771,"lon":5.34627,"is_reserved":false,"is_disabled":false,"rental_uris":{"android":"levelo://app?vid=1f30759f-6331-4ddd-bc9a-6b33c2e8e2e5","ios":"levelo://app?vid=1f30759f-6331-4ddd-bc9a-6b33c2e8e2e5"},"vehicle_type_id":"4","last_reported":1773733607,"current_range_meters":8800,"station_id":"st_cvj6r9ubvosntc0bgbag","pricing_plan_id":"cebpf4jnsgd1na2vs0mg"},{"bike_id":"458f604b-e062-47bf-ac14-a001a31d10d8","system_id":"levelo_inurba_marseille","lat":43.28492,"lon":5.48368,"is_reserved":false,"is_disabled":false,"rental_uris":{"android":"levelo://app?vid=458f604b-e062-47bf-ac14-a001a31d10d8","ios":"levelo://app?vid=458f604b-e062-47bf-ac14-a001a31d10d8"},"vehicle_type_id":"4","last_reported":1773733607,"current_range_meters":8800,"station_id":"","pricing_plan_id":"cebpf4jnsgd1na2vs0mg"},{"bike_id":"80a15d14-41aa-431d-84bd-261949b23c6f","system_id":"levelo_inurba_marseille","lat":43.29214,"lon":5.36071,"is_reserved":false,"is_disabled":false,"rental_uris":{"android":"levelo://app?vid=80a15d14-41aa-431d-84bd-261949b23c6f","ios":"levelo://app?vid=80a15d14-41aa-431d-84bd-261949b23c6f"},"vehicle_type_id":"4","last_reported":1773733607,"current_range_meters":8800,"station_id":"ce4bhbh2rcd13ifvqeqg","pricing_plan_id":"cebpf4jnsgd1na2vs0mg"},{"bike_id":"8db965e7-51b6-419b-a2fc-615dc14bbde5","system_id":"levelo_inurba_marseille","lat":43.28259,"lon":5.35074,"is_reserved":false,"is_disabled":false,"rental_uris":{"android":"levelo://app?vid=8db965e7-51b6-419b-a2fc-615dc14bbde5","ios":"levelo://app?vid=8db965e7-51b6-419b-a2fc-615dc14bbde5"},"vehicle_type_id":"4","last_reported":1773733607,"current_range_meters":8800,"station_id":"ce4bhbp2rcd13ifvqerg","pricing_plan_id":"cebpf4jnsgd1na2vs0mg"},{"bike_id":"14dcdc40-36dc-4067-aa8c-f38628e524ec","system_id":"levelo_inurba_marseille","lat":43.301341,"lon":5.374137,"is_reserved":false,"is_disabled":false,"rental_uris":{"android":"levelo://app?vid=14dcdc40-36dc-4067-aa8c-f38628e524ec","ios":"levelo://app?vid=14dcdc40-36dc-4067-aa8c-f38628e524ec"},"vehicle_type_id":"4","last_reported":1773733607,"current_range_meters":8800,"station_id":"ce4bgs92rcd13ifvqcc0","pricing_plan_id":"cebpf4jnsgd1na2vs0mg"},{"bike_id":"e19bbcec-af9d-483d-ac29-18df3b9c0ab9","system_id":"levelo_inurba_marseille","lat":43.28481,"lon":5.48399,"is_reserved":false,"is_disabled":false,"rental_uris":{"android":"levelo://app?vid=e19bbcec-af9d-483d-ac29-18df3b9c0ab9","ios":"levelo://app?vid=e19bbcec-af9d-483d-ac29-18df3b9c0ab9"},"vehicle_type_id":"4","last_reported":1773733607,"current_range_meters":8800,"station_id":"st_d3svhcjqgbts73a3dn0g","pricing_plan_id":"cebpf4jnsgd1na2vs0mg"},{"bike_id":"9985140f-fed1-4163-9957-5fc76200bd08","system_id":"levelo_inurba_marseille","lat":43.30184,"lon":5.38055,"is_reserved":false,"is_disabled":true,"rental_uris":{"android":"levelo://app?vid=9985140f-fed1-4163-9957-5fc76200bd08","ios":"levelo://app?vid=9985140f-fed1-4163-9957-5fc76200bd08"},"vehicle_type_id":"4","last_reported":1773733607,"current_range_meters":8800,"station_id":"","pricing_plan_id":"cebpf4jnsgd1na2vs0mg"},{"bike_id":"7e372e61-a4a4-4320-b78e-0115edf72ed5","system_id":"levelo_inurba_marseille","lat":43.24172,"lon":5.364,"is_reserved":false,"is_disabled":true,"rental_uris":{"android":"levelo://app?vid=7e372e61-a4a4-4320-b78e-0115edf72ed5","ios":"levelo://app?vid=7e372e61-a4a4-4320-b78e-0115edf72ed5"},"vehicle_type_id":"4","last_reported":1773733607,"current_range_meters":8800,"station_id":"cpo36qri1sfpv3e86is0","pricing_plan_id":"cebpf4jnsgd1na2vs0mg"},{"bike_id":"f7cad0dd-4929-454b-8848-7575c69435e1","system_id":"levelo_inurba_marseille","lat":43.25864,"lon":5.39905,"is_reserved":false,"is_disabled":true,"rental_uris":{"android":"levelo://app?vid=f7cad0dd-4929-454b-8848-7575c69435e1","ios":"levelo://app?vid=f7cad0dd-4929-454b-8848-7575c69435e1"},"vehicle_type_id":"4","last_reported":1773733607,"current_range_meters":8800,"station_id":"ce4bhl92rcd13ifvqghg","pricing_plan_id":"cebpf4jnsgd1na2vs0mg"},{"bike_id":"b9ef10fd-0204-4e5f-bc92-673f50a6fcb4","system_id":"levelo_inurba_marseille","lat":43.21207,"lon":5.35068,"is_reserved":false,"is_disabled":false,"rental_uris":{"android":"levelo://app?vid=b9ef10fd-0204-4e5f-bc92-673f50a6fcb4","ios":"levelo://app?vid=b9ef10fd-0204-4e5f-bc92-673f50a6fcb4"},"vehicle_type_id":"4","last_reported":1773733607,"current_range_meters":8800,"station_id":"","pricing_plan_id":"cebpf4jnsgd1na2vs0mg"},{"bike_id":"fedd208b-765e-4da1-9fcc-65999b120e19","system_id":"levelo_inurba_marseille","lat":43.24443,"lon":5.37001,"is_reserved":false,"is_disabled":false,"rental_uris":{"android":"levelo://app?vid=fedd208b-765e-4da1-9fcc-65999b120e19","ios":"levelo://app?vid=fedd208b-765e-4da1-9fcc-65999b120e19"},"vehicle_type_id":"4","last_reported":1773733607,"current_range_meters":8800,"station_id":"","pricing_plan_id":"cebpf4jnsgd1na2vs0mg"},{"bike_id":"6aa823cd-4931-4f3f-9262-0dcb3ae7b7e9","system_id":"levelo_inurba_marseille","lat":43.24811,"lon":5.37439,"is_reserved":false,"is_disabled":false,"rental_uris":{"android":"levelo://app?vid=6aa823cd-4931-4f3f-9262-0dcb3ae7b7e9","ios":"levelo://app?vid=6aa823cd-4931-4f3f-9262-0dcb3ae7b7e9"},"vehicle_type_id":"4","last_reported":1773733607,"current_range_meters":8800,"station_id":"ce4bhgh2rcd13ifvqfb0","pricing_plan_id":"cebpf4jnsgd1na2vs0mg"},{"bike_id":"80db3609-75ad-4c89-b2ce-16c9992dcab3","system_id":"levelo_inurba_marseille","lat":43.22903,"lon":5.35367,"is_reserved":false,"is_disabled":false,"rental_uris":{"android":"levelo://app?vid=80db3609-75ad-4c89-b2ce-16c9992dcab3","ios":"levelo://app?vid=80db3609-75ad-4c89-b2ce-16c9992dcab3"},"vehicle_type_id":"4","last_reported":1773733607,"current_range_meters":8800,"station_id":"cpo3532slgdg3j2ikp40","pricing_plan_id":"cebpf4jnsgd1na2vs0mg"},{"bike_id":"8679e0b9-667d-427e-8217-48aff02eecf2","system_id":"levelo_inurba_marseille","lat":43.3054,"lon":5.36705,"is_reserved":false,"is_disabled":false,"rental_uris":{"android":"levelo://app?vid=8679e0b9-667d-427e-8217-48aff02eecf2","ios":"levelo://app?vid=8679e0b9-667d-427e-8217-48aff02eecf2"},"vehicle_type_id":"4","last_reported":1773733607,"current_range_meters":8800,"station_id":"ce4bgrp2rcd13ifvqc9g","pricing_plan_id":"cebpf4jnsgd1na2vs0mg"},{"bike_id":"c35776a3-1ecf-486f-b6de-0c7c3e2f2dd1","system_id":"levelo_inurba_marseille","lat":43.3073,"lon":5.42433,"is_reserved":false,"is_disabled":false,"rental_uris":{"android":"levelo://app?vid=c35776a3-1ecf-486f-b6de-0c7c3e2f2dd1","ios":"levelo://app?vid=c35776a3-1ecf-486f-b6de-0c7c3e2f2dd1"},"vehicle_type_id":"4","last_reported":1773733607,"current_range_meters":8800,"station_id":"st_cvj6ca6bvosntc0bfgr0","pricing_plan_id":"cebpf4jnsgd1na2vs0mg"},{"bike_id":"f740cb29-e33e-448a-8ce5-5886eb74e940","system_id":"levelo_inurba_marseille","lat":43.26222,"lon":5.37452,"is_reserved":false,"is_disabled":false,"rental_uris":{"android":"levelo://app?vid=f740cb29-e33e-448a-8ce5-5886eb74e940","ios":"levelo://app?vid=f740cb29-e33e-448a-8ce5-5886eb74e940"},"vehicle_type_id":"4","last_reported":1773733607,"current_range_meters":8800,"station_id":"ce4bhgp2rcd13ifvqfc0","pricing_plan_id":"cebpf4jnsgd1na2vs0mg"},{"bike_id":"f8a00c49-c93d-41ce-9f11-d81257ca6394","system_id":"levelo_inurba_marseille","lat":43.22956,"lon":5.35381,"is_reserved":false,"is_disabled":false,"rental_uris":{"android":"levelo://app?vid=f8a00c49-c93d-41ce-9f11-d81257ca6394","ios":"levelo://app?vid=f8a00c49-c93d-41ce-9f11-d81257ca6394"},"vehicle_type_id":"4","last_reported":1773733607,"current_range_meters":8800,"station_id":"cpo3532slgdg3j2ikp40","pricing_plan_id":"cebpf4jnsgd1na2vs0mg"},{"bike_id":"0ebe125c-0403-4c11-9dc0-82c2407d44ea","system_id":"levelo_inurba_marseille","lat":43.24065,"lon":5.37749,"is_reserved":false,"is_disabled":false,"rental_uris":{"android":"levelo://app?vid=0ebe125c-0403-4c11-9dc0-82c2407d44ea","ios":"levelo://app?vid=0ebe125c-0403-4c11-9dc0-82c2407d44ea"},"vehicle_type_id":"4","last_reported":1773733607,"current_range_meters":8800,"station_id":"ce4bhnp2rcd13ifvqgvg","pricing_plan_id":"cebpf4jnsgd1na2vs0mg"},{"bike_id":"1fa31361-dec7-4560-8527-d475bfd1b7fb","system_id":"levelo_inurba_marseille","lat":43.30763,"lon":5.42457,"is_reserved":false,"is_disabled":false,"rental_uris":{"android":"levelo://app?vid=1fa31361-dec7-4560-8527-d475bfd1b7fb","ios":"levelo://app?vid=1fa31361-dec7-4560-8527-d475bfd1b7fb"},"vehicle_type_id":"4","last_reported":1773733607,"current_range_meters":8800,"station_id":"st_cvj6ca6bvosntc0bfgr0","pricing_plan_id":"cebpf4jnsgd1na2vs0mg"},{"bike_id":"c2c7c530-5d90-493e-bc68-4654d00e1dc7","system_id":"levelo_inurba_marseille","lat":43.25201,"lon":5.40614,"is_reserved":false,"is_disabled":false,"rental_uris":{"android":"levelo://app?vid=c2c7c530-5d90-493e-bc68-4654d00e1dc7","ios":"levelo://app?vid=c2c7c530-5d90-493e-bc68-4654d00e1dc7"},"vehicle_type_id":"4","last_reported":1773733607,"current_range_meters":8800,"station_id":"","pricing_plan_id":"cebpf4jnsgd1na2vs0mg"},{"bike_id":"9a0a61e3-6fa3-401b-a271-9eda25d49c69","system_id":"levelo_inurba_marseille","lat":43.2922,"lon":5.39325,"is_reserved":false,"is_disabled":true,"rental_uris":{"android":"levelo://app?vid=9a0a61e3-6fa3-401b-a271-9eda25d49c69","ios":"levelo://app?vid=9a0a61e3-6fa3-401b-a271-9eda25d49c69"},"vehicle_type_id":"4","last_reported":1773733607,"current_range_meters":9200,"station_id":"ce4bh192rcd13ifvqdd0","pricing_plan_id":"cebpf4jnsgd1na2vs0mg"},{"bike_id":"8611a375-7312-462c-a106-d1da01d8cd25","system_id":"levelo_inurba_marseille","lat":43.30178,"lon":5.38086,"is_reserved":false,"is_disabled":false,"rental_uris":{"android":"levelo://app?vid=8611a375-7312-462c-a106-d1da01d8cd25","ios":"levelo://app?vid=8611a375-7312-462c-a106-d1da01d8cd25"},"vehicle_type_id":"4","last_reported":1773733607,"current_range_meters":9200,"station_id":"ce4bgjp2rcd13ifvqbh0","pricing_plan_id":"cebpf4jnsgd1na2vs0mg"},{"bike_id":"a8ae2d18-f400-4498-a610-fcd02a4b26fa","system_id":"levelo_inurba_marseille","lat":43.27987,"lon":5.40023,"is_reserved":false,"is_disabled":false,"rental_uris":{"android":"levelo://app?vid=a8ae2d18-f400-4498-a610-fcd02a4b26fa","ios":"levelo://app?vid=a8ae2d18-f400-4498-a610-fcd02a4b26fa"},"vehicle_type_id":"4","last_reported":1773733607,"current_range_meters":9200,"station_id":"ce4bho92rcd13ifvqh4g","pricing_plan_id":"cebpf4jnsgd1na2vs0mg"},{"bike_id":"9a01ef4e-41b8-4c32-a1bc-678657b841e3","system_id":"levelo_inurba_marseille","lat":43.24394,"lon":5.37032,"is_reserved":false,"is_disabled":false,"rental_uris":{"android":"levelo://app?vid=9a01ef4e-41b8-4c32-a1bc-678657b841e3","ios":"levelo://app?vid=9a01ef4e-41b8-4c32-a1bc-678657b841e3"},"vehicle_type_id":"4","last_reported":1773733607,"current_range_meters":9200,"station_id":"ce4bhhh2rcd13ifvqfk0","pricing_plan_id":"cebpf4jnsgd1na2vs0mg"},{"bike_id":"7de93edb-7e27-48f4-8967-3bca4db9d272","system_id":"levelo_inurba_marseille","lat":43.28194,"lon":5.4266,"is_reserved":false,"is_disabled":false,"rental_uris":{"android":"levelo://app?vid=7de93edb-7e27-48f4-8967-3bca4db9d272","ios":"levelo://app?vid=7de93edb-7e27-48f4-8967-3bca4db9d272"},"vehicle_type_id":"4","last_reported":1773733607,"current_range_meters":9200,"station_id":"ce4bhnh2rcd13ifvqgug","pricing_plan_id":"cebpf4jnsgd1na2vs0mg"},{"bike_id":"e563383a-8a89-4304-b11f-18268886193e","system_id":"levelo_inurba_marseille","lat":43.25575,"lon":5.38239,"is_reserved":false,"is_disabled":false,"rental_uris":{"android":"levelo://app?vid=e563383a-8a89-4304-b11f-18268886193e","ios":"levelo://app?vid=e563383a-8a89-4304-b11f-18268886193e"},"vehicle_type_id":"4","last_reported":1773733607,"current_range_meters":9200,"station_id":"ce4bhih2rcd13ifvqfs0","pricing_plan_id":"cebpf4jnsgd1na2vs0mg"},{"bike_id":"cc897b25-9ddc-4b12-bd8a-bfb7db8696bd","system_id":"levelo_inurba_marseille","lat":43.24554,"lon":5.39538,"is_reserved":false,"is_disabled":false,"rental_uris":{"android":"levelo://app?vid=cc897b25-9ddc-4b12-bd8a-bfb7db8696bd","ios":"levelo://app?vid=cc897b25-9ddc-4b12-bd8a-bfb7db8696bd"},"vehicle_type_id":"4","last_reported":1773733607,"current_range_meters":9200,"station_id":"ce4bhlp2rcd13ifvqgjg","pricing_plan_id":"cebpf4jnsgd1na2vs0mg"},{"bike_id":"e13f25ab-2e3f-4635-8b03-e38c0f37178e","system_id":"levelo_inurba_marseille","lat":43.24558,"lon":5.39527,"is_reserved":false,"is_disabled":false,"rental_uris":{"android":"levelo://app?vid=e13f25ab-2e3f-4635-8b03-e38c0f37178e","ios":"levelo://app?vid=e13f25ab-2e3f-4635-8b03-e38c0f37178e"},"vehicle_type_id":"4","last_reported":1773733607,"current_range_meters":9200,"station_id":"ce4bhlp2rcd13ifvqgjg","pricing_plan_id":"cebpf4jnsgd1na2vs0mg"},{"bike_id":"e1c02906-65b5-4280-850f-f96630d9b6ef","system_id":"levelo_inurba_marseille","lat":43.2706,"lon":5.40256,"is_reserved":false,"is_disabled":true,"rental_uris":{"android":"levelo://app?vid=e1c02906-65b5-4280-850f-f96630d9b6ef","ios":"levelo://app?vid=e1c02906-65b5-4280-850f-f96630d9b6ef"},"vehicle_type_id":"4","last_reported":1773733607,"current_range_meters":9200,"station_id":"ce4bhk92rcd13ifvqgc0","pricing_plan_id":"cebpf4jnsgd1na2vs0mg"},{"bike_id":"a6f19a37-9329-4bf9-92ee-9819dc70cf13","system_id":"levelo_inurba_marseille","lat":43.24183,"lon":5.3973,"is_reserved":false,"is_disabled":false,"rental_uris":{"android":"levelo://app?vid=a6f19a37-9329-4bf9-92ee-9819dc70cf13","ios":"levelo://app?vid=a6f19a37-9329-4bf9-92ee-9819dc70cf13"},"vehicle_type_id":"4","last_reported":1773733607,"current_range_meters":9200,"station_id":"ce4bhn12rcd13ifvqgpg","pricing_plan_id":"cebpf4jnsgd1na2vs0mg"},{"bike_id":"d6134452-175b-4fbd-a098-a4203d039d6a","system_id":"levelo_inurba_marseille","lat":43.25505,"lon":5.37662,"is_reserved":false,"is_disabled":false,"rental_uris":{"android":"levelo://app?vid=d6134452-175b-4fbd-a098-a4203d039d6a","ios":"levelo://app?vid=d6134452-175b-4fbd-a098-a4203d039d6a"},"vehicle_type_id":"4","last_reported":1773733607,"current_range_meters":9200,"station_id":"ce4bhh12rcd13ifvqff0","pricing_plan_id":"cebpf4jnsgd1na2vs0mg"},{"bike_id":"5c905397-02bb-4489-bc2a-606670e3b8c3","system_id":"levelo_inurba_marseille","lat":43.27174,"lon":5.40999,"is_reserved":false,"is_disabled":false,"rental_uris":{"android":"levelo://app?vid=5c905397-02bb-4489-bc2a-606670e3b8c3","ios":"levelo://app?vid=5c905397-02bb-4489-bc2a-606670e3b8c3"},"vehicle_type_id":"4","last_reported":1773733607,"current_range_meters":9200,"station_id":"ce4bhl12rcd13ifvqgf0","pricing_plan_id":"cebpf4jnsgd1na2vs0mg"},{"bike_id":"2e152780-0c5b-4bb2-b8e8-f7095ec5460a","system_id":"levelo_inurba_marseille","lat":43.287122,"lon":5.400025,"is_reserved":false,"is_disabled":true,"rental_uris":{"android":"levelo://app?vid=2e152780-0c5b-4bb2-b8e8-f7095ec5460a","ios":"levelo://app?vid=2e152780-0c5b-4bb2-b8e8-f7095ec5460a"},"vehicle_type_id":"4","last_reported":1773733607,"current_range_meters":9200,"station_id":"st_d4a7ka997mjs738ck50g","pricing_plan_id":"cebpf4jnsgd1na2vs0mg"},{"bike_id":"550943a9-2bf6-4eb7-92d6-ba75d636e916","system_id":"levelo_inurba_marseille","lat":43.33723,"lon":5.39191,"is_reserved":false,"is_disabled":false,"rental_uris":{"android":"levelo://app?vid=550943a9-2bf6-4eb7-92d6-ba75d636e916","ios":"levelo://app?vid=550943a9-2bf6-4eb7-92d6-ba75d636e916"},"vehicle_type_id":"4","last_reported":1773733607,"current_range_meters":9200,"station_id":"ce4bhr92rcd13ifvqhsg","pricing_plan_id":"cebpf4jnsgd1na2vs0mg"},{"bike_id":"e23e1191-2035-42cd-a3d3-10fa1b8d803f","system_id":"levelo_inurba_marseille","lat":43.29608,"lon":5.38093,"is_reserved":false,"is_disabled":false,"rental_uris":{"android":"levelo://app?vid=e23e1191-2035-42cd-a3d3-10fa1b8d803f","ios":"levelo://app?vid=e23e1191-2035-42cd-a3d3-10fa1b8d803f"},"vehicle_type_id":"4","last_reported":1773733607,"current_range_meters":9200,"station_id":"ce4bgl12rcd13ifvqbo0","pricing_plan_id":"cebpf4jnsgd1na2vs0mg"},{"bike_id":"8a4a129c-900f-4987-8e43-faa3977d59f0","system_id":"levelo_inurba_marseille","lat":43.26543,"lon":5.37287,"is_reserved":false,"is_disabled":false,"rental_uris":{"android":"levelo://app?vid=8a4a129c-900f-4987-8e43-faa3977d59f0","ios":"levelo://app?vid=8a4a129c-900f-4987-8e43-faa3977d59f0"},"vehicle_type_id":"4","last_reported":1773733607,"current_range_meters":9200,"station_id":"ce4bhg12rcd13ifvqf70","pricing_plan_id":"cebpf4jnsgd1na2vs0mg"},{"bike_id":"0922850f-97f4-4d5f-9c96-79b1b2616092","system_id":"levelo_inurba_marseille","lat":43.29584,"lon":5.37524,"is_reserved":false,"is_disabled":false,"rental_uris":{"android":"levelo://app?vid=0922850f-97f4-4d5f-9c96-79b1b2616092","ios":"levelo://app?vid=0922850f-97f4-4d5f-9c96-79b1b2616092"},"vehicle_type_id":"4","last_reported":1773733607,"current_range_meters":9200,"station_id":"ce4bgh92rcd13ifvqb50","pricing_plan_id":"cebpf4jnsgd1na2vs0mg"},{"bike_id":"b9f2e5d5-d6ac-4c0d-86f2-4fe1a54ef3b3","system_id":"levelo_inurba_marseille","lat":43.32102,"lon":5.3678,"is_reserved":false,"is_disabled":false,"rental_uris":{"android":"levelo://app?vid=b9f2e5d5-d6ac-4c0d-86f2-4fe1a54ef3b3","ios":"levelo://app?vid=b9f2e5d5-d6ac-4c0d-86f2-4fe1a54ef3b3"},"vehicle_type_id":"4","last_reported":1773733607,"current_range_meters":9200,"station_id":"ce4bhrh2rcd13ifvqhug","pricing_plan_id":"cebpf4jnsgd1na2vs0mg"},{"bike_id":"2f53fca6-cd56-49e0-bd61-3589a09d3950","system_id":"levelo_inurba_marseille","lat":43.28564,"lon":5.44122,"is_reserved":false,"is_disabled":false,"rental_uris":{"android":"levelo://app?vid=2f53fca6-cd56-49e0-bd61-3589a09d3950","ios":"levelo://app?vid=2f53fca6-cd56-49e0-bd61-3589a09d3950"},"vehicle_type_id":"4","last_reported":1773733607,"current_range_meters":9200,"station_id":"st_d3j3df2ikq2c7380ej80","pricing_plan_id":"cebpf4jnsgd1na2vs0mg"},{"bike_id":"d7d6def4-ed56-402e-9ec3-21bfda07833a","system_id":"levelo_inurba_marseille","lat":43.29984,"lon":5.38491,"is_reserved":false,"is_disabled":true,"rental_uris":{"android":"levelo://app?vid=d7d6def4-ed56-402e-9ec3-21bfda07833a","ios":"levelo://app?vid=d7d6def4-ed56-402e-9ec3-21bfda07833a"},"vehicle_type_id":"4","last_reported":1773733607,"current_range_meters":9200,"station_id":"ce4bgj92rcd13ifvqbd0","pricing_plan_id":"cebpf4jnsgd1na2vs0mg"},{"bike_id":"d127c51e-1fef-4544-a035-9a9b1bf66d76","system_id":"levelo_inurba_marseille","lat":43.26964,"lon":5.38635,"is_reserved":false,"is_disabled":false,"rental_uris":{"android":"levelo://app?vid=d127c51e-1fef-4544-a035-9a9b1bf66d76","ios":"levelo://app?vid=d127c51e-1fef-4544-a035-9a9b1bf66d76"},"vehicle_type_id":"4","last_reported":1773733607,"current_range_meters":9200,"station_id":"ce4bhh92rcd13ifvqfh0","pricing_plan_id":"cebpf4jnsgd1na2vs0mg"},{"bike_id":"a4d7d7f3-a53e-4099-befd-349a9e8eae8c","system_id":"levelo_inurba_marseille","lat":43.302728,"lon":5.390397,"is_reserved":false,"is_disabled":false,"rental_uris":{"android":"levelo://app?vid=a4d7d7f3-a53e-4099-befd-349a9e8eae8c","ios":"levelo://app?vid=a4d7d7f3-a53e-4099-befd-349a9e8eae8c"},"vehicle_type_id":"4","last_reported":1773733607,"current_range_meters":9600,"station_id":"ce4bgkh2rcd13ifvqbk0","pricing_plan_id":"cebpf4jnsgd1na2vs0mg"},{"bike_id":"135e859a-8ba8-4c8c-9796-08719edec80d","system_id":"levelo_inurba_marseille","lat":43.30908,"lon":5.36847,"is_reserved":false,"is_disabled":false,"rental_uris":{"android":"levelo://app?vid=135e859a-8ba8-4c8c-9796-08719edec80d","ios":"levelo://app?vid=135e859a-8ba8-4c8c-9796-08719edec80d"},"vehicle_type_id":"4","last_reported":1773733607,"current_range_meters":9600,"station_id":"ce4bgn92rcd13ifvqbvg","pricing_plan_id":"cebpf4jnsgd1na2vs0mg"},{"bike_id":"6ac9fba9-cbd8-4e41-8d10-8d9aa767f584","system_id":"levelo_inurba_marseille","lat":43.27664,"lon":5.38893,"is_reserved":false,"is_disabled":true,"rental_uris":{"android":"levelo://app?vid=6ac9fba9-cbd8-4e41-8d10-8d9aa767f584","ios":"levelo://app?vid=6ac9fba9-cbd8-4e41-8d10-8d9aa767f584"},"vehicle_type_id":"4","last_reported":1773733607,"current_range_meters":9600,"station_id":"ce4bhi12rcd13ifvqfo0","pricing_plan_id":"cebpf4jnsgd1na2vs0mg"},{"bike_id":"73f59619-b8fb-4247-8fd5-e2dcc21c22ed","system_id":"levelo_inurba_marseille","lat":43.30526,"lon":5.36555,"is_reserved":false,"is_disabled":false,"rental_uris":{"android":"levelo://app?vid=73f59619-b8fb-4247-8fd5-e2dcc21c22ed","ios":"levelo://app?vid=73f59619-b8fb-4247-8fd5-e2dcc21c22ed"},"vehicle_type_id":"4","last_reported":1773733607,"current_range_meters":9600,"station_id":"ce4bgs12rcd13ifvqcag","pricing_plan_id":"cebpf4jnsgd1na2vs0mg"},{"bike_id":"6f4ac767-1379-4021-8bb9-3a29886db6bd","system_id":"levelo_inurba_marseille","lat":43.23149,"lon":5.43711,"is_reserved":false,"is_disabled":false,"rental_uris":{"android":"levelo://app?vid=6f4ac767-1379-4021-8bb9-3a29886db6bd","ios":"levelo://app?vid=6f4ac767-1379-4021-8bb9-3a29886db6bd"},"vehicle_type_id":"4","last_reported":1773733607,"current_range_meters":9600,"station_id":"ce4bhmp2rcd13ifvqgog","pricing_plan_id":"cebpf4jnsgd1na2vs0mg"},{"bike_id":"145cf909-0a6f-49d8-9ad7-e55b549465ae","system_id":"levelo_inurba_marseille","lat":43.25628,"lon":5.38593,"is_reserved":false,"is_disabled":false,"rental_uris":{"android":"levelo://app?vid=145cf909-0a6f-49d8-9ad7-e55b549465ae","ios":"levelo://app?vid=145cf909-0a6f-49d8-9ad7-e55b549465ae"},"vehicle_type_id":"4","last_reported":1773733607,"current_range_meters":9600,"station_id":"","pricing_plan_id":"cebpf4jnsgd1na2vs0mg"},{"bike_id":"f0a5fedf-bcef-42eb-a048-e260fe29ba5c","system_id":"levelo_inurba_marseille","lat":43.29949,"lon":5.38521,"is_reserved":false,"is_disabled":false,"rental_uris":{"android":"levelo://app?vid=f0a5fedf-bcef-42eb-a048-e260fe29ba5c","ios":"levelo://app?vid=f0a5fedf-bcef-42eb-a048-e260fe29ba5c"},"vehicle_type_id":"4","last_reported":1773733607,"current_range_meters":9600,"station_id":"ce4bgj92rcd13ifvqbd0","pricing_plan_id":"cebpf4jnsgd1na2vs0mg"},{"bike_id":"374e9e14-c800-46ed-83bb-74dfd10456fd","system_id":"levelo_inurba_marseille","lat":43.31488,"lon":5.37322,"is_reserved":false,"is_disabled":false,"rental_uris":{"android":"levelo://app?vid=374e9e14-c800-46ed-83bb-74dfd10456fd","ios":"levelo://app?vid=374e9e14-c800-46ed-83bb-74dfd10456fd"},"vehicle_type_id":"4","last_reported":1773733607,"current_range_meters":9600,"station_id":"ce4bgt12rcd13ifvqcd0","pricing_plan_id":"cebpf4jnsgd1na2vs0mg"},{"bike_id":"59ce8ea8-9857-4560-96a8-4342edcf3bc4","system_id":"levelo_inurba_marseille","lat":43.29046,"lon":5.39978,"is_reserved":false,"is_disabled":false,"rental_uris":{"android":"levelo://app?vid=59ce8ea8-9857-4560-96a8-4342edcf3bc4","ios":"levelo://app?vid=59ce8ea8-9857-4560-96a8-4342edcf3bc4"},"vehicle_type_id":"4","last_reported":1773733607,"current_range_meters":9600,"station_id":"ce4bh392rcd13ifvqdm0","pricing_plan_id":"cebpf4jnsgd1na2vs0mg"},{"bike_id":"77c6e61f-d9f3-469d-b918-ce8a6e142321","system_id":"levelo_inurba_marseille","lat":43.29011,"lon":5.37841,"is_reserved":false,"is_disabled":false,"rental_uris":{"android":"levelo://app?vid=77c6e61f-d9f3-469d-b918-ce8a6e142321","ios":"levelo://app?vid=77c6e61f-d9f3-469d-b918-ce8a6e142321"},"vehicle_type_id":"4","last_reported":1773733607,"current_range_meters":9600,"station_id":"ce4bh9p2rcd13ifvqed0","pricing_plan_id":"cebpf4jnsgd1na2vs0mg"},{"bike_id":"cd89a303-13aa-41a0-89fd-0421d680a929","system_id":"levelo_inurba_marseille","lat":43.28157,"lon":5.42646,"is_reserved":false,"is_disabled":false,"rental_uris":{"android":"levelo://app?vid=cd89a303-13aa-41a0-89fd-0421d680a929","ios":"levelo://app?vid=cd89a303-13aa-41a0-89fd-0421d680a929"},"vehicle_type_id":"4","last_reported":1773733607,"current_range_meters":9600,"station_id":"ce4bhnh2rcd13ifvqgug","pricing_plan_id":"cebpf4jnsgd1na2vs0mg"},{"bike_id":"70f98469-d2c0-43f4-9102-c6ad6fb97bca","system_id":"levelo_inurba_marseille","lat":43.21745,"lon":5.34593,"is_reserved":false,"is_disabled":false,"rental_uris":{"android":"levelo://app?vid=70f98469-d2c0-43f4-9102-c6ad6fb97bca","ios":"levelo://app?vid=70f98469-d2c0-43f4-9102-c6ad6fb97bca"},"vehicle_type_id":"4","last_reported":1773733607,"current_range_meters":9600,"station_id":"st_cvj6r9ubvosntc0bgbag","pricing_plan_id":"cebpf4jnsgd1na2vs0mg"},{"bike_id":"3d688c97-8471-4bdb-8669-5450a7e92169","system_id":"levelo_inurba_marseille","lat":43.29032,"lon":5.39955,"is_reserved":false,"is_disabled":false,"rental_uris":{"android":"levelo://app?vid=3d688c97-8471-4bdb-8669-5450a7e92169","ios":"levelo://app?vid=3d688c97-8471-4bdb-8669-5450a7e92169"},"vehicle_type_id":"4","last_reported":1773733607,"current_range_meters":9600,"station_id":"ce4bh392rcd13ifvqdm0","pricing_plan_id":"cebpf4jnsgd1na2vs0mg"},{"bike_id":"e9da2391-9ee3-4f06-a199-fdf638b132db","system_id":"levelo_inurba_marseille","lat":43.31483,"lon":5.37323,"is_reserved":false,"is_disabled":false,"rental_uris":{"android":"levelo://app?vid=e9da2391-9ee3-4f06-a199-fdf638b132db","ios":"levelo://app?vid=e9da2391-9ee3-4f06-a199-fdf638b132db"},"vehicle_type_id":"4","last_reported":1773733607,"current_range_meters":9600,"station_id":"ce4bgt12rcd13ifvqcd0","pricing_plan_id":"cebpf4jnsgd1na2vs0mg"},{"bike_id":"838396bf-87b9-4c01-a097-e1f8af9e49fd","system_id":"levelo_inurba_marseille","lat":43.3414,"lon":5.40921,"is_reserved":false,"is_disabled":false,"rental_uris":{"android":"levelo://app?vid=838396bf-87b9-4c01-a097-e1f8af9e49fd","ios":"levelo://app?vid=838396bf-87b9-4c01-a097-e1f8af9e49fd"},"vehicle_type_id":"4","last_reported":1773733607,"current_range_meters":9600,"station_id":"ce4bhqh2rcd13ifvqhlg","pricing_plan_id":"cebpf4jnsgd1na2vs0mg"},{"bike_id":"8af0a38f-153c-4dcf-a261-e40583133eb1","system_id":"levelo_inurba_marseille","lat":43.23795,"lon":5.36635,"is_reserved":false,"is_disabled":false,"rental_uris":{"android":"levelo://app?vid=8af0a38f-153c-4dcf-a261-e40583133eb1","ios":"levelo://app?vid=8af0a38f-153c-4dcf-a261-e40583133eb1"},"vehicle_type_id":"4","last_reported":1773733607,"current_range_meters":10000,"station_id":"st_d3nk18o9ro0c73en2l3g","pricing_plan_id":"cebpf4jnsgd1na2vs0mg"},{"bike_id":"abeed13c-c51b-4739-8fd2-4f8ab70d4f2c","system_id":"levelo_inurba_marseille","lat":43.31721,"lon":5.42406,"is_reserved":false,"is_disabled":false,"rental_uris":{"android":"levelo://app?vid=abeed13c-c51b-4739-8fd2-4f8ab70d4f2c","ios":"levelo://app?vid=abeed13c-c51b-4739-8fd2-4f8ab70d4f2c"},"vehicle_type_id":"4","last_reported":1773733607,"current_range_meters":10000,"station_id":"ce4bhp92rcd13ifvqhbg","pricing_plan_id":"cebpf4jnsgd1na2vs0mg"},{"bike_id":"90e3905b-57e6-4282-a1f5-50b7eafc8592","system_id":"levelo_inurba_marseille","lat":43.22547,"lon":5.41645,"is_reserved":false,"is_disabled":false,"rental_uris":{"android":"levelo://app?vid=90e3905b-57e6-4282-a1f5-50b7eafc8592","ios":"levelo://app?vid=90e3905b-57e6-4282-a1f5-50b7eafc8592"},"vehicle_type_id":"4","last_reported":1773733607,"current_range_meters":10000,"station_id":"st_d2o4gvlbi1j2169b742g","pricing_plan_id":"cebpf4jnsgd1na2vs0mg"},{"bike_id":"e9a095ec-646a-47ef-b9a1-632c444faa7c","system_id":"levelo_inurba_marseille","lat":43.26368,"lon":5.41081,"is_reserved":false,"is_disabled":false,"rental_uris":{"android":"levelo://app?vid=e9a095ec-646a-47ef-b9a1-632c444faa7c","ios":"levelo://app?vid=e9a095ec-646a-47ef-b9a1-632c444faa7c"},"vehicle_type_id":"4","last_reported":1773733607,"current_range_meters":10000,"station_id":"st_d4e5ca6na9uc73bfl5fg","pricing_plan_id":"cebpf4jnsgd1na2vs0mg"},{"bike_id":"343b205e-6596-4541-adb1-2e080d2fa46f","system_id":"levelo_inurba_marseille","lat":43.29275,"lon":5.40923,"is_reserved":false,"is_disabled":false,"rental_uris":{"android":"levelo://app?vid=343b205e-6596-4541-adb1-2e080d2fa46f","ios":"levelo://app?vid=343b205e-6596-4541-adb1-2e080d2fa46f"},"vehicle_type_id":"4","last_reported":1773733607,"current_range_meters":10000,"station_id":"ce4bh192rcd13ifvqdc0","pricing_plan_id":"cebpf4jnsgd1na2vs0mg"},{"bike_id":"89518356-d81c-4032-bf74-2d585fe7a9e1","system_id":"levelo_inurba_marseille","lat":43.25823,"lon":5.39456,"is_reserved":false,"is_disabled":false,"rental_uris":{"android":"levelo://app?vid=89518356-d81c-4032-bf74-2d585fe7a9e1","ios":"levelo://app?vid=89518356-d81c-4032-bf74-2d585fe7a9e1"},"vehicle_type_id":"4","last_reported":1773733607,"current_range_meters":10000,"station_id":"ce4bhip2rcd13ifvqft0","pricing_plan_id":"cebpf4jnsgd1na2vs0mg"},{"bike_id":"d78ec730-59d2-428d-a7b9-8361c8366467","system_id":"levelo_inurba_marseille","lat":43.29959,"lon":5.41327,"is_reserved":false,"is_disabled":false,"rental_uris":{"android":"levelo://app?vid=d78ec730-59d2-428d-a7b9-8361c8366467","ios":"levelo://app?vid=d78ec730-59d2-428d-a7b9-8361c8366467"},"vehicle_type_id":"4","last_reported":1773733607,"current_range_meters":10000,"station_id":"ce4bhp12rcd13ifvqh9g","pricing_plan_id":"cebpf4jnsgd1na2vs0mg"},{"bike_id":"f686f45f-39da-4e71-a50a-7beeacea0aab","system_id":"levelo_inurba_marseille","lat":43.30757,"lon":5.37658,"is_reserved":false,"is_disabled":false,"rental_uris":{"android":"levelo://app?vid=f686f45f-39da-4e71-a50a-7beeacea0aab","ios":"levelo://app?vid=f686f45f-39da-4e71-a50a-7beeacea0aab"},"vehicle_type_id":"4","last_reported":1773733607,"current_range_meters":10000,"station_id":"ce4bgv92rcd13ifvqcq0","pricing_plan_id":"cebpf4jnsgd1na2vs0mg"},{"bike_id":"bf249f81-2ef0-45f9-a595-8436dd14fe0c","system_id":"levelo_inurba_marseille","lat":43.32072,"lon":5.3677,"is_reserved":false,"is_disabled":false,"rental_uris":{"android":"levelo://app?vid=bf249f81-2ef0-45f9-a595-8436dd14fe0c","ios":"levelo://app?vid=bf249f81-2ef0-45f9-a595-8436dd14fe0c"},"vehicle_type_id":"4","last_reported":1773733607,"current_range_meters":10000,"station_id":"ce4bhrh2rcd13ifvqhug","pricing_plan_id":"cebpf4jnsgd1na2vs0mg"},{"bike_id":"f54bd02b-8bfd-413b-a9a2-36775fe7ddf7","system_id":"levelo_inurba_marseille","lat":43.30125,"lon":5.40245,"is_reserved":false,"is_disabled":false,"rental_uris":{"android":"levelo://app?vid=f54bd02b-8bfd-413b-a9a2-36775fe7ddf7","ios":"levelo://app?vid=f54bd02b-8bfd-413b-a9a2-36775fe7ddf7"},"vehicle_type_id":"4","last_reported":1773733607,"current_range_meters":10000,"station_id":"","pricing_plan_id":"cebpf4jnsgd1na2vs0mg"},{"bike_id":"42c21590-e1a9-42f0-bbba-d0536932db85","system_id":"levelo_inurba_marseille","lat":43.2717,"lon":5.40993,"is_reserved":false,"is_disabled":false,"rental_uris":{"android":"levelo://app?vid=42c21590-e1a9-42f0-bbba-d0536932db85","ios":"levelo://app?vid=42c21590-e1a9-42f0-bbba-d0536932db85"},"vehicle_type_id":"4","last_reported":1773733607,"current_range_meters":10000,"station_id":"ce4bhl12rcd13ifvqgf0","pricing_plan_id":"cebpf4jnsgd1na2vs0mg"},{"bike_id":"af76a918-434d-4373-8fdd-16d8b75e35a1","system_id":"levelo_inurba_marseille","lat":43.21766,"lon":5.3463,"is_reserved":false,"is_disabled":false,"rental_uris":{"android":"levelo://app?vid=af76a918-434d-4373-8fdd-16d8b75e35a1","ios":"levelo://app?vid=af76a918-434d-4373-8fdd-16d8b75e35a1"},"vehicle_type_id":"4","last_reported":1773733607,"current_range_meters":10000,"station_id":"st_cvj6r9ubvosntc0bgbag","pricing_plan_id":"cebpf4jnsgd1na2vs0mg"},