{"last_updated":1760991089,"ttl":60,"version":"2.2","data":{"bikes":[{"bike_id":"7600c36e-981d-4bd5-ade3-67c3e36f524b","system_id":"levelo_inurba_marseille","lat":43.30432,"lon":5.38879,"is_reserved":false,"is_disabled":true,"rental_uris":{"android":"levelo://app?vid=7600c36e-981d-4bd5-ade3-67c3e36f524b","ios":"levelo://app?vid=7600c36e-981d-4bd5-ade3-67c3e36f524b"},"vehicle_type_id":"4","last_reported":1760991089,"current_range_meters":2800,"station_id":"ce4bgk12rcd13ifvqbi0","pricing_plan_id":"cebpf4jnsgd1na2vs0mg"},{"bike_id":"0a414463-fe1a-4833-8a11-178a3c2c879a","system_id":"levelo_inurba_marseille","lat":43.29852,"lon":5.37897,"is_reserved":false,"is_disabled":false,"rental_uris":{"android":"levelo://app?vid=0a414463-fe1a-4833-8a11-178a3c2c879a","ios":"levelo://app?vid=0a414463-fe1a-4833-8a11-178a3c2c879a"},"vehicle_type_id":"4","last_reported":1760991089,"current_range_meters":3200,"station_id":"","pricing_plan_id":"cebpf4jnsgd1na2vs0mg"},{"bike_id":"065d722f-3c20-4e15-a04a-6332a753b685","system_id":"levelo_inurba_marseille","lat":43.310743,"lon":5.424296,"is_reserved":false,"is_disabled":false,"rental_uris":{"android":"levelo://app?vid=065d722f-3c20-4e15-a04a-6332a753b685","ios":"levelo://app?vid=065d722f-3c20-4e15-a04a-6332a753b685"},"vehicle_type_id":"4","last_reported":1760991089,"current_range_meters":3200,"station_id":"ce4bhp92rcd13ifvqhag","pricing_plan_id":"cebpf4jnsgd1na2vs0mg"},{"bike_id":"e7a0086c-1174-4faa-a6fe-392602c8aa51","system_id":"levelo_inurba_marseille","lat":43.246634,"lon":5.381621,"is_reserved":false,"is_disabled":false,"rental_uris":{"android":"levelo://app?vid=e7a0086c-1174-4faa-a6fe-392602c8aa51","ios":"levelo://app?vid=e7a0086c-1174-4faa-a6fe-392602c8aa51"},"vehicle_type_id":"4","last_reported":1760991089,"current_range_meters":3200,"station_id":"ce4bhih2rcd13ifvqfr0","pricing_plan_id":"cebpf4jnsgd1na2vs0mg"},{"bike_id":"123c7dda-bbea-4304-b641-294362d2cc36","system_id":"levelo_inurba_marseille","lat":43.30563,"lon":5.40459,"is_reserved":false,"is_disabled":false,"rental_uris":{"android":"levelo://app?vid=123c7dda-bbea-4304-b641-294362d2cc36","ios":"levelo://app?vid=123c7dda-bbea-4304-b641-294362d2cc36"},"vehicle_type_id":"4","last_reported":1760991089,"current_range_meters":3200,"station_id":"","pricing_plan_id":"cebpf4jnsgd1na2vs0mg"},{"bike_id":"ee05ab4b-b72f-453e-8914-a9150b6d1bdd","system_id":"levelo_inurba_marseille","lat":43.28612,"lon":5.35105,"is_reserved":false,"is_disabled":false,"rental_uris":{"android":"levelo://app?vid=ee05ab4b-b72f-453e-8914-a9150b6d1bdd","ios":"levelo://app?vid=ee05ab4b-b72f-453e-8914-a9150b6d1bdd"},"vehicle_type_id":"4","last_reported":1760991089,"current_range_meters":3600,"station_id":"","pricing_plan_id":"cebpf4jnsgd1na2vs0mg"},{"bike_id":"aefc5afc-f7a4-4665-80bc-c2bde51c96d6","system_id":"levelo_inurba_marseille","lat":43.32366,"lon":5.38887,"is_reserved":false,"is_disabled":false,"rental_uris":{"android":"levelo://app?vid=aefc5afc-f7a4-4665-80bc-c2bde51c96d6","ios":"levelo://app?vid=aefc5afc-f7a4-4665-80bc-c2bde51c96d6"},"vehicle_type_id":"4","last_reported":1760991089,"current_range_meters":3600,"station_id":"ce4bhqp2rcd13ifvqhog","pricing_plan_id":"cebpf4jnsgd1na2vs0mg"},{"bike_id":"9b12efb8-4745-48c9-b6b8-0c8b6b7dbcf5","system_id":"levelo_inurba_marseille","lat":43.30893,"lon":5.3786,"is_reserved":false,"is_disabled":false,"rental_uris":{"android":"levelo://app?vid=9b12efb8-4745-48c9-b6b8-0c8b6b7dbcf5","ios":"levelo://app?vid=9b12efb8-4745-48c9-b6b8-0c8b6b7dbcf5"},"vehicle_type_id":"4","last_reported":1760991089,"current_range_meters":3600,"station_id":"","pricing_plan_id":"cebpf4jnsgd1na2vs0mg"},{"bike_id":"ea3acb2c-ba15-4e3e-96bb-d567a4e3926b","system_id":"levelo_inurba_marseille","lat":43.29911,"lon":5.37498,"is_reserved":false,"is_disabled":false,"rental_uris":{"android":"levelo://app?vid=ea3acb2c-ba15-4e3e-96bb-d567a4e3926b","ios":"levelo://app?vid=ea3acb2c-ba15-4e3e-96bb-d567a4e3926b"},"vehicle_type_id":"4","last_reported":1760991089,"current_range_meters":4000,"station_id":"ce4bgjh2rcd13ifvqbg0","pricing_plan_id":"cebpf4jnsgd1na2vs0mg"},{"bike_id":"3170a251-d687-456b-9940-32507cf0a3e8","system_id":"levelo_inurba_marseille","lat":43.29614,"lon":5.37712,"is_reserved":false,"is_disabled":true,"rental_uris":{"android":"levelo://app?vid=3170a251-d687-456b-9940-32507cf0a3e8","ios":"levelo://app?vid=3170a251-d687-456b-9940-32507cf0a3e8"},"vehicle_type_id":"4","last_reported":1760991089,"current_range_meters":4000,"station_id":"ce4bgi92rcd13ifvqb90","pricing_plan_id":"cebpf4jnsgd1na2vs0mg"},{"bike_id":"8b084a66-9a4a-4354-b113-8572c97691f5","system_id":"levelo_inurba_marseille","lat":43.26188,"lon":5.37459,"is_reserved":false,"is_disabled":false,"rental_uris":{"android":"levelo://app?vid=8b084a66-9a4a-4354-b113-8572c97691f5","ios":"levelo://app?vid=8b084a66-9a4a-4354-b113-8572c97691f5"},"vehicle_type_id":"4","last_reported":1760991089,"current_range_meters":4400,"station_id":"ce4bhgp2rcd13ifvqfc0","pricing_plan_id":"cebpf4jnsgd1na2vs0mg"},{"bike_id":"a463e313-a49e-4913-86e0-55372fde2260","system_id":"levelo_inurba_marseille","lat":43.33245,"lon":5.44188,"is_reserved":false,"is_disabled":true,"rental_uris":{"android":"levelo://app?vid=a463e313-a49e-4913-86e0-55372fde2260","ios":"levelo://app?vid=a463e313-a49e-4913-86e0-55372fde2260"},"vehicle_type_id":"4","last_reported":1760991089,"current_range_meters":4800,"station_id":"","pricing_plan_id":"cebpf4jnsgd1na2vs0mg"},{"bike_id":"365b1110-8604-4b2d-ad9b-3263b8a258f2","system_id":"levelo_inurba_marseille","lat":43.28655,"lon":5.3634,"is_reserved":false,"is_disabled":false,"rental_uris":{"android":"levelo://app?vid=365b1110-8604-4b2d-ad9b-3263b8a258f2","ios":"levelo://app?vid=365b1110-8604-4b2d-ad9b-3263b8a258f2"},"vehicle_type_id":"4","last_reported":1760991089,"current_range_meters":4800,"station_id":"ce4bhah2rcd13ifvqej0","pricing_plan_id":"cebpf4jnsgd1na2vs0mg"},{"bike_id":"623e663f-0f59-462c-b9e2-510797c1de48","system_id":"levelo_inurba_marseille","lat":43.25716,"lon":5.41112,"is_reserved":false,"is_disabled":false,"rental_uris":{"android":"levelo://app?vid=623e663f-0f59-462c-b9e2-510797c1de48","ios":"levelo://app?vid=623e663f-0f59-462c-b9e2-510797c1de48"},"vehicle_type_id":"4","last_reported":1760991089,"current_range_meters":4800,"station_id":"ce4bhkp2rcd13ifvqgd0","pricing_plan_id":"cebpf4jnsgd1na2vs0mg"},{"bike_id":"ac6d2c4d-74a8-443d-a9f9-0d9807feacda","system_id":"levelo_inurba_marseille","lat":43.33772,"lon":5.37469,"is_reserved":false,"is_disabled":false,"rental_uris":{"android":"levelo://app?vid=ac6d2c4d-74a8-443d-a9f9-0d9807feacda","ios":"levelo://app?vid=ac6d2c4d-74a8-443d-a9f9-0d9807feacda"},"vehicle_type_id":"4","last_reported":1760991089,"current_range_meters":4800,"station_id":"","pricing_plan_id":"cebpf4jnsgd1na2vs0mg"},{"bike_id":"e978660f-731d-4a95-8df5-e0a54d8fe8be","system_id":"levelo_inurba_marseille","lat":43.21203,"lon":5.3506,"is_reserved":false,"is_disabled":false,"rental_uris":{"android":"levelo://app?vid=e978660f-731d-4a95-8df5-e0a54d8fe8be","ios":"levelo://app?vid=e978660f-731d-4a95-8df5-e0a54d8fe8be"},"vehicle_type_id":"4","last_reported":1760991089,"current_range_meters":4800,"station_id":"st_cvj6sg6p6f1abm77japg","pricing_plan_id":"cebpf4jnsgd1na2vs0mg"},{"bike_id":"83bda06b-85a9-4f3f-8bf2-24f2399ab23e","system_id":"levelo_inurba_marseille","lat":43.28463,"lon":5.35892,"is_reserved":false,"is_disabled":true,"rental_uris":{"android":"levelo://app?vid=83bda06b-85a9-4f3f-8bf2-24f2399ab23e","ios":"levelo://app?vid=83bda06b-85a9-4f3f-8bf2-24f2399ab23e"},"vehicle_type_id":"4","last_reported":1760991089,"current_range_meters":4800,"station_id":"ce4bhah2rcd13ifvqei0","pricing_plan_id":"cebpf4jnsgd1na2vs0mg"},{"bike_id":"ec393860-c345-4891-b0a7-7dbdaf583298","system_id":"levelo_inurba_marseille","lat":43.26213,"lon":5.3744,"is_reserved":false,"is_disabled":false,"rental_uris":{"android":"levelo://app?vid=ec393860-c345-4891-b0a7-7dbdaf583298","ios":"levelo://app?vid=ec393860-c345-4891-b0a7-7dbdaf583298"},"vehicle_type_id":"4","last_reported":1760991089,"current_range_meters":5600,"station_id":"ce4bhgp2rcd13ifvqfc0","pricing_plan_id":"cebpf4jnsgd1na2vs0mg"},{"bike_id":"a8458749-4fc3-457b-96e1-25c91205eacb","system_id":"levelo_inurba_marseille","lat":43.29279,"lon":5.40113,"is_reserved":false,"is_disabled":false,"rental_uris":{"android":"levelo://app?vid=a8458749-4fc3-457b-96e1-25c91205eacb","ios":"levelo://app?vid=a8458749-4fc3-457b-96e1-25c91205eacb"},"vehicle_type_id":"4","last_reported":1760991089,"current_range_meters":5600,"station_id":"ce4bh312rcd13ifvqdk0","pricing_plan_id":"cebpf4jnsgd1na2vs0mg"},{"bike_id":"36af01db-ec6b-4eb8-b392-e4b6e276fd0d","system_id":"levelo_inurba_marseille","lat":43.290316,"lon":5.399618,"is_reserved":false,"is_disabled":false,"rental_uris":{"android":"levelo://app?vid=36af01db-ec6b-4eb8-b392-e4b6e276fd0d","ios":"levelo://app?vid=36af01db-ec6b-4eb8-b392-e4b6e276fd0d"},"vehicle_type_id":"4","last_reported":1760991089,"current_range_meters":5600,"station_id":"ce4bh392rcd13ifvqdm0","pricing_plan_id":"cebpf4jnsgd1na2vs0mg"},{"bike_id":"ed020d68-31d0-42f3-ab98-e17c586b53a3","system_id":"levelo_inurba_marseille","lat":43.253743,"lon":5.39596,"is_reserved":false,"is_disabled":false,"rental_uris":{"android":"levelo://app?vid=ed020d68-31d0-42f3-ab98-e17c586b53a3","ios":"levelo://app?vid=ed020d68-31d0-42f3-ab98-e17c586b53a3"},"vehicle_type_id":"4","last_reported":1760991089,"current_range_meters":6000,"station_id":"ce4bhkp2rcd13ifvqgd0","pricing_plan_id":"cebpf4jnsgd1na2vs0mg"},{"bike_id":"b3ef2420-d2fb-4db7-b30c-518d72aea008","system_id":"levelo_inurba_marseille","lat":43.27835,"lon":5.39214,"is_reserved":false,"is_disabled":false,"rental_uris":{"android":"levelo://app?vid=b3ef2420-d2fb-4db7-b30c-518d72aea008","ios":"levelo://app?vid=b3ef2420-d2fb-4db7-b30c-518d72aea008"},"vehicle_type_id":"4","last_reported":1760991089,"current_range_meters":6000,"station_id":"ce4bhjp2rcd13ifvqga0","pricing_plan_id":"cebpf4jnsgd1na2vs0mg"},{"bike_id":"200b4708-5b01-4425-b02a-e1ecccef9ba2","system_id":"levelo_inurba_marseille","lat":43.21758,"lon":5.34598,"is_reserved":false,"is_disabled":false,"rental_uris":{"android":"levelo://app?vid=200b4708-5b01-4425-b02a-e1ecccef9ba2","ios":"levelo://app?vid=200b4708-5b01-4425-b02a-e1ecccef9ba2"},"vehicle_type_id":"4","last_reported":1760991089,"current_range_meters":6000,"station_id":"st_cvj6r9ubvosntc0bgbag","pricing_plan_id":"cebpf4jnsgd1na2vs0mg"},{"bike_id":"23c6d6b7-354e-4041-ad48-f8f8a8ec86b1","system_id":"levelo_inurba_marseille","lat":43.29595,"lon":5.38085,"is_reserved":false,"is_disabled":false,"rental_uris":{"android":"levelo://app?vid=23c6d6b7-354e-4041-ad48-f8f8a8ec86b1","ios":"levelo://app?vid=23c6d6b7-354e-4041-ad48-f8f8a8ec86b1"},"vehicle_type_id":"4","last_reported":1760991089,"current_range_meters":6000,"station_id":"ce4bgl12rcd13ifvqbo0","pricing_plan_id":"cebpf4jnsgd1na2vs0mg"},{"bike_id":"720543e7-6938-413e-9c6c-10f7542a8213","system_id":"levelo_inurba_marseille","lat":43.295294,"lon":5.385404,"is_reserved":false,"is_disabled":false,"rental_uris":{"android":"levelo://app?vid=720543e7-6938-413e-9c6c-10f7542a8213","ios":"levelo://app?vid=720543e7-6938-413e-9c6c-10f7542a8213"},"vehicle_type_id":"4","last_reported":1760991089,"current_range_meters":6000,"station_id":"ce4bgih2rcd13ifvqba0","pricing_plan_id":"cebpf4jnsgd1na2vs0mg"},{"bike_id":"b9f4c452-f1a0-4b31-854c-2325a5b73556","system_id":"levelo_inurba_marseille","lat":43.21458,"lon":5.34316,"is_reserved":false,"is_disabled":false,"rental_uris":{"android":"levelo://app?vid=b9f4c452-f1a0-4b31-854c-2325a5b73556","ios":"levelo://app?vid=b9f4c452-f1a0-4b31-854c-2325a5b73556"},"vehicle_type_id":"4","last_reported":1760991089,"current_range_meters":6000,"station_id":"","pricing_plan_id":"cebpf4jnsgd1na2vs0mg"},{"bike_id":"15420d38-a7a6-4ef1-a6fb-d9427abf4333","system_id":"levelo_inurba_marseille","lat":43.30499,"lon":5.40121,"is_reserved":false,"is_disabled":false,"rental_uris":{"android":"levelo://app?vid=15420d38-a7a6-4ef1-a6fb-d9427abf4333","ios":"levelo://app?vid=15420d38-a7a6-4ef1-a6fb-d9427abf4333"},"vehicle_type_id":"4","last_reported":1760991089,"current_range_meters":6400,"station_id":"","pricing_plan_id":"cebpf4jnsgd1na2vs0mg"},{"bike_id":"634b1cc2-9ee2-4f45-9c1b-7a6cd0bdc0f4","system_id":"levelo_inurba_marseille","lat":43.245468,"lon":5.395205,"is_reserved":false,"is_disabled":false,"rental_uris":{"android":"levelo://app?vid=634b1cc2-9ee2-4f45-9c1b-7a6cd0bdc0f4","ios":"levelo://app?vid=634b1cc2-9ee2-4f45-9c1b-7a6cd0bdc0f4"},"vehicle_type_id":"4","last_reported":1760991089,"current_range_meters":6400,"station_id":"ce4bhlp2rcd13ifvqgjg","pricing_plan_id":"cebpf4jnsgd1na2vs0mg"},{"bike_id":"403b405d-1574-438f-b5c3-446d86203137","system_id":"levelo_inurba_marseille","lat":43.24662,"lon":5.38159,"is_reserved":false,"is_disabled":false,"rental_uris":{"android":"levelo://app?vid=403b405d-1574-438f-b5c3-446d86203137","ios":"levelo://app?vid=403b405d-1574-438f-b5c3-446d86203137"},"vehicle_type_id":"4","last_reported":1760991089,"current_range_meters":6400,"station_id":"ce4bhih2rcd13ifvqfr0","pricing_plan_id":"cebpf4jnsgd1na2vs0mg"},{"bike_id":"6df2cb7f-62bb-4cba-be22-335733b471bc","system_id":"levelo_inurba_marseille","lat":43.251164,"lon":5.403246,"is_reserved":false,"is_disabled":false,"rental_uris":{"android":"levelo://app?vid=6df2cb7f-62bb-4cba-be22-335733b471bc","ios":"levelo://app?vid=6df2cb7f-62bb-4cba-be22-335733b471bc"},"vehicle_type_id":"4","last_reported":1760991089,"current_range_meters":6400,"station_id":"ce4bhlh2rcd13ifvqgig","pricing_plan_id":"cebpf4jnsgd1na2vs0mg"},{"bike_id":"0fe5f988-499b-40e5-a930-cd6431a1b2ca","system_id":"levelo_inurba_marseille","lat":43.28363,"lon":5.3982,"is_reserved":false,"is_disabled":false,"rental_uris":{"android":"levelo://app?vid=0fe5f988-499b-40e5-a930-cd6431a1b2ca","ios":"levelo://app?vid=0fe5f988-499b-40e5-a930-cd6431a1b2ca"},"vehicle_type_id":"4","last_reported":1760991089,"current_range_meters":6400,"station_id":"","pricing_plan_id":"cebpf4jnsgd1na2vs0mg"},{"bike_id":"49b9bfee-0058-428f-851b-c317f7fd50a9","system_id":"levelo_inurba_marseille","lat":43.2482,"lon":5.37438,"is_reserved":false,"is_disabled":false,"rental_uris":{"android":"levelo://app?vid=49b9bfee-0058-428f-851b-c317f7fd50a9","ios":"levelo://app?vid=49b9bfee-0058-428f-851b-c317f7fd50a9"},"vehicle_type_id":"4","last_reported":1760991089,"current_range_meters":6800,"station_id":"ce4bhgh2rcd13ifvqfb0","pricing_plan_id":"cebpf4jnsgd1na2vs0mg"},{"bike_id":"bc73b961-d666-460a-afb7-9e6c5cb04e36","system_id":"levelo_inurba_marseille","lat":43.30887,"lon":5.39649,"is_reserved":false,"is_disabled":false,"rental_uris":{"android":"levelo://app?vid=bc73b961-d666-460a-afb7-9e6c5cb04e36","ios":"levelo://app?vid=bc73b961-d666-460a-afb7-9e6c5cb04e36"},"vehicle_type_id":"4","last_reported":1760991089,"current_range_meters":6800,"station_id":"ce4bh012rcd13ifvqcv0","pricing_plan_id":"cebpf4jnsgd1na2vs0mg"},{"bike_id":"f08ce4d4-6b61-4dc2-aeb3-647e5900e7fb","system_id":"levelo_inurba_marseille","lat":43.24675,"lon":5.38163,"is_reserved":false,"is_disabled":false,"rental_uris":{"android":"levelo://app?vid=f08ce4d4-6b61-4dc2-aeb3-647e5900e7fb","ios":"levelo://app?vid=f08ce4d4-6b61-4dc2-aeb3-647e5900e7fb"},"vehicle_type_id":"4","last_reported":1760991089,"current_range_meters":6800,"station_id":"ce4bhih2rcd13ifvqfr0","pricing_plan_id":"cebpf4jnsgd1na2vs0mg"},{"bike_id":"9dd1d8fe-c2a8-4a70-a175-61f5f9fe7fd2","system_id":"levelo_inurba_marseille","lat":43.315501,"lon":5.390252,"is_reserved":false,"is_disabled":false,"rental_uris":{"android":"levelo://app?vid=9dd1d8fe-c2a8-4a70-a175-61f5f9fe7fd2","ios":"levelo://app?vid=9dd1d8fe-c2a8-4a70-a175-61f5f9fe7fd2"},"vehicle_type_id":"4","last_reported":1760991089,"current_range_meters":7200,"station_id":"","pricing_plan_id":"cebpf4jnsgd1na2vs0mg"},{"bike_id":"8cd818e3-a9e2-4f48-92b2-26306f507696","system_id":"levelo_inurba_marseille","lat":43.31349,"lon":5.37913,"is_reserved":false,"is_disabled":false,"rental_uris":{"android":"levelo://app?vid=8cd818e3-a9e2-4f48-92b2-26306f507696","ios":"levelo://app?vid=8cd818e3-a9e2-4f48-92b2-26306f507696"},"vehicle_type_id":"4","last_reported":1760991089,"current_range_meters":7200,"station_id":"","pricing_plan_id":"cebpf4jnsgd1na2vs0mg"},{"bike_id":"63af7f75-ae37-4bd3-9613-127db36eb0c3","system_id":"levelo_inurba_marseille","lat":43.28875,"lon":5.42511,"is_reserved":false,"is_disabled":false,"rental_uris":{"android":"levelo://app?vid=63af7f75-ae37-4bd3-9613-127db36eb0c3","ios":"levelo://app?vid=63af7f75-ae37-4bd3-9613-127db36eb0c3"},"vehicle_type_id":"4","last_reported":1760991089,"current_range_meters":7200,"station_id":"st_d3b462108ojc7389ooeg","pricing_plan_id":"cebpf4jnsgd1na2vs0mg"},{"bike_id":"cd55449e-def0-48f5-91cc-df2391e7d6f5","system_id":"levelo_inurba_marseille","lat":43.28241,"lon":5.39081,"is_reserved":false,"is_disabled":false,"rental_uris":{"android":"levelo://app?vid=cd55449e-def0-48f5-91cc-df2391e7d6f5","ios":"levelo://app?vid=cd55449e-def0-48f5-91cc-df2391e7d6f5"},"vehicle_type_id":"4","last_reported":1760991089,"current_range_meters":7200,"station_id":"ce4bhn92rcd13ifvqgsg","pricing_plan_id":"cebpf4jnsgd1na2vs0mg"},{"bike_id":"03ddbc3d-d83c-493f-b8b6-43d8bda40996","system_id":"levelo_inurba_marseille","lat":43.29535,"lon":5.38561,"is_reserved":false,"is_disabled":false,"rental_uris":{"android":"levelo://app?vid=03ddbc3d-d83c-493f-b8b6-43d8bda40996","ios":"levelo://app?vid=03ddbc3d-d83c-493f-b8b6-43d8bda40996"},"vehicle_type_id":"4","last_reported":1760991089,"current_range_meters":7200,"station_id":"ce4bgih2rcd13ifvqba0","pricing_plan_id":"cebpf4jnsgd1na2vs0mg"},{"bike_id":"efee04fb-d6bc-42bd-a30e-8b48e86d5e79","system_id":"levelo_inurba_marseille","lat":43.29577,"lon":5.36738,"is_reserved":false,"is_disabled":false,"rental_uris":{"android":"levelo://app?vid=efee04fb-d6bc-42bd-a30e-8b48e86d5e79","ios":"levelo://app?vid=efee04fb-d6bc-42bd-a30e-8b48e86d5e79"},"vehicle_type_id":"4","last_reported":1760991089,"current_range_meters":7200,"station_id":"ce4bgph2rcd13ifvqc2g","pricing_plan_id":"cebpf4jnsgd1na2vs0mg"},{"bike_id":"e4214b92-239d-4917-be8d-71820ab90397","system_id":"levelo_inurba_marseille","lat":43.28072,"lon":5.3966,"is_reserved":false,"is_disabled":false,"rental_uris":{"android":"levelo://app?vid=e4214b92-239d-4917-be8d-71820ab90397","ios":"levelo://app?vid=e4214b92-239d-4917-be8d-71820ab90397"},"vehicle_type_id":"4","last_reported":1760991089,"current_range_meters":7200,"station_id":"ce4bho12rcd13ifvqh2g","pricing_plan_id":"cebpf4jnsgd1na2vs0mg"},{"bike_id":"0a950a0d-01ce-40b2-be0e-ad7894fd72f2","system_id":"levelo_inurba_marseille","lat":43.32096,"lon":5.3677,"is_reserved":false,"is_disabled":true,"rental_uris":{"android":"levelo://app?vid=0a950a0d-01ce-40b2-be0e-ad7894fd72f2","ios":"levelo://app?vid=0a950a0d-01ce-40b2-be0e-ad7894fd72f2"},"vehicle_type_id":"4","last_reported":1760991089,"current_range_meters":8000,"station_id":"ce4bhrh2rcd13ifvqhug","pricing_plan_id":"cebpf4jnsgd1na2vs0mg"},{"bike_id":"86ce52f8-f590-4694-90e1-216ddc477b29","system_id":"levelo_inurba_marseille","lat":43.30968,"lon":5.3812,"is_reserved":false,"is_disabled":false,"rental_uris":{"android":"levelo://app?vid=86ce52f8-f590-4694-90e1-216ddc477b29","ios":"levelo://app?vid=86ce52f8-f590-4694-90e1-216ddc477b29"},"vehicle_type_id":"4","last_reported":1760991089,"current_range_meters":8000,"station_id":"","pricing_plan_id":"cebpf4jnsgd1na2vs0mg"},{"bike_id":"af35879d-4b9c-47a6-b266-ac0c1d9e1da6","system_id":"levelo_inurba_marseille","lat":43.24749,"lon":5.40059,"is_reserved":false,"is_disabled":false,"rental_uris":{"android":"levelo://app?vid=af35879d-4b9c-47a6-b266-ac0c1d9e1da6","ios":"levelo://app?vid=af35879d-4b9c-47a6-b266-ac0c1d9e1da6"},"vehicle_type_id":"4","last_reported":1760991089,"current_range_meters":8000,"station_id":"","pricing_plan_id":"cebpf4jnsgd1na2vs0mg"},{"bike_id":"2bbea2ae-db23-4efb-bdd8-574197db4826","system_id":"levelo_inurba_marseille","lat":43.30132,"lon":5.39865,"is_reserved":false,"is_disabled":false,"rental_uris":{"android":"levelo://app?vid=2bbea2ae-db23-4efb-bdd8-574197db4826","ios":"levelo://app?vid=2bbea2ae-db23-4efb-bdd8-574197db4826"},"vehicle_type_id":"4","last_reported":1760991089,"current_range_meters":8000,"station_id":"ce4bh0h2rcd13ifvqd40","pricing_plan_id":"cebpf4jnsgd1na2vs0mg"},{"bike_id":"7ee1207e-6eef-4cca-98b0-903997d04c67","system_id":"levelo_inurba_marseille","lat":43.246872,"lon":5.3892,"is_reserved":false,"is_disabled":false,"rental_uris":{"android":"levelo://app?vid=7ee1207e-6eef-4cca-98b0-903997d04c67","ios":"levelo://app?vid=7ee1207e-6eef-4cca-98b0-903997d04c67"},"vehicle_type_id":"4","last_reported":1760991089,"current_range_meters":8000,"station_id":"ce4bhg12rcd13ifvqf60","pricing_plan_id":"cebpf4jnsgd1na2vs0mg"},{"bike_id":"6b6db6a0-7ff9-41f0-9fd2-cedfd984f0e7","system_id":"levelo_inurba_marseille","lat":43.30895,"lon":5.3967,"is_reserved":false,"is_disabled":false,"rental_uris":{"android":"levelo://app?vid=6b6db6a0-7ff9-41f0-9fd2-cedfd984f0e7","ios":"levelo://app?vid=6b6db6a0-7ff9-41f0-9fd2-cedfd984f0e7"},"vehicle_type_id":"4","last_reported":1760991089,"current_range_meters":8000,"station_id":"ce4bh012rcd13ifvqcv0","pricing_plan_id":"cebpf4jnsgd1na2vs0mg"},{"bike_id":"2c59cc86-a348-4735-8f6f-75bf0e4aac2c","system_id":"levelo_inurba_marseille","lat":43.33151,"lon":5.39068,"is_reserved":false,"is_disabled":false,"rental_uris":{"android":"levelo://app?vid=2c59cc86-a348-4735-8f6f-75bf0e4aac2c","ios":"levelo://app?vid=2c59cc86-a348-4735-8f6f-75bf0e4aac2c"},"vehicle_type_id":"4","last_reported":1760991089,"current_range_meters":8000,"station_id":"","pricing_plan_id":"cebpf4jnsgd1na2vs0mg"},{"bike_id":"0c7f8a6d-32bf-47cc-a077-407a570d0972","system_id":"levelo_inurba_marseille","lat":43.28417,"lon":5.37513,"is_reserved":false,"is_disabled":false,"rental_uris":{"android":"levelo://app?vid=0c7f8a6d-32bf-47cc-a077-407a570d0972","ios":"levelo://app?vid=0c7f8a6d-32bf-47cc-a077-407a570d0972"},"vehicle_type_id":"4","last_reported":1760991089,"current_range_meters":8000,"station_id":"ce4bh412rcd13ifvqds0","pricing_plan_id":"cebpf4jnsgd1na2vs0mg"},{"bike_id":"7a8ac50b-c3a4-490a-8f96-9c005f89ed5d","system_id":"levelo_inurba_marseille","lat":43.26521,"lon":5.39049,"is_reserved":false,"is_disabled":false,"rental_uris":{"android":"levelo://app?vid=7a8ac50b-c3a4-490a-8f96-9c005f89ed5d","ios":"levelo://app?vid=7a8ac50b-c3a4-490a-8f96-9c005f89ed5d"},"vehicle_type_id":"4","last_reported":1760991089,"current_range_meters":8400,"station_id":"","pricing_plan_id":"cebpf4jnsgd1na2vs0mg"},{"bike_id":"676d88a8-f06e-4192-886d-e52926318b91","system_id":"levelo_inurba_marseille","lat":43.212,"lon":5.35087,"is_reserved":false,"is_disabled":false,"rental_uris":{"android":"levelo://app?vid=676d88a8-f06e-4192-886d-e52926318b91","ios":"levelo://app?vid=676d88a8-f06e-4192-886d-e52926318b91"},"vehicle_type_id":"4","last_reported":1760991089,"current_range_meters":8400,"station_id":"st_cvj6sg6p6f1abm77japg","pricing_plan_id":"cebpf4jnsgd1na2vs0mg"},{"bike_id":"7fd36eea-805d-4dce-89b5-46f277eaf158","system_id":"levelo_inurba_marseille","lat":43.305097,"lon":5.366695,"is_reserved":false,"is_disabled":false,"rental_uris":{"android":"levelo://app?vid=7fd36eea-805d-4dce-89b5-46f277eaf158","ios":"levelo://app?vid=7fd36eea-805d-4dce-89b5-46f277eaf158"},"vehicle_type_id":"4","last_reported":1760991089,"current_range_meters":8400,"station_id":"","pricing_plan_id":"cebpf4jnsgd1na2vs0mg"},{"bike_id":"679c3c1f-72e8-4456-b0d9-4c2ad9c70dd9","system_id":"levelo_inurba_marseille","lat":43.21201,"lon":5.35067,"is_reserved":false,"is_disabled":false,"rental_uris":{"android":"levelo://app?vid=679c3c1f-72e8-4456-b0d9-4c2ad9c70dd9","ios":"levelo://app?vid=679c3c1f-72e8-4456-b0d9-4c2ad9c70dd9"},"vehicle_type_id":"4","last_reported":1760991089,"current_range_meters":8400,"station_id":"st_cvj6sg6p6f1abm77japg","pricing_plan_id":"cebpf4jnsgd1na2vs0mg"},{"bike_id":"8f9bf87c-d002-4c92-b22a-9a73f817682c","system_id":"levelo_inurba_marseille","lat":43.25098,"lon":5.39512,"is_reserved":false,"is_disabled":false,"rental_uris":{"android":"levelo://app?vid=8f9bf87c-d002-4c92-b22a-9a73f817682c","ios":"levelo://app?vid=8f9bf87c-d002-4c92-b22a-9a73f817682c"},"vehicle_type_id":"4","last_reported":1760991089,"current_range_meters":8400,"station_id":"ce4bhm12rcd13ifvqgkg","pricing_plan_id":"cebpf4jnsgd1na2vs0mg"},{"bike_id":"b6c96865-3542-4e09-a1b0-283e97502d96","system_id":"levelo_inurba_marseille","lat":43.293039,"lon":5.374623,"is_reserved":false,"is_disabled":false,"rental_uris":{"android":"levelo://app?vid=b6c96865-3542-4e09-a1b0-283e97502d96","ios":"levelo://app?vid=b6c96865-3542-4e09-a1b0-283e97502d96"},"vehicle_type_id":"4","last_reported":1760991089,"current_range_meters":8400,"station_id":"ce4bgh92rcd13ifvqb50","pricing_plan_id":"cebpf4jnsgd1na2vs0mg"},{"bike_id":"1006df13-bd17-4122-a54d-323d9fcae64c","system_id":"levelo_inurba_marseille","lat":43.25336,"lon":5.42171,"is_reserved":false,"is_disabled":false,"rental_uris":{"android":"levelo://app?vid=1006df13-bd17-4122-a54d-323d9fcae64c","ios":"levelo://app?vid=1006df13-bd17-4122-a54d-323d9fcae64c"},"vehicle_type_id":"4","last_reported":1760991089,"current_range_meters":8400,"station_id":"st_d2m65c5bi1j21697t3ng","pricing_plan_id":"cebpf4jnsgd1na2vs0mg"},{"bike_id":"2f76a027-a317-4fc7-bb85-0458b02c7e3e","system_id":"levelo_inurba_marseille","lat":43.2893,"lon":5.38397,"is_reserved":false,"is_disabled":false,"rental_uris":{"android":"levelo://app?vid=2f76a027-a317-4fc7-bb85-0458b02c7e3e","ios":"levelo://app?vid=2f76a027-a317-4fc7-bb85-0458b02c7e3e"},"vehicle_type_id":"4","last_reported":1760991089,"current_range_meters":8400,"station_id":"ce4bh612rcd13ifvqe6g","pricing_plan_id":"cebpf4jnsgd1na2vs0mg"},{"bike_id":"06763d6d-60fd-4139-ac5a-e925ed6df649","system_id":"levelo_inurba_marseille","lat":43.23789,"lon":5.36621,"is_reserved":false,"is_disabled":false,"rental_uris":{"android":"levelo://app?vid=06763d6d-60fd-4139-ac5a-e925ed6df649","ios":"levelo://app?vid=06763d6d-60fd-4139-ac5a-e925ed6df649"},"vehicle_type_id":"4","last_reported":1760991089,"current_range_meters":8800,"station_id":"st_d3nk18o9ro0c73en2l3g","pricing_plan_id":"cebpf4jnsgd1na2vs0mg"},{"bike_id":"e015a312-f4e2-4fa5-962c-4dc7593461dd","system_id":"levelo_inurba_marseille","lat":43.27377,"lon":5.36251,"is_reserved":false,"is_disabled":false,"rental_uris":{"android":"levelo://app?vid=e015a312-f4e2-4fa5-962c-4dc7593461dd","ios":"levelo://app?vid=e015a312-f4e2-4fa5-962c-4dc7593461dd"},"vehicle_type_id":"4","last_reported":1760991089,"current_range_meters":8800,"station_id":"","pricing_plan_id":"cebpf4jnsgd1na2vs0mg"},{"bike_id":"4bbd6801-e86f-4670-a08c-5a08e1dabb92","system_id":"levelo_inurba_marseille","lat":43.29224,"lon":5.38085,"is_reserved":false,"is_disabled":false,"rental_uris":{"android":"levelo://app?vid=4bbd6801-e86f-4670-a08c-5a08e1dabb92","ios":"levelo://app?vid=4bbd6801-e86f-4670-a08c-5a08e1dabb92"},"vehicle_type_id":"4","last_reported":1760991089,"current_range_meters":8800,"station_id":"","pricing_plan_id":"cebpf4jnsgd1na2vs0mg"},{"bike_id":"9652283e-21f4-4490-ac9e-ffa9429f0005","system_id":"levelo_inurba_marseille","lat":43.29021,"lon":5.40394,"is_reserved":false,"is_disabled":false,"rental_uris":{"android":"levelo://app?vid=9652283e-21f4-4490-ac9e-ffa9429f0005","ios":"levelo://app?vid=9652283e-21f4-4490-ac9e-ffa9429f0005"},"vehicle_type_id":"4","last_reported":1760991089,"current_range_meters":8800,"station_id":"","pricing_plan_id":"cebpf4jnsgd1na2vs0mg"},{"bike_id":"a7f997d3-a4f9-4f30-bdce-2ddde27a7b05","system_id":"levelo_inurba_marseille","lat":43.28156,"lon":5.37706,"is_reserved":false,"is_disabled":false,"rental_uris":{"android":"levelo://app?vid=a7f997d3-a4f9-4f30-bdce-2ddde27a7b05","ios":"levelo://app?vid=a7f997d3-a4f9-4f30-bdce-2ddde27a7b05"},"vehicle_type_id":"4","last_reported":1760991089,"current_range_meters":8800,"station_id":"","pricing_plan_id":"cebpf4jnsgd1na2vs0mg"},{"bike_id":"226d8ad2-b1af-40bd-9c83-c98e95e888e3","system_id":"levelo_inurba_marseille","lat":43.284862,"lon":5.390844,"is_reserved":false,"is_disabled":false,"rental_uris":{"android":"levelo://app?vid=226d8ad2-b1af-40bd-9c83-c98e95e888e3","ios":"levelo://app?vid=226d8ad2-b1af-40bd-9c83-c98e95e888e3"},"vehicle_type_id":"4","last_reported":1760991089,"current_range_meters":8800,"station_id":"ce4bhoh2rcd13ifvqh5g","pricing_plan_id":"cebpf4jnsgd1na2vs0mg"},{"bike_id":"2d3f4f4c-b18e-44e1-9a10-49c64cdf49d7","system_id":"levelo_inurba_marseille","lat":43.28731,"lon":5.37915,"is_reserved":false,"is_disabled":false,"rental_uris":{"android":"levelo://app?vid=2d3f4f4c-b18e-44e1-9a10-49c64cdf49d7","ios":"levelo://app?vid=2d3f4f4c-b18e-44e1-9a10-49c64cdf49d7"},"vehicle_type_id":"4","last_reported":1760991089,"current_range_meters":8800,"station_id":"ce4bh9p2rcd13ifvqec0","pricing_plan_id":"cebpf4jnsgd1na2vs0mg"},{"bike_id":"900966fe-8fc5-48de-9a46-815d81133245","system_id":"levelo_inurba_marseille","lat":43.3019,"lon":5.36606,"is_reserved":false,"is_disabled":false,"rental_uris":{"android":"levelo://app?vid=900966fe-8fc5-48de-9a46-815d81133245","ios":"levelo://app?vid=900966fe-8fc5-48de-9a46-815d81133245"},"vehicle_type_id":"4","last_reported":1760991089,"current_range_meters":8800,"station_id":"ce4bgrh2rcd13ifvqc8g","pricing_plan_id":"cebpf4jnsgd1na2vs0mg"},{"bike_id":"0f787efd-37ca-4060-a03d-15d3c3ce389f","system_id":"levelo_inurba_marseille","lat":43.299982,"lon":5.373566,"is_reserved":false,"is_disabled":false,"rental_uris":{"android":"levelo://app?vid=0f787efd-37ca-4060-a03d-15d3c3ce389f","ios":"levelo://app?vid=0f787efd-37ca-4060-a03d-15d3c3ce389f"},"vehicle_type_id":"4","last_reported":1760991089,"current_range_meters":8800,"station_id":"","pricing_plan_id":"cebpf4jnsgd1na2vs0mg"},{"bike_id":"246c1afc-dd8d-4b2e-a7b4-c9bd56433639","system_id":"levelo_inurba_marseille","lat":43.29036,"lon":5.38648,"is_reserved":false,"is_disabled":false,"rental_uris":{"android":"levelo://app?vid=246c1afc-dd8d-4b2e-a7b4-c9bd56433639","ios":"levelo://app?vid=246c1afc-dd8d-4b2e-a7b4-c9bd56433639"},"vehicle_type_id":"4","last_reported":1760991089,"current_range_meters":9200,"station_id":"ce4bh4p2rcd13ifvqe0g","pricing_plan_id":"cebpf4jnsgd1na2vs0mg"},{"bike_id":"245a030c-0c43-41f8-a4cc-088d55252b06","system_id":"levelo_inurba_marseille","lat":43.24474,"lon":5.36932,"is_reserved":false,"is_disabled":false,"rental_uris":{"android":"levelo://app?vid=245a030c-0c43-41f8-a4cc-088d55252b06","ios":"levelo://app?vid=245a030c-0c43-41f8-a4cc-088d55252b06"},"vehicle_type_id":"4","last_reported":1760991089,"current_range_meters":9200,"station_id":"","pricing_plan_id":"cebpf4jnsgd1na2vs0mg"},{"bike_id":"c19289aa-c358-437c-b7b2-ed4e4efe66f9","system_id":"levelo_inurba_marseille","lat":43.30115,"lon":5.38667,"is_reserved":false,"is_disabled":false,"rental_uris":{"android":"levelo://app?vid=c19289aa-c358-437c-b7b2-ed4e4efe66f9","ios":"levelo://app?vid=c19289aa-c358-437c-b7b2-ed4e4efe66f9"},"vehicle_type_id":"4","last_reported":1760991089,"current_range_meters":9200,"station_id":"","pricing_plan_id":"cebpf4jnsgd1na2vs0mg"},{"bike_id":"ee411f61-e4dd-4539-8fd9-a5fbd18c031a","system_id":"levelo_inurba_marseille","lat":43.31119,"lon":5.38347,"is_reserved":false,"is_disabled":false,"rental_uris":{"android":"levelo://app?vid=ee411f61-e4dd-4539-8fd9-a5fbd18c031a","ios":"levelo://app?vid=ee411f61-e4dd-4539-8fd9-a5fbd18c031a"},"vehicle_type_id":"4","last_reported":1760991089,"current_range_meters":9600,"station_id":"","pricing_plan_id":"cebpf4jnsgd1na2vs0mg"},{"bike_id":"4ba5b914-1809-481a-8c9c-15233dc9fe26","system_id":"levelo_inurba_marseille","lat":43.29035,"lon":5.38598,"is_reserved":false,"is_disabled":false,"rental_uris":{"android":"levelo://app?vid=4ba5b914-1809-481a-8c9c-15233dc9fe26","ios":"levelo://app?vid=4ba5b914-1809-481a-8c9c-15233dc9fe26"},"vehicle_type_id":"4","last_reported":1760991089,"current_range_meters":9600,"station_id":"ce4bh4p2rcd13ifvqe0g","pricing_plan_id":"cebpf4jnsgd1na2vs0mg"},{"bike_id":"da22a6bb-ece8-4168-87fa-39fdca8adc0a","system_id":"levelo_inurba_marseille","lat":43.248064,"lon":5.374574,"is_reserved":false,"is_disabled":false,"rental_uris":{"android":"levelo://app?vid=da22a6bb-ece8-4168-87fa-39fdca8adc0a","ios":"levelo://app?vid=da22a6bb-ece8-4168-87fa-39fdca8adc0a"},"vehicle_type_id":"4","last_reported":1760991089,"current_range_meters":9600,"station_id":"ce4bhgh2rcd13ifvqfb0","pricing_plan_id":"cebpf4jnsgd1na2vs0mg"},{"bike_id":"59aed43f-13a8-4014-b2c4-38bf40a4080c","system_id":"levelo_inurba_marseille","lat":43.26806,"lon":5.40239,"is_reserved":false,"is_disabled":true,"rental_uris":{"android":"levelo://app?vid=59aed43f-13a8-4014-b2c4-38bf40a4080c","ios":"levelo://app?vid=59aed43f-13a8-4014-b2c4-38bf40a4080c"},"vehicle_type_id":"4","last_reported":1760991089,"current_range_meters":10000,"station_id":"ce501612rcd8frsf0b60","pricing_plan_id":"cebpf4jnsgd1na2vs0mg"},{"bike_id":"b795dcee-745f-4569-9cc0-ecc3631ffb10","system_id":"levelo_inurba_marseille","lat":43.30162,"lon":5.37222,"is_reserved":false,"is_disabled":false,"rental_uris":{"android":"levelo://app?vid=b795dcee-745f-4569-9cc0-ecc3631ffb10","ios":"levelo://app?vid=b795dcee-745f-4569-9cc0-ecc3631ffb10"},"vehicle_type_id":"4","last_reported":1760991089,"current_range_meters":10000,"station_id":"","pricing_plan_id":"cebpf4jnsgd1na2vs0mg"},{"bike_id":"78fe83c7-5376-41e5-afa1-483e220954a6","system_id":"levelo_inurba_marseille","lat":43.29151,"lon":5.37068,"is_reserved":false,"is_disabled":false,"rental_uris":{"android":"levelo://app?vid=78fe83c7-5376-41e5-afa1-483e220954a6","ios":"levelo://app?vid=78fe83c7-5376-41e5-afa1-483e220954a6"},"vehicle_type_id":"4","last_reported":1760991089,"current_range_meters":10000,"station_id":"","pricing_plan_id":"cebpf4jnsgd1na2vs0mg"},{"bike_id":"63ea6e4c-5e72-4854-bf85-f86e17e206ca","system_id":"levelo_inurba_marseille","lat":43.30436,"lon":5.3889,"is_reserved":false,"is_disabled":false,"rental_uris":{"android":"levelo://app?vid=63ea6e4c-5e72-4854-bf85-f86e17e206ca","ios":"levelo://app?vid=63ea6e4c-5e72-4854-bf85-f86e17e206ca"},"vehicle_type_id":"4","last_reported":1760991089,"current_range_meters":10000,"station_id":"ce4bgk12rcd13ifvqbi0","pricing_plan_id":"cebpf4jnsgd1na2vs0mg"},{"bike_id":"b64f5a90-0c5f-4ae5-b1e4-8d412cb049d3","system_id":"levelo_inurba_marseille","lat":43.27352,"lon":5.41502,"is_reserved":false,"is_disabled":false,"rental_uris":{"android":"levelo://app?vid=b64f5a90-0c5f-4ae5-b1e4-8d412cb049d3","ios":"levelo://app?vid=b64f5a90-0c5f-4ae5-b1e4-8d412cb049d3"},"vehicle_type_id":"4","last_reported":1760991089,"current_range_meters":10000,"station_id":"","pricing_plan_id":"cebpf4jnsgd1na2vs0mg"},{"bike_id":"8f5b4e3f-d0c8-438b-955e-3fd6c08bc9d3","system_id":"levelo_inurba_marseille","lat":43.24191,"lon":5.36436,"is_reserved":false,"is_disabled":false,"rental_uris":{"android":"levelo://app?vid=8f5b4e3f-d0c8-438b-955e-3fd6c08bc9d3","ios":"levelo://app?vid=8f5b4e3f-d0c8-438b-955e-3fd6c08bc9d3"},"vehicle_type_id":"4","last_reported":1760991089,"current_range_meters":10000,"station_id":"cpo36qri1sfpv3e86is0","pricing_plan_id":"cebpf4jnsgd1na2vs0mg"},{"bike_id":"1b7fbba9-edc4-4526-ad57-b6fe3ba4bf93","system_id":"levelo_inurba_marseille","lat":43.21777,"lon":5.34618,"is_reserved":false,"is_disabled":false,"rental_uris":{"android":"levelo://app?vid=1b7fbba9-edc4-4526-ad57-b6fe3ba4bf93","ios":"levelo://app?vid=1b7fbba9-edc4-4526-ad57-b6fe3ba4bf93"},"vehicle_type_id":"4","last_reported":1760991089,"current_range_meters":10000,"station_id":"st_cvj6r9ubvosntc0bgbag","pricing_plan_id":"cebpf4jnsgd1na2vs0mg"},{"bike_id":"599c01b3-22df-4a9a-9d4e-358da650153e","system_id":"levelo_inurba_marseille","lat":43.337444,"lon":5.374475,"is_reserved":false,"is_disabled":false,"rental_uris":{"android":"levelo://app?vid=599c01b3-22df-4a9a-9d4e-358da650153e","ios":"levelo://app?vid=599c01b3-22df-4a9a-9d4e-358da650153e"},"vehicle_type_id":"4","last_reported":1760991089,"current_range_meters":10000,"station_id":"","pricing_plan_id":"cebpf4jnsgd1na2vs0mg"},{"bike_id":"dde75b88-ae6b-435b-a57e-449367fe22d5","system_id":"levelo_inurba_marseille","lat":43.24677,"lon":5.38151,"is_reserved":false,"is_disabled":true,"rental_uris":{"android":"levelo://app?vid=dde75b88-ae6b-435b-a57e-449367fe22d5","ios":"levelo://app?vid=dde75b88-ae6b-435b-a57e-449367fe22d5"},"vehicle_type_id":"4","last_reported":1760991089,"current_range_meters":10000,"station_id":"ce4bhih2rcd13ifvqfr0","pricing_plan_id":"cebpf4jnsgd1na2vs0mg"},{"bike_id":"793bd619-12af-4bc1-a674-b70d86b415bd","system_id":"levelo_inurba_marseille","lat":43.331329,"lon":5.391333,"is_reserved":false,"is_disabled":false,"rental_uris":{"android":"levelo://app?vid=793bd619-12af-4bc1-a674-b70d86b415bd","ios":"levelo://app?vid=793bd619-12af-4bc1-a674-b70d86b415bd"},"vehicle_type_id":"4","last_reported":1760991089,"current_range_meters":10000,"station_id":"","pricing_plan_id":"cebpf4jnsgd1na2vs0mg"},{"bike_id":"2010d1c0-54eb-4cf9-b5e7-d1f1f50ca71a","system_id":"levelo_inurba_marseille","lat":43.25365,"lon":5.42201,"is_reserved":false,"is_disabled":false,"rental_uris":{"android":"levelo://app?vid=2010d1c0-54eb-4cf9-b5e7-d1f1f50ca71a","ios":"levelo://app?vid=2010d1c0-54eb-4cf9-b5e7-d1f1f50ca71a"},"vehicle_type_id":"4","last_reported":1760991089,"current_range_meters":10800,"station_id":"st_d2m65c5bi1j21697t3ng","pricing_plan_id":"cebpf4jnsgd1na2vs0mg"},{"bike_id":"9d449aff-01f0-4b92-9983-749d954577ea","system_id":"levelo_inurba_marseille","lat":43.27237,"lon":5.40045,"is_reserved":false,"is_disabled":false,"rental_uris":{"android":"levelo://app?vid=9d449aff-01f0-4b92-9983-749d954577ea","ios":"levelo://app?vid=9d449aff-01f0-4b92-9983-749d954577ea"},"vehicle_type_id":"4","last_reported":1760991089,"current_range_meters":10800,"station_id":"","pricing_plan_id":"cebpf4jnsgd1na2vs0mg"},{"bike_id":"d6318f9e-0184-4ff6-931a-ee0c5a28c2b7","system_id":"levelo_inurba_marseille","lat":43.23181,"lon":5.35528,"is_reserved":false,"is_disabled":false,"rental_uris":{"android":"levelo://app?vid=d6318f9e-0184-4ff6-931a-ee0c5a28c2b7","ios":"levelo://app?vid=d6318f9e-0184-4ff6-931a-ee0c5a28c2b7"},"vehicle_type_id":"4","last_reported":1760991089,"current_range_meters":10800,"station_id":"ce4bhu92rcd13ifvqi70","pricing_plan_id":"cebpf4jnsgd1na2vs0mg"},{"bike_id":"5b9d0a61-a699-4cb6-b15f-262a007856cf","system_id":"levelo_inurba_marseille","lat":43.288751,"lon":5.359089,"is_reserved":false,"is_disabled":false,"rental_uris":{"android":"levelo://app?vid=5b9d0a61-a699-4cb6-b15f-262a007856cf","ios":"levelo://app?vid=5b9d0a61-a699-4cb6-b15f-262a007856cf"},"vehicle_type_id":"4","last_reported":1760991089,"current_range_meters":10800,"station_id":"ce4bhb12rcd13ifvqem0","pricing_plan_id":"cebpf4jnsgd1na2vs0mg"},{"bike_id":"0b0127ab-3511-4cca-a1a0-ce31779912ed","system_id":"levelo_inurba_marseille","lat":43.26563,"lon":5.40324,"is_reserved":false,"is_disabled":false,"rental_uris":{"android":"levelo://app?vid=0b0127ab-3511-4cca-a1a0-ce31779912ed","ios":"levelo://app?vid=0b0127ab-3511-4cca-a1a0-ce31779912ed"},"vehicle_type_id":"4","last_reported":1760991089,"current_range_meters":10800,"station_id":"ce4bhmp2rcd13ifvqgng","pricing_plan_id":"cebpf4jnsgd1na2vs0mg"},{"bike_id":"c530e950-50a8-4b2f-81e6-a5f7e6f752e8","system_id":"levelo_inurba_marseille","lat":43.33759,"lon":5.37473,"is_reserved":false,"is_disabled":false,"rental_uris":{"android":"levelo://app?vid=c530e950-50a8-4b2f-81e6-a5f7e6f752e8","ios":"levelo://app?vid=c530e950-50a8-4b2f-81e6-a5f7e6f752e8"},"vehicle_type_id":"4","last_reported":1760991089,"current_range_meters":11200,"station_id":"","pricing_plan_id":"cebpf4jnsgd1na2vs0mg"},{"bike_id":"812d72de-41a8-4c31-a2c8-6c60592c5895","system_id":"levelo_inurba_marseille","lat":43.269199,"lon":5.388997,"is_reserved":false,"is_disabled":false,"rental_uris":{"android":"levelo://app?vid=812d72de-41a8-4c31-a2c8-6c60592c5895","ios":"levelo://app?vid=812d72de-41a8-4c31-a2c8-6c60592c5895"},"vehicle_type_id":"4","last_reported":1760991089,"current_range_meters":11200,"station_id":"ce4bhhh2rcd13ifvqfl0","pricing_plan_id":"cebpf4jnsgd1na2vs0mg"},{"bike_id":"0cf9e023-a78d-4456-b64b-861008e04aad","system_id":"levelo_inurba_marseille","lat":43.305998,"lon":5.404676,"is_reserved":false,"is_disabled":false,"rental_uris":{"android":"levelo://app?vid=0cf9e023-a78d-4456-b64b-861008e04aad","ios":"levelo://app?vid=0cf9e023-a78d-4456-b64b-861008e04aad"},"vehicle_type_id":"4","last_reported":1760991089,"current_range_meters":11200,"station_id":"","pricing_plan_id":"cebpf4jnsgd1na2vs0mg"},{"bike_id":"b84f5d5c-4af3-41b9-bd23-a606402416d4","system_id":"levelo_inurba_marseille","lat":43.32041,"lon":5.41543,"is_reserved":false,"is_disabled":false,"rental_uris":{"android":"levelo://app?vid=b84f5d5c-4af3-41b9-bd23-a606402416d4","ios":"levelo://app?vid=b84f5d5c-4af3-41b9-bd23-a606402416d4"},"vehicle_type_id":"4","last_reported":1760991089,"current_range_meters":11200,"station_id":"","pricing_plan_id":"cebpf4jnsgd1na2vs0mg"},{"bike_id":"a593cdde-0280-482c-9776-4ce64b7f3140","system_id":"levelo_inurba_marseille","lat":43.28713,"lon":5.36101,"is_reserved":false,"is_disabled":false,"rental_uris":{"android":"levelo://app?vid=a593cdde-0280-482c-9776-4ce64b7f3140","ios":"levelo://app?vid=a593cdde-0280-482c-9776-4ce64b7f3140"},"vehicle_type_id":"4","last_reported":1760991089,"current_range_meters":11200,"station_id":"cki0cbj6b192h4jlfktg","pricing_plan_id":"cebpf4jnsgd1na2vs0mg"},{"bike_id":"35d8b230-e487-439a-9c56-35e9d4b94c5e","system_id":"levelo_inurba_marseille","lat":43.2439,"lon":5.37026,"is_reserved":false,"is_disabled":false,"rental_uris":{"android":"levelo://app?vid=35d8b230-e487-439a-9c56-35e9d4b94c5e","ios":"levelo://app?vid=35d8b230-e487-439a-9c56-35e9d4b94c5e"},"vehicle_type_id":"4","last_reported":1760991089,"current_range_meters":11200,"station_id":"ce4bhhh2rcd13ifvqfk0","pricing_plan_id":"cebpf4jnsgd1na2vs0mg"},{"bike_id":"a14bd7c3-3a6a-4b88-95a7-f831423b5f73","system_id":"levelo_inurba_marseille","lat":43.29621,"lon":5.4059,"is_reserved":false,"is_disabled":false,"rental_uris":{"android":"levelo://app?vid=a14bd7c3-3a6a-4b88-95a7-f831423b5f73","ios":"levelo://app?vid=a14bd7c3-3a6a-4b88-95a7-f831423b5f73"},"vehicle_type_id":"4","last_reported":1760991089,"current_range_meters":11200,"station_id":"ce4bh0h2rcd13ifvqd60","pricing_plan_id":"cebpf4jnsgd1na2vs0mg"},{"bike_id":"4515bc92-7735-427c-a2ae-8d3771aa37a9","system_id":"levelo_inurba_marseille","lat":43.23197,"lon":5.39971,"is_reserved":false,"is_disabled":false,"rental_uris":{"android":"levelo://app?vid=4515bc92-7735-427c-a2ae-8d3771aa37a9","ios":"levelo://app?vid=4515bc92-7735-427c-a2ae-8d3771aa37a9"},"vehicle_type_id":"4","last_reported":1760991089,"current_range_meters":11600,"station_id":"ce4bhn12rcd13ifvqgqg","pricing_plan_id":"cebpf4jnsgd1na2vs0mg"},{"bike_id":"6e8ed827-a6f7-46f1-ad28-2f0468b71691","system_id":"levelo_inurba_marseille","lat":43.321023,"lon":5.367745,"is_reserved":false,"is_disabled":true,"rental_uris":{"android":"levelo://app?vid=6e8ed827-a6f7-46f1-ad28-2f0468b71691","ios":"levelo://app?vid=6e8ed827-a6f7-46f1-ad28-2f0468b71691"},"vehicle_type_id":"4","last_reported":1760991089,"current_range_meters":11600,"station_id":"ce4bhrh2rcd13ifvqhug","pricing_plan_id":"cebpf4jnsgd1na2vs0mg"},{"bike_id":"8f64d89a-f39c-4694-a714-8b55e9562bbe","system_id":"levelo_inurba_marseille","lat":43.29529,"lon":5.38535,"is_reserved":false,"is_disabled":false,"rental_uris":{"android":"levelo://app?vid=8f64d89a-f39c-4694-a714-8b55e9562bbe","ios":"levelo://app?vid=8f64d89a-f39c-4694-a714-8b55e9562bbe"},"vehicle_type_id":"4","last_reported":1760991089,"current_range_meters":11600,"station_id":"ce4bgih2rcd13ifvqba0","pricing_plan_id":"cebpf4jnsgd1na2vs0mg"},{"bike_id":"2addeeed-2f5f-44cd-b130-dc95c0e1280b","system_id":"levelo_inurba_marseille","lat":43.26953,"lon":5.40253,"is_reserved":false,"is_disabled":false,"rental_uris":{"android":"levelo://app?vid=2addeeed-2f5f-44cd-b130-dc95c0e1280b","ios":"levelo://app?vid=2addeeed-2f5f-44cd-b130-dc95c0e1280b"},"vehicle_type_id":"4","last_reported":1760991089,"current_range_meters":11600,"station_id":"cjm6bp8fraef2m0cb0m0","pricing_plan_id":"cebpf4jnsgd1na2vs0mg"},{"bike_id":"faa3e668-6719-4125-8206-72a0a37494c0","system_id":"levelo_inurba_marseille","lat":43.269344,"lon":5.402536,"is_reserved":false,"is_disabled":true,"rental_uris":{"android":"levelo://app?vid=faa3e668-6719-4125-8206-72a0a37494c0","ios":"levelo://app?vid=faa3e668-6719-4125-8206-72a0a37494c0"},"vehicle_type_id":"4","last_reported":1760991089,"current_range_meters":11600,"station_id":"cjm6bp8fraef2m0cb0m0","pricing_plan_id":"cebpf4jnsgd1na2vs0mg"},{"bike_id":"be23f4f6-1977-402d-96f0-5e1359023b4a","system_id":"levelo_inurba_marseille","lat":43.24954,"lon":5.40496,"is_reserved":false,"is_disabled":false,"rental_uris":{"android":"levelo://app?vid=be23f4f6-1977-402d-96f0-5e1359023b4a","ios":"levelo://app?vid=be23f4f6-1977-402d-96f0-5e1359023b4a"},"vehicle_type_id":"4","last_reported":1760991089,"current_range_meters":11600,"station_id":"st_d2ngiaodas8pm72gd1h0","pricing_plan_id":"cebpf4jnsgd1na2vs0mg"},{"bike_id":"c38d4779-18e1-43c4-a71d-5d81c3a33a62","system_id":"levelo_inurba_marseille","lat":43.29808,"lon":5.38098,"is_reserved":false,"is_disabled":true,"rental_uris":{"android":"levelo://app?vid=c38d4779-18e1-43c4-a71d-5d81c3a33a62","ios":"levelo://app?vid=c38d4779-18e1-43c4-a71d-5d81c3a33a62"},"vehicle_type_id":"4","last_reported":1760991089,"current_range_meters":12000,"station_id":"ce4bgip2rcd13ifvqbb0","pricing_plan_id":"cebpf4jnsgd1na2vs0mg"},{"bike_id":"75fe3c2c-92f1-4d8e-8330-4d49ac28cdfd","system_id":"levelo_inurba_marseille","lat":43.24545,"lon":5.3952,"is_reserved":false,"is_disabled":false,"rental_uris":{"android":"levelo://app?vid=75fe3c2c-92f1-4d8e-8330-4d49ac28cdfd","ios":"levelo://app?vid=75fe3c2c-92f1-4d8e-8330-4d49ac28cdfd"},"vehicle_type_id":"4","last_reported":1760991089,"current_range_meters":12000,"station_id":"ce4bhlp2rcd13ifvqgjg","pricing_plan_id":"cebpf4jnsgd1na2vs0mg"},{"bike_id":"592d7a78-b3bf-48ec-b4b6-8759f4269853","system_id":"levelo_inurba_marseille","lat":43.29266,"lon":5.38448,"is_reserved":false,"is_disabled":false,"rental_uris":{"android":"levelo://app?vid=592d7a78-b3bf-48ec-b4b6-8759f4269853","ios":"levelo://app?vid=592d7a78-b3bf-48ec-b4b6-8759f4269853"},"vehicle_type_id":"4","last_reported":1760991089,"current_range_meters":12000,"station_id":"ce4bh692rcd13ifvqea0","pricing_plan_id":"cebpf4jnsgd1na2vs0mg"},{"bike_id":"95f9c216-93d7-405f-a2e1-9f9ee9024d5d","system_id":"levelo_inurba_marseille","lat":43.24153,"lon":5.39718,"is_reserved":false,"is_disabled":false,"rental_uris":{"android":"levelo://app?vid=95f9c216-93d7-405f-a2e1-9f9ee9024d5d","ios":"levelo://app?vid=95f9c216-93d7-405f-a2e1-9f9ee9024d5d"},"vehicle_type_id":"4","last_reported":1760991089,"current_range_meters":12400,"station_id":"ce4bhn12rcd13ifvqgpg","pricing_plan_id":"cebpf4jnsgd1na2vs0mg"},{"bike_id":"06c84d1b-6e81-4ab2-ab43-e166647822bc","system_id":"levelo_inurba_marseille","lat":43.28929,"lon":5.36851,"is_reserved":false,"is_disabled":false,"rental_uris":{"android":"levelo://app?vid=06c84d1b-6e81-4ab2-ab43-e166647822bc","ios":"levelo://app?vid=06c84d1b-6e81-4ab2-ab43-e166647822bc"},"vehicle_type_id":"4","last_reported":1760991089,"current_range_meters":12400,"station_id":"","pricing_plan_id":"cebpf4jnsgd1na2vs0mg"},{"bike_id":"7464a0ee-dd3d-474b-88d9-f625586aceff","system_id":"levelo_inurba_marseille","lat":43.28719,"lon":5.37397,"is_reserved":false,"is_disabled":false,"rental_uris":{"android":"levelo://app?vid=7464a0ee-dd3d-474b-88d9-f625586aceff","ios":"levelo://app?vid=7464a0ee-dd3d-474b-88d9-f625586aceff"},"vehicle_type_id":"4","last_reported":1760991089,"current_range_meters":12400,"station_id":"ce4bh3p2rcd13ifvqdq0","pricing_plan_id":"cebpf4jnsgd1na2vs0mg"},{"bike_id":"88ddf386-2a2b-4fc9-8a56-77c231ac45ee","system_id":"levelo_inurba_marseille","lat":43.28165,"lon":5.42641,"is_reserved":false,"is_disabled":false,"rental_uris":{"android":"levelo://app?vid=88ddf386-2a2b-4fc9-8a56-77c231ac45ee","ios":"levelo://app?vid=88ddf386-2a2b-4fc9-8a56-77c231ac45ee"},"vehicle_type_id":"4","last_reported":1760991089,"current_range_meters":12400,"station_id":"ce4bhnh2rcd13ifvqgug","pricing_plan_id":"cebpf4jnsgd1na2vs0mg"},{"bike_id":"19e12642-bec1-4542-be51-03af5f7687f4","system_id":"levelo_inurba_marseille","lat":43.26564,"lon":5.4034,"is_reserved":false,"is_disabled":false,"rental_uris":{"android":"levelo://app?vid=19e12642-bec1-4542-be51-03af5f7687f4","ios":"levelo://app?vid=19e12642-bec1-4542-be51-03af5f7687f4"},"vehicle_type_id":"4","last_reported":1760991089,"current_range_meters":12400,"station_id":"ce4bhmp2rcd13ifvqgng","pricing_plan_id":"cebpf4jnsgd1na2vs0mg"},{"bike_id":"50256437-f563-4e18-83ab-119789c51b86","system_id":"levelo_inurba_marseille","lat":43.31642,"lon":5.37614,"is_reserved":false,"is_disabled":false,"rental_uris":{"android":"levelo://app?vid=50256437-f563-4e18-83ab-119789c51b86","ios":"levelo://app?vid=50256437-f563-4e18-83ab-119789c51b86"},"vehicle_type_id":"4","last_reported":1760991089,"current_range_meters":12800,"station_id":"","pricing_plan_id":"cebpf4jnsgd1na2vs0mg"},{"bike_id":"b2ff80fb-67cc-4327-9748-cb3faab1546c","system_id":"levelo_inurba_marseille","lat":43.29275,"lon":5.40117,"is_reserved":false,"is_disabled":false,"rental_uris":{"android":"levelo://app?vid=b2ff80fb-67cc-4327-9748-cb3faab1546c","ios":"levelo://app?vid=b2ff80fb-67cc-4327-9748-cb3faab1546c"},"vehicle_type_id":"4","last_reported":1760991089,"current_range_meters":12800,"station_id":"ce4bh312rcd13ifvqdk0","pricing_plan_id":"cebpf4jnsgd1na2vs0mg"},{"bike_id":"550dfb23-52ed-428c-8bc0-d9a17b6a332c","system_id":"levelo_inurba_marseille","lat":43.31318,"lon":5.39689,"is_reserved":false,"is_disabled":false,"rental_uris":{"android":"levelo://app?vid=550dfb23-52ed-428c-8bc0-d9a17b6a332c","ios":"levelo://app?vid=550dfb23-52ed-428c-8bc0-d9a17b6a332c"},"vehicle_type_id":"4","last_reported":1760991089,"current_range_meters":12800,"station_id":"ce4bgvp2rcd13ifvqcu0","pricing_plan_id":"cebpf4jnsgd1na2vs0mg"},{"bike_id":"44def8bb-fc22-46bb-a308-b8e670ec5dfd","system_id":"levelo_inurba_marseille","lat":43.30131,"lon":5.37428,"is_reserved":false,"is_disabled":true,"rental_uris":{"android":"levelo://app?vid=44def8bb-fc22-46bb-a308-b8e670ec5dfd","ios":"levelo://app?vid=44def8bb-fc22-46bb-a308-b8e670ec5dfd"},"vehicle_type_id":"4","last_reported":1760991089,"current_range_meters":12800,"station_id":"ce4bgs92rcd13ifvqcc0","pricing_plan_id":"cebpf4jnsgd1na2vs0mg"},{"bike_id":"32dbdba0-e039-4c71-9c95-70d7b309a29d","system_id":"levelo_inurba_marseille","lat":43.28207,"lon":5.34971,"is_reserved":false,"is_disabled":false,"rental_uris":{"android":"levelo://app?vid=32dbdba0-e039-4c71-9c95-70d7b309a29d","ios":"levelo://app?vid=32dbdba0-e039-4c71-9c95-70d7b309a29d"},"vehicle_type_id":"4","last_reported":1760991089,"current_range_meters":12800,"station_id":"","pricing_plan_id":"cebpf4jnsgd1na2vs0mg"},{"bike_id":"2ab235ce-ce1c-4e5a-b8f7-e903ac97becc","system_id":"levelo_inurba_marseille","lat":43.33481,"lon":5.39987,"is_reserved":false,"is_disabled":false,"rental_uris":{"android":"levelo://app?vid=2ab235ce-ce1c-4e5a-b8f7-e903ac97becc","ios":"levelo://app?vid=2ab235ce-ce1c-4e5a-b8f7-e903ac97becc"},"vehicle_type_id":"4","last_reported":1760991089,"current_range_meters":12800,"station_id":"","pricing_plan_id":"cebpf4jnsgd1na2vs0mg"},{"bike_id":"129099fe-4220-4410-a934-c08e3a3adb3b","system_id":"levelo_inurba_marseille","lat":43.295327,"lon":5.385437,"is_reserved":false,"is_disabled":false,"rental_uris":{"android":"levelo://app?vid=129099fe-4220-4410-a934-c08e3a3adb3b","ios":"levelo://app?vid=129099fe-4220-4410-a934-c08e3a3adb3b"},"vehicle_type_id":"4","last_reported":1760991089,"current_range_meters":13600,"station_id":"ce4bgih2rcd13ifvqba0","pricing_plan_id":"cebpf4jnsgd1na2vs0mg"},{"bike_id":"d941220e-7e4c-4511-81ad-a723152f2e01","system_id":"levelo_inurba_marseille","lat":43.27674,"lon":5.38878,"is_reserved":false,"is_disabled":false,"rental_uris":{"android":"levelo://app?vid=d941220e-7e4c-4511-81ad-a723152f2e01","ios":"levelo://app?vid=d941220e-7e4c-4511-81ad-a723152f2e01"},"vehicle_type_id":"4","last_reported":1760991089,"current_range_meters":13600,"station_id":"ce4bhi12rcd13ifvqfo0","pricing_plan_id":"cebpf4jnsgd1na2vs0mg"},{"bike_id":"40617a59-a4c2-4066-ac53-b4f37168ac6f","system_id":"levelo_inurba_marseille","lat":43.33773,"lon":5.3746,"is_reserved":false,"is_disabled":false,"rental_uris":{"android":"levelo://app?vid=40617a59-a4c2-4066-ac53-b4f37168ac6f","ios":"levelo://app?vid=40617a59-a4c2-4066-ac53-b4f37168ac6f"},"vehicle_type_id":"4","last_reported":1760991089,"current_range_meters":13600,"station_id":"","pricing_plan_id":"cebpf4jnsgd1na2vs0mg"},{"bike_id":"aff26c85-5d18-4d6c-aefe-ab50409dc055","system_id":"levelo_inurba_marseille","lat":43.2889,"lon":5.42519,"is_reserved":false,"is_disabled":false,"rental_uris":{"android":"levelo://app?vid=aff26c85-5d18-4d6c-aefe-ab50409dc055","ios":"levelo://app?vid=aff26c85-5d18-4d6c-aefe-ab50409dc055"},"vehicle_type_id":"4","last_reported":1760991089,"current_range_meters":13600,"station_id":"st_d3b462108ojc7389ooeg","pricing_plan_id":"cebpf4jnsgd1na2vs0mg"},{"bike_id":"5a35347d-1dbb-434c-8651-0148cd77cd1e","system_id":"levelo_inurba_marseille","lat":43.3175,"lon":5.38585,"is_reserved":false,"is_disabled":false,"rental_uris":{"android":"levelo://app?vid=5a35347d-1dbb-434c-8651-0148cd77cd1e","ios":"levelo://app?vid=5a35347d-1dbb-434c-8651-0148cd77cd1e"},"vehicle_type_id":"4","last_reported":1760991089,"current_range_meters":13600,"station_id":"","pricing_plan_id":"cebpf4jnsgd1na2vs0mg"},{"bike_id":"ea6f0fe7-a336-4ef0-a24e-71dbf5d49189","system_id":"levelo_inurba_marseille","lat":43.2982,"lon":5.44064,"is_reserved":false,"is_disabled":false,"rental_uris":{"android":"levelo://app?vid=ea6f0fe7-a336-4ef0-a24e-71dbf5d49189","ios":"levelo://app?vid=ea6f0fe7-a336-4ef0-a24e-71dbf5d49189"},"vehicle_type_id":"4","last_reported":1760991089,"current_range_meters":13600,"station_id":"st_d3jp68qikq2c7381ktn0","pricing_plan_id":"cebpf4jnsgd1na2vs0mg"},{"bike_id":"241f4278-8126-4dad-bdde-bbda289230ee","system_id":"levelo_inurba_marseille","lat":43.3199,"lon":5.38143,"is_reserved":false,"is_disabled":false,"rental_uris":{"android":"levelo://app?vid=241f4278-8126-4dad-bdde-bbda289230ee","ios":"levelo://app?vid=241f4278-8126-4dad-bdde-bbda289230ee"},"vehicle_type_id":"4","last_reported":1760991089,"current_range_meters":13600,"station_id":"ce4bhr12rcd13ifvqhpg","pricing_plan_id":"cebpf4jnsgd1na2vs0mg"},{"bike_id":"394fca48-b27e-4f67-b6db-0b6bcd7a68f7","system_id":"levelo_inurba_marseille","lat":43.29971,"lon":5.37175,"is_reserved":false,"is_disabled":false,"rental_uris":{"android":"levelo://app?vid=394fca48-b27e-4f67-b6db-0b6bcd7a68f7","ios":"levelo://app?vid=394fca48-b27e-4f67-b6db-0b6bcd7a68f7"},"vehicle_type_id":"4","last_reported":1760991089,"current_range_meters":14000,"station_id":"ce4bgr92rcd13ifvqc7g","pricing_plan_id":"cebpf4jnsgd1na2vs0mg"},{"bike_id":"9953bb32-6d68-488a-9e42-24a31e2ab81f","system_id":"levelo_inurba_marseille","lat":43.31525,"lon":5.38034,"is_reserved":false,"is_disabled":false,"rental_uris":{"android":"levelo://app?vid=9953bb32-6d68-488a-9e42-24a31e2ab81f","ios":"levelo://app?vid=9953bb32-6d68-488a-9e42-24a31e2ab81f"},"vehicle_type_id":"4","last_reported":1760991089,"current_range_meters":14000,"station_id":"ce4bhsp2rcd13ifvqi50","pricing_plan_id":"cebpf4jnsgd1na2vs0mg"},{"bike_id":"7ebc4d83-4b30-4b00-8462-eb10281ffa38","system_id":"levelo_inurba_marseille","lat":43.31326,"lon":5.39688,"is_reserved":false,"is_disabled":false,"rental_uris":{"android":"levelo://app?vid=7ebc4d83-4b30-4b00-8462-eb10281ffa38","ios":"levelo://app?vid=7ebc4d83-4b30-4b00-8462-eb10281ffa38"},"vehicle_type_id":"4","last_reported":1760991089,"current_range_meters":14000,"station_id":"ce4bgvp2rcd13ifvqcu0","pricing_plan_id":"cebpf4jnsgd1na2vs0mg"},{"bike_id":"399abe66-33e0-40ab-98f5-97949072c0ca","system_id":"levelo_inurba_marseille","lat":43.31071,"lon":5.38351,"is_reserved":false,"is_disabled":false,"rental_uris":{"android":"levelo://app?vid=399abe66-33e0-40ab-98f5-97949072c0ca","ios":"levelo://app?vid=399abe66-33e0-40ab-98f5-97949072c0ca"},"vehicle_type_id":"4","last_reported":1760991089,"current_range_meters":14000,"station_id":"ce4bgv92rcd13ifvqcr0","pricing_plan_id":"cebpf4jnsgd1na2vs0mg"},{"bike_id":"b27f60d1-2c1c-4b4d-9f4b-c70876a1e081","system_id":"levelo_inurba_marseille","lat":43.287041,"lon":5.373791,"is_reserved":false,"is_disabled":false,"rental_uris":{"android":"levelo://app?vid=b27f60d1-2c1c-4b4d-9f4b-c70876a1e081","ios":"levelo://app?vid=b27f60d1-2c1c-4b4d-9f4b-c70876a1e081"},"vehicle_type_id":"4","last_reported":1760991089,"current_range_meters":14000,"station_id":"ce4bh3p2rcd13ifvqdq0","pricing_plan_id":"cebpf4jnsgd1na2vs0mg"},{"bike_id":"d024a5dc-047d-4c62-9be8-05dec29917f1","system_id":"levelo_inurba_marseille","lat":43.28492,"lon":5.38421,"is_reserved":false,"is_disabled":true,"rental_uris":{"android":"levelo://app?vid=d024a5dc-047d-4c62-9be8-05dec29917f1","ios":"levelo://app?vid=d024a5dc-047d-4c62-9be8-05dec29917f1"},"vehicle_type_id":"4","last_reported":1760991089,"current_range_meters":14400,"station_id":"ce4bh512rcd13ifvqe3g","pricing_plan_id":"cebpf4jnsgd1na2vs0mg"},{"bike_id":"a7ba6a6a-8dda-4e76-8a63-3f1cbbb0d6aa","system_id":"levelo_inurba_marseille","lat":43.34133,"lon":5.40907,"is_reserved":false,"is_disabled":false,"rental_uris":{"android":"levelo://app?vid=a7ba6a6a-8dda-4e76-8a63-3f1cbbb0d6aa","ios":"levelo://app?vid=a7ba6a6a-8dda-4e76-8a63-3f1cbbb0d6aa"},"vehicle_type_id":"4","last_reported":1760991089,"current_range_meters":14400,"station_id":"ce4bhqh2rcd13ifvqhlg","pricing_plan_id":"cebpf4jnsgd1na2vs0mg"},{"bike_id":"0556e768-f024-45b5-af11-e15f24f3c5b3","system_id":"levelo_inurba_marseille","lat":43.29575,"lon":5.39956,"is_reserved":false,"is_disabled":true,"rental_uris":{"android":"levelo://app?vid=0556e768-f024-45b5-af11-e15f24f3c5b3","ios":"levelo://app?vid=0556e768-f024-45b5-af11-e15f24f3c5b3"},"vehicle_type_id":"4","last_reported":1760991089,"current_range_meters":14400,"station_id":"ce4bh312rcd13ifvqdj0","pricing_plan_id":"cebpf4jnsgd1na2vs0mg"},{"bike_id":"2e67643b-d341-4102-ab0e-b8ecc435eb92","system_id":"levelo_inurba_marseille","lat":43.315302,"lon":5.387486,"is_reserved":false,"is_disabled":false,"rental_uris":{"android":"levelo://app?vid=2e67643b-d341-4102-ab0e-b8ecc435eb92","ios":"levelo://app?vid=2e67643b-d341-4102-ab0e-b8ecc435eb92"},"vehicle_type_id":"4","last_reported":1760991089,"current_range_meters":14400,"station_id":"","pricing_plan_id":"cebpf4jnsgd1na2vs0mg"},{"bike_id":"83f32b9b-e29f-475f-9e01-cb4c09cdec9a","system_id":"levelo_inurba_marseille","lat":43.32365,"lon":5.36762,"is_reserved":false,"is_disabled":false,"rental_uris":{"android":"levelo://app?vid=83f32b9b-e29f-475f-9e01-cb4c09cdec9a","ios":"levelo://app?vid=83f32b9b-e29f-475f-9e01-cb4c09cdec9a"},"vehicle_type_id":"4","last_reported":1760991089,"current_range_meters":14800,"station_id":"ce4bhsh2rcd13ifvqi2g","pricing_plan_id":"cebpf4jnsgd1na2vs0mg"},{"bike_id":"b4dd57b5-fcf3-46d4-8f00-44cd689898c9","system_id":"levelo_inurba_marseille","lat":43.25341,"lon":5.42185,"is_reserved":false,"is_disabled":false,"rental_uris":{"android":"levelo://app?vid=b4dd57b5-fcf3-46d4-8f00-44cd689898c9","ios":"levelo://app?vid=b4dd57b5-fcf3-46d4-8f00-44cd689898c9"},"vehicle_type_id":"4","last_reported":1760991089,"current_range_meters":14800,"station_id":"st_d2m65c5bi1j21697t3ng","pricing_plan_id":"cebpf4jnsgd1na2vs0mg"},{"bike_id":"a27423e0-ceb0-4a8f-86e7-7b89077ab2b5","system_id":"levelo_inurba_marseille","lat":43.28156,"lon":5.36124,"is_reserved":false,"is_disabled":false,"rental_uris":{"android":"levelo://app?vid=a27423e0-ceb0-4a8f-86e7-7b89077ab2b5","ios":"levelo://app?vid=a27423e0-ceb0-4a8f-86e7-7b89077ab2b5"},"vehicle_type_id":"4","last_reported":1760991089,"current_range_meters":14800,"station_id":"","pricing_plan_id":"cebpf4jnsgd1na2vs0mg"},{"bike_id":"4916f3b7-3e4e-44c2-a9e9-1007c17d7311","system_id":"levelo_inurba_marseille","lat":43.27361,"lon":5.39866,"is_reserved":false,"is_disabled":false,"rental_uris":{"android":"levelo://app?vid=4916f3b7-3e4e-44c2-a9e9-1007c17d7311","ios":"levelo://app?vid=4916f3b7-3e4e-44c2-a9e9-1007c17d7311"},"vehicle_type_id":"4","last_reported":1760991089,"current_range_meters":14800,"station_id":"","pricing_plan_id":"cebpf4jnsgd1na2vs0mg"},{"bike_id":"516c1e56-708f-4b58-bc5d-f987985e5695","system_id":"levelo_inurba_marseille","lat":43.23203,"lon":5.39998,"is_reserved":false,"is_disabled":false,"rental_uris":{"android":"levelo://app?vid=516c1e56-708f-4b58-bc5d-f987985e5695","ios":"levelo://app?vid=516c1e56-708f-4b58-bc5d-f987985e5695"},"vehicle_type_id":"4","last_reported":1760991089,"current_range_meters":15200,"station_id":"ce4bhn12rcd13ifvqgqg","pricing_plan_id":"cebpf4jnsgd1na2vs0mg"},{"bike_id":"2743ae11-5bdd-47d5-9180-f58f689d84a5","system_id":"levelo_inurba_marseille","lat":43.299223,"lon":5.374682,"is_reserved":false,"is_disabled":false,"rental_uris":{"android":"levelo://app?vid=2743ae11-5bdd-47d5-9180-f58f689d84a5","ios":"levelo://app?vid=2743ae11-5bdd-47d5-9180-f58f689d84a5"},"vehicle_type_id":"4","last_reported":1760991089,"current_range_meters":15200,"station_id":"ce4bgjh2rcd13ifvqbg0","pricing_plan_id":"cebpf4jnsgd1na2vs0mg"},{"bike_id":"b14fa3f8-aae1-46e3-b682-dad93ba86e32","system_id":"levelo_inurba_marseille","lat":43.25096,"lon":5.39492,"is_reserved":false,"is_disabled":false,"rental_uris":{"android":"levelo://app?vid=b14fa3f8-aae1-46e3-b682-dad93ba86e32","ios":"levelo://app?vid=b14fa3f8-aae1-46e3-b682-dad93ba86e32"},"vehicle_type_id":"4","last_reported":1760991089,"current_range_meters":15200,"station_id":"ce4bhm12rcd13ifvqgkg","pricing_plan_id":"cebpf4jnsgd1na2vs0mg"},{"bike_id":"d950ada0-7546-479b-b1de-6e0c92ac2fca","system_id":"levelo_inurba_marseille","lat":43.2903,"lon":5.38606,"is_reserved":false,"is_disabled":true,"rental_uris":{"android":"levelo://app?vid=d950ada0-7546-479b-b1de-6e0c92ac2fca","ios":"levelo://app?vid=d950ada0-7546-479b-b1de-6e0c92ac2fca"},"vehicle_type_id":"4","last_reported":1760991089,"current_range_meters":15200,"station_id":"ce4bh4p2rcd13ifvqe0g","pricing_plan_id":"cebpf4jnsgd1na2vs0mg"},{"bike_id":"1c3a62d6-9dc5-4b1d-b145-ff75c0ccb3b4","system_id":"levelo_inurba_marseille","lat":43.2827,"lon":5.35058,"is_reserved":false,"is_disabled":false,"rental_uris":{"android":"levelo://app?vid=1c3a62d6-9dc5-4b1d-b145-ff75c0ccb3b4","ios":"levelo://app?vid=1c3a62d6-9dc5-4b1d-b145-ff75c0ccb3b4"},"vehicle_type_id":"4","last_reported":1760991089,"current_range_meters":15200,"station_id":"","pricing_plan_id":"cebpf4jnsgd1na2vs0mg"},{"bike_id":"f7bc1b94-a8e8-42b5-9694-5993a69ba238","system_id":"levelo_inurba_marseille","lat":43.251075,"lon":5.403332,"is_reserved":false,"is_disabled":true,"rental_uris":{"android":"levelo://app?vid=f7bc1b94-a8e8-42b5-9694-5993a69ba238","ios":"levelo://app?vid=f7bc1b94-a8e8-42b5-9694-5993a69ba238"},"vehicle_type_id":"4","last_reported":1760991089,"current_range_meters":15200,"station_id":"ce4bhlh2rcd13ifvqgig","pricing_plan_id":"cebpf4jnsgd1na2vs0mg"},{"bike_id":"41cc0615-7afd-45ce-bffd-abacbb5ba09f","system_id":"levelo_inurba_marseille","lat":43.30321,"lon":5.40419,"is_reserved":false,"is_disabled":false,"rental_uris":{"android":"levelo://app?vid=41cc0615-7afd-45ce-bffd-abacbb5ba09f","ios":"levelo://app?vid=41cc0615-7afd-45ce-bffd-abacbb5ba09f"},"vehicle_type_id":"4","last_reported":1760991089,"current_range_meters":15200,"station_id":"ce4bh012rcd13ifvqd10","pricing_plan_id":"cebpf4jnsgd1na2vs0mg"},{"bike_id":"eb27073a-0af0-414b-9906-260d44b8e2b4","system_id":"levelo_inurba_marseille","lat":43.24668,"lon":5.38158,"is_reserved":false,"is_disabled":false,"rental_uris":{"android":"levelo://app?vid=eb27073a-0af0-414b-9906-260d44b8e2b4","ios":"levelo://app?vid=eb27073a-0af0-414b-9906-260d44b8e2b4"},"vehicle_type_id":"4","last_reported":1760991089,"current_range_meters":16000,"station_id":"ce4bhih2rcd13ifvqfr0","pricing_plan_id":"cebpf4jnsgd1na2vs0mg"},{"bike_id":"0902f8f5-2693-425a-bff3-5d901bf02c48","system_id":"levelo_inurba_marseille","lat":43.23963,"lon":5.36631,"is_reserved":false,"is_disabled":false,"rental_uris":{"android":"levelo://app?vid=0902f8f5-2693-425a-bff3-5d901bf02c48","ios":"levelo://app?vid=0902f8f5-2693-425a-bff3-5d901bf02c48"},"vehicle_type_id":"4","last_reported":1760991089,"current_range_meters":16000,"station_id":"ce4bhi12rcd13ifvqfp0","pricing_plan_id":"cebpf4jnsgd1na2vs0mg"},{"bike_id":"99f97034-8613-4b95-b562-33e782e8a25d","system_id":"levelo_inurba_marseille","lat":43.29263,"lon":5.3844,"is_reserved":false,"is_disabled":false,"rental_uris":{"android":"levelo://app?vid=99f97034-8613-4b95-b562-33e782e8a25d","ios":"levelo://app?vid=99f97034-8613-4b95-b562-33e782e8a25d"},"vehicle_type_id":"4","last_reported":1760991089,"current_range_meters":16000,"station_id":"ce4bh692rcd13ifvqea0","pricing_plan_id":"cebpf4jnsgd1na2vs0mg"},{"bike_id":"3500c908-297e-4054-9aba-70ee2962e831","system_id":"levelo_inurba_marseille","lat":43.31764,"lon":5.39012,"is_reserved":false,"is_disabled":false,"rental_uris":{"android":"levelo://app?vid=3500c908-297e-4054-9aba-70ee2962e831","ios":"levelo://app?vid=3500c908-297e-4054-9aba-70ee2962e831"},"vehicle_type_id":"4","last_reported":1760991089,"current_range_meters":16000,"station_id":"ce4bhqp2rcd13ifvqhng","pricing_plan_id":"cebpf4jnsgd1na2vs0mg"},{"bike_id":"d8ce8491-25e7-4f84-8373-cc25897ada4d","system_id":"levelo_inurba_marseille","lat":43.22555,"lon":5.41613,"is_reserved":false,"is_disabled":false,"rental_uris":{"android":"levelo://app?vid=d8ce8491-25e7-4f84-8373-cc25897ada4d","ios":"levelo://app?vid=d8ce8491-25e7-4f84-8373-cc25897ada4d"},"vehicle_type_id":"4","last_reported":1760991089,"current_range_meters":16000,"station_id":"st_d2o4gvlbi1j2169b742g","pricing_plan_id":"cebpf4jnsgd1na2vs0mg"},{"bike_id":"2f09c9be-359a-414b-9339-b6dbcd93427c","system_id":"levelo_inurba_marseille","lat":43.29609,"lon":5.38111,"is_reserved":false,"is_disabled":true,"rental_uris":{"android":"levelo://app?vid=2f09c9be-359a-414b-9339-b6dbcd93427c","ios":"levelo://app?vid=2f09c9be-359a-414b-9339-b6dbcd93427c"},"vehicle_type_id":"4","last_reported":1760991089,"current_range_meters":16000,"station_id":"ce4bgl12rcd13ifvqbo0","pricing_plan_id":"cebpf4jnsgd1na2vs0mg"},{"bike_id":"77db830d-e2b5-4b84-983b-7fe90fa80276","system_id":"levelo_inurba_marseille","lat":43.29022,"lon":5.35604,"is_reserved":false,"is_disabled":false,"rental_uris":{"android":"levelo://app?vid=77db830d-e2b5-4b84-983b-7fe90fa80276","ios":"levelo://app?vid=77db830d-e2b5-4b84-983b-7fe90fa80276"},"vehicle_type_id":"4","last_reported":1760991089,"current_range_meters":16000,"station_id":"ce4bhb92rcd13ifvqen0","pricing_plan_id":"cebpf4jnsgd1na2vs0mg"},{"bike_id":"b63f4144-84f6-4ba1-b6df-f6ebabe9ef26","system_id":"levelo_inurba_marseille","lat":43.27909,"lon":5.40416,"is_reserved":false,"is_disabled":false,"rental_uris":{"android":"levelo://app?vid=b63f4144-84f6-4ba1-b6df-f6ebabe9ef26","ios":"levelo://app?vid=b63f4144-84f6-4ba1-b6df-f6ebabe9ef26"},"vehicle_type_id":"4","last_reported":1760991089,"current_range_meters":16000,"station_id":"","pricing_plan_id":"cebpf4jnsgd1na2vs0mg"},{"bike_id":"0db9ab5d-e4b9-4e8d-8841-4099a10de2ae","system_id":"levelo_inurba_marseille","lat":43.28483,"lon":5.48401,"is_reserved":false,"is_disabled":false,"rental_uris":{"android":"levelo://app?vid=0db9ab5d-e4b9-4e8d-8841-4099a10de2ae","ios":"levelo://app?vid=0db9ab5d-e4b9-4e8d-8841-4099a10de2ae"},"vehicle_type_id":"4","last_reported":1760991089,"current_range_meters":16400,"station_id":"st_d3jp68qikq2c7381ktn0","pricing_plan_id":"cebpf4jnsgd1na2vs0mg"},{"bike_id":"c3110eb6-c949-42bd-8854-0c286606b112","system_id":"levelo_inurba_marseille","lat":43.28872,"lon":5.39339,"is_reserved":false,"is_disabled":false,"rental_uris":{"android":"levelo://app?vid=c3110eb6-c949-42bd-8854-0c286606b112","ios":"levelo://app?vid=c3110eb6-c949-42bd-8854-0c286606b112"},"vehicle_type_id":"4","last_reported":1760991089,"current_range_meters":16400,"station_id":"ce4bh2p2rcd13ifvqdi0","pricing_plan_id":"cebpf4jnsgd1na2vs0mg"},{"bike_id":"20d9d3c4-a46a-4dac-bafb-410f46cebfba","system_id":"levelo_inurba_marseille","lat":43.25839,"lon":5.39352,"is_reserved":false,"is_disabled":false,"rental_uris":{"android":"levelo://app?vid=20d9d3c4-a46a-4dac-bafb-410f46cebfba","ios":"levelo://app?vid=20d9d3c4-a46a-4dac-bafb-410f46cebfba"},"vehicle_type_id":"4","last_reported":1760991089,"current_range_meters":16400,"station_id":"","pricing_plan_id":"cebpf4jnsgd1na2vs0mg"},{"bike_id":"737796b0-9eed-4879-8123-81b53466978c","system_id":"levelo_inurba_marseille","lat":43.2799,"lon":5.41669,"is_reserved":false,"is_disabled":false,"rental_uris":{"android":"levelo://app?vid=737796b0-9eed-4879-8123-81b53466978c","ios":"levelo://app?vid=737796b0-9eed-4879-8123-81b53466978c"},"vehicle_type_id":"4","last_reported":1760991089,"current_range_meters":16400,"station_id":"ce4bho12rcd13ifvqh1g","pricing_plan_id":"cebpf4jnsgd1na2vs0mg"},{"bike_id":"e3f546e7-0d53-4f39-a2ad-de471057ddd2","system_id":"levelo_inurba_marseille","lat":43.28661,"lon":5.36351,"is_reserved":false,"is_disabled":false,"rental_uris":{"android":"levelo://app?vid=e3f546e7-0d53-4f39-a2ad-de471057ddd2","ios":"levelo://app?vid=e3f546e7-0d53-4f39-a2ad-de471057ddd2"},"vehicle_type_id":"4","last_reported":1760991089,"current_range_meters":16400,"station_id":"ce4bhah2rcd13ifvqej0","pricing_plan_id":"cebpf4jnsgd1na2vs0mg"},{"bike_id":"ee541b89-16c0-411b-94f7-b1b83718973b","system_id":"levelo_inurba_marseille","lat":43.27993,"lon":5.41665,"is_reserved":false,"is_disabled":false,"rental_uris":{"android":"levelo://app?vid=ee541b89-16c0-411b-94f7-b1b83718973b","ios":"levelo://app?vid=ee541b89-16c0-411b-94f7-b1b83718973b"},"vehicle_type_id":"4","last_reported":1760991089,"current_range_meters":16400,"station_id":"ce4bho12rcd13ifvqh1g","pricing_plan_id":"cebpf4jnsgd1na2vs0mg"},{"bike_id":"9674d1af-9749-4dd8-808e-bfa2cd4e61d3","system_id":"levelo_inurba_marseille","lat":43.33602,"lon":5.41043,"is_reserved":false,"is_disabled":false,"rental_uris":{"android":"levelo://app?vid=9674d1af-9749-4dd8-808e-bfa2cd4e61d3","ios":"levelo://app?vid=9674d1af-9749-4dd8-808e-bfa2cd4e61d3"},"vehicle_type_id":"4","last_reported":1760991089,"current_range_meters":16400,"station_id":"ce4bhqh2rcd13ifvqhmg","pricing_plan_id":"cebpf4jnsgd1na2vs0mg"},{"bike_id":"06c03a3b-37c6-499a-8107-e4910efb4f14","system_id":"levelo_inurba_marseille","lat":43.237823,"lon":5.3664,"is_reserved":false,"is_disabled":false,"rental_uris":{"android":"levelo://app?vid=06c03a3b-37c6-499a-8107-e4910efb4f14","ios":"levelo://app?vid=06c03a3b-37c6-499a-8107-e4910efb4f14"},"vehicle_type_id":"4","last_reported":1760991089,"current_range_meters":16400,"station_id":"st_d3nk18o9ro0c73en2l3g","pricing_plan_id":"cebpf4jnsgd1na2vs0mg"},{"bike_id":"91155da1-52f0-42d6-9dfa-c51839083e18","system_id":"levelo_inurba_marseille","lat":43.28363,"lon":5.38088,"is_reserved":false,"is_disabled":false,"rental_uris":{"android":"levelo://app?vid=91155da1-52f0-42d6-9dfa-c51839083e18","ios":"levelo://app?vid=91155da1-52f0-42d6-9dfa-c51839083e18"},"vehicle_type_id":"4","last_reported":1760991089,"current_range_meters":16400,"station_id":"ce4bh412rcd13ifvqdr0","pricing_plan_id":"cebpf4jnsgd1na2vs0mg"},{"bike_id":"f8de620a-e1d5-41c8-ab7c-bc44d275d403","system_id":"levelo_inurba_marseille","lat":43.30434,"lon":5.38873,"is_reserved":false,"is_disabled":false,"rental_uris":{"android":"levelo://app?vid=f8de620a-e1d5-41c8-ab7c-bc44d275d403","ios":"levelo://app?vid=f8de620a-e1d5-41c8-ab7c-bc44d275d403"},"vehicle_type_id":"4","last_reported":1760991089,"current_range_meters":16800,"station_id":"ce4bgk12rcd13ifvqbi0","pricing_plan_id":"cebpf4jnsgd1na2vs0mg"},{"bike_id":"d8c98f31-9e7e-4f17-aedd-cbe9cd77a355","system_id":"levelo_inurba_marseille","lat":43.2979,"lon":5.39341,"is_reserved":false,"is_disabled":false,"rental_uris":{"android":"levelo://app?vid=d8c98f31-9e7e-4f17-aedd-cbe9cd77a355","ios":"levelo://app?vid=d8c98f31-9e7e-4f17-aedd-cbe9cd77a355"},"vehicle_type_id":"4","last_reported":1760991089,"current_range_meters":16800,"station_id":"chh1huq6cuj3fo74tm60","pricing_plan_id":"cebpf4jnsgd1na2vs0mg"},{"bike_id":"ecc71f2f-a8c8-48f2-a3d5-7917b274cd85","system_id":"levelo_inurba_marseille","lat":43.28286,"lon":5.39656,"is_reserved":false,"is_disabled":false,"rental_uris":{"android":"levelo://app?vid=ecc71f2f-a8c8-48f2-a3d5-7917b274cd85","ios":"levelo://app?vid=ecc71f2f-a8c8-48f2-a3d5-7917b274cd85"},"vehicle_type_id":"4","last_reported":1760991089,"current_range_meters":16800,"station_id":"","pricing_plan_id":"cebpf4jnsgd1na2vs0mg"},{"bike_id":"e1f4e2e7-e979-4bb5-8ac3-370c17ac4622","system_id":"levelo_inurba_marseille","lat":43.28858,"lon":5.42513,"is_reserved":false,"is_disabled":false,"rental_uris":{"android":"levelo://app?vid=e1f4e2e7-e979-4bb5-8ac3-370c17ac4622","ios":"levelo://app?vid=e1f4e2e7-e979-4bb5-8ac3-370c17ac4622"},"vehicle_type_id":"4","last_reported":1760991089,"current_range_meters":16800,"station_id":"st_d3b462108ojc7389ooeg","pricing_plan_id":"cebpf4jnsgd1na2vs0mg"},{"bike_id":"5ffc841b-57b4-486c-b04c-40b145c83ce9","system_id":"levelo_inurba_marseille","lat":43.2467,"lon":5.38155,"is_reserved":false,"is_disabled":false,"rental_uris":{"android":"levelo://app?vid=5ffc841b-57b4-486c-b04c-40b145c83ce9","ios":"levelo://app?vid=5ffc841b-57b4-486c-b04c-40b145c83ce9"},"vehicle_type_id":"4","last_reported":1760991089,"current_range_meters":16800,"station_id":"ce4bhih2rcd13ifvqfr0","pricing_plan_id":"cebpf4jnsgd1na2vs0mg"},{"bike_id":"3bfe7250-8d79-4f02-905c-485ecfd76c82","system_id":"levelo_inurba_marseille","lat":43.27827,"lon":5.39205,"is_reserved":false,"is_disabled":false,"rental_uris":{"android":"levelo://app?vid=3bfe7250-8d79-4f02-905c-485ecfd76c82","ios":"levelo://app?vid=3bfe7250-8d79-4f02-905c-485ecfd76c82"},"vehicle_type_id":"4","last_reported":1760991089,"current_range_meters":16800,"station_id":"ce4bhjp2rcd13ifvqga0","pricing_plan_id":"cebpf4jnsgd1na2vs0mg"},{"bike_id":"12c7b0d2-ddbf-431c-8610-ad9ab6df2f6a","system_id":"levelo_inurba_marseille","lat":43.32097,"lon":5.36763,"is_reserved":false,"is_disabled":false,"rental_uris":{"android":"levelo://app?vid=12c7b0d2-ddbf-431c-8610-ad9ab6df2f6a","ios":"levelo://app?vid=12c7b0d2-ddbf-431c-8610-ad9ab6df2f6a"},"vehicle_type_id":"4","last_reported":1760991089,"current_range_meters":16800,"station_id":"ce4bhrh2rcd13ifvqhug","pricing_plan_id":"cebpf4jnsgd1na2vs0mg"},{"bike_id":"e8607c65-df45-4bcb-a659-aeabd5fa6dbe","system_id":"levelo_inurba_marseille","lat":43.31714,"lon":5.37738,"is_reserved":false,"is_disabled":false,"rental_uris":{"android":"levelo://app?vid=e8607c65-df45-4bcb-a659-aeabd5fa6dbe","ios":"levelo://app?vid=e8607c65-df45-4bcb-a659-aeabd5fa6dbe"},"vehicle_type_id":"4","last_reported":1760991089,"current_range_meters":16800,"station_id":"ce4bgth2rcd13ifvqch0","pricing_plan_id":"cebpf4jnsgd1na2vs0mg"},{"bike_id":"07b51a7f-173d-4675-8d8b-d0c059c1d16a","system_id":"levelo_inurba_marseille","lat":43.292665,"lon":5.383567,"is_reserved":false,"is_disabled":false,"rental_uris":{"android":"levelo://app?vid=07b51a7f-173d-4675-8d8b-d0c059c1d16a","ios":"levelo://app?vid=07b51a7f-173d-4675-8d8b-d0c059c1d16a"},"vehicle_type_id":"4","last_reported":1760991089,"current_range_meters":16800,"station_id":"ce4bh692rcd13ifvqea0","pricing_plan_id":"cebpf4jnsgd1na2vs0mg"},{"bike_id":"bd07bb0a-7914-4975-b9b3-a3b2eaf40169","system_id":"levelo_inurba_marseille","lat":43.31757,"lon":5.37754,"is_reserved":false,"is_disabled":true,"rental_uris":{"android":"levelo://app?vid=bd07bb0a-7914-4975-b9b3-a3b2eaf40169","ios":"levelo://app?vid=bd07bb0a-7914-4975-b9b3-a3b2eaf40169"},"vehicle_type_id":"4","last_reported":1760991089,"current_range_meters":16800,"station_id":"ce4bgth2rcd13ifvqch0","pricing_plan_id":"cebpf4jnsgd1na2vs0mg"},{"bike_id":"d002287b-50e8-45d0-a495-c8386fa9adc9","system_id":"levelo_inurba_marseille","lat":43.32656,"lon":5.40986,"is_reserved":false,"is_disabled":false,"rental_uris":{"android":"levelo://app?vid=d002287b-50e8-45d0-a495-c8386fa9adc9","ios":"levelo://app?vid=d002287b-50e8-45d0-a495-c8386fa9adc9"},"vehicle_type_id":"4","last_reported":1760991089,"current_range_meters":16800,"station_id":"ce4bhpp2rcd13ifvqhgg","pricing_plan_id":"cebpf4jnsgd1na2vs0mg"},{"bike_id":"9c882443-49a2-480d-8caf-b6fafbd1ba97","system_id":"levelo_inurba_marseille","lat":43.27548,"lon":5.42764,"is_reserved":false,"is_disabled":false,"rental_uris":{"android":"levelo://app?vid=9c882443-49a2-480d-8caf-b6fafbd1ba97","ios":"levelo://app?vid=9c882443-49a2-480d-8caf-b6fafbd1ba97"},"vehicle_type_id":"4","last_reported":1760991089,"current_range_meters":16800,"station_id":"","pricing_plan_id":"cebpf4jnsgd1na2vs0mg"},{"bike_id":"e7611cfa-682f-4ccd-96c5-464cc6f40597","system_id":"levelo_inurba_marseille","lat":43.22559,"lon":5.41621,"is_reserved":false,"is_disabled":false,"rental_uris":{"android":"levelo://app?vid=e7611cfa-682f-4ccd-96c5-464cc6f40597","ios":"levelo://app?vid=e7611cfa-682f-4ccd-96c5-464cc6f40597"},"vehicle_type_id":"4","last_reported":1760991089,"current_range_meters":16800,"station_id":"st_d2o4gvlbi1j2169b742g","pricing_plan_id":"cebpf4jnsgd1na2vs0mg"},{"bike_id":"71b258a5-ce06-4544-8667-4ab25befb04a","system_id":"levelo_inurba_marseille","lat":43.24679,"lon":5.38145,"is_reserved":false,"is_disabled":false,"rental_uris":{"android":"levelo://app?vid=71b258a5-ce06-4544-8667-4ab25befb04a","ios":"levelo://app?vid=71b258a5-ce06-4544-8667-4ab25befb04a"},"vehicle_type_id":"4","last_reported":1760991089,"current_range_meters":17200,"station_id":"ce4bhih2rcd13ifvqfr0","pricing_plan_id":"cebpf4jnsgd1na2vs0mg"},{"bike_id":"26a47936-248a-4509-9172-73bff6c9fadc","system_id":"levelo_inurba_marseille","lat":43.309998,"lon":5.389321,"is_reserved":false,"is_disabled":false,"rental_uris":{"android":"levelo://app?vid=26a47936-248a-4509-9172-73bff6c9fadc","ios":"levelo://app?vid=26a47936-248a-4509-9172-73bff6c9fadc"},"vehicle_type_id":"4","last_reported":1760991089,"current_range_meters":17200,"station_id":"ce4bgup2rcd13ifvqco0","pricing_plan_id":"cebpf4jnsgd1na2vs0mg"},{"bike_id":"2a47929d-e4df-41ea-aa34-2e3ce005d3e1","system_id":"levelo_inurba_marseille","lat":43.25341,"lon":5.4214,"is_reserved":false,"is_disabled":false,"rental_uris":{"android":"levelo://app?vid=2a47929d-e4df-41ea-aa34-2e3ce005d3e1","ios":"levelo://app?vid=2a47929d-e4df-41ea-aa34-2e3ce005d3e1"},"vehicle_type_id":"4","last_reported":1760991089,"current_range_meters":17200,"station_id":"st_d2m65c5bi1j21697t3ng","pricing_plan_id":"cebpf4jnsgd1na2vs0mg"},{"bike_id":"fa344610-9bdf-47a1-9d9d-a659d006d2c1","system_id":"levelo_inurba_marseille","lat":43.27613,"lon":5.36107,"is_reserved":false,"is_disabled":true,"rental_uris":{"android":"levelo://app?vid=fa344610-9bdf-47a1-9d9d-a659d006d2c1","ios":"levelo://app?vid=fa344610-9bdf-47a1-9d9d-a659d006d2c1"},"vehicle_type_id":"4","last_reported":1760991089,"current_range_meters":17200,"station_id":"ce4bgj92rcd13ifvqbe0","pricing_plan_id":"cebpf4jnsgd1na2vs0mg"},{"bike_id":"9685b534-3028-459a-908a-5c3c4b067a77","system_id":"levelo_inurba_marseille","lat":43.2795,"lon":5.38741,"is_reserved":false,"is_disabled":false,"rental_uris":{"android":"levelo://app?vid=9685b534-3028-459a-908a-5c3c4b067a77","ios":"levelo://app?vid=9685b534-3028-459a-908a-5c3c4b067a77"},"vehicle_type_id":"4","last_reported":1760991089,"current_range_meters":17200,"station_id":"ce4bhg12rcd13ifvqf80","pricing_plan_id":"cebpf4jnsgd1na2vs0mg"},{"bike_id":"f1fd161b-9c9a-4738-b8e9-0c3bae1b6a0e","system_id":"levelo_inurba_marseille","lat":43.29028,"lon":5.3862,"is_reserved":false,"is_disabled":false,"rental_uris":{"android":"levelo://app?vid=f1fd161b-9c9a-4738-b8e9-0c3bae1b6a0e","ios":"levelo://app?vid=f1fd161b-9c9a-4738-b8e9-0c3bae1b6a0e"},"vehicle_type_id":"4","last_reported":1760991089,"current_range_meters":17200,"station_id":"ce4bh4p2rcd13ifvqe0g","pricing_plan_id":"cebpf4jnsgd1na2vs0mg"},{"bike_id":"c9c1af49-9e6d-4de6-adde-aea85d12b1bb","system_id":"levelo_inurba_marseille","lat":43.32578,"lon":5.4244,"is_reserved":false,"is_disabled":false,"rental_uris":{"android":"levelo://app?vid=c9c1af49-9e6d-4de6-adde-aea85d12b1bb","ios":"levelo://app?vid=c9c1af49-9e6d-4de6-adde-aea85d12b1bb"},"vehicle_type_id":"4","last_reported":1760991089,"current_range_meters":17200,"station_id":"","pricing_plan_id":"cebpf4jnsgd1na2vs0mg"},{"bike_id":"fecf653e-223b-4394-a7ea-de2ae7d6b3db","system_id":"levelo_inurba_marseille","lat":43.28663,"lon":5.36342,"is_reserved":false,"is_disabled":false,"rental_uris":{"android":"levelo://app?vid=fecf653e-223b-4394-a7ea-de2ae7d6b3db","ios":"levelo://app?vid=fecf653e-223b-4394-a7ea-de2ae7d6b3db"},"vehicle_type_id":"4","last_reported":1760991089,"current_range_meters":17200,"station_id":"ce4bhah2rcd13ifvqej0","pricing_plan_id":"cebpf4jnsgd1na2vs0mg"},{"bike_id":"77434eef-942d-45ae-b433-77c1e7d412dc","system_id":"levelo_inurba_marseille","lat":43.30029,"lon":5.40401,"is_reserved":false,"is_disabled":false,"rental_uris":{"android":"levelo://app?vid=77434eef-942d-45ae-b433-77c1e7d412dc","ios":"levelo://app?vid=77434eef-942d-45ae-b433-77c1e7d412dc"},"vehicle_type_id":"4","last_reported":1760991089,"current_range_meters":17200,"station_id":"","pricing_plan_id":"cebpf4jnsgd1na2vs0mg"},{"bike_id":"50227033-b2a0-40b8-93ef-16d57df43834","system_id":"levelo_inurba_marseille","lat":43.31999,"lon":5.38146,"is_reserved":false,"is_disabled":false,"rental_uris":{"android":"levelo://app?vid=50227033-b2a0-40b8-93ef-16d57df43834","ios":"levelo://app?vid=50227033-b2a0-40b8-93ef-16d57df43834"},"vehicle_type_id":"4","last_reported":1760991089,"current_range_meters":17200,"station_id":"ce4bhr12rcd13ifvqhpg","pricing_plan_id":"cebpf4jnsgd1na2vs0mg"},{"bike_id":"8fb692f4-0aed-49cc-8723-a59420d78bf1","system_id":"levelo_inurba_marseille","lat":43.25088,"lon":5.39517,"is_reserved":false,"is_disabled":false,"rental_uris":{"android":"levelo://app?vid=8fb692f4-0aed-49cc-8723-a59420d78bf1","ios":"levelo://app?vid=8fb692f4-0aed-49cc-8723-a59420d78bf1"},"vehicle_type_id":"4","last_reported":1760991089,"current_range_meters":17600,"station_id":"ce4bhm12rcd13ifvqgkg","pricing_plan_id":"cebpf4jnsgd1na2vs0mg"},{"bike_id":"78e3d727-b035-46a0-87af-a0f33fb2bf03","system_id":"levelo_inurba_marseille","lat":43.3067,"lon":5.40091,"is_reserved":false,"is_disabled":false,"rental_uris":{"android":"levelo://app?vid=78e3d727-b035-46a0-87af-a0f33fb2bf03","ios":"levelo://app?vid=78e3d727-b035-46a0-87af-a0f33fb2bf03"},"vehicle_type_id":"4","last_reported":1760991089,"current_range_meters":17600,"station_id":"ce4bh112rcd13ifvqda0","pricing_plan_id":"cebpf4jnsgd1na2vs0mg"},{"bike_id":"06975a51-4242-4d9b-b23d-8c317f4c9487","system_id":"levelo_inurba_marseille","lat":43.33719,"lon":5.3918,"is_reserved":false,"is_disabled":false,"rental_uris":{"android":"levelo://app?vid=06975a51-4242-4d9b-b23d-8c317f4c9487","ios":"levelo://app?vid=06975a51-4242-4d9b-b23d-8c317f4c9487"},"vehicle_type_id":"4","last_reported":1760991089,"current_range_meters":17600,"station_id":"ce4bhr92rcd13ifvqhsg","pricing_plan_id":"cebpf4jnsgd1na2vs0mg"},{"bike_id":"d21d91e8-7a75-4548-82c3-1b3109a71ef6","system_id":"levelo_inurba_marseille","lat":43.331633,"lon":5.35504,"is_reserved":false,"is_disabled":false,"rental_uris":{"android":"levelo://app?vid=d21d91e8-7a75-4548-82c3-1b3109a71ef6","ios":"levelo://app?vid=d21d91e8-7a75-4548-82c3-1b3109a71ef6"},"vehicle_type_id":"4","last_reported":1760991089,"current_range_meters":17600,"station_id":"","pricing_plan_id":"cebpf4jnsgd1na2vs0mg"},{"bike_id":"02be1eb4-e96e-4b52-bee4-2b440854ec16","system_id":"levelo_inurba_marseille","lat":43.27914,"lon":5.39575,"is_reserved":false,"is_disabled":false,"rental_uris":{"android":"levelo://app?vid=02be1eb4-e96e-4b52-bee4-2b440854ec16","ios":"levelo://app?vid=02be1eb4-e96e-4b52-bee4-2b440854ec16"},"vehicle_type_id":"4","last_reported":1760991089,"current_range_meters":17600,"station_id":"ce4bhf92rcd13ifvqf40","pricing_plan_id":"cebpf4jnsgd1na2vs0mg"},{"bike_id":"82a7a994-7bd2-4d68-b150-52038a5b1aa3","system_id":"levelo_inurba_marseille","lat":43.31995,"lon":5.38163,"is_reserved":false,"is_disabled":false,"rental_uris":{"android":"levelo://app?vid=82a7a994-7bd2-4d68-b150-52038a5b1aa3","ios":"levelo://app?vid=82a7a994-7bd2-4d68-b150-52038a5b1aa3"},"vehicle_type_id":"4","last_reported":1760991089,"current_range_meters":17600,"station_id":"ce4bhr12rcd13ifvqhpg","pricing_plan_id":"cebpf4jnsgd1na2vs0mg"},{"bike_id":"1de6ebd8-d371-4192-8a8a-740773cc8f40","system_id":"levelo_inurba_marseille","lat":43.28662,"lon":5.38538,"is_reserved":false,"is_disabled":false,"rental_uris":{"android":"levelo://app?vid=1de6ebd8-d371-4192-8a8a-740773cc8f40","ios":"levelo://app?vid=1de6ebd8-d371-4192-8a8a-740773cc8f40"},"vehicle_type_id":"4","last_reported":1760991089,"current_range_meters":18000,"station_id":"","pricing_plan_id":"cebpf4jnsgd1na2vs0mg"},{"bike_id":"4cf46f94-7d8c-45a0-99c7-69fae41eb707","system_id":"levelo_inurba_marseille","lat":43.29534,"lon":5.39406,"is_reserved":false,"is_disabled":false,"rental_uris":{"android":"levelo://app?vid=4cf46f94-7d8c-45a0-99c7-69fae41eb707","ios":"levelo://app?vid=4cf46f94-7d8c-45a0-99c7-69fae41eb707"},"vehicle_type_id":"4","last_reported":1760991089,"current_range_meters":18000,"station_id":"ce4bh292rcd13ifvqdf0","pricing_plan_id":"cebpf4jnsgd1na2vs0mg"},{"bike_id":"b52685f1-5782-4f11-87c7-1dc9cebce4f0","system_id":"levelo_inurba_marseille","lat":43.27807,"lon":5.40712,"is_reserved":false,"is_disabled":false,"rental_uris":{"android":"levelo://app?vid=b52685f1-5782-4f11-87c7-1dc9cebce4f0","ios":"levelo://app?vid=b52685f1-5782-4f11-87c7-1dc9cebce4f0"},"vehicle_type_id":"4","last_reported":1760991089,"current_range_meters":18000,"station_id":"ce4bhnh2rcd13ifvqgtg","pricing_plan_id":"cebpf4jnsgd1na2vs0mg"},{"bike_id":"393cb4aa-a852-46d8-91f6-053fce75cf93","system_id":"levelo_inurba_marseille","lat":43.27503,"lon":5.42449,"is_reserved":false,"is_disabled":true,"rental_uris":{"android":"levelo://app?vid=393cb4aa-a852-46d8-91f6-053fce75cf93","ios":"levelo://app?vid=393cb4aa-a852-46d8-91f6-053fce75cf93"},"vehicle_type_id":"4","last_reported":1760991089,"current_range_meters":18000,"station_id":"ce4bhn92rcd13ifvqgrg","pricing_plan_id":"cebpf4jnsgd1na2vs0mg"},{"bike_id":"5128c0fe-4dbd-436c-953e-b5f17c8ff496","system_id":"levelo_inurba_marseille","lat":43.243914,"lon":5.370677,"is_reserved":false,"is_disabled":true,"rental_uris":{"android":"levelo://app?vid=5128c0fe-4dbd-436c-953e-b5f17c8ff496","ios":"levelo://app?vid=5128c0fe-4dbd-436c-953e-b5f17c8ff496"},"vehicle_type_id":"4","last_reported":1760991089,"current_range_meters":18000,"station_id":"ce4bhhh2rcd13ifvqfk0","pricing_plan_id":"cebpf4jnsgd1na2vs0mg"},{"bike_id":"f1b8e04f-457e-461e-a0a7-0d512845fe50","system_id":"levelo_inurba_marseille","lat":43.34085,"lon":5.40405,"is_reserved":false,"is_disabled":false,"rental_uris":{"android":"levelo://app?vid=f1b8e04f-457e-461e-a0a7-0d512845fe50","ios":"levelo://app?vid=f1b8e04f-457e-461e-a0a7-0d512845fe50"},"vehicle_type_id":"4","last_reported":1760991089,"current_range_meters":18000,"station_id":"","pricing_plan_id":"cebpf4jnsgd1na2vs0mg"},{"bike_id":"3df3d5f4-da97-4e2a-a872-8472f9b5b072","system_id":"levelo_inurba_marseille","lat":43.29273,"lon":5.40108,"is_reserved":false,"is_disabled":false,"rental_uris":{"android":"levelo://app?vid=3df3d5f4-da97-4e2a-a872-8472f9b5b072","ios":"levelo://app?vid=3df3d5f4-da97-4e2a-a872-8472f9b5b072"},"vehicle_type_id":"4","last_reported":1760991089,"current_range_meters":18000,"station_id":"ce4bh312rcd13ifvqdk0","pricing_plan_id":"cebpf4jnsgd1na2vs0mg"},{"bike_id":"519c85a1-bcab-4c56-b82d-1412245f6eb1","system_id":"levelo_inurba_marseille","lat":43.28664,"lon":5.36341,"is_reserved":false,"is_disabled":false,"rental_uris":{"android":"levelo://app?vid=519c85a1-bcab-4c56-b82d-1412245f6eb1","ios":"levelo://app?vid=519c85a1-bcab-4c56-b82d-1412245f6eb1"},"vehicle_type_id":"4","last_reported":1760991089,"current_range_meters":18000,"station_id":"ce4bhah2rcd13ifvqej0","pricing_plan_id":"cebpf4jnsgd1na2vs0mg"},{"bike_id":"6647de86-0f50-497e-a286-5c4edf2d4ab7","system_id":"levelo_inurba_marseille","lat":43.303055,"lon":5.391713,"is_reserved":false,"is_disabled":false,"rental_uris":{"android":"levelo://app?vid=6647de86-0f50-497e-a286-5c4edf2d4ab7","ios":"levelo://app?vid=6647de86-0f50-497e-a286-5c4edf2d4ab7"},"vehicle_type_id":"4","last_reported":1760991089,"current_range_meters":18800,"station_id":"ce4bgkh2rcd13ifvqbk0","pricing_plan_id":"cebpf4jnsgd1na2vs0mg"},{"bike_id":"bf4cb43d-a5cd-4494-b968-bf7557d186a3","system_id":"levelo_inurba_marseille","lat":43.29276,"lon":5.401147,"is_reserved":false,"is_disabled":false,"rental_uris":{"android":"levelo://app?vid=bf4cb43d-a5cd-4494-b968-bf7557d186a3","ios":"levelo://app?vid=bf4cb43d-a5cd-4494-b968-bf7557d186a3"},"vehicle_type_id":"4","last_reported":1760991089,"current_range_meters":18800,"station_id":"","pricing_plan_id":"cebpf4jnsgd1na2vs0mg"},{"bike_id":"1c5f894c-28be-45f9-81bc-458a2962c69b","system_id":"levelo_inurba_marseille","lat":43.2718,"lon":5.40983,"is_reserved":false,"is_disabled":true,"rental_uris":{"android":"levelo://app?vid=1c5f894c-28be-45f9-81bc-458a2962c69b","ios":"levelo://app?vid=1c5f894c-28be-45f9-81bc-458a2962c69b"},"vehicle_type_id":"4","last_reported":1760991089,"current_range_meters":18800,"station_id":"ce4bhl12rcd13ifvqgf0","pricing_plan_id":"cebpf4jnsgd1na2vs0mg"},{"bike_id":"5c6534e2-36c2-4023-b35d-6364fb858aa9","system_id":"levelo_inurba_marseille","lat":43.29331,"lon":5.3707,"is_reserved":false,"is_disabled":false,"rental_uris":{"android":"levelo://app?vid=5c6534e2-36c2-4023-b35d-6364fb858aa9","ios":"levelo://app?vid=5c6534e2-36c2-4023-b35d-6364fb858aa9"},"vehicle_type_id":"4","last_reported":1760991089,"current_range_meters":18800,"station_id":"","pricing_plan_id":"cebpf4jnsgd1na2vs0mg"},{"bike_id":"5b13ae95-9abd-427e-b11b-454fe27a30f4","system_id":"levelo_inurba_marseille","lat":43.30902,"lon":5.39628,"is_reserved":false,"is_disabled":true,"rental_uris":{"android":"levelo://app?vid=5b13ae95-9abd-427e-b11b-454fe27a30f4","ios":"levelo://app?vid=5b13ae95-9abd-427e-b11b-454fe27a30f4"},"vehicle_type_id":"4","last_reported":1760991089,"current_range_meters":18800,"station_id":"ce4bh012rcd13ifvqcv0","pricing_plan_id":"cebpf4jnsgd1na2vs0mg"},{"bike_id":"7f77815b-033d-4342-89a5-0d2a289032b0","system_id":"levelo_inurba_marseille","lat":43.2903,"lon":5.39972,"is_reserved":false,"is_disabled":false,"rental_uris":{"android":"levelo://app?vid=7f77815b-033d-4342-89a5-0d2a289032b0","ios":"levelo://app?vid=7f77815b-033d-4342-89a5-0d2a289032b0"},"vehicle_type_id":"4","last_reported":1760991089,"current_range_meters":18800,"station_id":"ce4bh392rcd13ifvqdm0","pricing_plan_id":"cebpf4jnsgd1na2vs0mg"},{"bike_id":"2b7a83dc-7c47-432f-957a-f81e36dd9428","system_id":"levelo_inurba_marseille","lat":43.30135,"lon":5.39859,"is_reserved":false,"is_disabled":false,"rental_uris":{"android":"levelo://app?vid=2b7a83dc-7c47-432f-957a-f81e36dd9428","ios":"levelo://app?vid=2b7a83dc-7c47-432f-957a-f81e36dd9428"},"vehicle_type_id":"4","last_reported":1760991089,"current_range_meters":19200,"station_id":"ce4bh0h2rcd13ifvqd40","pricing_plan_id":"cebpf4jnsgd1na2vs0mg"},{"bike_id":"91ab1363-742f-48b4-afbf-c5038ebf28ea","system_id":"levelo_inurba_marseille","lat":43.28092,"lon":5.37788,"is_reserved":false,"is_disabled":false,"rental_uris":{"android":"levelo://app?vid=91ab1363-742f-48b4-afbf-c5038ebf28ea","ios":"levelo://app?vid=91ab1363-742f-48b4-afbf-c5038ebf28ea"},"vehicle_type_id":"4","last_reported":1760991089,"current_range_meters":19200,"station_id":"ce4bha12rcd13ifvqee0","pricing_plan_id":"cebpf4jnsgd1na2vs0mg"},{"bike_id":"2f4c9470-fe73-4085-9e97-fdf7fc3d500b","system_id":"levelo_inurba_marseille","lat":43.31077,"lon":5.38348,"is_reserved":false,"is_disabled":false,"rental_uris":{"android":"levelo://app?vid=2f4c9470-fe73-4085-9e97-fdf7fc3d500b","ios":"levelo://app?vid=2f4c9470-fe73-4085-9e97-fdf7fc3d500b"},"vehicle_type_id":"4","last_reported":1760991089,"current_range_meters":19200,"station_id":"ce4bgv92rcd13ifvqcr0","pricing_plan_id":"cebpf4jnsgd1na2vs0mg"},{"bike_id":"c71062df-2e0b-4447-9245-37625669e5c2","system_id":"levelo_inurba_marseille","lat":43.29307,"lon":5.40282,"is_reserved":false,"is_disabled":false,"rental_uris":{"android":"levelo://app?vid=c71062df-2e0b-4447-9245-37625669e5c2","ios":"levelo://app?vid=c71062df-2e0b-4447-9245-37625669e5c2"},"vehicle_type_id":"4","last_reported":1760991089,"current_range_meters":19200,"station_id":"","pricing_plan_id":"cebpf4jnsgd1na2vs0mg"},{"bike_id":"3506a03f-a303-411a-8579-21161da360a1","system_id":"levelo_inurba_marseille","lat":43.29968,"lon":5.37187,"is_reserved":false,"is_disabled":false,"rental_uris":{"android":"levelo://app?vid=3506a03f-a303-411a-8579-21161da360a1","ios":"levelo://app?vid=3506a03f-a303-411a-8579-21161da360a1"},"vehicle_type_id":"4","last_reported":1760991089,"current_range_meters":19200,"station_id":"ce4bgr92rcd13ifvqc7g","pricing_plan_id":"cebpf4jnsgd1na2vs0mg"},{"bike_id":"8cfdc42a-d2ca-4e9b-8d86-08af829be997","system_id":"levelo_inurba_marseille","lat":43.23973,"lon":5.36621,"is_reserved":false,"is_disabled":false,"rental_uris":{"android":"levelo://app?vid=8cfdc42a-d2ca-4e9b-8d86-08af829be997","ios":"levelo://app?vid=8cfdc42a-d2ca-4e9b-8d86-08af829be997"},"vehicle_type_id":"4","last_reported":1760991089,"current_range_meters":19200,"station_id":"ce4bhi12rcd13ifvqfp0","pricing_plan_id":"cebpf4jnsgd1na2vs0mg"},{"bike_id":"89af337e-70a6-4350-a2db-60a3bfbb399f","system_id":"levelo_inurba_marseille","lat":43.256378,"lon":5.404665,"is_reserved":false,"is_disabled":false,"rental_uris":{"android":"levelo://app?vid=89af337e-70a6-4350-a2db-60a3bfbb399f","ios":"levelo://app?vid=89af337e-70a6-4350-a2db-60a3bfbb399f"},"vehicle_type_id":"4","last_reported":1760991089,"current_range_meters":19200,"station_id":"ce4bhkp2rcd13ifvqgd0","pricing_plan_id":"cebpf4jnsgd1na2vs0mg"},{"bike_id":"5576240b-773d-4431-abad-20604257c920","system_id":"levelo_inurba_marseille","lat":43.29635,"lon":5.40597,"is_reserved":false,"is_disabled":false,"rental_uris":{"android":"levelo://app?vid=5576240b-773d-4431-abad-20604257c920","ios":"levelo://app?vid=5576240b-773d-4431-abad-20604257c920"},"vehicle_type_id":"4","last_reported":1760991089,"current_range_meters":19200,"station_id":"ce4bh0h2rcd13ifvqd60","pricing_plan_id":"cebpf4jnsgd1na2vs0mg"},{"bike_id":"d9726e20-958a-4874-9c54-344dc6b84a1b","system_id":"levelo_inurba_marseille","lat":43.292647,"lon":5.391009,"is_reserved":false,"is_disabled":false,"rental_uris":{"android":"levelo://app?vid=d9726e20-958a-4874-9c54-344dc6b84a1b","ios":"levelo://app?vid=d9726e20-958a-4874-9c54-344dc6b84a1b"},"vehicle_type_id":"4","last_reported":1760991089,"current_range_meters":19200,"station_id":"ce4bh192rcd13ifvqdd0","pricing_plan_id":"cebpf4jnsgd1na2vs0mg"},{"bike_id":"d761bcfd-6b6b-4a73-8403-8e6da0bd1771","system_id":"levelo_inurba_marseille","lat":43.30242,"lon":5.40062,"is_reserved":false,"is_disabled":false,"rental_uris":{"android":"levelo://app?vid=d761bcfd-6b6b-4a73-8403-8e6da0bd1771","ios":"levelo://app?vid=d761bcfd-6b6b-4a73-8403-8e6da0bd1771"},"vehicle_type_id":"4","last_reported":1760991089,"current_range_meters":19200,"station_id":"ce4bgvh2rcd13ifvqcs0","pricing_plan_id":"cebpf4jnsgd1na2vs0mg"},{"bike_id":"1c340e24-acac-400d-a288-f5e30b089687","system_id":"levelo_inurba_marseille","lat":43.31065,"lon":5.38348,"is_reserved":false,"is_disabled":false,"rental_uris":{"android":"levelo://app?vid=1c340e24-acac-400d-a288-f5e30b089687","ios":"levelo://app?vid=1c340e24-acac-400d-a288-f5e30b089687"},"vehicle_type_id":"4","last_reported":1760991089,"current_range_meters":19600,"station_id":"ce4bgv92rcd13ifvqcr0","pricing_plan_id":"cebpf4jnsgd1na2vs0mg"},{"bike_id":"2e96e34d-fca8-4dcf-ae60-cd384407a395","system_id":"levelo_inurba_marseille","lat":43.31071,"lon":5.38348,"is_reserved":false,"is_disabled":false,"rental_uris":{"android":"levelo://app?vid=2e96e34d-fca8-4dcf-ae60-cd384407a395","ios":"levelo://app?vid=2e96e34d-fca8-4dcf-ae60-cd384407a395"},"vehicle_type_id":"4","last_reported":1760991089,"current_range_meters":19600,"station_id":"ce4bgv92rcd13ifvqcr0","pricing_plan_id":"cebpf4jnsgd1na2vs0mg"},{"bike_id":"15157440-24b9-40e6-b7a4-71d37be57a4a","system_id":"levelo_inurba_marseille","lat":43.2952,"lon":5.39403,"is_reserved":false,"is_disabled":false,"rental_uris":{"android":"levelo://app?vid=15157440-24b9-40e6-b7a4-71d37be57a4a","ios":"levelo://app?vid=15157440-24b9-40e6-b7a4-71d37be57a4a"},"vehicle_type_id":"4","last_reported":1760991089,"current_range_meters":19600,"station_id":"ce4bh292rcd13ifvqdf0","pricing_plan_id":"cebpf4jnsgd1na2vs0mg"},{"bike_id":"ceedc452-f436-4994-ac01-c6c43898b914","system_id":"levelo_inurba_marseille","lat":43.337835,"lon":5.374294,"is_reserved":false,"is_disabled":false,"rental_uris":{"android":"levelo://app?vid=ceedc452-f436-4994-ac01-c6c43898b914","ios":"levelo://app?vid=ceedc452-f436-4994-ac01-c6c43898b914"},"vehicle_type_id":"4","last_reported":1760991089,"current_range_meters":19600,"station_id":"","pricing_plan_id":"cebpf4jnsgd1na2vs0mg"},{"bike_id":"db7c301e-395f-4759-b22d-7eb5de9aa240","system_id":"levelo_inurba_marseille","lat":43.32053,"lon":5.41584,"is_reserved":false,"is_disabled":false,"rental_uris":{"android":"levelo://app?vid=db7c301e-395f-4759-b22d-7eb5de9aa240","ios":"levelo://app?vid=db7c301e-395f-4759-b22d-7eb5de9aa240"},"vehicle_type_id":"4","last_reported":1760991089,"current_range_meters":19600,"station_id":"ce4bhq92rcd13ifvqhkg","pricing_plan_id":"cebpf4jnsgd1na2vs0mg"},{"bike_id":"836172e6-3767-4d4a-bf52-e89232cd431f","system_id":"levelo_inurba_marseille","lat":43.31327,"lon":5.39703,"is_reserved":false,"is_disabled":false,"rental_uris":{"android":"levelo://app?vid=836172e6-3767-4d4a-bf52-e89232cd431f","ios":"levelo://app?vid=836172e6-3767-4d4a-bf52-e89232cd431f"},"vehicle_type_id":"4","last_reported":1760991089,"current_range_meters":19600,"station_id":"ce4bgvp2rcd13ifvqcu0","pricing_plan_id":"cebpf4jnsgd1na2vs0mg"},{"bike_id":"29aa1f44-1e38-4adc-84d3-792167ee9fbe","system_id":"levelo_inurba_marseille","lat":43.28721,"lon":5.36085,"is_reserved":false,"is_disabled":false,"rental_uris":{"android":"levelo://app?vid=29aa1f44-1e38-4adc-84d3-792167ee9fbe","ios":"levelo://app?vid=29aa1f44-1e38-4adc-84d3-792167ee9fbe"},"vehicle_type_id":"4","last_reported":1760991089,"current_range_meters":20000,"station_id":"cki0cbj6b192h4jlfktg","pricing_plan_id":"cebpf4jnsgd1na2vs0mg"},{"bike_id":"40e9d2cb-a62c-4cca-ba80-02f1949517c1","system_id":"levelo_inurba_marseille","lat":43.34736,"lon":5.36611,"is_reserved":false,"is_disabled":false,"rental_uris":{"android":"levelo://app?vid=40e9d2cb-a62c-4cca-ba80-02f1949517c1","ios":"levelo://app?vid=40e9d2cb-a62c-4cca-ba80-02f1949517c1"},"vehicle_type_id":"4","last_reported":1760991089,"current_range_meters":20000,"station_id":"","pricing_plan_id":"cebpf4jnsgd1na2vs0mg"},{"bike_id":"d514af3f-0c75-44db-bf1b-86a4bc5c4d9f","system_id":"levelo_inurba_marseille","lat":43.29525,"lon":5.39041,"is_reserved":false,"is_disabled":false,"rental_uris":{"android":"levelo://app?vid=d514af3f-0c75-44db-bf1b-86a4bc5c4d9f","ios":"levelo://app?vid=d514af3f-0c75-44db-bf1b-86a4bc5c4d9f"},"vehicle_type_id":"4","last_reported":1760991089,"current_range_meters":20000,"station_id":"ce4bh3p2rcd13ifvqdp0","pricing_plan_id":"cebpf4jnsgd1na2vs0mg"},{"bike_id":"bd32ef73-c08c-4cb9-8d0c-897ba2966023","system_id":"levelo_inurba_marseille","lat":43.24664,"lon":5.3817,"is_reserved":false,"is_disabled":false,"rental_uris":{"android":"levelo://app?vid=bd32ef73-c08c-4cb9-8d0c-897ba2966023","ios":"levelo://app?vid=bd32ef73-c08c-4cb9-8d0c-897ba2966023"},"vehicle_type_id":"4","last_reported":1760991089,"current_range_meters":20000,"station_id":"ce4bhih2rcd13ifvqfr0","pricing_plan_id":"cebpf4jnsgd1na2vs0mg"},