{"last_updated":1761243319,"ttl":60,"version":"2.2","data":{"bikes":[{"bike_id":"1a07d95c-6d03-415f-ac0c-a8d14a94fa1e","system_id":"levelo_inurba_marseille","lat":43.28665,"lon":5.38667,"is_reserved":false,"is_disabled":false,"rental_uris":{"android":"levelo://app?vid=1a07d95c-6d03-415f-ac0c-a8d14a94fa1e","ios":"levelo://app?vid=1a07d95c-6d03-415f-ac0c-a8d14a94fa1e"},"vehicle_type_id":"4","last_reported":1761243320,"current_range_meters":2800,"station_id":"ce4bh492rcd13ifvqdug","pricing_plan_id":"cebpf4jnsgd1na2vs0mg"},{"bike_id":"9d142d9e-e8ae-45d7-b8f4-d884d645d1b3","system_id":"levelo_inurba_marseille","lat":43.28153,"lon":5.42644,"is_reserved":false,"is_disabled":false,"rental_uris":{"android":"levelo://app?vid=9d142d9e-e8ae-45d7-b8f4-d884d645d1b3","ios":"levelo://app?vid=9d142d9e-e8ae-45d7-b8f4-d884d645d1b3"},"vehicle_type_id":"4","last_reported":1761243320,"current_range_meters":2800,"station_id":"ce4bhnh2rcd13ifvqgug","pricing_plan_id":"cebpf4jnsgd1na2vs0mg"},{"bike_id":"2482ac3c-f19e-4631-bb84-6dd2fb68bfd3","system_id":"levelo_inurba_marseille","lat":43.30249,"lon":5.40041,"is_reserved":false,"is_disabled":false,"rental_uris":{"android":"levelo://app?vid=2482ac3c-f19e-4631-bb84-6dd2fb68bfd3","ios":"levelo://app?vid=2482ac3c-f19e-4631-bb84-6dd2fb68bfd3"},"vehicle_type_id":"4","last_reported":1761243320,"current_range_meters":2800,"station_id":"ce4bgvh2rcd13ifvqcs0","pricing_plan_id":"cebpf4jnsgd1na2vs0mg"},{"bike_id":"751639c6-ad8b-4f25-a594-fa4fb8c45ff6","system_id":"levelo_inurba_marseille","lat":43.280003,"lon":5.400113,"is_reserved":false,"is_disabled":false,"rental_uris":{"android":"levelo://app?vid=751639c6-ad8b-4f25-a594-fa4fb8c45ff6","ios":"levelo://app?vid=751639c6-ad8b-4f25-a594-fa4fb8c45ff6"},"vehicle_type_id":"4","last_reported":1761243320,"current_range_meters":2800,"station_id":"ce4bho92rcd13ifvqh4g","pricing_plan_id":"cebpf4jnsgd1na2vs0mg"},{"bike_id":"573e1652-868a-4994-a759-fa8961f134d8","system_id":"levelo_inurba_marseille","lat":43.301401,"lon":5.387828,"is_reserved":false,"is_disabled":false,"rental_uris":{"android":"levelo://app?vid=573e1652-868a-4994-a759-fa8961f134d8","ios":"levelo://app?vid=573e1652-868a-4994-a759-fa8961f134d8"},"vehicle_type_id":"4","last_reported":1761243320,"current_range_meters":2800,"station_id":"ce4bghh2rcd13ifvqb60","pricing_plan_id":"cebpf4jnsgd1na2vs0mg"},{"bike_id":"767bcd00-7353-4bd1-a2ce-8f72e20e9d92","system_id":"levelo_inurba_marseille","lat":43.29288,"lon":5.40122,"is_reserved":false,"is_disabled":false,"rental_uris":{"android":"levelo://app?vid=767bcd00-7353-4bd1-a2ce-8f72e20e9d92","ios":"levelo://app?vid=767bcd00-7353-4bd1-a2ce-8f72e20e9d92"},"vehicle_type_id":"4","last_reported":1761243320,"current_range_meters":3200,"station_id":"ce4bh312rcd13ifvqdk0","pricing_plan_id":"cebpf4jnsgd1na2vs0mg"},{"bike_id":"f137a600-156e-4834-adef-3d378206a8e6","system_id":"levelo_inurba_marseille","lat":43.29527,"lon":5.38553,"is_reserved":false,"is_disabled":false,"rental_uris":{"android":"levelo://app?vid=f137a600-156e-4834-adef-3d378206a8e6","ios":"levelo://app?vid=f137a600-156e-4834-adef-3d378206a8e6"},"vehicle_type_id":"4","last_reported":1761243320,"current_range_meters":3200,"station_id":"ce4bgih2rcd13ifvqba0","pricing_plan_id":"cebpf4jnsgd1na2vs0mg"},{"bike_id":"a29b77f9-5b40-4d48-9989-08870254b5dc","system_id":"levelo_inurba_marseille","lat":43.31276,"lon":5.40172,"is_reserved":false,"is_disabled":false,"rental_uris":{"android":"levelo://app?vid=a29b77f9-5b40-4d48-9989-08870254b5dc","ios":"levelo://app?vid=a29b77f9-5b40-4d48-9989-08870254b5dc"},"vehicle_type_id":"4","last_reported":1761243320,"current_range_meters":3200,"station_id":"ce4bh092rcd13ifvqd30","pricing_plan_id":"cebpf4jnsgd1na2vs0mg"},{"bike_id":"6f75be94-2df8-4f20-849c-e1fda46c41d0","system_id":"levelo_inurba_marseille","lat":43.28948,"lon":5.36635,"is_reserved":false,"is_disabled":false,"rental_uris":{"android":"levelo://app?vid=6f75be94-2df8-4f20-849c-e1fda46c41d0","ios":"levelo://app?vid=6f75be94-2df8-4f20-849c-e1fda46c41d0"},"vehicle_type_id":"4","last_reported":1761243320,"current_range_meters":3200,"station_id":"ce4bhap2rcd13ifvqek0","pricing_plan_id":"cebpf4jnsgd1na2vs0mg"},{"bike_id":"c835f02d-d6f5-4392-ba4e-19506c8c0c93","system_id":"levelo_inurba_marseille","lat":43.29025,"lon":5.38666,"is_reserved":false,"is_disabled":false,"rental_uris":{"android":"levelo://app?vid=c835f02d-d6f5-4392-ba4e-19506c8c0c93","ios":"levelo://app?vid=c835f02d-d6f5-4392-ba4e-19506c8c0c93"},"vehicle_type_id":"4","last_reported":1761243320,"current_range_meters":3200,"station_id":"ce4bh4p2rcd13ifvqe0g","pricing_plan_id":"cebpf4jnsgd1na2vs0mg"},{"bike_id":"d65d9625-ef13-4d75-883f-41b358c39977","system_id":"levelo_inurba_marseille","lat":43.29568,"lon":5.39967,"is_reserved":false,"is_disabled":false,"rental_uris":{"android":"levelo://app?vid=d65d9625-ef13-4d75-883f-41b358c39977","ios":"levelo://app?vid=d65d9625-ef13-4d75-883f-41b358c39977"},"vehicle_type_id":"4","last_reported":1761243320,"current_range_meters":3600,"station_id":"ce4bh312rcd13ifvqdj0","pricing_plan_id":"cebpf4jnsgd1na2vs0mg"},{"bike_id":"30e833b9-6e7a-43af-9eac-08df52bd1859","system_id":"levelo_inurba_marseille","lat":43.30153,"lon":5.38077,"is_reserved":false,"is_disabled":false,"rental_uris":{"android":"levelo://app?vid=30e833b9-6e7a-43af-9eac-08df52bd1859","ios":"levelo://app?vid=30e833b9-6e7a-43af-9eac-08df52bd1859"},"vehicle_type_id":"4","last_reported":1761243320,"current_range_meters":3600,"station_id":"ce4bgjp2rcd13ifvqbh0","pricing_plan_id":"cebpf4jnsgd1na2vs0mg"},{"bike_id":"48632e2f-2bfa-4d66-9c55-6719650f2630","system_id":"levelo_inurba_marseille","lat":43.2952,"lon":5.39047,"is_reserved":false,"is_disabled":false,"rental_uris":{"android":"levelo://app?vid=48632e2f-2bfa-4d66-9c55-6719650f2630","ios":"levelo://app?vid=48632e2f-2bfa-4d66-9c55-6719650f2630"},"vehicle_type_id":"4","last_reported":1761243320,"current_range_meters":3600,"station_id":"ce4bh3p2rcd13ifvqdp0","pricing_plan_id":"cebpf4jnsgd1na2vs0mg"},{"bike_id":"906c6916-bcd4-4603-91b5-5f898892d52b","system_id":"levelo_inurba_marseille","lat":43.29252,"lon":5.4091,"is_reserved":false,"is_disabled":false,"rental_uris":{"android":"levelo://app?vid=906c6916-bcd4-4603-91b5-5f898892d52b","ios":"levelo://app?vid=906c6916-bcd4-4603-91b5-5f898892d52b"},"vehicle_type_id":"4","last_reported":1761243320,"current_range_meters":3600,"station_id":"ce4bh192rcd13ifvqdc0","pricing_plan_id":"cebpf4jnsgd1na2vs0mg"},{"bike_id":"4e541b27-47a1-42cd-9811-3c305da3e22f","system_id":"levelo_inurba_marseille","lat":43.27494,"lon":5.42449,"is_reserved":false,"is_disabled":false,"rental_uris":{"android":"levelo://app?vid=4e541b27-47a1-42cd-9811-3c305da3e22f","ios":"levelo://app?vid=4e541b27-47a1-42cd-9811-3c305da3e22f"},"vehicle_type_id":"4","last_reported":1761243320,"current_range_meters":3600,"station_id":"ce4bhn92rcd13ifvqgrg","pricing_plan_id":"cebpf4jnsgd1na2vs0mg"},{"bike_id":"80fd3431-2f88-47bb-80c7-3b19d4391ec3","system_id":"levelo_inurba_marseille","lat":43.311178,"lon":5.377649,"is_reserved":false,"is_disabled":false,"rental_uris":{"android":"levelo://app?vid=80fd3431-2f88-47bb-80c7-3b19d4391ec3","ios":"levelo://app?vid=80fd3431-2f88-47bb-80c7-3b19d4391ec3"},"vehicle_type_id":"4","last_reported":1761243320,"current_range_meters":3600,"station_id":"","pricing_plan_id":"cebpf4jnsgd1na2vs0mg"},{"bike_id":"12a8899d-726e-4bec-a828-51722de4d812","system_id":"levelo_inurba_marseille","lat":43.2917,"lon":5.37161,"is_reserved":false,"is_disabled":false,"rental_uris":{"android":"levelo://app?vid=12a8899d-726e-4bec-a828-51722de4d812","ios":"levelo://app?vid=12a8899d-726e-4bec-a828-51722de4d812"},"vehicle_type_id":"4","last_reported":1761243320,"current_range_meters":3600,"station_id":"ce4bha92rcd13ifvqeh0","pricing_plan_id":"cebpf4jnsgd1na2vs0mg"},{"bike_id":"ac1df8dc-41e5-4954-977f-6f21ed12d11a","system_id":"levelo_inurba_marseille","lat":43.21755,"lon":5.34601,"is_reserved":false,"is_disabled":false,"rental_uris":{"android":"levelo://app?vid=ac1df8dc-41e5-4954-977f-6f21ed12d11a","ios":"levelo://app?vid=ac1df8dc-41e5-4954-977f-6f21ed12d11a"},"vehicle_type_id":"4","last_reported":1761243320,"current_range_meters":4000,"station_id":"st_cvj6r9ubvosntc0bgbag","pricing_plan_id":"cebpf4jnsgd1na2vs0mg"},{"bike_id":"00c7c2fb-833b-4ad5-8d2f-146d77f90dfc","system_id":"levelo_inurba_marseille","lat":43.2903,"lon":5.38132,"is_reserved":false,"is_disabled":false,"rental_uris":{"android":"levelo://app?vid=00c7c2fb-833b-4ad5-8d2f-146d77f90dfc","ios":"levelo://app?vid=00c7c2fb-833b-4ad5-8d2f-146d77f90dfc"},"vehicle_type_id":"4","last_reported":1761243320,"current_range_meters":4000,"station_id":"ce4bh4p2rcd13ifvqe1g","pricing_plan_id":"cebpf4jnsgd1na2vs0mg"},{"bike_id":"f8ed5907-138c-40de-b2c5-4b1ca0e5626c","system_id":"levelo_inurba_marseille","lat":43.33052,"lon":5.37652,"is_reserved":false,"is_disabled":false,"rental_uris":{"android":"levelo://app?vid=f8ed5907-138c-40de-b2c5-4b1ca0e5626c","ios":"levelo://app?vid=f8ed5907-138c-40de-b2c5-4b1ca0e5626c"},"vehicle_type_id":"4","last_reported":1761243320,"current_range_meters":4000,"station_id":"","pricing_plan_id":"cebpf4jnsgd1na2vs0mg"},{"bike_id":"5f6fcdd4-9292-4104-a5ab-abf46190d7a4","system_id":"levelo_inurba_marseille","lat":43.2944,"lon":5.39763,"is_reserved":false,"is_disabled":false,"rental_uris":{"android":"levelo://app?vid=5f6fcdd4-9292-4104-a5ab-abf46190d7a4","ios":"levelo://app?vid=5f6fcdd4-9292-4104-a5ab-abf46190d7a4"},"vehicle_type_id":"4","last_reported":1761243320,"current_range_meters":4400,"station_id":"ce4bh3h2rcd13ifvqdo0","pricing_plan_id":"cebpf4jnsgd1na2vs0mg"},{"bike_id":"066d7904-f782-44f2-ad3a-1c9e5c07d120","system_id":"levelo_inurba_marseille","lat":43.31994,"lon":5.3816,"is_reserved":false,"is_disabled":false,"rental_uris":{"android":"levelo://app?vid=066d7904-f782-44f2-ad3a-1c9e5c07d120","ios":"levelo://app?vid=066d7904-f782-44f2-ad3a-1c9e5c07d120"},"vehicle_type_id":"4","last_reported":1761243320,"current_range_meters":4400,"station_id":"ce4bhr12rcd13ifvqhpg","pricing_plan_id":"cebpf4jnsgd1na2vs0mg"},{"bike_id":"bc913198-f917-481c-9545-cda64f7ddb2d","system_id":"levelo_inurba_marseille","lat":43.28703,"lon":5.37391,"is_reserved":false,"is_disabled":false,"rental_uris":{"android":"levelo://app?vid=bc913198-f917-481c-9545-cda64f7ddb2d","ios":"levelo://app?vid=bc913198-f917-481c-9545-cda64f7ddb2d"},"vehicle_type_id":"4","last_reported":1761243320,"current_range_meters":4400,"station_id":"ce4bh3p2rcd13ifvqdq0","pricing_plan_id":"cebpf4jnsgd1na2vs0mg"},{"bike_id":"2e918439-123a-4e6c-b0dc-a9085a85ee55","system_id":"levelo_inurba_marseille","lat":43.29195,"lon":5.39322,"is_reserved":false,"is_disabled":false,"rental_uris":{"android":"levelo://app?vid=2e918439-123a-4e6c-b0dc-a9085a85ee55","ios":"levelo://app?vid=2e918439-123a-4e6c-b0dc-a9085a85ee55"},"vehicle_type_id":"4","last_reported":1761243320,"current_range_meters":4400,"station_id":"ce4bh192rcd13ifvqdd0","pricing_plan_id":"cebpf4jnsgd1na2vs0mg"},{"bike_id":"1080421b-bd4c-491b-a3a2-c1cc009067c2","system_id":"levelo_inurba_marseille","lat":43.29259,"lon":5.38429,"is_reserved":false,"is_disabled":false,"rental_uris":{"android":"levelo://app?vid=1080421b-bd4c-491b-a3a2-c1cc009067c2","ios":"levelo://app?vid=1080421b-bd4c-491b-a3a2-c1cc009067c2"},"vehicle_type_id":"4","last_reported":1761243320,"current_range_meters":4400,"station_id":"ce4bh692rcd13ifvqea0","pricing_plan_id":"cebpf4jnsgd1na2vs0mg"},{"bike_id":"84346016-2dba-4eb7-971d-b2ca303a1074","system_id":"levelo_inurba_marseille","lat":43.2976,"lon":5.42778,"is_reserved":false,"is_disabled":false,"rental_uris":{"android":"levelo://app?vid=84346016-2dba-4eb7-971d-b2ca303a1074","ios":"levelo://app?vid=84346016-2dba-4eb7-971d-b2ca303a1074"},"vehicle_type_id":"4","last_reported":1761243320,"current_range_meters":4800,"station_id":"st_d3md5207bmas73dh9klg","pricing_plan_id":"cebpf4jnsgd1na2vs0mg"},{"bike_id":"92f5e2fc-5283-4d49-ab4c-822a23177483","system_id":"levelo_inurba_marseille","lat":43.324706,"lon":5.408438,"is_reserved":false,"is_disabled":false,"rental_uris":{"android":"levelo://app?vid=92f5e2fc-5283-4d49-ab4c-822a23177483","ios":"levelo://app?vid=92f5e2fc-5283-4d49-ab4c-822a23177483"},"vehicle_type_id":"4","last_reported":1761243320,"current_range_meters":4800,"station_id":"","pricing_plan_id":"cebpf4jnsgd1na2vs0mg"},{"bike_id":"f65564fd-958f-41e1-a8f6-3065a3a36af0","system_id":"levelo_inurba_marseille","lat":43.28845,"lon":5.393156,"is_reserved":false,"is_disabled":false,"rental_uris":{"android":"levelo://app?vid=f65564fd-958f-41e1-a8f6-3065a3a36af0","ios":"levelo://app?vid=f65564fd-958f-41e1-a8f6-3065a3a36af0"},"vehicle_type_id":"4","last_reported":1761243320,"current_range_meters":4800,"station_id":"ce4bh2p2rcd13ifvqdi0","pricing_plan_id":"cebpf4jnsgd1na2vs0mg"},{"bike_id":"5b911553-7dd5-4eae-8768-cc1a11409830","system_id":"levelo_inurba_marseille","lat":43.31507,"lon":5.37306,"is_reserved":false,"is_disabled":false,"rental_uris":{"android":"levelo://app?vid=5b911553-7dd5-4eae-8768-cc1a11409830","ios":"levelo://app?vid=5b911553-7dd5-4eae-8768-cc1a11409830"},"vehicle_type_id":"4","last_reported":1761243320,"current_range_meters":5600,"station_id":"ce4bgt12rcd13ifvqcd0","pricing_plan_id":"cebpf4jnsgd1na2vs0mg"},{"bike_id":"02f7835e-8895-43db-bc46-dc0659a292d5","system_id":"levelo_inurba_marseille","lat":43.29331,"lon":5.3707,"is_reserved":false,"is_disabled":false,"rental_uris":{"android":"levelo://app?vid=02f7835e-8895-43db-bc46-dc0659a292d5","ios":"levelo://app?vid=02f7835e-8895-43db-bc46-dc0659a292d5"},"vehicle_type_id":"4","last_reported":1761243320,"current_range_meters":5600,"station_id":"","pricing_plan_id":"cebpf4jnsgd1na2vs0mg"},{"bike_id":"41028a17-637b-4e28-a4ae-397b4e795d18","system_id":"levelo_inurba_marseille","lat":43.299369,"lon":5.365612,"is_reserved":false,"is_disabled":false,"rental_uris":{"android":"levelo://app?vid=41028a17-637b-4e28-a4ae-397b4e795d18","ios":"levelo://app?vid=41028a17-637b-4e28-a4ae-397b4e795d18"},"vehicle_type_id":"4","last_reported":1761243320,"current_range_meters":5600,"station_id":"ce4bgm92rcd13ifvqbr0","pricing_plan_id":"cebpf4jnsgd1na2vs0mg"},{"bike_id":"69e16dbd-0343-43a0-81cf-a306519ac6e6","system_id":"levelo_inurba_marseille","lat":43.28617,"lon":5.35101,"is_reserved":false,"is_disabled":false,"rental_uris":{"android":"levelo://app?vid=69e16dbd-0343-43a0-81cf-a306519ac6e6","ios":"levelo://app?vid=69e16dbd-0343-43a0-81cf-a306519ac6e6"},"vehicle_type_id":"4","last_reported":1761243320,"current_range_meters":6000,"station_id":"ce4bhch2rcd13ifvqeug","pricing_plan_id":"cebpf4jnsgd1na2vs0mg"},{"bike_id":"dcd1ae67-8668-486d-b92b-a6961af1b4fe","system_id":"levelo_inurba_marseille","lat":43.24963,"lon":5.40509,"is_reserved":false,"is_disabled":false,"rental_uris":{"android":"levelo://app?vid=dcd1ae67-8668-486d-b92b-a6961af1b4fe","ios":"levelo://app?vid=dcd1ae67-8668-486d-b92b-a6961af1b4fe"},"vehicle_type_id":"4","last_reported":1761243320,"current_range_meters":6000,"station_id":"st_d2ngiaodas8pm72gd1h0","pricing_plan_id":"cebpf4jnsgd1na2vs0mg"},{"bike_id":"31496577-bcb5-43d7-91c1-b5ff149c8386","system_id":"levelo_inurba_marseille","lat":43.30637,"lon":5.40097,"is_reserved":false,"is_disabled":false,"rental_uris":{"android":"levelo://app?vid=31496577-bcb5-43d7-91c1-b5ff149c8386","ios":"levelo://app?vid=31496577-bcb5-43d7-91c1-b5ff149c8386"},"vehicle_type_id":"4","last_reported":1761243320,"current_range_meters":6000,"station_id":"ce4bh112rcd13ifvqda0","pricing_plan_id":"cebpf4jnsgd1na2vs0mg"},{"bike_id":"a7e36965-f5b0-4a8e-9f90-c209b23bf01e","system_id":"levelo_inurba_marseille","lat":43.27912,"lon":5.38009,"is_reserved":false,"is_disabled":false,"rental_uris":{"android":"levelo://app?vid=a7e36965-f5b0-4a8e-9f90-c209b23bf01e","ios":"levelo://app?vid=a7e36965-f5b0-4a8e-9f90-c209b23bf01e"},"vehicle_type_id":"4","last_reported":1761243320,"current_range_meters":6000,"station_id":"ce4bhf92rcd13ifvqf50","pricing_plan_id":"cebpf4jnsgd1na2vs0mg"},{"bike_id":"642837ab-a35a-4bc4-a5d9-6410a12f61da","system_id":"levelo_inurba_marseille","lat":43.30419,"lon":5.41281,"is_reserved":false,"is_disabled":false,"rental_uris":{"android":"levelo://app?vid=642837ab-a35a-4bc4-a5d9-6410a12f61da","ios":"levelo://app?vid=642837ab-a35a-4bc4-a5d9-6410a12f61da"},"vehicle_type_id":"4","last_reported":1761243320,"current_range_meters":6400,"station_id":"ce4bhop2rcd13ifvqh8g","pricing_plan_id":"cebpf4jnsgd1na2vs0mg"},{"bike_id":"e6f4e10e-6d72-487a-8252-3250c4b27f98","system_id":"levelo_inurba_marseille","lat":43.21193,"lon":5.35089,"is_reserved":false,"is_disabled":false,"rental_uris":{"android":"levelo://app?vid=e6f4e10e-6d72-487a-8252-3250c4b27f98","ios":"levelo://app?vid=e6f4e10e-6d72-487a-8252-3250c4b27f98"},"vehicle_type_id":"4","last_reported":1761243320,"current_range_meters":6400,"station_id":"st_cvj6sg6p6f1abm77japg","pricing_plan_id":"cebpf4jnsgd1na2vs0mg"},{"bike_id":"9284d93a-9b08-4b67-aa5a-3a9eb3e24f49","system_id":"levelo_inurba_marseille","lat":43.2174,"lon":5.34611,"is_reserved":false,"is_disabled":false,"rental_uris":{"android":"levelo://app?vid=9284d93a-9b08-4b67-aa5a-3a9eb3e24f49","ios":"levelo://app?vid=9284d93a-9b08-4b67-aa5a-3a9eb3e24f49"},"vehicle_type_id":"4","last_reported":1761243320,"current_range_meters":6400,"station_id":"st_cvj6r9ubvosntc0bgbag","pricing_plan_id":"cebpf4jnsgd1na2vs0mg"},{"bike_id":"8046e7df-128f-4240-a840-9126abd839eb","system_id":"levelo_inurba_marseille","lat":43.28155,"lon":5.42646,"is_reserved":false,"is_disabled":false,"rental_uris":{"android":"levelo://app?vid=8046e7df-128f-4240-a840-9126abd839eb","ios":"levelo://app?vid=8046e7df-128f-4240-a840-9126abd839eb"},"vehicle_type_id":"4","last_reported":1761243320,"current_range_meters":6400,"station_id":"ce4bhnh2rcd13ifvqgug","pricing_plan_id":"cebpf4jnsgd1na2vs0mg"},{"bike_id":"19a81ba3-8936-468a-9e73-f2451a2dbdad","system_id":"levelo_inurba_marseille","lat":43.29391,"lon":5.37616,"is_reserved":false,"is_disabled":false,"rental_uris":{"android":"levelo://app?vid=19a81ba3-8936-468a-9e73-f2451a2dbdad","ios":"levelo://app?vid=19a81ba3-8936-468a-9e73-f2451a2dbdad"},"vehicle_type_id":"4","last_reported":1761243320,"current_range_meters":6400,"station_id":"","pricing_plan_id":"cebpf4jnsgd1na2vs0mg"},{"bike_id":"f03661a8-ca41-4986-a591-77d94c26ea18","system_id":"levelo_inurba_marseille","lat":43.29291,"lon":5.37463,"is_reserved":false,"is_disabled":false,"rental_uris":{"android":"levelo://app?vid=f03661a8-ca41-4986-a591-77d94c26ea18","ios":"levelo://app?vid=f03661a8-ca41-4986-a591-77d94c26ea18"},"vehicle_type_id":"4","last_reported":1761243320,"current_range_meters":6400,"station_id":"ce4bgi12rcd13ifvqb70","pricing_plan_id":"cebpf4jnsgd1na2vs0mg"},{"bike_id":"ff3ba630-dc04-489c-b422-8721b9ddc862","system_id":"levelo_inurba_marseille","lat":43.29829,"lon":5.37775,"is_reserved":false,"is_disabled":false,"rental_uris":{"android":"levelo://app?vid=ff3ba630-dc04-489c-b422-8721b9ddc862","ios":"levelo://app?vid=ff3ba630-dc04-489c-b422-8721b9ddc862"},"vehicle_type_id":"4","last_reported":1761243320,"current_range_meters":6800,"station_id":"","pricing_plan_id":"cebpf4jnsgd1na2vs0mg"},{"bike_id":"dec04e8c-63f9-4c48-a3ec-921ab04c26ec","system_id":"levelo_inurba_marseille","lat":43.292684,"lon":5.384328,"is_reserved":false,"is_disabled":false,"rental_uris":{"android":"levelo://app?vid=dec04e8c-63f9-4c48-a3ec-921ab04c26ec","ios":"levelo://app?vid=dec04e8c-63f9-4c48-a3ec-921ab04c26ec"},"vehicle_type_id":"4","last_reported":1761243320,"current_range_meters":6800,"station_id":"ce4bh692rcd13ifvqea0","pricing_plan_id":"cebpf4jnsgd1na2vs0mg"},{"bike_id":"82576c51-8b9b-43eb-aa43-fc4a18c9ea5b","system_id":"levelo_inurba_marseille","lat":43.21753,"lon":5.34606,"is_reserved":false,"is_disabled":false,"rental_uris":{"android":"levelo://app?vid=82576c51-8b9b-43eb-aa43-fc4a18c9ea5b","ios":"levelo://app?vid=82576c51-8b9b-43eb-aa43-fc4a18c9ea5b"},"vehicle_type_id":"4","last_reported":1761243320,"current_range_meters":7200,"station_id":"st_cvj6r9ubvosntc0bgbag","pricing_plan_id":"cebpf4jnsgd1na2vs0mg"},{"bike_id":"16ea86f8-d34c-4222-9d2d-e608ddd6d62e","system_id":"levelo_inurba_marseille","lat":43.337444,"lon":5.374475,"is_reserved":false,"is_disabled":false,"rental_uris":{"android":"levelo://app?vid=16ea86f8-d34c-4222-9d2d-e608ddd6d62e","ios":"levelo://app?vid=16ea86f8-d34c-4222-9d2d-e608ddd6d62e"},"vehicle_type_id":"4","last_reported":1761243320,"current_range_meters":7200,"station_id":"","pricing_plan_id":"cebpf4jnsgd1na2vs0mg"},{"bike_id":"f3efb067-32db-4fd5-a6c7-ed1c6ebbf69d","system_id":"levelo_inurba_marseille","lat":43.21194,"lon":5.35081,"is_reserved":false,"is_disabled":true,"rental_uris":{"android":"levelo://app?vid=f3efb067-32db-4fd5-a6c7-ed1c6ebbf69d","ios":"levelo://app?vid=f3efb067-32db-4fd5-a6c7-ed1c6ebbf69d"},"vehicle_type_id":"4","last_reported":1761243320,"current_range_meters":7200,"station_id":"st_cvj6sg6p6f1abm77japg","pricing_plan_id":"cebpf4jnsgd1na2vs0mg"},{"bike_id":"12a82183-ca74-49b1-bb1e-ba1f3e1df2c8","system_id":"levelo_inurba_marseille","lat":43.313299,"lon":5.396876,"is_reserved":false,"is_disabled":false,"rental_uris":{"android":"levelo://app?vid=12a82183-ca74-49b1-bb1e-ba1f3e1df2c8","ios":"levelo://app?vid=12a82183-ca74-49b1-bb1e-ba1f3e1df2c8"},"vehicle_type_id":"4","last_reported":1761243320,"current_range_meters":7200,"station_id":"ce4bgvp2rcd13ifvqcu0","pricing_plan_id":"cebpf4jnsgd1na2vs0mg"},{"bike_id":"2087d38d-b561-42de-89f9-544970412313","system_id":"levelo_inurba_marseille","lat":43.26569,"lon":5.40326,"is_reserved":false,"is_disabled":false,"rental_uris":{"android":"levelo://app?vid=2087d38d-b561-42de-89f9-544970412313","ios":"levelo://app?vid=2087d38d-b561-42de-89f9-544970412313"},"vehicle_type_id":"4","last_reported":1761243320,"current_range_meters":8000,"station_id":"ce4bhmp2rcd13ifvqgng","pricing_plan_id":"cebpf4jnsgd1na2vs0mg"},{"bike_id":"a9bae4a7-1ba5-4e7d-9d8c-f012f9407be6","system_id":"levelo_inurba_marseille","lat":43.31127,"lon":5.37767,"is_reserved":false,"is_disabled":false,"rental_uris":{"android":"levelo://app?vid=a9bae4a7-1ba5-4e7d-9d8c-f012f9407be6","ios":"levelo://app?vid=a9bae4a7-1ba5-4e7d-9d8c-f012f9407be6"},"vehicle_type_id":"4","last_reported":1761243320,"current_range_meters":8000,"station_id":"ce4bgt92rcd13ifvqcg0","pricing_plan_id":"cebpf4jnsgd1na2vs0mg"},{"bike_id":"5385651e-5d96-4b05-9e5e-8383228be157","system_id":"levelo_inurba_marseille","lat":43.27901,"lon":5.37982,"is_reserved":false,"is_disabled":true,"rental_uris":{"android":"levelo://app?vid=5385651e-5d96-4b05-9e5e-8383228be157","ios":"levelo://app?vid=5385651e-5d96-4b05-9e5e-8383228be157"},"vehicle_type_id":"4","last_reported":1761243320,"current_range_meters":8000,"station_id":"ce4bhf92rcd13ifvqf50","pricing_plan_id":"cebpf4jnsgd1na2vs0mg"},{"bike_id":"37d01fc8-4b4d-4652-a489-1254eb9d4c80","system_id":"levelo_inurba_marseille","lat":43.34076,"lon":5.40411,"is_reserved":false,"is_disabled":false,"rental_uris":{"android":"levelo://app?vid=37d01fc8-4b4d-4652-a489-1254eb9d4c80","ios":"levelo://app?vid=37d01fc8-4b4d-4652-a489-1254eb9d4c80"},"vehicle_type_id":"4","last_reported":1761243320,"current_range_meters":8000,"station_id":"","pricing_plan_id":"cebpf4jnsgd1na2vs0mg"},{"bike_id":"ac496319-cc03-4172-9714-6a29a072b66e","system_id":"levelo_inurba_marseille","lat":43.29258,"lon":5.40899,"is_reserved":false,"is_disabled":false,"rental_uris":{"android":"levelo://app?vid=ac496319-cc03-4172-9714-6a29a072b66e","ios":"levelo://app?vid=ac496319-cc03-4172-9714-6a29a072b66e"},"vehicle_type_id":"4","last_reported":1761243320,"current_range_meters":8000,"station_id":"ce4bh192rcd13ifvqdc0","pricing_plan_id":"cebpf4jnsgd1na2vs0mg"},{"bike_id":"9afd38a8-f4e2-44ac-b7db-54031d58374b","system_id":"levelo_inurba_marseille","lat":43.2952,"lon":5.39034,"is_reserved":false,"is_disabled":false,"rental_uris":{"android":"levelo://app?vid=9afd38a8-f4e2-44ac-b7db-54031d58374b","ios":"levelo://app?vid=9afd38a8-f4e2-44ac-b7db-54031d58374b"},"vehicle_type_id":"4","last_reported":1761243320,"current_range_meters":8400,"station_id":"ce4bh3p2rcd13ifvqdp0","pricing_plan_id":"cebpf4jnsgd1na2vs0mg"},{"bike_id":"78a78cf5-66ed-49a8-a0ad-1dafe56864a0","system_id":"levelo_inurba_marseille","lat":43.265736,"lon":5.390191,"is_reserved":false,"is_disabled":false,"rental_uris":{"android":"levelo://app?vid=78a78cf5-66ed-49a8-a0ad-1dafe56864a0","ios":"levelo://app?vid=78a78cf5-66ed-49a8-a0ad-1dafe56864a0"},"vehicle_type_id":"4","last_reported":1761243320,"current_range_meters":8400,"station_id":"ce4bhe12rcd13ifvqf30","pricing_plan_id":"cebpf4jnsgd1na2vs0mg"},{"bike_id":"a10ff155-ded8-4ae3-9397-9f2952532da7","system_id":"levelo_inurba_marseille","lat":43.29162,"lon":5.37156,"is_reserved":false,"is_disabled":false,"rental_uris":{"android":"levelo://app?vid=a10ff155-ded8-4ae3-9397-9f2952532da7","ios":"levelo://app?vid=a10ff155-ded8-4ae3-9397-9f2952532da7"},"vehicle_type_id":"4","last_reported":1761243320,"current_range_meters":8400,"station_id":"ce4bha92rcd13ifvqeh0","pricing_plan_id":"cebpf4jnsgd1na2vs0mg"},{"bike_id":"aa5c39ca-5467-4d85-a1f8-b790dbb0979e","system_id":"levelo_inurba_marseille","lat":43.30709,"lon":5.37376,"is_reserved":false,"is_disabled":false,"rental_uris":{"android":"levelo://app?vid=aa5c39ca-5467-4d85-a1f8-b790dbb0979e","ios":"levelo://app?vid=aa5c39ca-5467-4d85-a1f8-b790dbb0979e"},"vehicle_type_id":"4","last_reported":1761243320,"current_range_meters":8400,"station_id":"","pricing_plan_id":"cebpf4jnsgd1na2vs0mg"},{"bike_id":"3aa8c3e6-230d-4538-ac39-2b944611f536","system_id":"levelo_inurba_marseille","lat":43.313561,"lon":5.367241,"is_reserved":false,"is_disabled":true,"rental_uris":{"android":"levelo://app?vid=3aa8c3e6-230d-4538-ac39-2b944611f536","ios":"levelo://app?vid=3aa8c3e6-230d-4538-ac39-2b944611f536"},"vehicle_type_id":"4","last_reported":1761243320,"current_range_meters":8400,"station_id":"ce4bgr92rcd13ifvqc6g","pricing_plan_id":"cebpf4jnsgd1na2vs0mg"},{"bike_id":"82b59218-98f4-4420-9802-de2e5f8f13e1","system_id":"levelo_inurba_marseille","lat":43.30934,"lon":5.40144,"is_reserved":false,"is_disabled":false,"rental_uris":{"android":"levelo://app?vid=82b59218-98f4-4420-9802-de2e5f8f13e1","ios":"levelo://app?vid=82b59218-98f4-4420-9802-de2e5f8f13e1"},"vehicle_type_id":"4","last_reported":1761243320,"current_range_meters":8400,"station_id":"ce4bgvp2rcd13ifvqct0","pricing_plan_id":"cebpf4jnsgd1na2vs0mg"},{"bike_id":"d1300e07-b46c-4ecf-ab18-626d188903ea","system_id":"levelo_inurba_marseille","lat":43.29965,"lon":5.38502,"is_reserved":false,"is_disabled":false,"rental_uris":{"android":"levelo://app?vid=d1300e07-b46c-4ecf-ab18-626d188903ea","ios":"levelo://app?vid=d1300e07-b46c-4ecf-ab18-626d188903ea"},"vehicle_type_id":"4","last_reported":1761243320,"current_range_meters":8800,"station_id":"ce4bgj92rcd13ifvqbd0","pricing_plan_id":"cebpf4jnsgd1na2vs0mg"},{"bike_id":"8e73de8d-34fa-46a7-969c-3502d7edecc6","system_id":"levelo_inurba_marseille","lat":43.28666,"lon":5.38677,"is_reserved":false,"is_disabled":false,"rental_uris":{"android":"levelo://app?vid=8e73de8d-34fa-46a7-969c-3502d7edecc6","ios":"levelo://app?vid=8e73de8d-34fa-46a7-969c-3502d7edecc6"},"vehicle_type_id":"4","last_reported":1761243320,"current_range_meters":8800,"station_id":"ce4bh492rcd13ifvqdug","pricing_plan_id":"cebpf4jnsgd1na2vs0mg"},{"bike_id":"6a662624-d03e-45d5-964b-74ea5f67d032","system_id":"levelo_inurba_marseille","lat":43.31124,"lon":5.3777,"is_reserved":false,"is_disabled":true,"rental_uris":{"android":"levelo://app?vid=6a662624-d03e-45d5-964b-74ea5f67d032","ios":"levelo://app?vid=6a662624-d03e-45d5-964b-74ea5f67d032"},"vehicle_type_id":"4","last_reported":1761243320,"current_range_meters":8800,"station_id":"ce4bgt92rcd13ifvqcg0","pricing_plan_id":"cebpf4jnsgd1na2vs0mg"},{"bike_id":"10593c12-15be-46d4-b7dc-da6383e82795","system_id":"levelo_inurba_marseille","lat":43.293968,"lon":5.374104,"is_reserved":false,"is_disabled":false,"rental_uris":{"android":"levelo://app?vid=10593c12-15be-46d4-b7dc-da6383e82795","ios":"levelo://app?vid=10593c12-15be-46d4-b7dc-da6383e82795"},"vehicle_type_id":"4","last_reported":1761243320,"current_range_meters":8800,"station_id":"ce4bgi12rcd13ifvqb70","pricing_plan_id":"cebpf4jnsgd1na2vs0mg"},{"bike_id":"503b92bf-ef6b-4bf9-8c0d-919af745fb1a","system_id":"levelo_inurba_marseille","lat":43.2927,"lon":5.36837,"is_reserved":false,"is_disabled":false,"rental_uris":{"android":"levelo://app?vid=503b92bf-ef6b-4bf9-8c0d-919af745fb1a","ios":"levelo://app?vid=503b92bf-ef6b-4bf9-8c0d-919af745fb1a"},"vehicle_type_id":"4","last_reported":1761243320,"current_range_meters":8800,"station_id":"ce4bhbp2rcd13ifvqesg","pricing_plan_id":"cebpf4jnsgd1na2vs0mg"},{"bike_id":"57e53a77-b1a2-4022-890c-27c339c12258","system_id":"levelo_inurba_marseille","lat":43.3025,"lon":5.400798,"is_reserved":false,"is_disabled":false,"rental_uris":{"android":"levelo://app?vid=57e53a77-b1a2-4022-890c-27c339c12258","ios":"levelo://app?vid=57e53a77-b1a2-4022-890c-27c339c12258"},"vehicle_type_id":"4","last_reported":1761243320,"current_range_meters":8800,"station_id":"ce4bgvh2rcd13ifvqcs0","pricing_plan_id":"cebpf4jnsgd1na2vs0mg"},{"bike_id":"899807f8-ebc7-4fa9-8666-5a8e41a5cd3b","system_id":"levelo_inurba_marseille","lat":43.31221,"lon":5.36848,"is_reserved":false,"is_disabled":false,"rental_uris":{"android":"levelo://app?vid=899807f8-ebc7-4fa9-8666-5a8e41a5cd3b","ios":"levelo://app?vid=899807f8-ebc7-4fa9-8666-5a8e41a5cd3b"},"vehicle_type_id":"4","last_reported":1761243320,"current_range_meters":9200,"station_id":"ce4bgl92rcd13ifvqbq0","pricing_plan_id":"cebpf4jnsgd1na2vs0mg"},{"bike_id":"a59d1231-e47a-4dfa-9065-4acedf359f8f","system_id":"levelo_inurba_marseille","lat":43.2176,"lon":5.34614,"is_reserved":false,"is_disabled":false,"rental_uris":{"android":"levelo://app?vid=a59d1231-e47a-4dfa-9065-4acedf359f8f","ios":"levelo://app?vid=a59d1231-e47a-4dfa-9065-4acedf359f8f"},"vehicle_type_id":"4","last_reported":1761243320,"current_range_meters":9200,"station_id":"st_cvj6r9ubvosntc0bgbag","pricing_plan_id":"cebpf4jnsgd1na2vs0mg"},{"bike_id":"07e992db-48e1-481b-a50e-3b491cfc1455","system_id":"levelo_inurba_marseille","lat":43.31991,"lon":5.41291,"is_reserved":false,"is_disabled":false,"rental_uris":{"android":"levelo://app?vid=07e992db-48e1-481b-a50e-3b491cfc1455","ios":"levelo://app?vid=07e992db-48e1-481b-a50e-3b491cfc1455"},"vehicle_type_id":"4","last_reported":1761243320,"current_range_meters":9200,"station_id":"","pricing_plan_id":"cebpf4jnsgd1na2vs0mg"},{"bike_id":"4eae2ec4-8862-466e-a3d9-395cca4276d0","system_id":"levelo_inurba_marseille","lat":43.30373,"lon":5.376,"is_reserved":false,"is_disabled":false,"rental_uris":{"android":"levelo://app?vid=4eae2ec4-8862-466e-a3d9-395cca4276d0","ios":"levelo://app?vid=4eae2ec4-8862-466e-a3d9-395cca4276d0"},"vehicle_type_id":"4","last_reported":1761243320,"current_range_meters":9200,"station_id":"","pricing_plan_id":"cebpf4jnsgd1na2vs0mg"},{"bike_id":"052c612d-235c-4f2d-965c-1cc9a36a977f","system_id":"levelo_inurba_marseille","lat":43.30309,"lon":5.39192,"is_reserved":false,"is_disabled":false,"rental_uris":{"android":"levelo://app?vid=052c612d-235c-4f2d-965c-1cc9a36a977f","ios":"levelo://app?vid=052c612d-235c-4f2d-965c-1cc9a36a977f"},"vehicle_type_id":"4","last_reported":1761243320,"current_range_meters":9200,"station_id":"ce4bgkh2rcd13ifvqbk0","pricing_plan_id":"cebpf4jnsgd1na2vs0mg"},{"bike_id":"f73a5199-6146-4ac3-9323-07c6be37def5","system_id":"levelo_inurba_marseille","lat":43.25589,"lon":5.38245,"is_reserved":false,"is_disabled":false,"rental_uris":{"android":"levelo://app?vid=f73a5199-6146-4ac3-9323-07c6be37def5","ios":"levelo://app?vid=f73a5199-6146-4ac3-9323-07c6be37def5"},"vehicle_type_id":"4","last_reported":1761243320,"current_range_meters":9200,"station_id":"ce4bhih2rcd13ifvqfs0","pricing_plan_id":"cebpf4jnsgd1na2vs0mg"},{"bike_id":"7dc3a787-7b14-4505-8e32-0b28349ba8b9","system_id":"levelo_inurba_marseille","lat":43.287063,"lon":5.362525,"is_reserved":false,"is_disabled":false,"rental_uris":{"android":"levelo://app?vid=7dc3a787-7b14-4505-8e32-0b28349ba8b9","ios":"levelo://app?vid=7dc3a787-7b14-4505-8e32-0b28349ba8b9"},"vehicle_type_id":"4","last_reported":1761243320,"current_range_meters":9600,"station_id":"","pricing_plan_id":"cebpf4jnsgd1na2vs0mg"},{"bike_id":"bc96bc0f-1688-46ad-b3d2-e426735e6786","system_id":"levelo_inurba_marseille","lat":43.29032,"lon":5.35927,"is_reserved":false,"is_disabled":false,"rental_uris":{"android":"levelo://app?vid=bc96bc0f-1688-46ad-b3d2-e426735e6786","ios":"levelo://app?vid=bc96bc0f-1688-46ad-b3d2-e426735e6786"},"vehicle_type_id":"4","last_reported":1761243320,"current_range_meters":9600,"station_id":"ce4bha92rcd13ifvqeg0","pricing_plan_id":"cebpf4jnsgd1na2vs0mg"},{"bike_id":"93202722-781f-4c09-b66c-35e716a6846d","system_id":"levelo_inurba_marseille","lat":43.29519,"lon":5.38542,"is_reserved":false,"is_disabled":false,"rental_uris":{"android":"levelo://app?vid=93202722-781f-4c09-b66c-35e716a6846d","ios":"levelo://app?vid=93202722-781f-4c09-b66c-35e716a6846d"},"vehicle_type_id":"4","last_reported":1761243320,"current_range_meters":9600,"station_id":"ce4bgih2rcd13ifvqba0","pricing_plan_id":"cebpf4jnsgd1na2vs0mg"},{"bike_id":"c8c0fa58-a519-4343-9887-b0c694f93aef","system_id":"levelo_inurba_marseille","lat":43.28858,"lon":5.42516,"is_reserved":false,"is_disabled":false,"rental_uris":{"android":"levelo://app?vid=c8c0fa58-a519-4343-9887-b0c694f93aef","ios":"levelo://app?vid=c8c0fa58-a519-4343-9887-b0c694f93aef"},"vehicle_type_id":"4","last_reported":1761243320,"current_range_meters":10000,"station_id":"st_d3b462108ojc7389ooeg","pricing_plan_id":"cebpf4jnsgd1na2vs0mg"},{"bike_id":"d9f65a73-45e8-4726-92f3-2274a86e9a4f","system_id":"levelo_inurba_marseille","lat":43.311107,"lon":5.377624,"is_reserved":false,"is_disabled":false,"rental_uris":{"android":"levelo://app?vid=d9f65a73-45e8-4726-92f3-2274a86e9a4f","ios":"levelo://app?vid=d9f65a73-45e8-4726-92f3-2274a86e9a4f"},"vehicle_type_id":"4","last_reported":1761243320,"current_range_meters":10000,"station_id":"","pricing_plan_id":"cebpf4jnsgd1na2vs0mg"},{"bike_id":"9010e48c-2a4f-4bbe-b668-98b3e63cc191","system_id":"levelo_inurba_marseille","lat":43.31723,"lon":5.42398,"is_reserved":false,"is_disabled":false,"rental_uris":{"android":"levelo://app?vid=9010e48c-2a4f-4bbe-b668-98b3e63cc191","ios":"levelo://app?vid=9010e48c-2a4f-4bbe-b668-98b3e63cc191"},"vehicle_type_id":"4","last_reported":1761243320,"current_range_meters":10000,"station_id":"ce4bhp92rcd13ifvqhbg","pricing_plan_id":"cebpf4jnsgd1na2vs0mg"},{"bike_id":"aa2bdc3f-bf6e-4740-8b20-e2dc3d16f0c6","system_id":"levelo_inurba_marseille","lat":43.29257,"lon":5.38436,"is_reserved":false,"is_disabled":false,"rental_uris":{"android":"levelo://app?vid=aa2bdc3f-bf6e-4740-8b20-e2dc3d16f0c6","ios":"levelo://app?vid=aa2bdc3f-bf6e-4740-8b20-e2dc3d16f0c6"},"vehicle_type_id":"4","last_reported":1761243320,"current_range_meters":10000,"station_id":"ce4bh692rcd13ifvqea0","pricing_plan_id":"cebpf4jnsgd1na2vs0mg"},{"bike_id":"16f28cc5-3752-4691-9544-42597521a938","system_id":"levelo_inurba_marseille","lat":43.29626,"lon":5.40597,"is_reserved":false,"is_disabled":false,"rental_uris":{"android":"levelo://app?vid=16f28cc5-3752-4691-9544-42597521a938","ios":"levelo://app?vid=16f28cc5-3752-4691-9544-42597521a938"},"vehicle_type_id":"4","last_reported":1761243320,"current_range_meters":10800,"station_id":"ce4bh0h2rcd13ifvqd60","pricing_plan_id":"cebpf4jnsgd1na2vs0mg"},{"bike_id":"9f8800f6-d3ff-463a-ab7d-68349dbfe077","system_id":"levelo_inurba_marseille","lat":43.295364,"lon":5.385388,"is_reserved":false,"is_disabled":false,"rental_uris":{"android":"levelo://app?vid=9f8800f6-d3ff-463a-ab7d-68349dbfe077","ios":"levelo://app?vid=9f8800f6-d3ff-463a-ab7d-68349dbfe077"},"vehicle_type_id":"4","last_reported":1761243320,"current_range_meters":10800,"station_id":"ce4bgih2rcd13ifvqba0","pricing_plan_id":"cebpf4jnsgd1na2vs0mg"},{"bike_id":"d9ab91e6-b683-401b-9566-f375d8690806","system_id":"levelo_inurba_marseille","lat":43.27068,"lon":5.42272,"is_reserved":false,"is_disabled":false,"rental_uris":{"android":"levelo://app?vid=d9ab91e6-b683-401b-9566-f375d8690806","ios":"levelo://app?vid=d9ab91e6-b683-401b-9566-f375d8690806"},"vehicle_type_id":"4","last_reported":1761243320,"current_range_meters":10800,"station_id":"ce4bhk92rcd13ifvqgb0","pricing_plan_id":"cebpf4jnsgd1na2vs0mg"},{"bike_id":"3885c956-d054-4c93-b3fd-518de5d5beca","system_id":"levelo_inurba_marseille","lat":43.31272,"lon":5.40172,"is_reserved":false,"is_disabled":false,"rental_uris":{"android":"levelo://app?vid=3885c956-d054-4c93-b3fd-518de5d5beca","ios":"levelo://app?vid=3885c956-d054-4c93-b3fd-518de5d5beca"},"vehicle_type_id":"4","last_reported":1761243320,"current_range_meters":10800,"station_id":"ce4bh092rcd13ifvqd30","pricing_plan_id":"cebpf4jnsgd1na2vs0mg"},{"bike_id":"67f4ecd1-b82f-4449-ba04-087ea430c25b","system_id":"levelo_inurba_marseille","lat":43.29533,"lon":5.38538,"is_reserved":false,"is_disabled":false,"rental_uris":{"android":"levelo://app?vid=67f4ecd1-b82f-4449-ba04-087ea430c25b","ios":"levelo://app?vid=67f4ecd1-b82f-4449-ba04-087ea430c25b"},"vehicle_type_id":"4","last_reported":1761243320,"current_range_meters":10800,"station_id":"ce4bgih2rcd13ifvqba0","pricing_plan_id":"cebpf4jnsgd1na2vs0mg"},{"bike_id":"50187627-89e9-492a-b3a9-1aa681dbc2b0","system_id":"levelo_inurba_marseille","lat":43.3173,"lon":5.42391,"is_reserved":false,"is_disabled":false,"rental_uris":{"android":"levelo://app?vid=50187627-89e9-492a-b3a9-1aa681dbc2b0","ios":"levelo://app?vid=50187627-89e9-492a-b3a9-1aa681dbc2b0"},"vehicle_type_id":"4","last_reported":1761243320,"current_range_meters":10800,"station_id":"ce4bhp92rcd13ifvqhbg","pricing_plan_id":"cebpf4jnsgd1na2vs0mg"},{"bike_id":"39fd1ca3-4644-428d-810f-ba047ddd97b5","system_id":"levelo_inurba_marseille","lat":43.32363,"lon":5.38885,"is_reserved":false,"is_disabled":false,"rental_uris":{"android":"levelo://app?vid=39fd1ca3-4644-428d-810f-ba047ddd97b5","ios":"levelo://app?vid=39fd1ca3-4644-428d-810f-ba047ddd97b5"},"vehicle_type_id":"4","last_reported":1761243320,"current_range_meters":10800,"station_id":"ce4bhqp2rcd13ifvqhog","pricing_plan_id":"cebpf4jnsgd1na2vs0mg"},{"bike_id":"3a2780e7-ba86-431e-ad56-1fc104a7e4fa","system_id":"levelo_inurba_marseille","lat":43.23788,"lon":5.36635,"is_reserved":false,"is_disabled":false,"rental_uris":{"android":"levelo://app?vid=3a2780e7-ba86-431e-ad56-1fc104a7e4fa","ios":"levelo://app?vid=3a2780e7-ba86-431e-ad56-1fc104a7e4fa"},"vehicle_type_id":"4","last_reported":1761243320,"current_range_meters":10800,"station_id":"st_d3nk18o9ro0c73en2l3g","pricing_plan_id":"cebpf4jnsgd1na2vs0mg"},{"bike_id":"5a707c7b-52ae-476c-9d3e-a58c0c4ebbef","system_id":"levelo_inurba_marseille","lat":43.29784,"lon":5.37103,"is_reserved":false,"is_disabled":false,"rental_uris":{"android":"levelo://app?vid=5a707c7b-52ae-476c-9d3e-a58c0c4ebbef","ios":"levelo://app?vid=5a707c7b-52ae-476c-9d3e-a58c0c4ebbef"},"vehicle_type_id":"4","last_reported":1761243320,"current_range_meters":10800,"station_id":"ce4bgop2rcd13ifvqc1g","pricing_plan_id":"cebpf4jnsgd1na2vs0mg"},{"bike_id":"be13e0d5-9627-4f7f-ac06-9d98ac889521","system_id":"levelo_inurba_marseille","lat":43.27434,"lon":5.39418,"is_reserved":false,"is_disabled":false,"rental_uris":{"android":"levelo://app?vid=be13e0d5-9627-4f7f-ac06-9d98ac889521","ios":"levelo://app?vid=be13e0d5-9627-4f7f-ac06-9d98ac889521"},"vehicle_type_id":"4","last_reported":1761243320,"current_range_meters":10800,"station_id":"ce4bhdp2rcd13ifvqf20","pricing_plan_id":"cebpf4jnsgd1na2vs0mg"},{"bike_id":"91f27918-b6db-40f3-8454-1cc1a2b4cbfd","system_id":"levelo_inurba_marseille","lat":43.28564,"lon":5.39497,"is_reserved":false,"is_disabled":false,"rental_uris":{"android":"levelo://app?vid=91f27918-b6db-40f3-8454-1cc1a2b4cbfd","ios":"levelo://app?vid=91f27918-b6db-40f3-8454-1cc1a2b4cbfd"},"vehicle_type_id":"4","last_reported":1761243320,"current_range_meters":10800,"station_id":"ce4bh292rcd13ifvqdg0","pricing_plan_id":"cebpf4jnsgd1na2vs0mg"},{"bike_id":"878cc5df-fa1e-40a7-9030-8d49b3456fa2","system_id":"levelo_inurba_marseille","lat":43.29596,"lon":5.38105,"is_reserved":false,"is_disabled":false,"rental_uris":{"android":"levelo://app?vid=878cc5df-fa1e-40a7-9030-8d49b3456fa2","ios":"levelo://app?vid=878cc5df-fa1e-40a7-9030-8d49b3456fa2"},"vehicle_type_id":"4","last_reported":1761243320,"current_range_meters":10800,"station_id":"ce4bgl12rcd13ifvqbo0","pricing_plan_id":"cebpf4jnsgd1na2vs0mg"},{"bike_id":"be44af34-6a98-4013-a64d-65ee216732c7","system_id":"levelo_inurba_marseille","lat":43.27074,"lon":5.42281,"is_reserved":false,"is_disabled":false,"rental_uris":{"android":"levelo://app?vid=be44af34-6a98-4013-a64d-65ee216732c7","ios":"levelo://app?vid=be44af34-6a98-4013-a64d-65ee216732c7"},"vehicle_type_id":"4","last_reported":1761243320,"current_range_meters":10800,"station_id":"ce4bhk92rcd13ifvqgb0","pricing_plan_id":"cebpf4jnsgd1na2vs0mg"},{"bike_id":"e16bfc83-e32e-414c-9fdd-3abe8c36c04f","system_id":"levelo_inurba_marseille","lat":43.28405,"lon":5.37521,"is_reserved":false,"is_disabled":true,"rental_uris":{"android":"levelo://app?vid=e16bfc83-e32e-414c-9fdd-3abe8c36c04f","ios":"levelo://app?vid=e16bfc83-e32e-414c-9fdd-3abe8c36c04f"},"vehicle_type_id":"4","last_reported":1761243320,"current_range_meters":11200,"station_id":"ce4bh412rcd13ifvqds0","pricing_plan_id":"cebpf4jnsgd1na2vs0mg"},{"bike_id":"0c615957-8295-478d-b678-ea7d531de5e1","system_id":"levelo_inurba_marseille","lat":43.28488,"lon":5.38418,"is_reserved":false,"is_disabled":false,"rental_uris":{"android":"levelo://app?vid=0c615957-8295-478d-b678-ea7d531de5e1","ios":"levelo://app?vid=0c615957-8295-478d-b678-ea7d531de5e1"},"vehicle_type_id":"4","last_reported":1761243320,"current_range_meters":11200,"station_id":"ce4bh512rcd13ifvqe3g","pricing_plan_id":"cebpf4jnsgd1na2vs0mg"},{"bike_id":"32e7919e-26d8-4f7d-b229-086147816fa4","system_id":"levelo_inurba_marseille","lat":43.301286,"lon":5.38775,"is_reserved":false,"is_disabled":false,"rental_uris":{"android":"levelo://app?vid=32e7919e-26d8-4f7d-b229-086147816fa4","ios":"levelo://app?vid=32e7919e-26d8-4f7d-b229-086147816fa4"},"vehicle_type_id":"4","last_reported":1761243320,"current_range_meters":11200,"station_id":"","pricing_plan_id":"cebpf4jnsgd1na2vs0mg"},{"bike_id":"3e242645-29eb-4bb8-b34c-922c9b552c32","system_id":"levelo_inurba_marseille","lat":43.29276,"lon":5.36843,"is_reserved":false,"is_disabled":false,"rental_uris":{"android":"levelo://app?vid=3e242645-29eb-4bb8-b34c-922c9b552c32","ios":"levelo://app?vid=3e242645-29eb-4bb8-b34c-922c9b552c32"},"vehicle_type_id":"4","last_reported":1761243320,"current_range_meters":11200,"station_id":"ce4bhbp2rcd13ifvqesg","pricing_plan_id":"cebpf4jnsgd1na2vs0mg"},{"bike_id":"c6335a79-6403-4771-a069-0086eed7e7bb","system_id":"levelo_inurba_marseille","lat":43.23182,"lon":5.39992,"is_reserved":false,"is_disabled":false,"rental_uris":{"android":"levelo://app?vid=c6335a79-6403-4771-a069-0086eed7e7bb","ios":"levelo://app?vid=c6335a79-6403-4771-a069-0086eed7e7bb"},"vehicle_type_id":"4","last_reported":1761243320,"current_range_meters":11200,"station_id":"ce4bhn12rcd13ifvqgqg","pricing_plan_id":"cebpf4jnsgd1na2vs0mg"},{"bike_id":"57fa0439-8ff3-44e4-95b9-073f527cea5b","system_id":"levelo_inurba_marseille","lat":43.27621,"lon":5.36114,"is_reserved":false,"is_disabled":false,"rental_uris":{"android":"levelo://app?vid=57fa0439-8ff3-44e4-95b9-073f527cea5b","ios":"levelo://app?vid=57fa0439-8ff3-44e4-95b9-073f527cea5b"},"vehicle_type_id":"4","last_reported":1761243320,"current_range_meters":11600,"station_id":"ce4bgj92rcd13ifvqbe0","pricing_plan_id":"cebpf4jnsgd1na2vs0mg"},{"bike_id":"7b67c25b-eecd-4dd6-b150-304e653009fa","system_id":"levelo_inurba_marseille","lat":43.288506,"lon":5.393113,"is_reserved":false,"is_disabled":false,"rental_uris":{"android":"levelo://app?vid=7b67c25b-eecd-4dd6-b150-304e653009fa","ios":"levelo://app?vid=7b67c25b-eecd-4dd6-b150-304e653009fa"},"vehicle_type_id":"4","last_reported":1761243320,"current_range_meters":11600,"station_id":"ce4bh2p2rcd13ifvqdi0","pricing_plan_id":"cebpf4jnsgd1na2vs0mg"},{"bike_id":"1aaa028d-93d8-4a20-8355-7a4b17d8620a","system_id":"levelo_inurba_marseille","lat":43.27644,"lon":5.39217,"is_reserved":false,"is_disabled":false,"rental_uris":{"android":"levelo://app?vid=1aaa028d-93d8-4a20-8355-7a4b17d8620a","ios":"levelo://app?vid=1aaa028d-93d8-4a20-8355-7a4b17d8620a"},"vehicle_type_id":"4","last_reported":1761243320,"current_range_meters":11600,"station_id":"","pricing_plan_id":"cebpf4jnsgd1na2vs0mg"},{"bike_id":"5403bbb7-b780-4116-8b9d-0a9bd553ad20","system_id":"levelo_inurba_marseille","lat":43.24181,"lon":5.39738,"is_reserved":false,"is_disabled":false,"rental_uris":{"android":"levelo://app?vid=5403bbb7-b780-4116-8b9d-0a9bd553ad20","ios":"levelo://app?vid=5403bbb7-b780-4116-8b9d-0a9bd553ad20"},"vehicle_type_id":"4","last_reported":1761243320,"current_range_meters":12000,"station_id":"ce4bhn12rcd13ifvqgpg","pricing_plan_id":"cebpf4jnsgd1na2vs0mg"},{"bike_id":"0198280f-05b0-401c-b9f2-7586dff77353","system_id":"levelo_inurba_marseille","lat":43.28892,"lon":5.37816,"is_reserved":false,"is_disabled":false,"rental_uris":{"android":"levelo://app?vid=0198280f-05b0-401c-b9f2-7586dff77353","ios":"levelo://app?vid=0198280f-05b0-401c-b9f2-7586dff77353"},"vehicle_type_id":"4","last_reported":1761243320,"current_range_meters":12000,"station_id":"","pricing_plan_id":"cebpf4jnsgd1na2vs0mg"},{"bike_id":"ad301688-b14f-4af3-95f1-dcce66296b92","system_id":"levelo_inurba_marseille","lat":43.24077,"lon":5.37764,"is_reserved":false,"is_disabled":false,"rental_uris":{"android":"levelo://app?vid=ad301688-b14f-4af3-95f1-dcce66296b92","ios":"levelo://app?vid=ad301688-b14f-4af3-95f1-dcce66296b92"},"vehicle_type_id":"4","last_reported":1761243320,"current_range_meters":12000,"station_id":"ce4bhnp2rcd13ifvqgvg","pricing_plan_id":"cebpf4jnsgd1na2vs0mg"},{"bike_id":"bd536fcd-a060-422a-9f95-8ea8ec7bc66e","system_id":"levelo_inurba_marseille","lat":43.34142,"lon":5.40907,"is_reserved":false,"is_disabled":false,"rental_uris":{"android":"levelo://app?vid=bd536fcd-a060-422a-9f95-8ea8ec7bc66e","ios":"levelo://app?vid=bd536fcd-a060-422a-9f95-8ea8ec7bc66e"},"vehicle_type_id":"4","last_reported":1761243320,"current_range_meters":12000,"station_id":"ce4bhqh2rcd13ifvqhlg","pricing_plan_id":"cebpf4jnsgd1na2vs0mg"},{"bike_id":"8336a8de-9e8c-463f-861a-3494fd7e5e06","system_id":"levelo_inurba_marseille","lat":43.2318,"lon":5.39991,"is_reserved":false,"is_disabled":false,"rental_uris":{"android":"levelo://app?vid=8336a8de-9e8c-463f-861a-3494fd7e5e06","ios":"levelo://app?vid=8336a8de-9e8c-463f-861a-3494fd7e5e06"},"vehicle_type_id":"4","last_reported":1761243320,"current_range_meters":12400,"station_id":"ce4bhn12rcd13ifvqgqg","pricing_plan_id":"cebpf4jnsgd1na2vs0mg"},{"bike_id":"59a90fc2-6b65-44f9-97da-18a57f6bd3e0","system_id":"levelo_inurba_marseille","lat":43.25868,"lon":5.39915,"is_reserved":false,"is_disabled":false,"rental_uris":{"android":"levelo://app?vid=59a90fc2-6b65-44f9-97da-18a57f6bd3e0","ios":"levelo://app?vid=59a90fc2-6b65-44f9-97da-18a57f6bd3e0"},"vehicle_type_id":"4","last_reported":1761243320,"current_range_meters":12400,"station_id":"ce4bhl92rcd13ifvqghg","pricing_plan_id":"cebpf4jnsgd1na2vs0mg"},{"bike_id":"bda3ed1a-3199-4eb8-8229-577855d09dbb","system_id":"levelo_inurba_marseille","lat":43.3163,"lon":5.37876,"is_reserved":false,"is_disabled":false,"rental_uris":{"android":"levelo://app?vid=bda3ed1a-3199-4eb8-8229-577855d09dbb","ios":"levelo://app?vid=bda3ed1a-3199-4eb8-8229-577855d09dbb"},"vehicle_type_id":"4","last_reported":1761243320,"current_range_meters":12400,"station_id":"","pricing_plan_id":"cebpf4jnsgd1na2vs0mg"},{"bike_id":"f30d474c-592d-470d-816b-bf7526dcf767","system_id":"levelo_inurba_marseille","lat":43.30817,"lon":5.3811,"is_reserved":false,"is_disabled":false,"rental_uris":{"android":"levelo://app?vid=f30d474c-592d-470d-816b-bf7526dcf767","ios":"levelo://app?vid=f30d474c-592d-470d-816b-bf7526dcf767"},"vehicle_type_id":"4","last_reported":1761243320,"current_range_meters":12400,"station_id":"ce4bgt12rcd13ifvqce0","pricing_plan_id":"cebpf4jnsgd1na2vs0mg"},{"bike_id":"13ffca06-ecc4-46ee-aa82-6818647126c8","system_id":"levelo_inurba_marseille","lat":43.29931,"lon":5.43704,"is_reserved":false,"is_disabled":false,"rental_uris":{"android":"levelo://app?vid=13ffca06-ecc4-46ee-aa82-6818647126c8","ios":"levelo://app?vid=13ffca06-ecc4-46ee-aa82-6818647126c8"},"vehicle_type_id":"4","last_reported":1761243320,"current_range_meters":12400,"station_id":"","pricing_plan_id":"cebpf4jnsgd1na2vs0mg"},{"bike_id":"ef1fd798-a027-4a26-b607-d84b3801b9db","system_id":"levelo_inurba_marseille","lat":43.25586,"lon":5.38246,"is_reserved":false,"is_disabled":false,"rental_uris":{"android":"levelo://app?vid=ef1fd798-a027-4a26-b607-d84b3801b9db","ios":"levelo://app?vid=ef1fd798-a027-4a26-b607-d84b3801b9db"},"vehicle_type_id":"4","last_reported":1761243320,"current_range_meters":12400,"station_id":"ce4bhih2rcd13ifvqfs0","pricing_plan_id":"cebpf4jnsgd1na2vs0mg"},{"bike_id":"c4f3ce1c-eede-4af4-aa83-8c3f04e546bc","system_id":"levelo_inurba_marseille","lat":43.29253,"lon":5.38437,"is_reserved":false,"is_disabled":false,"rental_uris":{"android":"levelo://app?vid=c4f3ce1c-eede-4af4-aa83-8c3f04e546bc","ios":"levelo://app?vid=c4f3ce1c-eede-4af4-aa83-8c3f04e546bc"},"vehicle_type_id":"4","last_reported":1761243320,"current_range_meters":12400,"station_id":"ce4bh692rcd13ifvqea0","pricing_plan_id":"cebpf4jnsgd1na2vs0mg"},{"bike_id":"7b8c2ddb-ea2b-493a-8565-3d53af536103","system_id":"levelo_inurba_marseille","lat":43.29516,"lon":5.39037,"is_reserved":false,"is_disabled":false,"rental_uris":{"android":"levelo://app?vid=7b8c2ddb-ea2b-493a-8565-3d53af536103","ios":"levelo://app?vid=7b8c2ddb-ea2b-493a-8565-3d53af536103"},"vehicle_type_id":"4","last_reported":1761243320,"current_range_meters":12800,"station_id":"ce4bh3p2rcd13ifvqdp0","pricing_plan_id":"cebpf4jnsgd1na2vs0mg"},{"bike_id":"264a8f81-e1a6-4142-a07c-b76a25ef5768","system_id":"levelo_inurba_marseille","lat":43.29811,"lon":5.38104,"is_reserved":false,"is_disabled":false,"rental_uris":{"android":"levelo://app?vid=264a8f81-e1a6-4142-a07c-b76a25ef5768","ios":"levelo://app?vid=264a8f81-e1a6-4142-a07c-b76a25ef5768"},"vehicle_type_id":"4","last_reported":1761243320,"current_range_meters":12800,"station_id":"ce4bgip2rcd13ifvqbb0","pricing_plan_id":"cebpf4jnsgd1na2vs0mg"},{"bike_id":"e9c5e34c-b311-4f99-92fe-3edb0314d1f1","system_id":"levelo_inurba_marseille","lat":43.29192,"lon":5.3582,"is_reserved":false,"is_disabled":false,"rental_uris":{"android":"levelo://app?vid=e9c5e34c-b311-4f99-92fe-3edb0314d1f1","ios":"levelo://app?vid=e9c5e34c-b311-4f99-92fe-3edb0314d1f1"},"vehicle_type_id":"4","last_reported":1761243320,"current_range_meters":12800,"station_id":"ce4bhb12rcd13ifvqel0","pricing_plan_id":"cebpf4jnsgd1na2vs0mg"},{"bike_id":"0a735343-9830-4018-a7b8-9b9977228a29","system_id":"levelo_inurba_marseille","lat":43.292928,"lon":5.371793,"is_reserved":false,"is_disabled":false,"rental_uris":{"android":"levelo://app?vid=0a735343-9830-4018-a7b8-9b9977228a29","ios":"levelo://app?vid=0a735343-9830-4018-a7b8-9b9977228a29"},"vehicle_type_id":"4","last_reported":1761243320,"current_range_meters":12800,"station_id":"ce4bgh92rcd13ifvqb40","pricing_plan_id":"cebpf4jnsgd1na2vs0mg"},{"bike_id":"91c55894-f90b-4c6a-9935-1ccd1665a401","system_id":"levelo_inurba_marseille","lat":43.29591,"lon":5.37718,"is_reserved":false,"is_disabled":true,"rental_uris":{"android":"levelo://app?vid=91c55894-f90b-4c6a-9935-1ccd1665a401","ios":"levelo://app?vid=91c55894-f90b-4c6a-9935-1ccd1665a401"},"vehicle_type_id":"4","last_reported":1761243320,"current_range_meters":12800,"station_id":"ce4bgi92rcd13ifvqb90","pricing_plan_id":"cebpf4jnsgd1na2vs0mg"},{"bike_id":"614693d7-2386-45e0-a1d2-8fd657e03d3f","system_id":"levelo_inurba_marseille","lat":43.31096,"lon":5.37776,"is_reserved":false,"is_disabled":false,"rental_uris":{"android":"levelo://app?vid=614693d7-2386-45e0-a1d2-8fd657e03d3f","ios":"levelo://app?vid=614693d7-2386-45e0-a1d2-8fd657e03d3f"},"vehicle_type_id":"4","last_reported":1761243320,"current_range_meters":12800,"station_id":"ce4bgt92rcd13ifvqcg0","pricing_plan_id":"cebpf4jnsgd1na2vs0mg"},{"bike_id":"d1913297-aa70-4d7d-b6e2-0b440eadab60","system_id":"levelo_inurba_marseille","lat":43.316254,"lon":5.405183,"is_reserved":false,"is_disabled":false,"rental_uris":{"android":"levelo://app?vid=d1913297-aa70-4d7d-b6e2-0b440eadab60","ios":"levelo://app?vid=d1913297-aa70-4d7d-b6e2-0b440eadab60"},"vehicle_type_id":"4","last_reported":1761243320,"current_range_meters":12800,"station_id":"ce4bh012rcd13ifvqd00","pricing_plan_id":"cebpf4jnsgd1na2vs0mg"},{"bike_id":"323bf2de-3bb4-4b4c-b330-b19ea807dbf5","system_id":"levelo_inurba_marseille","lat":43.32997,"lon":5.42952,"is_reserved":false,"is_disabled":false,"rental_uris":{"android":"levelo://app?vid=323bf2de-3bb4-4b4c-b330-b19ea807dbf5","ios":"levelo://app?vid=323bf2de-3bb4-4b4c-b330-b19ea807dbf5"},"vehicle_type_id":"4","last_reported":1761243320,"current_range_meters":12800,"station_id":"","pricing_plan_id":"cebpf4jnsgd1na2vs0mg"},{"bike_id":"84367789-9f37-4173-92d8-360cedeeabd6","system_id":"levelo_inurba_marseille","lat":43.29796,"lon":5.40401,"is_reserved":false,"is_disabled":false,"rental_uris":{"android":"levelo://app?vid=84367789-9f37-4173-92d8-360cedeeabd6","ios":"levelo://app?vid=84367789-9f37-4173-92d8-360cedeeabd6"},"vehicle_type_id":"4","last_reported":1761243320,"current_range_meters":12800,"station_id":"ce4bh112rcd13ifvqd90","pricing_plan_id":"cebpf4jnsgd1na2vs0mg"},{"bike_id":"953a25a4-be83-47ab-85ed-a44b045b4288","system_id":"levelo_inurba_marseille","lat":43.29787,"lon":5.38101,"is_reserved":false,"is_disabled":false,"rental_uris":{"android":"levelo://app?vid=953a25a4-be83-47ab-85ed-a44b045b4288","ios":"levelo://app?vid=953a25a4-be83-47ab-85ed-a44b045b4288"},"vehicle_type_id":"4","last_reported":1761243320,"current_range_meters":13600,"station_id":"ce4bgip2rcd13ifvqbb0","pricing_plan_id":"cebpf4jnsgd1na2vs0mg"},{"bike_id":"32c754e6-43d8-4e08-85b7-3cc3f6e471bb","system_id":"levelo_inurba_marseille","lat":43.32485,"lon":5.36565,"is_reserved":false,"is_disabled":false,"rental_uris":{"android":"levelo://app?vid=32c754e6-43d8-4e08-85b7-3cc3f6e471bb","ios":"levelo://app?vid=32c754e6-43d8-4e08-85b7-3cc3f6e471bb"},"vehicle_type_id":"4","last_reported":1761243320,"current_range_meters":13600,"station_id":"ce4bhs12rcd13ifvqhvg","pricing_plan_id":"cebpf4jnsgd1na2vs0mg"},{"bike_id":"24a11c21-7b10-418d-bff0-9d96ea02cfae","system_id":"levelo_inurba_marseille","lat":43.30787,"lon":5.37646,"is_reserved":false,"is_disabled":true,"rental_uris":{"android":"levelo://app?vid=24a11c21-7b10-418d-bff0-9d96ea02cfae","ios":"levelo://app?vid=24a11c21-7b10-418d-bff0-9d96ea02cfae"},"vehicle_type_id":"4","last_reported":1761243320,"current_range_meters":13600,"station_id":"ce4bgv92rcd13ifvqcq0","pricing_plan_id":"cebpf4jnsgd1na2vs0mg"},{"bike_id":"16688364-6b25-48ef-99e4-62ab7498f4a3","system_id":"levelo_inurba_marseille","lat":43.31113,"lon":5.37767,"is_reserved":false,"is_disabled":false,"rental_uris":{"android":"levelo://app?vid=16688364-6b25-48ef-99e4-62ab7498f4a3","ios":"levelo://app?vid=16688364-6b25-48ef-99e4-62ab7498f4a3"},"vehicle_type_id":"4","last_reported":1761243320,"current_range_meters":13600,"station_id":"ce4bgt92rcd13ifvqcg0","pricing_plan_id":"cebpf4jnsgd1na2vs0mg"},{"bike_id":"b284a5b8-145b-4b18-970a-f541b5c0ebef","system_id":"levelo_inurba_marseille","lat":43.28527,"lon":5.39469,"is_reserved":false,"is_disabled":false,"rental_uris":{"android":"levelo://app?vid=b284a5b8-145b-4b18-970a-f541b5c0ebef","ios":"levelo://app?vid=b284a5b8-145b-4b18-970a-f541b5c0ebef"},"vehicle_type_id":"4","last_reported":1761243320,"current_range_meters":13600,"station_id":"","pricing_plan_id":"cebpf4jnsgd1na2vs0mg"},{"bike_id":"f0764640-ec1d-486f-9e1c-59043e66eb76","system_id":"levelo_inurba_marseille","lat":43.217561,"lon":5.345963,"is_reserved":false,"is_disabled":false,"rental_uris":{"android":"levelo://app?vid=f0764640-ec1d-486f-9e1c-59043e66eb76","ios":"levelo://app?vid=f0764640-ec1d-486f-9e1c-59043e66eb76"},"vehicle_type_id":"4","last_reported":1761243320,"current_range_meters":14000,"station_id":"st_cvj6r9ubvosntc0bgbag","pricing_plan_id":"cebpf4jnsgd1na2vs0mg"},{"bike_id":"beafc51c-0077-4e43-a43d-98e5a842dece","system_id":"levelo_inurba_marseille","lat":43.305406,"lon":5.367065,"is_reserved":false,"is_disabled":false,"rental_uris":{"android":"levelo://app?vid=beafc51c-0077-4e43-a43d-98e5a842dece","ios":"levelo://app?vid=beafc51c-0077-4e43-a43d-98e5a842dece"},"vehicle_type_id":"4","last_reported":1761243320,"current_range_meters":14000,"station_id":"ce4bh3h2rcd13ifvqdn0","pricing_plan_id":"cebpf4jnsgd1na2vs0mg"},{"bike_id":"3c338306-051e-4864-9d5e-73d858887959","system_id":"levelo_inurba_marseille","lat":43.288787,"lon":5.359834,"is_reserved":false,"is_disabled":false,"rental_uris":{"android":"levelo://app?vid=3c338306-051e-4864-9d5e-73d858887959","ios":"levelo://app?vid=3c338306-051e-4864-9d5e-73d858887959"},"vehicle_type_id":"4","last_reported":1761243320,"current_range_meters":14000,"station_id":"","pricing_plan_id":"cebpf4jnsgd1na2vs0mg"},{"bike_id":"4ef98f88-211f-4cd8-b342-1ac314ffdfd9","system_id":"levelo_inurba_marseille","lat":43.31071,"lon":5.38363,"is_reserved":false,"is_disabled":false,"rental_uris":{"android":"levelo://app?vid=4ef98f88-211f-4cd8-b342-1ac314ffdfd9","ios":"levelo://app?vid=4ef98f88-211f-4cd8-b342-1ac314ffdfd9"},"vehicle_type_id":"4","last_reported":1761243320,"current_range_meters":14000,"station_id":"ce4bgv92rcd13ifvqcr0","pricing_plan_id":"cebpf4jnsgd1na2vs0mg"},{"bike_id":"5ab292f2-1bfd-4db4-bbb9-96bdec508bbc","system_id":"levelo_inurba_marseille","lat":43.30545,"lon":5.36697,"is_reserved":false,"is_disabled":false,"rental_uris":{"android":"levelo://app?vid=5ab292f2-1bfd-4db4-bbb9-96bdec508bbc","ios":"levelo://app?vid=5ab292f2-1bfd-4db4-bbb9-96bdec508bbc"},"vehicle_type_id":"4","last_reported":1761243320,"current_range_meters":14000,"station_id":"ce4bgrp2rcd13ifvqc9g","pricing_plan_id":"cebpf4jnsgd1na2vs0mg"},{"bike_id":"e769906a-6115-425c-84a0-aab1fda48d3f","system_id":"levelo_inurba_marseille","lat":43.29651,"lon":5.37675,"is_reserved":false,"is_disabled":false,"rental_uris":{"android":"levelo://app?vid=e769906a-6115-425c-84a0-aab1fda48d3f","ios":"levelo://app?vid=e769906a-6115-425c-84a0-aab1fda48d3f"},"vehicle_type_id":"4","last_reported":1761243320,"current_range_meters":14400,"station_id":"ce4bgi92rcd13ifvqb90","pricing_plan_id":"cebpf4jnsgd1na2vs0mg"},{"bike_id":"8bcacd78-80de-4026-af75-b37ebe3030fe","system_id":"levelo_inurba_marseille","lat":43.334756,"lon":5.404255,"is_reserved":false,"is_disabled":false,"rental_uris":{"android":"levelo://app?vid=8bcacd78-80de-4026-af75-b37ebe3030fe","ios":"levelo://app?vid=8bcacd78-80de-4026-af75-b37ebe3030fe"},"vehicle_type_id":"4","last_reported":1761243320,"current_range_meters":14400,"station_id":"","pricing_plan_id":"cebpf4jnsgd1na2vs0mg"},{"bike_id":"a851a90d-f0f5-4ea2-a30f-624f65b8432c","system_id":"levelo_inurba_marseille","lat":43.29268,"lon":5.38437,"is_reserved":false,"is_disabled":false,"rental_uris":{"android":"levelo://app?vid=a851a90d-f0f5-4ea2-a30f-624f65b8432c","ios":"levelo://app?vid=a851a90d-f0f5-4ea2-a30f-624f65b8432c"},"vehicle_type_id":"4","last_reported":1761243320,"current_range_meters":14400,"station_id":"ce4bh692rcd13ifvqea0","pricing_plan_id":"cebpf4jnsgd1na2vs0mg"},{"bike_id":"1678414c-5b54-4d41-9ab1-9652ef0df1a9","system_id":"levelo_inurba_marseille","lat":43.28977,"lon":5.37835,"is_reserved":false,"is_disabled":false,"rental_uris":{"android":"levelo://app?vid=1678414c-5b54-4d41-9ab1-9652ef0df1a9","ios":"levelo://app?vid=1678414c-5b54-4d41-9ab1-9652ef0df1a9"},"vehicle_type_id":"4","last_reported":1761243320,"current_range_meters":14400,"station_id":"ce4bh9p2rcd13ifvqed0","pricing_plan_id":"cebpf4jnsgd1na2vs0mg"},{"bike_id":"0489f456-3c8a-47ab-a1fc-3c708d8f2f58","system_id":"levelo_inurba_marseille","lat":43.29259,"lon":5.40907,"is_reserved":false,"is_disabled":false,"rental_uris":{"android":"levelo://app?vid=0489f456-3c8a-47ab-a1fc-3c708d8f2f58","ios":"levelo://app?vid=0489f456-3c8a-47ab-a1fc-3c708d8f2f58"},"vehicle_type_id":"4","last_reported":1761243320,"current_range_meters":14800,"station_id":"ce4bh192rcd13ifvqdc0","pricing_plan_id":"cebpf4jnsgd1na2vs0mg"},{"bike_id":"c7c0f212-881f-44e1-a853-63d7835e98b2","system_id":"levelo_inurba_marseille","lat":43.29715,"lon":5.37683,"is_reserved":false,"is_disabled":false,"rental_uris":{"android":"levelo://app?vid=c7c0f212-881f-44e1-a853-63d7835e98b2","ios":"levelo://app?vid=c7c0f212-881f-44e1-a853-63d7835e98b2"},"vehicle_type_id":"4","last_reported":1761243320,"current_range_meters":14800,"station_id":"ce4bgkh2rcd13ifvqbl0","pricing_plan_id":"cebpf4jnsgd1na2vs0mg"},{"bike_id":"2f3a068c-1bff-44a7-a352-fd6d916a00a0","system_id":"levelo_inurba_marseille","lat":43.32339,"lon":5.38902,"is_reserved":false,"is_disabled":false,"rental_uris":{"android":"levelo://app?vid=2f3a068c-1bff-44a7-a352-fd6d916a00a0","ios":"levelo://app?vid=2f3a068c-1bff-44a7-a352-fd6d916a00a0"},"vehicle_type_id":"4","last_reported":1761243320,"current_range_meters":14800,"station_id":"ce4bhqp2rcd13ifvqhog","pricing_plan_id":"cebpf4jnsgd1na2vs0mg"},{"bike_id":"b9764ed2-f91a-421e-b54e-d7527bd8af22","system_id":"levelo_inurba_marseille","lat":43.29811,"lon":5.36588,"is_reserved":false,"is_disabled":false,"rental_uris":{"android":"levelo://app?vid=b9764ed2-f91a-421e-b54e-d7527bd8af22","ios":"levelo://app?vid=b9764ed2-f91a-421e-b54e-d7527bd8af22"},"vehicle_type_id":"4","last_reported":1761243320,"current_range_meters":14800,"station_id":"","pricing_plan_id":"cebpf4jnsgd1na2vs0mg"},{"bike_id":"2a596ec3-9734-469b-975a-2974275fff6f","system_id":"levelo_inurba_marseille","lat":43.29543,"lon":5.38552,"is_reserved":false,"is_disabled":false,"rental_uris":{"android":"levelo://app?vid=2a596ec3-9734-469b-975a-2974275fff6f","ios":"levelo://app?vid=2a596ec3-9734-469b-975a-2974275fff6f"},"vehicle_type_id":"4","last_reported":1761243320,"current_range_meters":14800,"station_id":"ce4bgih2rcd13ifvqba0","pricing_plan_id":"cebpf4jnsgd1na2vs0mg"},{"bike_id":"433401a7-be1e-4af2-9bd4-42fe869944ee","system_id":"levelo_inurba_marseille","lat":43.2707,"lon":5.42268,"is_reserved":false,"is_disabled":false,"rental_uris":{"android":"levelo://app?vid=433401a7-be1e-4af2-9bd4-42fe869944ee","ios":"levelo://app?vid=433401a7-be1e-4af2-9bd4-42fe869944ee"},"vehicle_type_id":"4","last_reported":1761243320,"current_range_meters":14800,"station_id":"ce4bhk92rcd13ifvqgb0","pricing_plan_id":"cebpf4jnsgd1na2vs0mg"},{"bike_id":"5b5e0e74-8524-4688-9842-ebadd0464652","system_id":"levelo_inurba_marseille","lat":43.27613,"lon":5.3611,"is_reserved":false,"is_disabled":false,"rental_uris":{"android":"levelo://app?vid=5b5e0e74-8524-4688-9842-ebadd0464652","ios":"levelo://app?vid=5b5e0e74-8524-4688-9842-ebadd0464652"},"vehicle_type_id":"4","last_reported":1761243320,"current_range_meters":14800,"station_id":"ce4bgj92rcd13ifvqbe0","pricing_plan_id":"cebpf4jnsgd1na2vs0mg"},{"bike_id":"625cd4e8-0101-4f9c-ae6b-5081969768df","system_id":"levelo_inurba_marseille","lat":43.30131,"lon":5.43106,"is_reserved":false,"is_disabled":false,"rental_uris":{"android":"levelo://app?vid=625cd4e8-0101-4f9c-ae6b-5081969768df","ios":"levelo://app?vid=625cd4e8-0101-4f9c-ae6b-5081969768df"},"vehicle_type_id":"4","last_reported":1761243320,"current_range_meters":14800,"station_id":"st_d3js3co5814s73ftftug","pricing_plan_id":"cebpf4jnsgd1na2vs0mg"},{"bike_id":"d78eb837-b102-4db4-b967-7e27e7618a15","system_id":"levelo_inurba_marseille","lat":43.22929,"lon":5.35383,"is_reserved":false,"is_disabled":false,"rental_uris":{"android":"levelo://app?vid=d78eb837-b102-4db4-b967-7e27e7618a15","ios":"levelo://app?vid=d78eb837-b102-4db4-b967-7e27e7618a15"},"vehicle_type_id":"4","last_reported":1761243320,"current_range_meters":14800,"station_id":"cpo3532slgdg3j2ikp40","pricing_plan_id":"cebpf4jnsgd1na2vs0mg"},{"bike_id":"ba0d4b97-b595-43b5-b8a9-3159497b5c35","system_id":"levelo_inurba_marseille","lat":43.290313,"lon":5.386539,"is_reserved":false,"is_disabled":false,"rental_uris":{"android":"levelo://app?vid=ba0d4b97-b595-43b5-b8a9-3159497b5c35","ios":"levelo://app?vid=ba0d4b97-b595-43b5-b8a9-3159497b5c35"},"vehicle_type_id":"4","last_reported":1761243320,"current_range_meters":14800,"station_id":"ce4bh4p2rcd13ifvqe0g","pricing_plan_id":"cebpf4jnsgd1na2vs0mg"},{"bike_id":"3877e972-fe51-4197-a5b7-860377239f0f","system_id":"levelo_inurba_marseille","lat":43.24175,"lon":5.36404,"is_reserved":false,"is_disabled":false,"rental_uris":{"android":"levelo://app?vid=3877e972-fe51-4197-a5b7-860377239f0f","ios":"levelo://app?vid=3877e972-fe51-4197-a5b7-860377239f0f"},"vehicle_type_id":"4","last_reported":1761243320,"current_range_meters":14800,"station_id":"cpo36qri1sfpv3e86is0","pricing_plan_id":"cebpf4jnsgd1na2vs0mg"},{"bike_id":"3e4783b6-28d8-4737-a4ef-6a1b0da02476","system_id":"levelo_inurba_marseille","lat":43.29448,"lon":5.40726,"is_reserved":false,"is_disabled":false,"rental_uris":{"android":"levelo://app?vid=3e4783b6-28d8-4737-a4ef-6a1b0da02476","ios":"levelo://app?vid=3e4783b6-28d8-4737-a4ef-6a1b0da02476"},"vehicle_type_id":"4","last_reported":1761243320,"current_range_meters":15200,"station_id":"","pricing_plan_id":"cebpf4jnsgd1na2vs0mg"},{"bike_id":"1b83b914-8739-466b-8e68-90e2843dd362","system_id":"levelo_inurba_marseille","lat":43.24666,"lon":5.38165,"is_reserved":false,"is_disabled":false,"rental_uris":{"android":"levelo://app?vid=1b83b914-8739-466b-8e68-90e2843dd362","ios":"levelo://app?vid=1b83b914-8739-466b-8e68-90e2843dd362"},"vehicle_type_id":"4","last_reported":1761243320,"current_range_meters":15200,"station_id":"ce4bhih2rcd13ifvqfr0","pricing_plan_id":"cebpf4jnsgd1na2vs0mg"},{"bike_id":"3a7c302c-cc5f-4d7a-99e7-abf217acdee0","system_id":"levelo_inurba_marseille","lat":43.236695,"lon":5.365936,"is_reserved":false,"is_disabled":false,"rental_uris":{"android":"levelo://app?vid=3a7c302c-cc5f-4d7a-99e7-abf217acdee0","ios":"levelo://app?vid=3a7c302c-cc5f-4d7a-99e7-abf217acdee0"},"vehicle_type_id":"4","last_reported":1761243320,"current_range_meters":15200,"station_id":"ce4bh092rcd13ifvqd20","pricing_plan_id":"cebpf4jnsgd1na2vs0mg"},{"bike_id":"1bb41cc2-9bb1-4e74-9fcf-16595fc658ca","system_id":"levelo_inurba_marseille","lat":43.29873,"lon":5.39737,"is_reserved":false,"is_disabled":false,"rental_uris":{"android":"levelo://app?vid=1bb41cc2-9bb1-4e74-9fcf-16595fc658ca","ios":"levelo://app?vid=1bb41cc2-9bb1-4e74-9fcf-16595fc658ca"},"vehicle_type_id":"4","last_reported":1761243320,"current_range_meters":15200,"station_id":"ce4bh0h2rcd13ifvqd50","pricing_plan_id":"cebpf4jnsgd1na2vs0mg"},{"bike_id":"c3a9d362-baee-42b1-82bf-bab3838c0c22","system_id":"levelo_inurba_marseille","lat":43.25721,"lon":5.41112,"is_reserved":false,"is_disabled":false,"rental_uris":{"android":"levelo://app?vid=c3a9d362-baee-42b1-82bf-bab3838c0c22","ios":"levelo://app?vid=c3a9d362-baee-42b1-82bf-bab3838c0c22"},"vehicle_type_id":"4","last_reported":1761243320,"current_range_meters":15200,"station_id":"ce4bhkp2rcd13ifvqgd0","pricing_plan_id":"cebpf4jnsgd1na2vs0mg"},{"bike_id":"316c843e-0abd-49e3-b3e9-3f61b02a5647","system_id":"levelo_inurba_marseille","lat":43.28863,"lon":5.42515,"is_reserved":false,"is_disabled":false,"rental_uris":{"android":"levelo://app?vid=316c843e-0abd-49e3-b3e9-3f61b02a5647","ios":"levelo://app?vid=316c843e-0abd-49e3-b3e9-3f61b02a5647"},"vehicle_type_id":"4","last_reported":1761243320,"current_range_meters":16000,"station_id":"st_d3b462108ojc7389ooeg","pricing_plan_id":"cebpf4jnsgd1na2vs0mg"},{"bike_id":"2172ef7f-240b-4c72-bf8d-26c79cc1f73d","system_id":"levelo_inurba_marseille","lat":43.29905,"lon":5.43669,"is_reserved":false,"is_disabled":false,"rental_uris":{"android":"levelo://app?vid=2172ef7f-240b-4c72-bf8d-26c79cc1f73d","ios":"levelo://app?vid=2172ef7f-240b-4c72-bf8d-26c79cc1f73d"},"vehicle_type_id":"4","last_reported":1761243320,"current_range_meters":16000,"station_id":"ce4bhpp2rcd13ifvqhfg","pricing_plan_id":"cebpf4jnsgd1na2vs0mg"},{"bike_id":"55aee02d-9c96-45d2-9d31-4545665d3ece","system_id":"levelo_inurba_marseille","lat":43.24649,"lon":5.3889,"is_reserved":false,"is_disabled":false,"rental_uris":{"android":"levelo://app?vid=55aee02d-9c96-45d2-9d31-4545665d3ece","ios":"levelo://app?vid=55aee02d-9c96-45d2-9d31-4545665d3ece"},"vehicle_type_id":"4","last_reported":1761243320,"current_range_meters":16000,"station_id":"ce4bhg12rcd13ifvqf60","pricing_plan_id":"cebpf4jnsgd1na2vs0mg"},{"bike_id":"6b68793d-8fb1-4472-a08a-5036e42d6690","system_id":"levelo_inurba_marseille","lat":43.286604,"lon":5.363539,"is_reserved":false,"is_disabled":false,"rental_uris":{"android":"levelo://app?vid=6b68793d-8fb1-4472-a08a-5036e42d6690","ios":"levelo://app?vid=6b68793d-8fb1-4472-a08a-5036e42d6690"},"vehicle_type_id":"4","last_reported":1761243320,"current_range_meters":16000,"station_id":"ce4bhah2rcd13ifvqej0","pricing_plan_id":"cebpf4jnsgd1na2vs0mg"},{"bike_id":"2e51ab34-6fc0-4206-b5a5-25fb630cf9db","system_id":"levelo_inurba_marseille","lat":43.29035,"lon":5.38651,"is_reserved":false,"is_disabled":false,"rental_uris":{"android":"levelo://app?vid=2e51ab34-6fc0-4206-b5a5-25fb630cf9db","ios":"levelo://app?vid=2e51ab34-6fc0-4206-b5a5-25fb630cf9db"},"vehicle_type_id":"4","last_reported":1761243320,"current_range_meters":16000,"station_id":"ce4bh4p2rcd13ifvqe0g","pricing_plan_id":"cebpf4jnsgd1na2vs0mg"},{"bike_id":"0dc0657e-7082-4840-b259-4cf8fb7a3beb","system_id":"levelo_inurba_marseille","lat":43.306112,"lon":5.372303,"is_reserved":false,"is_disabled":false,"rental_uris":{"android":"levelo://app?vid=0dc0657e-7082-4840-b259-4cf8fb7a3beb","ios":"levelo://app?vid=0dc0657e-7082-4840-b259-4cf8fb7a3beb"},"vehicle_type_id":"4","last_reported":1761243320,"current_range_meters":16000,"station_id":"ce4bgqh2rcd13ifvqc4g","pricing_plan_id":"cebpf4jnsgd1na2vs0mg"},{"bike_id":"a5e10cb3-d280-4b4c-8176-279276f1fb2a","system_id":"levelo_inurba_marseille","lat":43.25102,"lon":5.40332,"is_reserved":false,"is_disabled":false,"rental_uris":{"android":"levelo://app?vid=a5e10cb3-d280-4b4c-8176-279276f1fb2a","ios":"levelo://app?vid=a5e10cb3-d280-4b4c-8176-279276f1fb2a"},"vehicle_type_id":"4","last_reported":1761243320,"current_range_meters":16000,"station_id":"ce4bhlh2rcd13ifvqgig","pricing_plan_id":"cebpf4jnsgd1na2vs0mg"},{"bike_id":"40d9a933-2f72-4a6a-9421-01e6cfc524f4","system_id":"levelo_inurba_marseille","lat":43.2884,"lon":5.35854,"is_reserved":false,"is_disabled":false,"rental_uris":{"android":"levelo://app?vid=40d9a933-2f72-4a6a-9421-01e6cfc524f4","ios":"levelo://app?vid=40d9a933-2f72-4a6a-9421-01e6cfc524f4"},"vehicle_type_id":"4","last_reported":1761243320,"current_range_meters":16000,"station_id":"ce4bhb12rcd13ifvqem0","pricing_plan_id":"cebpf4jnsgd1na2vs0mg"},{"bike_id":"f0a7f8cd-2d3e-478b-9aec-2f6fa26d1abb","system_id":"levelo_inurba_marseille","lat":43.311706,"lon":5.387183,"is_reserved":false,"is_disabled":false,"rental_uris":{"android":"levelo://app?vid=f0a7f8cd-2d3e-478b-9aec-2f6fa26d1abb","ios":"levelo://app?vid=f0a7f8cd-2d3e-478b-9aec-2f6fa26d1abb"},"vehicle_type_id":"4","last_reported":1761243320,"current_range_meters":16000,"station_id":"ce4bgv12rcd13ifvqcp0","pricing_plan_id":"cebpf4jnsgd1na2vs0mg"},{"bike_id":"6a9a6240-fba5-4f2d-a383-dcf3f333c1d0","system_id":"levelo_inurba_marseille","lat":43.26561,"lon":5.40326,"is_reserved":false,"is_disabled":false,"rental_uris":{"android":"levelo://app?vid=6a9a6240-fba5-4f2d-a383-dcf3f333c1d0","ios":"levelo://app?vid=6a9a6240-fba5-4f2d-a383-dcf3f333c1d0"},"vehicle_type_id":"4","last_reported":1761243320,"current_range_meters":16000,"station_id":"ce4bhmp2rcd13ifvqgng","pricing_plan_id":"cebpf4jnsgd1na2vs0mg"},{"bike_id":"75765de9-f740-4f58-8f2f-b0e28986759f","system_id":"levelo_inurba_marseille","lat":43.3096,"lon":5.39237,"is_reserved":false,"is_disabled":false,"rental_uris":{"android":"levelo://app?vid=75765de9-f740-4f58-8f2f-b0e28986759f","ios":"levelo://app?vid=75765de9-f740-4f58-8f2f-b0e28986759f"},"vehicle_type_id":"4","last_reported":1761243320,"current_range_meters":16000,"station_id":"","pricing_plan_id":"cebpf4jnsgd1na2vs0mg"},{"bike_id":"b64881d7-d5e8-42c7-8ee8-3d8ec0c1451b","system_id":"levelo_inurba_marseille","lat":43.28664,"lon":5.36346,"is_reserved":false,"is_disabled":false,"rental_uris":{"android":"levelo://app?vid=b64881d7-d5e8-42c7-8ee8-3d8ec0c1451b","ios":"levelo://app?vid=b64881d7-d5e8-42c7-8ee8-3d8ec0c1451b"},"vehicle_type_id":"4","last_reported":1761243320,"current_range_meters":16000,"station_id":"ce4bhah2rcd13ifvqej0","pricing_plan_id":"cebpf4jnsgd1na2vs0mg"},{"bike_id":"eeeb861f-5119-4b3b-a7e1-05c825c82c88","system_id":"levelo_inurba_marseille","lat":43.27947,"lon":5.41037,"is_reserved":false,"is_disabled":false,"rental_uris":{"android":"levelo://app?vid=eeeb861f-5119-4b3b-a7e1-05c825c82c88","ios":"levelo://app?vid=eeeb861f-5119-4b3b-a7e1-05c825c82c88"},"vehicle_type_id":"4","last_reported":1761243320,"current_range_meters":16400,"station_id":"ce4bhnp2rcd13ifvqh0g","pricing_plan_id":"cebpf4jnsgd1na2vs0mg"},{"bike_id":"83d833af-e5f6-4303-8e6a-c2cb5afde617","system_id":"levelo_inurba_marseille","lat":43.29251,"lon":5.38437,"is_reserved":false,"is_disabled":false,"rental_uris":{"android":"levelo://app?vid=83d833af-e5f6-4303-8e6a-c2cb5afde617","ios":"levelo://app?vid=83d833af-e5f6-4303-8e6a-c2cb5afde617"},"vehicle_type_id":"4","last_reported":1761243320,"current_range_meters":16400,"station_id":"ce4bh692rcd13ifvqea0","pricing_plan_id":"cebpf4jnsgd1na2vs0mg"},{"bike_id":"316ff966-07b3-44a6-be2b-e9241d3f9b34","system_id":"levelo_inurba_marseille","lat":43.307968,"lon":5.38151,"is_reserved":false,"is_disabled":false,"rental_uris":{"android":"levelo://app?vid=316ff966-07b3-44a6-be2b-e9241d3f9b34","ios":"levelo://app?vid=316ff966-07b3-44a6-be2b-e9241d3f9b34"},"vehicle_type_id":"4","last_reported":1761243320,"current_range_meters":16400,"station_id":"ce4bgt12rcd13ifvqce0","pricing_plan_id":"cebpf4jnsgd1na2vs0mg"},{"bike_id":"eab23f2c-0836-4a61-91c1-750fc95ef83c","system_id":"levelo_inurba_marseille","lat":43.2926,"lon":5.40923,"is_reserved":false,"is_disabled":false,"rental_uris":{"android":"levelo://app?vid=eab23f2c-0836-4a61-91c1-750fc95ef83c","ios":"levelo://app?vid=eab23f2c-0836-4a61-91c1-750fc95ef83c"},"vehicle_type_id":"4","last_reported":1761243320,"current_range_meters":16400,"station_id":"ce4bh192rcd13ifvqdc0","pricing_plan_id":"cebpf4jnsgd1na2vs0mg"},{"bike_id":"e986eb56-ca00-4dbf-ada0-578bc3d8f529","system_id":"levelo_inurba_marseille","lat":43.27336,"lon":5.41478,"is_reserved":false,"is_disabled":false,"rental_uris":{"android":"levelo://app?vid=e986eb56-ca00-4dbf-ada0-578bc3d8f529","ios":"levelo://app?vid=e986eb56-ca00-4dbf-ada0-578bc3d8f529"},"vehicle_type_id":"4","last_reported":1761243320,"current_range_meters":16400,"station_id":"","pricing_plan_id":"cebpf4jnsgd1na2vs0mg"},{"bike_id":"4b8d9027-4cdb-4ac2-bef1-e4a1b6a157c5","system_id":"levelo_inurba_marseille","lat":43.29226,"lon":5.36074,"is_reserved":false,"is_disabled":false,"rental_uris":{"android":"levelo://app?vid=4b8d9027-4cdb-4ac2-bef1-e4a1b6a157c5","ios":"levelo://app?vid=4b8d9027-4cdb-4ac2-bef1-e4a1b6a157c5"},"vehicle_type_id":"4","last_reported":1761243320,"current_range_meters":16400,"station_id":"ce4bhbh2rcd13ifvqeqg","pricing_plan_id":"cebpf4jnsgd1na2vs0mg"},{"bike_id":"43c4186d-36c4-4773-8ed9-debf9d4ffd4e","system_id":"levelo_inurba_marseille","lat":43.292603,"lon":5.384338,"is_reserved":false,"is_disabled":false,"rental_uris":{"android":"levelo://app?vid=43c4186d-36c4-4773-8ed9-debf9d4ffd4e","ios":"levelo://app?vid=43c4186d-36c4-4773-8ed9-debf9d4ffd4e"},"vehicle_type_id":"4","last_reported":1761243320,"current_range_meters":16400,"station_id":"ce4bh692rcd13ifvqea0","pricing_plan_id":"cebpf4jnsgd1na2vs0mg"},{"bike_id":"59990a79-4fb5-40f4-8cb1-1f27b2c7d3af","system_id":"levelo_inurba_marseille","lat":43.32478,"lon":5.36565,"is_reserved":false,"is_disabled":false,"rental_uris":{"android":"levelo://app?vid=59990a79-4fb5-40f4-8cb1-1f27b2c7d3af","ios":"levelo://app?vid=59990a79-4fb5-40f4-8cb1-1f27b2c7d3af"},"vehicle_type_id":"4","last_reported":1761243320,"current_range_meters":16400,"station_id":"ce4bhs12rcd13ifvqhvg","pricing_plan_id":"cebpf4jnsgd1na2vs0mg"},{"bike_id":"73155444-66b0-43ba-9b8f-777412afba8c","system_id":"levelo_inurba_marseille","lat":43.27894,"lon":5.39598,"is_reserved":false,"is_disabled":false,"rental_uris":{"android":"levelo://app?vid=73155444-66b0-43ba-9b8f-777412afba8c","ios":"levelo://app?vid=73155444-66b0-43ba-9b8f-777412afba8c"},"vehicle_type_id":"4","last_reported":1761243320,"current_range_meters":16400,"station_id":"ce4bhf92rcd13ifvqf40","pricing_plan_id":"cebpf4jnsgd1na2vs0mg"},{"bike_id":"d724d31a-06fb-45c5-8669-249dd1d2ed53","system_id":"levelo_inurba_marseille","lat":43.31082,"lon":5.42441,"is_reserved":false,"is_disabled":false,"rental_uris":{"android":"levelo://app?vid=d724d31a-06fb-45c5-8669-249dd1d2ed53","ios":"levelo://app?vid=d724d31a-06fb-45c5-8669-249dd1d2ed53"},"vehicle_type_id":"4","last_reported":1761243320,"current_range_meters":16400,"station_id":"ce4bhp92rcd13ifvqhag","pricing_plan_id":"cebpf4jnsgd1na2vs0mg"},{"bike_id":"16716933-326f-4461-aae5-417139f43fa9","system_id":"levelo_inurba_marseille","lat":43.292658,"lon":5.384216,"is_reserved":false,"is_disabled":false,"rental_uris":{"android":"levelo://app?vid=16716933-326f-4461-aae5-417139f43fa9","ios":"levelo://app?vid=16716933-326f-4461-aae5-417139f43fa9"},"vehicle_type_id":"4","last_reported":1761243320,"current_range_meters":16800,"station_id":"ce4bh692rcd13ifvqea0","pricing_plan_id":"cebpf4jnsgd1na2vs0mg"},{"bike_id":"09561ad1-4a87-4694-8a86-5abd11dfc189","system_id":"levelo_inurba_marseille","lat":43.28711,"lon":5.37935,"is_reserved":false,"is_disabled":false,"rental_uris":{"android":"levelo://app?vid=09561ad1-4a87-4694-8a86-5abd11dfc189","ios":"levelo://app?vid=09561ad1-4a87-4694-8a86-5abd11dfc189"},"vehicle_type_id":"4","last_reported":1761243320,"current_range_meters":16800,"station_id":"ce4bh9p2rcd13ifvqec0","pricing_plan_id":"cebpf4jnsgd1na2vs0mg"},{"bike_id":"c12a786b-d447-4373-876a-58fc20f19148","system_id":"levelo_inurba_marseille","lat":43.298881,"lon":5.436629,"is_reserved":false,"is_disabled":false,"rental_uris":{"android":"levelo://app?vid=c12a786b-d447-4373-876a-58fc20f19148","ios":"levelo://app?vid=c12a786b-d447-4373-876a-58fc20f19148"},"vehicle_type_id":"4","last_reported":1761243320,"current_range_meters":16800,"station_id":"ce4bhpp2rcd13ifvqhfg","pricing_plan_id":"cebpf4jnsgd1na2vs0mg"},{"bike_id":"3b34a300-325a-4eae-84aa-07afd1a223eb","system_id":"levelo_inurba_marseille","lat":43.24657,"lon":5.38893,"is_reserved":false,"is_disabled":false,"rental_uris":{"android":"levelo://app?vid=3b34a300-325a-4eae-84aa-07afd1a223eb","ios":"levelo://app?vid=3b34a300-325a-4eae-84aa-07afd1a223eb"},"vehicle_type_id":"4","last_reported":1761243320,"current_range_meters":16800,"station_id":"ce4bhg12rcd13ifvqf60","pricing_plan_id":"cebpf4jnsgd1na2vs0mg"},{"bike_id":"d9ecb998-ceaa-4a39-8aba-9f0e44069447","system_id":"levelo_inurba_marseille","lat":43.32147,"lon":5.38731,"is_reserved":false,"is_disabled":false,"rental_uris":{"android":"levelo://app?vid=d9ecb998-ceaa-4a39-8aba-9f0e44069447","ios":"levelo://app?vid=d9ecb998-ceaa-4a39-8aba-9f0e44069447"},"vehicle_type_id":"4","last_reported":1761243320,"current_range_meters":16800,"station_id":"","pricing_plan_id":"cebpf4jnsgd1na2vs0mg"},{"bike_id":"8368887a-cf9b-4fcb-88ee-8e8be91b0dae","system_id":"levelo_inurba_marseille","lat":43.25831,"lon":5.39438,"is_reserved":false,"is_disabled":false,"rental_uris":{"android":"levelo://app?vid=8368887a-cf9b-4fcb-88ee-8e8be91b0dae","ios":"levelo://app?vid=8368887a-cf9b-4fcb-88ee-8e8be91b0dae"},"vehicle_type_id":"4","last_reported":1761243320,"current_range_meters":17200,"station_id":"ce4bhip2rcd13ifvqft0","pricing_plan_id":"cebpf4jnsgd1na2vs0mg"},{"bike_id":"126be4bc-91ae-4641-893b-1b51eeff641d","system_id":"levelo_inurba_marseille","lat":43.30884,"lon":5.39644,"is_reserved":false,"is_disabled":false,"rental_uris":{"android":"levelo://app?vid=126be4bc-91ae-4641-893b-1b51eeff641d","ios":"levelo://app?vid=126be4bc-91ae-4641-893b-1b51eeff641d"},"vehicle_type_id":"4","last_reported":1761243320,"current_range_meters":17200,"station_id":"ce4bh012rcd13ifvqcv0","pricing_plan_id":"cebpf4jnsgd1na2vs0mg"},{"bike_id":"d7ee83eb-ff8f-46b0-9925-8298dbedac1a","system_id":"levelo_inurba_marseille","lat":43.32246,"lon":5.38357,"is_reserved":false,"is_disabled":false,"rental_uris":{"android":"levelo://app?vid=d7ee83eb-ff8f-46b0-9925-8298dbedac1a","ios":"levelo://app?vid=d7ee83eb-ff8f-46b0-9925-8298dbedac1a"},"vehicle_type_id":"4","last_reported":1761243320,"current_range_meters":17200,"station_id":"ce4bhr12rcd13ifvqhqg","pricing_plan_id":"cebpf4jnsgd1na2vs0mg"},{"bike_id":"2e516aa3-da3f-4cd4-8d7a-1dc8bf5d8ddd","system_id":"levelo_inurba_marseille","lat":43.32099,"lon":5.3676,"is_reserved":false,"is_disabled":false,"rental_uris":{"android":"levelo://app?vid=2e516aa3-da3f-4cd4-8d7a-1dc8bf5d8ddd","ios":"levelo://app?vid=2e516aa3-da3f-4cd4-8d7a-1dc8bf5d8ddd"},"vehicle_type_id":"4","last_reported":1761243320,"current_range_meters":17200,"station_id":"ce4bhrh2rcd13ifvqhug","pricing_plan_id":"cebpf4jnsgd1na2vs0mg"},{"bike_id":"047d8eb6-e8f3-4165-8bb1-e9874e7cb246","system_id":"levelo_inurba_marseille","lat":43.29582,"lon":5.36735,"is_reserved":false,"is_disabled":false,"rental_uris":{"android":"levelo://app?vid=047d8eb6-e8f3-4165-8bb1-e9874e7cb246","ios":"levelo://app?vid=047d8eb6-e8f3-4165-8bb1-e9874e7cb246"},"vehicle_type_id":"4","last_reported":1761243320,"current_range_meters":17200,"station_id":"ce4bgph2rcd13ifvqc2g","pricing_plan_id":"cebpf4jnsgd1na2vs0mg"},{"bike_id":"82a6ac02-8c08-4f93-844a-981cd0f715d0","system_id":"levelo_inurba_marseille","lat":43.25515,"lon":5.37658,"is_reserved":false,"is_disabled":false,"rental_uris":{"android":"levelo://app?vid=82a6ac02-8c08-4f93-844a-981cd0f715d0","ios":"levelo://app?vid=82a6ac02-8c08-4f93-844a-981cd0f715d0"},"vehicle_type_id":"4","last_reported":1761243320,"current_range_meters":17200,"station_id":"ce4bhh12rcd13ifvqff0","pricing_plan_id":"cebpf4jnsgd1na2vs0mg"},{"bike_id":"24441694-1b85-40bf-b4cb-e2e4cc4c94d3","system_id":"levelo_inurba_marseille","lat":43.31115,"lon":5.37765,"is_reserved":false,"is_disabled":false,"rental_uris":{"android":"levelo://app?vid=24441694-1b85-40bf-b4cb-e2e4cc4c94d3","ios":"levelo://app?vid=24441694-1b85-40bf-b4cb-e2e4cc4c94d3"},"vehicle_type_id":"4","last_reported":1761243320,"current_range_meters":17200,"station_id":"ce4bgt92rcd13ifvqcg0","pricing_plan_id":"cebpf4jnsgd1na2vs0mg"},{"bike_id":"f82ab332-6298-4887-b50f-7316f9fbe3b4","system_id":"levelo_inurba_marseille","lat":43.2534,"lon":5.42181,"is_reserved":false,"is_disabled":false,"rental_uris":{"android":"levelo://app?vid=f82ab332-6298-4887-b50f-7316f9fbe3b4","ios":"levelo://app?vid=f82ab332-6298-4887-b50f-7316f9fbe3b4"},"vehicle_type_id":"4","last_reported":1761243320,"current_range_meters":17200,"station_id":"st_d2m65c5bi1j21697t3ng","pricing_plan_id":"cebpf4jnsgd1na2vs0mg"},{"bike_id":"bae56401-d86f-4e63-9026-aa146479db4d","system_id":"levelo_inurba_marseille","lat":43.2792,"lon":5.39603,"is_reserved":false,"is_disabled":false,"rental_uris":{"android":"levelo://app?vid=bae56401-d86f-4e63-9026-aa146479db4d","ios":"levelo://app?vid=bae56401-d86f-4e63-9026-aa146479db4d"},"vehicle_type_id":"4","last_reported":1761243320,"current_range_meters":17200,"station_id":"ce4bhf92rcd13ifvqf40","pricing_plan_id":"cebpf4jnsgd1na2vs0mg"},{"bike_id":"e8c76b3b-38b0-4e8c-b513-86de24b98dfa","system_id":"levelo_inurba_marseille","lat":43.2925,"lon":5.38444,"is_reserved":false,"is_disabled":false,"rental_uris":{"android":"levelo://app?vid=e8c76b3b-38b0-4e8c-b513-86de24b98dfa","ios":"levelo://app?vid=e8c76b3b-38b0-4e8c-b513-86de24b98dfa"},"vehicle_type_id":"4","last_reported":1761243320,"current_range_meters":17600,"station_id":"ce4bh692rcd13ifvqea0","pricing_plan_id":"cebpf4jnsgd1na2vs0mg"},{"bike_id":"83579faf-cab8-4c74-a4f8-9d217470a0e9","system_id":"levelo_inurba_marseille","lat":43.30145,"lon":5.38077,"is_reserved":false,"is_disabled":false,"rental_uris":{"android":"levelo://app?vid=83579faf-cab8-4c74-a4f8-9d217470a0e9","ios":"levelo://app?vid=83579faf-cab8-4c74-a4f8-9d217470a0e9"},"vehicle_type_id":"4","last_reported":1761243320,"current_range_meters":17600,"station_id":"ce4bgjp2rcd13ifvqbh0","pricing_plan_id":"cebpf4jnsgd1na2vs0mg"},{"bike_id":"0c216ec5-2d75-4ee4-a223-b0d23bee74b5","system_id":"levelo_inurba_marseille","lat":43.24649,"lon":5.389,"is_reserved":false,"is_disabled":false,"rental_uris":{"android":"levelo://app?vid=0c216ec5-2d75-4ee4-a223-b0d23bee74b5","ios":"levelo://app?vid=0c216ec5-2d75-4ee4-a223-b0d23bee74b5"},"vehicle_type_id":"4","last_reported":1761243320,"current_range_meters":17600,"station_id":"ce4bhg12rcd13ifvqf60","pricing_plan_id":"cebpf4jnsgd1na2vs0mg"},{"bike_id":"f98272e2-777c-44c7-a06c-55a3d2e52bc0","system_id":"levelo_inurba_marseille","lat":43.29536,"lon":5.38556,"is_reserved":false,"is_disabled":false,"rental_uris":{"android":"levelo://app?vid=f98272e2-777c-44c7-a06c-55a3d2e52bc0","ios":"levelo://app?vid=f98272e2-777c-44c7-a06c-55a3d2e52bc0"},"vehicle_type_id":"4","last_reported":1761243320,"current_range_meters":17600,"station_id":"ce4bgih2rcd13ifvqba0","pricing_plan_id":"cebpf4jnsgd1na2vs0mg"},{"bike_id":"b2da8ad7-1fce-4999-8d39-855602b63a35","system_id":"levelo_inurba_marseille","lat":43.29261,"lon":5.38439,"is_reserved":false,"is_disabled":false,"rental_uris":{"android":"levelo://app?vid=b2da8ad7-1fce-4999-8d39-855602b63a35","ios":"levelo://app?vid=b2da8ad7-1fce-4999-8d39-855602b63a35"},"vehicle_type_id":"4","last_reported":1761243320,"current_range_meters":17600,"station_id":"ce4bh692rcd13ifvqea0","pricing_plan_id":"cebpf4jnsgd1na2vs0mg"},{"bike_id":"21055970-a916-451d-8faf-8644e2ac72ad","system_id":"levelo_inurba_marseille","lat":43.24801,"lon":5.37455,"is_reserved":false,"is_disabled":false,"rental_uris":{"android":"levelo://app?vid=21055970-a916-451d-8faf-8644e2ac72ad","ios":"levelo://app?vid=21055970-a916-451d-8faf-8644e2ac72ad"},"vehicle_type_id":"4","last_reported":1761243320,"current_range_meters":17600,"station_id":"ce4bhgh2rcd13ifvqfb0","pricing_plan_id":"cebpf4jnsgd1na2vs0mg"},{"bike_id":"84c6511c-08a6-4aa3-9d4a-2ba3f27a8985","system_id":"levelo_inurba_marseille","lat":43.2953,"lon":5.38556,"is_reserved":false,"is_disabled":false,"rental_uris":{"android":"levelo://app?vid=84c6511c-08a6-4aa3-9d4a-2ba3f27a8985","ios":"levelo://app?vid=84c6511c-08a6-4aa3-9d4a-2ba3f27a8985"},"vehicle_type_id":"4","last_reported":1761243320,"current_range_meters":17600,"station_id":"ce4bgih2rcd13ifvqba0","pricing_plan_id":"cebpf4jnsgd1na2vs0mg"},{"bike_id":"12cab427-5482-43fe-aed6-388aeca9953d","system_id":"levelo_inurba_marseille","lat":43.25588,"lon":5.38239,"is_reserved":false,"is_disabled":false,"rental_uris":{"android":"levelo://app?vid=12cab427-5482-43fe-aed6-388aeca9953d","ios":"levelo://app?vid=12cab427-5482-43fe-aed6-388aeca9953d"},"vehicle_type_id":"4","last_reported":1761243320,"current_range_meters":17600,"station_id":"ce4bhih2rcd13ifvqfs0","pricing_plan_id":"cebpf4jnsgd1na2vs0mg"},{"bike_id":"502fea4f-6102-44b9-b43f-52dd65266bfd","system_id":"levelo_inurba_marseille","lat":43.3059,"lon":5.39344,"is_reserved":false,"is_disabled":false,"rental_uris":{"android":"levelo://app?vid=502fea4f-6102-44b9-b43f-52dd65266bfd","ios":"levelo://app?vid=502fea4f-6102-44b9-b43f-52dd65266bfd"},"vehicle_type_id":"4","last_reported":1761243320,"current_range_meters":17600,"station_id":"ce4bh0p2rcd13ifvqd80","pricing_plan_id":"cebpf4jnsgd1na2vs0mg"},{"bike_id":"3570316a-0934-44bd-a04f-f78086f67cb3","system_id":"levelo_inurba_marseille","lat":43.29374,"lon":5.37848,"is_reserved":false,"is_disabled":false,"rental_uris":{"android":"levelo://app?vid=3570316a-0934-44bd-a04f-f78086f67cb3","ios":"levelo://app?vid=3570316a-0934-44bd-a04f-f78086f67cb3"},"vehicle_type_id":"4","last_reported":1761243320,"current_range_meters":18000,"station_id":"ce4bgjh2rcd13ifvqbf0","pricing_plan_id":"cebpf4jnsgd1na2vs0mg"},{"bike_id":"ccc3f002-a0ee-451d-afb0-22b397ac95ef","system_id":"levelo_inurba_marseille","lat":43.29252,"lon":5.38445,"is_reserved":false,"is_disabled":false,"rental_uris":{"android":"levelo://app?vid=ccc3f002-a0ee-451d-afb0-22b397ac95ef","ios":"levelo://app?vid=ccc3f002-a0ee-451d-afb0-22b397ac95ef"},"vehicle_type_id":"4","last_reported":1761243320,"current_range_meters":18000,"station_id":"ce4bh692rcd13ifvqea0","pricing_plan_id":"cebpf4jnsgd1na2vs0mg"},{"bike_id":"87b07aa1-1cef-47f0-b2e2-6940c4d0c375","system_id":"levelo_inurba_marseille","lat":43.29572,"lon":5.37503,"is_reserved":false,"is_disabled":false,"rental_uris":{"android":"levelo://app?vid=87b07aa1-1cef-47f0-b2e2-6940c4d0c375","ios":"levelo://app?vid=87b07aa1-1cef-47f0-b2e2-6940c4d0c375"},"vehicle_type_id":"4","last_reported":1761243320,"current_range_meters":18000,"station_id":"ce4bgh92rcd13ifvqb50","pricing_plan_id":"cebpf4jnsgd1na2vs0mg"},{"bike_id":"8ee2db56-f81c-43fb-b554-ca1f7a460adf","system_id":"levelo_inurba_marseille","lat":43.280651,"lon":5.386514,"is_reserved":false,"is_disabled":false,"rental_uris":{"android":"levelo://app?vid=8ee2db56-f81c-43fb-b554-ca1f7a460adf","ios":"levelo://app?vid=8ee2db56-f81c-43fb-b554-ca1f7a460adf"},"vehicle_type_id":"4","last_reported":1761243320,"current_range_meters":18000,"station_id":"ce4bhg12rcd13ifvqf80","pricing_plan_id":"cebpf4jnsgd1na2vs0mg"},{"bike_id":"bb897963-cb50-41b0-84a8-35a05d3159e7","system_id":"levelo_inurba_marseille","lat":43.31107,"lon":5.37763,"is_reserved":false,"is_disabled":false,"rental_uris":{"android":"levelo://app?vid=bb897963-cb50-41b0-84a8-35a05d3159e7","ios":"levelo://app?vid=bb897963-cb50-41b0-84a8-35a05d3159e7"},"vehicle_type_id":"4","last_reported":1761243320,"current_range_meters":18000,"station_id":"ce4bgt92rcd13ifvqcg0","pricing_plan_id":"cebpf4jnsgd1na2vs0mg"},{"bike_id":"53267ec5-3017-41cf-9b6d-3e737ab0ed78","system_id":"levelo_inurba_marseille","lat":43.31116,"lon":5.37778,"is_reserved":false,"is_disabled":false,"rental_uris":{"android":"levelo://app?vid=53267ec5-3017-41cf-9b6d-3e737ab0ed78","ios":"levelo://app?vid=53267ec5-3017-41cf-9b6d-3e737ab0ed78"},"vehicle_type_id":"4","last_reported":1761243320,"current_range_meters":18000,"station_id":"ce4bgt92rcd13ifvqcg0","pricing_plan_id":"cebpf4jnsgd1na2vs0mg"},{"bike_id":"f8c755d7-1bb8-4fcd-bb3f-74aeb49951cc","system_id":"levelo_inurba_marseille","lat":43.31366,"lon":5.37903,"is_reserved":false,"is_disabled":false,"rental_uris":{"android":"levelo://app?vid=f8c755d7-1bb8-4fcd-bb3f-74aeb49951cc","ios":"levelo://app?vid=f8c755d7-1bb8-4fcd-bb3f-74aeb49951cc"},"vehicle_type_id":"4","last_reported":1761243320,"current_range_meters":18000,"station_id":"","pricing_plan_id":"cebpf4jnsgd1na2vs0mg"},{"bike_id":"75552eb5-38a2-43ca-9291-cacb859b6f73","system_id":"levelo_inurba_marseille","lat":43.284215,"lon":5.349847,"is_reserved":false,"is_disabled":false,"rental_uris":{"android":"levelo://app?vid=75552eb5-38a2-43ca-9291-cacb859b6f73","ios":"levelo://app?vid=75552eb5-38a2-43ca-9291-cacb859b6f73"},"vehicle_type_id":"4","last_reported":1761243320,"current_range_meters":18000,"station_id":"","pricing_plan_id":"cebpf4jnsgd1na2vs0mg"},{"bike_id":"4bb99ab7-f9cd-4fa5-b387-e243bec85e12","system_id":"levelo_inurba_marseille","lat":43.237793,"lon":5.366347,"is_reserved":false,"is_disabled":false,"rental_uris":{"android":"levelo://app?vid=4bb99ab7-f9cd-4fa5-b387-e243bec85e12","ios":"levelo://app?vid=4bb99ab7-f9cd-4fa5-b387-e243bec85e12"},"vehicle_type_id":"4","last_reported":1761243320,"current_range_meters":18000,"station_id":"st_d3nk18o9ro0c73en2l3g","pricing_plan_id":"cebpf4jnsgd1na2vs0mg"},{"bike_id":"2a38ccd6-cd1f-4334-ba24-1d75d0150e1d","system_id":"levelo_inurba_marseille","lat":43.31123,"lon":5.37768,"is_reserved":false,"is_disabled":false,"rental_uris":{"android":"levelo://app?vid=2a38ccd6-cd1f-4334-ba24-1d75d0150e1d","ios":"levelo://app?vid=2a38ccd6-cd1f-4334-ba24-1d75d0150e1d"},"vehicle_type_id":"4","last_reported":1761243320,"current_range_meters":18000,"station_id":"ce4bgt92rcd13ifvqcg0","pricing_plan_id":"cebpf4jnsgd1na2vs0mg"},{"bike_id":"ec9665a2-32ab-42b2-9bdf-cf94d158a9c2","system_id":"levelo_inurba_marseille","lat":43.3015,"lon":5.3696,"is_reserved":false,"is_disabled":false,"rental_uris":{"android":"levelo://app?vid=ec9665a2-32ab-42b2-9bdf-cf94d158a9c2","ios":"levelo://app?vid=ec9665a2-32ab-42b2-9bdf-cf94d158a9c2"},"vehicle_type_id":"4","last_reported":1761243320,"current_range_meters":18800,"station_id":"","pricing_plan_id":"cebpf4jnsgd1na2vs0mg"},{"bike_id":"a0a3e2e6-f6d9-4e27-a510-a2aa84830e78","system_id":"levelo_inurba_marseille","lat":43.30863,"lon":5.37834,"is_reserved":false,"is_disabled":false,"rental_uris":{"android":"levelo://app?vid=a0a3e2e6-f6d9-4e27-a510-a2aa84830e78","ios":"levelo://app?vid=a0a3e2e6-f6d9-4e27-a510-a2aa84830e78"},"vehicle_type_id":"4","last_reported":1761243320,"current_range_meters":18800,"station_id":"","pricing_plan_id":"cebpf4jnsgd1na2vs0mg"},{"bike_id":"47f09c0c-92a9-44eb-a23c-69934b3ff134","system_id":"levelo_inurba_marseille","lat":43.30112,"lon":5.43126,"is_reserved":false,"is_disabled":false,"rental_uris":{"android":"levelo://app?vid=47f09c0c-92a9-44eb-a23c-69934b3ff134","ios":"levelo://app?vid=47f09c0c-92a9-44eb-a23c-69934b3ff134"},"vehicle_type_id":"4","last_reported":1761243320,"current_range_meters":18800,"station_id":"st_d3js3co5814s73ftftug","pricing_plan_id":"cebpf4jnsgd1na2vs0mg"},{"bike_id":"77124793-d73a-43ea-8840-1a1b5476fa23","system_id":"levelo_inurba_marseille","lat":43.3104,"lon":5.38064,"is_reserved":false,"is_disabled":false,"rental_uris":{"android":"levelo://app?vid=77124793-d73a-43ea-8840-1a1b5476fa23","ios":"levelo://app?vid=77124793-d73a-43ea-8840-1a1b5476fa23"},"vehicle_type_id":"4","last_reported":1761243320,"current_range_meters":18800,"station_id":"","pricing_plan_id":"cebpf4jnsgd1na2vs0mg"},{"bike_id":"f7ad8d92-1eb3-4374-ae58-2d0d64fb53e4","system_id":"levelo_inurba_marseille","lat":43.29038,"lon":5.38656,"is_reserved":false,"is_disabled":false,"rental_uris":{"android":"levelo://app?vid=f7ad8d92-1eb3-4374-ae58-2d0d64fb53e4","ios":"levelo://app?vid=f7ad8d92-1eb3-4374-ae58-2d0d64fb53e4"},"vehicle_type_id":"4","last_reported":1761243320,"current_range_meters":19200,"station_id":"ce4bh4p2rcd13ifvqe0g","pricing_plan_id":"cebpf4jnsgd1na2vs0mg"},{"bike_id":"2814a2b6-b7e0-492e-be08-cf82139ea14c","system_id":"levelo_inurba_marseille","lat":43.29263,"lon":5.38445,"is_reserved":false,"is_disabled":false,"rental_uris":{"android":"levelo://app?vid=2814a2b6-b7e0-492e-be08-cf82139ea14c","ios":"levelo://app?vid=2814a2b6-b7e0-492e-be08-cf82139ea14c"},"vehicle_type_id":"4","last_reported":1761243320,"current_range_meters":19200,"station_id":"ce4bh692rcd13ifvqea0","pricing_plan_id":"cebpf4jnsgd1na2vs0mg"},{"bike_id":"26a21c6c-886c-451a-b966-9f898f9458ba","system_id":"levelo_inurba_marseille","lat":43.27939,"lon":5.41042,"is_reserved":false,"is_disabled":false,"rental_uris":{"android":"levelo://app?vid=26a21c6c-886c-451a-b966-9f898f9458ba","ios":"levelo://app?vid=26a21c6c-886c-451a-b966-9f898f9458ba"},"vehicle_type_id":"4","last_reported":1761243320,"current_range_meters":19200,"station_id":"ce4bhnp2rcd13ifvqh0g","pricing_plan_id":"cebpf4jnsgd1na2vs0mg"},{"bike_id":"0379e96c-ae23-4979-afff-c5cfebf27ae7","system_id":"levelo_inurba_marseille","lat":43.31122,"lon":5.37767,"is_reserved":false,"is_disabled":false,"rental_uris":{"android":"levelo://app?vid=0379e96c-ae23-4979-afff-c5cfebf27ae7","ios":"levelo://app?vid=0379e96c-ae23-4979-afff-c5cfebf27ae7"},"vehicle_type_id":"4","last_reported":1761243320,"current_range_meters":19200,"station_id":"ce4bgt92rcd13ifvqcg0","pricing_plan_id":"cebpf4jnsgd1na2vs0mg"},{"bike_id":"3ca631e8-ee58-4447-9ffa-10b8c34e15a6","system_id":"levelo_inurba_marseille","lat":43.31168,"lon":5.38727,"is_reserved":false,"is_disabled":false,"rental_uris":{"android":"levelo://app?vid=3ca631e8-ee58-4447-9ffa-10b8c34e15a6","ios":"levelo://app?vid=3ca631e8-ee58-4447-9ffa-10b8c34e15a6"},"vehicle_type_id":"4","last_reported":1761243320,"current_range_meters":19200,"station_id":"ce4bgv12rcd13ifvqcp0","pricing_plan_id":"cebpf4jnsgd1na2vs0mg"},{"bike_id":"d4fc2745-e69b-4214-a92e-cb70b94c3578","system_id":"levelo_inurba_marseille","lat":43.28363,"lon":5.38098,"is_reserved":false,"is_disabled":false,"rental_uris":{"android":"levelo://app?vid=d4fc2745-e69b-4214-a92e-cb70b94c3578","ios":"levelo://app?vid=d4fc2745-e69b-4214-a92e-cb70b94c3578"},"vehicle_type_id":"4","last_reported":1761243320,"current_range_meters":19600,"station_id":"ce4bh412rcd13ifvqdr0","pricing_plan_id":"cebpf4jnsgd1na2vs0mg"},{"bike_id":"bc87dea4-79a3-4ed3-aacd-3d26accd672a","system_id":"levelo_inurba_marseille","lat":43.29041,"lon":5.38648,"is_reserved":false,"is_disabled":false,"rental_uris":{"android":"levelo://app?vid=bc87dea4-79a3-4ed3-aacd-3d26accd672a","ios":"levelo://app?vid=bc87dea4-79a3-4ed3-aacd-3d26accd672a"},"vehicle_type_id":"4","last_reported":1761243320,"current_range_meters":19600,"station_id":"ce4bh4p2rcd13ifvqe0g","pricing_plan_id":"cebpf4jnsgd1na2vs0mg"},{"bike_id":"bc18986f-720e-4fb1-8991-ac16da488f75","system_id":"levelo_inurba_marseille","lat":43.27912,"lon":5.396,"is_reserved":false,"is_disabled":false,"rental_uris":{"android":"levelo://app?vid=bc18986f-720e-4fb1-8991-ac16da488f75","ios":"levelo://app?vid=bc18986f-720e-4fb1-8991-ac16da488f75"},"vehicle_type_id":"4","last_reported":1761243320,"current_range_meters":19600,"station_id":"ce4bhf92rcd13ifvqf40","pricing_plan_id":"cebpf4jnsgd1na2vs0mg"},{"bike_id":"249615da-bae2-4bb3-9506-b338b9fb85b7","system_id":"levelo_inurba_marseille","lat":43.297065,"lon":5.376926,"is_reserved":false,"is_disabled":true,"rental_uris":{"android":"levelo://app?vid=249615da-bae2-4bb3-9506-b338b9fb85b7","ios":"levelo://app?vid=249615da-bae2-4bb3-9506-b338b9fb85b7"},"vehicle_type_id":"4","last_reported":1761243320,"current_range_meters":19600,"station_id":"ce4bgkh2rcd13ifvqbl0","pricing_plan_id":"cebpf4jnsgd1na2vs0mg"},{"bike_id":"a460b3c6-e1f0-4f84-9e8a-93f485431aff","system_id":"levelo_inurba_marseille","lat":43.23961,"lon":5.36639,"is_reserved":false,"is_disabled":false,"rental_uris":{"android":"levelo://app?vid=a460b3c6-e1f0-4f84-9e8a-93f485431aff","ios":"levelo://app?vid=a460b3c6-e1f0-4f84-9e8a-93f485431aff"},"vehicle_type_id":"4","last_reported":1761243320,"current_range_meters":19600,"station_id":"ce4bhi12rcd13ifvqfp0","pricing_plan_id":"cebpf4jnsgd1na2vs0mg"},{"bike_id":"e3d85fee-7a8a-42c9-ac54-709a27c32d03","system_id":"levelo_inurba_marseille","lat":43.31131,"lon":5.37728,"is_reserved":false,"is_disabled":false,"rental_uris":{"android":"levelo://app?vid=e3d85fee-7a8a-42c9-ac54-709a27c32d03","ios":"levelo://app?vid=e3d85fee-7a8a-42c9-ac54-709a27c32d03"},"vehicle_type_id":"4","last_reported":1761243320,"current_range_meters":19600,"station_id":"ce4bgt92rcd13ifvqcg0","pricing_plan_id":"cebpf4jnsgd1na2vs0mg"},{"bike_id":"1e04bd5e-dba9-4c39-b5e3-df33312b1ae1","system_id":"levelo_inurba_marseille","lat":43.270632,"lon":5.383129,"is_reserved":false,"is_disabled":false,"rental_uris":{"android":"levelo://app?vid=1e04bd5e-dba9-4c39-b5e3-df33312b1ae1","ios":"levelo://app?vid=1e04bd5e-dba9-4c39-b5e3-df33312b1ae1"},"vehicle_type_id":"4","last_reported":1761243320,"current_range_meters":19600,"station_id":"st_d3n2fo6cfp8s73cte1j0","pricing_plan_id":"cebpf4jnsgd1na2vs0mg"},{"bike_id":"e4d9d28d-de5d-4eba-b45f-0315c6967297","system_id":"levelo_inurba_marseille","lat":43.25095,"lon":5.39528,"is_reserved":false,"is_disabled":false,"rental_uris":{"android":"levelo://app?vid=e4d9d28d-de5d-4eba-b45f-0315c6967297","ios":"levelo://app?vid=e4d9d28d-de5d-4eba-b45f-0315c6967297"},"vehicle_type_id":"4","last_reported":1761243320,"current_range_meters":19600,"station_id":"ce4bhm12rcd13ifvqgkg","pricing_plan_id":"cebpf4jnsgd1na2vs0mg"},