{"last_updated":1712401494,"ttl":30,"version":"2.2","data":{"bikes":[{"bike_id":"0ba17641-348e-4ec3-bca8-afda4a042f6e","system_id":"levelo_inurba_marseille","lat":43.309076,"lon":5.368465,"is_reserved":false,"is_disabled":false,"rental_uris":{"android":"levelo://app?vid=0ba17641-348e-4ec3-bca8-afda4a042f6e","ios":"levelo://app?vid=0ba17641-348e-4ec3-bca8-afda4a042f6e"},"vehicle_type_id":"4","last_reported":1712401494,"current_range_meters":31600,"station_id":"ce4bgn92rcd13ifvqbvg","pricing_plan_id":"cebpf4jnsgd1na2vs0mg"},{"bike_id":"30b5b8fa-b741-4090-b373-667e12344179","system_id":"levelo_inurba_marseille","lat":43.309076,"lon":5.368465,"is_reserved":false,"is_disabled":false,"rental_uris":{"android":"levelo://app?vid=30b5b8fa-b741-4090-b373-667e12344179","ios":"levelo://app?vid=30b5b8fa-b741-4090-b373-667e12344179"},"vehicle_type_id":"4","last_reported":1712401494,"current_range_meters":23600,"station_id":"ce4bgn92rcd13ifvqbvg","pricing_plan_id":"cebpf4jnsgd1na2vs0mg"},{"bike_id":"161633fe-761e-403d-819c-84610ca9b5d6","system_id":"levelo_inurba_marseille","lat":43.309076,"lon":5.368465,"is_reserved":false,"is_disabled":false,"rental_uris":{"android":"levelo://app?vid=161633fe-761e-403d-819c-84610ca9b5d6","ios":"levelo://app?vid=161633fe-761e-403d-819c-84610ca9b5d6"},"vehicle_type_id":"4","last_reported":1712401494,"current_range_meters":26400,"station_id":"ce4bgn92rcd13ifvqbvg","pricing_plan_id":"cebpf4jnsgd1na2vs0mg"},{"bike_id":"acbcf99e-1606-4b49-8bd7-8489fa3fabf0","system_id":"levelo_inurba_marseille","lat":43.303002,"lon":5.392142,"is_reserved":false,"is_disabled":false,"rental_uris":{"android":"levelo://app?vid=acbcf99e-1606-4b49-8bd7-8489fa3fabf0","ios":"levelo://app?vid=acbcf99e-1606-4b49-8bd7-8489fa3fabf0"},"vehicle_type_id":"4","last_reported":1712401494,"current_range_meters":23600,"station_id":"ce4bgkh2rcd13ifvqbk0","pricing_plan_id":"cebpf4jnsgd1na2vs0mg"},{"bike_id":"26569822-05f5-4c3f-b92d-e4d298c7baa6","system_id":"levelo_inurba_marseille","lat":43.314811,"lon":5.373103,"is_reserved":false,"is_disabled":false,"rental_uris":{"android":"levelo://app?vid=26569822-05f5-4c3f-b92d-e4d298c7baa6","ios":"levelo://app?vid=26569822-05f5-4c3f-b92d-e4d298c7baa6"},"vehicle_type_id":"4","last_reported":1712401494,"current_range_meters":12400,"station_id":"ce4bgt12rcd13ifvqcd0","pricing_plan_id":"cebpf4jnsgd1na2vs0mg"},{"bike_id":"66ef6d79-3764-4411-b9d1-49024bf2e59a","system_id":"levelo_inurba_marseille","lat":43.314811,"lon":5.373103,"is_reserved":false,"is_disabled":false,"rental_uris":{"android":"levelo://app?vid=66ef6d79-3764-4411-b9d1-49024bf2e59a","ios":"levelo://app?vid=66ef6d79-3764-4411-b9d1-49024bf2e59a"},"vehicle_type_id":"4","last_reported":1712401494,"current_range_meters":22800,"station_id":"ce4bgt12rcd13ifvqcd0","pricing_plan_id":"cebpf4jnsgd1na2vs0mg"},{"bike_id":"cb251e2b-19a2-4876-b80e-355f7cc826e8","system_id":"levelo_inurba_marseille","lat":43.309039,"lon":5.371797,"is_reserved":false,"is_disabled":false,"rental_uris":{"android":"levelo://app?vid=cb251e2b-19a2-4876-b80e-355f7cc826e8","ios":"levelo://app?vid=cb251e2b-19a2-4876-b80e-355f7cc826e8"},"vehicle_type_id":"4","last_reported":1712401494,"current_range_meters":22000,"station_id":"ce4bguh2rcd13ifvqckg","pricing_plan_id":"cebpf4jnsgd1na2vs0mg"},{"bike_id":"32501772-08b3-4849-b47e-f9fd779c8c41","system_id":"levelo_inurba_marseille","lat":43.30537,"lon":5.367345,"is_reserved":false,"is_disabled":false,"rental_uris":{"android":"levelo://app?vid=32501772-08b3-4849-b47e-f9fd779c8c41","ios":"levelo://app?vid=32501772-08b3-4849-b47e-f9fd779c8c41"},"vehicle_type_id":"4","last_reported":1712401494,"current_range_meters":7600,"station_id":"ce4bgrp2rcd13ifvqc9g","pricing_plan_id":"cebpf4jnsgd1na2vs0mg"},{"bike_id":"ddc82b63-c88a-4bd0-ba87-e15597098ffe","system_id":"levelo_inurba_marseille","lat":43.305712,"lon":5.365641,"is_reserved":false,"is_disabled":false,"rental_uris":{"android":"levelo://app?vid=ddc82b63-c88a-4bd0-ba87-e15597098ffe","ios":"levelo://app?vid=ddc82b63-c88a-4bd0-ba87-e15597098ffe"},"vehicle_type_id":"4","last_reported":1712401494,"current_range_meters":18000,"station_id":"ce4bgs12rcd13ifvqcag","pricing_plan_id":"cebpf4jnsgd1na2vs0mg"},{"bike_id":"61dcd674-0b2e-4bf3-a143-472d95e9d6fa","system_id":"levelo_inurba_marseille","lat":43.305712,"lon":5.365641,"is_reserved":false,"is_disabled":false,"rental_uris":{"android":"levelo://app?vid=61dcd674-0b2e-4bf3-a143-472d95e9d6fa","ios":"levelo://app?vid=61dcd674-0b2e-4bf3-a143-472d95e9d6fa"},"vehicle_type_id":"4","last_reported":1712401494,"current_range_meters":23200,"station_id":"ce4bgs12rcd13ifvqcag","pricing_plan_id":"cebpf4jnsgd1na2vs0mg"},{"bike_id":"16f92d16-5070-4569-9366-0e269600e6a6","system_id":"levelo_inurba_marseille","lat":43.30537,"lon":5.367345,"is_reserved":false,"is_disabled":false,"rental_uris":{"android":"levelo://app?vid=16f92d16-5070-4569-9366-0e269600e6a6","ios":"levelo://app?vid=16f92d16-5070-4569-9366-0e269600e6a6"},"vehicle_type_id":"4","last_reported":1712401494,"current_range_meters":18800,"station_id":"ce4bgrp2rcd13ifvqc9g","pricing_plan_id":"cebpf4jnsgd1na2vs0mg"},{"bike_id":"0308ed3f-7074-4b7e-ae9a-a2d55ddc8caa","system_id":"levelo_inurba_marseille","lat":43.231562,"lon":5.436933,"is_reserved":false,"is_disabled":false,"rental_uris":{"android":"levelo://app?vid=0308ed3f-7074-4b7e-ae9a-a2d55ddc8caa","ios":"levelo://app?vid=0308ed3f-7074-4b7e-ae9a-a2d55ddc8caa"},"vehicle_type_id":"4","last_reported":1712401494,"current_range_meters":3600,"station_id":"ce4bhmp2rcd13ifvqgog","pricing_plan_id":"cebpf4jnsgd1na2vs0mg"},{"bike_id":"724cdab1-3ee3-4368-91c2-991301fadaa7","system_id":"levelo_inurba_marseille","lat":43.3055,"lon":5.36522,"is_reserved":false,"is_disabled":false,"rental_uris":{"android":"levelo://app?vid=724cdab1-3ee3-4368-91c2-991301fadaa7","ios":"levelo://app?vid=724cdab1-3ee3-4368-91c2-991301fadaa7"},"vehicle_type_id":"4","last_reported":1712401494,"current_range_meters":16800,"station_id":"ce4bgs12rcd13ifvqcag","pricing_plan_id":"cebpf4jnsgd1na2vs0mg"},{"bike_id":"673f0179-9581-40f6-a667-a3172f99006f","system_id":"levelo_inurba_marseille","lat":43.305714,"lon":5.365633,"is_reserved":false,"is_disabled":false,"rental_uris":{"android":"levelo://app?vid=673f0179-9581-40f6-a667-a3172f99006f","ios":"levelo://app?vid=673f0179-9581-40f6-a667-a3172f99006f"},"vehicle_type_id":"4","last_reported":1712401494,"current_range_meters":12400,"station_id":"ce4bgs12rcd13ifvqcag","pricing_plan_id":"cebpf4jnsgd1na2vs0mg"},{"bike_id":"200a97e0-7b95-4a3c-87db-acf87836cf94","system_id":"levelo_inurba_marseille","lat":43.305714,"lon":5.365633,"is_reserved":false,"is_disabled":false,"rental_uris":{"android":"levelo://app?vid=200a97e0-7b95-4a3c-87db-acf87836cf94","ios":"levelo://app?vid=200a97e0-7b95-4a3c-87db-acf87836cf94"},"vehicle_type_id":"4","last_reported":1712401494,"current_range_meters":20400,"station_id":"ce4bgs12rcd13ifvqcag","pricing_plan_id":"cebpf4jnsgd1na2vs0mg"},{"bike_id":"096addd6-6a57-46c8-8e76-d49f86903e8b","system_id":"levelo_inurba_marseille","lat":43.30537,"lon":5.367345,"is_reserved":false,"is_disabled":false,"rental_uris":{"android":"levelo://app?vid=096addd6-6a57-46c8-8e76-d49f86903e8b","ios":"levelo://app?vid=096addd6-6a57-46c8-8e76-d49f86903e8b"},"vehicle_type_id":"4","last_reported":1712401494,"current_range_meters":25600,"station_id":"ce4bgrp2rcd13ifvqc9g","pricing_plan_id":"cebpf4jnsgd1na2vs0mg"},{"bike_id":"f111b393-7c02-482d-aefc-f7a51ce4aba1","system_id":"levelo_inurba_marseille","lat":43.293009,"lon":5.374584,"is_reserved":false,"is_disabled":false,"rental_uris":{"android":"levelo://app?vid=f111b393-7c02-482d-aefc-f7a51ce4aba1","ios":"levelo://app?vid=f111b393-7c02-482d-aefc-f7a51ce4aba1"},"vehicle_type_id":"4","last_reported":1712401494,"current_range_meters":22400,"station_id":"ce4bgi12rcd13ifvqb70","pricing_plan_id":"cebpf4jnsgd1na2vs0mg"},{"bike_id":"e462ef97-07cf-4637-ac63-fa0bd8c8fcfa","system_id":"levelo_inurba_marseille","lat":43.305714,"lon":5.365633,"is_reserved":false,"is_disabled":false,"rental_uris":{"android":"levelo://app?vid=e462ef97-07cf-4637-ac63-fa0bd8c8fcfa","ios":"levelo://app?vid=e462ef97-07cf-4637-ac63-fa0bd8c8fcfa"},"vehicle_type_id":"4","last_reported":1712401494,"current_range_meters":14400,"station_id":"ce4bgs12rcd13ifvqcag","pricing_plan_id":"cebpf4jnsgd1na2vs0mg"},{"bike_id":"5ea2adc8-2a28-437d-a070-f46abf891c19","system_id":"levelo_inurba_marseille","lat":43.305714,"lon":5.365633,"is_reserved":false,"is_disabled":false,"rental_uris":{"android":"levelo://app?vid=5ea2adc8-2a28-437d-a070-f46abf891c19","ios":"levelo://app?vid=5ea2adc8-2a28-437d-a070-f46abf891c19"},"vehicle_type_id":"4","last_reported":1712401494,"current_range_meters":21600,"station_id":"ce4bgs12rcd13ifvqcag","pricing_plan_id":"cebpf4jnsgd1na2vs0mg"},{"bike_id":"e9467aad-b7a5-4f67-a9d4-82a1ac17533c","system_id":"levelo_inurba_marseille","lat":43.305706,"lon":5.365654,"is_reserved":false,"is_disabled":false,"rental_uris":{"android":"levelo://app?vid=e9467aad-b7a5-4f67-a9d4-82a1ac17533c","ios":"levelo://app?vid=e9467aad-b7a5-4f67-a9d4-82a1ac17533c"},"vehicle_type_id":"4","last_reported":1712401494,"current_range_meters":31200,"station_id":"ce4bgs12rcd13ifvqcag","pricing_plan_id":"cebpf4jnsgd1na2vs0mg"},{"bike_id":"8790fc84-e63d-4f32-bd3b-f276645c4baa","system_id":"levelo_inurba_marseille","lat":43.305714,"lon":5.365633,"is_reserved":false,"is_disabled":false,"rental_uris":{"android":"levelo://app?vid=8790fc84-e63d-4f32-bd3b-f276645c4baa","ios":"levelo://app?vid=8790fc84-e63d-4f32-bd3b-f276645c4baa"},"vehicle_type_id":"4","last_reported":1712401494,"current_range_meters":24000,"station_id":"ce4bgs12rcd13ifvqcag","pricing_plan_id":"cebpf4jnsgd1na2vs0mg"},{"bike_id":"93089449-a899-4c72-b97a-d5e88fe3ea36","system_id":"levelo_inurba_marseille","lat":43.305706,"lon":5.365654,"is_reserved":false,"is_disabled":false,"rental_uris":{"android":"levelo://app?vid=93089449-a899-4c72-b97a-d5e88fe3ea36","ios":"levelo://app?vid=93089449-a899-4c72-b97a-d5e88fe3ea36"},"vehicle_type_id":"4","last_reported":1712401494,"current_range_meters":31600,"station_id":"ce4bgs12rcd13ifvqcag","pricing_plan_id":"cebpf4jnsgd1na2vs0mg"},{"bike_id":"29ce407c-eeca-4e37-8df3-9672be9a030a","system_id":"levelo_inurba_marseille","lat":43.305706,"lon":5.365654,"is_reserved":false,"is_disabled":false,"rental_uris":{"android":"levelo://app?vid=29ce407c-eeca-4e37-8df3-9672be9a030a","ios":"levelo://app?vid=29ce407c-eeca-4e37-8df3-9672be9a030a"},"vehicle_type_id":"4","last_reported":1712401494,"current_range_meters":26400,"station_id":"ce4bgs12rcd13ifvqcag","pricing_plan_id":"cebpf4jnsgd1na2vs0mg"},{"bike_id":"ca662d4a-452b-4a5f-b995-926ed701c0f7","system_id":"levelo_inurba_marseille","lat":43.305706,"lon":5.365654,"is_reserved":false,"is_disabled":false,"rental_uris":{"android":"levelo://app?vid=ca662d4a-452b-4a5f-b995-926ed701c0f7","ios":"levelo://app?vid=ca662d4a-452b-4a5f-b995-926ed701c0f7"},"vehicle_type_id":"4","last_reported":1712401494,"current_range_meters":29200,"station_id":"ce4bgs12rcd13ifvqcag","pricing_plan_id":"cebpf4jnsgd1na2vs0mg"},{"bike_id":"467be5f5-274a-417c-802d-df74a1ccc736","system_id":"levelo_inurba_marseille","lat":43.305706,"lon":5.365654,"is_reserved":false,"is_disabled":false,"rental_uris":{"android":"levelo://app?vid=467be5f5-274a-417c-802d-df74a1ccc736","ios":"levelo://app?vid=467be5f5-274a-417c-802d-df74a1ccc736"},"vehicle_type_id":"4","last_reported":1712401494,"current_range_meters":32000,"station_id":"ce4bgs12rcd13ifvqcag","pricing_plan_id":"cebpf4jnsgd1na2vs0mg"},{"bike_id":"78767a96-3a75-4b36-b7a0-5680fa8a01b1","system_id":"levelo_inurba_marseille","lat":43.305706,"lon":5.365654,"is_reserved":false,"is_disabled":false,"rental_uris":{"android":"levelo://app?vid=78767a96-3a75-4b36-b7a0-5680fa8a01b1","ios":"levelo://app?vid=78767a96-3a75-4b36-b7a0-5680fa8a01b1"},"vehicle_type_id":"4","last_reported":1712401494,"current_range_meters":28800,"station_id":"ce4bgs12rcd13ifvqcag","pricing_plan_id":"cebpf4jnsgd1na2vs0mg"},{"bike_id":"57be9166-2df2-4c6a-bf98-6b27a8d513bc","system_id":"levelo_inurba_marseille","lat":43.305307,"lon":5.36541,"is_reserved":false,"is_disabled":false,"rental_uris":{"android":"levelo://app?vid=57be9166-2df2-4c6a-bf98-6b27a8d513bc","ios":"levelo://app?vid=57be9166-2df2-4c6a-bf98-6b27a8d513bc"},"vehicle_type_id":"4","last_reported":1712401494,"current_range_meters":5600,"station_id":"ce4bgs12rcd13ifvqcag","pricing_plan_id":"cebpf4jnsgd1na2vs0mg"},{"bike_id":"01eb953a-1eaf-4419-81ae-ffa3eafd9370","system_id":"levelo_inurba_marseille","lat":43.305714,"lon":5.365633,"is_reserved":false,"is_disabled":false,"rental_uris":{"android":"levelo://app?vid=01eb953a-1eaf-4419-81ae-ffa3eafd9370","ios":"levelo://app?vid=01eb953a-1eaf-4419-81ae-ffa3eafd9370"},"vehicle_type_id":"4","last_reported":1712401494,"current_range_meters":25200,"station_id":"ce4bgs12rcd13ifvqcag","pricing_plan_id":"cebpf4jnsgd1na2vs0mg"},{"bike_id":"8541281b-96c8-4779-8625-ea2030323691","system_id":"levelo_inurba_marseille","lat":43.30537,"lon":5.367345,"is_reserved":false,"is_disabled":false,"rental_uris":{"android":"levelo://app?vid=8541281b-96c8-4779-8625-ea2030323691","ios":"levelo://app?vid=8541281b-96c8-4779-8625-ea2030323691"},"vehicle_type_id":"4","last_reported":1712401494,"current_range_meters":2400,"station_id":"ce4bgrp2rcd13ifvqc9g","pricing_plan_id":"cebpf4jnsgd1na2vs0mg"},{"bike_id":"7943a3cd-487f-4538-8bd0-0d4d6d6997ae","system_id":"levelo_inurba_marseille","lat":43.305989,"lon":5.37225,"is_reserved":false,"is_disabled":false,"rental_uris":{"android":"levelo://app?vid=7943a3cd-487f-4538-8bd0-0d4d6d6997ae","ios":"levelo://app?vid=7943a3cd-487f-4538-8bd0-0d4d6d6997ae"},"vehicle_type_id":"4","last_reported":1712401494,"current_range_meters":28400,"station_id":"ce4bgqh2rcd13ifvqc4g","pricing_plan_id":"cebpf4jnsgd1na2vs0mg"},{"bike_id":"1f2f4625-4cb0-4555-b382-4d2eaf557c8f","system_id":"levelo_inurba_marseille","lat":43.30596,"lon":5.37209,"is_reserved":false,"is_disabled":false,"rental_uris":{"android":"levelo://app?vid=1f2f4625-4cb0-4555-b382-4d2eaf557c8f","ios":"levelo://app?vid=1f2f4625-4cb0-4555-b382-4d2eaf557c8f"},"vehicle_type_id":"4","last_reported":1712401494,"current_range_meters":800,"station_id":"ce4bgqh2rcd13ifvqc4g","pricing_plan_id":"cebpf4jnsgd1na2vs0mg"},{"bike_id":"cfa8a14b-f239-4b23-b98b-83b3ff73a876","system_id":"levelo_inurba_marseille","lat":43.305989,"lon":5.37225,"is_reserved":false,"is_disabled":false,"rental_uris":{"android":"levelo://app?vid=cfa8a14b-f239-4b23-b98b-83b3ff73a876","ios":"levelo://app?vid=cfa8a14b-f239-4b23-b98b-83b3ff73a876"},"vehicle_type_id":"4","last_reported":1712401494,"current_range_meters":1200,"station_id":"ce4bgqh2rcd13ifvqc4g","pricing_plan_id":"cebpf4jnsgd1na2vs0mg"},{"bike_id":"984581c8-64b4-4da3-b6e4-4f49f450329b","system_id":"levelo_inurba_marseille","lat":43.311125,"lon":5.377624,"is_reserved":false,"is_disabled":false,"rental_uris":{"android":"levelo://app?vid=984581c8-64b4-4da3-b6e4-4f49f450329b","ios":"levelo://app?vid=984581c8-64b4-4da3-b6e4-4f49f450329b"},"vehicle_type_id":"4","last_reported":1712401494,"current_range_meters":20000,"station_id":"ce4bgt92rcd13ifvqcg0","pricing_plan_id":"cebpf4jnsgd1na2vs0mg"},{"bike_id":"4add57ec-eb4a-4591-a8c5-c74ce50a1412","system_id":"levelo_inurba_marseille","lat":43.311125,"lon":5.377624,"is_reserved":false,"is_disabled":false,"rental_uris":{"android":"levelo://app?vid=4add57ec-eb4a-4591-a8c5-c74ce50a1412","ios":"levelo://app?vid=4add57ec-eb4a-4591-a8c5-c74ce50a1412"},"vehicle_type_id":"4","last_reported":1712401494,"current_range_meters":7600,"station_id":"ce4bgt92rcd13ifvqcg0","pricing_plan_id":"cebpf4jnsgd1na2vs0mg"},{"bike_id":"081cd6b2-dc88-465f-be93-020375ead1c4","system_id":"levelo_inurba_marseille","lat":43.314811,"lon":5.373103,"is_reserved":false,"is_disabled":false,"rental_uris":{"android":"levelo://app?vid=081cd6b2-dc88-465f-be93-020375ead1c4","ios":"levelo://app?vid=081cd6b2-dc88-465f-be93-020375ead1c4"},"vehicle_type_id":"4","last_reported":1712401494,"current_range_meters":11200,"station_id":"ce4bgt12rcd13ifvqcd0","pricing_plan_id":"cebpf4jnsgd1na2vs0mg"},{"bike_id":"10b6e677-6f10-4220-9cdc-488f8a849cab","system_id":"levelo_inurba_marseille","lat":43.311512,"lon":5.37843,"is_reserved":false,"is_disabled":false,"rental_uris":{"android":"levelo://app?vid=10b6e677-6f10-4220-9cdc-488f8a849cab","ios":"levelo://app?vid=10b6e677-6f10-4220-9cdc-488f8a849cab"},"vehicle_type_id":"4","last_reported":1712401494,"current_range_meters":0,"station_id":"","pricing_plan_id":"cebpf4jnsgd1na2vs0mg"},{"bike_id":"bbfed310-f5ca-41c8-bf3a-f83cd6959697","system_id":"levelo_inurba_marseille","lat":43.313254,"lon":5.37881,"is_reserved":false,"is_disabled":false,"rental_uris":{"android":"levelo://app?vid=bbfed310-f5ca-41c8-bf3a-f83cd6959697","ios":"levelo://app?vid=bbfed310-f5ca-41c8-bf3a-f83cd6959697"},"vehicle_type_id":"4","last_reported":1712401494,"current_range_meters":1600,"station_id":"","pricing_plan_id":"cebpf4jnsgd1na2vs0mg"},{"bike_id":"b166b984-b043-4ca0-b724-9c2b8da5f941","system_id":"levelo_inurba_marseille","lat":43.317075,"lon":5.377367,"is_reserved":false,"is_disabled":false,"rental_uris":{"android":"levelo://app?vid=b166b984-b043-4ca0-b724-9c2b8da5f941","ios":"levelo://app?vid=b166b984-b043-4ca0-b724-9c2b8da5f941"},"vehicle_type_id":"4","last_reported":1712401494,"current_range_meters":22800,"station_id":"ce4bgth2rcd13ifvqch0","pricing_plan_id":"cebpf4jnsgd1na2vs0mg"},{"bike_id":"62682c29-d3eb-4266-8b53-3b5eafeebf1f","system_id":"levelo_inurba_marseille","lat":43.30339,"lon":5.36522,"is_reserved":false,"is_disabled":false,"rental_uris":{"android":"levelo://app?vid=62682c29-d3eb-4266-8b53-3b5eafeebf1f","ios":"levelo://app?vid=62682c29-d3eb-4266-8b53-3b5eafeebf1f"},"vehicle_type_id":"4","last_reported":1712401494,"current_range_meters":8000,"station_id":"","pricing_plan_id":"cebpf4jnsgd1na2vs0mg"},{"bike_id":"bb92397a-5e1f-4b4e-a17c-8b228f2bf11b","system_id":"levelo_inurba_marseille","lat":43.315289,"lon":5.380349,"is_reserved":false,"is_disabled":false,"rental_uris":{"android":"levelo://app?vid=bb92397a-5e1f-4b4e-a17c-8b228f2bf11b","ios":"levelo://app?vid=bb92397a-5e1f-4b4e-a17c-8b228f2bf11b"},"vehicle_type_id":"4","last_reported":1712401494,"current_range_meters":26800,"station_id":"ce4bhsp2rcd13ifvqi50","pricing_plan_id":"cebpf4jnsgd1na2vs0mg"},{"bike_id":"813dee79-49d8-41df-b645-1bd9d5e7d67f","system_id":"levelo_inurba_marseille","lat":43.301939,"lon":5.366286,"is_reserved":false,"is_disabled":false,"rental_uris":{"android":"levelo://app?vid=813dee79-49d8-41df-b645-1bd9d5e7d67f","ios":"levelo://app?vid=813dee79-49d8-41df-b645-1bd9d5e7d67f"},"vehicle_type_id":"4","last_reported":1712401494,"current_range_meters":0,"station_id":"ce4bgrh2rcd13ifvqc8g","pricing_plan_id":"cebpf4jnsgd1na2vs0mg"},{"bike_id":"7f325252-d2d3-4914-90cf-e45a402ca604","system_id":"levelo_inurba_marseille","lat":43.30811,"lon":5.38148,"is_reserved":false,"is_disabled":false,"rental_uris":{"android":"levelo://app?vid=7f325252-d2d3-4914-90cf-e45a402ca604","ios":"levelo://app?vid=7f325252-d2d3-4914-90cf-e45a402ca604"},"vehicle_type_id":"4","last_reported":1712401494,"current_range_meters":21600,"station_id":"ce4bgt12rcd13ifvqce0","pricing_plan_id":"cebpf4jnsgd1na2vs0mg"},{"bike_id":"b74864f1-f387-41ad-82d1-87bf6c8990b3","system_id":"levelo_inurba_marseille","lat":43.304606,"lon":5.379026,"is_reserved":false,"is_disabled":false,"rental_uris":{"android":"levelo://app?vid=b74864f1-f387-41ad-82d1-87bf6c8990b3","ios":"levelo://app?vid=b74864f1-f387-41ad-82d1-87bf6c8990b3"},"vehicle_type_id":"4","last_reported":1712401494,"current_range_meters":11200,"station_id":"ce4bgup2rcd13ifvqcn0","pricing_plan_id":"cebpf4jnsgd1na2vs0mg"},{"bike_id":"1720c08c-cacd-429c-8f17-40ba3502c2bd","system_id":"levelo_inurba_marseille","lat":43.304606,"lon":5.379026,"is_reserved":false,"is_disabled":false,"rental_uris":{"android":"levelo://app?vid=1720c08c-cacd-429c-8f17-40ba3502c2bd","ios":"levelo://app?vid=1720c08c-cacd-429c-8f17-40ba3502c2bd"},"vehicle_type_id":"4","last_reported":1712401494,"current_range_meters":12400,"station_id":"ce4bgup2rcd13ifvqcn0","pricing_plan_id":"cebpf4jnsgd1na2vs0mg"},{"bike_id":"94bf1e61-ace8-45da-be2c-5e340913e687","system_id":"levelo_inurba_marseille","lat":43.304606,"lon":5.379026,"is_reserved":false,"is_disabled":false,"rental_uris":{"android":"levelo://app?vid=94bf1e61-ace8-45da-be2c-5e340913e687","ios":"levelo://app?vid=94bf1e61-ace8-45da-be2c-5e340913e687"},"vehicle_type_id":"4","last_reported":1712401494,"current_range_meters":20400,"station_id":"ce4bgup2rcd13ifvqcn0","pricing_plan_id":"cebpf4jnsgd1na2vs0mg"},{"bike_id":"6972c663-ad7b-472c-8c00-a5b424f579fc","system_id":"levelo_inurba_marseille","lat":43.304606,"lon":5.379026,"is_reserved":false,"is_disabled":false,"rental_uris":{"android":"levelo://app?vid=6972c663-ad7b-472c-8c00-a5b424f579fc","ios":"levelo://app?vid=6972c663-ad7b-472c-8c00-a5b424f579fc"},"vehicle_type_id":"4","last_reported":1712401494,"current_range_meters":19600,"station_id":"ce4bgup2rcd13ifvqcn0","pricing_plan_id":"cebpf4jnsgd1na2vs0mg"},{"bike_id":"f158db84-931b-45d3-ba08-87c5dadd96ab","system_id":"levelo_inurba_marseille","lat":43.304606,"lon":5.379026,"is_reserved":false,"is_disabled":false,"rental_uris":{"android":"levelo://app?vid=f158db84-931b-45d3-ba08-87c5dadd96ab","ios":"levelo://app?vid=f158db84-931b-45d3-ba08-87c5dadd96ab"},"vehicle_type_id":"4","last_reported":1712401494,"current_range_meters":21600,"station_id":"ce4bgup2rcd13ifvqcn0","pricing_plan_id":"cebpf4jnsgd1na2vs0mg"},{"bike_id":"73b11d06-74b2-4ed9-9a5f-b0a9630492e1","system_id":"levelo_inurba_marseille","lat":43.304606,"lon":5.379026,"is_reserved":false,"is_disabled":false,"rental_uris":{"android":"levelo://app?vid=73b11d06-74b2-4ed9-9a5f-b0a9630492e1","ios":"levelo://app?vid=73b11d06-74b2-4ed9-9a5f-b0a9630492e1"},"vehicle_type_id":"4","last_reported":1712401494,"current_range_meters":22000,"station_id":"ce4bgup2rcd13ifvqcn0","pricing_plan_id":"cebpf4jnsgd1na2vs0mg"},{"bike_id":"1ff67eb8-7903-4470-b195-c19350f5f01d","system_id":"levelo_inurba_marseille","lat":43.304606,"lon":5.379026,"is_reserved":false,"is_disabled":false,"rental_uris":{"android":"levelo://app?vid=1ff67eb8-7903-4470-b195-c19350f5f01d","ios":"levelo://app?vid=1ff67eb8-7903-4470-b195-c19350f5f01d"},"vehicle_type_id":"4","last_reported":1712401494,"current_range_meters":20400,"station_id":"ce4bgup2rcd13ifvqcn0","pricing_plan_id":"cebpf4jnsgd1na2vs0mg"},{"bike_id":"0fb58e4e-4623-4cc1-a730-d3b2c339f4a1","system_id":"levelo_inurba_marseille","lat":43.304606,"lon":5.379026,"is_reserved":false,"is_disabled":false,"rental_uris":{"android":"levelo://app?vid=0fb58e4e-4623-4cc1-a730-d3b2c339f4a1","ios":"levelo://app?vid=0fb58e4e-4623-4cc1-a730-d3b2c339f4a1"},"vehicle_type_id":"4","last_reported":1712401494,"current_range_meters":22400,"station_id":"ce4bgup2rcd13ifvqcn0","pricing_plan_id":"cebpf4jnsgd1na2vs0mg"},{"bike_id":"a5147649-a3f1-4424-bff6-05564a33bfa4","system_id":"levelo_inurba_marseille","lat":43.304606,"lon":5.379026,"is_reserved":false,"is_disabled":false,"rental_uris":{"android":"levelo://app?vid=a5147649-a3f1-4424-bff6-05564a33bfa4","ios":"levelo://app?vid=a5147649-a3f1-4424-bff6-05564a33bfa4"},"vehicle_type_id":"4","last_reported":1712401494,"current_range_meters":27200,"station_id":"ce4bgup2rcd13ifvqcn0","pricing_plan_id":"cebpf4jnsgd1na2vs0mg"},{"bike_id":"baeba22e-8148-4db8-9b58-9bb8f2649397","system_id":"levelo_inurba_marseille","lat":43.30459,"lon":5.37908,"is_reserved":false,"is_disabled":false,"rental_uris":{"android":"levelo://app?vid=baeba22e-8148-4db8-9b58-9bb8f2649397","ios":"levelo://app?vid=baeba22e-8148-4db8-9b58-9bb8f2649397"},"vehicle_type_id":"4","last_reported":1712401494,"current_range_meters":22400,"station_id":"","pricing_plan_id":"cebpf4jnsgd1na2vs0mg"},{"bike_id":"57d5fee6-e761-428f-b4a5-52c57a0ad968","system_id":"levelo_inurba_marseille","lat":43.324771,"lon":5.36557,"is_reserved":false,"is_disabled":false,"rental_uris":{"android":"levelo://app?vid=57d5fee6-e761-428f-b4a5-52c57a0ad968","ios":"levelo://app?vid=57d5fee6-e761-428f-b4a5-52c57a0ad968"},"vehicle_type_id":"4","last_reported":1712401494,"current_range_meters":12400,"station_id":"ce4bhs12rcd13ifvqhvg","pricing_plan_id":"cebpf4jnsgd1na2vs0mg"},{"bike_id":"e6b64de8-ae44-45ca-ba9d-4fa18112c01c","system_id":"levelo_inurba_marseille","lat":43.324771,"lon":5.36557,"is_reserved":false,"is_disabled":false,"rental_uris":{"android":"levelo://app?vid=e6b64de8-ae44-45ca-ba9d-4fa18112c01c","ios":"levelo://app?vid=e6b64de8-ae44-45ca-ba9d-4fa18112c01c"},"vehicle_type_id":"4","last_reported":1712401494,"current_range_meters":30000,"station_id":"ce4bhs12rcd13ifvqhvg","pricing_plan_id":"cebpf4jnsgd1na2vs0mg"},{"bike_id":"110d00f3-ee8f-4dcf-b9bb-4e4041f2ade4","system_id":"levelo_inurba_marseille","lat":43.324771,"lon":5.36557,"is_reserved":false,"is_disabled":false,"rental_uris":{"android":"levelo://app?vid=110d00f3-ee8f-4dcf-b9bb-4e4041f2ade4","ios":"levelo://app?vid=110d00f3-ee8f-4dcf-b9bb-4e4041f2ade4"},"vehicle_type_id":"4","last_reported":1712401494,"current_range_meters":14400,"station_id":"ce4bhs12rcd13ifvqhvg","pricing_plan_id":"cebpf4jnsgd1na2vs0mg"},{"bike_id":"fe6c236c-053c-4fc3-bd68-cc8280e08f10","system_id":"levelo_inurba_marseille","lat":43.324771,"lon":5.36557,"is_reserved":false,"is_disabled":false,"rental_uris":{"android":"levelo://app?vid=fe6c236c-053c-4fc3-bd68-cc8280e08f10","ios":"levelo://app?vid=fe6c236c-053c-4fc3-bd68-cc8280e08f10"},"vehicle_type_id":"4","last_reported":1712401494,"current_range_meters":16000,"station_id":"ce4bhs12rcd13ifvqhvg","pricing_plan_id":"cebpf4jnsgd1na2vs0mg"},{"bike_id":"4eca8582-1b3b-4390-817f-e9b1adebf443","system_id":"levelo_inurba_marseille","lat":43.31073,"lon":5.38348,"is_reserved":false,"is_disabled":false,"rental_uris":{"android":"levelo://app?vid=4eca8582-1b3b-4390-817f-e9b1adebf443","ios":"levelo://app?vid=4eca8582-1b3b-4390-817f-e9b1adebf443"},"vehicle_type_id":"4","last_reported":1712401494,"current_range_meters":30000,"station_id":"ce4bgv92rcd13ifvqcr0","pricing_plan_id":"cebpf4jnsgd1na2vs0mg"},{"bike_id":"a8936ac5-f712-4c75-8f60-dd6d2021fa6a","system_id":"levelo_inurba_marseille","lat":43.324771,"lon":5.36557,"is_reserved":false,"is_disabled":false,"rental_uris":{"android":"levelo://app?vid=a8936ac5-f712-4c75-8f60-dd6d2021fa6a","ios":"levelo://app?vid=a8936ac5-f712-4c75-8f60-dd6d2021fa6a"},"vehicle_type_id":"4","last_reported":1712401494,"current_range_meters":17600,"station_id":"ce4bhs12rcd13ifvqhvg","pricing_plan_id":"cebpf4jnsgd1na2vs0mg"},{"bike_id":"d13f8654-295a-4582-bcdd-e540d8e6069e","system_id":"levelo_inurba_marseille","lat":43.302784,"lon":5.377158,"is_reserved":false,"is_disabled":false,"rental_uris":{"android":"levelo://app?vid=d13f8654-295a-4582-bcdd-e540d8e6069e","ios":"levelo://app?vid=d13f8654-295a-4582-bcdd-e540d8e6069e"},"vehicle_type_id":"4","last_reported":1712401494,"current_range_meters":26000,"station_id":"ce4bguh2rcd13ifvqcj0","pricing_plan_id":"cebpf4jnsgd1na2vs0mg"},{"bike_id":"149560a7-b8c5-4ec7-9803-5a8f2f407831","system_id":"levelo_inurba_marseille","lat":43.302784,"lon":5.377158,"is_reserved":false,"is_disabled":false,"rental_uris":{"android":"levelo://app?vid=149560a7-b8c5-4ec7-9803-5a8f2f407831","ios":"levelo://app?vid=149560a7-b8c5-4ec7-9803-5a8f2f407831"},"vehicle_type_id":"4","last_reported":1712401494,"current_range_meters":31600,"station_id":"ce4bguh2rcd13ifvqcj0","pricing_plan_id":"cebpf4jnsgd1na2vs0mg"},{"bike_id":"35fab69c-6065-4aae-9e9a-ad6cf97a84ea","system_id":"levelo_inurba_marseille","lat":43.302784,"lon":5.377158,"is_reserved":false,"is_disabled":false,"rental_uris":{"android":"levelo://app?vid=35fab69c-6065-4aae-9e9a-ad6cf97a84ea","ios":"levelo://app?vid=35fab69c-6065-4aae-9e9a-ad6cf97a84ea"},"vehicle_type_id":"4","last_reported":1712401494,"current_range_meters":20000,"station_id":"ce4bguh2rcd13ifvqcj0","pricing_plan_id":"cebpf4jnsgd1na2vs0mg"},{"bike_id":"4e2645f4-7acd-46a7-9664-846e69d646c2","system_id":"levelo_inurba_marseille","lat":43.302784,"lon":5.377158,"is_reserved":false,"is_disabled":false,"rental_uris":{"android":"levelo://app?vid=4e2645f4-7acd-46a7-9664-846e69d646c2","ios":"levelo://app?vid=4e2645f4-7acd-46a7-9664-846e69d646c2"},"vehicle_type_id":"4","last_reported":1712401494,"current_range_meters":28000,"station_id":"ce4bguh2rcd13ifvqcj0","pricing_plan_id":"cebpf4jnsgd1na2vs0mg"},{"bike_id":"54896ec9-9131-400d-b056-f03ff64f95fe","system_id":"levelo_inurba_marseille","lat":43.302784,"lon":5.377158,"is_reserved":false,"is_disabled":false,"rental_uris":{"android":"levelo://app?vid=54896ec9-9131-400d-b056-f03ff64f95fe","ios":"levelo://app?vid=54896ec9-9131-400d-b056-f03ff64f95fe"},"vehicle_type_id":"4","last_reported":1712401494,"current_range_meters":31600,"station_id":"ce4bguh2rcd13ifvqcj0","pricing_plan_id":"cebpf4jnsgd1na2vs0mg"},{"bike_id":"233dceda-2d64-40ed-b5f5-7a96b5fdc3ce","system_id":"levelo_inurba_marseille","lat":43.303046,"lon":5.368981,"is_reserved":false,"is_disabled":false,"rental_uris":{"android":"levelo://app?vid=233dceda-2d64-40ed-b5f5-7a96b5fdc3ce","ios":"levelo://app?vid=233dceda-2d64-40ed-b5f5-7a96b5fdc3ce"},"vehicle_type_id":"4","last_reported":1712401494,"current_range_meters":18000,"station_id":"ce4bgqh2rcd13ifvqc5g","pricing_plan_id":"cebpf4jnsgd1na2vs0mg"},{"bike_id":"42a21ed6-4ee6-45cc-9c8a-92075f46f77c","system_id":"levelo_inurba_marseille","lat":43.302784,"lon":5.377158,"is_reserved":false,"is_disabled":false,"rental_uris":{"android":"levelo://app?vid=42a21ed6-4ee6-45cc-9c8a-92075f46f77c","ios":"levelo://app?vid=42a21ed6-4ee6-45cc-9c8a-92075f46f77c"},"vehicle_type_id":"4","last_reported":1712401494,"current_range_meters":31600,"station_id":"ce4bguh2rcd13ifvqcj0","pricing_plan_id":"cebpf4jnsgd1na2vs0mg"},{"bike_id":"3f752e7f-a9b6-4a4b-bc13-56650d59b965","system_id":"levelo_inurba_marseille","lat":43.302784,"lon":5.377158,"is_reserved":false,"is_disabled":false,"rental_uris":{"android":"levelo://app?vid=3f752e7f-a9b6-4a4b-bc13-56650d59b965","ios":"levelo://app?vid=3f752e7f-a9b6-4a4b-bc13-56650d59b965"},"vehicle_type_id":"4","last_reported":1712401494,"current_range_meters":28400,"station_id":"ce4bguh2rcd13ifvqcj0","pricing_plan_id":"cebpf4jnsgd1na2vs0mg"},{"bike_id":"41ca8208-72df-405a-839e-b3b9b5cb3f2f","system_id":"levelo_inurba_marseille","lat":43.310804,"lon":5.38359,"is_reserved":false,"is_disabled":false,"rental_uris":{"android":"levelo://app?vid=41ca8208-72df-405a-839e-b3b9b5cb3f2f","ios":"levelo://app?vid=41ca8208-72df-405a-839e-b3b9b5cb3f2f"},"vehicle_type_id":"4","last_reported":1712401494,"current_range_meters":24000,"station_id":"ce4bgv92rcd13ifvqcr0","pricing_plan_id":"cebpf4jnsgd1na2vs0mg"},{"bike_id":"d9583b12-0b53-450a-892d-e144f49398fa","system_id":"levelo_inurba_marseille","lat":43.302784,"lon":5.377158,"is_reserved":false,"is_disabled":false,"rental_uris":{"android":"levelo://app?vid=d9583b12-0b53-450a-892d-e144f49398fa","ios":"levelo://app?vid=d9583b12-0b53-450a-892d-e144f49398fa"},"vehicle_type_id":"4","last_reported":1712401494,"current_range_meters":25200,"station_id":"ce4bguh2rcd13ifvqcj0","pricing_plan_id":"cebpf4jnsgd1na2vs0mg"},{"bike_id":"5b5abcee-0089-4b6e-bbf9-3eb5c3742d65","system_id":"levelo_inurba_marseille","lat":43.302784,"lon":5.377158,"is_reserved":false,"is_disabled":false,"rental_uris":{"android":"levelo://app?vid=5b5abcee-0089-4b6e-bbf9-3eb5c3742d65","ios":"levelo://app?vid=5b5abcee-0089-4b6e-bbf9-3eb5c3742d65"},"vehicle_type_id":"4","last_reported":1712401494,"current_range_meters":31600,"station_id":"ce4bguh2rcd13ifvqcj0","pricing_plan_id":"cebpf4jnsgd1na2vs0mg"},{"bike_id":"965da3e5-4381-4937-b0d3-63520e7116c5","system_id":"levelo_inurba_marseille","lat":43.302784,"lon":5.377158,"is_reserved":false,"is_disabled":false,"rental_uris":{"android":"levelo://app?vid=965da3e5-4381-4937-b0d3-63520e7116c5","ios":"levelo://app?vid=965da3e5-4381-4937-b0d3-63520e7116c5"},"vehicle_type_id":"4","last_reported":1712401494,"current_range_meters":24800,"station_id":"ce4bguh2rcd13ifvqcj0","pricing_plan_id":"cebpf4jnsgd1na2vs0mg"},{"bike_id":"b6915910-98d3-456d-b538-e12a95f42ff5","system_id":"levelo_inurba_marseille","lat":43.302784,"lon":5.377158,"is_reserved":false,"is_disabled":false,"rental_uris":{"android":"levelo://app?vid=b6915910-98d3-456d-b538-e12a95f42ff5","ios":"levelo://app?vid=b6915910-98d3-456d-b538-e12a95f42ff5"},"vehicle_type_id":"4","last_reported":1712401494,"current_range_meters":28400,"station_id":"ce4bguh2rcd13ifvqcj0","pricing_plan_id":"cebpf4jnsgd1na2vs0mg"},{"bike_id":"94d90f46-8dd7-4bad-a3d8-c86d975abfad","system_id":"levelo_inurba_marseille","lat":43.301429,"lon":5.37413,"is_reserved":false,"is_disabled":false,"rental_uris":{"android":"levelo://app?vid=94d90f46-8dd7-4bad-a3d8-c86d975abfad","ios":"levelo://app?vid=94d90f46-8dd7-4bad-a3d8-c86d975abfad"},"vehicle_type_id":"4","last_reported":1712401494,"current_range_meters":28400,"station_id":"ce4bgs92rcd13ifvqcc0","pricing_plan_id":"cebpf4jnsgd1na2vs0mg"},{"bike_id":"540319b4-15d2-428a-81e6-d36896050f9a","system_id":"levelo_inurba_marseille","lat":43.301429,"lon":5.37413,"is_reserved":false,"is_disabled":false,"rental_uris":{"android":"levelo://app?vid=540319b4-15d2-428a-81e6-d36896050f9a","ios":"levelo://app?vid=540319b4-15d2-428a-81e6-d36896050f9a"},"vehicle_type_id":"4","last_reported":1712401494,"current_range_meters":7200,"station_id":"ce4bgs92rcd13ifvqcc0","pricing_plan_id":"cebpf4jnsgd1na2vs0mg"},{"bike_id":"6920eb6a-6545-46c8-ab6f-a7e0189a9542","system_id":"levelo_inurba_marseille","lat":43.319908,"lon":5.381544,"is_reserved":false,"is_disabled":false,"rental_uris":{"android":"levelo://app?vid=6920eb6a-6545-46c8-ab6f-a7e0189a9542","ios":"levelo://app?vid=6920eb6a-6545-46c8-ab6f-a7e0189a9542"},"vehicle_type_id":"4","last_reported":1712401494,"current_range_meters":800,"station_id":"ce4bhr12rcd13ifvqhpg","pricing_plan_id":"cebpf4jnsgd1na2vs0mg"},{"bike_id":"58d956c7-c872-46f8-a9a4-fa3b03a5c18b","system_id":"levelo_inurba_marseille","lat":43.319935,"lon":5.381699,"is_reserved":false,"is_disabled":false,"rental_uris":{"android":"levelo://app?vid=58d956c7-c872-46f8-a9a4-fa3b03a5c18b","ios":"levelo://app?vid=58d956c7-c872-46f8-a9a4-fa3b03a5c18b"},"vehicle_type_id":"4","last_reported":1712401494,"current_range_meters":27600,"station_id":"ce4bhr12rcd13ifvqhpg","pricing_plan_id":"cebpf4jnsgd1na2vs0mg"},{"bike_id":"3020cd15-a45c-44f8-b232-6920c4c1ddb0","system_id":"levelo_inurba_marseille","lat":43.319935,"lon":5.381699,"is_reserved":false,"is_disabled":false,"rental_uris":{"android":"levelo://app?vid=3020cd15-a45c-44f8-b232-6920c4c1ddb0","ios":"levelo://app?vid=3020cd15-a45c-44f8-b232-6920c4c1ddb0"},"vehicle_type_id":"4","last_reported":1712401494,"current_range_meters":24000,"station_id":"ce4bhr12rcd13ifvqhpg","pricing_plan_id":"cebpf4jnsgd1na2vs0mg"},{"bike_id":"b91291fe-d7a7-43f9-98f9-54382e75f941","system_id":"levelo_inurba_marseille","lat":43.313571,"lon":5.384829,"is_reserved":false,"is_disabled":false,"rental_uris":{"android":"levelo://app?vid=b91291fe-d7a7-43f9-98f9-54382e75f941","ios":"levelo://app?vid=b91291fe-d7a7-43f9-98f9-54382e75f941"},"vehicle_type_id":"4","last_reported":1712401494,"current_range_meters":12000,"station_id":"ce4bgt92rcd13ifvqcf0","pricing_plan_id":"cebpf4jnsgd1na2vs0mg"},{"bike_id":"d2e1ffaa-6da1-4df1-bb6f-5c8bd1b8bae9","system_id":"levelo_inurba_marseille","lat":43.299724,"lon":5.371829,"is_reserved":false,"is_disabled":false,"rental_uris":{"android":"levelo://app?vid=d2e1ffaa-6da1-4df1-bb6f-5c8bd1b8bae9","ios":"levelo://app?vid=d2e1ffaa-6da1-4df1-bb6f-5c8bd1b8bae9"},"vehicle_type_id":"4","last_reported":1712401494,"current_range_meters":29600,"station_id":"ce4bgr92rcd13ifvqc7g","pricing_plan_id":"cebpf4jnsgd1na2vs0mg"},{"bike_id":"aa9b5bc4-f328-4aa3-9bbe-92b1aa4f394b","system_id":"levelo_inurba_marseille","lat":43.299724,"lon":5.371829,"is_reserved":false,"is_disabled":false,"rental_uris":{"android":"levelo://app?vid=aa9b5bc4-f328-4aa3-9bbe-92b1aa4f394b","ios":"levelo://app?vid=aa9b5bc4-f328-4aa3-9bbe-92b1aa4f394b"},"vehicle_type_id":"4","last_reported":1712401494,"current_range_meters":15600,"station_id":"ce4bgr92rcd13ifvqc7g","pricing_plan_id":"cebpf4jnsgd1na2vs0mg"},{"bike_id":"456367e0-9851-4742-aad7-3a7006b2c8b6","system_id":"levelo_inurba_marseille","lat":43.299222,"lon":5.365554,"is_reserved":false,"is_disabled":false,"rental_uris":{"android":"levelo://app?vid=456367e0-9851-4742-aad7-3a7006b2c8b6","ios":"levelo://app?vid=456367e0-9851-4742-aad7-3a7006b2c8b6"},"vehicle_type_id":"4","last_reported":1712401494,"current_range_meters":14800,"station_id":"ce4bgm92rcd13ifvqbr0","pricing_plan_id":"cebpf4jnsgd1na2vs0mg"},{"bike_id":"c0bde95c-03d9-41da-99b2-6f37c7ba51db","system_id":"levelo_inurba_marseille","lat":43.299222,"lon":5.365554,"is_reserved":false,"is_disabled":false,"rental_uris":{"android":"levelo://app?vid=c0bde95c-03d9-41da-99b2-6f37c7ba51db","ios":"levelo://app?vid=c0bde95c-03d9-41da-99b2-6f37c7ba51db"},"vehicle_type_id":"4","last_reported":1712401494,"current_range_meters":6000,"station_id":"ce4bgm92rcd13ifvqbr0","pricing_plan_id":"cebpf4jnsgd1na2vs0mg"},{"bike_id":"c2899c9b-fc15-47d8-8d43-1d4a7b170aba","system_id":"levelo_inurba_marseille","lat":43.299724,"lon":5.371829,"is_reserved":false,"is_disabled":false,"rental_uris":{"android":"levelo://app?vid=c2899c9b-fc15-47d8-8d43-1d4a7b170aba","ios":"levelo://app?vid=c2899c9b-fc15-47d8-8d43-1d4a7b170aba"},"vehicle_type_id":"4","last_reported":1712401494,"current_range_meters":13600,"station_id":"ce4bgr92rcd13ifvqc7g","pricing_plan_id":"cebpf4jnsgd1na2vs0mg"},{"bike_id":"ae9ff3ab-7f3f-4c15-9187-0e3796fbce86","system_id":"levelo_inurba_marseille","lat":43.299724,"lon":5.371829,"is_reserved":false,"is_disabled":false,"rental_uris":{"android":"levelo://app?vid=ae9ff3ab-7f3f-4c15-9187-0e3796fbce86","ios":"levelo://app?vid=ae9ff3ab-7f3f-4c15-9187-0e3796fbce86"},"vehicle_type_id":"4","last_reported":1712401494,"current_range_meters":16800,"station_id":"ce4bgr92rcd13ifvqc7g","pricing_plan_id":"cebpf4jnsgd1na2vs0mg"},{"bike_id":"52ef7a6f-67e6-42b1-9d6b-dd49549b8876","system_id":"levelo_inurba_marseille","lat":43.299222,"lon":5.365554,"is_reserved":false,"is_disabled":false,"rental_uris":{"android":"levelo://app?vid=52ef7a6f-67e6-42b1-9d6b-dd49549b8876","ios":"levelo://app?vid=52ef7a6f-67e6-42b1-9d6b-dd49549b8876"},"vehicle_type_id":"4","last_reported":1712401494,"current_range_meters":14400,"station_id":"ce4bgm92rcd13ifvqbr0","pricing_plan_id":"cebpf4jnsgd1na2vs0mg"},{"bike_id":"29f98c7a-aeeb-446b-9381-952e99c40eb4","system_id":"levelo_inurba_marseille","lat":43.29849,"lon":5.36283,"is_reserved":false,"is_disabled":false,"rental_uris":{"android":"levelo://app?vid=29f98c7a-aeeb-446b-9381-952e99c40eb4","ios":"levelo://app?vid=29f98c7a-aeeb-446b-9381-952e99c40eb4"},"vehicle_type_id":"4","last_reported":1712401494,"current_range_meters":0,"station_id":"ce4bgpp2rcd13ifvqc3g","pricing_plan_id":"cebpf4jnsgd1na2vs0mg"},{"bike_id":"d9290df1-09a4-47d4-820f-33282cbc4c33","system_id":"levelo_inurba_marseille","lat":43.305364,"lon":5.384119,"is_reserved":false,"is_disabled":false,"rental_uris":{"android":"levelo://app?vid=d9290df1-09a4-47d4-820f-33282cbc4c33","ios":"levelo://app?vid=d9290df1-09a4-47d4-820f-33282cbc4c33"},"vehicle_type_id":"4","last_reported":1712401494,"current_range_meters":29600,"station_id":"ce4bgg92rcd13ifvqb30","pricing_plan_id":"cebpf4jnsgd1na2vs0mg"},{"bike_id":"e2c0a4b2-9516-4a49-9d36-332ff3309bbb","system_id":"levelo_inurba_marseille","lat":43.305364,"lon":5.384119,"is_reserved":false,"is_disabled":false,"rental_uris":{"android":"levelo://app?vid=e2c0a4b2-9516-4a49-9d36-332ff3309bbb","ios":"levelo://app?vid=e2c0a4b2-9516-4a49-9d36-332ff3309bbb"},"vehicle_type_id":"4","last_reported":1712401494,"current_range_meters":31200,"station_id":"ce4bgg92rcd13ifvqb30","pricing_plan_id":"cebpf4jnsgd1na2vs0mg"},{"bike_id":"21ab9371-38e6-4e1b-8503-d666a462d780","system_id":"levelo_inurba_marseille","lat":43.298433,"lon":5.362774,"is_reserved":false,"is_disabled":false,"rental_uris":{"android":"levelo://app?vid=21ab9371-38e6-4e1b-8503-d666a462d780","ios":"levelo://app?vid=21ab9371-38e6-4e1b-8503-d666a462d780"},"vehicle_type_id":"4","last_reported":1712401494,"current_range_meters":31600,"station_id":"ce4bgpp2rcd13ifvqc3g","pricing_plan_id":"cebpf4jnsgd1na2vs0mg"},{"bike_id":"ed27a1ba-a8df-4443-a47e-2b168810cfe3","system_id":"levelo_inurba_marseille","lat":43.298433,"lon":5.362774,"is_reserved":false,"is_disabled":false,"rental_uris":{"android":"levelo://app?vid=ed27a1ba-a8df-4443-a47e-2b168810cfe3","ios":"levelo://app?vid=ed27a1ba-a8df-4443-a47e-2b168810cfe3"},"vehicle_type_id":"4","last_reported":1712401494,"current_range_meters":4000,"station_id":"ce4bgpp2rcd13ifvqc3g","pricing_plan_id":"cebpf4jnsgd1na2vs0mg"},{"bike_id":"5198c307-919f-4e6b-bbb7-162b3e0ae726","system_id":"levelo_inurba_marseille","lat":43.305364,"lon":5.384119,"is_reserved":false,"is_disabled":false,"rental_uris":{"android":"levelo://app?vid=5198c307-919f-4e6b-bbb7-162b3e0ae726","ios":"levelo://app?vid=5198c307-919f-4e6b-bbb7-162b3e0ae726"},"vehicle_type_id":"4","last_reported":1712401494,"current_range_meters":31600,"station_id":"ce4bgg92rcd13ifvqb30","pricing_plan_id":"cebpf4jnsgd1na2vs0mg"},{"bike_id":"5d5d5ead-618c-4e6e-864a-e2dba4eaba1d","system_id":"levelo_inurba_marseille","lat":43.305364,"lon":5.384119,"is_reserved":false,"is_disabled":false,"rental_uris":{"android":"levelo://app?vid=5d5d5ead-618c-4e6e-864a-e2dba4eaba1d","ios":"levelo://app?vid=5d5d5ead-618c-4e6e-864a-e2dba4eaba1d"},"vehicle_type_id":"4","last_reported":1712401494,"current_range_meters":31600,"station_id":"ce4bgg92rcd13ifvqb30","pricing_plan_id":"cebpf4jnsgd1na2vs0mg"},{"bike_id":"1a3243e6-86fe-4427-8063-a77c7fd9e375","system_id":"levelo_inurba_marseille","lat":43.298433,"lon":5.362774,"is_reserved":false,"is_disabled":false,"rental_uris":{"android":"levelo://app?vid=1a3243e6-86fe-4427-8063-a77c7fd9e375","ios":"levelo://app?vid=1a3243e6-86fe-4427-8063-a77c7fd9e375"},"vehicle_type_id":"4","last_reported":1712401494,"current_range_meters":28000,"station_id":"ce4bgpp2rcd13ifvqc3g","pricing_plan_id":"cebpf4jnsgd1na2vs0mg"},{"bike_id":"1f7e9b29-f34a-4380-bfc2-4a0fec89f88e","system_id":"levelo_inurba_marseille","lat":43.305364,"lon":5.384119,"is_reserved":false,"is_disabled":false,"rental_uris":{"android":"levelo://app?vid=1f7e9b29-f34a-4380-bfc2-4a0fec89f88e","ios":"levelo://app?vid=1f7e9b29-f34a-4380-bfc2-4a0fec89f88e"},"vehicle_type_id":"4","last_reported":1712401494,"current_range_meters":32000,"station_id":"ce4bgg92rcd13ifvqb30","pricing_plan_id":"cebpf4jnsgd1na2vs0mg"},{"bike_id":"431ed221-d12b-4955-a82e-51e9009e39c3","system_id":"levelo_inurba_marseille","lat":43.305364,"lon":5.384119,"is_reserved":false,"is_disabled":false,"rental_uris":{"android":"levelo://app?vid=431ed221-d12b-4955-a82e-51e9009e39c3","ios":"levelo://app?vid=431ed221-d12b-4955-a82e-51e9009e39c3"},"vehicle_type_id":"4","last_reported":1712401494,"current_range_meters":25600,"station_id":"ce4bgg92rcd13ifvqb30","pricing_plan_id":"cebpf4jnsgd1na2vs0mg"},{"bike_id":"45aa253a-2f09-4637-b97e-2f416e1e5925","system_id":"levelo_inurba_marseille","lat":43.298433,"lon":5.362774,"is_reserved":false,"is_disabled":false,"rental_uris":{"android":"levelo://app?vid=45aa253a-2f09-4637-b97e-2f416e1e5925","ios":"levelo://app?vid=45aa253a-2f09-4637-b97e-2f416e1e5925"},"vehicle_type_id":"4","last_reported":1712401494,"current_range_meters":11200,"station_id":"ce4bgpp2rcd13ifvqc3g","pricing_plan_id":"cebpf4jnsgd1na2vs0mg"},{"bike_id":"3c00216d-381f-45b2-b4d9-3ecd3bcf9802","system_id":"levelo_inurba_marseille","lat":43.305364,"lon":5.384119,"is_reserved":false,"is_disabled":false,"rental_uris":{"android":"levelo://app?vid=3c00216d-381f-45b2-b4d9-3ecd3bcf9802","ios":"levelo://app?vid=3c00216d-381f-45b2-b4d9-3ecd3bcf9802"},"vehicle_type_id":"4","last_reported":1712401494,"current_range_meters":28400,"station_id":"ce4bgg92rcd13ifvqb30","pricing_plan_id":"cebpf4jnsgd1na2vs0mg"},{"bike_id":"5542569a-9371-4d00-bf35-2fcb4ccc4c8c","system_id":"levelo_inurba_marseille","lat":43.298433,"lon":5.362774,"is_reserved":false,"is_disabled":false,"rental_uris":{"android":"levelo://app?vid=5542569a-9371-4d00-bf35-2fcb4ccc4c8c","ios":"levelo://app?vid=5542569a-9371-4d00-bf35-2fcb4ccc4c8c"},"vehicle_type_id":"4","last_reported":1712401494,"current_range_meters":14800,"station_id":"ce4bgpp2rcd13ifvqc3g","pricing_plan_id":"cebpf4jnsgd1na2vs0mg"},{"bike_id":"2aac4ec0-73ba-4e3f-a4bb-5f1dc12a447b","system_id":"levelo_inurba_marseille","lat":43.305712,"lon":5.365641,"is_reserved":false,"is_disabled":false,"rental_uris":{"android":"levelo://app?vid=2aac4ec0-73ba-4e3f-a4bb-5f1dc12a447b","ios":"levelo://app?vid=2aac4ec0-73ba-4e3f-a4bb-5f1dc12a447b"},"vehicle_type_id":"4","last_reported":1712401494,"current_range_meters":15600,"station_id":"ce4bgs12rcd13ifvqcag","pricing_plan_id":"cebpf4jnsgd1na2vs0mg"},{"bike_id":"0df60c88-a629-4b4f-80b9-00b53900eafa","system_id":"levelo_inurba_marseille","lat":43.298681,"lon":5.397225,"is_reserved":false,"is_disabled":false,"rental_uris":{"android":"levelo://app?vid=0df60c88-a629-4b4f-80b9-00b53900eafa","ios":"levelo://app?vid=0df60c88-a629-4b4f-80b9-00b53900eafa"},"vehicle_type_id":"4","last_reported":1712401494,"current_range_meters":19200,"station_id":"ce4bh0h2rcd13ifvqd50","pricing_plan_id":"cebpf4jnsgd1na2vs0mg"},{"bike_id":"e20051df-896f-4746-8d57-a932f7fb89f0","system_id":"levelo_inurba_marseille","lat":43.311722,"lon":5.387247,"is_reserved":false,"is_disabled":false,"rental_uris":{"android":"levelo://app?vid=e20051df-896f-4746-8d57-a932f7fb89f0","ios":"levelo://app?vid=e20051df-896f-4746-8d57-a932f7fb89f0"},"vehicle_type_id":"4","last_reported":1712401494,"current_range_meters":11200,"station_id":"ce4bgv12rcd13ifvqcp0","pricing_plan_id":"cebpf4jnsgd1na2vs0mg"},{"bike_id":"1fac1ca6-317d-4664-a542-3843f074e297","system_id":"levelo_inurba_marseille","lat":43.298433,"lon":5.362774,"is_reserved":false,"is_disabled":false,"rental_uris":{"android":"levelo://app?vid=1fac1ca6-317d-4664-a542-3843f074e297","ios":"levelo://app?vid=1fac1ca6-317d-4664-a542-3843f074e297"},"vehicle_type_id":"4","last_reported":1712401494,"current_range_meters":31600,"station_id":"ce4bgpp2rcd13ifvqc3g","pricing_plan_id":"cebpf4jnsgd1na2vs0mg"},{"bike_id":"e426fb23-ad1e-4707-a523-f3b9a45f6bfd","system_id":"levelo_inurba_marseille","lat":43.31184,"lon":5.38709,"is_reserved":false,"is_disabled":false,"rental_uris":{"android":"levelo://app?vid=e426fb23-ad1e-4707-a523-f3b9a45f6bfd","ios":"levelo://app?vid=e426fb23-ad1e-4707-a523-f3b9a45f6bfd"},"vehicle_type_id":"4","last_reported":1712401494,"current_range_meters":28800,"station_id":"ce4bgv12rcd13ifvqcp0","pricing_plan_id":"cebpf4jnsgd1na2vs0mg"},{"bike_id":"fdfa65f9-b654-4b73-8202-f7ffe250004f","system_id":"levelo_inurba_marseille","lat":43.311722,"lon":5.387247,"is_reserved":false,"is_disabled":false,"rental_uris":{"android":"levelo://app?vid=fdfa65f9-b654-4b73-8202-f7ffe250004f","ios":"levelo://app?vid=fdfa65f9-b654-4b73-8202-f7ffe250004f"},"vehicle_type_id":"4","last_reported":1712401494,"current_range_meters":32000,"station_id":"ce4bgv12rcd13ifvqcp0","pricing_plan_id":"cebpf4jnsgd1na2vs0mg"},{"bike_id":"59ff6220-f83e-4c62-b40e-0639782abe19","system_id":"levelo_inurba_marseille","lat":43.311836,"lon":5.387127,"is_reserved":false,"is_disabled":false,"rental_uris":{"android":"levelo://app?vid=59ff6220-f83e-4c62-b40e-0639782abe19","ios":"levelo://app?vid=59ff6220-f83e-4c62-b40e-0639782abe19"},"vehicle_type_id":"4","last_reported":1712401494,"current_range_meters":29600,"station_id":"ce4bgv12rcd13ifvqcp0","pricing_plan_id":"cebpf4jnsgd1na2vs0mg"},{"bike_id":"74f4d5eb-0df7-45a7-bbd7-3a62c094459c","system_id":"levelo_inurba_marseille","lat":43.311722,"lon":5.387247,"is_reserved":false,"is_disabled":false,"rental_uris":{"android":"levelo://app?vid=74f4d5eb-0df7-45a7-bbd7-3a62c094459c","ios":"levelo://app?vid=74f4d5eb-0df7-45a7-bbd7-3a62c094459c"},"vehicle_type_id":"4","last_reported":1712401494,"current_range_meters":19200,"station_id":"ce4bgv12rcd13ifvqcp0","pricing_plan_id":"cebpf4jnsgd1na2vs0mg"},{"bike_id":"63f3d29b-0ed5-4289-beb6-07c9b0a30a27","system_id":"levelo_inurba_marseille","lat":43.311722,"lon":5.387247,"is_reserved":false,"is_disabled":false,"rental_uris":{"android":"levelo://app?vid=63f3d29b-0ed5-4289-beb6-07c9b0a30a27","ios":"levelo://app?vid=63f3d29b-0ed5-4289-beb6-07c9b0a30a27"},"vehicle_type_id":"4","last_reported":1712401494,"current_range_meters":31600,"station_id":"ce4bgv12rcd13ifvqcp0","pricing_plan_id":"cebpf4jnsgd1na2vs0mg"},{"bike_id":"b50472f9-821e-4551-8846-b668f816d4b2","system_id":"levelo_inurba_marseille","lat":43.299243,"lon":5.374807,"is_reserved":false,"is_disabled":false,"rental_uris":{"android":"levelo://app?vid=b50472f9-821e-4551-8846-b668f816d4b2","ios":"levelo://app?vid=b50472f9-821e-4551-8846-b668f816d4b2"},"vehicle_type_id":"4","last_reported":1712401494,"current_range_meters":27200,"station_id":"ce4bgjh2rcd13ifvqbg0","pricing_plan_id":"cebpf4jnsgd1na2vs0mg"},{"bike_id":"64f6661c-b16f-40e2-b5de-42d869d415ab","system_id":"levelo_inurba_marseille","lat":43.311689,"lon":5.387192,"is_reserved":false,"is_disabled":false,"rental_uris":{"android":"levelo://app?vid=64f6661c-b16f-40e2-b5de-42d869d415ab","ios":"levelo://app?vid=64f6661c-b16f-40e2-b5de-42d869d415ab"},"vehicle_type_id":"4","last_reported":1712401494,"current_range_meters":2400,"station_id":"ce4bgv12rcd13ifvqcp0","pricing_plan_id":"cebpf4jnsgd1na2vs0mg"},{"bike_id":"cf958d95-5b43-4b2f-8b1f-9eeee5a9713f","system_id":"levelo_inurba_marseille","lat":43.311722,"lon":5.387247,"is_reserved":false,"is_disabled":false,"rental_uris":{"android":"levelo://app?vid=cf958d95-5b43-4b2f-8b1f-9eeee5a9713f","ios":"levelo://app?vid=cf958d95-5b43-4b2f-8b1f-9eeee5a9713f"},"vehicle_type_id":"4","last_reported":1712401494,"current_range_meters":800,"station_id":"ce4bgv12rcd13ifvqcp0","pricing_plan_id":"cebpf4jnsgd1na2vs0mg"},{"bike_id":"00ab1aee-e36b-4f02-b053-d6dd1c4b8f26","system_id":"levelo_inurba_marseille","lat":43.29821,"lon":5.36275,"is_reserved":false,"is_disabled":false,"rental_uris":{"android":"levelo://app?vid=00ab1aee-e36b-4f02-b053-d6dd1c4b8f26","ios":"levelo://app?vid=00ab1aee-e36b-4f02-b053-d6dd1c4b8f26"},"vehicle_type_id":"4","last_reported":1712401494,"current_range_meters":31600,"station_id":"ce4bgpp2rcd13ifvqc3g","pricing_plan_id":"cebpf4jnsgd1na2vs0mg"},{"bike_id":"27d84a8c-3e1d-42cc-8b8f-a1cd38a0d6e2","system_id":"levelo_inurba_marseille","lat":43.322872,"lon":5.382756,"is_reserved":false,"is_disabled":false,"rental_uris":{"android":"levelo://app?vid=27d84a8c-3e1d-42cc-8b8f-a1cd38a0d6e2","ios":"levelo://app?vid=27d84a8c-3e1d-42cc-8b8f-a1cd38a0d6e2"},"vehicle_type_id":"4","last_reported":1712401494,"current_range_meters":11200,"station_id":"ce4bhr12rcd13ifvqhqg","pricing_plan_id":"cebpf4jnsgd1na2vs0mg"},{"bike_id":"f9cbb650-aadf-49f6-a3e7-b397f3d0f9e2","system_id":"levelo_inurba_marseille","lat":43.322872,"lon":5.382756,"is_reserved":false,"is_disabled":false,"rental_uris":{"android":"levelo://app?vid=f9cbb650-aadf-49f6-a3e7-b397f3d0f9e2","ios":"levelo://app?vid=f9cbb650-aadf-49f6-a3e7-b397f3d0f9e2"},"vehicle_type_id":"4","last_reported":1712401494,"current_range_meters":7200,"station_id":"ce4bhr12rcd13ifvqhqg","pricing_plan_id":"cebpf4jnsgd1na2vs0mg"},{"bike_id":"3f2835e5-a51e-4529-8eba-48f6b95ac4a9","system_id":"levelo_inurba_marseille","lat":43.322872,"lon":5.382756,"is_reserved":false,"is_disabled":false,"rental_uris":{"android":"levelo://app?vid=3f2835e5-a51e-4529-8eba-48f6b95ac4a9","ios":"levelo://app?vid=3f2835e5-a51e-4529-8eba-48f6b95ac4a9"},"vehicle_type_id":"4","last_reported":1712401494,"current_range_meters":18400,"station_id":"ce4bhr12rcd13ifvqhqg","pricing_plan_id":"cebpf4jnsgd1na2vs0mg"},{"bike_id":"5f3b4b36-aea9-4aeb-bd06-2084946bf6e4","system_id":"levelo_inurba_marseille","lat":43.322872,"lon":5.382756,"is_reserved":false,"is_disabled":false,"rental_uris":{"android":"levelo://app?vid=5f3b4b36-aea9-4aeb-bd06-2084946bf6e4","ios":"levelo://app?vid=5f3b4b36-aea9-4aeb-bd06-2084946bf6e4"},"vehicle_type_id":"4","last_reported":1712401494,"current_range_meters":10400,"station_id":"ce4bhr12rcd13ifvqhqg","pricing_plan_id":"cebpf4jnsgd1na2vs0mg"},{"bike_id":"9341832e-29cc-450d-89c4-a72177065648","system_id":"levelo_inurba_marseille","lat":43.322872,"lon":5.382756,"is_reserved":false,"is_disabled":false,"rental_uris":{"android":"levelo://app?vid=9341832e-29cc-450d-89c4-a72177065648","ios":"levelo://app?vid=9341832e-29cc-450d-89c4-a72177065648"},"vehicle_type_id":"4","last_reported":1712401494,"current_range_meters":16000,"station_id":"ce4bhr12rcd13ifvqhqg","pricing_plan_id":"cebpf4jnsgd1na2vs0mg"},{"bike_id":"d9d0fad4-bb5e-4fd7-aa14-bc36fdd7e62b","system_id":"levelo_inurba_marseille","lat":43.322872,"lon":5.382756,"is_reserved":false,"is_disabled":false,"rental_uris":{"android":"levelo://app?vid=d9d0fad4-bb5e-4fd7-aa14-bc36fdd7e62b","ios":"levelo://app?vid=d9d0fad4-bb5e-4fd7-aa14-bc36fdd7e62b"},"vehicle_type_id":"4","last_reported":1712401494,"current_range_meters":31600,"station_id":"ce4bhr12rcd13ifvqhqg","pricing_plan_id":"cebpf4jnsgd1na2vs0mg"},{"bike_id":"18651e73-a960-43da-bdae-371146c35a92","system_id":"levelo_inurba_marseille","lat":43.322872,"lon":5.382756,"is_reserved":false,"is_disabled":false,"rental_uris":{"android":"levelo://app?vid=18651e73-a960-43da-bdae-371146c35a92","ios":"levelo://app?vid=18651e73-a960-43da-bdae-371146c35a92"},"vehicle_type_id":"4","last_reported":1712401494,"current_range_meters":31600,"station_id":"ce4bhr12rcd13ifvqhqg","pricing_plan_id":"cebpf4jnsgd1na2vs0mg"},{"bike_id":"12868420-cd43-4d41-9cd6-9b5eadd40bbb","system_id":"levelo_inurba_marseille","lat":43.322872,"lon":5.382756,"is_reserved":false,"is_disabled":false,"rental_uris":{"android":"levelo://app?vid=12868420-cd43-4d41-9cd6-9b5eadd40bbb","ios":"levelo://app?vid=12868420-cd43-4d41-9cd6-9b5eadd40bbb"},"vehicle_type_id":"4","last_reported":1712401494,"current_range_meters":31600,"station_id":"ce4bhr12rcd13ifvqhqg","pricing_plan_id":"cebpf4jnsgd1na2vs0mg"},{"bike_id":"79a09dc1-a136-4553-b035-ca9b20a658e5","system_id":"levelo_inurba_marseille","lat":43.30181,"lon":5.3818,"is_reserved":false,"is_disabled":false,"rental_uris":{"android":"levelo://app?vid=79a09dc1-a136-4553-b035-ca9b20a658e5","ios":"levelo://app?vid=79a09dc1-a136-4553-b035-ca9b20a658e5"},"vehicle_type_id":"4","last_reported":1712401494,"current_range_meters":13600,"station_id":"","pricing_plan_id":"cebpf4jnsgd1na2vs0mg"},{"bike_id":"b90f4cf2-8269-4fcc-8685-532822fa8f54","system_id":"levelo_inurba_marseille","lat":43.297163,"lon":5.365866,"is_reserved":false,"is_disabled":false,"rental_uris":{"android":"levelo://app?vid=b90f4cf2-8269-4fcc-8685-532822fa8f54","ios":"levelo://app?vid=b90f4cf2-8269-4fcc-8685-532822fa8f54"},"vehicle_type_id":"4","last_reported":1712401494,"current_range_meters":18800,"station_id":"ce4bgn12rcd13ifvqbt0","pricing_plan_id":"cebpf4jnsgd1na2vs0mg"},{"bike_id":"da8e8503-040d-4c97-a120-87b68c377155","system_id":"levelo_inurba_marseille","lat":43.297163,"lon":5.365866,"is_reserved":false,"is_disabled":false,"rental_uris":{"android":"levelo://app?vid=da8e8503-040d-4c97-a120-87b68c377155","ios":"levelo://app?vid=da8e8503-040d-4c97-a120-87b68c377155"},"vehicle_type_id":"4","last_reported":1712401494,"current_range_meters":20800,"station_id":"ce4bgn12rcd13ifvqbt0","pricing_plan_id":"cebpf4jnsgd1na2vs0mg"},{"bike_id":"dbc85d03-f6dc-466a-8497-39ace727fae0","system_id":"levelo_inurba_marseille","lat":43.297163,"lon":5.365866,"is_reserved":false,"is_disabled":false,"rental_uris":{"android":"levelo://app?vid=dbc85d03-f6dc-466a-8497-39ace727fae0","ios":"levelo://app?vid=dbc85d03-f6dc-466a-8497-39ace727fae0"},"vehicle_type_id":"4","last_reported":1712401494,"current_range_meters":17200,"station_id":"ce4bgn12rcd13ifvqbt0","pricing_plan_id":"cebpf4jnsgd1na2vs0mg"},{"bike_id":"e2b5a661-dd12-4287-bf8d-87836c14e890","system_id":"levelo_inurba_marseille","lat":43.297794,"lon":5.370888,"is_reserved":false,"is_disabled":false,"rental_uris":{"android":"levelo://app?vid=e2b5a661-dd12-4287-bf8d-87836c14e890","ios":"levelo://app?vid=e2b5a661-dd12-4287-bf8d-87836c14e890"},"vehicle_type_id":"4","last_reported":1712401494,"current_range_meters":10800,"station_id":"ce4bgop2rcd13ifvqc1g","pricing_plan_id":"cebpf4jnsgd1na2vs0mg"},{"bike_id":"7e3e3ae6-4e9b-4b9c-b3c8-a0876de69bb3","system_id":"levelo_inurba_marseille","lat":43.296131,"lon":5.370791,"is_reserved":false,"is_disabled":false,"rental_uris":{"android":"levelo://app?vid=7e3e3ae6-4e9b-4b9c-b3c8-a0876de69bb3","ios":"levelo://app?vid=7e3e3ae6-4e9b-4b9c-b3c8-a0876de69bb3"},"vehicle_type_id":"4","last_reported":1712401494,"current_range_meters":21200,"station_id":"ce4bgnh2rcd13ifvqc0g","pricing_plan_id":"cebpf4jnsgd1na2vs0mg"},{"bike_id":"f32fdbe1-58f3-475d-8ed2-288177d31d49","system_id":"levelo_inurba_marseille","lat":43.296129,"lon":5.370777,"is_reserved":false,"is_disabled":false,"rental_uris":{"android":"levelo://app?vid=f32fdbe1-58f3-475d-8ed2-288177d31d49","ios":"levelo://app?vid=f32fdbe1-58f3-475d-8ed2-288177d31d49"},"vehicle_type_id":"4","last_reported":1712401494,"current_range_meters":27600,"station_id":"ce4bgnh2rcd13ifvqc0g","pricing_plan_id":"cebpf4jnsgd1na2vs0mg"},{"bike_id":"a685f325-f5e3-485a-88df-d82310d7280f","system_id":"levelo_inurba_marseille","lat":43.29573,"lon":5.367355,"is_reserved":false,"is_disabled":false,"rental_uris":{"android":"levelo://app?vid=a685f325-f5e3-485a-88df-d82310d7280f","ios":"levelo://app?vid=a685f325-f5e3-485a-88df-d82310d7280f"},"vehicle_type_id":"4","last_reported":1712401494,"current_range_meters":23600,"station_id":"ce4bgph2rcd13ifvqc2g","pricing_plan_id":"cebpf4jnsgd1na2vs0mg"},{"bike_id":"be616b72-abcb-4db0-a599-e9c648b80efd","system_id":"levelo_inurba_marseille","lat":43.29573,"lon":5.367355,"is_reserved":false,"is_disabled":false,"rental_uris":{"android":"levelo://app?vid=be616b72-abcb-4db0-a599-e9c648b80efd","ios":"levelo://app?vid=be616b72-abcb-4db0-a599-e9c648b80efd"},"vehicle_type_id":"4","last_reported":1712401494,"current_range_meters":6400,"station_id":"ce4bgph2rcd13ifvqc2g","pricing_plan_id":"cebpf4jnsgd1na2vs0mg"},{"bike_id":"6e7883f3-2fd9-4d47-ae70-c26dd78e1443","system_id":"levelo_inurba_marseille","lat":43.29573,"lon":5.367355,"is_reserved":false,"is_disabled":false,"rental_uris":{"android":"levelo://app?vid=6e7883f3-2fd9-4d47-ae70-c26dd78e1443","ios":"levelo://app?vid=6e7883f3-2fd9-4d47-ae70-c26dd78e1443"},"vehicle_type_id":"4","last_reported":1712401494,"current_range_meters":19200,"station_id":"ce4bgph2rcd13ifvqc2g","pricing_plan_id":"cebpf4jnsgd1na2vs0mg"},{"bike_id":"2890d9ad-4939-4260-8497-0456b5085673","system_id":"levelo_inurba_marseille","lat":43.29573,"lon":5.367355,"is_reserved":false,"is_disabled":false,"rental_uris":{"android":"levelo://app?vid=2890d9ad-4939-4260-8497-0456b5085673","ios":"levelo://app?vid=2890d9ad-4939-4260-8497-0456b5085673"},"vehicle_type_id":"4","last_reported":1712401494,"current_range_meters":16800,"station_id":"ce4bgph2rcd13ifvqc2g","pricing_plan_id":"cebpf4jnsgd1na2vs0mg"},{"bike_id":"580b9e59-0d7a-4e9b-9bbc-492de1581dae","system_id":"levelo_inurba_marseille","lat":43.29573,"lon":5.367355,"is_reserved":false,"is_disabled":false,"rental_uris":{"android":"levelo://app?vid=580b9e59-0d7a-4e9b-9bbc-492de1581dae","ios":"levelo://app?vid=580b9e59-0d7a-4e9b-9bbc-492de1581dae"},"vehicle_type_id":"4","last_reported":1712401494,"current_range_meters":0,"station_id":"ce4bgph2rcd13ifvqc2g","pricing_plan_id":"cebpf4jnsgd1na2vs0mg"},{"bike_id":"c7b7a2d6-993c-49ff-a4be-9e9f4ee4b6bd","system_id":"levelo_inurba_marseille","lat":43.29573,"lon":5.367355,"is_reserved":false,"is_disabled":false,"rental_uris":{"android":"levelo://app?vid=c7b7a2d6-993c-49ff-a4be-9e9f4ee4b6bd","ios":"levelo://app?vid=c7b7a2d6-993c-49ff-a4be-9e9f4ee4b6bd"},"vehicle_type_id":"4","last_reported":1712401494,"current_range_meters":20400,"station_id":"ce4bgph2rcd13ifvqc2g","pricing_plan_id":"cebpf4jnsgd1na2vs0mg"},{"bike_id":"f16ca316-725c-485e-baf6-0c440520b9e7","system_id":"levelo_inurba_marseille","lat":43.29573,"lon":5.367355,"is_reserved":false,"is_disabled":false,"rental_uris":{"android":"levelo://app?vid=f16ca316-725c-485e-baf6-0c440520b9e7","ios":"levelo://app?vid=f16ca316-725c-485e-baf6-0c440520b9e7"},"vehicle_type_id":"4","last_reported":1712401494,"current_range_meters":23600,"station_id":"ce4bgph2rcd13ifvqc2g","pricing_plan_id":"cebpf4jnsgd1na2vs0mg"},{"bike_id":"58f0f820-6ef4-4687-bc73-cd993df81c33","system_id":"levelo_inurba_marseille","lat":43.297167,"lon":5.376503,"is_reserved":false,"is_disabled":false,"rental_uris":{"android":"levelo://app?vid=58f0f820-6ef4-4687-bc73-cd993df81c33","ios":"levelo://app?vid=58f0f820-6ef4-4687-bc73-cd993df81c33"},"vehicle_type_id":"4","last_reported":1712401494,"current_range_meters":23200,"station_id":"ce4bgkh2rcd13ifvqbl0","pricing_plan_id":"cebpf4jnsgd1na2vs0mg"},{"bike_id":"12da61e6-9b88-46bf-ba21-af2c295d5fb4","system_id":"levelo_inurba_marseille","lat":43.296921,"lon":5.376579,"is_reserved":false,"is_disabled":false,"rental_uris":{"android":"levelo://app?vid=12da61e6-9b88-46bf-ba21-af2c295d5fb4","ios":"levelo://app?vid=12da61e6-9b88-46bf-ba21-af2c295d5fb4"},"vehicle_type_id":"4","last_reported":1712401494,"current_range_meters":8000,"station_id":"ce4bgkh2rcd13ifvqbl0","pricing_plan_id":"cebpf4jnsgd1na2vs0mg"},{"bike_id":"4705bb23-7f33-404c-b01e-1f1afa0ad77b","system_id":"levelo_inurba_marseille","lat":43.309522,"lon":5.390368,"is_reserved":false,"is_disabled":false,"rental_uris":{"android":"levelo://app?vid=4705bb23-7f33-404c-b01e-1f1afa0ad77b","ios":"levelo://app?vid=4705bb23-7f33-404c-b01e-1f1afa0ad77b"},"vehicle_type_id":"4","last_reported":1712401494,"current_range_meters":14000,"station_id":"ce4bgup2rcd13ifvqco0","pricing_plan_id":"cebpf4jnsgd1na2vs0mg"},{"bike_id":"36fc4400-5a18-4231-8265-b95e557c2ef9","system_id":"levelo_inurba_marseille","lat":43.309589,"lon":5.390258,"is_reserved":false,"is_disabled":false,"rental_uris":{"android":"levelo://app?vid=36fc4400-5a18-4231-8265-b95e557c2ef9","ios":"levelo://app?vid=36fc4400-5a18-4231-8265-b95e557c2ef9"},"vehicle_type_id":"4","last_reported":1712401494,"current_range_meters":26000,"station_id":"ce4bgup2rcd13ifvqco0","pricing_plan_id":"cebpf4jnsgd1na2vs0mg"},{"bike_id":"a1fdf148-3717-4d97-b5cb-035d8786778c","system_id":"levelo_inurba_marseille","lat":43.317557,"lon":5.390173,"is_reserved":false,"is_disabled":false,"rental_uris":{"android":"levelo://app?vid=a1fdf148-3717-4d97-b5cb-035d8786778c","ios":"levelo://app?vid=a1fdf148-3717-4d97-b5cb-035d8786778c"},"vehicle_type_id":"4","last_reported":1712401494,"current_range_meters":31600,"station_id":"ce4bhqp2rcd13ifvqhng","pricing_plan_id":"cebpf4jnsgd1na2vs0mg"},{"bike_id":"0957f34c-22d9-4167-8618-e478e5e5ab09","system_id":"levelo_inurba_marseille","lat":43.317557,"lon":5.390173,"is_reserved":false,"is_disabled":false,"rental_uris":{"android":"levelo://app?vid=0957f34c-22d9-4167-8618-e478e5e5ab09","ios":"levelo://app?vid=0957f34c-22d9-4167-8618-e478e5e5ab09"},"vehicle_type_id":"4","last_reported":1712401494,"current_range_meters":16400,"station_id":"ce4bhqp2rcd13ifvqhng","pricing_plan_id":"cebpf4jnsgd1na2vs0mg"},{"bike_id":"9ee8775b-3245-4620-9bb3-c5b57bc94d6e","system_id":"levelo_inurba_marseille","lat":43.317503,"lon":5.390245,"is_reserved":false,"is_disabled":false,"rental_uris":{"android":"levelo://app?vid=9ee8775b-3245-4620-9bb3-c5b57bc94d6e","ios":"levelo://app?vid=9ee8775b-3245-4620-9bb3-c5b57bc94d6e"},"vehicle_type_id":"4","last_reported":1712401494,"current_range_meters":22000,"station_id":"ce4bhqp2rcd13ifvqhng","pricing_plan_id":"cebpf4jnsgd1na2vs0mg"},{"bike_id":"aa5f2192-60bd-4976-b331-dddf00ab5af4","system_id":"levelo_inurba_marseille","lat":43.295748,"lon":5.37522,"is_reserved":false,"is_disabled":false,"rental_uris":{"android":"levelo://app?vid=aa5f2192-60bd-4976-b331-dddf00ab5af4","ios":"levelo://app?vid=aa5f2192-60bd-4976-b331-dddf00ab5af4"},"vehicle_type_id":"4","last_reported":1712401494,"current_range_meters":24400,"station_id":"ce4bgh92rcd13ifvqb50","pricing_plan_id":"cebpf4jnsgd1na2vs0mg"},{"bike_id":"97c01add-53d2-4ed1-b564-e90619e094b7","system_id":"levelo_inurba_marseille","lat":43.295748,"lon":5.37522,"is_reserved":false,"is_disabled":false,"rental_uris":{"android":"levelo://app?vid=97c01add-53d2-4ed1-b564-e90619e094b7","ios":"levelo://app?vid=97c01add-53d2-4ed1-b564-e90619e094b7"},"vehicle_type_id":"4","last_reported":1712401494,"current_range_meters":23600,"station_id":"ce4bgh92rcd13ifvqb50","pricing_plan_id":"cebpf4jnsgd1na2vs0mg"},{"bike_id":"9ed78da7-e9be-47da-b365-70c2cc6942d4","system_id":"levelo_inurba_marseille","lat":43.284217,"lon":5.349697,"is_reserved":false,"is_disabled":false,"rental_uris":{"android":"levelo://app?vid=9ed78da7-e9be-47da-b365-70c2cc6942d4","ios":"levelo://app?vid=9ed78da7-e9be-47da-b365-70c2cc6942d4"},"vehicle_type_id":"4","last_reported":1712401494,"current_range_meters":0,"station_id":"ce4bhbh2rcd13ifvqepg","pricing_plan_id":"cebpf4jnsgd1na2vs0mg"},{"bike_id":"8afc7e16-4cfb-4765-8edb-c9ada45cae55","system_id":"levelo_inurba_marseille","lat":43.29786,"lon":5.381369,"is_reserved":false,"is_disabled":false,"rental_uris":{"android":"levelo://app?vid=8afc7e16-4cfb-4765-8edb-c9ada45cae55","ios":"levelo://app?vid=8afc7e16-4cfb-4765-8edb-c9ada45cae55"},"vehicle_type_id":"4","last_reported":1712401494,"current_range_meters":19200,"station_id":"ce4bgip2rcd13ifvqbb0","pricing_plan_id":"cebpf4jnsgd1na2vs0mg"},{"bike_id":"d53816e1-5cec-4147-a794-36010c96753a","system_id":"levelo_inurba_marseille","lat":43.296084,"lon":5.377208,"is_reserved":false,"is_disabled":false,"rental_uris":{"android":"levelo://app?vid=d53816e1-5cec-4147-a794-36010c96753a","ios":"levelo://app?vid=d53816e1-5cec-4147-a794-36010c96753a"},"vehicle_type_id":"4","last_reported":1712401494,"current_range_meters":16800,"station_id":"ce4bhb12rcd13ifvqel0","pricing_plan_id":"cebpf4jnsgd1na2vs0mg"},{"bike_id":"73e71cca-f45c-49f3-baad-ed93933a63ee","system_id":"levelo_inurba_marseille","lat":43.314811,"lon":5.373103,"is_reserved":false,"is_disabled":false,"rental_uris":{"android":"levelo://app?vid=73e71cca-f45c-49f3-baad-ed93933a63ee","ios":"levelo://app?vid=73e71cca-f45c-49f3-baad-ed93933a63ee"},"vehicle_type_id":"4","last_reported":1712401494,"current_range_meters":20800,"station_id":"ce4bgt12rcd13ifvqcd0","pricing_plan_id":"cebpf4jnsgd1na2vs0mg"},{"bike_id":"45a8717c-3536-402f-856c-157949d332e4","system_id":"levelo_inurba_marseille","lat":43.299856,"lon":5.385033,"is_reserved":false,"is_disabled":false,"rental_uris":{"android":"levelo://app?vid=45a8717c-3536-402f-856c-157949d332e4","ios":"levelo://app?vid=45a8717c-3536-402f-856c-157949d332e4"},"vehicle_type_id":"4","last_reported":1712401494,"current_range_meters":20400,"station_id":"ce4bhhh2rcd13ifvqfk0","pricing_plan_id":"cebpf4jnsgd1na2vs0mg"},{"bike_id":"69a8be1a-efb7-4e09-83a0-99a0b9fcdfda","system_id":"levelo_inurba_marseille","lat":43.29525,"lon":5.37506,"is_reserved":false,"is_disabled":false,"rental_uris":{"android":"levelo://app?vid=69a8be1a-efb7-4e09-83a0-99a0b9fcdfda","ios":"levelo://app?vid=69a8be1a-efb7-4e09-83a0-99a0b9fcdfda"},"vehicle_type_id":"4","last_reported":1712401494,"current_range_meters":18800,"station_id":"ce4bgkp2rcd13ifvqbmg","pricing_plan_id":"cebpf4jnsgd1na2vs0mg"},{"bike_id":"361f5b60-4381-4610-94bb-d8514e81f610","system_id":"levelo_inurba_marseille","lat":43.309589,"lon":5.390258,"is_reserved":false,"is_disabled":false,"rental_uris":{"android":"levelo://app?vid=361f5b60-4381-4610-94bb-d8514e81f610","ios":"levelo://app?vid=361f5b60-4381-4610-94bb-d8514e81f610"},"vehicle_type_id":"4","last_reported":1712401494,"current_range_meters":15600,"station_id":"ce4bgup2rcd13ifvqco0","pricing_plan_id":"cebpf4jnsgd1na2vs0mg"},{"bike_id":"3689cdca-7876-43fb-953b-57d2b65b0a2d","system_id":"levelo_inurba_marseille","lat":43.323584,"lon":5.388747,"is_reserved":false,"is_disabled":false,"rental_uris":{"android":"levelo://app?vid=3689cdca-7876-43fb-953b-57d2b65b0a2d","ios":"levelo://app?vid=3689cdca-7876-43fb-953b-57d2b65b0a2d"},"vehicle_type_id":"4","last_reported":1712401494,"current_range_meters":11600,"station_id":"ce4bhqp2rcd13ifvqhog","pricing_plan_id":"cebpf4jnsgd1na2vs0mg"},{"bike_id":"987d0676-a1cb-45c3-ab53-3afb80b2673b","system_id":"levelo_inurba_marseille","lat":43.3236,"lon":5.38877,"is_reserved":false,"is_disabled":false,"rental_uris":{"android":"levelo://app?vid=987d0676-a1cb-45c3-ab53-3afb80b2673b","ios":"levelo://app?vid=987d0676-a1cb-45c3-ab53-3afb80b2673b"},"vehicle_type_id":"4","last_reported":1712401494,"current_range_meters":9200,"station_id":"ce4bhqp2rcd13ifvqhog","pricing_plan_id":"cebpf4jnsgd1na2vs0mg"},{"bike_id":"ef95e66e-e894-4c47-af3b-a3b6eb491c17","system_id":"levelo_inurba_marseille","lat":43.323593,"lon":5.388825,"is_reserved":false,"is_disabled":false,"rental_uris":{"android":"levelo://app?vid=ef95e66e-e894-4c47-af3b-a3b6eb491c17","ios":"levelo://app?vid=ef95e66e-e894-4c47-af3b-a3b6eb491c17"},"vehicle_type_id":"4","last_reported":1712401494,"current_range_meters":31200,"station_id":"ce4bhqp2rcd13ifvqhog","pricing_plan_id":"cebpf4jnsgd1na2vs0mg"},{"bike_id":"82ffb106-2f33-4466-87f2-62f79a6f7e84","system_id":"levelo_inurba_marseille","lat":43.32359,"lon":5.38886,"is_reserved":false,"is_disabled":false,"rental_uris":{"android":"levelo://app?vid=82ffb106-2f33-4466-87f2-62f79a6f7e84","ios":"levelo://app?vid=82ffb106-2f33-4466-87f2-62f79a6f7e84"},"vehicle_type_id":"4","last_reported":1712401494,"current_range_meters":9200,"station_id":"ce4bhqp2rcd13ifvqhog","pricing_plan_id":"cebpf4jnsgd1na2vs0mg"},{"bike_id":"ca489e1a-76bb-408d-a414-6afa997460b0","system_id":"levelo_inurba_marseille","lat":43.323627,"lon":5.388828,"is_reserved":false,"is_disabled":false,"rental_uris":{"android":"levelo://app?vid=ca489e1a-76bb-408d-a414-6afa997460b0","ios":"levelo://app?vid=ca489e1a-76bb-408d-a414-6afa997460b0"},"vehicle_type_id":"4","last_reported":1712401494,"current_range_meters":31200,"station_id":"ce4bhqp2rcd13ifvqhog","pricing_plan_id":"cebpf4jnsgd1na2vs0mg"},{"bike_id":"19a778c6-84de-43b4-9ee5-617e57525e2c","system_id":"levelo_inurba_marseille","lat":43.323588,"lon":5.388865,"is_reserved":false,"is_disabled":false,"rental_uris":{"android":"levelo://app?vid=19a778c6-84de-43b4-9ee5-617e57525e2c","ios":"levelo://app?vid=19a778c6-84de-43b4-9ee5-617e57525e2c"},"vehicle_type_id":"4","last_reported":1712401494,"current_range_meters":30400,"station_id":"ce4bhqp2rcd13ifvqhog","pricing_plan_id":"cebpf4jnsgd1na2vs0mg"},{"bike_id":"c7c8d46c-5a4a-4cca-ac41-95e7db9cc197","system_id":"levelo_inurba_marseille","lat":43.323626,"lon":5.388837,"is_reserved":false,"is_disabled":false,"rental_uris":{"android":"levelo://app?vid=c7c8d46c-5a4a-4cca-ac41-95e7db9cc197","ios":"levelo://app?vid=c7c8d46c-5a4a-4cca-ac41-95e7db9cc197"},"vehicle_type_id":"4","last_reported":1712401494,"current_range_meters":30000,"station_id":"ce4bhqp2rcd13ifvqhog","pricing_plan_id":"cebpf4jnsgd1na2vs0mg"},{"bike_id":"941a5afb-594d-47ec-8c61-fec50f33c0ee","system_id":"levelo_inurba_marseille","lat":43.32364,"lon":5.38884,"is_reserved":false,"is_disabled":false,"rental_uris":{"android":"levelo://app?vid=941a5afb-594d-47ec-8c61-fec50f33c0ee","ios":"levelo://app?vid=941a5afb-594d-47ec-8c61-fec50f33c0ee"},"vehicle_type_id":"4","last_reported":1712401494,"current_range_meters":29600,"station_id":"ce4bhqp2rcd13ifvqhog","pricing_plan_id":"cebpf4jnsgd1na2vs0mg"},{"bike_id":"8c53dfd4-294b-4745-8a22-fdf2bf20f21b","system_id":"levelo_inurba_marseille","lat":43.32368,"lon":5.38882,"is_reserved":false,"is_disabled":false,"rental_uris":{"android":"levelo://app?vid=8c53dfd4-294b-4745-8a22-fdf2bf20f21b","ios":"levelo://app?vid=8c53dfd4-294b-4745-8a22-fdf2bf20f21b"},"vehicle_type_id":"4","last_reported":1712401494,"current_range_meters":24000,"station_id":"ce4bhqp2rcd13ifvqhog","pricing_plan_id":"cebpf4jnsgd1na2vs0mg"},{"bike_id":"8eabd2e7-e7dc-441b-95d7-673563269356","system_id":"levelo_inurba_marseille","lat":43.32367,"lon":5.38883,"is_reserved":false,"is_disabled":false,"rental_uris":{"android":"levelo://app?vid=8eabd2e7-e7dc-441b-95d7-673563269356","ios":"levelo://app?vid=8eabd2e7-e7dc-441b-95d7-673563269356"},"vehicle_type_id":"4","last_reported":1712401494,"current_range_meters":7600,"station_id":"ce4bhqp2rcd13ifvqhog","pricing_plan_id":"cebpf4jnsgd1na2vs0mg"},{"bike_id":"cd93fb89-8201-4e6f-a051-31d7e592475f","system_id":"levelo_inurba_marseille","lat":43.323621,"lon":5.388889,"is_reserved":false,"is_disabled":false,"rental_uris":{"android":"levelo://app?vid=cd93fb89-8201-4e6f-a051-31d7e592475f","ios":"levelo://app?vid=cd93fb89-8201-4e6f-a051-31d7e592475f"},"vehicle_type_id":"4","last_reported":1712401494,"current_range_meters":18000,"station_id":"ce4bhqp2rcd13ifvqhog","pricing_plan_id":"cebpf4jnsgd1na2vs0mg"},{"bike_id":"c4433137-a155-4c9c-92fd-007eb25cafce","system_id":"levelo_inurba_marseille","lat":43.323689,"lon":5.388844,"is_reserved":false,"is_disabled":false,"rental_uris":{"android":"levelo://app?vid=c4433137-a155-4c9c-92fd-007eb25cafce","ios":"levelo://app?vid=c4433137-a155-4c9c-92fd-007eb25cafce"},"vehicle_type_id":"4","last_reported":1712401494,"current_range_meters":29600,"station_id":"ce4bhqp2rcd13ifvqhog","pricing_plan_id":"cebpf4jnsgd1na2vs0mg"},{"bike_id":"41405296-cc57-4517-995e-a1d8f1fd6e67","system_id":"levelo_inurba_marseille","lat":43.32367,"lon":5.388836,"is_reserved":false,"is_disabled":false,"rental_uris":{"android":"levelo://app?vid=41405296-cc57-4517-995e-a1d8f1fd6e67","ios":"levelo://app?vid=41405296-cc57-4517-995e-a1d8f1fd6e67"},"vehicle_type_id":"4","last_reported":1712401494,"current_range_meters":17600,"station_id":"ce4bhqp2rcd13ifvqhog","pricing_plan_id":"cebpf4jnsgd1na2vs0mg"},{"bike_id":"dd867349-7870-48de-b688-7087b57fdbb7","system_id":"levelo_inurba_marseille","lat":43.2961,"lon":5.380832,"is_reserved":false,"is_disabled":false,"rental_uris":{"android":"levelo://app?vid=dd867349-7870-48de-b688-7087b57fdbb7","ios":"levelo://app?vid=dd867349-7870-48de-b688-7087b57fdbb7"},"vehicle_type_id":"4","last_reported":1712401494,"current_range_meters":2000,"station_id":"ce4bgl12rcd13ifvqbo0","pricing_plan_id":"cebpf4jnsgd1na2vs0mg"},{"bike_id":"c18b6832-7882-453f-bdc6-753fe895a298","system_id":"levelo_inurba_marseille","lat":43.298037,"lon":5.381066,"is_reserved":false,"is_disabled":false,"rental_uris":{"android":"levelo://app?vid=c18b6832-7882-453f-bdc6-753fe895a298","ios":"levelo://app?vid=c18b6832-7882-453f-bdc6-753fe895a298"},"vehicle_type_id":"4","last_reported":1712401494,"current_range_meters":26800,"station_id":"ce4bgip2rcd13ifvqbb0","pricing_plan_id":"cebpf4jnsgd1na2vs0mg"},{"bike_id":"90949e35-a647-4991-ab52-c799b4be7075","system_id":"levelo_inurba_marseille","lat":43.293259,"lon":5.371586,"is_reserved":false,"is_disabled":false,"rental_uris":{"android":"levelo://app?vid=90949e35-a647-4991-ab52-c799b4be7075","ios":"levelo://app?vid=90949e35-a647-4991-ab52-c799b4be7075"},"vehicle_type_id":"4","last_reported":1712401494,"current_range_meters":4400,"station_id":"ce4bgh92rcd13ifvqb40","pricing_plan_id":"cebpf4jnsgd1na2vs0mg"},{"bike_id":"7c3b3cd6-fd7e-444e-b509-781163365883","system_id":"levelo_inurba_marseille","lat":43.29303,"lon":5.37164,"is_reserved":false,"is_disabled":false,"rental_uris":{"android":"levelo://app?vid=7c3b3cd6-fd7e-444e-b509-781163365883","ios":"levelo://app?vid=7c3b3cd6-fd7e-444e-b509-781163365883"},"vehicle_type_id":"4","last_reported":1712401494,"current_range_meters":6000,"station_id":"ce4bgh92rcd13ifvqb40","pricing_plan_id":"cebpf4jnsgd1na2vs0mg"},{"bike_id":"ea9b3540-2d70-4d01-b803-d16467541bf4","system_id":"levelo_inurba_marseille","lat":43.291994,"lon":5.357886,"is_reserved":false,"is_disabled":false,"rental_uris":{"android":"levelo://app?vid=ea9b3540-2d70-4d01-b803-d16467541bf4","ios":"levelo://app?vid=ea9b3540-2d70-4d01-b803-d16467541bf4"},"vehicle_type_id":"4","last_reported":1712401494,"current_range_meters":1600,"station_id":"ce4bhb12rcd13ifvqel0","pricing_plan_id":"cebpf4jnsgd1na2vs0mg"},{"bike_id":"2ea3e940-b5ae-43bc-894d-573c205275e2","system_id":"levelo_inurba_marseille","lat":43.29274,"lon":5.36842,"is_reserved":false,"is_disabled":false,"rental_uris":{"android":"levelo://app?vid=2ea3e940-b5ae-43bc-894d-573c205275e2","ios":"levelo://app?vid=2ea3e940-b5ae-43bc-894d-573c205275e2"},"vehicle_type_id":"4","last_reported":1712401494,"current_range_meters":0,"station_id":"ce4bhbp2rcd13ifvqesg","pricing_plan_id":"cebpf4jnsgd1na2vs0mg"},{"bike_id":"08613647-5a41-4029-a859-3dd2e56c0cdd","system_id":"levelo_inurba_marseille","lat":43.295748,"lon":5.37522,"is_reserved":false,"is_disabled":false,"rental_uris":{"android":"levelo://app?vid=08613647-5a41-4029-a859-3dd2e56c0cdd","ios":"levelo://app?vid=08613647-5a41-4029-a859-3dd2e56c0cdd"},"vehicle_type_id":"4","last_reported":1712401494,"current_range_meters":9200,"station_id":"ce4bgh92rcd13ifvqb50","pricing_plan_id":"cebpf4jnsgd1na2vs0mg"},{"bike_id":"627788fc-5ac7-4c80-b158-d04a6557cef8","system_id":"levelo_inurba_marseille","lat":43.292749,"lon":5.368402,"is_reserved":false,"is_disabled":false,"rental_uris":{"android":"levelo://app?vid=627788fc-5ac7-4c80-b158-d04a6557cef8","ios":"levelo://app?vid=627788fc-5ac7-4c80-b158-d04a6557cef8"},"vehicle_type_id":"4","last_reported":1712401494,"current_range_meters":17600,"station_id":"ce4bhbp2rcd13ifvqesg","pricing_plan_id":"cebpf4jnsgd1na2vs0mg"},{"bike_id":"7991b26f-08e1-4179-a718-ba0c52332cf8","system_id":"levelo_inurba_marseille","lat":43.292317,"lon":5.36848,"is_reserved":false,"is_disabled":false,"rental_uris":{"android":"levelo://app?vid=7991b26f-08e1-4179-a718-ba0c52332cf8","ios":"levelo://app?vid=7991b26f-08e1-4179-a718-ba0c52332cf8"},"vehicle_type_id":"4","last_reported":1712401494,"current_range_meters":7600,"station_id":"ce4bhbp2rcd13ifvqesg","pricing_plan_id":"cebpf4jnsgd1na2vs0mg"},{"bike_id":"8cff7312-4574-4d85-9219-f8a5ad034e81","system_id":"levelo_inurba_marseille","lat":43.293009,"lon":5.374584,"is_reserved":false,"is_disabled":false,"rental_uris":{"android":"levelo://app?vid=8cff7312-4574-4d85-9219-f8a5ad034e81","ios":"levelo://app?vid=8cff7312-4574-4d85-9219-f8a5ad034e81"},"vehicle_type_id":"4","last_reported":1712401494,"current_range_meters":14000,"station_id":"ce4bgi12rcd13ifvqb70","pricing_plan_id":"cebpf4jnsgd1na2vs0mg"},{"bike_id":"55fd7653-5385-42c6-9ad8-e270239febdd","system_id":"levelo_inurba_marseille","lat":43.30196,"lon":5.39091,"is_reserved":false,"is_disabled":false,"rental_uris":{"android":"levelo://app?vid=55fd7653-5385-42c6-9ad8-e270239febdd","ios":"levelo://app?vid=55fd7653-5385-42c6-9ad8-e270239febdd"},"vehicle_type_id":"4","last_reported":1712401494,"current_range_meters":6800,"station_id":"ce4bhhh2rcd13ifvqfk0","pricing_plan_id":"cebpf4jnsgd1na2vs0mg"},{"bike_id":"231f3221-7c2b-449e-91b1-e5cc78f65e8d","system_id":"levelo_inurba_marseille","lat":43.30299,"lon":5.39205,"is_reserved":false,"is_disabled":false,"rental_uris":{"android":"levelo://app?vid=231f3221-7c2b-449e-91b1-e5cc78f65e8d","ios":"levelo://app?vid=231f3221-7c2b-449e-91b1-e5cc78f65e8d"},"vehicle_type_id":"4","last_reported":1712401494,"current_range_meters":0,"station_id":"ce4bgkh2rcd13ifvqbk0","pricing_plan_id":"cebpf4jnsgd1na2vs0mg"},{"bike_id":"4cc4ce9a-10c5-4328-a430-47e5b0e6e426","system_id":"levelo_inurba_marseille","lat":43.303002,"lon":5.392142,"is_reserved":false,"is_disabled":false,"rental_uris":{"android":"levelo://app?vid=4cc4ce9a-10c5-4328-a430-47e5b0e6e426","ios":"levelo://app?vid=4cc4ce9a-10c5-4328-a430-47e5b0e6e426"},"vehicle_type_id":"4","last_reported":1712401494,"current_range_meters":14400,"station_id":"ce4bgkh2rcd13ifvqbk0","pricing_plan_id":"cebpf4jnsgd1na2vs0mg"},{"bike_id":"df2ec8ce-2fa5-4877-a780-bb408dd36b67","system_id":"levelo_inurba_marseille","lat":43.301429,"lon":5.37413,"is_reserved":false,"is_disabled":false,"rental_uris":{"android":"levelo://app?vid=df2ec8ce-2fa5-4877-a780-bb408dd36b67","ios":"levelo://app?vid=df2ec8ce-2fa5-4877-a780-bb408dd36b67"},"vehicle_type_id":"4","last_reported":1712401494,"current_range_meters":30000,"station_id":"ce4bgs92rcd13ifvqcc0","pricing_plan_id":"cebpf4jnsgd1na2vs0mg"},{"bike_id":"5ab63426-3da7-40fd-b25b-ad07d7cb3a95","system_id":"levelo_inurba_marseille","lat":43.231794,"lon":5.400052,"is_reserved":false,"is_disabled":false,"rental_uris":{"android":"levelo://app?vid=5ab63426-3da7-40fd-b25b-ad07d7cb3a95","ios":"levelo://app?vid=5ab63426-3da7-40fd-b25b-ad07d7cb3a95"},"vehicle_type_id":"4","last_reported":1712401494,"current_range_meters":14800,"station_id":"ce4bhn12rcd13ifvqgqg","pricing_plan_id":"cebpf4jnsgd1na2vs0mg"},{"bike_id":"6ba455ef-d9d4-4865-9856-9e2c89709e06","system_id":"levelo_inurba_marseille","lat":43.2936,"lon":5.37835,"is_reserved":false,"is_disabled":false,"rental_uris":{"android":"levelo://app?vid=6ba455ef-d9d4-4865-9856-9e2c89709e06","ios":"levelo://app?vid=6ba455ef-d9d4-4865-9856-9e2c89709e06"},"vehicle_type_id":"4","last_reported":1712401494,"current_range_meters":30000,"station_id":"ce4bgjh2rcd13ifvqbf0","pricing_plan_id":"cebpf4jnsgd1na2vs0mg"},{"bike_id":"76ea0bdf-7718-4976-897e-ed4ae50c31e2","system_id":"levelo_inurba_marseille","lat":43.293677,"lon":5.378357,"is_reserved":false,"is_disabled":false,"rental_uris":{"android":"levelo://app?vid=76ea0bdf-7718-4976-897e-ed4ae50c31e2","ios":"levelo://app?vid=76ea0bdf-7718-4976-897e-ed4ae50c31e2"},"vehicle_type_id":"4","last_reported":1712401494,"current_range_meters":12000,"station_id":"ce4bhn12rcd13ifvqgqg","pricing_plan_id":"cebpf4jnsgd1na2vs0mg"},{"bike_id":"f5bdad9f-1121-4309-b9eb-ef944a64e442","system_id":"levelo_inurba_marseille","lat":43.2936,"lon":5.37835,"is_reserved":false,"is_disabled":false,"rental_uris":{"android":"levelo://app?vid=f5bdad9f-1121-4309-b9eb-ef944a64e442","ios":"levelo://app?vid=f5bdad9f-1121-4309-b9eb-ef944a64e442"},"vehicle_type_id":"4","last_reported":1712401494,"current_range_meters":24000,"station_id":"ce4bgjh2rcd13ifvqbf0","pricing_plan_id":"cebpf4jnsgd1na2vs0mg"},{"bike_id":"6e6e3687-2a5c-427f-b04f-275406008201","system_id":"levelo_inurba_marseille","lat":43.292311,"lon":5.360731,"is_reserved":false,"is_disabled":false,"rental_uris":{"android":"levelo://app?vid=6e6e3687-2a5c-427f-b04f-275406008201","ios":"levelo://app?vid=6e6e3687-2a5c-427f-b04f-275406008201"},"vehicle_type_id":"4","last_reported":1712401494,"current_range_meters":28000,"station_id":"ce4bhbh2rcd13ifvqeqg","pricing_plan_id":"cebpf4jnsgd1na2vs0mg"},{"bike_id":"96169254-ca31-4c73-8c2c-735a1c4a2ffb","system_id":"levelo_inurba_marseille","lat":43.29217,"lon":5.36055,"is_reserved":false,"is_disabled":false,"rental_uris":{"android":"levelo://app?vid=96169254-ca31-4c73-8c2c-735a1c4a2ffb","ios":"levelo://app?vid=96169254-ca31-4c73-8c2c-735a1c4a2ffb"},"vehicle_type_id":"4","last_reported":1712401494,"current_range_meters":18000,"station_id":"ce4bhbh2rcd13ifvqeqg","pricing_plan_id":"cebpf4jnsgd1na2vs0mg"},{"bike_id":"9959e78a-dbac-4476-893d-d8340a5250f8","system_id":"levelo_inurba_marseille","lat":43.292005,"lon":5.357875,"is_reserved":false,"is_disabled":false,"rental_uris":{"android":"levelo://app?vid=9959e78a-dbac-4476-893d-d8340a5250f8","ios":"levelo://app?vid=9959e78a-dbac-4476-893d-d8340a5250f8"},"vehicle_type_id":"4","last_reported":1712401494,"current_range_meters":13600,"station_id":"ce4bhb12rcd13ifvqel0","pricing_plan_id":"cebpf4jnsgd1na2vs0mg"},{"bike_id":"fd63030a-d59e-4c36-bdb1-832dbcf99813","system_id":"levelo_inurba_marseille","lat":43.292005,"lon":5.357875,"is_reserved":false,"is_disabled":false,"rental_uris":{"android":"levelo://app?vid=fd63030a-d59e-4c36-bdb1-832dbcf99813","ios":"levelo://app?vid=fd63030a-d59e-4c36-bdb1-832dbcf99813"},"vehicle_type_id":"4","last_reported":1712401494,"current_range_meters":26800,"station_id":"ce4bhb12rcd13ifvqel0","pricing_plan_id":"cebpf4jnsgd1na2vs0mg"},{"bike_id":"6e2d52ff-2a7e-46e4-8e69-92803547185f","system_id":"levelo_inurba_marseille","lat":43.292005,"lon":5.357875,"is_reserved":false,"is_disabled":false,"rental_uris":{"android":"levelo://app?vid=6e2d52ff-2a7e-46e4-8e69-92803547185f","ios":"levelo://app?vid=6e2d52ff-2a7e-46e4-8e69-92803547185f"},"vehicle_type_id":"4","last_reported":1712401494,"current_range_meters":0,"station_id":"ce4bhb12rcd13ifvqel0","pricing_plan_id":"cebpf4jnsgd1na2vs0mg"},{"bike_id":"00d9b934-8f68-4d3b-989c-a86ec7ec8722","system_id":"levelo_inurba_marseille","lat":43.309047,"lon":5.396551,"is_reserved":false,"is_disabled":false,"rental_uris":{"android":"levelo://app?vid=00d9b934-8f68-4d3b-989c-a86ec7ec8722","ios":"levelo://app?vid=00d9b934-8f68-4d3b-989c-a86ec7ec8722"},"vehicle_type_id":"4","last_reported":1712401494,"current_range_meters":16000,"station_id":"ce4bh012rcd13ifvqcv0","pricing_plan_id":"cebpf4jnsgd1na2vs0mg"},{"bike_id":"fe004d7f-2e6d-41da-8d22-e49fa5f08e2f","system_id":"levelo_inurba_marseille","lat":43.291994,"lon":5.357886,"is_reserved":false,"is_disabled":false,"rental_uris":{"android":"levelo://app?vid=fe004d7f-2e6d-41da-8d22-e49fa5f08e2f","ios":"levelo://app?vid=fe004d7f-2e6d-41da-8d22-e49fa5f08e2f"},"vehicle_type_id":"4","last_reported":1712401494,"current_range_meters":24000,"station_id":"ce4bhb12rcd13ifvqel0","pricing_plan_id":"cebpf4jnsgd1na2vs0mg"},{"bike_id":"0f64ca3a-cc31-4d52-83c0-86e89730a7b8","system_id":"levelo_inurba_marseille","lat":43.291994,"lon":5.357886,"is_reserved":false,"is_disabled":false,"rental_uris":{"android":"levelo://app?vid=0f64ca3a-cc31-4d52-83c0-86e89730a7b8","ios":"levelo://app?vid=0f64ca3a-cc31-4d52-83c0-86e89730a7b8"},"vehicle_type_id":"4","last_reported":1712401494,"current_range_meters":27200,"station_id":"ce4bhb12rcd13ifvqel0","pricing_plan_id":"cebpf4jnsgd1na2vs0mg"},{"bike_id":"1670f433-66ac-4e9a-b50e-aee492de34ed","system_id":"levelo_inurba_marseille","lat":43.292005,"lon":5.357875,"is_reserved":false,"is_disabled":false,"rental_uris":{"android":"levelo://app?vid=1670f433-66ac-4e9a-b50e-aee492de34ed","ios":"levelo://app?vid=1670f433-66ac-4e9a-b50e-aee492de34ed"},"vehicle_type_id":"4","last_reported":1712401494,"current_range_meters":4000,"station_id":"ce4bhb12rcd13ifvqel0","pricing_plan_id":"cebpf4jnsgd1na2vs0mg"},{"bike_id":"d68a8ace-0d6c-4081-8b9a-136ee99f95fd","system_id":"levelo_inurba_marseille","lat":43.29193,"lon":5.35795,"is_reserved":false,"is_disabled":false,"rental_uris":{"android":"levelo://app?vid=d68a8ace-0d6c-4081-8b9a-136ee99f95fd","ios":"levelo://app?vid=d68a8ace-0d6c-4081-8b9a-136ee99f95fd"},"vehicle_type_id":"4","last_reported":1712401494,"current_range_meters":26000,"station_id":"ce4bhb12rcd13ifvqel0","pricing_plan_id":"cebpf4jnsgd1na2vs0mg"},{"bike_id":"2d991276-0097-4495-8c1d-1c5dffd2e279","system_id":"levelo_inurba_marseille","lat":43.29187,"lon":5.35804,"is_reserved":false,"is_disabled":false,"rental_uris":{"android":"levelo://app?vid=2d991276-0097-4495-8c1d-1c5dffd2e279","ios":"levelo://app?vid=2d991276-0097-4495-8c1d-1c5dffd2e279"},"vehicle_type_id":"4","last_reported":1712401494,"current_range_meters":30000,"station_id":"ce4bhb12rcd13ifvqel0","pricing_plan_id":"cebpf4jnsgd1na2vs0mg"},{"bike_id":"fb0c7a94-0658-4b89-977f-33b033ec5252","system_id":"levelo_inurba_marseille","lat":43.291994,"lon":5.357886,"is_reserved":false,"is_disabled":false,"rental_uris":{"android":"levelo://app?vid=fb0c7a94-0658-4b89-977f-33b033ec5252","ios":"levelo://app?vid=fb0c7a94-0658-4b89-977f-33b033ec5252"},"vehicle_type_id":"4","last_reported":1712401494,"current_range_meters":2800,"station_id":"ce4bhb12rcd13ifvqel0","pricing_plan_id":"cebpf4jnsgd1na2vs0mg"},{"bike_id":"d89f0471-ccff-45dd-9f4e-fd3f03282b8c","system_id":"levelo_inurba_marseille","lat":43.29183,"lon":5.35809,"is_reserved":false,"is_disabled":false,"rental_uris":{"android":"levelo://app?vid=d89f0471-ccff-45dd-9f4e-fd3f03282b8c","ios":"levelo://app?vid=d89f0471-ccff-45dd-9f4e-fd3f03282b8c"},"vehicle_type_id":"4","last_reported":1712401494,"current_range_meters":28800,"station_id":"ce4bhb12rcd13ifvqel0","pricing_plan_id":"cebpf4jnsgd1na2vs0mg"},{"bike_id":"5efb1ceb-6872-495b-8d52-21f1dac9a5e8","system_id":"levelo_inurba_marseille","lat":43.313291,"lon":5.396838,"is_reserved":false,"is_disabled":false,"rental_uris":{"android":"levelo://app?vid=5efb1ceb-6872-495b-8d52-21f1dac9a5e8","ios":"levelo://app?vid=5efb1ceb-6872-495b-8d52-21f1dac9a5e8"},"vehicle_type_id":"4","last_reported":1712401494,"current_range_meters":6400,"station_id":"ce4bgvp2rcd13ifvqcu0","pricing_plan_id":"cebpf4jnsgd1na2vs0mg"},{"bike_id":"11778c72-94af-48ea-8ea7-37087d8abe91","system_id":"levelo_inurba_marseille","lat":43.291994,"lon":5.357886,"is_reserved":false,"is_disabled":false,"rental_uris":{"android":"levelo://app?vid=11778c72-94af-48ea-8ea7-37087d8abe91","ios":"levelo://app?vid=11778c72-94af-48ea-8ea7-37087d8abe91"},"vehicle_type_id":"4","last_reported":1712401494,"current_range_meters":800,"station_id":"ce4bhb12rcd13ifvqel0","pricing_plan_id":"cebpf4jnsgd1na2vs0mg"},{"bike_id":"1d421255-73eb-4aa6-8f82-f407c8e7dc47","system_id":"levelo_inurba_marseille","lat":43.29529,"lon":5.385581,"is_reserved":false,"is_disabled":false,"rental_uris":{"android":"levelo://app?vid=1d421255-73eb-4aa6-8f82-f407c8e7dc47","ios":"levelo://app?vid=1d421255-73eb-4aa6-8f82-f407c8e7dc47"},"vehicle_type_id":"4","last_reported":1712401494,"current_range_meters":18400,"station_id":"ce4bgih2rcd13ifvqba0","pricing_plan_id":"cebpf4jnsgd1na2vs0mg"},{"bike_id":"d347bebe-decf-4884-82b5-8b154554caef","system_id":"levelo_inurba_marseille","lat":43.29529,"lon":5.385581,"is_reserved":false,"is_disabled":false,"rental_uris":{"android":"levelo://app?vid=d347bebe-decf-4884-82b5-8b154554caef","ios":"levelo://app?vid=d347bebe-decf-4884-82b5-8b154554caef"},"vehicle_type_id":"4","last_reported":1712401494,"current_range_meters":16000,"station_id":"ce4bgih2rcd13ifvqba0","pricing_plan_id":"cebpf4jnsgd1na2vs0mg"},{"bike_id":"edc897c6-9b51-4252-a9fd-0d7412c306c3","system_id":"levelo_inurba_marseille","lat":43.299443,"lon":5.39149,"is_reserved":false,"is_disabled":false,"rental_uris":{"android":"levelo://app?vid=edc897c6-9b51-4252-a9fd-0d7412c306c3","ios":"levelo://app?vid=edc897c6-9b51-4252-a9fd-0d7412c306c3"},"vehicle_type_id":"4","last_reported":1712401494,"current_range_meters":23200,"station_id":"ce4bgs12rcd13ifvqcag","pricing_plan_id":"cebpf4jnsgd1na2vs0mg"},{"bike_id":"c926b11c-9668-46bc-8ea6-43300e3ab202","system_id":"levelo_inurba_marseille","lat":43.302008,"lon":5.394694,"is_reserved":false,"is_disabled":false,"rental_uris":{"android":"levelo://app?vid=c926b11c-9668-46bc-8ea6-43300e3ab202","ios":"levelo://app?vid=c926b11c-9668-46bc-8ea6-43300e3ab202"},"vehicle_type_id":"4","last_reported":1712401494,"current_range_meters":29200,"station_id":"ce4bh0p2rcd13ifvqd70","pricing_plan_id":"cebpf4jnsgd1na2vs0mg"},{"bike_id":"9c54fbe5-e0a9-4c96-a73e-84d6217ddb23","system_id":"levelo_inurba_marseille","lat":43.290624,"lon":5.359245,"is_reserved":false,"is_disabled":false,"rental_uris":{"android":"levelo://app?vid=9c54fbe5-e0a9-4c96-a73e-84d6217ddb23","ios":"levelo://app?vid=9c54fbe5-e0a9-4c96-a73e-84d6217ddb23"},"vehicle_type_id":"4","last_reported":1712401494,"current_range_meters":5200,"station_id":"ce4bha92rcd13ifvqeg0","pricing_plan_id":"cebpf4jnsgd1na2vs0mg"},{"bike_id":"f07fc34a-8f5a-48e4-8639-3ceb979a7c86","system_id":"levelo_inurba_marseille","lat":43.290624,"lon":5.359245,"is_reserved":false,"is_disabled":false,"rental_uris":{"android":"levelo://app?vid=f07fc34a-8f5a-48e4-8639-3ceb979a7c86","ios":"levelo://app?vid=f07fc34a-8f5a-48e4-8639-3ceb979a7c86"},"vehicle_type_id":"4","last_reported":1712401494,"current_range_meters":24400,"station_id":"ce4bha92rcd13ifvqeg0","pricing_plan_id":"cebpf4jnsgd1na2vs0mg"},{"bike_id":"e09a2b7f-f244-4201-a66c-14da01cc4b20","system_id":"levelo_inurba_marseille","lat":43.290631,"lon":5.359244,"is_reserved":false,"is_disabled":false,"rental_uris":{"android":"levelo://app?vid=e09a2b7f-f244-4201-a66c-14da01cc4b20","ios":"levelo://app?vid=e09a2b7f-f244-4201-a66c-14da01cc4b20"},"vehicle_type_id":"4","last_reported":1712401494,"current_range_meters":27200,"station_id":"ce4bha92rcd13ifvqeg0","pricing_plan_id":"cebpf4jnsgd1na2vs0mg"},{"bike_id":"c0b15f08-cfe6-48e2-aa5c-4fa812993d04","system_id":"levelo_inurba_marseille","lat":43.290631,"lon":5.359244,"is_reserved":false,"is_disabled":false,"rental_uris":{"android":"levelo://app?vid=c0b15f08-cfe6-48e2-aa5c-4fa812993d04","ios":"levelo://app?vid=c0b15f08-cfe6-48e2-aa5c-4fa812993d04"},"vehicle_type_id":"4","last_reported":1712401494,"current_range_meters":27600,"station_id":"ce4bha92rcd13ifvqeg0","pricing_plan_id":"cebpf4jnsgd1na2vs0mg"},{"bike_id":"3b5fc3a4-0685-47f4-9f57-0c9754ff0533","system_id":"levelo_inurba_marseille","lat":43.290319,"lon":5.375732,"is_reserved":false,"is_disabled":false,"rental_uris":{"android":"levelo://app?vid=3b5fc3a4-0685-47f4-9f57-0c9754ff0533","ios":"levelo://app?vid=3b5fc3a4-0685-47f4-9f57-0c9754ff0533"},"vehicle_type_id":"4","last_reported":1712401494,"current_range_meters":6000,"station_id":"ce4bh692rcd13ifvqe90","pricing_plan_id":"cebpf4jnsgd1na2vs0mg"},{"bike_id":"5d7aab3c-c412-4dc4-a005-fb73431e0dbf","system_id":"levelo_inurba_marseille","lat":43.300852,"lon":5.390859,"is_reserved":false,"is_disabled":false,"rental_uris":{"android":"levelo://app?vid=5d7aab3c-c412-4dc4-a005-fb73431e0dbf","ios":"levelo://app?vid=5d7aab3c-c412-4dc4-a005-fb73431e0dbf"},"vehicle_type_id":"4","last_reported":1712401494,"current_range_meters":15600,"station_id":"ce4bh192rcd13ifvqdb0","pricing_plan_id":"cebpf4jnsgd1na2vs0mg"},{"bike_id":"5ced5804-d1c3-4d3d-9873-c68e2f816ed9","system_id":"levelo_inurba_marseille","lat":43.290412,"lon":5.399633,"is_reserved":false,"is_disabled":false,"rental_uris":{"android":"levelo://app?vid=5ced5804-d1c3-4d3d-9873-c68e2f816ed9","ios":"levelo://app?vid=5ced5804-d1c3-4d3d-9873-c68e2f816ed9"},"vehicle_type_id":"4","last_reported":1712401494,"current_range_meters":8000,"station_id":"ce4bh392rcd13ifvqdm0","pricing_plan_id":"cebpf4jnsgd1na2vs0mg"},{"bike_id":"780af27c-4bd1-4877-a93d-0e3ff72e8197","system_id":"levelo_inurba_marseille","lat":43.29073,"lon":5.35587,"is_reserved":false,"is_disabled":false,"rental_uris":{"android":"levelo://app?vid=780af27c-4bd1-4877-a93d-0e3ff72e8197","ios":"levelo://app?vid=780af27c-4bd1-4877-a93d-0e3ff72e8197"},"vehicle_type_id":"4","last_reported":1712401494,"current_range_meters":11200,"station_id":"","pricing_plan_id":"cebpf4jnsgd1na2vs0mg"},{"bike_id":"41d6656a-6af2-499f-bac9-94a43ad81e73","system_id":"levelo_inurba_marseille","lat":43.292644,"lon":5.384257,"is_reserved":false,"is_disabled":false,"rental_uris":{"android":"levelo://app?vid=41d6656a-6af2-499f-bac9-94a43ad81e73","ios":"levelo://app?vid=41d6656a-6af2-499f-bac9-94a43ad81e73"},"vehicle_type_id":"4","last_reported":1712401494,"current_range_meters":26000,"station_id":"ce4bh692rcd13ifvqea0","pricing_plan_id":"cebpf4jnsgd1na2vs0mg"},{"bike_id":"dc5511a5-b9ec-4014-a243-a802110bbac0","system_id":"levelo_inurba_marseille","lat":43.29024,"lon":5.35595,"is_reserved":false,"is_disabled":false,"rental_uris":{"android":"levelo://app?vid=dc5511a5-b9ec-4014-a243-a802110bbac0","ios":"levelo://app?vid=dc5511a5-b9ec-4014-a243-a802110bbac0"},"vehicle_type_id":"4","last_reported":1712401494,"current_range_meters":12400,"station_id":"","pricing_plan_id":"cebpf4jnsgd1na2vs0mg"},{"bike_id":"d536e907-6141-4f1b-a835-4b104d4a3836","system_id":"levelo_inurba_marseille","lat":43.290103,"lon":5.356114,"is_reserved":false,"is_disabled":false,"rental_uris":{"android":"levelo://app?vid=d536e907-6141-4f1b-a835-4b104d4a3836","ios":"levelo://app?vid=d536e907-6141-4f1b-a835-4b104d4a3836"},"vehicle_type_id":"4","last_reported":1712401494,"current_range_meters":22400,"station_id":"ce4bhb92rcd13ifvqen0","pricing_plan_id":"cebpf4jnsgd1na2vs0mg"},{"bike_id":"6e2ffe2d-13e7-4972-a784-479499d7f4fc","system_id":"levelo_inurba_marseille","lat":43.290103,"lon":5.356114,"is_reserved":false,"is_disabled":false,"rental_uris":{"android":"levelo://app?vid=6e2ffe2d-13e7-4972-a784-479499d7f4fc","ios":"levelo://app?vid=6e2ffe2d-13e7-4972-a784-479499d7f4fc"},"vehicle_type_id":"4","last_reported":1712401494,"current_range_meters":24000,"station_id":"ce4bhb92rcd13ifvqen0","pricing_plan_id":"cebpf4jnsgd1na2vs0mg"},{"bike_id":"a2c0348f-202d-4920-b690-c58f34140f87","system_id":"levelo_inurba_marseille","lat":43.290103,"lon":5.356114,"is_reserved":false,"is_disabled":false,"rental_uris":{"android":"levelo://app?vid=a2c0348f-202d-4920-b690-c58f34140f87","ios":"levelo://app?vid=a2c0348f-202d-4920-b690-c58f34140f87"},"vehicle_type_id":"4","last_reported":1712401494,"current_range_meters":22800,"station_id":"ce4bhb92rcd13ifvqen0","pricing_plan_id":"cebpf4jnsgd1na2vs0mg"},{"bike_id":"2b73bd39-7b35-4583-87d1-112ddc0939ec","system_id":"levelo_inurba_marseille","lat":43.290104,"lon":5.356111,"is_reserved":false,"is_disabled":false,"rental_uris":{"android":"levelo://app?vid=2b73bd39-7b35-4583-87d1-112ddc0939ec","ios":"levelo://app?vid=2b73bd39-7b35-4583-87d1-112ddc0939ec"},"vehicle_type_id":"4","last_reported":1712401494,"current_range_meters":20800,"station_id":"ce4bhb92rcd13ifvqen0","pricing_plan_id":"cebpf4jnsgd1na2vs0mg"},{"bike_id":"8adbf1e0-4215-4345-a729-e01c47f9f0a0","system_id":"levelo_inurba_marseille","lat":43.290103,"lon":5.356114,"is_reserved":false,"is_disabled":false,"rental_uris":{"android":"levelo://app?vid=8adbf1e0-4215-4345-a729-e01c47f9f0a0","ios":"levelo://app?vid=8adbf1e0-4215-4345-a729-e01c47f9f0a0"},"vehicle_type_id":"4","last_reported":1712401494,"current_range_meters":28800,"station_id":"ce4bhb92rcd13ifvqen0","pricing_plan_id":"cebpf4jnsgd1na2vs0mg"},{"bike_id":"9e3dbbc8-f38c-431a-b935-9f062a54e9c4","system_id":"levelo_inurba_marseille","lat":43.297815,"lon":5.393548,"is_reserved":false,"is_disabled":false,"rental_uris":{"android":"levelo://app?vid=9e3dbbc8-f38c-431a-b935-9f062a54e9c4","ios":"levelo://app?vid=9e3dbbc8-f38c-431a-b935-9f062a54e9c4"},"vehicle_type_id":"4","last_reported":1712401494,"current_range_meters":16400,"station_id":"chh1huq6cuj3fo74tm60","pricing_plan_id":"cebpf4jnsgd1na2vs0mg"},{"bike_id":"110500ac-7ef1-4801-af37-22e52178277e","system_id":"levelo_inurba_marseille","lat":43.309589,"lon":5.390258,"is_reserved":false,"is_disabled":false,"rental_uris":{"android":"levelo://app?vid=110500ac-7ef1-4801-af37-22e52178277e","ios":"levelo://app?vid=110500ac-7ef1-4801-af37-22e52178277e"},"vehicle_type_id":"4","last_reported":1712401494,"current_range_meters":400,"station_id":"ce4bgup2rcd13ifvqco0","pricing_plan_id":"cebpf4jnsgd1na2vs0mg"},{"bike_id":"dce5cc7f-245f-4696-b41f-0b0a834e724c","system_id":"levelo_inurba_marseille","lat":43.3302,"lon":5.39032,"is_reserved":false,"is_disabled":false,"rental_uris":{"android":"levelo://app?vid=dce5cc7f-245f-4696-b41f-0b0a834e724c","ios":"levelo://app?vid=dce5cc7f-245f-4696-b41f-0b0a834e724c"},"vehicle_type_id":"4","last_reported":1712401494,"current_range_meters":9600,"station_id":"ce4bhr92rcd13ifvqhrg","pricing_plan_id":"cebpf4jnsgd1na2vs0mg"},{"bike_id":"1d532cc1-4be7-4403-9e8e-8fdfa30e6002","system_id":"levelo_inurba_marseille","lat":43.289743,"lon":5.378304,"is_reserved":false,"is_disabled":false,"rental_uris":{"android":"levelo://app?vid=1d532cc1-4be7-4403-9e8e-8fdfa30e6002","ios":"levelo://app?vid=1d532cc1-4be7-4403-9e8e-8fdfa30e6002"},"vehicle_type_id":"4","last_reported":1712401494,"current_range_meters":0,"station_id":"ce4bh9p2rcd13ifvqed0","pricing_plan_id":"cebpf4jnsgd1na2vs0mg"},{"bike_id":"347d1f46-f135-40c9-81a4-7e1a5cd0ff3f","system_id":"levelo_inurba_marseille","lat":43.3302,"lon":5.39038,"is_reserved":false,"is_disabled":false,"rental_uris":{"android":"levelo://app?vid=347d1f46-f135-40c9-81a4-7e1a5cd0ff3f","ios":"levelo://app?vid=347d1f46-f135-40c9-81a4-7e1a5cd0ff3f"},"vehicle_type_id":"4","last_reported":1712401494,"current_range_meters":5600,"station_id":"ce4bhr92rcd13ifvqhrg","pricing_plan_id":"cebpf4jnsgd1na2vs0mg"},