{"last_updated":1741903719,"ttl":60,"version":"2.2","data":{"bikes":[{"bike_id":"46f861aa-dccb-400d-8fc7-bb9082254569","system_id":"levelo_inurba_marseille","lat":43.28041,"lon":5.36944,"is_reserved":false,"is_disabled":false,"rental_uris":{"android":"levelo://app?vid=46f861aa-dccb-400d-8fc7-bb9082254569","ios":"levelo://app?vid=46f861aa-dccb-400d-8fc7-bb9082254569"},"vehicle_type_id":"4","last_reported":1741903719,"current_range_meters":2800,"station_id":"ce4bha12rcd13ifvqef0","pricing_plan_id":"cebpf4jnsgd1na2vs0mg"},{"bike_id":"e27c728b-5285-4adb-bc3e-258e79add0f5","system_id":"levelo_inurba_marseille","lat":43.29203,"lon":5.39327,"is_reserved":false,"is_disabled":false,"rental_uris":{"android":"levelo://app?vid=e27c728b-5285-4adb-bc3e-258e79add0f5","ios":"levelo://app?vid=e27c728b-5285-4adb-bc3e-258e79add0f5"},"vehicle_type_id":"4","last_reported":1741903719,"current_range_meters":3200,"station_id":"ce4bh192rcd13ifvqdd0","pricing_plan_id":"cebpf4jnsgd1na2vs0mg"},{"bike_id":"ede9cdcd-d1e4-4cc0-90bd-cfb7cc135dc4","system_id":"levelo_inurba_marseille","lat":43.24167,"lon":5.39706,"is_reserved":false,"is_disabled":true,"rental_uris":{"android":"levelo://app?vid=ede9cdcd-d1e4-4cc0-90bd-cfb7cc135dc4","ios":"levelo://app?vid=ede9cdcd-d1e4-4cc0-90bd-cfb7cc135dc4"},"vehicle_type_id":"4","last_reported":1741903719,"current_range_meters":3600,"station_id":"ce4bhn12rcd13ifvqgpg","pricing_plan_id":"cebpf4jnsgd1na2vs0mg"},{"bike_id":"c90a3d95-3a8f-4d8e-96a4-e0902f8fa5e2","system_id":"levelo_inurba_marseille","lat":43.310764,"lon":5.374938,"is_reserved":false,"is_disabled":false,"rental_uris":{"android":"levelo://app?vid=c90a3d95-3a8f-4d8e-96a4-e0902f8fa5e2","ios":"levelo://app?vid=c90a3d95-3a8f-4d8e-96a4-e0902f8fa5e2"},"vehicle_type_id":"4","last_reported":1741903719,"current_range_meters":4000,"station_id":"","pricing_plan_id":"cebpf4jnsgd1na2vs0mg"},{"bike_id":"210188c9-56b1-4532-b62c-263dad07ce51","system_id":"levelo_inurba_marseille","lat":43.31066,"lon":5.38369,"is_reserved":false,"is_disabled":false,"rental_uris":{"android":"levelo://app?vid=210188c9-56b1-4532-b62c-263dad07ce51","ios":"levelo://app?vid=210188c9-56b1-4532-b62c-263dad07ce51"},"vehicle_type_id":"4","last_reported":1741903719,"current_range_meters":4000,"station_id":"ce4bgv92rcd13ifvqcr0","pricing_plan_id":"cebpf4jnsgd1na2vs0mg"},{"bike_id":"748156e9-308b-4911-b5ae-ef9704f4ebbc","system_id":"levelo_inurba_marseille","lat":43.28155,"lon":5.42647,"is_reserved":false,"is_disabled":false,"rental_uris":{"android":"levelo://app?vid=748156e9-308b-4911-b5ae-ef9704f4ebbc","ios":"levelo://app?vid=748156e9-308b-4911-b5ae-ef9704f4ebbc"},"vehicle_type_id":"4","last_reported":1741903719,"current_range_meters":4800,"station_id":"ce4bhnh2rcd13ifvqgug","pricing_plan_id":"cebpf4jnsgd1na2vs0mg"},{"bike_id":"e3934234-1b74-4ceb-842b-a2b4a9b50cbe","system_id":"levelo_inurba_marseille","lat":43.32651,"lon":5.40985,"is_reserved":false,"is_disabled":false,"rental_uris":{"android":"levelo://app?vid=e3934234-1b74-4ceb-842b-a2b4a9b50cbe","ios":"levelo://app?vid=e3934234-1b74-4ceb-842b-a2b4a9b50cbe"},"vehicle_type_id":"4","last_reported":1741903719,"current_range_meters":4800,"station_id":"ce4bhpp2rcd13ifvqhgg","pricing_plan_id":"cebpf4jnsgd1na2vs0mg"},{"bike_id":"b4895c31-193d-4125-8f2e-9f0a678da0f5","system_id":"levelo_inurba_marseille","lat":43.309326,"lon":5.401365,"is_reserved":false,"is_disabled":false,"rental_uris":{"android":"levelo://app?vid=b4895c31-193d-4125-8f2e-9f0a678da0f5","ios":"levelo://app?vid=b4895c31-193d-4125-8f2e-9f0a678da0f5"},"vehicle_type_id":"4","last_reported":1741903719,"current_range_meters":4400,"station_id":"ce4bhb92rcd13ifvqen0","pricing_plan_id":"cebpf4jnsgd1na2vs0mg"},{"bike_id":"eabb6b0c-9939-42bf-968f-dc61fc77f9d9","system_id":"levelo_inurba_marseille","lat":43.28014,"lon":5.36547,"is_reserved":false,"is_disabled":false,"rental_uris":{"android":"levelo://app?vid=eabb6b0c-9939-42bf-968f-dc61fc77f9d9","ios":"levelo://app?vid=eabb6b0c-9939-42bf-968f-dc61fc77f9d9"},"vehicle_type_id":"4","last_reported":1741903719,"current_range_meters":4800,"station_id":"","pricing_plan_id":"cebpf4jnsgd1na2vs0mg"},{"bike_id":"0e1454f0-c501-449b-b78c-ddfc8f4d9aab","system_id":"levelo_inurba_marseille","lat":43.33768,"lon":5.3749,"is_reserved":false,"is_disabled":false,"rental_uris":{"android":"levelo://app?vid=0e1454f0-c501-449b-b78c-ddfc8f4d9aab","ios":"levelo://app?vid=0e1454f0-c501-449b-b78c-ddfc8f4d9aab"},"vehicle_type_id":"4","last_reported":1741903719,"current_range_meters":4800,"station_id":"","pricing_plan_id":"cebpf4jnsgd1na2vs0mg"},{"bike_id":"096c43b5-a142-47ce-b0fa-d007e15e62fd","system_id":"levelo_inurba_marseille","lat":43.28703,"lon":5.39986,"is_reserved":false,"is_disabled":false,"rental_uris":{"android":"levelo://app?vid=096c43b5-a142-47ce-b0fa-d007e15e62fd","ios":"levelo://app?vid=096c43b5-a142-47ce-b0fa-d007e15e62fd"},"vehicle_type_id":"4","last_reported":1741903719,"current_range_meters":4800,"station_id":"ce4bho92rcd13ifvqh3g","pricing_plan_id":"cebpf4jnsgd1na2vs0mg"},{"bike_id":"3a6f4a08-7097-425e-ba9b-503eb294df3b","system_id":"levelo_inurba_marseille","lat":43.27825,"lon":5.40688,"is_reserved":false,"is_disabled":true,"rental_uris":{"android":"levelo://app?vid=3a6f4a08-7097-425e-ba9b-503eb294df3b","ios":"levelo://app?vid=3a6f4a08-7097-425e-ba9b-503eb294df3b"},"vehicle_type_id":"4","last_reported":1741903719,"current_range_meters":4800,"station_id":"ce4bhnh2rcd13ifvqgtg","pricing_plan_id":"cebpf4jnsgd1na2vs0mg"},{"bike_id":"8b83a773-8070-4922-ae6d-61dd2e61d681","system_id":"levelo_inurba_marseille","lat":43.30644,"lon":5.40099,"is_reserved":false,"is_disabled":false,"rental_uris":{"android":"levelo://app?vid=8b83a773-8070-4922-ae6d-61dd2e61d681","ios":"levelo://app?vid=8b83a773-8070-4922-ae6d-61dd2e61d681"},"vehicle_type_id":"4","last_reported":1741903719,"current_range_meters":5600,"station_id":"ce4bh112rcd13ifvqda0","pricing_plan_id":"cebpf4jnsgd1na2vs0mg"},{"bike_id":"76c47ed5-6670-4a9c-8b48-9e03e628d369","system_id":"levelo_inurba_marseille","lat":43.2987,"lon":5.39738,"is_reserved":false,"is_disabled":false,"rental_uris":{"android":"levelo://app?vid=76c47ed5-6670-4a9c-8b48-9e03e628d369","ios":"levelo://app?vid=76c47ed5-6670-4a9c-8b48-9e03e628d369"},"vehicle_type_id":"4","last_reported":1741903719,"current_range_meters":5600,"station_id":"ce4bh0h2rcd13ifvqd50","pricing_plan_id":"cebpf4jnsgd1na2vs0mg"},{"bike_id":"746a2f19-0e7b-436a-9d9d-ff471509e440","system_id":"levelo_inurba_marseille","lat":43.3083,"lon":5.43511,"is_reserved":false,"is_disabled":false,"rental_uris":{"android":"levelo://app?vid=746a2f19-0e7b-436a-9d9d-ff471509e440","ios":"levelo://app?vid=746a2f19-0e7b-436a-9d9d-ff471509e440"},"vehicle_type_id":"4","last_reported":1741903719,"current_range_meters":6000,"station_id":"ce4bhph2rcd13ifvqheg","pricing_plan_id":"cebpf4jnsgd1na2vs0mg"},{"bike_id":"32aebc3a-14c2-412a-9dd1-139c73270c7f","system_id":"levelo_inurba_marseille","lat":43.24995,"lon":5.38929,"is_reserved":false,"is_disabled":false,"rental_uris":{"android":"levelo://app?vid=32aebc3a-14c2-412a-9dd1-139c73270c7f","ios":"levelo://app?vid=32aebc3a-14c2-412a-9dd1-139c73270c7f"},"vehicle_type_id":"4","last_reported":1741903719,"current_range_meters":6000,"station_id":"ce4bhgp2rcd13ifvqfd0","pricing_plan_id":"cebpf4jnsgd1na2vs0mg"},{"bike_id":"22d6ec44-6fdb-4724-8554-c293c64a164e","system_id":"levelo_inurba_marseille","lat":43.27497,"lon":5.42456,"is_reserved":false,"is_disabled":false,"rental_uris":{"android":"levelo://app?vid=22d6ec44-6fdb-4724-8554-c293c64a164e","ios":"levelo://app?vid=22d6ec44-6fdb-4724-8554-c293c64a164e"},"vehicle_type_id":"4","last_reported":1741903719,"current_range_meters":6000,"station_id":"ce4bhn92rcd13ifvqgrg","pricing_plan_id":"cebpf4jnsgd1na2vs0mg"},{"bike_id":"afffb741-6afb-4608-be81-d60a174da2fd","system_id":"levelo_inurba_marseille","lat":43.30914,"lon":5.40131,"is_reserved":false,"is_disabled":false,"rental_uris":{"android":"levelo://app?vid=afffb741-6afb-4608-be81-d60a174da2fd","ios":"levelo://app?vid=afffb741-6afb-4608-be81-d60a174da2fd"},"vehicle_type_id":"4","last_reported":1741903719,"current_range_meters":6000,"station_id":"ce4bgvp2rcd13ifvqct0","pricing_plan_id":"cebpf4jnsgd1na2vs0mg"},{"bike_id":"4cb8f842-136a-4433-88e0-08e50ae949b5","system_id":"levelo_inurba_marseille","lat":43.27832,"lon":5.40665,"is_reserved":false,"is_disabled":false,"rental_uris":{"android":"levelo://app?vid=4cb8f842-136a-4433-88e0-08e50ae949b5","ios":"levelo://app?vid=4cb8f842-136a-4433-88e0-08e50ae949b5"},"vehicle_type_id":"4","last_reported":1741903719,"current_range_meters":6000,"station_id":"ce4bhnh2rcd13ifvqgtg","pricing_plan_id":"cebpf4jnsgd1na2vs0mg"},{"bike_id":"0c01526a-4f55-490e-b8d8-e9601047df53","system_id":"levelo_inurba_marseille","lat":43.27978,"lon":5.38761,"is_reserved":false,"is_disabled":false,"rental_uris":{"android":"levelo://app?vid=0c01526a-4f55-490e-b8d8-e9601047df53","ios":"levelo://app?vid=0c01526a-4f55-490e-b8d8-e9601047df53"},"vehicle_type_id":"4","last_reported":1741903719,"current_range_meters":6000,"station_id":"ce4bhk92rcd13ifvqgb0","pricing_plan_id":"cebpf4jnsgd1na2vs0mg"},{"bike_id":"7f97dab3-6641-4c6a-9b12-3940cae11793","system_id":"levelo_inurba_marseille","lat":43.24995,"lon":5.38939,"is_reserved":false,"is_disabled":false,"rental_uris":{"android":"levelo://app?vid=7f97dab3-6641-4c6a-9b12-3940cae11793","ios":"levelo://app?vid=7f97dab3-6641-4c6a-9b12-3940cae11793"},"vehicle_type_id":"4","last_reported":1741903719,"current_range_meters":6400,"station_id":"ce4bhgp2rcd13ifvqfd0","pricing_plan_id":"cebpf4jnsgd1na2vs0mg"},{"bike_id":"088a4bb0-9b25-47e9-9fd1-337287ee4e2c","system_id":"levelo_inurba_marseille","lat":43.2873,"lon":5.36079,"is_reserved":false,"is_disabled":false,"rental_uris":{"android":"levelo://app?vid=088a4bb0-9b25-47e9-9fd1-337287ee4e2c","ios":"levelo://app?vid=088a4bb0-9b25-47e9-9fd1-337287ee4e2c"},"vehicle_type_id":"4","last_reported":1741903719,"current_range_meters":6400,"station_id":"cki0cbj6b192h4jlfktg","pricing_plan_id":"cebpf4jnsgd1na2vs0mg"},{"bike_id":"2fe54254-5b11-4939-bb74-6fb31c1295ea","system_id":"levelo_inurba_marseille","lat":43.22928,"lon":5.35387,"is_reserved":false,"is_disabled":false,"rental_uris":{"android":"levelo://app?vid=2fe54254-5b11-4939-bb74-6fb31c1295ea","ios":"levelo://app?vid=2fe54254-5b11-4939-bb74-6fb31c1295ea"},"vehicle_type_id":"4","last_reported":1741903719,"current_range_meters":6400,"station_id":"cpo3532slgdg3j2ikp40","pricing_plan_id":"cebpf4jnsgd1na2vs0mg"},{"bike_id":"e92a6219-166f-4a57-8085-bd46980ee1de","system_id":"levelo_inurba_marseille","lat":43.31275,"lon":5.40176,"is_reserved":false,"is_disabled":false,"rental_uris":{"android":"levelo://app?vid=e92a6219-166f-4a57-8085-bd46980ee1de","ios":"levelo://app?vid=e92a6219-166f-4a57-8085-bd46980ee1de"},"vehicle_type_id":"4","last_reported":1741903719,"current_range_meters":6400,"station_id":"ce4bh092rcd13ifvqd30","pricing_plan_id":"cebpf4jnsgd1na2vs0mg"},{"bike_id":"8ca720cf-8cc7-4201-a29c-e07b0ffda00a","system_id":"levelo_inurba_marseille","lat":43.23193,"lon":5.39967,"is_reserved":false,"is_disabled":false,"rental_uris":{"android":"levelo://app?vid=8ca720cf-8cc7-4201-a29c-e07b0ffda00a","ios":"levelo://app?vid=8ca720cf-8cc7-4201-a29c-e07b0ffda00a"},"vehicle_type_id":"4","last_reported":1741903719,"current_range_meters":6400,"station_id":"ce4bhn12rcd13ifvqgqg","pricing_plan_id":"cebpf4jnsgd1na2vs0mg"},{"bike_id":"a72cf16a-6a30-42fd-ab49-950071c074f6","system_id":"levelo_inurba_marseille","lat":43.25724,"lon":5.41112,"is_reserved":false,"is_disabled":false,"rental_uris":{"android":"levelo://app?vid=a72cf16a-6a30-42fd-ab49-950071c074f6","ios":"levelo://app?vid=a72cf16a-6a30-42fd-ab49-950071c074f6"},"vehicle_type_id":"4","last_reported":1741903719,"current_range_meters":6400,"station_id":"ce4bhkp2rcd13ifvqgd0","pricing_plan_id":"cebpf4jnsgd1na2vs0mg"},{"bike_id":"0b726d27-cc2c-4c19-89f4-a622fbaff46b","system_id":"levelo_inurba_marseille","lat":43.29274,"lon":5.40122,"is_reserved":false,"is_disabled":false,"rental_uris":{"android":"levelo://app?vid=0b726d27-cc2c-4c19-89f4-a622fbaff46b","ios":"levelo://app?vid=0b726d27-cc2c-4c19-89f4-a622fbaff46b"},"vehicle_type_id":"4","last_reported":1741903719,"current_range_meters":6400,"station_id":"ce4bh312rcd13ifvqdk0","pricing_plan_id":"cebpf4jnsgd1na2vs0mg"},{"bike_id":"28cd2e82-5ec9-4af4-82a6-0279e5cdf721","system_id":"levelo_inurba_marseille","lat":43.27814,"lon":5.40685,"is_reserved":false,"is_disabled":false,"rental_uris":{"android":"levelo://app?vid=28cd2e82-5ec9-4af4-82a6-0279e5cdf721","ios":"levelo://app?vid=28cd2e82-5ec9-4af4-82a6-0279e5cdf721"},"vehicle_type_id":"4","last_reported":1741903719,"current_range_meters":6400,"station_id":"ce4bhnh2rcd13ifvqgtg","pricing_plan_id":"cebpf4jnsgd1na2vs0mg"},{"bike_id":"d5ae4600-476e-4c8a-b248-76c73ec9f040","system_id":"levelo_inurba_marseille","lat":43.25027,"lon":5.38905,"is_reserved":false,"is_disabled":false,"rental_uris":{"android":"levelo://app?vid=d5ae4600-476e-4c8a-b248-76c73ec9f040","ios":"levelo://app?vid=d5ae4600-476e-4c8a-b248-76c73ec9f040"},"vehicle_type_id":"4","last_reported":1741903719,"current_range_meters":6800,"station_id":"ce4bhgp2rcd13ifvqfd0","pricing_plan_id":"cebpf4jnsgd1na2vs0mg"},{"bike_id":"81ac0329-83b7-4a31-b8d0-f379d17c3e01","system_id":"levelo_inurba_marseille","lat":43.32335,"lon":5.40623,"is_reserved":false,"is_disabled":false,"rental_uris":{"android":"levelo://app?vid=81ac0329-83b7-4a31-b8d0-f379d17c3e01","ios":"levelo://app?vid=81ac0329-83b7-4a31-b8d0-f379d17c3e01"},"vehicle_type_id":"4","last_reported":1741903719,"current_range_meters":6800,"station_id":"ce4bhq92rcd13ifvqhjg","pricing_plan_id":"cebpf4jnsgd1na2vs0mg"},{"bike_id":"57f95ebc-5d72-447b-b741-2ab42cdfe6f6","system_id":"levelo_inurba_marseille","lat":43.31073,"lon":5.38356,"is_reserved":false,"is_disabled":false,"rental_uris":{"android":"levelo://app?vid=57f95ebc-5d72-447b-b741-2ab42cdfe6f6","ios":"levelo://app?vid=57f95ebc-5d72-447b-b741-2ab42cdfe6f6"},"vehicle_type_id":"4","last_reported":1741903719,"current_range_meters":6800,"station_id":"ce4bgv92rcd13ifvqcr0","pricing_plan_id":"cebpf4jnsgd1na2vs0mg"},{"bike_id":"931a65f6-98be-4189-b167-a49aeaf4dc43","system_id":"levelo_inurba_marseille","lat":43.25011,"lon":5.38919,"is_reserved":false,"is_disabled":false,"rental_uris":{"android":"levelo://app?vid=931a65f6-98be-4189-b167-a49aeaf4dc43","ios":"levelo://app?vid=931a65f6-98be-4189-b167-a49aeaf4dc43"},"vehicle_type_id":"4","last_reported":1741903719,"current_range_meters":6800,"station_id":"ce4bhgp2rcd13ifvqfd0","pricing_plan_id":"cebpf4jnsgd1na2vs0mg"},{"bike_id":"56ebe466-b342-4e8c-9a0e-3406b8d2db2c","system_id":"levelo_inurba_marseille","lat":43.27997,"lon":5.400117,"is_reserved":false,"is_disabled":false,"rental_uris":{"android":"levelo://app?vid=56ebe466-b342-4e8c-9a0e-3406b8d2db2c","ios":"levelo://app?vid=56ebe466-b342-4e8c-9a0e-3406b8d2db2c"},"vehicle_type_id":"4","last_reported":1741903719,"current_range_meters":7200,"station_id":"ce4bho92rcd13ifvqh4g","pricing_plan_id":"cebpf4jnsgd1na2vs0mg"},{"bike_id":"bbe3b04a-4a72-4f38-8422-b6f8f79a7093","system_id":"levelo_inurba_marseille","lat":43.32546,"lon":5.41005,"is_reserved":false,"is_disabled":false,"rental_uris":{"android":"levelo://app?vid=bbe3b04a-4a72-4f38-8422-b6f8f79a7093","ios":"levelo://app?vid=bbe3b04a-4a72-4f38-8422-b6f8f79a7093"},"vehicle_type_id":"4","last_reported":1741903719,"current_range_meters":7200,"station_id":"","pricing_plan_id":"cebpf4jnsgd1na2vs0mg"},{"bike_id":"0f161917-d8c5-4841-b64b-7e226665578c","system_id":"levelo_inurba_marseille","lat":43.25127,"lon":5.40303,"is_reserved":false,"is_disabled":false,"rental_uris":{"android":"levelo://app?vid=0f161917-d8c5-4841-b64b-7e226665578c","ios":"levelo://app?vid=0f161917-d8c5-4841-b64b-7e226665578c"},"vehicle_type_id":"4","last_reported":1741903719,"current_range_meters":7200,"station_id":"ce4bhlh2rcd13ifvqgig","pricing_plan_id":"cebpf4jnsgd1na2vs0mg"},{"bike_id":"a4acc583-7b24-4665-929d-fada161a91f7","system_id":"levelo_inurba_marseille","lat":43.29492,"lon":5.44431,"is_reserved":false,"is_disabled":false,"rental_uris":{"android":"levelo://app?vid=a4acc583-7b24-4665-929d-fada161a91f7","ios":"levelo://app?vid=a4acc583-7b24-4665-929d-fada161a91f7"},"vehicle_type_id":"4","last_reported":1741903719,"current_range_meters":7200,"station_id":"","pricing_plan_id":"cebpf4jnsgd1na2vs0mg"},{"bike_id":"d7cf3da4-03cf-4eae-b183-47670a6b872f","system_id":"levelo_inurba_marseille","lat":43.23212,"lon":5.35488,"is_reserved":false,"is_disabled":false,"rental_uris":{"android":"levelo://app?vid=d7cf3da4-03cf-4eae-b183-47670a6b872f","ios":"levelo://app?vid=d7cf3da4-03cf-4eae-b183-47670a6b872f"},"vehicle_type_id":"4","last_reported":1741903719,"current_range_meters":7200,"station_id":"","pricing_plan_id":"cebpf4jnsgd1na2vs0mg"},{"bike_id":"db7198b7-4986-487c-848f-b6fa2eea4556","system_id":"levelo_inurba_marseille","lat":43.32003,"lon":5.38127,"is_reserved":false,"is_disabled":false,"rental_uris":{"android":"levelo://app?vid=db7198b7-4986-487c-848f-b6fa2eea4556","ios":"levelo://app?vid=db7198b7-4986-487c-848f-b6fa2eea4556"},"vehicle_type_id":"4","last_reported":1741903719,"current_range_meters":7200,"station_id":"ce4bhr12rcd13ifvqhpg","pricing_plan_id":"cebpf4jnsgd1na2vs0mg"},{"bike_id":"55fde02e-5e72-4211-8528-9792ac29f11f","system_id":"levelo_inurba_marseille","lat":43.32669,"lon":5.4098,"is_reserved":false,"is_disabled":false,"rental_uris":{"android":"levelo://app?vid=55fde02e-5e72-4211-8528-9792ac29f11f","ios":"levelo://app?vid=55fde02e-5e72-4211-8528-9792ac29f11f"},"vehicle_type_id":"4","last_reported":1741903719,"current_range_meters":7200,"station_id":"ce4bhpp2rcd13ifvqhgg","pricing_plan_id":"cebpf4jnsgd1na2vs0mg"},{"bike_id":"ccde3be1-4144-427e-acc2-fed605e4915f","system_id":"levelo_inurba_marseille","lat":43.28103,"lon":5.39856,"is_reserved":false,"is_disabled":false,"rental_uris":{"android":"levelo://app?vid=ccde3be1-4144-427e-acc2-fed605e4915f","ios":"levelo://app?vid=ccde3be1-4144-427e-acc2-fed605e4915f"},"vehicle_type_id":"4","last_reported":1741903719,"current_range_meters":7200,"station_id":"","pricing_plan_id":"cebpf4jnsgd1na2vs0mg"},{"bike_id":"1bc48551-0c9e-4efb-8959-86401b55df78","system_id":"levelo_inurba_marseille","lat":43.33096,"lon":5.37985,"is_reserved":false,"is_disabled":false,"rental_uris":{"android":"levelo://app?vid=1bc48551-0c9e-4efb-8959-86401b55df78","ios":"levelo://app?vid=1bc48551-0c9e-4efb-8959-86401b55df78"},"vehicle_type_id":"4","last_reported":1741903719,"current_range_meters":7200,"station_id":"","pricing_plan_id":"cebpf4jnsgd1na2vs0mg"},{"bike_id":"36eefbe6-740a-4850-bb67-ce16f9510f0c","system_id":"levelo_inurba_marseille","lat":43.31487,"lon":5.37289,"is_reserved":false,"is_disabled":false,"rental_uris":{"android":"levelo://app?vid=36eefbe6-740a-4850-bb67-ce16f9510f0c","ios":"levelo://app?vid=36eefbe6-740a-4850-bb67-ce16f9510f0c"},"vehicle_type_id":"4","last_reported":1741903719,"current_range_meters":8000,"station_id":"ce4bgt12rcd13ifvqcd0","pricing_plan_id":"cebpf4jnsgd1na2vs0mg"},{"bike_id":"d0f37a2d-5920-4a00-ab9e-56f97581bf07","system_id":"levelo_inurba_marseille","lat":43.27808,"lon":5.40728,"is_reserved":false,"is_disabled":false,"rental_uris":{"android":"levelo://app?vid=d0f37a2d-5920-4a00-ab9e-56f97581bf07","ios":"levelo://app?vid=d0f37a2d-5920-4a00-ab9e-56f97581bf07"},"vehicle_type_id":"4","last_reported":1741903719,"current_range_meters":8400,"station_id":"ce4bhnh2rcd13ifvqgtg","pricing_plan_id":"cebpf4jnsgd1na2vs0mg"},{"bike_id":"d3538971-51e8-484c-9b69-7c03d73661ea","system_id":"levelo_inurba_marseille","lat":43.27212,"lon":5.39177,"is_reserved":false,"is_disabled":false,"rental_uris":{"android":"levelo://app?vid=d3538971-51e8-484c-9b69-7c03d73661ea","ios":"levelo://app?vid=d3538971-51e8-484c-9b69-7c03d73661ea"},"vehicle_type_id":"4","last_reported":1741903719,"current_range_meters":8800,"station_id":"ce4bhhp2rcd13ifvqfm0","pricing_plan_id":"cebpf4jnsgd1na2vs0mg"},{"bike_id":"7a5158c5-a332-40d9-b718-72571efee9d7","system_id":"levelo_inurba_marseille","lat":43.28117,"lon":5.44606,"is_reserved":false,"is_disabled":false,"rental_uris":{"android":"levelo://app?vid=7a5158c5-a332-40d9-b718-72571efee9d7","ios":"levelo://app?vid=7a5158c5-a332-40d9-b718-72571efee9d7"},"vehicle_type_id":"4","last_reported":1741903719,"current_range_meters":8400,"station_id":"","pricing_plan_id":"cebpf4jnsgd1na2vs0mg"},{"bike_id":"867ce339-ec44-46de-b242-200925a17d65","system_id":"levelo_inurba_marseille","lat":43.31179,"lon":5.3872,"is_reserved":false,"is_disabled":false,"rental_uris":{"android":"levelo://app?vid=867ce339-ec44-46de-b242-200925a17d65","ios":"levelo://app?vid=867ce339-ec44-46de-b242-200925a17d65"},"vehicle_type_id":"4","last_reported":1741903719,"current_range_meters":8400,"station_id":"ce4bgv12rcd13ifvqcp0","pricing_plan_id":"cebpf4jnsgd1na2vs0mg"},{"bike_id":"f6762263-91be-4a49-bacb-707191bfb1ec","system_id":"levelo_inurba_marseille","lat":43.30384,"lon":5.41895,"is_reserved":false,"is_disabled":false,"rental_uris":{"android":"levelo://app?vid=f6762263-91be-4a49-bacb-707191bfb1ec","ios":"levelo://app?vid=f6762263-91be-4a49-bacb-707191bfb1ec"},"vehicle_type_id":"4","last_reported":1741903719,"current_range_meters":8800,"station_id":"ce4bhop2rcd13ifvqh7g","pricing_plan_id":"cebpf4jnsgd1na2vs0mg"},{"bike_id":"8b280ae3-41fc-4032-96f1-8905fd5fbf6d","system_id":"levelo_inurba_marseille","lat":43.26226,"lon":5.37451,"is_reserved":false,"is_disabled":false,"rental_uris":{"android":"levelo://app?vid=8b280ae3-41fc-4032-96f1-8905fd5fbf6d","ios":"levelo://app?vid=8b280ae3-41fc-4032-96f1-8905fd5fbf6d"},"vehicle_type_id":"4","last_reported":1741903719,"current_range_meters":8400,"station_id":"ce4bhgp2rcd13ifvqfc0","pricing_plan_id":"cebpf4jnsgd1na2vs0mg"},{"bike_id":"adad5726-72d5-4840-b502-aaab6f5e47bd","system_id":"levelo_inurba_marseille","lat":43.32631,"lon":5.40989,"is_reserved":false,"is_disabled":false,"rental_uris":{"android":"levelo://app?vid=adad5726-72d5-4840-b502-aaab6f5e47bd","ios":"levelo://app?vid=adad5726-72d5-4840-b502-aaab6f5e47bd"},"vehicle_type_id":"4","last_reported":1741903719,"current_range_meters":8400,"station_id":"ce4bhpp2rcd13ifvqhgg","pricing_plan_id":"cebpf4jnsgd1na2vs0mg"},{"bike_id":"71d58b7f-1082-44b6-ae36-622f6323d2aa","system_id":"levelo_inurba_marseille","lat":43.25109,"lon":5.4033,"is_reserved":false,"is_disabled":false,"rental_uris":{"android":"levelo://app?vid=71d58b7f-1082-44b6-ae36-622f6323d2aa","ios":"levelo://app?vid=71d58b7f-1082-44b6-ae36-622f6323d2aa"},"vehicle_type_id":"4","last_reported":1741903719,"current_range_meters":8400,"station_id":"ce4bhlh2rcd13ifvqgig","pricing_plan_id":"cebpf4jnsgd1na2vs0mg"},{"bike_id":"58852e7c-b09c-4688-8b53-205882ef1f99","system_id":"levelo_inurba_marseille","lat":43.29261,"lon":5.40903,"is_reserved":false,"is_disabled":false,"rental_uris":{"android":"levelo://app?vid=58852e7c-b09c-4688-8b53-205882ef1f99","ios":"levelo://app?vid=58852e7c-b09c-4688-8b53-205882ef1f99"},"vehicle_type_id":"4","last_reported":1741903719,"current_range_meters":8000,"station_id":"ce4bh192rcd13ifvqdc0","pricing_plan_id":"cebpf4jnsgd1na2vs0mg"},{"bike_id":"fe2dbfad-2b3c-45be-b26a-7ab6c0dcbc97","system_id":"levelo_inurba_marseille","lat":43.30156,"lon":5.37682,"is_reserved":false,"is_disabled":false,"rental_uris":{"android":"levelo://app?vid=fe2dbfad-2b3c-45be-b26a-7ab6c0dcbc97","ios":"levelo://app?vid=fe2dbfad-2b3c-45be-b26a-7ab6c0dcbc97"},"vehicle_type_id":"4","last_reported":1741903719,"current_range_meters":8400,"station_id":"","pricing_plan_id":"cebpf4jnsgd1na2vs0mg"},{"bike_id":"b3fead73-4c4c-401e-81a0-a7fad437c748","system_id":"levelo_inurba_marseille","lat":43.25043,"lon":5.38868,"is_reserved":false,"is_disabled":false,"rental_uris":{"android":"levelo://app?vid=b3fead73-4c4c-401e-81a0-a7fad437c748","ios":"levelo://app?vid=b3fead73-4c4c-401e-81a0-a7fad437c748"},"vehicle_type_id":"4","last_reported":1741903719,"current_range_meters":8400,"station_id":"","pricing_plan_id":"cebpf4jnsgd1na2vs0mg"},{"bike_id":"78e8e7c8-60c3-4c72-915e-707b2d297b16","system_id":"levelo_inurba_marseille","lat":43.32858,"lon":5.4259,"is_reserved":false,"is_disabled":false,"rental_uris":{"android":"levelo://app?vid=78e8e7c8-60c3-4c72-915e-707b2d297b16","ios":"levelo://app?vid=78e8e7c8-60c3-4c72-915e-707b2d297b16"},"vehicle_type_id":"4","last_reported":1741903719,"current_range_meters":8400,"station_id":"","pricing_plan_id":"cebpf4jnsgd1na2vs0mg"},{"bike_id":"e350ce66-a995-469c-b4d1-ba6658fe49e2","system_id":"levelo_inurba_marseille","lat":43.27817,"lon":5.40727,"is_reserved":false,"is_disabled":false,"rental_uris":{"android":"levelo://app?vid=e350ce66-a995-469c-b4d1-ba6658fe49e2","ios":"levelo://app?vid=e350ce66-a995-469c-b4d1-ba6658fe49e2"},"vehicle_type_id":"4","last_reported":1741903719,"current_range_meters":8400,"station_id":"ce4bhnh2rcd13ifvqgtg","pricing_plan_id":"cebpf4jnsgd1na2vs0mg"},{"bike_id":"29c167e7-f543-4956-bde0-273e9178e2cf","system_id":"levelo_inurba_marseille","lat":43.32371,"lon":5.36755,"is_reserved":false,"is_disabled":false,"rental_uris":{"android":"levelo://app?vid=29c167e7-f543-4956-bde0-273e9178e2cf","ios":"levelo://app?vid=29c167e7-f543-4956-bde0-273e9178e2cf"},"vehicle_type_id":"4","last_reported":1741903719,"current_range_meters":8400,"station_id":"ce4bhsh2rcd13ifvqi2g","pricing_plan_id":"cebpf4jnsgd1na2vs0mg"},{"bike_id":"be99adfa-1dbd-4e21-927a-e3b5cd3ff16d","system_id":"levelo_inurba_marseille","lat":43.29282,"lon":5.40113,"is_reserved":false,"is_disabled":false,"rental_uris":{"android":"levelo://app?vid=be99adfa-1dbd-4e21-927a-e3b5cd3ff16d","ios":"levelo://app?vid=be99adfa-1dbd-4e21-927a-e3b5cd3ff16d"},"vehicle_type_id":"4","last_reported":1741903719,"current_range_meters":8800,"station_id":"ce4bh312rcd13ifvqdk0","pricing_plan_id":"cebpf4jnsgd1na2vs0mg"},{"bike_id":"155c7165-40f9-4638-84a1-91e91cddb9e0","system_id":"levelo_inurba_marseille","lat":43.30792,"lon":5.373463,"is_reserved":false,"is_disabled":true,"rental_uris":{"android":"levelo://app?vid=155c7165-40f9-4638-84a1-91e91cddb9e0","ios":"levelo://app?vid=155c7165-40f9-4638-84a1-91e91cddb9e0"},"vehicle_type_id":"4","last_reported":1741903719,"current_range_meters":8800,"station_id":"","pricing_plan_id":"cebpf4jnsgd1na2vs0mg"},{"bike_id":"668511da-e228-463f-a06d-e2360ed65156","system_id":"levelo_inurba_marseille","lat":43.29281,"lon":5.40117,"is_reserved":false,"is_disabled":false,"rental_uris":{"android":"levelo://app?vid=668511da-e228-463f-a06d-e2360ed65156","ios":"levelo://app?vid=668511da-e228-463f-a06d-e2360ed65156"},"vehicle_type_id":"4","last_reported":1741903719,"current_range_meters":8800,"station_id":"","pricing_plan_id":"cebpf4jnsgd1na2vs0mg"},{"bike_id":"d0da08c1-6f2e-4548-8fc2-e9c8603b4e82","system_id":"levelo_inurba_marseille","lat":43.309566,"lon":5.390269,"is_reserved":false,"is_disabled":true,"rental_uris":{"android":"levelo://app?vid=d0da08c1-6f2e-4548-8fc2-e9c8603b4e82","ios":"levelo://app?vid=d0da08c1-6f2e-4548-8fc2-e9c8603b4e82"},"vehicle_type_id":"4","last_reported":1741903719,"current_range_meters":8800,"station_id":"ce4bgup2rcd13ifvqco0","pricing_plan_id":"cebpf4jnsgd1na2vs0mg"},{"bike_id":"b363f8b8-2518-47c4-9880-4e754d1b57c8","system_id":"levelo_inurba_marseille","lat":43.3095,"lon":5.40111,"is_reserved":false,"is_disabled":false,"rental_uris":{"android":"levelo://app?vid=b363f8b8-2518-47c4-9880-4e754d1b57c8","ios":"levelo://app?vid=b363f8b8-2518-47c4-9880-4e754d1b57c8"},"vehicle_type_id":"4","last_reported":1741903719,"current_range_meters":8800,"station_id":"ce4bgvp2rcd13ifvqct0","pricing_plan_id":"cebpf4jnsgd1na2vs0mg"},{"bike_id":"b78c10b7-b880-4638-b672-f8fc61bd3c48","system_id":"levelo_inurba_marseille","lat":43.24103,"lon":5.37699,"is_reserved":false,"is_disabled":false,"rental_uris":{"android":"levelo://app?vid=b78c10b7-b880-4638-b672-f8fc61bd3c48","ios":"levelo://app?vid=b78c10b7-b880-4638-b672-f8fc61bd3c48"},"vehicle_type_id":"4","last_reported":1741903719,"current_range_meters":8800,"station_id":"ce4bhnp2rcd13ifvqgvg","pricing_plan_id":"cebpf4jnsgd1na2vs0mg"},{"bike_id":"36ebfc17-b6ab-4767-a5e0-c94c11aba8a2","system_id":"levelo_inurba_marseille","lat":43.32374,"lon":5.38891,"is_reserved":false,"is_disabled":false,"rental_uris":{"android":"levelo://app?vid=36ebfc17-b6ab-4767-a5e0-c94c11aba8a2","ios":"levelo://app?vid=36ebfc17-b6ab-4767-a5e0-c94c11aba8a2"},"vehicle_type_id":"4","last_reported":1741903719,"current_range_meters":8800,"station_id":"ce4bhqp2rcd13ifvqhog","pricing_plan_id":"cebpf4jnsgd1na2vs0mg"},{"bike_id":"bb9e49e1-15a1-4567-8da3-1ff54c01ee0c","system_id":"levelo_inurba_marseille","lat":43.28426,"lon":5.34995,"is_reserved":false,"is_disabled":false,"rental_uris":{"android":"levelo://app?vid=bb9e49e1-15a1-4567-8da3-1ff54c01ee0c","ios":"levelo://app?vid=bb9e49e1-15a1-4567-8da3-1ff54c01ee0c"},"vehicle_type_id":"4","last_reported":1741903719,"current_range_meters":8800,"station_id":"ce4bhbh2rcd13ifvqepg","pricing_plan_id":"cebpf4jnsgd1na2vs0mg"},{"bike_id":"d0be61ee-8c6c-4bf7-99b6-f099a281a656","system_id":"levelo_inurba_marseille","lat":43.25016,"lon":5.38926,"is_reserved":false,"is_disabled":false,"rental_uris":{"android":"levelo://app?vid=d0be61ee-8c6c-4bf7-99b6-f099a281a656","ios":"levelo://app?vid=d0be61ee-8c6c-4bf7-99b6-f099a281a656"},"vehicle_type_id":"4","last_reported":1741903719,"current_range_meters":8800,"station_id":"ce4bhgp2rcd13ifvqfd0","pricing_plan_id":"cebpf4jnsgd1na2vs0mg"},{"bike_id":"7e68ab91-64b1-4ca8-90d6-c2d2040b8729","system_id":"levelo_inurba_marseille","lat":43.23189,"lon":5.39983,"is_reserved":false,"is_disabled":false,"rental_uris":{"android":"levelo://app?vid=7e68ab91-64b1-4ca8-90d6-c2d2040b8729","ios":"levelo://app?vid=7e68ab91-64b1-4ca8-90d6-c2d2040b8729"},"vehicle_type_id":"4","last_reported":1741903719,"current_range_meters":8800,"station_id":"ce4bhn12rcd13ifvqgqg","pricing_plan_id":"cebpf4jnsgd1na2vs0mg"},{"bike_id":"fa62e7ec-7147-46c0-be4f-553f88a41227","system_id":"levelo_inurba_marseille","lat":43.22932,"lon":5.35379,"is_reserved":false,"is_disabled":false,"rental_uris":{"android":"levelo://app?vid=fa62e7ec-7147-46c0-be4f-553f88a41227","ios":"levelo://app?vid=fa62e7ec-7147-46c0-be4f-553f88a41227"},"vehicle_type_id":"4","last_reported":1741903719,"current_range_meters":8800,"station_id":"cpo3532slgdg3j2ikp40","pricing_plan_id":"cebpf4jnsgd1na2vs0mg"},{"bike_id":"b0c11eda-6003-4126-aa05-f42a09a63363","system_id":"levelo_inurba_marseille","lat":43.29039,"lon":5.35914,"is_reserved":false,"is_disabled":false,"rental_uris":{"android":"levelo://app?vid=b0c11eda-6003-4126-aa05-f42a09a63363","ios":"levelo://app?vid=b0c11eda-6003-4126-aa05-f42a09a63363"},"vehicle_type_id":"4","last_reported":1741903719,"current_range_meters":9200,"station_id":"ce4bha92rcd13ifvqeg0","pricing_plan_id":"cebpf4jnsgd1na2vs0mg"},{"bike_id":"39df283f-35a5-4c44-9f0d-6dd6923a19a4","system_id":"levelo_inurba_marseille","lat":43.32111,"lon":5.36782,"is_reserved":false,"is_disabled":false,"rental_uris":{"android":"levelo://app?vid=39df283f-35a5-4c44-9f0d-6dd6923a19a4","ios":"levelo://app?vid=39df283f-35a5-4c44-9f0d-6dd6923a19a4"},"vehicle_type_id":"4","last_reported":1741903719,"current_range_meters":8800,"station_id":"ce4bhrh2rcd13ifvqhug","pricing_plan_id":"cebpf4jnsgd1na2vs0mg"},{"bike_id":"b3fe11bb-93f1-46ba-92b1-a2f4f3538e8a","system_id":"levelo_inurba_marseille","lat":43.28673,"lon":5.38668,"is_reserved":false,"is_disabled":false,"rental_uris":{"android":"levelo://app?vid=b3fe11bb-93f1-46ba-92b1-a2f4f3538e8a","ios":"levelo://app?vid=b3fe11bb-93f1-46ba-92b1-a2f4f3538e8a"},"vehicle_type_id":"4","last_reported":1741903719,"current_range_meters":9600,"station_id":"ce4bh492rcd13ifvqdug","pricing_plan_id":"cebpf4jnsgd1na2vs0mg"},{"bike_id":"a1f0a50f-5f2f-45be-a550-4d54640496e3","system_id":"levelo_inurba_marseille","lat":43.28156,"lon":5.42643,"is_reserved":false,"is_disabled":false,"rental_uris":{"android":"levelo://app?vid=a1f0a50f-5f2f-45be-a550-4d54640496e3","ios":"levelo://app?vid=a1f0a50f-5f2f-45be-a550-4d54640496e3"},"vehicle_type_id":"4","last_reported":1741903719,"current_range_meters":8800,"station_id":"ce4bhnh2rcd13ifvqgug","pricing_plan_id":"cebpf4jnsgd1na2vs0mg"},{"bike_id":"d4f28dc4-1355-4c42-a706-3679bbd67020","system_id":"levelo_inurba_marseille","lat":43.3065,"lon":5.40103,"is_reserved":false,"is_disabled":false,"rental_uris":{"android":"levelo://app?vid=d4f28dc4-1355-4c42-a706-3679bbd67020","ios":"levelo://app?vid=d4f28dc4-1355-4c42-a706-3679bbd67020"},"vehicle_type_id":"4","last_reported":1741903719,"current_range_meters":9200,"station_id":"ce4bh112rcd13ifvqda0","pricing_plan_id":"cebpf4jnsgd1na2vs0mg"},{"bike_id":"193cfc0a-6bc2-4831-bdac-d18d19a4246e","system_id":"levelo_inurba_marseille","lat":43.28699,"lon":5.39995,"is_reserved":false,"is_disabled":false,"rental_uris":{"android":"levelo://app?vid=193cfc0a-6bc2-4831-bdac-d18d19a4246e","ios":"levelo://app?vid=193cfc0a-6bc2-4831-bdac-d18d19a4246e"},"vehicle_type_id":"4","last_reported":1741903719,"current_range_meters":9200,"station_id":"ce4bho92rcd13ifvqh3g","pricing_plan_id":"cebpf4jnsgd1na2vs0mg"},{"bike_id":"154d0f4a-7cf1-4b4a-8919-807104d462e1","system_id":"levelo_inurba_marseille","lat":43.266619,"lon":5.386169,"is_reserved":false,"is_disabled":false,"rental_uris":{"android":"levelo://app?vid=154d0f4a-7cf1-4b4a-8919-807104d462e1","ios":"levelo://app?vid=154d0f4a-7cf1-4b4a-8919-807104d462e1"},"vehicle_type_id":"4","last_reported":1741903719,"current_range_meters":9200,"station_id":"","pricing_plan_id":"cebpf4jnsgd1na2vs0mg"},{"bike_id":"1cbeb49c-8d51-46f2-ad03-8af78ea79d9a","system_id":"levelo_inurba_marseille","lat":43.2417,"lon":5.39703,"is_reserved":false,"is_disabled":false,"rental_uris":{"android":"levelo://app?vid=1cbeb49c-8d51-46f2-ad03-8af78ea79d9a","ios":"levelo://app?vid=1cbeb49c-8d51-46f2-ad03-8af78ea79d9a"},"vehicle_type_id":"4","last_reported":1741903719,"current_range_meters":9200,"station_id":"ce4bhn12rcd13ifvqgpg","pricing_plan_id":"cebpf4jnsgd1na2vs0mg"},{"bike_id":"6307ec30-142e-4380-a1b4-79305fa6f44a","system_id":"levelo_inurba_marseille","lat":43.25742,"lon":5.41093,"is_reserved":false,"is_disabled":true,"rental_uris":{"android":"levelo://app?vid=6307ec30-142e-4380-a1b4-79305fa6f44a","ios":"levelo://app?vid=6307ec30-142e-4380-a1b4-79305fa6f44a"},"vehicle_type_id":"4","last_reported":1741903719,"current_range_meters":9200,"station_id":"ce4bhkp2rcd13ifvqgd0","pricing_plan_id":"cebpf4jnsgd1na2vs0mg"},{"bike_id":"db1d9945-452a-48d1-a218-9d250e8fb884","system_id":"levelo_inurba_marseille","lat":43.31304,"lon":5.39719,"is_reserved":false,"is_disabled":false,"rental_uris":{"android":"levelo://app?vid=db1d9945-452a-48d1-a218-9d250e8fb884","ios":"levelo://app?vid=db1d9945-452a-48d1-a218-9d250e8fb884"},"vehicle_type_id":"4","last_reported":1741903719,"current_range_meters":9200,"station_id":"ce4bgvp2rcd13ifvqcu0","pricing_plan_id":"cebpf4jnsgd1na2vs0mg"},{"bike_id":"38c96a38-330f-4ff3-9e6e-5c26787e2ba1","system_id":"levelo_inurba_marseille","lat":43.31073,"lon":5.3834,"is_reserved":false,"is_disabled":false,"rental_uris":{"android":"levelo://app?vid=38c96a38-330f-4ff3-9e6e-5c26787e2ba1","ios":"levelo://app?vid=38c96a38-330f-4ff3-9e6e-5c26787e2ba1"},"vehicle_type_id":"4","last_reported":1741903719,"current_range_meters":9600,"station_id":"ce4bgv92rcd13ifvqcr0","pricing_plan_id":"cebpf4jnsgd1na2vs0mg"},{"bike_id":"5c5a361a-0401-42a8-aa9e-a141a9e4041e","system_id":"levelo_inurba_marseille","lat":43.2902,"lon":5.38137,"is_reserved":false,"is_disabled":false,"rental_uris":{"android":"levelo://app?vid=5c5a361a-0401-42a8-aa9e-a141a9e4041e","ios":"levelo://app?vid=5c5a361a-0401-42a8-aa9e-a141a9e4041e"},"vehicle_type_id":"4","last_reported":1741903719,"current_range_meters":9600,"station_id":"ce4bh4p2rcd13ifvqe1g","pricing_plan_id":"cebpf4jnsgd1na2vs0mg"},{"bike_id":"0dcda778-bf7d-4755-b78a-f4840d5b5675","system_id":"levelo_inurba_marseille","lat":43.28568,"lon":5.39497,"is_reserved":false,"is_disabled":false,"rental_uris":{"android":"levelo://app?vid=0dcda778-bf7d-4755-b78a-f4840d5b5675","ios":"levelo://app?vid=0dcda778-bf7d-4755-b78a-f4840d5b5675"},"vehicle_type_id":"4","last_reported":1741903719,"current_range_meters":9600,"station_id":"ce4bh292rcd13ifvqdg0","pricing_plan_id":"cebpf4jnsgd1na2vs0mg"},{"bike_id":"8939fbba-2fc8-450a-9027-04db4f4e697a","system_id":"levelo_inurba_marseille","lat":43.31479,"lon":5.4046,"is_reserved":false,"is_disabled":false,"rental_uris":{"android":"levelo://app?vid=8939fbba-2fc8-450a-9027-04db4f4e697a","ios":"levelo://app?vid=8939fbba-2fc8-450a-9027-04db4f4e697a"},"vehicle_type_id":"4","last_reported":1741903719,"current_range_meters":9600,"station_id":"","pricing_plan_id":"cebpf4jnsgd1na2vs0mg"},{"bike_id":"6f6a6fb2-dd97-4cef-a69c-c88a870490c4","system_id":"levelo_inurba_marseille","lat":43.28718,"lon":5.39963,"is_reserved":false,"is_disabled":false,"rental_uris":{"android":"levelo://app?vid=6f6a6fb2-dd97-4cef-a69c-c88a870490c4","ios":"levelo://app?vid=6f6a6fb2-dd97-4cef-a69c-c88a870490c4"},"vehicle_type_id":"4","last_reported":1741903719,"current_range_meters":9600,"station_id":"ce4bho92rcd13ifvqh3g","pricing_plan_id":"cebpf4jnsgd1na2vs0mg"},{"bike_id":"22c0550b-29b7-487c-9f57-3e6e4e86fd41","system_id":"levelo_inurba_marseille","lat":43.31533,"lon":5.38019,"is_reserved":false,"is_disabled":false,"rental_uris":{"android":"levelo://app?vid=22c0550b-29b7-487c-9f57-3e6e4e86fd41","ios":"levelo://app?vid=22c0550b-29b7-487c-9f57-3e6e4e86fd41"},"vehicle_type_id":"4","last_reported":1741903719,"current_range_meters":9600,"station_id":"ce4bhsp2rcd13ifvqi50","pricing_plan_id":"cebpf4jnsgd1na2vs0mg"},{"bike_id":"05485599-c5d2-4560-a085-53dc6075c7be","system_id":"levelo_inurba_marseille","lat":43.28004,"lon":5.40014,"is_reserved":false,"is_disabled":false,"rental_uris":{"android":"levelo://app?vid=05485599-c5d2-4560-a085-53dc6075c7be","ios":"levelo://app?vid=05485599-c5d2-4560-a085-53dc6075c7be"},"vehicle_type_id":"4","last_reported":1741903719,"current_range_meters":9600,"station_id":"ce4bho92rcd13ifvqh4g","pricing_plan_id":"cebpf4jnsgd1na2vs0mg"},{"bike_id":"76a1a065-7414-4909-8e1f-d9664a62f90e","system_id":"levelo_inurba_marseille","lat":43.28032,"lon":5.36941,"is_reserved":false,"is_disabled":false,"rental_uris":{"android":"levelo://app?vid=76a1a065-7414-4909-8e1f-d9664a62f90e","ios":"levelo://app?vid=76a1a065-7414-4909-8e1f-d9664a62f90e"},"vehicle_type_id":"4","last_reported":1741903719,"current_range_meters":9600,"station_id":"ce4bha12rcd13ifvqef0","pricing_plan_id":"cebpf4jnsgd1na2vs0mg"},{"bike_id":"4f2ddad8-944b-4f7f-88fd-24992043188c","system_id":"levelo_inurba_marseille","lat":43.30935,"lon":5.40165,"is_reserved":false,"is_disabled":false,"rental_uris":{"android":"levelo://app?vid=4f2ddad8-944b-4f7f-88fd-24992043188c","ios":"levelo://app?vid=4f2ddad8-944b-4f7f-88fd-24992043188c"},"vehicle_type_id":"4","last_reported":1741903719,"current_range_meters":9600,"station_id":"ce4bgvp2rcd13ifvqct0","pricing_plan_id":"cebpf4jnsgd1na2vs0mg"},{"bike_id":"c2100bd3-57ec-4820-992d-70841c2f886a","system_id":"levelo_inurba_marseille","lat":43.32099,"lon":5.3676,"is_reserved":false,"is_disabled":false,"rental_uris":{"android":"levelo://app?vid=c2100bd3-57ec-4820-992d-70841c2f886a","ios":"levelo://app?vid=c2100bd3-57ec-4820-992d-70841c2f886a"},"vehicle_type_id":"4","last_reported":1741903719,"current_range_meters":9600,"station_id":"ce4bhrh2rcd13ifvqhug","pricing_plan_id":"cebpf4jnsgd1na2vs0mg"},{"bike_id":"1179ea35-4831-4438-984a-d67269a5255b","system_id":"levelo_inurba_marseille","lat":43.23195,"lon":5.35559,"is_reserved":false,"is_disabled":false,"rental_uris":{"android":"levelo://app?vid=1179ea35-4831-4438-984a-d67269a5255b","ios":"levelo://app?vid=1179ea35-4831-4438-984a-d67269a5255b"},"vehicle_type_id":"4","last_reported":1741903719,"current_range_meters":9600,"station_id":"ce4bhu92rcd13ifvqi70","pricing_plan_id":"cebpf4jnsgd1na2vs0mg"},{"bike_id":"54184fa2-bc10-4430-9b0e-4e689a6e5eb5","system_id":"levelo_inurba_marseille","lat":43.30275,"lon":5.36914,"is_reserved":false,"is_disabled":true,"rental_uris":{"android":"levelo://app?vid=54184fa2-bc10-4430-9b0e-4e689a6e5eb5","ios":"levelo://app?vid=54184fa2-bc10-4430-9b0e-4e689a6e5eb5"},"vehicle_type_id":"4","last_reported":1741903719,"current_range_meters":9600,"station_id":"ce4bgqh2rcd13ifvqc5g","pricing_plan_id":"cebpf4jnsgd1na2vs0mg"},{"bike_id":"8c4e2b01-9679-46b7-86e3-aa2306d13c64","system_id":"levelo_inurba_marseille","lat":43.27847,"lon":5.39202,"is_reserved":false,"is_disabled":false,"rental_uris":{"android":"levelo://app?vid=8c4e2b01-9679-46b7-86e3-aa2306d13c64","ios":"levelo://app?vid=8c4e2b01-9679-46b7-86e3-aa2306d13c64"},"vehicle_type_id":"4","last_reported":1741903719,"current_range_meters":9600,"station_id":"ce4bhjp2rcd13ifvqga0","pricing_plan_id":"cebpf4jnsgd1na2vs0mg"},{"bike_id":"64f08214-fb31-440a-81c0-e1b65159de7d","system_id":"levelo_inurba_marseille","lat":43.31446,"lon":5.37572,"is_reserved":false,"is_disabled":false,"rental_uris":{"android":"levelo://app?vid=64f08214-fb31-440a-81c0-e1b65159de7d","ios":"levelo://app?vid=64f08214-fb31-440a-81c0-e1b65159de7d"},"vehicle_type_id":"4","last_reported":1741903719,"current_range_meters":9600,"station_id":"","pricing_plan_id":"cebpf4jnsgd1na2vs0mg"},{"bike_id":"a1865482-901a-461f-bbbf-89cc5aaa4978","system_id":"levelo_inurba_marseille","lat":43.31248,"lon":5.3785,"is_reserved":false,"is_disabled":false,"rental_uris":{"android":"levelo://app?vid=a1865482-901a-461f-bbbf-89cc5aaa4978","ios":"levelo://app?vid=a1865482-901a-461f-bbbf-89cc5aaa4978"},"vehicle_type_id":"4","last_reported":1741903719,"current_range_meters":10000,"station_id":"","pricing_plan_id":"cebpf4jnsgd1na2vs0mg"},{"bike_id":"54bf63aa-0a8b-42b0-93c1-c2256fbfeabf","system_id":"levelo_inurba_marseille","lat":43.26574,"lon":5.39016,"is_reserved":false,"is_disabled":false,"rental_uris":{"android":"levelo://app?vid=54bf63aa-0a8b-42b0-93c1-c2256fbfeabf","ios":"levelo://app?vid=54bf63aa-0a8b-42b0-93c1-c2256fbfeabf"},"vehicle_type_id":"4","last_reported":1741903719,"current_range_meters":10000,"station_id":"ce4bhe12rcd13ifvqf30","pricing_plan_id":"cebpf4jnsgd1na2vs0mg"},{"bike_id":"2ab769df-174b-499d-9de1-48a232eb0ac4","system_id":"levelo_inurba_marseille","lat":43.29418,"lon":5.38624,"is_reserved":false,"is_disabled":false,"rental_uris":{"android":"levelo://app?vid=2ab769df-174b-499d-9de1-48a232eb0ac4","ios":"levelo://app?vid=2ab769df-174b-499d-9de1-48a232eb0ac4"},"vehicle_type_id":"4","last_reported":1741903719,"current_range_meters":9600,"station_id":"ce4bh2h2rcd13ifvqdh0","pricing_plan_id":"cebpf4jnsgd1na2vs0mg"},{"bike_id":"66bd7c0a-ab4a-486e-bfaa-cafa91efd9cb","system_id":"levelo_inurba_marseille","lat":43.26555,"lon":5.37269,"is_reserved":false,"is_disabled":false,"rental_uris":{"android":"levelo://app?vid=66bd7c0a-ab4a-486e-bfaa-cafa91efd9cb","ios":"levelo://app?vid=66bd7c0a-ab4a-486e-bfaa-cafa91efd9cb"},"vehicle_type_id":"4","last_reported":1741903719,"current_range_meters":10000,"station_id":"ce4bhg12rcd13ifvqf70","pricing_plan_id":"cebpf4jnsgd1na2vs0mg"},{"bike_id":"dc8b632a-2210-49a9-b54c-b052092cae44","system_id":"levelo_inurba_marseille","lat":43.29871,"lon":5.38916,"is_reserved":false,"is_disabled":false,"rental_uris":{"android":"levelo://app?vid=dc8b632a-2210-49a9-b54c-b052092cae44","ios":"levelo://app?vid=dc8b632a-2210-49a9-b54c-b052092cae44"},"vehicle_type_id":"4","last_reported":1741903719,"current_range_meters":10000,"station_id":"ce4bh392rcd13ifvqdl0","pricing_plan_id":"cebpf4jnsgd1na2vs0mg"},{"bike_id":"fd0b94d0-5000-40fe-9251-aeb5428fb301","system_id":"levelo_inurba_marseille","lat":43.27179,"lon":5.40985,"is_reserved":false,"is_disabled":false,"rental_uris":{"android":"levelo://app?vid=fd0b94d0-5000-40fe-9251-aeb5428fb301","ios":"levelo://app?vid=fd0b94d0-5000-40fe-9251-aeb5428fb301"},"vehicle_type_id":"4","last_reported":1741903719,"current_range_meters":10000,"station_id":"ce4bhl12rcd13ifvqgf0","pricing_plan_id":"cebpf4jnsgd1na2vs0mg"},{"bike_id":"fc1ebe1b-ca6d-45c4-89b1-a7e96692f80e","system_id":"levelo_inurba_marseille","lat":43.31328,"lon":5.39687,"is_reserved":false,"is_disabled":false,"rental_uris":{"android":"levelo://app?vid=fc1ebe1b-ca6d-45c4-89b1-a7e96692f80e","ios":"levelo://app?vid=fc1ebe1b-ca6d-45c4-89b1-a7e96692f80e"},"vehicle_type_id":"4","last_reported":1741903719,"current_range_meters":10800,"station_id":"ce4bgvp2rcd13ifvqcu0","pricing_plan_id":"cebpf4jnsgd1na2vs0mg"},{"bike_id":"c003fafc-f292-480c-9e51-d3db61b1be08","system_id":"levelo_inurba_marseille","lat":43.31174,"lon":5.3872,"is_reserved":false,"is_disabled":false,"rental_uris":{"android":"levelo://app?vid=c003fafc-f292-480c-9e51-d3db61b1be08","ios":"levelo://app?vid=c003fafc-f292-480c-9e51-d3db61b1be08"},"vehicle_type_id":"4","last_reported":1741903719,"current_range_meters":10000,"station_id":"ce4bgv12rcd13ifvqcp0","pricing_plan_id":"cebpf4jnsgd1na2vs0mg"},{"bike_id":"02757fb8-8293-4514-b994-62c44c21925e","system_id":"levelo_inurba_marseille","lat":43.28731,"lon":5.36082,"is_reserved":false,"is_disabled":false,"rental_uris":{"android":"levelo://app?vid=02757fb8-8293-4514-b994-62c44c21925e","ios":"levelo://app?vid=02757fb8-8293-4514-b994-62c44c21925e"},"vehicle_type_id":"4","last_reported":1741903719,"current_range_meters":10000,"station_id":"cki0cbj6b192h4jlfktg","pricing_plan_id":"cebpf4jnsgd1na2vs0mg"},{"bike_id":"85febf70-eab1-4f30-96f1-2b4d2195db5c","system_id":"levelo_inurba_marseille","lat":43.29252,"lon":5.38216,"is_reserved":false,"is_disabled":false,"rental_uris":{"android":"levelo://app?vid=85febf70-eab1-4f30-96f1-2b4d2195db5c","ios":"levelo://app?vid=85febf70-eab1-4f30-96f1-2b4d2195db5c"},"vehicle_type_id":"4","last_reported":1741903719,"current_range_meters":10000,"station_id":"","pricing_plan_id":"cebpf4jnsgd1na2vs0mg"},{"bike_id":"96bae133-2c88-4f4f-a72b-a62518ed1b8a","system_id":"levelo_inurba_marseille","lat":43.2749,"lon":5.42447,"is_reserved":false,"is_disabled":false,"rental_uris":{"android":"levelo://app?vid=96bae133-2c88-4f4f-a72b-a62518ed1b8a","ios":"levelo://app?vid=96bae133-2c88-4f4f-a72b-a62518ed1b8a"},"vehicle_type_id":"4","last_reported":1741903719,"current_range_meters":10000,"station_id":"ce4bhn92rcd13ifvqgrg","pricing_plan_id":"cebpf4jnsgd1na2vs0mg"},{"bike_id":"414a87d8-0320-4da5-94cb-1c2e9eb2c2e2","system_id":"levelo_inurba_marseille","lat":43.25824,"lon":5.39402,"is_reserved":false,"is_disabled":false,"rental_uris":{"android":"levelo://app?vid=414a87d8-0320-4da5-94cb-1c2e9eb2c2e2","ios":"levelo://app?vid=414a87d8-0320-4da5-94cb-1c2e9eb2c2e2"},"vehicle_type_id":"4","last_reported":1741903719,"current_range_meters":10800,"station_id":"ce4bhip2rcd13ifvqft0","pricing_plan_id":"cebpf4jnsgd1na2vs0mg"},{"bike_id":"919a1558-498c-48b7-b738-7940b23ca37a","system_id":"levelo_inurba_marseille","lat":43.26231,"lon":5.40453,"is_reserved":false,"is_disabled":false,"rental_uris":{"android":"levelo://app?vid=919a1558-498c-48b7-b738-7940b23ca37a","ios":"levelo://app?vid=919a1558-498c-48b7-b738-7940b23ca37a"},"vehicle_type_id":"4","last_reported":1741903719,"current_range_meters":13600,"station_id":"ce4bhmh2rcd13ifvqgmg","pricing_plan_id":"cebpf4jnsgd1na2vs0mg"},{"bike_id":"ec96b214-56a6-4965-95d3-d0c013927455","system_id":"levelo_inurba_marseille","lat":43.27807,"lon":5.40736,"is_reserved":false,"is_disabled":false,"rental_uris":{"android":"levelo://app?vid=ec96b214-56a6-4965-95d3-d0c013927455","ios":"levelo://app?vid=ec96b214-56a6-4965-95d3-d0c013927455"},"vehicle_type_id":"4","last_reported":1741903719,"current_range_meters":10800,"station_id":"ce4bhnh2rcd13ifvqgtg","pricing_plan_id":"cebpf4jnsgd1na2vs0mg"},{"bike_id":"77c5059d-e18b-4169-9849-a973f1f035b1","system_id":"levelo_inurba_marseille","lat":43.2792,"lon":5.39591,"is_reserved":false,"is_disabled":false,"rental_uris":{"android":"levelo://app?vid=77c5059d-e18b-4169-9849-a973f1f035b1","ios":"levelo://app?vid=77c5059d-e18b-4169-9849-a973f1f035b1"},"vehicle_type_id":"4","last_reported":1741903719,"current_range_meters":10800,"station_id":"ce4bhf92rcd13ifvqf40","pricing_plan_id":"cebpf4jnsgd1na2vs0mg"},{"bike_id":"6cec560f-8635-4801-8462-637e6f2c72c5","system_id":"levelo_inurba_marseille","lat":43.23267,"lon":5.35416,"is_reserved":false,"is_disabled":false,"rental_uris":{"android":"levelo://app?vid=6cec560f-8635-4801-8462-637e6f2c72c5","ios":"levelo://app?vid=6cec560f-8635-4801-8462-637e6f2c72c5"},"vehicle_type_id":"4","last_reported":1741903719,"current_range_meters":10800,"station_id":"ce4bhu92rcd13ifvqi70","pricing_plan_id":"cebpf4jnsgd1na2vs0mg"},{"bike_id":"9642aaa5-2147-464a-9742-b451e8205c1c","system_id":"levelo_inurba_marseille","lat":43.308868,"lon":5.390879,"is_reserved":false,"is_disabled":false,"rental_uris":{"android":"levelo://app?vid=9642aaa5-2147-464a-9742-b451e8205c1c","ios":"levelo://app?vid=9642aaa5-2147-464a-9742-b451e8205c1c"},"vehicle_type_id":"4","last_reported":1741903719,"current_range_meters":10800,"station_id":"","pricing_plan_id":"cebpf4jnsgd1na2vs0mg"},{"bike_id":"34a6b7c9-65cd-4cb9-bd4b-b4336f8953ec","system_id":"levelo_inurba_marseille","lat":43.31178,"lon":5.38725,"is_reserved":false,"is_disabled":false,"rental_uris":{"android":"levelo://app?vid=34a6b7c9-65cd-4cb9-bd4b-b4336f8953ec","ios":"levelo://app?vid=34a6b7c9-65cd-4cb9-bd4b-b4336f8953ec"},"vehicle_type_id":"4","last_reported":1741903719,"current_range_meters":10800,"station_id":"ce4bgv12rcd13ifvqcp0","pricing_plan_id":"cebpf4jnsgd1na2vs0mg"},{"bike_id":"97a3342f-3ca5-439d-8886-7bbabf5b6c98","system_id":"levelo_inurba_marseille","lat":43.32095,"lon":5.36761,"is_reserved":false,"is_disabled":false,"rental_uris":{"android":"levelo://app?vid=97a3342f-3ca5-439d-8886-7bbabf5b6c98","ios":"levelo://app?vid=97a3342f-3ca5-439d-8886-7bbabf5b6c98"},"vehicle_type_id":"4","last_reported":1741903719,"current_range_meters":10800,"station_id":"ce4bhrh2rcd13ifvqhug","pricing_plan_id":"cebpf4jnsgd1na2vs0mg"},{"bike_id":"320564be-2867-4ab5-80ba-99ed9100fc63","system_id":"levelo_inurba_marseille","lat":43.25875,"lon":5.39363,"is_reserved":false,"is_disabled":false,"rental_uris":{"android":"levelo://app?vid=320564be-2867-4ab5-80ba-99ed9100fc63","ios":"levelo://app?vid=320564be-2867-4ab5-80ba-99ed9100fc63"},"vehicle_type_id":"4","last_reported":1741903719,"current_range_meters":10800,"station_id":"","pricing_plan_id":"cebpf4jnsgd1na2vs0mg"},{"bike_id":"5ea021e9-0200-4434-a07e-adbb41017ac8","system_id":"levelo_inurba_marseille","lat":43.24075,"lon":5.37745,"is_reserved":false,"is_disabled":false,"rental_uris":{"android":"levelo://app?vid=5ea021e9-0200-4434-a07e-adbb41017ac8","ios":"levelo://app?vid=5ea021e9-0200-4434-a07e-adbb41017ac8"},"vehicle_type_id":"4","last_reported":1741903719,"current_range_meters":10800,"station_id":"ce4bhnp2rcd13ifvqgvg","pricing_plan_id":"cebpf4jnsgd1na2vs0mg"},{"bike_id":"8a7d6fbc-9324-4554-9abc-ceeffff483c4","system_id":"levelo_inurba_marseille","lat":43.32359,"lon":5.38878,"is_reserved":false,"is_disabled":false,"rental_uris":{"android":"levelo://app?vid=8a7d6fbc-9324-4554-9abc-ceeffff483c4","ios":"levelo://app?vid=8a7d6fbc-9324-4554-9abc-ceeffff483c4"},"vehicle_type_id":"4","last_reported":1741903719,"current_range_meters":10800,"station_id":"ce4bhqp2rcd13ifvqhog","pricing_plan_id":"cebpf4jnsgd1na2vs0mg"},{"bike_id":"6944bb06-8a8c-4cf4-86a1-ca9561cf4ee4","system_id":"levelo_inurba_marseille","lat":43.23068,"lon":5.35488,"is_reserved":false,"is_disabled":false,"rental_uris":{"android":"levelo://app?vid=6944bb06-8a8c-4cf4-86a1-ca9561cf4ee4","ios":"levelo://app?vid=6944bb06-8a8c-4cf4-86a1-ca9561cf4ee4"},"vehicle_type_id":"4","last_reported":1741903719,"current_range_meters":10800,"station_id":"cpo3342slgdg3j2ifvpg","pricing_plan_id":"cebpf4jnsgd1na2vs0mg"},{"bike_id":"d2c1304d-c6de-4e19-a363-2c0c4bdd9fb1","system_id":"levelo_inurba_marseille","lat":43.24652,"lon":5.38894,"is_reserved":false,"is_disabled":false,"rental_uris":{"android":"levelo://app?vid=d2c1304d-c6de-4e19-a363-2c0c4bdd9fb1","ios":"levelo://app?vid=d2c1304d-c6de-4e19-a363-2c0c4bdd9fb1"},"vehicle_type_id":"4","last_reported":1741903719,"current_range_meters":10800,"station_id":"ce4bhg12rcd13ifvqf60","pricing_plan_id":"cebpf4jnsgd1na2vs0mg"},{"bike_id":"4b112a33-2820-4625-96c9-8f07ae7ff329","system_id":"levelo_inurba_marseille","lat":43.30812,"lon":5.43524,"is_reserved":false,"is_disabled":false,"rental_uris":{"android":"levelo://app?vid=4b112a33-2820-4625-96c9-8f07ae7ff329","ios":"levelo://app?vid=4b112a33-2820-4625-96c9-8f07ae7ff329"},"vehicle_type_id":"4","last_reported":1741903719,"current_range_meters":10800,"station_id":"ce4bhph2rcd13ifvqheg","pricing_plan_id":"cebpf4jnsgd1na2vs0mg"},{"bike_id":"49bac7f4-6922-458e-9701-3773b894dd6d","system_id":"levelo_inurba_marseille","lat":43.3169,"lon":5.40476,"is_reserved":false,"is_disabled":false,"rental_uris":{"android":"levelo://app?vid=49bac7f4-6922-458e-9701-3773b894dd6d","ios":"levelo://app?vid=49bac7f4-6922-458e-9701-3773b894dd6d"},"vehicle_type_id":"4","last_reported":1741903719,"current_range_meters":10000,"station_id":"ce4bh012rcd13ifvqd00","pricing_plan_id":"cebpf4jnsgd1na2vs0mg"},{"bike_id":"7121d818-13e2-43ed-b445-7134fefdd64f","system_id":"levelo_inurba_marseille","lat":43.23203,"lon":5.35456,"is_reserved":false,"is_disabled":false,"rental_uris":{"android":"levelo://app?vid=7121d818-13e2-43ed-b445-7134fefdd64f","ios":"levelo://app?vid=7121d818-13e2-43ed-b445-7134fefdd64f"},"vehicle_type_id":"4","last_reported":1741903719,"current_range_meters":11200,"station_id":"","pricing_plan_id":"cebpf4jnsgd1na2vs0mg"},{"bike_id":"c58ea9ca-fa82-45e4-b42f-886be65920e5","system_id":"levelo_inurba_marseille","lat":43.245491,"lon":5.395164,"is_reserved":false,"is_disabled":false,"rental_uris":{"android":"levelo://app?vid=c58ea9ca-fa82-45e4-b42f-886be65920e5","ios":"levelo://app?vid=c58ea9ca-fa82-45e4-b42f-886be65920e5"},"vehicle_type_id":"4","last_reported":1741903719,"current_range_meters":11200,"station_id":"ce4bhlp2rcd13ifvqgjg","pricing_plan_id":"cebpf4jnsgd1na2vs0mg"},{"bike_id":"e3b2e7df-b4c4-4ba1-acef-489e04eb4add","system_id":"levelo_inurba_marseille","lat":43.31069,"lon":5.38351,"is_reserved":false,"is_disabled":false,"rental_uris":{"android":"levelo://app?vid=e3b2e7df-b4c4-4ba1-acef-489e04eb4add","ios":"levelo://app?vid=e3b2e7df-b4c4-4ba1-acef-489e04eb4add"},"vehicle_type_id":"4","last_reported":1741903719,"current_range_meters":11200,"station_id":"ce4bgv92rcd13ifvqcr0","pricing_plan_id":"cebpf4jnsgd1na2vs0mg"},{"bike_id":"82465c11-fab4-4cb2-a5b5-22530735fcb7","system_id":"levelo_inurba_marseille","lat":43.30931,"lon":5.401681,"is_reserved":false,"is_disabled":false,"rental_uris":{"android":"levelo://app?vid=82465c11-fab4-4cb2-a5b5-22530735fcb7","ios":"levelo://app?vid=82465c11-fab4-4cb2-a5b5-22530735fcb7"},"vehicle_type_id":"4","last_reported":1741903719,"current_range_meters":11600,"station_id":"ce4bgvp2rcd13ifvqct0","pricing_plan_id":"cebpf4jnsgd1na2vs0mg"},{"bike_id":"bf7035b0-43dc-4781-beb1-fc31690da7ef","system_id":"levelo_inurba_marseille","lat":43.23963,"lon":5.3663,"is_reserved":false,"is_disabled":false,"rental_uris":{"android":"levelo://app?vid=bf7035b0-43dc-4781-beb1-fc31690da7ef","ios":"levelo://app?vid=bf7035b0-43dc-4781-beb1-fc31690da7ef"},"vehicle_type_id":"4","last_reported":1741903719,"current_range_meters":11600,"station_id":"ce4bhi12rcd13ifvqfp0","pricing_plan_id":"cebpf4jnsgd1na2vs0mg"},{"bike_id":"1ae01e22-4c4d-4069-8bf6-0be88949011a","system_id":"levelo_inurba_marseille","lat":43.32357,"lon":5.38882,"is_reserved":false,"is_disabled":false,"rental_uris":{"android":"levelo://app?vid=1ae01e22-4c4d-4069-8bf6-0be88949011a","ios":"levelo://app?vid=1ae01e22-4c4d-4069-8bf6-0be88949011a"},"vehicle_type_id":"4","last_reported":1741903719,"current_range_meters":11600,"station_id":"ce4bhqp2rcd13ifvqhog","pricing_plan_id":"cebpf4jnsgd1na2vs0mg"},{"bike_id":"b634fcd7-4303-4fed-a2f8-fcd04ed2a4dd","system_id":"levelo_inurba_marseille","lat":43.23063,"lon":5.35482,"is_reserved":false,"is_disabled":false,"rental_uris":{"android":"levelo://app?vid=b634fcd7-4303-4fed-a2f8-fcd04ed2a4dd","ios":"levelo://app?vid=b634fcd7-4303-4fed-a2f8-fcd04ed2a4dd"},"vehicle_type_id":"4","last_reported":1741903719,"current_range_meters":11600,"station_id":"cpo3342slgdg3j2ifvpg","pricing_plan_id":"cebpf4jnsgd1na2vs0mg"},{"bike_id":"a0dccf8d-d2f9-43b2-9e2c-35e3f534d837","system_id":"levelo_inurba_marseille","lat":43.26944,"lon":5.40251,"is_reserved":false,"is_disabled":false,"rental_uris":{"android":"levelo://app?vid=a0dccf8d-d2f9-43b2-9e2c-35e3f534d837","ios":"levelo://app?vid=a0dccf8d-d2f9-43b2-9e2c-35e3f534d837"},"vehicle_type_id":"4","last_reported":1741903719,"current_range_meters":11200,"station_id":"cjm6bp8fraef2m0cb0m0","pricing_plan_id":"cebpf4jnsgd1na2vs0mg"},{"bike_id":"3363e5ed-aafd-4c83-9f97-12270e6ffcf4","system_id":"levelo_inurba_marseille","lat":43.24865,"lon":5.40646,"is_reserved":false,"is_disabled":false,"rental_uris":{"android":"levelo://app?vid=3363e5ed-aafd-4c83-9f97-12270e6ffcf4","ios":"levelo://app?vid=3363e5ed-aafd-4c83-9f97-12270e6ffcf4"},"vehicle_type_id":"4","last_reported":1741903719,"current_range_meters":11600,"station_id":"","pricing_plan_id":"cebpf4jnsgd1na2vs0mg"},{"bike_id":"9fe8ba47-be57-43be-b757-1af1021ecf46","system_id":"levelo_inurba_marseille","lat":43.310723,"lon":5.383597,"is_reserved":false,"is_disabled":false,"rental_uris":{"android":"levelo://app?vid=9fe8ba47-be57-43be-b757-1af1021ecf46","ios":"levelo://app?vid=9fe8ba47-be57-43be-b757-1af1021ecf46"},"vehicle_type_id":"4","last_reported":1741903719,"current_range_meters":11600,"station_id":"ce4bgv92rcd13ifvqcr0","pricing_plan_id":"cebpf4jnsgd1na2vs0mg"},{"bike_id":"36ec5a15-215b-4367-a3ca-336aadd9a251","system_id":"levelo_inurba_marseille","lat":43.33746,"lon":5.3745,"is_reserved":false,"is_disabled":false,"rental_uris":{"android":"levelo://app?vid=36ec5a15-215b-4367-a3ca-336aadd9a251","ios":"levelo://app?vid=36ec5a15-215b-4367-a3ca-336aadd9a251"},"vehicle_type_id":"4","last_reported":1741903719,"current_range_meters":11600,"station_id":"","pricing_plan_id":"cebpf4jnsgd1na2vs0mg"},{"bike_id":"436bf6fd-98f0-4c70-968c-7fcac8f398a5","system_id":"levelo_inurba_marseille","lat":43.25084,"lon":5.41058,"is_reserved":false,"is_disabled":false,"rental_uris":{"android":"levelo://app?vid=436bf6fd-98f0-4c70-968c-7fcac8f398a5","ios":"levelo://app?vid=436bf6fd-98f0-4c70-968c-7fcac8f398a5"},"vehicle_type_id":"4","last_reported":1741903719,"current_range_meters":12000,"station_id":"","pricing_plan_id":"cebpf4jnsgd1na2vs0mg"},{"bike_id":"a5c672ff-0d6f-4565-b2c7-94f7284c6604","system_id":"levelo_inurba_marseille","lat":43.279452,"lon":5.410476,"is_reserved":false,"is_disabled":false,"rental_uris":{"android":"levelo://app?vid=a5c672ff-0d6f-4565-b2c7-94f7284c6604","ios":"levelo://app?vid=a5c672ff-0d6f-4565-b2c7-94f7284c6604"},"vehicle_type_id":"4","last_reported":1741903719,"current_range_meters":12000,"station_id":"ce4bhnp2rcd13ifvqh0g","pricing_plan_id":"cebpf4jnsgd1na2vs0mg"},{"bike_id":"32c4a723-0a74-43f5-8684-bb4b345edbdf","system_id":"levelo_inurba_marseille","lat":43.31687,"lon":5.40475,"is_reserved":false,"is_disabled":false,"rental_uris":{"android":"levelo://app?vid=32c4a723-0a74-43f5-8684-bb4b345edbdf","ios":"levelo://app?vid=32c4a723-0a74-43f5-8684-bb4b345edbdf"},"vehicle_type_id":"4","last_reported":1741903719,"current_range_meters":12000,"station_id":"ce4bh012rcd13ifvqd00","pricing_plan_id":"cebpf4jnsgd1na2vs0mg"},{"bike_id":"468baa96-3c25-4c23-870e-453bcb0a0bfb","system_id":"levelo_inurba_marseille","lat":43.27806,"lon":5.407127,"is_reserved":false,"is_disabled":false,"rental_uris":{"android":"levelo://app?vid=468baa96-3c25-4c23-870e-453bcb0a0bfb","ios":"levelo://app?vid=468baa96-3c25-4c23-870e-453bcb0a0bfb"},"vehicle_type_id":"4","last_reported":1741903719,"current_range_meters":12000,"station_id":"ce4bhnh2rcd13ifvqgtg","pricing_plan_id":"cebpf4jnsgd1na2vs0mg"},{"bike_id":"4078ae31-3c28-4811-a96d-e5898683501c","system_id":"levelo_inurba_marseille","lat":43.27842,"lon":5.40705,"is_reserved":false,"is_disabled":false,"rental_uris":{"android":"levelo://app?vid=4078ae31-3c28-4811-a96d-e5898683501c","ios":"levelo://app?vid=4078ae31-3c28-4811-a96d-e5898683501c"},"vehicle_type_id":"4","last_reported":1741903719,"current_range_meters":12000,"station_id":"ce4bhnh2rcd13ifvqgtg","pricing_plan_id":"cebpf4jnsgd1na2vs0mg"},{"bike_id":"5cc7458f-f066-4511-ae2c-1f6d5a0e7158","system_id":"levelo_inurba_marseille","lat":43.27578,"lon":5.38434,"is_reserved":false,"is_disabled":false,"rental_uris":{"android":"levelo://app?vid=5cc7458f-f066-4511-ae2c-1f6d5a0e7158","ios":"levelo://app?vid=5cc7458f-f066-4511-ae2c-1f6d5a0e7158"},"vehicle_type_id":"4","last_reported":1741903719,"current_range_meters":12000,"station_id":"ce4bhh92rcd13ifvqfi0","pricing_plan_id":"cebpf4jnsgd1na2vs0mg"},{"bike_id":"9a719051-5115-4a08-8e7b-ae42f9cbb7fe","system_id":"levelo_inurba_marseille","lat":43.31125,"lon":5.37768,"is_reserved":false,"is_disabled":false,"rental_uris":{"android":"levelo://app?vid=9a719051-5115-4a08-8e7b-ae42f9cbb7fe","ios":"levelo://app?vid=9a719051-5115-4a08-8e7b-ae42f9cbb7fe"},"vehicle_type_id":"4","last_reported":1741903719,"current_range_meters":12000,"station_id":"ce4bgt92rcd13ifvqcg0","pricing_plan_id":"cebpf4jnsgd1na2vs0mg"},{"bike_id":"484d62e3-8e92-4d73-971b-41c613b66c1b","system_id":"levelo_inurba_marseille","lat":43.28861,"lon":5.35836,"is_reserved":false,"is_disabled":false,"rental_uris":{"android":"levelo://app?vid=484d62e3-8e92-4d73-971b-41c613b66c1b","ios":"levelo://app?vid=484d62e3-8e92-4d73-971b-41c613b66c1b"},"vehicle_type_id":"4","last_reported":1741903719,"current_range_meters":12000,"station_id":"ce4bhb12rcd13ifvqem0","pricing_plan_id":"cebpf4jnsgd1na2vs0mg"},{"bike_id":"1bb2a219-feb0-40c6-9682-8708e0c6077e","system_id":"levelo_inurba_marseille","lat":43.31116,"lon":5.37764,"is_reserved":false,"is_disabled":false,"rental_uris":{"android":"levelo://app?vid=1bb2a219-feb0-40c6-9682-8708e0c6077e","ios":"levelo://app?vid=1bb2a219-feb0-40c6-9682-8708e0c6077e"},"vehicle_type_id":"4","last_reported":1741903719,"current_range_meters":12400,"station_id":"ce4bgt92rcd13ifvqcg0","pricing_plan_id":"cebpf4jnsgd1na2vs0mg"},{"bike_id":"74d894b1-9334-47c2-9db2-41270237a91f","system_id":"levelo_inurba_marseille","lat":43.23186,"lon":5.39973,"is_reserved":false,"is_disabled":false,"rental_uris":{"android":"levelo://app?vid=74d894b1-9334-47c2-9db2-41270237a91f","ios":"levelo://app?vid=74d894b1-9334-47c2-9db2-41270237a91f"},"vehicle_type_id":"4","last_reported":1741903719,"current_range_meters":12400,"station_id":"ce4bhn12rcd13ifvqgqg","pricing_plan_id":"cebpf4jnsgd1na2vs0mg"},{"bike_id":"8e7e7040-7104-465f-b461-80914ddeb400","system_id":"levelo_inurba_marseille","lat":43.28703,"lon":5.39987,"is_reserved":false,"is_disabled":false,"rental_uris":{"android":"levelo://app?vid=8e7e7040-7104-465f-b461-80914ddeb400","ios":"levelo://app?vid=8e7e7040-7104-465f-b461-80914ddeb400"},"vehicle_type_id":"4","last_reported":1741903719,"current_range_meters":12400,"station_id":"ce4bho92rcd13ifvqh3g","pricing_plan_id":"cebpf4jnsgd1na2vs0mg"},{"bike_id":"bb262669-2828-4121-8e0f-2a10bcc2fb97","system_id":"levelo_inurba_marseille","lat":43.30637,"lon":5.40086,"is_reserved":false,"is_disabled":false,"rental_uris":{"android":"levelo://app?vid=bb262669-2828-4121-8e0f-2a10bcc2fb97","ios":"levelo://app?vid=bb262669-2828-4121-8e0f-2a10bcc2fb97"},"vehicle_type_id":"4","last_reported":1741903719,"current_range_meters":12400,"station_id":"ce4bh112rcd13ifvqda0","pricing_plan_id":"cebpf4jnsgd1na2vs0mg"},{"bike_id":"1364704f-c9ba-4f42-a150-59df36918858","system_id":"levelo_inurba_marseille","lat":43.30709,"lon":5.40079,"is_reserved":false,"is_disabled":false,"rental_uris":{"android":"levelo://app?vid=1364704f-c9ba-4f42-a150-59df36918858","ios":"levelo://app?vid=1364704f-c9ba-4f42-a150-59df36918858"},"vehicle_type_id":"4","last_reported":1741903719,"current_range_meters":12400,"station_id":"","pricing_plan_id":"cebpf4jnsgd1na2vs0mg"},{"bike_id":"9dbb99db-f82f-4992-b063-7f5be2eff251","system_id":"levelo_inurba_marseille","lat":43.28433,"lon":5.3919,"is_reserved":false,"is_disabled":false,"rental_uris":{"android":"levelo://app?vid=9dbb99db-f82f-4992-b063-7f5be2eff251","ios":"levelo://app?vid=9dbb99db-f82f-4992-b063-7f5be2eff251"},"vehicle_type_id":"4","last_reported":1741903719,"current_range_meters":13600,"station_id":"ce4bhoh2rcd13ifvqh5g","pricing_plan_id":"cebpf4jnsgd1na2vs0mg"},{"bike_id":"a5e71948-735a-4229-b2ca-74d55fc62066","system_id":"levelo_inurba_marseille","lat":43.28034,"lon":5.3694,"is_reserved":false,"is_disabled":false,"rental_uris":{"android":"levelo://app?vid=a5e71948-735a-4229-b2ca-74d55fc62066","ios":"levelo://app?vid=a5e71948-735a-4229-b2ca-74d55fc62066"},"vehicle_type_id":"4","last_reported":1741903719,"current_range_meters":12800,"station_id":"ce4bha12rcd13ifvqef0","pricing_plan_id":"cebpf4jnsgd1na2vs0mg"},{"bike_id":"4b9cd23c-174d-4102-af82-13a4a1e38300","system_id":"levelo_inurba_marseille","lat":43.29712,"lon":5.36613,"is_reserved":false,"is_disabled":false,"rental_uris":{"android":"levelo://app?vid=4b9cd23c-174d-4102-af82-13a4a1e38300","ios":"levelo://app?vid=4b9cd23c-174d-4102-af82-13a4a1e38300"},"vehicle_type_id":"4","last_reported":1741903719,"current_range_meters":12800,"station_id":"ce4bgn12rcd13ifvqbt0","pricing_plan_id":"cebpf4jnsgd1na2vs0mg"},{"bike_id":"840fe58d-702c-4643-802b-02b7904775ac","system_id":"levelo_inurba_marseille","lat":43.30771,"lon":5.43525,"is_reserved":false,"is_disabled":false,"rental_uris":{"android":"levelo://app?vid=840fe58d-702c-4643-802b-02b7904775ac","ios":"levelo://app?vid=840fe58d-702c-4643-802b-02b7904775ac"},"vehicle_type_id":"4","last_reported":1741903719,"current_range_meters":12800,"station_id":"ce4bhph2rcd13ifvqheg","pricing_plan_id":"cebpf4jnsgd1na2vs0mg"},{"bike_id":"594a33ea-5c85-49b0-893b-48b1f5e1011a","system_id":"levelo_inurba_marseille","lat":43.30923,"lon":5.40143,"is_reserved":false,"is_disabled":true,"rental_uris":{"android":"levelo://app?vid=594a33ea-5c85-49b0-893b-48b1f5e1011a","ios":"levelo://app?vid=594a33ea-5c85-49b0-893b-48b1f5e1011a"},"vehicle_type_id":"4","last_reported":1741903719,"current_range_meters":12800,"station_id":"ce4bgvp2rcd13ifvqct0","pricing_plan_id":"cebpf4jnsgd1na2vs0mg"},{"bike_id":"53cbc3b8-73f7-4525-88f8-5bf9f8c70134","system_id":"levelo_inurba_marseille","lat":43.28402,"lon":5.37513,"is_reserved":false,"is_disabled":false,"rental_uris":{"android":"levelo://app?vid=53cbc3b8-73f7-4525-88f8-5bf9f8c70134","ios":"levelo://app?vid=53cbc3b8-73f7-4525-88f8-5bf9f8c70134"},"vehicle_type_id":"4","last_reported":1741903719,"current_range_meters":12800,"station_id":"ce4bh412rcd13ifvqds0","pricing_plan_id":"cebpf4jnsgd1na2vs0mg"},{"bike_id":"d9a03b36-8834-4ff0-a7a6-0aba8375e6fe","system_id":"levelo_inurba_marseille","lat":43.2848,"lon":5.39051,"is_reserved":false,"is_disabled":false,"rental_uris":{"android":"levelo://app?vid=d9a03b36-8834-4ff0-a7a6-0aba8375e6fe","ios":"levelo://app?vid=d9a03b36-8834-4ff0-a7a6-0aba8375e6fe"},"vehicle_type_id":"4","last_reported":1741903719,"current_range_meters":12800,"station_id":"","pricing_plan_id":"cebpf4jnsgd1na2vs0mg"},{"bike_id":"1ccba09a-030c-4f03-8cb9-142b3443ab59","system_id":"levelo_inurba_marseille","lat":43.3089,"lon":5.39634,"is_reserved":false,"is_disabled":false,"rental_uris":{"android":"levelo://app?vid=1ccba09a-030c-4f03-8cb9-142b3443ab59","ios":"levelo://app?vid=1ccba09a-030c-4f03-8cb9-142b3443ab59"},"vehicle_type_id":"4","last_reported":1741903719,"current_range_meters":13600,"station_id":"ce4bh012rcd13ifvqcv0","pricing_plan_id":"cebpf4jnsgd1na2vs0mg"},{"bike_id":"d7d71b84-4499-46a7-9f0a-90e5052df1c7","system_id":"levelo_inurba_marseille","lat":43.29252,"lon":5.40918,"is_reserved":false,"is_disabled":false,"rental_uris":{"android":"levelo://app?vid=d7d71b84-4499-46a7-9f0a-90e5052df1c7","ios":"levelo://app?vid=d7d71b84-4499-46a7-9f0a-90e5052df1c7"},"vehicle_type_id":"4","last_reported":1741903719,"current_range_meters":13600,"station_id":"ce4bh192rcd13ifvqdc0","pricing_plan_id":"cebpf4jnsgd1na2vs0mg"},{"bike_id":"fa0ec424-edf7-421c-9b08-714ed75b34fb","system_id":"levelo_inurba_marseille","lat":43.29908,"lon":5.38145,"is_reserved":false,"is_disabled":false,"rental_uris":{"android":"levelo://app?vid=fa0ec424-edf7-421c-9b08-714ed75b34fb","ios":"levelo://app?vid=fa0ec424-edf7-421c-9b08-714ed75b34fb"},"vehicle_type_id":"4","last_reported":1741903719,"current_range_meters":13600,"station_id":"ce4bgj12rcd13ifvqbc0","pricing_plan_id":"cebpf4jnsgd1na2vs0mg"},{"bike_id":"78dce6e6-36eb-4d6b-a861-292dc7c9e479","system_id":"levelo_inurba_marseille","lat":43.25015,"lon":5.38919,"is_reserved":false,"is_disabled":false,"rental_uris":{"android":"levelo://app?vid=78dce6e6-36eb-4d6b-a861-292dc7c9e479","ios":"levelo://app?vid=78dce6e6-36eb-4d6b-a861-292dc7c9e479"},"vehicle_type_id":"4","last_reported":1741903719,"current_range_meters":13600,"station_id":"ce4bhgp2rcd13ifvqfd0","pricing_plan_id":"cebpf4jnsgd1na2vs0mg"},{"bike_id":"123f3d4a-0884-4794-9748-047f45836545","system_id":"levelo_inurba_marseille","lat":43.29028,"lon":5.39965,"is_reserved":false,"is_disabled":false,"rental_uris":{"android":"levelo://app?vid=123f3d4a-0884-4794-9748-047f45836545","ios":"levelo://app?vid=123f3d4a-0884-4794-9748-047f45836545"},"vehicle_type_id":"4","last_reported":1741903719,"current_range_meters":14000,"station_id":"ce4bh392rcd13ifvqdm0","pricing_plan_id":"cebpf4jnsgd1na2vs0mg"},{"bike_id":"68a34e8f-540a-4fe3-a5ff-deaa13caa845","system_id":"levelo_inurba_marseille","lat":43.29799,"lon":5.44739,"is_reserved":false,"is_disabled":false,"rental_uris":{"android":"levelo://app?vid=68a34e8f-540a-4fe3-a5ff-deaa13caa845","ios":"levelo://app?vid=68a34e8f-540a-4fe3-a5ff-deaa13caa845"},"vehicle_type_id":"4","last_reported":1741903719,"current_range_meters":13600,"station_id":"","pricing_plan_id":"cebpf4jnsgd1na2vs0mg"},{"bike_id":"882877d6-b866-4b92-bcdf-bb43c34ed300","system_id":"levelo_inurba_marseille","lat":43.28416,"lon":5.34995,"is_reserved":false,"is_disabled":false,"rental_uris":{"android":"levelo://app?vid=882877d6-b866-4b92-bcdf-bb43c34ed300","ios":"levelo://app?vid=882877d6-b866-4b92-bcdf-bb43c34ed300"},"vehicle_type_id":"4","last_reported":1741903719,"current_range_meters":14000,"station_id":"ce4bhbh2rcd13ifvqepg","pricing_plan_id":"cebpf4jnsgd1na2vs0mg"},{"bike_id":"aeec4843-e0cf-441f-b4d2-907b0f5fbe59","system_id":"levelo_inurba_marseille","lat":43.25834,"lon":5.3943,"is_reserved":false,"is_disabled":false,"rental_uris":{"android":"levelo://app?vid=aeec4843-e0cf-441f-b4d2-907b0f5fbe59","ios":"levelo://app?vid=aeec4843-e0cf-441f-b4d2-907b0f5fbe59"},"vehicle_type_id":"4","last_reported":1741903719,"current_range_meters":14000,"station_id":"ce4bhip2rcd13ifvqft0","pricing_plan_id":"cebpf4jnsgd1na2vs0mg"},{"bike_id":"ab047761-22ba-4663-afe3-d5d1d10a6654","system_id":"levelo_inurba_marseille","lat":43.2884,"lon":5.38149,"is_reserved":false,"is_disabled":false,"rental_uris":{"android":"levelo://app?vid=ab047761-22ba-4663-afe3-d5d1d10a6654","ios":"levelo://app?vid=ab047761-22ba-4663-afe3-d5d1d10a6654"},"vehicle_type_id":"4","last_reported":1741903719,"current_range_meters":14000,"station_id":"","pricing_plan_id":"cebpf4jnsgd1na2vs0mg"},{"bike_id":"d71c7109-41aa-4810-80b5-3941266d1101","system_id":"levelo_inurba_marseille","lat":43.268,"lon":5.40266,"is_reserved":false,"is_disabled":false,"rental_uris":{"android":"levelo://app?vid=d71c7109-41aa-4810-80b5-3941266d1101","ios":"levelo://app?vid=d71c7109-41aa-4810-80b5-3941266d1101"},"vehicle_type_id":"4","last_reported":1741903719,"current_range_meters":14000,"station_id":"ce501612rcd8frsf0b60","pricing_plan_id":"cebpf4jnsgd1na2vs0mg"},{"bike_id":"dc2dc920-7061-4611-9ad3-02d4898aaa15","system_id":"levelo_inurba_marseille","lat":43.23164,"lon":5.4,"is_reserved":false,"is_disabled":false,"rental_uris":{"android":"levelo://app?vid=dc2dc920-7061-4611-9ad3-02d4898aaa15","ios":"levelo://app?vid=dc2dc920-7061-4611-9ad3-02d4898aaa15"},"vehicle_type_id":"4","last_reported":1741903719,"current_range_meters":14000,"station_id":"ce4bhn12rcd13ifvqgqg","pricing_plan_id":"cebpf4jnsgd1na2vs0mg"},{"bike_id":"3e33256a-d861-45c0-af01-75642132ca20","system_id":"levelo_inurba_marseille","lat":43.330279,"lon":5.394037,"is_reserved":false,"is_disabled":false,"rental_uris":{"android":"levelo://app?vid=3e33256a-d861-45c0-af01-75642132ca20","ios":"levelo://app?vid=3e33256a-d861-45c0-af01-75642132ca20"},"vehicle_type_id":"4","last_reported":1741903719,"current_range_meters":14000,"station_id":"","pricing_plan_id":"cebpf4jnsgd1na2vs0mg"},{"bike_id":"69c60efd-cced-4215-918d-ab39edd61a69","system_id":"levelo_inurba_marseille","lat":43.27994,"lon":5.4166,"is_reserved":false,"is_disabled":false,"rental_uris":{"android":"levelo://app?vid=69c60efd-cced-4215-918d-ab39edd61a69","ios":"levelo://app?vid=69c60efd-cced-4215-918d-ab39edd61a69"},"vehicle_type_id":"4","last_reported":1741903719,"current_range_meters":14400,"station_id":"ce4bho12rcd13ifvqh1g","pricing_plan_id":"cebpf4jnsgd1na2vs0mg"},{"bike_id":"29832e81-b63f-44c3-a8ae-1ccbc505bd58","system_id":"levelo_inurba_marseille","lat":43.27841,"lon":5.40729,"is_reserved":false,"is_disabled":false,"rental_uris":{"android":"levelo://app?vid=29832e81-b63f-44c3-a8ae-1ccbc505bd58","ios":"levelo://app?vid=29832e81-b63f-44c3-a8ae-1ccbc505bd58"},"vehicle_type_id":"4","last_reported":1741903719,"current_range_meters":14400,"station_id":"ce4bhnh2rcd13ifvqgtg","pricing_plan_id":"cebpf4jnsgd1na2vs0mg"},{"bike_id":"3959c750-cc5b-4501-a9c1-aa26389cb4a3","system_id":"levelo_inurba_marseille","lat":43.29281,"lon":5.38414,"is_reserved":false,"is_disabled":true,"rental_uris":{"android":"levelo://app?vid=3959c750-cc5b-4501-a9c1-aa26389cb4a3","ios":"levelo://app?vid=3959c750-cc5b-4501-a9c1-aa26389cb4a3"},"vehicle_type_id":"4","last_reported":1741903719,"current_range_meters":14800,"station_id":"ce4bh692rcd13ifvqea0","pricing_plan_id":"cebpf4jnsgd1na2vs0mg"},{"bike_id":"e138b71b-28f0-440d-a9a0-c4a6be51ccf4","system_id":"levelo_inurba_marseille","lat":43.29197,"lon":5.39328,"is_reserved":false,"is_disabled":false,"rental_uris":{"android":"levelo://app?vid=e138b71b-28f0-440d-a9a0-c4a6be51ccf4","ios":"levelo://app?vid=e138b71b-28f0-440d-a9a0-c4a6be51ccf4"},"vehicle_type_id":"4","last_reported":1741903719,"current_range_meters":14800,"station_id":"ce4bh192rcd13ifvqdd0","pricing_plan_id":"cebpf4jnsgd1na2vs0mg"},{"bike_id":"5b85bc0a-9693-4afe-a1f9-c69349399dab","system_id":"levelo_inurba_marseille","lat":43.28156,"lon":5.42646,"is_reserved":false,"is_disabled":false,"rental_uris":{"android":"levelo://app?vid=5b85bc0a-9693-4afe-a1f9-c69349399dab","ios":"levelo://app?vid=5b85bc0a-9693-4afe-a1f9-c69349399dab"},"vehicle_type_id":"4","last_reported":1741903719,"current_range_meters":14800,"station_id":"ce4bhnh2rcd13ifvqgug","pricing_plan_id":"cebpf4jnsgd1na2vs0mg"},{"bike_id":"d43f2544-f193-4c14-b7a0-d1e08b7782b5","system_id":"levelo_inurba_marseille","lat":43.29626,"lon":5.37165,"is_reserved":false,"is_disabled":false,"rental_uris":{"android":"levelo://app?vid=d43f2544-f193-4c14-b7a0-d1e08b7782b5","ios":"levelo://app?vid=d43f2544-f193-4c14-b7a0-d1e08b7782b5"},"vehicle_type_id":"4","last_reported":1741903719,"current_range_meters":14800,"station_id":"ce4bgnh2rcd13ifvqc0g","pricing_plan_id":"cebpf4jnsgd1na2vs0mg"},{"bike_id":"335c813c-4352-48aa-9ebe-f066545ab267","system_id":"levelo_inurba_marseille","lat":43.29587,"lon":5.38105,"is_reserved":false,"is_disabled":false,"rental_uris":{"android":"levelo://app?vid=335c813c-4352-48aa-9ebe-f066545ab267","ios":"levelo://app?vid=335c813c-4352-48aa-9ebe-f066545ab267"},"vehicle_type_id":"4","last_reported":1741903719,"current_range_meters":14800,"station_id":"ce4bgl12rcd13ifvqbo0","pricing_plan_id":"cebpf4jnsgd1na2vs0mg"},{"bike_id":"209369df-b5a0-42fc-be55-c13f536bfc68","system_id":"levelo_inurba_marseille","lat":43.31463,"lon":5.36846,"is_reserved":false,"is_disabled":false,"rental_uris":{"android":"levelo://app?vid=209369df-b5a0-42fc-be55-c13f536bfc68","ios":"levelo://app?vid=209369df-b5a0-42fc-be55-c13f536bfc68"},"vehicle_type_id":"4","last_reported":1741903719,"current_range_meters":14800,"station_id":"","pricing_plan_id":"cebpf4jnsgd1na2vs0mg"},{"bike_id":"d76b6165-d192-435e-aaea-6a18987b94b7","system_id":"levelo_inurba_marseille","lat":43.28421,"lon":5.34986,"is_reserved":false,"is_disabled":false,"rental_uris":{"android":"levelo://app?vid=d76b6165-d192-435e-aaea-6a18987b94b7","ios":"levelo://app?vid=d76b6165-d192-435e-aaea-6a18987b94b7"},"vehicle_type_id":"4","last_reported":1741903719,"current_range_meters":14800,"station_id":"ce4bhbh2rcd13ifvqepg","pricing_plan_id":"cebpf4jnsgd1na2vs0mg"},{"bike_id":"2e5250df-c2a7-41aa-845d-2c9428368686","system_id":"levelo_inurba_marseille","lat":43.31328,"lon":5.39694,"is_reserved":false,"is_disabled":false,"rental_uris":{"android":"levelo://app?vid=2e5250df-c2a7-41aa-845d-2c9428368686","ios":"levelo://app?vid=2e5250df-c2a7-41aa-845d-2c9428368686"},"vehicle_type_id":"4","last_reported":1741903719,"current_range_meters":15200,"station_id":"ce4bgvp2rcd13ifvqcu0","pricing_plan_id":"cebpf4jnsgd1na2vs0mg"},{"bike_id":"24bd9beb-d69e-4ab4-b84d-a3cd5ff766c9","system_id":"levelo_inurba_marseille","lat":43.30151,"lon":5.3808,"is_reserved":false,"is_disabled":false,"rental_uris":{"android":"levelo://app?vid=24bd9beb-d69e-4ab4-b84d-a3cd5ff766c9","ios":"levelo://app?vid=24bd9beb-d69e-4ab4-b84d-a3cd5ff766c9"},"vehicle_type_id":"4","last_reported":1741903719,"current_range_meters":15200,"station_id":"ce4bgjp2rcd13ifvqbh0","pricing_plan_id":"cebpf4jnsgd1na2vs0mg"},{"bike_id":"ac9829db-5826-4bcf-b26b-4776553d00ba","system_id":"levelo_inurba_marseille","lat":43.31731,"lon":5.4041,"is_reserved":false,"is_disabled":false,"rental_uris":{"android":"levelo://app?vid=ac9829db-5826-4bcf-b26b-4776553d00ba","ios":"levelo://app?vid=ac9829db-5826-4bcf-b26b-4776553d00ba"},"vehicle_type_id":"4","last_reported":1741903719,"current_range_meters":15200,"station_id":"ce4bh012rcd13ifvqd00","pricing_plan_id":"cebpf4jnsgd1na2vs0mg"},{"bike_id":"c7950de0-ccb6-4d1b-a54b-5d73e8dc2b0a","system_id":"levelo_inurba_marseille","lat":43.28449,"lon":5.39192,"is_reserved":false,"is_disabled":false,"rental_uris":{"android":"levelo://app?vid=c7950de0-ccb6-4d1b-a54b-5d73e8dc2b0a","ios":"levelo://app?vid=c7950de0-ccb6-4d1b-a54b-5d73e8dc2b0a"},"vehicle_type_id":"4","last_reported":1741903719,"current_range_meters":15200,"station_id":"ce4bhoh2rcd13ifvqh5g","pricing_plan_id":"cebpf4jnsgd1na2vs0mg"},{"bike_id":"c4f2740c-3fd6-4d84-b01f-bc333e653762","system_id":"levelo_inurba_marseille","lat":43.24666,"lon":5.3816,"is_reserved":false,"is_disabled":false,"rental_uris":{"android":"levelo://app?vid=c4f2740c-3fd6-4d84-b01f-bc333e653762","ios":"levelo://app?vid=c4f2740c-3fd6-4d84-b01f-bc333e653762"},"vehicle_type_id":"4","last_reported":1741903719,"current_range_meters":15200,"station_id":"ce4bhih2rcd13ifvqfr0","pricing_plan_id":"cebpf4jnsgd1na2vs0mg"},{"bike_id":"a81743af-21ed-4fde-bdcd-f37124acdb66","system_id":"levelo_inurba_marseille","lat":43.27681,"lon":5.38815,"is_reserved":false,"is_disabled":false,"rental_uris":{"android":"levelo://app?vid=a81743af-21ed-4fde-bdcd-f37124acdb66","ios":"levelo://app?vid=a81743af-21ed-4fde-bdcd-f37124acdb66"},"vehicle_type_id":"4","last_reported":1741903719,"current_range_meters":16000,"station_id":"","pricing_plan_id":"cebpf4jnsgd1na2vs0mg"},{"bike_id":"2fcdbd2d-52b8-4841-9569-2b04b6707abc","system_id":"levelo_inurba_marseille","lat":43.23177,"lon":5.3997,"is_reserved":false,"is_disabled":false,"rental_uris":{"android":"levelo://app?vid=2fcdbd2d-52b8-4841-9569-2b04b6707abc","ios":"levelo://app?vid=2fcdbd2d-52b8-4841-9569-2b04b6707abc"},"vehicle_type_id":"4","last_reported":1741903719,"current_range_meters":16000,"station_id":"ce4bhn12rcd13ifvqgqg","pricing_plan_id":"cebpf4jnsgd1na2vs0mg"},{"bike_id":"714b7ede-04fb-4c41-886d-5d15a7287e61","system_id":"levelo_inurba_marseille","lat":43.30229,"lon":5.40055,"is_reserved":false,"is_disabled":false,"rental_uris":{"android":"levelo://app?vid=714b7ede-04fb-4c41-886d-5d15a7287e61","ios":"levelo://app?vid=714b7ede-04fb-4c41-886d-5d15a7287e61"},"vehicle_type_id":"4","last_reported":1741903719,"current_range_meters":14400,"station_id":"ce4bgvh2rcd13ifvqcs0","pricing_plan_id":"cebpf4jnsgd1na2vs0mg"},{"bike_id":"f8e9787d-4c7f-4b26-a202-4ff55b4e451b","system_id":"levelo_inurba_marseille","lat":43.29916,"lon":5.3745,"is_reserved":false,"is_disabled":true,"rental_uris":{"android":"levelo://app?vid=f8e9787d-4c7f-4b26-a202-4ff55b4e451b","ios":"levelo://app?vid=f8e9787d-4c7f-4b26-a202-4ff55b4e451b"},"vehicle_type_id":"4","last_reported":1741903719,"current_range_meters":16000,"station_id":"ce4bgjh2rcd13ifvqbg0","pricing_plan_id":"cebpf4jnsgd1na2vs0mg"},{"bike_id":"b7b9884d-608c-4cb0-8dec-c30036507e8e","system_id":"levelo_inurba_marseille","lat":43.29634,"lon":5.40586,"is_reserved":false,"is_disabled":false,"rental_uris":{"android":"levelo://app?vid=b7b9884d-608c-4cb0-8dec-c30036507e8e","ios":"levelo://app?vid=b7b9884d-608c-4cb0-8dec-c30036507e8e"},"vehicle_type_id":"4","last_reported":1741903719,"current_range_meters":16000,"station_id":"ce4bh0h2rcd13ifvqd60","pricing_plan_id":"cebpf4jnsgd1na2vs0mg"},{"bike_id":"ce06a747-dfc5-4afc-8c06-8358fffe4bb2","system_id":"levelo_inurba_marseille","lat":43.28422,"lon":5.35,"is_reserved":false,"is_disabled":false,"rental_uris":{"android":"levelo://app?vid=ce06a747-dfc5-4afc-8c06-8358fffe4bb2","ios":"levelo://app?vid=ce06a747-dfc5-4afc-8c06-8358fffe4bb2"},"vehicle_type_id":"4","last_reported":1741903719,"current_range_meters":16000,"station_id":"ce4bhbh2rcd13ifvqepg","pricing_plan_id":"cebpf4jnsgd1na2vs0mg"},{"bike_id":"59822710-2d10-4517-868b-42cfab329759","system_id":"levelo_inurba_marseille","lat":43.23196,"lon":5.35572,"is_reserved":false,"is_disabled":false,"rental_uris":{"android":"levelo://app?vid=59822710-2d10-4517-868b-42cfab329759","ios":"levelo://app?vid=59822710-2d10-4517-868b-42cfab329759"},"vehicle_type_id":"4","last_reported":1741903719,"current_range_meters":16000,"station_id":"ce4bhu92rcd13ifvqi70","pricing_plan_id":"cebpf4jnsgd1na2vs0mg"},{"bike_id":"65cf2adf-2076-488d-92ea-4ed5de20b3e6","system_id":"levelo_inurba_marseille","lat":43.30205,"lon":5.39473,"is_reserved":false,"is_disabled":false,"rental_uris":{"android":"levelo://app?vid=65cf2adf-2076-488d-92ea-4ed5de20b3e6","ios":"levelo://app?vid=65cf2adf-2076-488d-92ea-4ed5de20b3e6"},"vehicle_type_id":"4","last_reported":1741903719,"current_range_meters":16000,"station_id":"ce4bh0p2rcd13ifvqd70","pricing_plan_id":"cebpf4jnsgd1na2vs0mg"},{"bike_id":"c6f9c2cc-8d82-4ef0-9c96-3fa68372f355","system_id":"levelo_inurba_marseille","lat":43.25004,"lon":5.38936,"is_reserved":false,"is_disabled":false,"rental_uris":{"android":"levelo://app?vid=c6f9c2cc-8d82-4ef0-9c96-3fa68372f355","ios":"levelo://app?vid=c6f9c2cc-8d82-4ef0-9c96-3fa68372f355"},"vehicle_type_id":"4","last_reported":1741903719,"current_range_meters":16000,"station_id":"ce4bhgp2rcd13ifvqfd0","pricing_plan_id":"cebpf4jnsgd1na2vs0mg"},{"bike_id":"0669a6d2-30db-4ef1-99cd-3aec88f8fe67","system_id":"levelo_inurba_marseille","lat":43.31176,"lon":5.38713,"is_reserved":false,"is_disabled":false,"rental_uris":{"android":"levelo://app?vid=0669a6d2-30db-4ef1-99cd-3aec88f8fe67","ios":"levelo://app?vid=0669a6d2-30db-4ef1-99cd-3aec88f8fe67"},"vehicle_type_id":"4","last_reported":1741903719,"current_range_meters":16000,"station_id":"ce4bgv12rcd13ifvqcp0","pricing_plan_id":"cebpf4jnsgd1na2vs0mg"},{"bike_id":"8a34ddde-2e34-4b75-af9e-cf55730aacae","system_id":"levelo_inurba_marseille","lat":43.30306,"lon":5.39211,"is_reserved":false,"is_disabled":false,"rental_uris":{"android":"levelo://app?vid=8a34ddde-2e34-4b75-af9e-cf55730aacae","ios":"levelo://app?vid=8a34ddde-2e34-4b75-af9e-cf55730aacae"},"vehicle_type_id":"4","last_reported":1741903719,"current_range_meters":16000,"station_id":"ce4bgkh2rcd13ifvqbk0","pricing_plan_id":"cebpf4jnsgd1na2vs0mg"},{"bike_id":"31c8862d-1f7d-4f69-a37f-93c25c9ce4d5","system_id":"levelo_inurba_marseille","lat":43.24989,"lon":5.3893,"is_reserved":false,"is_disabled":false,"rental_uris":{"android":"levelo://app?vid=31c8862d-1f7d-4f69-a37f-93c25c9ce4d5","ios":"levelo://app?vid=31c8862d-1f7d-4f69-a37f-93c25c9ce4d5"},"vehicle_type_id":"4","last_reported":1741903719,"current_range_meters":16000,"station_id":"ce4bhgp2rcd13ifvqfd0","pricing_plan_id":"cebpf4jnsgd1na2vs0mg"},{"bike_id":"d98e5f37-4f71-4a36-9b3b-496f87de0d61","system_id":"levelo_inurba_marseille","lat":43.31108,"lon":5.37567,"is_reserved":false,"is_disabled":false,"rental_uris":{"android":"levelo://app?vid=d98e5f37-4f71-4a36-9b3b-496f87de0d61","ios":"levelo://app?vid=d98e5f37-4f71-4a36-9b3b-496f87de0d61"},"vehicle_type_id":"4","last_reported":1741903719,"current_range_meters":16000,"station_id":"","pricing_plan_id":"cebpf4jnsgd1na2vs0mg"},{"bike_id":"bd7fb638-a561-41df-90ca-f32685780427","system_id":"levelo_inurba_marseille","lat":43.229257,"lon":5.353779,"is_reserved":false,"is_disabled":false,"rental_uris":{"android":"levelo://app?vid=bd7fb638-a561-41df-90ca-f32685780427","ios":"levelo://app?vid=bd7fb638-a561-41df-90ca-f32685780427"},"vehicle_type_id":"4","last_reported":1741903719,"current_range_meters":16000,"station_id":"cpo3532slgdg3j2ikp40","pricing_plan_id":"cebpf4jnsgd1na2vs0mg"},{"bike_id":"763a16a6-bc6e-48d4-84d3-a1ea13c086bc","system_id":"levelo_inurba_marseille","lat":43.2904,"lon":5.37561,"is_reserved":false,"is_disabled":true,"rental_uris":{"android":"levelo://app?vid=763a16a6-bc6e-48d4-84d3-a1ea13c086bc","ios":"levelo://app?vid=763a16a6-bc6e-48d4-84d3-a1ea13c086bc"},"vehicle_type_id":"4","last_reported":1741903719,"current_range_meters":16000,"station_id":"ce4bh692rcd13ifvqe90","pricing_plan_id":"cebpf4jnsgd1na2vs0mg"},{"bike_id":"bf990c20-70f5-4659-83c7-3780ce4a6071","system_id":"levelo_inurba_marseille","lat":43.28448,"lon":5.39208,"is_reserved":false,"is_disabled":false,"rental_uris":{"android":"levelo://app?vid=bf990c20-70f5-4659-83c7-3780ce4a6071","ios":"levelo://app?vid=bf990c20-70f5-4659-83c7-3780ce4a6071"},"vehicle_type_id":"4","last_reported":1741903719,"current_range_meters":16000,"station_id":"ce4bhoh2rcd13ifvqh5g","pricing_plan_id":"cebpf4jnsgd1na2vs0mg"},{"bike_id":"851aa9ee-676b-4850-bbb0-49c64b3e17d8","system_id":"levelo_inurba_marseille","lat":43.292985,"lon":5.371798,"is_reserved":false,"is_disabled":false,"rental_uris":{"android":"levelo://app?vid=851aa9ee-676b-4850-bbb0-49c64b3e17d8","ios":"levelo://app?vid=851aa9ee-676b-4850-bbb0-49c64b3e17d8"},"vehicle_type_id":"4","last_reported":1741903719,"current_range_meters":16400,"station_id":"ce4bhh12rcd13ifvqff0","pricing_plan_id":"cebpf4jnsgd1na2vs0mg"},{"bike_id":"11de2bb2-7bda-44cd-8dad-489c3c5f73a4","system_id":"levelo_inurba_marseille","lat":43.31181,"lon":5.38704,"is_reserved":false,"is_disabled":false,"rental_uris":{"android":"levelo://app?vid=11de2bb2-7bda-44cd-8dad-489c3c5f73a4","ios":"levelo://app?vid=11de2bb2-7bda-44cd-8dad-489c3c5f73a4"},"vehicle_type_id":"4","last_reported":1741903719,"current_range_meters":16400,"station_id":"ce4bgv12rcd13ifvqcp0","pricing_plan_id":"cebpf4jnsgd1na2vs0mg"},{"bike_id":"4dda11f7-da8b-4e50-8d17-f21a0e0813da","system_id":"levelo_inurba_marseille","lat":43.28943,"lon":5.36395,"is_reserved":false,"is_disabled":false,"rental_uris":{"android":"levelo://app?vid=4dda11f7-da8b-4e50-8d17-f21a0e0813da","ios":"levelo://app?vid=4dda11f7-da8b-4e50-8d17-f21a0e0813da"},"vehicle_type_id":"4","last_reported":1741903719,"current_range_meters":16400,"station_id":"ce4bhc92rcd13ifvqetg","pricing_plan_id":"cebpf4jnsgd1na2vs0mg"},{"bike_id":"5c6eed11-5b7b-4faa-9f2d-08025e97b244","system_id":"levelo_inurba_marseille","lat":43.24063,"lon":5.37757,"is_reserved":false,"is_disabled":false,"rental_uris":{"android":"levelo://app?vid=5c6eed11-5b7b-4faa-9f2d-08025e97b244","ios":"levelo://app?vid=5c6eed11-5b7b-4faa-9f2d-08025e97b244"},"vehicle_type_id":"4","last_reported":1741903719,"current_range_meters":16400,"station_id":"ce4bhnp2rcd13ifvqgvg","pricing_plan_id":"cebpf4jnsgd1na2vs0mg"},{"bike_id":"ce1d5eb9-8d87-4e8a-b45d-156669b75354","system_id":"levelo_inurba_marseille","lat":43.31456,"lon":5.40314,"is_reserved":false,"is_disabled":false,"rental_uris":{"android":"levelo://app?vid=ce1d5eb9-8d87-4e8a-b45d-156669b75354","ios":"levelo://app?vid=ce1d5eb9-8d87-4e8a-b45d-156669b75354"},"vehicle_type_id":"4","last_reported":1741903719,"current_range_meters":16800,"station_id":"ce4bh092rcd13ifvqd30","pricing_plan_id":"cebpf4jnsgd1na2vs0mg"},{"bike_id":"e8c41106-611b-4b63-ab3a-8921ab9bd516","system_id":"levelo_inurba_marseille","lat":43.28848,"lon":5.3585,"is_reserved":false,"is_disabled":false,"rental_uris":{"android":"levelo://app?vid=e8c41106-611b-4b63-ab3a-8921ab9bd516","ios":"levelo://app?vid=e8c41106-611b-4b63-ab3a-8921ab9bd516"},"vehicle_type_id":"4","last_reported":1741903719,"current_range_meters":16800,"station_id":"ce4bhb12rcd13ifvqem0","pricing_plan_id":"cebpf4jnsgd1na2vs0mg"},{"bike_id":"0cb5cbc4-6d52-4deb-b844-9e3da05f8724","system_id":"levelo_inurba_marseille","lat":43.31326,"lon":5.39694,"is_reserved":false,"is_disabled":false,"rental_uris":{"android":"levelo://app?vid=0cb5cbc4-6d52-4deb-b844-9e3da05f8724","ios":"levelo://app?vid=0cb5cbc4-6d52-4deb-b844-9e3da05f8724"},"vehicle_type_id":"4","last_reported":1741903719,"current_range_meters":16800,"station_id":"ce4bgvp2rcd13ifvqcu0","pricing_plan_id":"cebpf4jnsgd1na2vs0mg"},{"bike_id":"07c72146-04d2-40c0-8674-54cd753f78e1","system_id":"levelo_inurba_marseille","lat":43.250027,"lon":5.389106,"is_reserved":false,"is_disabled":false,"rental_uris":{"android":"levelo://app?vid=07c72146-04d2-40c0-8674-54cd753f78e1","ios":"levelo://app?vid=07c72146-04d2-40c0-8674-54cd753f78e1"},"vehicle_type_id":"4","last_reported":1741903719,"current_range_meters":16800,"station_id":"ce4bhgp2rcd13ifvqfd0","pricing_plan_id":"cebpf4jnsgd1na2vs0mg"},{"bike_id":"43c7a6fd-be71-49b8-84af-608bb2a161fd","system_id":"levelo_inurba_marseille","lat":43.28705,"lon":5.37391,"is_reserved":false,"is_disabled":false,"rental_uris":{"android":"levelo://app?vid=43c7a6fd-be71-49b8-84af-608bb2a161fd","ios":"levelo://app?vid=43c7a6fd-be71-49b8-84af-608bb2a161fd"},"vehicle_type_id":"4","last_reported":1741903719,"current_range_meters":16800,"station_id":"ce4bh3p2rcd13ifvqdq0","pricing_plan_id":"cebpf4jnsgd1na2vs0mg"},{"bike_id":"96f75d47-903c-45ac-ab93-3d63872bfcc8","system_id":"levelo_inurba_marseille","lat":43.27903,"lon":5.38002,"is_reserved":false,"is_disabled":false,"rental_uris":{"android":"levelo://app?vid=96f75d47-903c-45ac-ab93-3d63872bfcc8","ios":"levelo://app?vid=96f75d47-903c-45ac-ab93-3d63872bfcc8"},"vehicle_type_id":"4","last_reported":1741903719,"current_range_meters":16800,"station_id":"ce4bhf92rcd13ifvqf50","pricing_plan_id":"cebpf4jnsgd1na2vs0mg"},{"bike_id":"efceeff0-b616-4535-b4b6-ce461833840f","system_id":"levelo_inurba_marseille","lat":43.30435,"lon":5.39743,"is_reserved":false,"is_disabled":false,"rental_uris":{"android":"levelo://app?vid=efceeff0-b616-4535-b4b6-ce461833840f","ios":"levelo://app?vid=efceeff0-b616-4535-b4b6-ce461833840f"},"vehicle_type_id":"4","last_reported":1741903719,"current_range_meters":16800,"station_id":"ce4bh092rcd13ifvqd20","pricing_plan_id":"cebpf4jnsgd1na2vs0mg"},{"bike_id":"e0f00ea1-5190-455d-8f01-943045ce62ae","system_id":"levelo_inurba_marseille","lat":43.311943,"lon":5.377337,"is_reserved":false,"is_disabled":false,"rental_uris":{"android":"levelo://app?vid=e0f00ea1-5190-455d-8f01-943045ce62ae","ios":"levelo://app?vid=e0f00ea1-5190-455d-8f01-943045ce62ae"},"vehicle_type_id":"4","last_reported":1741903719,"current_range_meters":16800,"station_id":"","pricing_plan_id":"cebpf4jnsgd1na2vs0mg"},{"bike_id":"04f149c6-a120-4218-b435-a952d9eb67d0","system_id":"levelo_inurba_marseille","lat":43.24872,"lon":5.40648,"is_reserved":false,"is_disabled":false,"rental_uris":{"android":"levelo://app?vid=04f149c6-a120-4218-b435-a952d9eb67d0","ios":"levelo://app?vid=04f149c6-a120-4218-b435-a952d9eb67d0"},"vehicle_type_id":"4","last_reported":1741903719,"current_range_meters":16800,"station_id":"","pricing_plan_id":"cebpf4jnsgd1na2vs0mg"},{"bike_id":"729d8ff4-a100-45bf-ae52-e17de4a9618f","system_id":"levelo_inurba_marseille","lat":43.30645,"lon":5.40068,"is_reserved":false,"is_disabled":false,"rental_uris":{"android":"levelo://app?vid=729d8ff4-a100-45bf-ae52-e17de4a9618f","ios":"levelo://app?vid=729d8ff4-a100-45bf-ae52-e17de4a9618f"},"vehicle_type_id":"4","last_reported":1741903719,"current_range_meters":16800,"station_id":"ce4bh112rcd13ifvqda0","pricing_plan_id":"cebpf4jnsgd1na2vs0mg"},{"bike_id":"03681732-f126-4dbb-ad09-d1b9ba34b184","system_id":"levelo_inurba_marseille","lat":43.28267,"lon":5.35067,"is_reserved":false,"is_disabled":false,"rental_uris":{"android":"levelo://app?vid=03681732-f126-4dbb-ad09-d1b9ba34b184","ios":"levelo://app?vid=03681732-f126-4dbb-ad09-d1b9ba34b184"},"vehicle_type_id":"4","last_reported":1741903719,"current_range_meters":17200,"station_id":"ce4bhbp2rcd13ifvqerg","pricing_plan_id":"cebpf4jnsgd1na2vs0mg"},{"bike_id":"336e0223-636e-4fd3-b534-e5d43b99146d","system_id":"levelo_inurba_marseille","lat":43.29544,"lon":5.38531,"is_reserved":false,"is_disabled":false,"rental_uris":{"android":"levelo://app?vid=336e0223-636e-4fd3-b534-e5d43b99146d","ios":"levelo://app?vid=336e0223-636e-4fd3-b534-e5d43b99146d"},"vehicle_type_id":"4","last_reported":1741903719,"current_range_meters":17200,"station_id":"ce4bgih2rcd13ifvqba0","pricing_plan_id":"cebpf4jnsgd1na2vs0mg"},{"bike_id":"a902aa7b-40bd-47ef-b54f-4c5c1958a1fa","system_id":"levelo_inurba_marseille","lat":43.26559,"lon":5.37285,"is_reserved":false,"is_disabled":false,"rental_uris":{"android":"levelo://app?vid=a902aa7b-40bd-47ef-b54f-4c5c1958a1fa","ios":"levelo://app?vid=a902aa7b-40bd-47ef-b54f-4c5c1958a1fa"},"vehicle_type_id":"4","last_reported":1741903719,"current_range_meters":17200,"station_id":"ce4bhg12rcd13ifvqf70","pricing_plan_id":"cebpf4jnsgd1na2vs0mg"},{"bike_id":"aeefe2ec-65b5-4d03-80b3-2396e9b36193","system_id":"levelo_inurba_marseille","lat":43.31069,"lon":5.38349,"is_reserved":false,"is_disabled":false,"rental_uris":{"android":"levelo://app?vid=aeefe2ec-65b5-4d03-80b3-2396e9b36193","ios":"levelo://app?vid=aeefe2ec-65b5-4d03-80b3-2396e9b36193"},"vehicle_type_id":"4","last_reported":1741903719,"current_range_meters":17200,"station_id":"ce4bgv92rcd13ifvqcr0","pricing_plan_id":"cebpf4jnsgd1na2vs0mg"},{"bike_id":"c765147a-052b-41b2-a04c-bf6c1fe8a17d","system_id":"levelo_inurba_marseille","lat":43.2963,"lon":5.40591,"is_reserved":false,"is_disabled":false,"rental_uris":{"android":"levelo://app?vid=c765147a-052b-41b2-a04c-bf6c1fe8a17d","ios":"levelo://app?vid=c765147a-052b-41b2-a04c-bf6c1fe8a17d"},"vehicle_type_id":"4","last_reported":1741903719,"current_range_meters":16800,"station_id":"ce4bh0h2rcd13ifvqd60","pricing_plan_id":"cebpf4jnsgd1na2vs0mg"},{"bike_id":"7abfe762-90f1-4d9f-9760-c1a8ce03c65d","system_id":"levelo_inurba_marseille","lat":43.26935,"lon":5.40247,"is_reserved":false,"is_disabled":false,"rental_uris":{"android":"levelo://app?vid=7abfe762-90f1-4d9f-9760-c1a8ce03c65d","ios":"levelo://app?vid=7abfe762-90f1-4d9f-9760-c1a8ce03c65d"},"vehicle_type_id":"4","last_reported":1741903719,"current_range_meters":17200,"station_id":"cjm6bp8fraef2m0cb0m0","pricing_plan_id":"cebpf4jnsgd1na2vs0mg"},{"bike_id":"10cd12c1-87aa-4409-a722-0b46eacc3c6e","system_id":"levelo_inurba_marseille","lat":43.29281,"lon":5.40127,"is_reserved":false,"is_disabled":false,"rental_uris":{"android":"levelo://app?vid=10cd12c1-87aa-4409-a722-0b46eacc3c6e","ios":"levelo://app?vid=10cd12c1-87aa-4409-a722-0b46eacc3c6e"},"vehicle_type_id":"4","last_reported":1741903719,"current_range_meters":17200,"station_id":"ce4bh312rcd13ifvqdk0","pricing_plan_id":"cebpf4jnsgd1na2vs0mg"},{"bike_id":"480057fe-eac1-4351-8bb6-1067c18f12c8","system_id":"levelo_inurba_marseille","lat":43.28397,"lon":5.37519,"is_reserved":false,"is_disabled":false,"rental_uris":{"android":"levelo://app?vid=480057fe-eac1-4351-8bb6-1067c18f12c8","ios":"levelo://app?vid=480057fe-eac1-4351-8bb6-1067c18f12c8"},"vehicle_type_id":"4","last_reported":1741903719,"current_range_meters":17200,"station_id":"ce4bh412rcd13ifvqds0","pricing_plan_id":"cebpf4jnsgd1na2vs0mg"},{"bike_id":"cda87958-7955-40a2-94b4-2fb70f03c65d","system_id":"levelo_inurba_marseille","lat":43.28456,"lon":5.3588,"is_reserved":false,"is_disabled":false,"rental_uris":{"android":"levelo://app?vid=cda87958-7955-40a2-94b4-2fb70f03c65d","ios":"levelo://app?vid=cda87958-7955-40a2-94b4-2fb70f03c65d"},"vehicle_type_id":"4","last_reported":1741903719,"current_range_meters":17600,"station_id":"ce4bhah2rcd13ifvqei0","pricing_plan_id":"cebpf4jnsgd1na2vs0mg"},{"bike_id":"7ac836fc-8bfb-4f6d-9ed8-aaa4df0bd855","system_id":"levelo_inurba_marseille","lat":43.32367,"lon":5.38899,"is_reserved":false,"is_disabled":false,"rental_uris":{"android":"levelo://app?vid=7ac836fc-8bfb-4f6d-9ed8-aaa4df0bd855","ios":"levelo://app?vid=7ac836fc-8bfb-4f6d-9ed8-aaa4df0bd855"},"vehicle_type_id":"4","last_reported":1741903719,"current_range_meters":17600,"station_id":"ce4bhqp2rcd13ifvqhog","pricing_plan_id":"cebpf4jnsgd1na2vs0mg"},{"bike_id":"064d1ac0-ae89-4127-bc8d-735b0c612c21","system_id":"levelo_inurba_marseille","lat":43.26502,"lon":5.3954,"is_reserved":false,"is_disabled":false,"rental_uris":{"android":"levelo://app?vid=064d1ac0-ae89-4127-bc8d-735b0c612c21","ios":"levelo://app?vid=064d1ac0-ae89-4127-bc8d-735b0c612c21"},"vehicle_type_id":"4","last_reported":1741903719,"current_range_meters":17600,"station_id":"ce4bhi12rcd13ifvqfq0","pricing_plan_id":"cebpf4jnsgd1na2vs0mg"},{"bike_id":"b6b6b6f7-0014-46ed-a4cc-41deca44231c","system_id":"levelo_inurba_marseille","lat":43.29259,"lon":5.37629,"is_reserved":false,"is_disabled":false,"rental_uris":{"android":"levelo://app?vid=b6b6b6f7-0014-46ed-a4cc-41deca44231c","ios":"levelo://app?vid=b6b6b6f7-0014-46ed-a4cc-41deca44231c"},"vehicle_type_id":"4","last_reported":1741903719,"current_range_meters":17600,"station_id":"ce4bgi12rcd13ifvqb80","pricing_plan_id":"cebpf4jnsgd1na2vs0mg"},{"bike_id":"ae2c374b-e3c1-46b0-837c-29badd9bd7b0","system_id":"levelo_inurba_marseille","lat":43.30591,"lon":5.39363,"is_reserved":false,"is_disabled":false,"rental_uris":{"android":"levelo://app?vid=ae2c374b-e3c1-46b0-837c-29badd9bd7b0","ios":"levelo://app?vid=ae2c374b-e3c1-46b0-837c-29badd9bd7b0"},"vehicle_type_id":"4","last_reported":1741903719,"current_range_meters":17600,"station_id":"ce4bgvh2rcd13ifvqcs0","pricing_plan_id":"cebpf4jnsgd1na2vs0mg"},{"bike_id":"c0ccaf69-560e-4aec-a7ce-7b8e5330bbc8","system_id":"levelo_inurba_marseille","lat":43.30452,"lon":5.38868,"is_reserved":false,"is_disabled":false,"rental_uris":{"android":"levelo://app?vid=c0ccaf69-560e-4aec-a7ce-7b8e5330bbc8","ios":"levelo://app?vid=c0ccaf69-560e-4aec-a7ce-7b8e5330bbc8"},"vehicle_type_id":"4","last_reported":1741903719,"current_range_meters":17600,"station_id":"ce4bgk12rcd13ifvqbi0","pricing_plan_id":"cebpf4jnsgd1na2vs0mg"},{"bike_id":"f7950ae2-cbc0-49bf-b694-987ddd93f78c","system_id":"levelo_inurba_marseille","lat":43.30259,"lon":5.40059,"is_reserved":false,"is_disabled":false,"rental_uris":{"android":"levelo://app?vid=f7950ae2-cbc0-49bf-b694-987ddd93f78c","ios":"levelo://app?vid=f7950ae2-cbc0-49bf-b694-987ddd93f78c"},"vehicle_type_id":"4","last_reported":1741903719,"current_range_meters":17200,"station_id":"ce4bgvh2rcd13ifvqcs0","pricing_plan_id":"cebpf4jnsgd1na2vs0mg"},{"bike_id":"a03bd33b-0c0a-46fb-bf17-fe85f148665f","system_id":"levelo_inurba_marseille","lat":43.30901,"lon":5.40166,"is_reserved":false,"is_disabled":false,"rental_uris":{"android":"levelo://app?vid=a03bd33b-0c0a-46fb-bf17-fe85f148665f","ios":"levelo://app?vid=a03bd33b-0c0a-46fb-bf17-fe85f148665f"},"vehicle_type_id":"4","last_reported":1741903719,"current_range_meters":17600,"station_id":"ce4bgvp2rcd13ifvqct0","pricing_plan_id":"cebpf4jnsgd1na2vs0mg"},