{"last_updated":1774287728,"ttl":60,"version":"2.2","data":{"bikes":[{"bike_id":"4ed67dfe-b022-44f4-8343-294f8c30350f","system_id":"levelo_inurba_marseille","lat":43.29873,"lon":5.39738,"is_reserved":false,"is_disabled":false,"rental_uris":{"android":"levelo://app?vid=4ed67dfe-b022-44f4-8343-294f8c30350f","ios":"levelo://app?vid=4ed67dfe-b022-44f4-8343-294f8c30350f"},"vehicle_type_id":"4","last_reported":1774287729,"current_range_meters":2800,"station_id":"ce4bh0h2rcd13ifvqd50","pricing_plan_id":"cebpf4jnsgd1na2vs0mg"},{"bike_id":"df5966da-7f09-49a3-807a-d629578f1741","system_id":"levelo_inurba_marseille","lat":43.29013,"lon":5.35612,"is_reserved":false,"is_disabled":false,"rental_uris":{"android":"levelo://app?vid=df5966da-7f09-49a3-807a-d629578f1741","ios":"levelo://app?vid=df5966da-7f09-49a3-807a-d629578f1741"},"vehicle_type_id":"4","last_reported":1774287729,"current_range_meters":2800,"station_id":"ce4bhb92rcd13ifvqen0","pricing_plan_id":"cebpf4jnsgd1na2vs0mg"},{"bike_id":"4a08ea02-f339-41b8-9d8b-5268c800245e","system_id":"levelo_inurba_marseille","lat":43.24137,"lon":5.36824,"is_reserved":false,"is_disabled":false,"rental_uris":{"android":"levelo://app?vid=4a08ea02-f339-41b8-9d8b-5268c800245e","ios":"levelo://app?vid=4a08ea02-f339-41b8-9d8b-5268c800245e"},"vehicle_type_id":"4","last_reported":1774287729,"current_range_meters":2800,"station_id":"","pricing_plan_id":"cebpf4jnsgd1na2vs0mg"},{"bike_id":"bb6049dc-ae19-4985-aa4c-475cf4cb6125","system_id":"levelo_inurba_marseille","lat":43.28268,"lon":5.35062,"is_reserved":false,"is_disabled":false,"rental_uris":{"android":"levelo://app?vid=bb6049dc-ae19-4985-aa4c-475cf4cb6125","ios":"levelo://app?vid=bb6049dc-ae19-4985-aa4c-475cf4cb6125"},"vehicle_type_id":"4","last_reported":1774287729,"current_range_meters":2800,"station_id":"ce4bhbp2rcd13ifvqerg","pricing_plan_id":"cebpf4jnsgd1na2vs0mg"},{"bike_id":"c9077b49-c922-4512-888a-80e3c4817a9d","system_id":"levelo_inurba_marseille","lat":43.28443,"lon":5.39202,"is_reserved":false,"is_disabled":false,"rental_uris":{"android":"levelo://app?vid=c9077b49-c922-4512-888a-80e3c4817a9d","ios":"levelo://app?vid=c9077b49-c922-4512-888a-80e3c4817a9d"},"vehicle_type_id":"4","last_reported":1774287729,"current_range_meters":2800,"station_id":"ce4bhoh2rcd13ifvqh5g","pricing_plan_id":"cebpf4jnsgd1na2vs0mg"},{"bike_id":"deb4d43c-e639-4f91-a09a-8f7ec3cc3424","system_id":"levelo_inurba_marseille","lat":43.32075,"lon":5.36865,"is_reserved":false,"is_disabled":false,"rental_uris":{"android":"levelo://app?vid=deb4d43c-e639-4f91-a09a-8f7ec3cc3424","ios":"levelo://app?vid=deb4d43c-e639-4f91-a09a-8f7ec3cc3424"},"vehicle_type_id":"4","last_reported":1774287729,"current_range_meters":2800,"station_id":"ce4bhrh2rcd13ifvqhug","pricing_plan_id":"cebpf4jnsgd1na2vs0mg"},{"bike_id":"466b6f84-924a-4ebf-8b64-f0b5b439160b","system_id":"levelo_inurba_marseille","lat":43.32089,"lon":5.36742,"is_reserved":false,"is_disabled":false,"rental_uris":{"android":"levelo://app?vid=466b6f84-924a-4ebf-8b64-f0b5b439160b","ios":"levelo://app?vid=466b6f84-924a-4ebf-8b64-f0b5b439160b"},"vehicle_type_id":"4","last_reported":1774287729,"current_range_meters":2800,"station_id":"ce4bhrh2rcd13ifvqhug","pricing_plan_id":"cebpf4jnsgd1na2vs0mg"},{"bike_id":"89884c11-0089-40c9-b4c8-cc026115fb44","system_id":"levelo_inurba_marseille","lat":43.26942,"lon":5.42006,"is_reserved":false,"is_disabled":false,"rental_uris":{"android":"levelo://app?vid=89884c11-0089-40c9-b4c8-cc026115fb44","ios":"levelo://app?vid=89884c11-0089-40c9-b4c8-cc026115fb44"},"vehicle_type_id":"4","last_reported":1774287729,"current_range_meters":2800,"station_id":"","pricing_plan_id":"cebpf4jnsgd1na2vs0mg"},{"bike_id":"c15f8672-d352-4468-9240-2ea7fc7ca855","system_id":"levelo_inurba_marseille","lat":43.30878,"lon":5.37185,"is_reserved":false,"is_disabled":false,"rental_uris":{"android":"levelo://app?vid=c15f8672-d352-4468-9240-2ea7fc7ca855","ios":"levelo://app?vid=c15f8672-d352-4468-9240-2ea7fc7ca855"},"vehicle_type_id":"4","last_reported":1774287729,"current_range_meters":2800,"station_id":"ce4bguh2rcd13ifvqckg","pricing_plan_id":"cebpf4jnsgd1na2vs0mg"},{"bike_id":"c1fb5764-bcd6-4143-af0b-de782b945bea","system_id":"levelo_inurba_marseille","lat":43.2379,"lon":5.36633,"is_reserved":false,"is_disabled":false,"rental_uris":{"android":"levelo://app?vid=c1fb5764-bcd6-4143-af0b-de782b945bea","ios":"levelo://app?vid=c1fb5764-bcd6-4143-af0b-de782b945bea"},"vehicle_type_id":"4","last_reported":1774287729,"current_range_meters":2800,"station_id":"st_d3nk18o9ro0c73en2l3g","pricing_plan_id":"cebpf4jnsgd1na2vs0mg"},{"bike_id":"a46c1a3e-d474-4222-bd24-8cb832e27d76","system_id":"levelo_inurba_marseille","lat":43.29777,"lon":5.36414,"is_reserved":false,"is_disabled":false,"rental_uris":{"android":"levelo://app?vid=a46c1a3e-d474-4222-bd24-8cb832e27d76","ios":"levelo://app?vid=a46c1a3e-d474-4222-bd24-8cb832e27d76"},"vehicle_type_id":"4","last_reported":1774287729,"current_range_meters":2800,"station_id":"","pricing_plan_id":"cebpf4jnsgd1na2vs0mg"},{"bike_id":"895b6d9a-f6b2-4744-8c30-184547b1b37e","system_id":"levelo_inurba_marseille","lat":43.28162,"lon":5.42636,"is_reserved":false,"is_disabled":false,"rental_uris":{"android":"levelo://app?vid=895b6d9a-f6b2-4744-8c30-184547b1b37e","ios":"levelo://app?vid=895b6d9a-f6b2-4744-8c30-184547b1b37e"},"vehicle_type_id":"4","last_reported":1774287729,"current_range_meters":3200,"station_id":"ce4bhnh2rcd13ifvqgug","pricing_plan_id":"cebpf4jnsgd1na2vs0mg"},{"bike_id":"ee3ff2c5-8eb9-460a-936f-029a2d3bd45f","system_id":"levelo_inurba_marseille","lat":43.28896,"lon":5.43344,"is_reserved":false,"is_disabled":false,"rental_uris":{"android":"levelo://app?vid=ee3ff2c5-8eb9-460a-936f-029a2d3bd45f","ios":"levelo://app?vid=ee3ff2c5-8eb9-460a-936f-029a2d3bd45f"},"vehicle_type_id":"4","last_reported":1774287729,"current_range_meters":3200,"station_id":"","pricing_plan_id":"cebpf4jnsgd1na2vs0mg"},{"bike_id":"af8d2a67-5765-4d25-9890-717868ce4def","system_id":"levelo_inurba_marseille","lat":43.26938,"lon":5.403,"is_reserved":false,"is_disabled":false,"rental_uris":{"android":"levelo://app?vid=af8d2a67-5765-4d25-9890-717868ce4def","ios":"levelo://app?vid=af8d2a67-5765-4d25-9890-717868ce4def"},"vehicle_type_id":"4","last_reported":1774287729,"current_range_meters":3200,"station_id":"cjm6bp8fraef2m0cb0m0","pricing_plan_id":"cebpf4jnsgd1na2vs0mg"},{"bike_id":"00560f09-8ead-439c-a384-e1807bc0a84c","system_id":"levelo_inurba_marseille","lat":43.28447,"lon":5.48489,"is_reserved":false,"is_disabled":false,"rental_uris":{"android":"levelo://app?vid=00560f09-8ead-439c-a384-e1807bc0a84c","ios":"levelo://app?vid=00560f09-8ead-439c-a384-e1807bc0a84c"},"vehicle_type_id":"4","last_reported":1774287729,"current_range_meters":3200,"station_id":"st_d3svhcjqgbts73a3dn0g","pricing_plan_id":"cebpf4jnsgd1na2vs0mg"},{"bike_id":"3ac47138-f790-403d-b61e-fc9481140083","system_id":"levelo_inurba_marseille","lat":43.25333,"lon":5.42164,"is_reserved":false,"is_disabled":false,"rental_uris":{"android":"levelo://app?vid=3ac47138-f790-403d-b61e-fc9481140083","ios":"levelo://app?vid=3ac47138-f790-403d-b61e-fc9481140083"},"vehicle_type_id":"4","last_reported":1774287729,"current_range_meters":3200,"station_id":"st_d2m65c5bi1j21697t3ng","pricing_plan_id":"cebpf4jnsgd1na2vs0mg"},{"bike_id":"f6467ed1-4158-4aa4-aa25-166d29133428","system_id":"levelo_inurba_marseille","lat":43.26198,"lon":5.37436,"is_reserved":false,"is_disabled":false,"rental_uris":{"android":"levelo://app?vid=f6467ed1-4158-4aa4-aa25-166d29133428","ios":"levelo://app?vid=f6467ed1-4158-4aa4-aa25-166d29133428"},"vehicle_type_id":"4","last_reported":1774287729,"current_range_meters":3200,"station_id":"ce4bhgp2rcd13ifvqfc0","pricing_plan_id":"cebpf4jnsgd1na2vs0mg"},{"bike_id":"926980e7-6e9b-4c45-a007-9ac0bf89dc56","system_id":"levelo_inurba_marseille","lat":43.31583,"lon":5.44525,"is_reserved":false,"is_disabled":false,"rental_uris":{"android":"levelo://app?vid=926980e7-6e9b-4c45-a007-9ac0bf89dc56","ios":"levelo://app?vid=926980e7-6e9b-4c45-a007-9ac0bf89dc56"},"vehicle_type_id":"4","last_reported":1774287729,"current_range_meters":3200,"station_id":"","pricing_plan_id":"cebpf4jnsgd1na2vs0mg"},{"bike_id":"9417f9d4-1da7-41e5-9b94-bccd7225fa25","system_id":"levelo_inurba_marseille","lat":43.28474,"lon":5.38423,"is_reserved":false,"is_disabled":false,"rental_uris":{"android":"levelo://app?vid=9417f9d4-1da7-41e5-9b94-bccd7225fa25","ios":"levelo://app?vid=9417f9d4-1da7-41e5-9b94-bccd7225fa25"},"vehicle_type_id":"4","last_reported":1774287729,"current_range_meters":3200,"station_id":"ce4bh512rcd13ifvqe3g","pricing_plan_id":"cebpf4jnsgd1na2vs0mg"},{"bike_id":"7461ce94-b6da-4653-b468-0c8c0cb6da4b","system_id":"levelo_inurba_marseille","lat":43.28349,"lon":5.381077,"is_reserved":false,"is_disabled":false,"rental_uris":{"android":"levelo://app?vid=7461ce94-b6da-4653-b468-0c8c0cb6da4b","ios":"levelo://app?vid=7461ce94-b6da-4653-b468-0c8c0cb6da4b"},"vehicle_type_id":"4","last_reported":1774287729,"current_range_meters":3200,"station_id":"ce4bh412rcd13ifvqdr0","pricing_plan_id":"cebpf4jnsgd1na2vs0mg"},{"bike_id":"acf046c8-4fc8-4ced-9ed5-1ee4a58a1236","system_id":"levelo_inurba_marseille","lat":43.31176,"lon":5.38788,"is_reserved":false,"is_disabled":false,"rental_uris":{"android":"levelo://app?vid=acf046c8-4fc8-4ced-9ed5-1ee4a58a1236","ios":"levelo://app?vid=acf046c8-4fc8-4ced-9ed5-1ee4a58a1236"},"vehicle_type_id":"4","last_reported":1774287729,"current_range_meters":3600,"station_id":"ce4bgv12rcd13ifvqcp0","pricing_plan_id":"cebpf4jnsgd1na2vs0mg"},{"bike_id":"a7ef863b-cab8-42e9-b85f-6f95b77e21f8","system_id":"levelo_inurba_marseille","lat":43.2552,"lon":5.37642,"is_reserved":false,"is_disabled":false,"rental_uris":{"android":"levelo://app?vid=a7ef863b-cab8-42e9-b85f-6f95b77e21f8","ios":"levelo://app?vid=a7ef863b-cab8-42e9-b85f-6f95b77e21f8"},"vehicle_type_id":"4","last_reported":1774287729,"current_range_meters":3600,"station_id":"ce4bhh12rcd13ifvqff0","pricing_plan_id":"cebpf4jnsgd1na2vs0mg"},{"bike_id":"82dfb53f-3851-4df3-b963-0bc813c72edc","system_id":"levelo_inurba_marseille","lat":43.30351,"lon":5.41883,"is_reserved":false,"is_disabled":false,"rental_uris":{"android":"levelo://app?vid=82dfb53f-3851-4df3-b963-0bc813c72edc","ios":"levelo://app?vid=82dfb53f-3851-4df3-b963-0bc813c72edc"},"vehicle_type_id":"4","last_reported":1774287729,"current_range_meters":4000,"station_id":"ce4bhop2rcd13ifvqh7g","pricing_plan_id":"cebpf4jnsgd1na2vs0mg"},{"bike_id":"1a1a7c55-ee9f-457e-9d2b-7662e3b1f44b","system_id":"levelo_inurba_marseille","lat":43.24631,"lon":5.43487,"is_reserved":false,"is_disabled":true,"rental_uris":{"android":"levelo://app?vid=1a1a7c55-ee9f-457e-9d2b-7662e3b1f44b","ios":"levelo://app?vid=1a1a7c55-ee9f-457e-9d2b-7662e3b1f44b"},"vehicle_type_id":"4","last_reported":1774287729,"current_range_meters":4000,"station_id":"","pricing_plan_id":"cebpf4jnsgd1na2vs0mg"},{"bike_id":"5a3d3df4-d923-46fc-bdfe-9820e3b28092","system_id":"levelo_inurba_marseille","lat":43.27313,"lon":5.39078,"is_reserved":false,"is_disabled":true,"rental_uris":{"android":"levelo://app?vid=5a3d3df4-d923-46fc-bdfe-9820e3b28092","ios":"levelo://app?vid=5a3d3df4-d923-46fc-bdfe-9820e3b28092"},"vehicle_type_id":"4","last_reported":1774287729,"current_range_meters":4000,"station_id":"ce4bhgp2rcd13ifvqfe0","pricing_plan_id":"cebpf4jnsgd1na2vs0mg"},{"bike_id":"c5af48bc-cee7-4dcc-b8b2-46a8803e10ed","system_id":"levelo_inurba_marseille","lat":43.27815,"lon":5.40717,"is_reserved":false,"is_disabled":false,"rental_uris":{"android":"levelo://app?vid=c5af48bc-cee7-4dcc-b8b2-46a8803e10ed","ios":"levelo://app?vid=c5af48bc-cee7-4dcc-b8b2-46a8803e10ed"},"vehicle_type_id":"4","last_reported":1774287729,"current_range_meters":4000,"station_id":"ce4bhnh2rcd13ifvqgtg","pricing_plan_id":"cebpf4jnsgd1na2vs0mg"},{"bike_id":"5983c768-9c88-4e5c-bdbb-6daf5a5e71f5","system_id":"levelo_inurba_marseille","lat":43.27816,"lon":5.4071,"is_reserved":false,"is_disabled":false,"rental_uris":{"android":"levelo://app?vid=5983c768-9c88-4e5c-bdbb-6daf5a5e71f5","ios":"levelo://app?vid=5983c768-9c88-4e5c-bdbb-6daf5a5e71f5"},"vehicle_type_id":"4","last_reported":1774287729,"current_range_meters":4000,"station_id":"ce4bhnh2rcd13ifvqgtg","pricing_plan_id":"cebpf4jnsgd1na2vs0mg"},{"bike_id":"8c198a30-0de0-4086-aa29-21cb05f0cd90","system_id":"levelo_inurba_marseille","lat":43.25146,"lon":5.4048,"is_reserved":false,"is_disabled":false,"rental_uris":{"android":"levelo://app?vid=8c198a30-0de0-4086-aa29-21cb05f0cd90","ios":"levelo://app?vid=8c198a30-0de0-4086-aa29-21cb05f0cd90"},"vehicle_type_id":"4","last_reported":1774287729,"current_range_meters":4000,"station_id":"","pricing_plan_id":"cebpf4jnsgd1na2vs0mg"},{"bike_id":"fa87ce26-5306-414f-98c9-1e3509ad90c0","system_id":"levelo_inurba_marseille","lat":43.24627,"lon":5.39305,"is_reserved":false,"is_disabled":false,"rental_uris":{"android":"levelo://app?vid=fa87ce26-5306-414f-98c9-1e3509ad90c0","ios":"levelo://app?vid=fa87ce26-5306-414f-98c9-1e3509ad90c0"},"vehicle_type_id":"4","last_reported":1774287729,"current_range_meters":4000,"station_id":"","pricing_plan_id":"cebpf4jnsgd1na2vs0mg"},{"bike_id":"f34dc19a-25c4-490b-b36b-67fa8c649bfe","system_id":"levelo_inurba_marseille","lat":43.30987,"lon":5.3757,"is_reserved":false,"is_disabled":false,"rental_uris":{"android":"levelo://app?vid=f34dc19a-25c4-490b-b36b-67fa8c649bfe","ios":"levelo://app?vid=f34dc19a-25c4-490b-b36b-67fa8c649bfe"},"vehicle_type_id":"4","last_reported":1774287729,"current_range_meters":4000,"station_id":"","pricing_plan_id":"cebpf4jnsgd1na2vs0mg"},{"bike_id":"1bd26c40-f793-4863-87af-5cc8aa2dc20e","system_id":"levelo_inurba_marseille","lat":43.29764,"lon":5.37199,"is_reserved":false,"is_disabled":false,"rental_uris":{"android":"levelo://app?vid=1bd26c40-f793-4863-87af-5cc8aa2dc20e","ios":"levelo://app?vid=1bd26c40-f793-4863-87af-5cc8aa2dc20e"},"vehicle_type_id":"4","last_reported":1774287729,"current_range_meters":4000,"station_id":"","pricing_plan_id":"cebpf4jnsgd1na2vs0mg"},{"bike_id":"c2e01e65-80ed-45ae-b328-541fb2ac74f5","system_id":"levelo_inurba_marseille","lat":43.21184,"lon":5.35094,"is_reserved":false,"is_disabled":false,"rental_uris":{"android":"levelo://app?vid=c2e01e65-80ed-45ae-b328-541fb2ac74f5","ios":"levelo://app?vid=c2e01e65-80ed-45ae-b328-541fb2ac74f5"},"vehicle_type_id":"4","last_reported":1774287729,"current_range_meters":4000,"station_id":"st_cvj6sg6p6f1abm77japg","pricing_plan_id":"cebpf4jnsgd1na2vs0mg"},{"bike_id":"3231dbcc-23be-407a-bb03-c30aef6350a1","system_id":"levelo_inurba_marseille","lat":43.2755,"lon":5.38443,"is_reserved":false,"is_disabled":false,"rental_uris":{"android":"levelo://app?vid=3231dbcc-23be-407a-bb03-c30aef6350a1","ios":"levelo://app?vid=3231dbcc-23be-407a-bb03-c30aef6350a1"},"vehicle_type_id":"4","last_reported":1774287729,"current_range_meters":4000,"station_id":"ce4bhh92rcd13ifvqfi0","pricing_plan_id":"cebpf4jnsgd1na2vs0mg"},{"bike_id":"d4915ca9-ed98-4f98-b8be-bf2dd7713af8","system_id":"levelo_inurba_marseille","lat":43.28103,"lon":5.37842,"is_reserved":false,"is_disabled":false,"rental_uris":{"android":"levelo://app?vid=d4915ca9-ed98-4f98-b8be-bf2dd7713af8","ios":"levelo://app?vid=d4915ca9-ed98-4f98-b8be-bf2dd7713af8"},"vehicle_type_id":"4","last_reported":1774287729,"current_range_meters":4000,"station_id":"ce4bha12rcd13ifvqee0","pricing_plan_id":"cebpf4jnsgd1na2vs0mg"},{"bike_id":"95f01070-84bf-4b80-88d3-bdd243d6ca2b","system_id":"levelo_inurba_marseille","lat":43.28842,"lon":5.39311,"is_reserved":false,"is_disabled":false,"rental_uris":{"android":"levelo://app?vid=95f01070-84bf-4b80-88d3-bdd243d6ca2b","ios":"levelo://app?vid=95f01070-84bf-4b80-88d3-bdd243d6ca2b"},"vehicle_type_id":"4","last_reported":1774287729,"current_range_meters":4400,"station_id":"ce4bh2p2rcd13ifvqdi0","pricing_plan_id":"cebpf4jnsgd1na2vs0mg"},{"bike_id":"e6d16333-aca6-4874-b7aa-5680ac1a37f3","system_id":"levelo_inurba_marseille","lat":43.27192,"lon":5.40874,"is_reserved":false,"is_disabled":false,"rental_uris":{"android":"levelo://app?vid=e6d16333-aca6-4874-b7aa-5680ac1a37f3","ios":"levelo://app?vid=e6d16333-aca6-4874-b7aa-5680ac1a37f3"},"vehicle_type_id":"4","last_reported":1774287729,"current_range_meters":4400,"station_id":"","pricing_plan_id":"cebpf4jnsgd1na2vs0mg"},{"bike_id":"11002bc4-302b-45ea-8526-515148fe0a7c","system_id":"levelo_inurba_marseille","lat":43.23742,"lon":5.39501,"is_reserved":false,"is_disabled":false,"rental_uris":{"android":"levelo://app?vid=11002bc4-302b-45ea-8526-515148fe0a7c","ios":"levelo://app?vid=11002bc4-302b-45ea-8526-515148fe0a7c"},"vehicle_type_id":"4","last_reported":1774287729,"current_range_meters":4400,"station_id":"","pricing_plan_id":"cebpf4jnsgd1na2vs0mg"},{"bike_id":"b23e52e9-a876-459e-8724-e0215296ea00","system_id":"levelo_inurba_marseille","lat":43.28482,"lon":5.48393,"is_reserved":false,"is_disabled":true,"rental_uris":{"android":"levelo://app?vid=b23e52e9-a876-459e-8724-e0215296ea00","ios":"levelo://app?vid=b23e52e9-a876-459e-8724-e0215296ea00"},"vehicle_type_id":"4","last_reported":1774287729,"current_range_meters":4400,"station_id":"","pricing_plan_id":"cebpf4jnsgd1na2vs0mg"},{"bike_id":"6a3db8e9-0ed4-4d26-9468-86a6444b6b8b","system_id":"levelo_inurba_marseille","lat":43.28557,"lon":5.39513,"is_reserved":false,"is_disabled":false,"rental_uris":{"android":"levelo://app?vid=6a3db8e9-0ed4-4d26-9468-86a6444b6b8b","ios":"levelo://app?vid=6a3db8e9-0ed4-4d26-9468-86a6444b6b8b"},"vehicle_type_id":"4","last_reported":1774287729,"current_range_meters":4400,"station_id":"ce4bh292rcd13ifvqdg0","pricing_plan_id":"cebpf4jnsgd1na2vs0mg"},{"bike_id":"21d916f1-5332-4807-bcc5-26157921f5c5","system_id":"levelo_inurba_marseille","lat":43.29878,"lon":5.39771,"is_reserved":false,"is_disabled":false,"rental_uris":{"android":"levelo://app?vid=21d916f1-5332-4807-bcc5-26157921f5c5","ios":"levelo://app?vid=21d916f1-5332-4807-bcc5-26157921f5c5"},"vehicle_type_id":"4","last_reported":1774287729,"current_range_meters":4400,"station_id":"ce4bh0h2rcd13ifvqd50","pricing_plan_id":"cebpf4jnsgd1na2vs0mg"},{"bike_id":"851f7ed5-5327-45e5-a0df-365a30f7491a","system_id":"levelo_inurba_marseille","lat":43.25326,"lon":5.42157,"is_reserved":false,"is_disabled":false,"rental_uris":{"android":"levelo://app?vid=851f7ed5-5327-45e5-a0df-365a30f7491a","ios":"levelo://app?vid=851f7ed5-5327-45e5-a0df-365a30f7491a"},"vehicle_type_id":"4","last_reported":1774287729,"current_range_meters":4400,"station_id":"st_d2m65c5bi1j21697t3ng","pricing_plan_id":"cebpf4jnsgd1na2vs0mg"},{"bike_id":"130191b1-c1fa-4283-b0fc-7a79733e1e56","system_id":"levelo_inurba_marseille","lat":43.31701,"lon":5.40462,"is_reserved":false,"is_disabled":false,"rental_uris":{"android":"levelo://app?vid=130191b1-c1fa-4283-b0fc-7a79733e1e56","ios":"levelo://app?vid=130191b1-c1fa-4283-b0fc-7a79733e1e56"},"vehicle_type_id":"4","last_reported":1774287729,"current_range_meters":4400,"station_id":"ce4bh012rcd13ifvqd00","pricing_plan_id":"cebpf4jnsgd1na2vs0mg"},{"bike_id":"47e512d5-1878-4adf-80cb-1a328722cfab","system_id":"levelo_inurba_marseille","lat":43.313269,"lon":5.396816,"is_reserved":false,"is_disabled":false,"rental_uris":{"android":"levelo://app?vid=47e512d5-1878-4adf-80cb-1a328722cfab","ios":"levelo://app?vid=47e512d5-1878-4adf-80cb-1a328722cfab"},"vehicle_type_id":"4","last_reported":1774287729,"current_range_meters":4400,"station_id":"ce4bgvp2rcd13ifvqcu0","pricing_plan_id":"cebpf4jnsgd1na2vs0mg"},{"bike_id":"9113fa55-360f-4ed3-878f-de8d7dd7f559","system_id":"levelo_inurba_marseille","lat":43.29577,"lon":5.36747,"is_reserved":false,"is_disabled":false,"rental_uris":{"android":"levelo://app?vid=9113fa55-360f-4ed3-878f-de8d7dd7f559","ios":"levelo://app?vid=9113fa55-360f-4ed3-878f-de8d7dd7f559"},"vehicle_type_id":"4","last_reported":1774287729,"current_range_meters":4400,"station_id":"ce4bgph2rcd13ifvqc2g","pricing_plan_id":"cebpf4jnsgd1na2vs0mg"},{"bike_id":"b7ba0e58-bef0-47a7-bd3b-64bf72ecf131","system_id":"levelo_inurba_marseille","lat":43.32945,"lon":5.36683,"is_reserved":false,"is_disabled":false,"rental_uris":{"android":"levelo://app?vid=b7ba0e58-bef0-47a7-bd3b-64bf72ecf131","ios":"levelo://app?vid=b7ba0e58-bef0-47a7-bd3b-64bf72ecf131"},"vehicle_type_id":"4","last_reported":1774287729,"current_range_meters":4400,"station_id":"","pricing_plan_id":"cebpf4jnsgd1na2vs0mg"},{"bike_id":"9453e579-87d8-475b-9a7d-0c3671abf86b","system_id":"levelo_inurba_marseille","lat":43.32102,"lon":5.36795,"is_reserved":false,"is_disabled":false,"rental_uris":{"android":"levelo://app?vid=9453e579-87d8-475b-9a7d-0c3671abf86b","ios":"levelo://app?vid=9453e579-87d8-475b-9a7d-0c3671abf86b"},"vehicle_type_id":"4","last_reported":1774287729,"current_range_meters":4800,"station_id":"ce4bhrh2rcd13ifvqhug","pricing_plan_id":"cebpf4jnsgd1na2vs0mg"},{"bike_id":"58a4b0d7-f43b-449e-8d2e-e05a79e437e2","system_id":"levelo_inurba_marseille","lat":43.292609,"lon":5.376234,"is_reserved":false,"is_disabled":false,"rental_uris":{"android":"levelo://app?vid=58a4b0d7-f43b-449e-8d2e-e05a79e437e2","ios":"levelo://app?vid=58a4b0d7-f43b-449e-8d2e-e05a79e437e2"},"vehicle_type_id":"4","last_reported":1774287729,"current_range_meters":4800,"station_id":"","pricing_plan_id":"cebpf4jnsgd1na2vs0mg"},{"bike_id":"5460755e-1ed9-4918-8a7d-d28c57b18446","system_id":"levelo_inurba_marseille","lat":43.29006,"lon":5.35612,"is_reserved":false,"is_disabled":false,"rental_uris":{"android":"levelo://app?vid=5460755e-1ed9-4918-8a7d-d28c57b18446","ios":"levelo://app?vid=5460755e-1ed9-4918-8a7d-d28c57b18446"},"vehicle_type_id":"4","last_reported":1774287729,"current_range_meters":4800,"station_id":"ce4bhb92rcd13ifvqen0","pricing_plan_id":"cebpf4jnsgd1na2vs0mg"},{"bike_id":"df13a4a7-1d2f-4ebe-a93a-1611ed60130f","system_id":"levelo_inurba_marseille","lat":43.30132,"lon":5.39903,"is_reserved":false,"is_disabled":false,"rental_uris":{"android":"levelo://app?vid=df13a4a7-1d2f-4ebe-a93a-1611ed60130f","ios":"levelo://app?vid=df13a4a7-1d2f-4ebe-a93a-1611ed60130f"},"vehicle_type_id":"4","last_reported":1774287729,"current_range_meters":4800,"station_id":"ce4bh0h2rcd13ifvqd40","pricing_plan_id":"cebpf4jnsgd1na2vs0mg"},{"bike_id":"6f3fdbf9-917f-421d-aa86-02187d7ba65c","system_id":"levelo_inurba_marseille","lat":43.28476,"lon":5.48399,"is_reserved":false,"is_disabled":false,"rental_uris":{"android":"levelo://app?vid=6f3fdbf9-917f-421d-aa86-02187d7ba65c","ios":"levelo://app?vid=6f3fdbf9-917f-421d-aa86-02187d7ba65c"},"vehicle_type_id":"4","last_reported":1774287729,"current_range_meters":4800,"station_id":"st_d3svhcjqgbts73a3dn0g","pricing_plan_id":"cebpf4jnsgd1na2vs0mg"},{"bike_id":"d40d8eca-f119-4060-8aff-fc44cc2f2fee","system_id":"levelo_inurba_marseille","lat":43.25096,"lon":5.39467,"is_reserved":false,"is_disabled":false,"rental_uris":{"android":"levelo://app?vid=d40d8eca-f119-4060-8aff-fc44cc2f2fee","ios":"levelo://app?vid=d40d8eca-f119-4060-8aff-fc44cc2f2fee"},"vehicle_type_id":"4","last_reported":1774287729,"current_range_meters":5600,"station_id":"ce4bhm12rcd13ifvqgkg","pricing_plan_id":"cebpf4jnsgd1na2vs0mg"},{"bike_id":"18d83782-f1db-493d-a737-cf94fa94a1b2","system_id":"levelo_inurba_marseille","lat":43.29191,"lon":5.35803,"is_reserved":false,"is_disabled":false,"rental_uris":{"android":"levelo://app?vid=18d83782-f1db-493d-a737-cf94fa94a1b2","ios":"levelo://app?vid=18d83782-f1db-493d-a737-cf94fa94a1b2"},"vehicle_type_id":"4","last_reported":1774287729,"current_range_meters":5600,"station_id":"ce4bhb12rcd13ifvqel0","pricing_plan_id":"cebpf4jnsgd1na2vs0mg"},{"bike_id":"360ab070-8e54-475e-bcd7-7786acdcb258","system_id":"levelo_inurba_marseille","lat":43.28453,"lon":5.35859,"is_reserved":false,"is_disabled":false,"rental_uris":{"android":"levelo://app?vid=360ab070-8e54-475e-bcd7-7786acdcb258","ios":"levelo://app?vid=360ab070-8e54-475e-bcd7-7786acdcb258"},"vehicle_type_id":"4","last_reported":1774287729,"current_range_meters":5600,"station_id":"ce4bhah2rcd13ifvqei0","pricing_plan_id":"cebpf4jnsgd1na2vs0mg"},{"bike_id":"f9c57d50-832a-477c-9c7f-1e7c12d972b0","system_id":"levelo_inurba_marseille","lat":43.25094,"lon":5.39523,"is_reserved":false,"is_disabled":true,"rental_uris":{"android":"levelo://app?vid=f9c57d50-832a-477c-9c7f-1e7c12d972b0","ios":"levelo://app?vid=f9c57d50-832a-477c-9c7f-1e7c12d972b0"},"vehicle_type_id":"4","last_reported":1774287729,"current_range_meters":5600,"station_id":"ce4bhm12rcd13ifvqgkg","pricing_plan_id":"cebpf4jnsgd1na2vs0mg"},{"bike_id":"97c00c13-5f6e-4ba8-9c09-c170a8a702cc","system_id":"levelo_inurba_marseille","lat":43.30476,"lon":5.37906,"is_reserved":false,"is_disabled":false,"rental_uris":{"android":"levelo://app?vid=97c00c13-5f6e-4ba8-9c09-c170a8a702cc","ios":"levelo://app?vid=97c00c13-5f6e-4ba8-9c09-c170a8a702cc"},"vehicle_type_id":"4","last_reported":1774287729,"current_range_meters":5600,"station_id":"ce4bgup2rcd13ifvqcn0","pricing_plan_id":"cebpf4jnsgd1na2vs0mg"},{"bike_id":"1234c359-1d15-488e-b196-2c07adc57fdd","system_id":"levelo_inurba_marseille","lat":43.28352,"lon":5.38112,"is_reserved":false,"is_disabled":false,"rental_uris":{"android":"levelo://app?vid=1234c359-1d15-488e-b196-2c07adc57fdd","ios":"levelo://app?vid=1234c359-1d15-488e-b196-2c07adc57fdd"},"vehicle_type_id":"4","last_reported":1774287729,"current_range_meters":5600,"station_id":"ce4bh412rcd13ifvqdr0","pricing_plan_id":"cebpf4jnsgd1na2vs0mg"},{"bike_id":"abd3afb9-4326-45d9-8e47-0e339280e129","system_id":"levelo_inurba_marseille","lat":43.25336,"lon":5.42183,"is_reserved":false,"is_disabled":false,"rental_uris":{"android":"levelo://app?vid=abd3afb9-4326-45d9-8e47-0e339280e129","ios":"levelo://app?vid=abd3afb9-4326-45d9-8e47-0e339280e129"},"vehicle_type_id":"4","last_reported":1774287729,"current_range_meters":5600,"station_id":"st_d2m65c5bi1j21697t3ng","pricing_plan_id":"cebpf4jnsgd1na2vs0mg"},{"bike_id":"1e3f7007-bbd6-42ff-ae1c-30087c320846","system_id":"levelo_inurba_marseille","lat":43.25045,"lon":5.39751,"is_reserved":false,"is_disabled":false,"rental_uris":{"android":"levelo://app?vid=1e3f7007-bbd6-42ff-ae1c-30087c320846","ios":"levelo://app?vid=1e3f7007-bbd6-42ff-ae1c-30087c320846"},"vehicle_type_id":"4","last_reported":1774287729,"current_range_meters":5600,"station_id":"","pricing_plan_id":"cebpf4jnsgd1na2vs0mg"},{"bike_id":"1e77cf77-e6ce-48b5-b031-0b43d397c784","system_id":"levelo_inurba_marseille","lat":43.27567,"lon":5.38422,"is_reserved":false,"is_disabled":false,"rental_uris":{"android":"levelo://app?vid=1e77cf77-e6ce-48b5-b031-0b43d397c784","ios":"levelo://app?vid=1e77cf77-e6ce-48b5-b031-0b43d397c784"},"vehicle_type_id":"4","last_reported":1774287729,"current_range_meters":5600,"station_id":"ce4bhh92rcd13ifvqfi0","pricing_plan_id":"cebpf4jnsgd1na2vs0mg"},{"bike_id":"2ec41b00-a2eb-4785-b455-783c6952ade6","system_id":"levelo_inurba_marseille","lat":43.28412,"lon":5.37524,"is_reserved":false,"is_disabled":false,"rental_uris":{"android":"levelo://app?vid=2ec41b00-a2eb-4785-b455-783c6952ade6","ios":"levelo://app?vid=2ec41b00-a2eb-4785-b455-783c6952ade6"},"vehicle_type_id":"4","last_reported":1774287729,"current_range_meters":5600,"station_id":"ce4bh412rcd13ifvqds0","pricing_plan_id":"cebpf4jnsgd1na2vs0mg"},{"bike_id":"88693dbb-b43f-46eb-bfb4-0224c33f2bdc","system_id":"levelo_inurba_marseille","lat":43.2869,"lon":5.38664,"is_reserved":false,"is_disabled":false,"rental_uris":{"android":"levelo://app?vid=88693dbb-b43f-46eb-bfb4-0224c33f2bdc","ios":"levelo://app?vid=88693dbb-b43f-46eb-bfb4-0224c33f2bdc"},"vehicle_type_id":"4","last_reported":1774287729,"current_range_meters":5600,"station_id":"ce4bh492rcd13ifvqdug","pricing_plan_id":"cebpf4jnsgd1na2vs0mg"},{"bike_id":"ef8f663b-0075-416a-88fe-1fde798c71ff","system_id":"levelo_inurba_marseille","lat":43.23379,"lon":5.41244,"is_reserved":false,"is_disabled":false,"rental_uris":{"android":"levelo://app?vid=ef8f663b-0075-416a-88fe-1fde798c71ff","ios":"levelo://app?vid=ef8f663b-0075-416a-88fe-1fde798c71ff"},"vehicle_type_id":"4","last_reported":1774287729,"current_range_meters":6000,"station_id":"","pricing_plan_id":"cebpf4jnsgd1na2vs0mg"},{"bike_id":"e25ebda7-35ef-487f-89ed-fe4e50a609ce","system_id":"levelo_inurba_marseille","lat":43.29308,"lon":5.37462,"is_reserved":false,"is_disabled":false,"rental_uris":{"android":"levelo://app?vid=e25ebda7-35ef-487f-89ed-fe4e50a609ce","ios":"levelo://app?vid=e25ebda7-35ef-487f-89ed-fe4e50a609ce"},"vehicle_type_id":"4","last_reported":1774287729,"current_range_meters":6000,"station_id":"ce4bgi12rcd13ifvqb70","pricing_plan_id":"cebpf4jnsgd1na2vs0mg"},{"bike_id":"de73c310-f5b2-40f5-b1ca-fa0887319316","system_id":"levelo_inurba_marseille","lat":43.33043,"lon":5.39054,"is_reserved":false,"is_disabled":false,"rental_uris":{"android":"levelo://app?vid=de73c310-f5b2-40f5-b1ca-fa0887319316","ios":"levelo://app?vid=de73c310-f5b2-40f5-b1ca-fa0887319316"},"vehicle_type_id":"4","last_reported":1774287729,"current_range_meters":6000,"station_id":"ce4bhr92rcd13ifvqhrg","pricing_plan_id":"cebpf4jnsgd1na2vs0mg"},{"bike_id":"69a39db4-1e1b-49a5-b09b-71e606e3268f","system_id":"levelo_inurba_marseille","lat":43.305451,"lon":5.367109,"is_reserved":false,"is_disabled":false,"rental_uris":{"android":"levelo://app?vid=69a39db4-1e1b-49a5-b09b-71e606e3268f","ios":"levelo://app?vid=69a39db4-1e1b-49a5-b09b-71e606e3268f"},"vehicle_type_id":"4","last_reported":1774287729,"current_range_meters":6000,"station_id":"ce4bgrp2rcd13ifvqc9g","pricing_plan_id":"cebpf4jnsgd1na2vs0mg"},{"bike_id":"a0fb30fb-e726-4d05-b605-a0f238bd0088","system_id":"levelo_inurba_marseille","lat":43.28461,"lon":5.38423,"is_reserved":false,"is_disabled":false,"rental_uris":{"android":"levelo://app?vid=a0fb30fb-e726-4d05-b605-a0f238bd0088","ios":"levelo://app?vid=a0fb30fb-e726-4d05-b605-a0f238bd0088"},"vehicle_type_id":"4","last_reported":1774287729,"current_range_meters":6000,"station_id":"ce4bh512rcd13ifvqe3g","pricing_plan_id":"cebpf4jnsgd1na2vs0mg"},{"bike_id":"0e655114-8f45-4300-806a-142248446bed","system_id":"levelo_inurba_marseille","lat":43.28452,"lon":5.35885,"is_reserved":false,"is_disabled":false,"rental_uris":{"android":"levelo://app?vid=0e655114-8f45-4300-806a-142248446bed","ios":"levelo://app?vid=0e655114-8f45-4300-806a-142248446bed"},"vehicle_type_id":"4","last_reported":1774287729,"current_range_meters":6400,"station_id":"ce4bhah2rcd13ifvqei0","pricing_plan_id":"cebpf4jnsgd1na2vs0mg"},{"bike_id":"7d0e7181-3a70-4370-9354-bef3948a92c8","system_id":"levelo_inurba_marseille","lat":43.29959,"lon":5.41327,"is_reserved":false,"is_disabled":false,"rental_uris":{"android":"levelo://app?vid=7d0e7181-3a70-4370-9354-bef3948a92c8","ios":"levelo://app?vid=7d0e7181-3a70-4370-9354-bef3948a92c8"},"vehicle_type_id":"4","last_reported":1774287729,"current_range_meters":6400,"station_id":"ce4bhp12rcd13ifvqh9g","pricing_plan_id":"cebpf4jnsgd1na2vs0mg"},{"bike_id":"b61039b1-1488-402a-a5b0-f474eb5cb063","system_id":"levelo_inurba_marseille","lat":43.28343,"lon":5.38091,"is_reserved":false,"is_disabled":false,"rental_uris":{"android":"levelo://app?vid=b61039b1-1488-402a-a5b0-f474eb5cb063","ios":"levelo://app?vid=b61039b1-1488-402a-a5b0-f474eb5cb063"},"vehicle_type_id":"4","last_reported":1774287729,"current_range_meters":6400,"station_id":"ce4bh412rcd13ifvqdr0","pricing_plan_id":"cebpf4jnsgd1na2vs0mg"},{"bike_id":"29f49a32-ba08-40ef-839e-89650b416d04","system_id":"levelo_inurba_marseille","lat":43.31046,"lon":5.37933,"is_reserved":false,"is_disabled":false,"rental_uris":{"android":"levelo://app?vid=29f49a32-ba08-40ef-839e-89650b416d04","ios":"levelo://app?vid=29f49a32-ba08-40ef-839e-89650b416d04"},"vehicle_type_id":"4","last_reported":1774287729,"current_range_meters":6400,"station_id":"","pricing_plan_id":"cebpf4jnsgd1na2vs0mg"},{"bike_id":"8310aa65-ac67-4592-b812-f63970cb0af3","system_id":"levelo_inurba_marseille","lat":43.32115,"lon":5.36808,"is_reserved":false,"is_disabled":false,"rental_uris":{"android":"levelo://app?vid=8310aa65-ac67-4592-b812-f63970cb0af3","ios":"levelo://app?vid=8310aa65-ac67-4592-b812-f63970cb0af3"},"vehicle_type_id":"4","last_reported":1774287729,"current_range_meters":6400,"station_id":"ce4bhrh2rcd13ifvqhug","pricing_plan_id":"cebpf4jnsgd1na2vs0mg"},{"bike_id":"59c77be4-f85b-4d5b-8fb2-81481ccedada","system_id":"levelo_inurba_marseille","lat":43.28272,"lon":5.35065,"is_reserved":false,"is_disabled":false,"rental_uris":{"android":"levelo://app?vid=59c77be4-f85b-4d5b-8fb2-81481ccedada","ios":"levelo://app?vid=59c77be4-f85b-4d5b-8fb2-81481ccedada"},"vehicle_type_id":"4","last_reported":1774287729,"current_range_meters":6400,"station_id":"ce4bhbp2rcd13ifvqerg","pricing_plan_id":"cebpf4jnsgd1na2vs0mg"},{"bike_id":"0f88d6b7-883f-4b13-98ff-b1b3b7d422a5","system_id":"levelo_inurba_marseille","lat":43.25953,"lon":5.40847,"is_reserved":false,"is_disabled":true,"rental_uris":{"android":"levelo://app?vid=0f88d6b7-883f-4b13-98ff-b1b3b7d422a5","ios":"levelo://app?vid=0f88d6b7-883f-4b13-98ff-b1b3b7d422a5"},"vehicle_type_id":"4","last_reported":1774287729,"current_range_meters":6400,"station_id":"","pricing_plan_id":"cebpf4jnsgd1na2vs0mg"},{"bike_id":"3ea839dc-8f83-4b63-b56e-b0f8fe42be1c","system_id":"levelo_inurba_marseille","lat":43.25574,"lon":5.38226,"is_reserved":false,"is_disabled":false,"rental_uris":{"android":"levelo://app?vid=3ea839dc-8f83-4b63-b56e-b0f8fe42be1c","ios":"levelo://app?vid=3ea839dc-8f83-4b63-b56e-b0f8fe42be1c"},"vehicle_type_id":"4","last_reported":1774287729,"current_range_meters":6400,"station_id":"ce4bhih2rcd13ifvqfs0","pricing_plan_id":"cebpf4jnsgd1na2vs0mg"},{"bike_id":"462a1cdd-980f-4d75-accd-0f62886214c9","system_id":"levelo_inurba_marseille","lat":43.28219,"lon":5.40827,"is_reserved":false,"is_disabled":false,"rental_uris":{"android":"levelo://app?vid=462a1cdd-980f-4d75-accd-0f62886214c9","ios":"levelo://app?vid=462a1cdd-980f-4d75-accd-0f62886214c9"},"vehicle_type_id":"4","last_reported":1774287729,"current_range_meters":6400,"station_id":"","pricing_plan_id":"cebpf4jnsgd1na2vs0mg"},{"bike_id":"3c6631ca-cf41-409f-a9f8-8935b2f31c51","system_id":"levelo_inurba_marseille","lat":43.29259,"lon":5.38434,"is_reserved":false,"is_disabled":false,"rental_uris":{"android":"levelo://app?vid=3c6631ca-cf41-409f-a9f8-8935b2f31c51","ios":"levelo://app?vid=3c6631ca-cf41-409f-a9f8-8935b2f31c51"},"vehicle_type_id":"4","last_reported":1774287729,"current_range_meters":6400,"station_id":"ce4bh692rcd13ifvqea0","pricing_plan_id":"cebpf4jnsgd1na2vs0mg"},{"bike_id":"c9d9df38-55f9-4fc4-aaf3-62ed27ced8ec","system_id":"levelo_inurba_marseille","lat":43.28203,"lon":5.39105,"is_reserved":false,"is_disabled":false,"rental_uris":{"android":"levelo://app?vid=c9d9df38-55f9-4fc4-aaf3-62ed27ced8ec","ios":"levelo://app?vid=c9d9df38-55f9-4fc4-aaf3-62ed27ced8ec"},"vehicle_type_id":"4","last_reported":1774287729,"current_range_meters":6400,"station_id":"ce4bhn92rcd13ifvqgsg","pricing_plan_id":"cebpf4jnsgd1na2vs0mg"},{"bike_id":"19816687-f443-4a5d-b7aa-e3cfd2cb0259","system_id":"levelo_inurba_marseille","lat":43.31439,"lon":5.4458,"is_reserved":false,"is_disabled":false,"rental_uris":{"android":"levelo://app?vid=19816687-f443-4a5d-b7aa-e3cfd2cb0259","ios":"levelo://app?vid=19816687-f443-4a5d-b7aa-e3cfd2cb0259"},"vehicle_type_id":"4","last_reported":1774287729,"current_range_meters":6800,"station_id":"","pricing_plan_id":"cebpf4jnsgd1na2vs0mg"},{"bike_id":"a28c12fc-edef-4a9a-a72e-baf935345a4e","system_id":"levelo_inurba_marseille","lat":43.28699,"lon":5.37408,"is_reserved":false,"is_disabled":false,"rental_uris":{"android":"levelo://app?vid=a28c12fc-edef-4a9a-a72e-baf935345a4e","ios":"levelo://app?vid=a28c12fc-edef-4a9a-a72e-baf935345a4e"},"vehicle_type_id":"4","last_reported":1774287729,"current_range_meters":6800,"station_id":"ce4bh3p2rcd13ifvqdq0","pricing_plan_id":"cebpf4jnsgd1na2vs0mg"},{"bike_id":"9be35987-805d-4aab-a951-55292d8c9d92","system_id":"levelo_inurba_marseille","lat":43.31716,"lon":5.43707,"is_reserved":false,"is_disabled":false,"rental_uris":{"android":"levelo://app?vid=9be35987-805d-4aab-a951-55292d8c9d92","ios":"levelo://app?vid=9be35987-805d-4aab-a951-55292d8c9d92"},"vehicle_type_id":"4","last_reported":1774287729,"current_range_meters":6800,"station_id":"ce4bhp92rcd13ifvqhcg","pricing_plan_id":"cebpf4jnsgd1na2vs0mg"},{"bike_id":"07906a38-5792-4531-97b5-a5ae0ec09a66","system_id":"levelo_inurba_marseille","lat":43.31362,"lon":5.38492,"is_reserved":false,"is_disabled":false,"rental_uris":{"android":"levelo://app?vid=07906a38-5792-4531-97b5-a5ae0ec09a66","ios":"levelo://app?vid=07906a38-5792-4531-97b5-a5ae0ec09a66"},"vehicle_type_id":"4","last_reported":1774287729,"current_range_meters":6800,"station_id":"ce4bgt92rcd13ifvqcf0","pricing_plan_id":"cebpf4jnsgd1na2vs0mg"},{"bike_id":"a5e08d79-b702-462c-8f61-1d2870a20fb1","system_id":"levelo_inurba_marseille","lat":43.29779,"lon":5.38504,"is_reserved":false,"is_disabled":false,"rental_uris":{"android":"levelo://app?vid=a5e08d79-b702-462c-8f61-1d2870a20fb1","ios":"levelo://app?vid=a5e08d79-b702-462c-8f61-1d2870a20fb1"},"vehicle_type_id":"4","last_reported":1774287729,"current_range_meters":6800,"station_id":"","pricing_plan_id":"cebpf4jnsgd1na2vs0mg"},{"bike_id":"6d8d09fd-043e-40dd-92de-c6d036fa5ea9","system_id":"levelo_inurba_marseille","lat":43.28938,"lon":5.38384,"is_reserved":false,"is_disabled":true,"rental_uris":{"android":"levelo://app?vid=6d8d09fd-043e-40dd-92de-c6d036fa5ea9","ios":"levelo://app?vid=6d8d09fd-043e-40dd-92de-c6d036fa5ea9"},"vehicle_type_id":"4","last_reported":1774287729,"current_range_meters":6800,"station_id":"ce4bh612rcd13ifvqe6g","pricing_plan_id":"cebpf4jnsgd1na2vs0mg"},{"bike_id":"7b3cf6a4-706e-4f67-8778-2dee757392f0","system_id":"levelo_inurba_marseille","lat":43.28568,"lon":5.3949,"is_reserved":false,"is_disabled":false,"rental_uris":{"android":"levelo://app?vid=7b3cf6a4-706e-4f67-8778-2dee757392f0","ios":"levelo://app?vid=7b3cf6a4-706e-4f67-8778-2dee757392f0"},"vehicle_type_id":"4","last_reported":1774287729,"current_range_meters":6800,"station_id":"ce4bh292rcd13ifvqdg0","pricing_plan_id":"cebpf4jnsgd1na2vs0mg"},{"bike_id":"ffb98fb8-da98-43fb-9eac-ddb2ee1141c2","system_id":"levelo_inurba_marseille","lat":43.24665,"lon":5.41706,"is_reserved":false,"is_disabled":false,"rental_uris":{"android":"levelo://app?vid=ffb98fb8-da98-43fb-9eac-ddb2ee1141c2","ios":"levelo://app?vid=ffb98fb8-da98-43fb-9eac-ddb2ee1141c2"},"vehicle_type_id":"4","last_reported":1774287729,"current_range_meters":6800,"station_id":"","pricing_plan_id":"cebpf4jnsgd1na2vs0mg"},{"bike_id":"cf65db75-ce14-4a9a-8f3a-318f2535d469","system_id":"levelo_inurba_marseille","lat":43.28942,"lon":5.36642,"is_reserved":false,"is_disabled":false,"rental_uris":{"android":"levelo://app?vid=cf65db75-ce14-4a9a-8f3a-318f2535d469","ios":"levelo://app?vid=cf65db75-ce14-4a9a-8f3a-318f2535d469"},"vehicle_type_id":"4","last_reported":1774287729,"current_range_meters":6800,"station_id":"ce4bhap2rcd13ifvqek0","pricing_plan_id":"cebpf4jnsgd1na2vs0mg"},{"bike_id":"f554888c-9515-430c-b3e9-327a4cc15db0","system_id":"levelo_inurba_marseille","lat":43.2964,"lon":5.42423,"is_reserved":false,"is_disabled":false,"rental_uris":{"android":"levelo://app?vid=f554888c-9515-430c-b3e9-327a4cc15db0","ios":"levelo://app?vid=f554888c-9515-430c-b3e9-327a4cc15db0"},"vehicle_type_id":"4","last_reported":1774287729,"current_range_meters":6800,"station_id":"","pricing_plan_id":"cebpf4jnsgd1na2vs0mg"},{"bike_id":"26565d6e-e195-4311-934f-52a6594f96d8","system_id":"levelo_inurba_marseille","lat":43.28097,"lon":5.37828,"is_reserved":false,"is_disabled":false,"rental_uris":{"android":"levelo://app?vid=26565d6e-e195-4311-934f-52a6594f96d8","ios":"levelo://app?vid=26565d6e-e195-4311-934f-52a6594f96d8"},"vehicle_type_id":"4","last_reported":1774287729,"current_range_meters":6800,"station_id":"ce4bha12rcd13ifvqee0","pricing_plan_id":"cebpf4jnsgd1na2vs0mg"},{"bike_id":"f9097267-075b-4171-8934-a217e1a9fffd","system_id":"levelo_inurba_marseille","lat":43.28174,"lon":5.42702,"is_reserved":false,"is_disabled":false,"rental_uris":{"android":"levelo://app?vid=f9097267-075b-4171-8934-a217e1a9fffd","ios":"levelo://app?vid=f9097267-075b-4171-8934-a217e1a9fffd"},"vehicle_type_id":"4","last_reported":1774287729,"current_range_meters":6800,"station_id":"","pricing_plan_id":"cebpf4jnsgd1na2vs0mg"},{"bike_id":"0adba985-69ce-4b81-af24-10a333222398","system_id":"levelo_inurba_marseille","lat":43.31187,"lon":5.38707,"is_reserved":false,"is_disabled":false,"rental_uris":{"android":"levelo://app?vid=0adba985-69ce-4b81-af24-10a333222398","ios":"levelo://app?vid=0adba985-69ce-4b81-af24-10a333222398"},"vehicle_type_id":"4","last_reported":1774287729,"current_range_meters":6800,"station_id":"ce4bgv12rcd13ifvqcp0","pricing_plan_id":"cebpf4jnsgd1na2vs0mg"},{"bike_id":"cf297aa8-2733-40be-9978-1facc4a1335f","system_id":"levelo_inurba_marseille","lat":43.29977,"lon":5.38508,"is_reserved":false,"is_disabled":false,"rental_uris":{"android":"levelo://app?vid=cf297aa8-2733-40be-9978-1facc4a1335f","ios":"levelo://app?vid=cf297aa8-2733-40be-9978-1facc4a1335f"},"vehicle_type_id":"4","last_reported":1774287729,"current_range_meters":6800,"station_id":"ce4bgj92rcd13ifvqbd0","pricing_plan_id":"cebpf4jnsgd1na2vs0mg"},{"bike_id":"6a7aafba-5ac7-4bdb-ac09-35267e240dbf","system_id":"levelo_inurba_marseille","lat":43.28213,"lon":5.40579,"is_reserved":false,"is_disabled":false,"rental_uris":{"android":"levelo://app?vid=6a7aafba-5ac7-4bdb-ac09-35267e240dbf","ios":"levelo://app?vid=6a7aafba-5ac7-4bdb-ac09-35267e240dbf"},"vehicle_type_id":"4","last_reported":1774287729,"current_range_meters":6800,"station_id":"","pricing_plan_id":"cebpf4jnsgd1na2vs0mg"},{"bike_id":"a4ed6440-1299-492c-a2e0-14f3831500d1","system_id":"levelo_inurba_marseille","lat":43.28617,"lon":5.35103,"is_reserved":false,"is_disabled":false,"rental_uris":{"android":"levelo://app?vid=a4ed6440-1299-492c-a2e0-14f3831500d1","ios":"levelo://app?vid=a4ed6440-1299-492c-a2e0-14f3831500d1"},"vehicle_type_id":"4","last_reported":1774287729,"current_range_meters":7200,"station_id":"ce4bhch2rcd13ifvqeug","pricing_plan_id":"cebpf4jnsgd1na2vs0mg"},{"bike_id":"975f548d-0a44-425e-8b97-3d3cfd22ac27","system_id":"levelo_inurba_marseille","lat":43.30139,"lon":5.3739,"is_reserved":false,"is_disabled":false,"rental_uris":{"android":"levelo://app?vid=975f548d-0a44-425e-8b97-3d3cfd22ac27","ios":"levelo://app?vid=975f548d-0a44-425e-8b97-3d3cfd22ac27"},"vehicle_type_id":"4","last_reported":1774287729,"current_range_meters":7200,"station_id":"ce4bgs92rcd13ifvqcc0","pricing_plan_id":"cebpf4jnsgd1na2vs0mg"},{"bike_id":"d8825104-2f69-4e79-9b9f-511c3942baeb","system_id":"levelo_inurba_marseille","lat":43.28845,"lon":5.35864,"is_reserved":false,"is_disabled":false,"rental_uris":{"android":"levelo://app?vid=d8825104-2f69-4e79-9b9f-511c3942baeb","ios":"levelo://app?vid=d8825104-2f69-4e79-9b9f-511c3942baeb"},"vehicle_type_id":"4","last_reported":1774287729,"current_range_meters":7200,"station_id":"ce4bhb12rcd13ifvqem0","pricing_plan_id":"cebpf4jnsgd1na2vs0mg"},{"bike_id":"1d696319-c208-4ca3-ad10-486adc2a37c9","system_id":"levelo_inurba_marseille","lat":43.2755,"lon":5.38439,"is_reserved":false,"is_disabled":false,"rental_uris":{"android":"levelo://app?vid=1d696319-c208-4ca3-ad10-486adc2a37c9","ios":"levelo://app?vid=1d696319-c208-4ca3-ad10-486adc2a37c9"},"vehicle_type_id":"4","last_reported":1774287729,"current_range_meters":7200,"station_id":"ce4bhh92rcd13ifvqfi0","pricing_plan_id":"cebpf4jnsgd1na2vs0mg"},{"bike_id":"f88785b3-6943-4637-92b7-314729fe3c58","system_id":"levelo_inurba_marseille","lat":43.30832,"lon":5.38304,"is_reserved":false,"is_disabled":false,"rental_uris":{"android":"levelo://app?vid=f88785b3-6943-4637-92b7-314729fe3c58","ios":"levelo://app?vid=f88785b3-6943-4637-92b7-314729fe3c58"},"vehicle_type_id":"4","last_reported":1774287729,"current_range_meters":7200,"station_id":"","pricing_plan_id":"cebpf4jnsgd1na2vs0mg"},{"bike_id":"67a40ab8-b057-4406-ada5-58ac0c725682","system_id":"levelo_inurba_marseille","lat":43.27301,"lon":5.3908,"is_reserved":false,"is_disabled":false,"rental_uris":{"android":"levelo://app?vid=67a40ab8-b057-4406-ada5-58ac0c725682","ios":"levelo://app?vid=67a40ab8-b057-4406-ada5-58ac0c725682"},"vehicle_type_id":"4","last_reported":1774287729,"current_range_meters":7200,"station_id":"ce4bhgp2rcd13ifvqfe0","pricing_plan_id":"cebpf4jnsgd1na2vs0mg"},{"bike_id":"da795a32-4080-4632-adc5-b847c019569d","system_id":"levelo_inurba_marseille","lat":43.286634,"lon":5.386673,"is_reserved":false,"is_disabled":false,"rental_uris":{"android":"levelo://app?vid=da795a32-4080-4632-adc5-b847c019569d","ios":"levelo://app?vid=da795a32-4080-4632-adc5-b847c019569d"},"vehicle_type_id":"4","last_reported":1774287729,"current_range_meters":7200,"station_id":"ce4bh492rcd13ifvqdug","pricing_plan_id":"cebpf4jnsgd1na2vs0mg"},{"bike_id":"80f02b3e-0095-4ec3-8f2c-af017afbf6d9","system_id":"levelo_inurba_marseille","lat":43.2989,"lon":5.39749,"is_reserved":false,"is_disabled":false,"rental_uris":{"android":"levelo://app?vid=80f02b3e-0095-4ec3-8f2c-af017afbf6d9","ios":"levelo://app?vid=80f02b3e-0095-4ec3-8f2c-af017afbf6d9"},"vehicle_type_id":"4","last_reported":1774287729,"current_range_meters":7200,"station_id":"ce4bh0h2rcd13ifvqd50","pricing_plan_id":"cebpf4jnsgd1na2vs0mg"},{"bike_id":"167e7cec-ee3f-43f3-b6ff-3de4daa40673","system_id":"levelo_inurba_marseille","lat":43.292,"lon":5.35819,"is_reserved":false,"is_disabled":false,"rental_uris":{"android":"levelo://app?vid=167e7cec-ee3f-43f3-b6ff-3de4daa40673","ios":"levelo://app?vid=167e7cec-ee3f-43f3-b6ff-3de4daa40673"},"vehicle_type_id":"4","last_reported":1774287729,"current_range_meters":7200,"station_id":"ce4bhb12rcd13ifvqel0","pricing_plan_id":"cebpf4jnsgd1na2vs0mg"},{"bike_id":"4d88734a-162e-4307-92a3-61e5ee7aa63f","system_id":"levelo_inurba_marseille","lat":43.29205,"lon":5.42586,"is_reserved":false,"is_disabled":true,"rental_uris":{"android":"levelo://app?vid=4d88734a-162e-4307-92a3-61e5ee7aa63f","ios":"levelo://app?vid=4d88734a-162e-4307-92a3-61e5ee7aa63f"},"vehicle_type_id":"4","last_reported":1774287729,"current_range_meters":7200,"station_id":"","pricing_plan_id":"cebpf4jnsgd1na2vs0mg"},{"bike_id":"85d6ab11-5518-4ccd-91e4-dbdc93e9ebe9","system_id":"levelo_inurba_marseille","lat":43.28521,"lon":5.44095,"is_reserved":false,"is_disabled":false,"rental_uris":{"android":"levelo://app?vid=85d6ab11-5518-4ccd-91e4-dbdc93e9ebe9","ios":"levelo://app?vid=85d6ab11-5518-4ccd-91e4-dbdc93e9ebe9"},"vehicle_type_id":"4","last_reported":1774287729,"current_range_meters":7200,"station_id":"st_d3j3df2ikq2c7380ej80","pricing_plan_id":"cebpf4jnsgd1na2vs0mg"},{"bike_id":"f9eec48e-d11a-49d9-bae5-bc4236452d28","system_id":"levelo_inurba_marseille","lat":43.27209,"lon":5.39176,"is_reserved":false,"is_disabled":false,"rental_uris":{"android":"levelo://app?vid=f9eec48e-d11a-49d9-bae5-bc4236452d28","ios":"levelo://app?vid=f9eec48e-d11a-49d9-bae5-bc4236452d28"},"vehicle_type_id":"4","last_reported":1774287729,"current_range_meters":7200,"station_id":"ce4bhhp2rcd13ifvqfm0","pricing_plan_id":"cebpf4jnsgd1na2vs0mg"},{"bike_id":"b207dab1-3250-4004-981c-5514248a7bc0","system_id":"levelo_inurba_marseille","lat":43.2422,"lon":5.41151,"is_reserved":false,"is_disabled":false,"rental_uris":{"android":"levelo://app?vid=b207dab1-3250-4004-981c-5514248a7bc0","ios":"levelo://app?vid=b207dab1-3250-4004-981c-5514248a7bc0"},"vehicle_type_id":"4","last_reported":1774287729,"current_range_meters":7200,"station_id":"","pricing_plan_id":"cebpf4jnsgd1na2vs0mg"},{"bike_id":"1a5169b9-84ad-4dd4-9ce6-e4c8c83fc75e","system_id":"levelo_inurba_marseille","lat":43.29874,"lon":5.39749,"is_reserved":false,"is_disabled":false,"rental_uris":{"android":"levelo://app?vid=1a5169b9-84ad-4dd4-9ce6-e4c8c83fc75e","ios":"levelo://app?vid=1a5169b9-84ad-4dd4-9ce6-e4c8c83fc75e"},"vehicle_type_id":"4","last_reported":1774287729,"current_range_meters":7200,"station_id":"ce4bh0h2rcd13ifvqd50","pricing_plan_id":"cebpf4jnsgd1na2vs0mg"},{"bike_id":"c1af2eca-cb1d-451f-a2e9-025bc5e4557d","system_id":"levelo_inurba_marseille","lat":43.302,"lon":5.366,"is_reserved":false,"is_disabled":false,"rental_uris":{"android":"levelo://app?vid=c1af2eca-cb1d-451f-a2e9-025bc5e4557d","ios":"levelo://app?vid=c1af2eca-cb1d-451f-a2e9-025bc5e4557d"},"vehicle_type_id":"4","last_reported":1774287729,"current_range_meters":7200,"station_id":"ce4bgrh2rcd13ifvqc8g","pricing_plan_id":"cebpf4jnsgd1na2vs0mg"},{"bike_id":"6a361988-483c-4fea-b668-fae45fefb959","system_id":"levelo_inurba_marseille","lat":43.32086,"lon":5.36787,"is_reserved":false,"is_disabled":false,"rental_uris":{"android":"levelo://app?vid=6a361988-483c-4fea-b668-fae45fefb959","ios":"levelo://app?vid=6a361988-483c-4fea-b668-fae45fefb959"},"vehicle_type_id":"4","last_reported":1774287729,"current_range_meters":8000,"station_id":"ce4bhrh2rcd13ifvqhug","pricing_plan_id":"cebpf4jnsgd1na2vs0mg"},{"bike_id":"fca88b21-69b7-458a-bbf3-8b15f3b1b643","system_id":"levelo_inurba_marseille","lat":43.26482,"lon":5.39548,"is_reserved":false,"is_disabled":false,"rental_uris":{"android":"levelo://app?vid=fca88b21-69b7-458a-bbf3-8b15f3b1b643","ios":"levelo://app?vid=fca88b21-69b7-458a-bbf3-8b15f3b1b643"},"vehicle_type_id":"4","last_reported":1774287729,"current_range_meters":8000,"station_id":"ce4bhi12rcd13ifvqfq0","pricing_plan_id":"cebpf4jnsgd1na2vs0mg"},{"bike_id":"aa929685-e4dd-4a31-a1c6-979463fa81a3","system_id":"levelo_inurba_marseille","lat":43.28485,"lon":5.48446,"is_reserved":false,"is_disabled":false,"rental_uris":{"android":"levelo://app?vid=aa929685-e4dd-4a31-a1c6-979463fa81a3","ios":"levelo://app?vid=aa929685-e4dd-4a31-a1c6-979463fa81a3"},"vehicle_type_id":"4","last_reported":1774287729,"current_range_meters":8000,"station_id":"st_d3svhcjqgbts73a3dn0g","pricing_plan_id":"cebpf4jnsgd1na2vs0mg"},{"bike_id":"bbb20be4-a4e3-4756-bf9e-de6efa0abbb9","system_id":"levelo_inurba_marseille","lat":43.29201,"lon":5.42592,"is_reserved":false,"is_disabled":false,"rental_uris":{"android":"levelo://app?vid=bbb20be4-a4e3-4756-bf9e-de6efa0abbb9","ios":"levelo://app?vid=bbb20be4-a4e3-4756-bf9e-de6efa0abbb9"},"vehicle_type_id":"4","last_reported":1774287729,"current_range_meters":8000,"station_id":"","pricing_plan_id":"cebpf4jnsgd1na2vs0mg"},{"bike_id":"c0ede030-ab9a-4615-a9c7-01479ac5ac50","system_id":"levelo_inurba_marseille","lat":43.26685,"lon":5.38272,"is_reserved":false,"is_disabled":true,"rental_uris":{"android":"levelo://app?vid=c0ede030-ab9a-4615-a9c7-01479ac5ac50","ios":"levelo://app?vid=c0ede030-ab9a-4615-a9c7-01479ac5ac50"},"vehicle_type_id":"4","last_reported":1774287729,"current_range_meters":8000,"station_id":"ce4bhg92rcd13ifvqf90","pricing_plan_id":"cebpf4jnsgd1na2vs0mg"},{"bike_id":"72c8e3c0-52d4-49e1-9aa9-201dd7c27a60","system_id":"levelo_inurba_marseille","lat":43.3112,"lon":5.37764,"is_reserved":false,"is_disabled":true,"rental_uris":{"android":"levelo://app?vid=72c8e3c0-52d4-49e1-9aa9-201dd7c27a60","ios":"levelo://app?vid=72c8e3c0-52d4-49e1-9aa9-201dd7c27a60"},"vehicle_type_id":"4","last_reported":1774287729,"current_range_meters":8000,"station_id":"ce4bgt92rcd13ifvqcg0","pricing_plan_id":"cebpf4jnsgd1na2vs0mg"},{"bike_id":"94be3822-2374-46f8-94ab-32b88ea10d9d","system_id":"levelo_inurba_marseille","lat":43.2481,"lon":5.37461,"is_reserved":false,"is_disabled":false,"rental_uris":{"android":"levelo://app?vid=94be3822-2374-46f8-94ab-32b88ea10d9d","ios":"levelo://app?vid=94be3822-2374-46f8-94ab-32b88ea10d9d"},"vehicle_type_id":"4","last_reported":1774287729,"current_range_meters":8000,"station_id":"ce4bhgh2rcd13ifvqfb0","pricing_plan_id":"cebpf4jnsgd1na2vs0mg"},{"bike_id":"6979a6fb-10a0-43cf-8c47-6569f8ddef35","system_id":"levelo_inurba_marseille","lat":43.32119,"lon":5.36748,"is_reserved":false,"is_disabled":false,"rental_uris":{"android":"levelo://app?vid=6979a6fb-10a0-43cf-8c47-6569f8ddef35","ios":"levelo://app?vid=6979a6fb-10a0-43cf-8c47-6569f8ddef35"},"vehicle_type_id":"4","last_reported":1774287729,"current_range_meters":8000,"station_id":"ce4bhrh2rcd13ifvqhug","pricing_plan_id":"cebpf4jnsgd1na2vs0mg"},{"bike_id":"87cab354-e36c-4dc9-949d-1832434988fa","system_id":"levelo_inurba_marseille","lat":43.31308,"lon":5.38426,"is_reserved":false,"is_disabled":false,"rental_uris":{"android":"levelo://app?vid=87cab354-e36c-4dc9-949d-1832434988fa","ios":"levelo://app?vid=87cab354-e36c-4dc9-949d-1832434988fa"},"vehicle_type_id":"4","last_reported":1774287729,"current_range_meters":8000,"station_id":"","pricing_plan_id":"cebpf4jnsgd1na2vs0mg"},{"bike_id":"d7413193-d468-4a6c-a1af-a6ef467e5b96","system_id":"levelo_inurba_marseille","lat":43.27387,"lon":5.36258,"is_reserved":false,"is_disabled":false,"rental_uris":{"android":"levelo://app?vid=d7413193-d468-4a6c-a1af-a6ef467e5b96","ios":"levelo://app?vid=d7413193-d468-4a6c-a1af-a6ef467e5b96"},"vehicle_type_id":"4","last_reported":1774287729,"current_range_meters":8000,"station_id":"ce4bhbh2rcd13ifvqeo0","pricing_plan_id":"cebpf4jnsgd1na2vs0mg"},{"bike_id":"1c3f4ce8-a4b5-41e1-9773-90bc2b4714f0","system_id":"levelo_inurba_marseille","lat":43.28465,"lon":5.35886,"is_reserved":false,"is_disabled":false,"rental_uris":{"android":"levelo://app?vid=1c3f4ce8-a4b5-41e1-9773-90bc2b4714f0","ios":"levelo://app?vid=1c3f4ce8-a4b5-41e1-9773-90bc2b4714f0"},"vehicle_type_id":"4","last_reported":1774287729,"current_range_meters":8000,"station_id":"ce4bhah2rcd13ifvqei0","pricing_plan_id":"cebpf4jnsgd1na2vs0mg"},{"bike_id":"8291987d-bd79-44c0-a0b4-c64b1f729415","system_id":"levelo_inurba_marseille","lat":43.29265,"lon":5.38443,"is_reserved":false,"is_disabled":false,"rental_uris":{"android":"levelo://app?vid=8291987d-bd79-44c0-a0b4-c64b1f729415","ios":"levelo://app?vid=8291987d-bd79-44c0-a0b4-c64b1f729415"},"vehicle_type_id":"4","last_reported":1774287729,"current_range_meters":8400,"station_id":"ce4bh692rcd13ifvqea0","pricing_plan_id":"cebpf4jnsgd1na2vs0mg"},{"bike_id":"e41c893a-4032-48f3-bf3a-8efcbfe1465c","system_id":"levelo_inurba_marseille","lat":43.25837,"lon":5.39437,"is_reserved":false,"is_disabled":true,"rental_uris":{"android":"levelo://app?vid=e41c893a-4032-48f3-bf3a-8efcbfe1465c","ios":"levelo://app?vid=e41c893a-4032-48f3-bf3a-8efcbfe1465c"},"vehicle_type_id":"4","last_reported":1774287729,"current_range_meters":8400,"station_id":"ce4bhip2rcd13ifvqft0","pricing_plan_id":"cebpf4jnsgd1na2vs0mg"},{"bike_id":"a9fcd02c-7b6b-4ad8-a39d-d88606ee3ac0","system_id":"levelo_inurba_marseille","lat":43.25036,"lon":5.38918,"is_reserved":false,"is_disabled":true,"rental_uris":{"android":"levelo://app?vid=a9fcd02c-7b6b-4ad8-a39d-d88606ee3ac0","ios":"levelo://app?vid=a9fcd02c-7b6b-4ad8-a39d-d88606ee3ac0"},"vehicle_type_id":"4","last_reported":1774287729,"current_range_meters":8400,"station_id":"ce4bhgp2rcd13ifvqfd0","pricing_plan_id":"cebpf4jnsgd1na2vs0mg"},{"bike_id":"8d261618-9edd-4288-9d3a-3da9cd55b40c","system_id":"levelo_inurba_marseille","lat":43.28846,"lon":5.39313,"is_reserved":false,"is_disabled":false,"rental_uris":{"android":"levelo://app?vid=8d261618-9edd-4288-9d3a-3da9cd55b40c","ios":"levelo://app?vid=8d261618-9edd-4288-9d3a-3da9cd55b40c"},"vehicle_type_id":"4","last_reported":1774287729,"current_range_meters":8400,"station_id":"ce4bh2p2rcd13ifvqdi0","pricing_plan_id":"cebpf4jnsgd1na2vs0mg"},{"bike_id":"d652bb11-1e1c-4ddc-8dd0-6b5be03c5876","system_id":"levelo_inurba_marseille","lat":43.28261,"lon":5.35076,"is_reserved":false,"is_disabled":false,"rental_uris":{"android":"levelo://app?vid=d652bb11-1e1c-4ddc-8dd0-6b5be03c5876","ios":"levelo://app?vid=d652bb11-1e1c-4ddc-8dd0-6b5be03c5876"},"vehicle_type_id":"4","last_reported":1774287729,"current_range_meters":8400,"station_id":"ce4bhbp2rcd13ifvqerg","pricing_plan_id":"cebpf4jnsgd1na2vs0mg"},{"bike_id":"1d0f3067-7ca2-4fbd-8b40-b921c6748a4a","system_id":"levelo_inurba_marseille","lat":43.28473,"lon":5.4839,"is_reserved":false,"is_disabled":false,"rental_uris":{"android":"levelo://app?vid=1d0f3067-7ca2-4fbd-8b40-b921c6748a4a","ios":"levelo://app?vid=1d0f3067-7ca2-4fbd-8b40-b921c6748a4a"},"vehicle_type_id":"4","last_reported":1774287729,"current_range_meters":8400,"station_id":"","pricing_plan_id":"cebpf4jnsgd1na2vs0mg"},{"bike_id":"ee698121-d38a-42d7-b2ad-b69bddb1a86c","system_id":"levelo_inurba_marseille","lat":43.28417,"lon":5.34982,"is_reserved":false,"is_disabled":false,"rental_uris":{"android":"levelo://app?vid=ee698121-d38a-42d7-b2ad-b69bddb1a86c","ios":"levelo://app?vid=ee698121-d38a-42d7-b2ad-b69bddb1a86c"},"vehicle_type_id":"4","last_reported":1774287729,"current_range_meters":8400,"station_id":"ce4bhbh2rcd13ifvqepg","pricing_plan_id":"cebpf4jnsgd1na2vs0mg"},{"bike_id":"04dcfaab-0289-4deb-8191-8bb29cdadfb2","system_id":"levelo_inurba_marseille","lat":43.29006,"lon":5.35621,"is_reserved":false,"is_disabled":false,"rental_uris":{"android":"levelo://app?vid=04dcfaab-0289-4deb-8191-8bb29cdadfb2","ios":"levelo://app?vid=04dcfaab-0289-4deb-8191-8bb29cdadfb2"},"vehicle_type_id":"4","last_reported":1774287729,"current_range_meters":8400,"station_id":"ce4bhb92rcd13ifvqen0","pricing_plan_id":"cebpf4jnsgd1na2vs0mg"},{"bike_id":"72999db3-62c4-4d6b-9c7f-3129997c7dc6","system_id":"levelo_inurba_marseille","lat":43.28133,"lon":5.40944,"is_reserved":false,"is_disabled":false,"rental_uris":{"android":"levelo://app?vid=72999db3-62c4-4d6b-9c7f-3129997c7dc6","ios":"levelo://app?vid=72999db3-62c4-4d6b-9c7f-3129997c7dc6"},"vehicle_type_id":"4","last_reported":1774287729,"current_range_meters":8400,"station_id":"","pricing_plan_id":"cebpf4jnsgd1na2vs0mg"},{"bike_id":"2405430b-043c-4902-843a-b0a78f17e50c","system_id":"levelo_inurba_marseille","lat":43.28281,"lon":5.35086,"is_reserved":false,"is_disabled":false,"rental_uris":{"android":"levelo://app?vid=2405430b-043c-4902-843a-b0a78f17e50c","ios":"levelo://app?vid=2405430b-043c-4902-843a-b0a78f17e50c"},"vehicle_type_id":"4","last_reported":1774287729,"current_range_meters":8400,"station_id":"ce4bhbp2rcd13ifvqerg","pricing_plan_id":"cebpf4jnsgd1na2vs0mg"},{"bike_id":"e8cf0daa-6dfc-4ef6-b17c-01ba753370b0","system_id":"levelo_inurba_marseille","lat":43.2952,"lon":5.38541,"is_reserved":false,"is_disabled":false,"rental_uris":{"android":"levelo://app?vid=e8cf0daa-6dfc-4ef6-b17c-01ba753370b0","ios":"levelo://app?vid=e8cf0daa-6dfc-4ef6-b17c-01ba753370b0"},"vehicle_type_id":"4","last_reported":1774287729,"current_range_meters":8400,"station_id":"ce4bgih2rcd13ifvqba0","pricing_plan_id":"cebpf4jnsgd1na2vs0mg"},{"bike_id":"3447cb79-bcea-4e0e-a6e2-fb4871ba01b4","system_id":"levelo_inurba_marseille","lat":43.24732,"lon":5.39247,"is_reserved":false,"is_disabled":false,"rental_uris":{"android":"levelo://app?vid=3447cb79-bcea-4e0e-a6e2-fb4871ba01b4","ios":"levelo://app?vid=3447cb79-bcea-4e0e-a6e2-fb4871ba01b4"},"vehicle_type_id":"4","last_reported":1774287729,"current_range_meters":8400,"station_id":"","pricing_plan_id":"cebpf4jnsgd1na2vs0mg"},{"bike_id":"64d3d8b2-2011-4437-b8d4-171d7c082f4c","system_id":"levelo_inurba_marseille","lat":43.28612,"lon":5.37058,"is_reserved":false,"is_disabled":false,"rental_uris":{"android":"levelo://app?vid=64d3d8b2-2011-4437-b8d4-171d7c082f4c","ios":"levelo://app?vid=64d3d8b2-2011-4437-b8d4-171d7c082f4c"},"vehicle_type_id":"4","last_reported":1774287729,"current_range_meters":8400,"station_id":"ce4bht12rcd13ifvqi60","pricing_plan_id":"cebpf4jnsgd1na2vs0mg"},{"bike_id":"edaa494a-4360-47b4-975b-ccf6d6b743ca","system_id":"levelo_inurba_marseille","lat":43.29646,"lon":5.36537,"is_reserved":false,"is_disabled":false,"rental_uris":{"android":"levelo://app?vid=edaa494a-4360-47b4-975b-ccf6d6b743ca","ios":"levelo://app?vid=edaa494a-4360-47b4-975b-ccf6d6b743ca"},"vehicle_type_id":"4","last_reported":1774287729,"current_range_meters":8400,"station_id":"","pricing_plan_id":"cebpf4jnsgd1na2vs0mg"},{"bike_id":"87bd8da7-b020-4bf9-b7d9-d1598600ff39","system_id":"levelo_inurba_marseille","lat":43.27816,"lon":5.40719,"is_reserved":false,"is_disabled":false,"rental_uris":{"android":"levelo://app?vid=87bd8da7-b020-4bf9-b7d9-d1598600ff39","ios":"levelo://app?vid=87bd8da7-b020-4bf9-b7d9-d1598600ff39"},"vehicle_type_id":"4","last_reported":1774287729,"current_range_meters":8400,"station_id":"ce4bhnh2rcd13ifvqgtg","pricing_plan_id":"cebpf4jnsgd1na2vs0mg"},{"bike_id":"8f068066-4a31-4003-9235-d0ae48c01bc7","system_id":"levelo_inurba_marseille","lat":43.28153,"lon":5.42641,"is_reserved":false,"is_disabled":false,"rental_uris":{"android":"levelo://app?vid=8f068066-4a31-4003-9235-d0ae48c01bc7","ios":"levelo://app?vid=8f068066-4a31-4003-9235-d0ae48c01bc7"},"vehicle_type_id":"4","last_reported":1774287729,"current_range_meters":8400,"station_id":"ce4bhnh2rcd13ifvqgug","pricing_plan_id":"cebpf4jnsgd1na2vs0mg"},{"bike_id":"057d2b55-704f-4ec6-92aa-f597a48ff3f8","system_id":"levelo_inurba_marseille","lat":43.30148,"lon":5.39878,"is_reserved":false,"is_disabled":false,"rental_uris":{"android":"levelo://app?vid=057d2b55-704f-4ec6-92aa-f597a48ff3f8","ios":"levelo://app?vid=057d2b55-704f-4ec6-92aa-f597a48ff3f8"},"vehicle_type_id":"4","last_reported":1774287729,"current_range_meters":8400,"station_id":"ce4bh0h2rcd13ifvqd40","pricing_plan_id":"cebpf4jnsgd1na2vs0mg"},{"bike_id":"e4facb1d-4b5a-46b1-8a8d-2710d6e8b8c2","system_id":"levelo_inurba_marseille","lat":43.27374,"lon":5.3626,"is_reserved":false,"is_disabled":false,"rental_uris":{"android":"levelo://app?vid=e4facb1d-4b5a-46b1-8a8d-2710d6e8b8c2","ios":"levelo://app?vid=e4facb1d-4b5a-46b1-8a8d-2710d6e8b8c2"},"vehicle_type_id":"4","last_reported":1774287729,"current_range_meters":8400,"station_id":"ce4bhbh2rcd13ifvqeo0","pricing_plan_id":"cebpf4jnsgd1na2vs0mg"},{"bike_id":"646cd1ee-89e7-4577-a5fd-0716ee868774","system_id":"levelo_inurba_marseille","lat":43.308965,"lon":5.371941,"is_reserved":false,"is_disabled":false,"rental_uris":{"android":"levelo://app?vid=646cd1ee-89e7-4577-a5fd-0716ee868774","ios":"levelo://app?vid=646cd1ee-89e7-4577-a5fd-0716ee868774"},"vehicle_type_id":"4","last_reported":1774287729,"current_range_meters":8400,"station_id":"ce4bguh2rcd13ifvqckg","pricing_plan_id":"cebpf4jnsgd1na2vs0mg"},{"bike_id":"8bca9096-12b3-4fc7-852d-d5d306a91b32","system_id":"levelo_inurba_marseille","lat":43.29011,"lon":5.35616,"is_reserved":false,"is_disabled":false,"rental_uris":{"android":"levelo://app?vid=8bca9096-12b3-4fc7-852d-d5d306a91b32","ios":"levelo://app?vid=8bca9096-12b3-4fc7-852d-d5d306a91b32"},"vehicle_type_id":"4","last_reported":1774287729,"current_range_meters":8400,"station_id":"ce4bhb92rcd13ifvqen0","pricing_plan_id":"cebpf4jnsgd1na2vs0mg"},{"bike_id":"8b3b5143-9318-45ef-8c15-1a5e26dfeb39","system_id":"levelo_inurba_marseille","lat":43.28831,"lon":5.35861,"is_reserved":false,"is_disabled":false,"rental_uris":{"android":"levelo://app?vid=8b3b5143-9318-45ef-8c15-1a5e26dfeb39","ios":"levelo://app?vid=8b3b5143-9318-45ef-8c15-1a5e26dfeb39"},"vehicle_type_id":"4","last_reported":1774287729,"current_range_meters":8400,"station_id":"ce4bhb12rcd13ifvqem0","pricing_plan_id":"cebpf4jnsgd1na2vs0mg"},{"bike_id":"d89b1915-483d-4d09-b44a-47b8df915eef","system_id":"levelo_inurba_marseille","lat":43.23117,"lon":5.35481,"is_reserved":false,"is_disabled":false,"rental_uris":{"android":"levelo://app?vid=d89b1915-483d-4d09-b44a-47b8df915eef","ios":"levelo://app?vid=d89b1915-483d-4d09-b44a-47b8df915eef"},"vehicle_type_id":"4","last_reported":1774287729,"current_range_meters":8400,"station_id":"","pricing_plan_id":"cebpf4jnsgd1na2vs0mg"},{"bike_id":"8e8e3c3e-04a8-43dc-9ccb-a20dbff6d34e","system_id":"levelo_inurba_marseille","lat":43.29576,"lon":5.36739,"is_reserved":false,"is_disabled":false,"rental_uris":{"android":"levelo://app?vid=8e8e3c3e-04a8-43dc-9ccb-a20dbff6d34e","ios":"levelo://app?vid=8e8e3c3e-04a8-43dc-9ccb-a20dbff6d34e"},"vehicle_type_id":"4","last_reported":1774287729,"current_range_meters":8400,"station_id":"ce4bgph2rcd13ifvqc2g","pricing_plan_id":"cebpf4jnsgd1na2vs0mg"},{"bike_id":"59320224-03ff-4fa2-8a28-3304debe9556","system_id":"levelo_inurba_marseille","lat":43.28407,"lon":5.34989,"is_reserved":false,"is_disabled":false,"rental_uris":{"android":"levelo://app?vid=59320224-03ff-4fa2-8a28-3304debe9556","ios":"levelo://app?vid=59320224-03ff-4fa2-8a28-3304debe9556"},"vehicle_type_id":"4","last_reported":1774287729,"current_range_meters":8400,"station_id":"ce4bhbh2rcd13ifvqepg","pricing_plan_id":"cebpf4jnsgd1na2vs0mg"},{"bike_id":"9fcf9b8c-7a38-46ab-a61d-b56a7de8b245","system_id":"levelo_inurba_marseille","lat":43.28487,"lon":5.38559,"is_reserved":false,"is_disabled":false,"rental_uris":{"android":"levelo://app?vid=9fcf9b8c-7a38-46ab-a61d-b56a7de8b245","ios":"levelo://app?vid=9fcf9b8c-7a38-46ab-a61d-b56a7de8b245"},"vehicle_type_id":"4","last_reported":1774287729,"current_range_meters":8800,"station_id":"ce4bh8p2rcd13ifvqeb0","pricing_plan_id":"cebpf4jnsgd1na2vs0mg"},{"bike_id":"d07ecb40-0639-4bc7-9a52-2a0ed2d33052","system_id":"levelo_inurba_marseille","lat":43.28155,"lon":5.42646,"is_reserved":false,"is_disabled":false,"rental_uris":{"android":"levelo://app?vid=d07ecb40-0639-4bc7-9a52-2a0ed2d33052","ios":"levelo://app?vid=d07ecb40-0639-4bc7-9a52-2a0ed2d33052"},"vehicle_type_id":"4","last_reported":1774287729,"current_range_meters":8800,"station_id":"ce4bhnh2rcd13ifvqgug","pricing_plan_id":"cebpf4jnsgd1na2vs0mg"},{"bike_id":"5cca4b32-612b-471f-a02d-66912cbe70ff","system_id":"levelo_inurba_marseille","lat":43.21213,"lon":5.35101,"is_reserved":false,"is_disabled":true,"rental_uris":{"android":"levelo://app?vid=5cca4b32-612b-471f-a02d-66912cbe70ff","ios":"levelo://app?vid=5cca4b32-612b-471f-a02d-66912cbe70ff"},"vehicle_type_id":"4","last_reported":1774287729,"current_range_meters":8800,"station_id":"st_cvj6sg6p6f1abm77japg","pricing_plan_id":"cebpf4jnsgd1na2vs0mg"},{"bike_id":"3f30f2ff-40f2-4f9d-996a-0de8bac95dfa","system_id":"levelo_inurba_marseille","lat":43.26561,"lon":5.37291,"is_reserved":false,"is_disabled":false,"rental_uris":{"android":"levelo://app?vid=3f30f2ff-40f2-4f9d-996a-0de8bac95dfa","ios":"levelo://app?vid=3f30f2ff-40f2-4f9d-996a-0de8bac95dfa"},"vehicle_type_id":"4","last_reported":1774287729,"current_range_meters":8800,"station_id":"ce4bhg12rcd13ifvqf70","pricing_plan_id":"cebpf4jnsgd1na2vs0mg"},{"bike_id":"7e208f55-e11d-452f-b569-817a24ad3f7f","system_id":"levelo_inurba_marseille","lat":43.28673,"lon":5.38666,"is_reserved":false,"is_disabled":false,"rental_uris":{"android":"levelo://app?vid=7e208f55-e11d-452f-b569-817a24ad3f7f","ios":"levelo://app?vid=7e208f55-e11d-452f-b569-817a24ad3f7f"},"vehicle_type_id":"4","last_reported":1774287729,"current_range_meters":8800,"station_id":"ce4bh492rcd13ifvqdug","pricing_plan_id":"cebpf4jnsgd1na2vs0mg"},{"bike_id":"04e42d2b-817b-4033-8935-148ae7f53cb4","system_id":"levelo_inurba_marseille","lat":43.28221,"lon":5.39058,"is_reserved":false,"is_disabled":true,"rental_uris":{"android":"levelo://app?vid=04e42d2b-817b-4033-8935-148ae7f53cb4","ios":"levelo://app?vid=04e42d2b-817b-4033-8935-148ae7f53cb4"},"vehicle_type_id":"4","last_reported":1774287729,"current_range_meters":8800,"station_id":"ce4bhn92rcd13ifvqgsg","pricing_plan_id":"cebpf4jnsgd1na2vs0mg"},{"bike_id":"7c65ede5-43dc-4f72-bd04-324294c0b8ba","system_id":"levelo_inurba_marseille","lat":43.30539,"lon":5.36545,"is_reserved":false,"is_disabled":false,"rental_uris":{"android":"levelo://app?vid=7c65ede5-43dc-4f72-bd04-324294c0b8ba","ios":"levelo://app?vid=7c65ede5-43dc-4f72-bd04-324294c0b8ba"},"vehicle_type_id":"4","last_reported":1774287729,"current_range_meters":8800,"station_id":"ce4bgs12rcd13ifvqcag","pricing_plan_id":"cebpf4jnsgd1na2vs0mg"},{"bike_id":"2281acd7-1807-4866-87f5-4caf70e2cf2c","system_id":"levelo_inurba_marseille","lat":43.28655,"lon":5.38662,"is_reserved":false,"is_disabled":false,"rental_uris":{"android":"levelo://app?vid=2281acd7-1807-4866-87f5-4caf70e2cf2c","ios":"levelo://app?vid=2281acd7-1807-4866-87f5-4caf70e2cf2c"},"vehicle_type_id":"4","last_reported":1774287729,"current_range_meters":8800,"station_id":"ce4bh492rcd13ifvqdug","pricing_plan_id":"cebpf4jnsgd1na2vs0mg"},{"bike_id":"2c6f756b-ce00-46f7-b4ee-37a4d31e1702","system_id":"levelo_inurba_marseille","lat":43.29682,"lon":5.37289,"is_reserved":false,"is_disabled":false,"rental_uris":{"android":"levelo://app?vid=2c6f756b-ce00-46f7-b4ee-37a4d31e1702","ios":"levelo://app?vid=2c6f756b-ce00-46f7-b4ee-37a4d31e1702"},"vehicle_type_id":"4","last_reported":1774287729,"current_range_meters":8800,"station_id":"ce4bgk12rcd13ifvqbj0","pricing_plan_id":"cebpf4jnsgd1na2vs0mg"},{"bike_id":"e0d4b646-f9d3-4a11-a116-7e16e9f27389","system_id":"levelo_inurba_marseille","lat":43.28937,"lon":5.36645,"is_reserved":false,"is_disabled":false,"rental_uris":{"android":"levelo://app?vid=e0d4b646-f9d3-4a11-a116-7e16e9f27389","ios":"levelo://app?vid=e0d4b646-f9d3-4a11-a116-7e16e9f27389"},"vehicle_type_id":"4","last_reported":1774287729,"current_range_meters":8800,"station_id":"ce4bhap2rcd13ifvqek0","pricing_plan_id":"cebpf4jnsgd1na2vs0mg"},{"bike_id":"e9cafa4c-36b3-4f3d-be62-41d0dbc3d87b","system_id":"levelo_inurba_marseille","lat":43.28071,"lon":5.39656,"is_reserved":false,"is_disabled":false,"rental_uris":{"android":"levelo://app?vid=e9cafa4c-36b3-4f3d-be62-41d0dbc3d87b","ios":"levelo://app?vid=e9cafa4c-36b3-4f3d-be62-41d0dbc3d87b"},"vehicle_type_id":"4","last_reported":1774287729,"current_range_meters":8800,"station_id":"ce4bho12rcd13ifvqh2g","pricing_plan_id":"cebpf4jnsgd1na2vs0mg"},{"bike_id":"a1cb2262-7300-4b03-a7e0-4f4f83a72efc","system_id":"levelo_inurba_marseille","lat":43.28937,"lon":5.36645,"is_reserved":false,"is_disabled":false,"rental_uris":{"android":"levelo://app?vid=a1cb2262-7300-4b03-a7e0-4f4f83a72efc","ios":"levelo://app?vid=a1cb2262-7300-4b03-a7e0-4f4f83a72efc"},"vehicle_type_id":"4","last_reported":1774287729,"current_range_meters":9200,"station_id":"ce4bhap2rcd13ifvqek0","pricing_plan_id":"cebpf4jnsgd1na2vs0mg"},{"bike_id":"a2fabdf4-bd61-4352-82b4-201f5349c59d","system_id":"levelo_inurba_marseille","lat":43.26559,"lon":5.39015,"is_reserved":false,"is_disabled":true,"rental_uris":{"android":"levelo://app?vid=a2fabdf4-bd61-4352-82b4-201f5349c59d","ios":"levelo://app?vid=a2fabdf4-bd61-4352-82b4-201f5349c59d"},"vehicle_type_id":"4","last_reported":1774287729,"current_range_meters":9200,"station_id":"ce4bhe12rcd13ifvqf30","pricing_plan_id":"cebpf4jnsgd1na2vs0mg"},{"bike_id":"271bbd38-27a6-428c-a007-3088647823d1","system_id":"levelo_inurba_marseille","lat":43.29173,"lon":5.37176,"is_reserved":false,"is_disabled":false,"rental_uris":{"android":"levelo://app?vid=271bbd38-27a6-428c-a007-3088647823d1","ios":"levelo://app?vid=271bbd38-27a6-428c-a007-3088647823d1"},"vehicle_type_id":"4","last_reported":1774287729,"current_range_meters":9200,"station_id":"ce4bha92rcd13ifvqeh0","pricing_plan_id":"cebpf4jnsgd1na2vs0mg"},{"bike_id":"1e391bfa-6e9e-4a22-b428-ba845e3b8626","system_id":"levelo_inurba_marseille","lat":43.29964,"lon":5.38496,"is_reserved":false,"is_disabled":false,"rental_uris":{"android":"levelo://app?vid=1e391bfa-6e9e-4a22-b428-ba845e3b8626","ios":"levelo://app?vid=1e391bfa-6e9e-4a22-b428-ba845e3b8626"},"vehicle_type_id":"4","last_reported":1774287729,"current_range_meters":9200,"station_id":"ce4bgj92rcd13ifvqbd0","pricing_plan_id":"cebpf4jnsgd1na2vs0mg"},{"bike_id":"ea55a489-9225-40f2-8711-7237563668b5","system_id":"levelo_inurba_marseille","lat":43.30545,"lon":5.36536,"is_reserved":false,"is_disabled":false,"rental_uris":{"android":"levelo://app?vid=ea55a489-9225-40f2-8711-7237563668b5","ios":"levelo://app?vid=ea55a489-9225-40f2-8711-7237563668b5"},"vehicle_type_id":"4","last_reported":1774287729,"current_range_meters":9200,"station_id":"ce4bgs12rcd13ifvqcag","pricing_plan_id":"cebpf4jnsgd1na2vs0mg"},{"bike_id":"f910acab-e234-4475-91c9-ec3fea6d1bf3","system_id":"levelo_inurba_marseille","lat":43.29898,"lon":5.43647,"is_reserved":false,"is_disabled":false,"rental_uris":{"android":"levelo://app?vid=f910acab-e234-4475-91c9-ec3fea6d1bf3","ios":"levelo://app?vid=f910acab-e234-4475-91c9-ec3fea6d1bf3"},"vehicle_type_id":"4","last_reported":1774287729,"current_range_meters":9200,"station_id":"ce4bhpp2rcd13ifvqhfg","pricing_plan_id":"cebpf4jnsgd1na2vs0mg"},{"bike_id":"f329e31a-d145-44dd-a6c7-77d893fce1d9","system_id":"levelo_inurba_marseille","lat":43.25329,"lon":5.42151,"is_reserved":false,"is_disabled":false,"rental_uris":{"android":"levelo://app?vid=f329e31a-d145-44dd-a6c7-77d893fce1d9","ios":"levelo://app?vid=f329e31a-d145-44dd-a6c7-77d893fce1d9"},"vehicle_type_id":"4","last_reported":1774287729,"current_range_meters":9200,"station_id":"st_d2m65c5bi1j21697t3ng","pricing_plan_id":"cebpf4jnsgd1na2vs0mg"},{"bike_id":"52afd454-e1e8-4494-a291-d583b2ddd5d8","system_id":"levelo_inurba_marseille","lat":43.30798,"lon":5.40005,"is_reserved":false,"is_disabled":false,"rental_uris":{"android":"levelo://app?vid=52afd454-e1e8-4494-a291-d583b2ddd5d8","ios":"levelo://app?vid=52afd454-e1e8-4494-a291-d583b2ddd5d8"},"vehicle_type_id":"4","last_reported":1774287729,"current_range_meters":9200,"station_id":"","pricing_plan_id":"cebpf4jnsgd1na2vs0mg"},{"bike_id":"67fa727b-a75e-43f5-8f7f-0420dd73f369","system_id":"levelo_inurba_marseille","lat":43.32119,"lon":5.36748,"is_reserved":false,"is_disabled":false,"rental_uris":{"android":"levelo://app?vid=67fa727b-a75e-43f5-8f7f-0420dd73f369","ios":"levelo://app?vid=67fa727b-a75e-43f5-8f7f-0420dd73f369"},"vehicle_type_id":"4","last_reported":1774287729,"current_range_meters":9200,"station_id":"ce4bhrh2rcd13ifvqhug","pricing_plan_id":"cebpf4jnsgd1na2vs0mg"},{"bike_id":"0b786319-6d9f-4d1c-890a-5150198e272a","system_id":"levelo_inurba_marseille","lat":43.28521,"lon":5.48425,"is_reserved":false,"is_disabled":false,"rental_uris":{"android":"levelo://app?vid=0b786319-6d9f-4d1c-890a-5150198e272a","ios":"levelo://app?vid=0b786319-6d9f-4d1c-890a-5150198e272a"},"vehicle_type_id":"4","last_reported":1774287729,"current_range_meters":9200,"station_id":"st_d3svhcjqgbts73a3dn0g","pricing_plan_id":"cebpf4jnsgd1na2vs0mg"},{"bike_id":"37a2f2bb-59a1-4406-a161-2a8b323760c1","system_id":"levelo_inurba_marseille","lat":43.25328,"lon":5.42161,"is_reserved":false,"is_disabled":false,"rental_uris":{"android":"levelo://app?vid=37a2f2bb-59a1-4406-a161-2a8b323760c1","ios":"levelo://app?vid=37a2f2bb-59a1-4406-a161-2a8b323760c1"},"vehicle_type_id":"4","last_reported":1774287729,"current_range_meters":9200,"station_id":"st_d2m65c5bi1j21697t3ng","pricing_plan_id":"cebpf4jnsgd1na2vs0mg"},{"bike_id":"055cbcea-f5c3-4e10-9809-9a0098fccfb8","system_id":"levelo_inurba_marseille","lat":43.28719,"lon":5.37933,"is_reserved":false,"is_disabled":false,"rental_uris":{"android":"levelo://app?vid=055cbcea-f5c3-4e10-9809-9a0098fccfb8","ios":"levelo://app?vid=055cbcea-f5c3-4e10-9809-9a0098fccfb8"},"vehicle_type_id":"4","last_reported":1774287729,"current_range_meters":9200,"station_id":"ce4bh9p2rcd13ifvqec0","pricing_plan_id":"cebpf4jnsgd1na2vs0mg"},{"bike_id":"0688a972-c07e-436f-a650-cd184ab189cc","system_id":"levelo_inurba_marseille","lat":43.32095,"lon":5.36756,"is_reserved":false,"is_disabled":false,"rental_uris":{"android":"levelo://app?vid=0688a972-c07e-436f-a650-cd184ab189cc","ios":"levelo://app?vid=0688a972-c07e-436f-a650-cd184ab189cc"},"vehicle_type_id":"4","last_reported":1774287729,"current_range_meters":9200,"station_id":"ce4bhrh2rcd13ifvqhug","pricing_plan_id":"cebpf4jnsgd1na2vs0mg"},{"bike_id":"bbf06f99-10eb-4743-9c34-2b5936013bcc","system_id":"levelo_inurba_marseille","lat":43.238,"lon":5.36625,"is_reserved":false,"is_disabled":false,"rental_uris":{"android":"levelo://app?vid=bbf06f99-10eb-4743-9c34-2b5936013bcc","ios":"levelo://app?vid=bbf06f99-10eb-4743-9c34-2b5936013bcc"},"vehicle_type_id":"4","last_reported":1774287729,"current_range_meters":9200,"station_id":"st_d3nk18o9ro0c73en2l3g","pricing_plan_id":"cebpf4jnsgd1na2vs0mg"},{"bike_id":"7e03e45c-d69c-4371-8267-aa26cde43729","system_id":"levelo_inurba_marseille","lat":43.25562,"lon":5.38233,"is_reserved":false,"is_disabled":true,"rental_uris":{"android":"levelo://app?vid=7e03e45c-d69c-4371-8267-aa26cde43729","ios":"levelo://app?vid=7e03e45c-d69c-4371-8267-aa26cde43729"},"vehicle_type_id":"4","last_reported":1774287729,"current_range_meters":9200,"station_id":"ce4bhih2rcd13ifvqfs0","pricing_plan_id":"cebpf4jnsgd1na2vs0mg"},{"bike_id":"80a7d27a-190c-42fa-9df7-ccc2381d388c","system_id":"levelo_inurba_marseille","lat":43.29528,"lon":5.38541,"is_reserved":false,"is_disabled":false,"rental_uris":{"android":"levelo://app?vid=80a7d27a-190c-42fa-9df7-ccc2381d388c","ios":"levelo://app?vid=80a7d27a-190c-42fa-9df7-ccc2381d388c"},"vehicle_type_id":"4","last_reported":1774287729,"current_range_meters":9200,"station_id":"ce4bgih2rcd13ifvqba0","pricing_plan_id":"cebpf4jnsgd1na2vs0mg"},{"bike_id":"42a4a15e-3eeb-448b-866f-9a05c2c9ea98","system_id":"levelo_inurba_marseille","lat":43.27984,"lon":5.41661,"is_reserved":false,"is_disabled":false,"rental_uris":{"android":"levelo://app?vid=42a4a15e-3eeb-448b-866f-9a05c2c9ea98","ios":"levelo://app?vid=42a4a15e-3eeb-448b-866f-9a05c2c9ea98"},"vehicle_type_id":"4","last_reported":1774287729,"current_range_meters":9200,"station_id":"ce4bho12rcd13ifvqh1g","pricing_plan_id":"cebpf4jnsgd1na2vs0mg"},{"bike_id":"19b55292-daf3-437e-a1ea-74568e28f140","system_id":"levelo_inurba_marseille","lat":43.28468,"lon":5.38456,"is_reserved":false,"is_disabled":false,"rental_uris":{"android":"levelo://app?vid=19b55292-daf3-437e-a1ea-74568e28f140","ios":"levelo://app?vid=19b55292-daf3-437e-a1ea-74568e28f140"},"vehicle_type_id":"4","last_reported":1774287729,"current_range_meters":9200,"station_id":"ce4bh512rcd13ifvqe3g","pricing_plan_id":"cebpf4jnsgd1na2vs0mg"},{"bike_id":"40906df4-17dd-4d9f-ac1f-0880c5eb117e","system_id":"levelo_inurba_marseille","lat":43.3235,"lon":5.36768,"is_reserved":false,"is_disabled":false,"rental_uris":{"android":"levelo://app?vid=40906df4-17dd-4d9f-ac1f-0880c5eb117e","ios":"levelo://app?vid=40906df4-17dd-4d9f-ac1f-0880c5eb117e"},"vehicle_type_id":"4","last_reported":1774287729,"current_range_meters":9600,"station_id":"ce4bhsh2rcd13ifvqi2g","pricing_plan_id":"cebpf4jnsgd1na2vs0mg"},{"bike_id":"777878bc-164f-4c5a-8054-7f1657bde276","system_id":"levelo_inurba_marseille","lat":43.26562,"lon":5.39031,"is_reserved":false,"is_disabled":false,"rental_uris":{"android":"levelo://app?vid=777878bc-164f-4c5a-8054-7f1657bde276","ios":"levelo://app?vid=777878bc-164f-4c5a-8054-7f1657bde276"},"vehicle_type_id":"4","last_reported":1774287729,"current_range_meters":9600,"station_id":"ce4bhe12rcd13ifvqf30","pricing_plan_id":"cebpf4jnsgd1na2vs0mg"},{"bike_id":"f4741053-dac8-4bb4-a8cb-03078fb29826","system_id":"levelo_inurba_marseille","lat":43.28567,"lon":5.39497,"is_reserved":false,"is_disabled":false,"rental_uris":{"android":"levelo://app?vid=f4741053-dac8-4bb4-a8cb-03078fb29826","ios":"levelo://app?vid=f4741053-dac8-4bb4-a8cb-03078fb29826"},"vehicle_type_id":"4","last_reported":1774287729,"current_range_meters":9600,"station_id":"ce4bh292rcd13ifvqdg0","pricing_plan_id":"cebpf4jnsgd1na2vs0mg"},{"bike_id":"e6f64666-07b1-462b-b006-8808d78c24e5","system_id":"levelo_inurba_marseille","lat":43.3272,"lon":5.36588,"is_reserved":false,"is_disabled":false,"rental_uris":{"android":"levelo://app?vid=e6f64666-07b1-462b-b006-8808d78c24e5","ios":"levelo://app?vid=e6f64666-07b1-462b-b006-8808d78c24e5"},"vehicle_type_id":"4","last_reported":1774287729,"current_range_meters":9600,"station_id":"","pricing_plan_id":"cebpf4jnsgd1na2vs0mg"},{"bike_id":"4ce98637-072f-4197-bd69-11f207a88eab","system_id":"levelo_inurba_marseille","lat":43.28496,"lon":5.47279,"is_reserved":false,"is_disabled":false,"rental_uris":{"android":"levelo://app?vid=4ce98637-072f-4197-bd69-11f207a88eab","ios":"levelo://app?vid=4ce98637-072f-4197-bd69-11f207a88eab"},"vehicle_type_id":"4","last_reported":1774287729,"current_range_meters":9600,"station_id":"","pricing_plan_id":"cebpf4jnsgd1na2vs0mg"},{"bike_id":"d0552fd4-7eed-4f2a-9a76-43837d99b0e2","system_id":"levelo_inurba_marseille","lat":43.30413,"lon":5.413,"is_reserved":false,"is_disabled":false,"rental_uris":{"android":"levelo://app?vid=d0552fd4-7eed-4f2a-9a76-43837d99b0e2","ios":"levelo://app?vid=d0552fd4-7eed-4f2a-9a76-43837d99b0e2"},"vehicle_type_id":"4","last_reported":1774287729,"current_range_meters":9600,"station_id":"ce4bhop2rcd13ifvqh8g","pricing_plan_id":"cebpf4jnsgd1na2vs0mg"},{"bike_id":"e2c43a2f-c46f-424b-8c52-17da240b3965","system_id":"levelo_inurba_marseille","lat":43.2906,"lon":5.35919,"is_reserved":false,"is_disabled":false,"rental_uris":{"android":"levelo://app?vid=e2c43a2f-c46f-424b-8c52-17da240b3965","ios":"levelo://app?vid=e2c43a2f-c46f-424b-8c52-17da240b3965"},"vehicle_type_id":"4","last_reported":1774287729,"current_range_meters":9600,"station_id":"ce4bha92rcd13ifvqeg0","pricing_plan_id":"cebpf4jnsgd1na2vs0mg"},{"bike_id":"2e4408b1-4f10-4104-87c2-00f9c6cc7b1b","system_id":"levelo_inurba_marseille","lat":43.30145,"lon":5.43115,"is_reserved":false,"is_disabled":false,"rental_uris":{"android":"levelo://app?vid=2e4408b1-4f10-4104-87c2-00f9c6cc7b1b","ios":"levelo://app?vid=2e4408b1-4f10-4104-87c2-00f9c6cc7b1b"},"vehicle_type_id":"4","last_reported":1774287729,"current_range_meters":9600,"station_id":"st_d3js3co5814s73ftftug","pricing_plan_id":"cebpf4jnsgd1na2vs0mg"},{"bike_id":"19f1add8-fb4d-4df2-9f34-3abb6a2112fe","system_id":"levelo_inurba_marseille","lat":43.21202,"lon":5.35082,"is_reserved":false,"is_disabled":false,"rental_uris":{"android":"levelo://app?vid=19f1add8-fb4d-4df2-9f34-3abb6a2112fe","ios":"levelo://app?vid=19f1add8-fb4d-4df2-9f34-3abb6a2112fe"},"vehicle_type_id":"4","last_reported":1774287729,"current_range_meters":9600,"station_id":"st_cvj6sg6p6f1abm77japg","pricing_plan_id":"cebpf4jnsgd1na2vs0mg"},{"bike_id":"6711ca2b-9a4e-46b1-892e-1007cc2a656e","system_id":"levelo_inurba_marseille","lat":43.28546,"lon":5.44122,"is_reserved":false,"is_disabled":false,"rental_uris":{"android":"levelo://app?vid=6711ca2b-9a4e-46b1-892e-1007cc2a656e","ios":"levelo://app?vid=6711ca2b-9a4e-46b1-892e-1007cc2a656e"},"vehicle_type_id":"4","last_reported":1774287729,"current_range_meters":9600,"station_id":"st_d3j3df2ikq2c7380ej80","pricing_plan_id":"cebpf4jnsgd1na2vs0mg"},{"bike_id":"4f330ed3-2e13-4b5b-9d57-40120459b99d","system_id":"levelo_inurba_marseille","lat":43.29005,"lon":5.35638,"is_reserved":false,"is_disabled":false,"rental_uris":{"android":"levelo://app?vid=4f330ed3-2e13-4b5b-9d57-40120459b99d","ios":"levelo://app?vid=4f330ed3-2e13-4b5b-9d57-40120459b99d"},"vehicle_type_id":"4","last_reported":1774287729,"current_range_meters":9600,"station_id":"ce4bhb92rcd13ifvqen0","pricing_plan_id":"cebpf4jnsgd1na2vs0mg"},{"bike_id":"12d74933-18e6-4925-80d9-2a20146ddf61","system_id":"levelo_inurba_marseille","lat":43.31521,"lon":5.3881,"is_reserved":false,"is_disabled":false,"rental_uris":{"android":"levelo://app?vid=12d74933-18e6-4925-80d9-2a20146ddf61","ios":"levelo://app?vid=12d74933-18e6-4925-80d9-2a20146ddf61"},"vehicle_type_id":"4","last_reported":1774287729,"current_range_meters":9600,"station_id":"","pricing_plan_id":"cebpf4jnsgd1na2vs0mg"},{"bike_id":"bf540c65-b0b7-4276-91a6-69523e5844ff","system_id":"levelo_inurba_marseille","lat":43.29561,"lon":5.3856,"is_reserved":false,"is_disabled":false,"rental_uris":{"android":"levelo://app?vid=bf540c65-b0b7-4276-91a6-69523e5844ff","ios":"levelo://app?vid=bf540c65-b0b7-4276-91a6-69523e5844ff"},"vehicle_type_id":"4","last_reported":1774287729,"current_range_meters":9600,"station_id":"ce4bgih2rcd13ifvqba0","pricing_plan_id":"cebpf4jnsgd1na2vs0mg"},{"bike_id":"bde81176-eaa3-4fc3-a4e1-e69333a675b5","system_id":"levelo_inurba_marseille","lat":43.29522,"lon":5.3854,"is_reserved":false,"is_disabled":false,"rental_uris":{"android":"levelo://app?vid=bde81176-eaa3-4fc3-a4e1-e69333a675b5","ios":"levelo://app?vid=bde81176-eaa3-4fc3-a4e1-e69333a675b5"},"vehicle_type_id":"4","last_reported":1774287729,"current_range_meters":9600,"station_id":"ce4bgih2rcd13ifvqba0","pricing_plan_id":"cebpf4jnsgd1na2vs0mg"},{"bike_id":"1fdcdf15-4f7c-448a-8448-f2f0e54045d1","system_id":"levelo_inurba_marseille","lat":43.29689,"lon":5.37286,"is_reserved":false,"is_disabled":false,"rental_uris":{"android":"levelo://app?vid=1fdcdf15-4f7c-448a-8448-f2f0e54045d1","ios":"levelo://app?vid=1fdcdf15-4f7c-448a-8448-f2f0e54045d1"},"vehicle_type_id":"4","last_reported":1774287729,"current_range_meters":9600,"station_id":"ce4bgk12rcd13ifvqbj0","pricing_plan_id":"cebpf4jnsgd1na2vs0mg"},{"bike_id":"7f60c4fb-7dd8-44c3-99ef-23290bffec16","system_id":"levelo_inurba_marseille","lat":43.28411,"lon":5.37521,"is_reserved":false,"is_disabled":false,"rental_uris":{"android":"levelo://app?vid=7f60c4fb-7dd8-44c3-99ef-23290bffec16","ios":"levelo://app?vid=7f60c4fb-7dd8-44c3-99ef-23290bffec16"},"vehicle_type_id":"4","last_reported":1774287729,"current_range_meters":9600,"station_id":"ce4bh412rcd13ifvqds0","pricing_plan_id":"cebpf4jnsgd1na2vs0mg"},{"bike_id":"a14d2edd-85c5-4116-8db5-355e3fb2ddbe","system_id":"levelo_inurba_marseille","lat":43.33489,"lon":5.37403,"is_reserved":false,"is_disabled":false,"rental_uris":{"android":"levelo://app?vid=a14d2edd-85c5-4116-8db5-355e3fb2ddbe","ios":"levelo://app?vid=a14d2edd-85c5-4116-8db5-355e3fb2ddbe"},"vehicle_type_id":"4","last_reported":1774287729,"current_range_meters":10000,"station_id":"","pricing_plan_id":"cebpf4jnsgd1na2vs0mg"},{"bike_id":"da96e62c-aa8b-4584-b620-7915e0492349","system_id":"levelo_inurba_marseille","lat":43.2842,"lon":5.3498,"is_reserved":false,"is_disabled":false,"rental_uris":{"android":"levelo://app?vid=da96e62c-aa8b-4584-b620-7915e0492349","ios":"levelo://app?vid=da96e62c-aa8b-4584-b620-7915e0492349"},"vehicle_type_id":"4","last_reported":1774287729,"current_range_meters":10000,"station_id":"ce4bhbh2rcd13ifvqepg","pricing_plan_id":"cebpf4jnsgd1na2vs0mg"},{"bike_id":"39c70932-630b-465a-a0ce-82a1b8882d58","system_id":"levelo_inurba_marseille","lat":43.28411,"lon":5.37504,"is_reserved":false,"is_disabled":false,"rental_uris":{"android":"levelo://app?vid=39c70932-630b-465a-a0ce-82a1b8882d58","ios":"levelo://app?vid=39c70932-630b-465a-a0ce-82a1b8882d58"},"vehicle_type_id":"4","last_reported":1774287729,"current_range_meters":10000,"station_id":"ce4bh412rcd13ifvqds0","pricing_plan_id":"cebpf4jnsgd1na2vs0mg"},{"bike_id":"8e331d09-f777-47e4-a327-164db2e188a9","system_id":"levelo_inurba_marseille","lat":43.2659,"lon":5.40317,"is_reserved":false,"is_disabled":true,"rental_uris":{"android":"levelo://app?vid=8e331d09-f777-47e4-a327-164db2e188a9","ios":"levelo://app?vid=8e331d09-f777-47e4-a327-164db2e188a9"},"vehicle_type_id":"4","last_reported":1774287729,"current_range_meters":10000,"station_id":"ce4bhmp2rcd13ifvqgng","pricing_plan_id":"cebpf4jnsgd1na2vs0mg"},{"bike_id":"445a363e-6635-4c6f-9d9b-6ed1d223c4e8","system_id":"levelo_inurba_marseille","lat":43.29559,"lon":5.43903,"is_reserved":false,"is_disabled":false,"rental_uris":{"android":"levelo://app?vid=445a363e-6635-4c6f-9d9b-6ed1d223c4e8","ios":"levelo://app?vid=445a363e-6635-4c6f-9d9b-6ed1d223c4e8"},"vehicle_type_id":"4","last_reported":1774287729,"current_range_meters":10000,"station_id":"","pricing_plan_id":"cebpf4jnsgd1na2vs0mg"},{"bike_id":"2f5b6265-483e-47d4-831c-32860cec290b","system_id":"levelo_inurba_marseille","lat":43.29572,"lon":5.42278,"is_reserved":false,"is_disabled":false,"rental_uris":{"android":"levelo://app?vid=2f5b6265-483e-47d4-831c-32860cec290b","ios":"levelo://app?vid=2f5b6265-483e-47d4-831c-32860cec290b"},"vehicle_type_id":"4","last_reported":1774287729,"current_range_meters":10000,"station_id":"ce4bhph2rcd13ifvqhdg","pricing_plan_id":"cebpf4jnsgd1na2vs0mg"},{"bike_id":"c204ba73-67ce-42a4-8a0e-3854449629fb","system_id":"levelo_inurba_marseille","lat":43.26044,"lon":5.37545,"is_reserved":false,"is_disabled":false,"rental_uris":{"android":"levelo://app?vid=c204ba73-67ce-42a4-8a0e-3854449629fb","ios":"levelo://app?vid=c204ba73-67ce-42a4-8a0e-3854449629fb"},"vehicle_type_id":"4","last_reported":1774287729,"current_range_meters":10000,"station_id":"ce4bhgh2rcd13ifvqfa0","pricing_plan_id":"cebpf4jnsgd1na2vs0mg"},{"bike_id":"34626e01-cc86-4c92-b6b2-0a10b25993e7","system_id":"levelo_inurba_marseille","lat":43.28605,"lon":5.35111,"is_reserved":false,"is_disabled":true,"rental_uris":{"android":"levelo://app?vid=34626e01-cc86-4c92-b6b2-0a10b25993e7","ios":"levelo://app?vid=34626e01-cc86-4c92-b6b2-0a10b25993e7"},"vehicle_type_id":"4","last_reported":1774287729,"current_range_meters":10000,"station_id":"ce4bhch2rcd13ifvqeug","pricing_plan_id":"cebpf4jnsgd1na2vs0mg"},{"bike_id":"f43e023a-281a-469d-8e9e-4b59d57d4a54","system_id":"levelo_inurba_marseille","lat":43.3031,"lon":5.3689,"is_reserved":false,"is_disabled":false,"rental_uris":{"android":"levelo://app?vid=f43e023a-281a-469d-8e9e-4b59d57d4a54","ios":"levelo://app?vid=f43e023a-281a-469d-8e9e-4b59d57d4a54"},"vehicle_type_id":"4","last_reported":1774287729,"current_range_meters":10000,"station_id":"ce4bgqh2rcd13ifvqc5g","pricing_plan_id":"cebpf4jnsgd1na2vs0mg"},{"bike_id":"7c59c074-6646-4968-803b-ea035a59d3f4","system_id":"levelo_inurba_marseille","lat":43.23784,"lon":5.36633,"is_reserved":false,"is_disabled":false,"rental_uris":{"android":"levelo://app?vid=7c59c074-6646-4968-803b-ea035a59d3f4","ios":"levelo://app?vid=7c59c074-6646-4968-803b-ea035a59d3f4"},"vehicle_type_id":"4","last_reported":1774287729,"current_range_meters":10000,"station_id":"st_d3nk18o9ro0c73en2l3g","pricing_plan_id":"cebpf4jnsgd1na2vs0mg"},{"bike_id":"4367a305-9219-40c4-89cd-3780930151c4","system_id":"levelo_inurba_marseille","lat":43.24806,"lon":5.37448,"is_reserved":false,"is_disabled":false,"rental_uris":{"android":"levelo://app?vid=4367a305-9219-40c4-89cd-3780930151c4","ios":"levelo://app?vid=4367a305-9219-40c4-89cd-3780930151c4"},"vehicle_type_id":"4","last_reported":1774287729,"current_range_meters":10000,"station_id":"ce4bhgh2rcd13ifvqfb0","pricing_plan_id":"cebpf4jnsgd1na2vs0mg"},{"bike_id":"9f8ae27b-f8d2-4ed8-858a-6d9ca53a6000","system_id":"levelo_inurba_marseille","lat":43.30397,"lon":5.3725,"is_reserved":false,"is_disabled":false,"rental_uris":{"android":"levelo://app?vid=9f8ae27b-f8d2-4ed8-858a-6d9ca53a6000","ios":"levelo://app?vid=9f8ae27b-f8d2-4ed8-858a-6d9ca53a6000"},"vehicle_type_id":"4","last_reported":1774287729,"current_range_meters":10000,"station_id":"","pricing_plan_id":"cebpf4jnsgd1na2vs0mg"},{"bike_id":"3129edae-58e5-429a-8dc0-b370035eb29f","system_id":"levelo_inurba_marseille","lat":43.28838,"lon":5.39329,"is_reserved":false,"is_disabled":false,"rental_uris":{"android":"levelo://app?vid=3129edae-58e5-429a-8dc0-b370035eb29f","ios":"levelo://app?vid=3129edae-58e5-429a-8dc0-b370035eb29f"},"vehicle_type_id":"4","last_reported":1774287729,"current_range_meters":10000,"station_id":"ce4bh2p2rcd13ifvqdi0","pricing_plan_id":"cebpf4jnsgd1na2vs0mg"},{"bike_id":"33533cb3-0e88-4a7c-8f3d-e2b084c010e4","system_id":"levelo_inurba_marseille","lat":43.30472,"lon":5.37924,"is_reserved":false,"is_disabled":false,"rental_uris":{"android":"levelo://app?vid=33533cb3-0e88-4a7c-8f3d-e2b084c010e4","ios":"levelo://app?vid=33533cb3-0e88-4a7c-8f3d-e2b084c010e4"},"vehicle_type_id":"4","last_reported":1774287729,"current_range_meters":10000,"station_id":"ce4bgup2rcd13ifvqcn0","pricing_plan_id":"cebpf4jnsgd1na2vs0mg"},{"bike_id":"800fd482-9085-4683-8bbf-3d1ddd71fafa","system_id":"levelo_inurba_marseille","lat":43.31396,"lon":5.38519,"is_reserved":false,"is_disabled":false,"rental_uris":{"android":"levelo://app?vid=800fd482-9085-4683-8bbf-3d1ddd71fafa","ios":"levelo://app?vid=800fd482-9085-4683-8bbf-3d1ddd71fafa"},"vehicle_type_id":"4","last_reported":1774287729,"current_range_meters":10000,"station_id":"ce4bgt92rcd13ifvqcf0","pricing_plan_id":"cebpf4jnsgd1na2vs0mg"},{"bike_id":"f3dccb27-25f8-415f-8a8c-207408b72398","system_id":"levelo_inurba_marseille","lat":43.3206,"lon":5.36783,"is_reserved":false,"is_disabled":false,"rental_uris":{"android":"levelo://app?vid=f3dccb27-25f8-415f-8a8c-207408b72398","ios":"levelo://app?vid=f3dccb27-25f8-415f-8a8c-207408b72398"},"vehicle_type_id":"4","last_reported":1774287729,"current_range_meters":10000,"station_id":"ce4bhrh2rcd13ifvqhug","pricing_plan_id":"cebpf4jnsgd1na2vs0mg"},{"bike_id":"88826640-cadc-45ed-9e67-e4a1bbb3ddf2","system_id":"levelo_inurba_marseille","lat":43.29043,"lon":5.3997,"is_reserved":false,"is_disabled":false,"rental_uris":{"android":"levelo://app?vid=88826640-cadc-45ed-9e67-e4a1bbb3ddf2","ios":"levelo://app?vid=88826640-cadc-45ed-9e67-e4a1bbb3ddf2"},"vehicle_type_id":"4","last_reported":1774287729,"current_range_meters":10000,"station_id":"ce4bh392rcd13ifvqdm0","pricing_plan_id":"cebpf4jnsgd1na2vs0mg"},{"bike_id":"612c7ff3-376f-4a62-a6e7-4e4a989afd36","system_id":"levelo_inurba_marseille","lat":43.295311,"lon":5.385619,"is_reserved":false,"is_disabled":false,"rental_uris":{"android":"levelo://app?vid=612c7ff3-376f-4a62-a6e7-4e4a989afd36","ios":"levelo://app?vid=612c7ff3-376f-4a62-a6e7-4e4a989afd36"},"vehicle_type_id":"4","last_reported":1774287729,"current_range_meters":10000,"station_id":"ce4bgih2rcd13ifvqba0","pricing_plan_id":"cebpf4jnsgd1na2vs0mg"},{"bike_id":"8d8566de-f03a-4e5e-aa8c-ad2e3c17ab03","system_id":"levelo_inurba_marseille","lat":43.31577,"lon":5.37365,"is_reserved":false,"is_disabled":false,"rental_uris":{"android":"levelo://app?vid=8d8566de-f03a-4e5e-aa8c-ad2e3c17ab03","ios":"levelo://app?vid=8d8566de-f03a-4e5e-aa8c-ad2e3c17ab03"},"vehicle_type_id":"4","last_reported":1774287729,"current_range_meters":10000,"station_id":"","pricing_plan_id":"cebpf4jnsgd1na2vs0mg"},{"bike_id":"1206b80d-08df-4dbc-999c-48aabe775d89","system_id":"levelo_inurba_marseille","lat":43.3029,"lon":5.44958,"is_reserved":false,"is_disabled":false,"rental_uris":{"android":"levelo://app?vid=1206b80d-08df-4dbc-999c-48aabe775d89","ios":"levelo://app?vid=1206b80d-08df-4dbc-999c-48aabe775d89"},"vehicle_type_id":"4","last_reported":1774287729,"current_range_meters":10000,"station_id":"","pricing_plan_id":"cebpf4jnsgd1na2vs0mg"},{"bike_id":"0b019611-b110-4007-bae8-21b1b0d28e19","system_id":"levelo_inurba_marseille","lat":43.31328,"lon":5.39691,"is_reserved":false,"is_disabled":false,"rental_uris":{"android":"levelo://app?vid=0b019611-b110-4007-bae8-21b1b0d28e19","ios":"levelo://app?vid=0b019611-b110-4007-bae8-21b1b0d28e19"},"vehicle_type_id":"4","last_reported":1774287729,"current_range_meters":10800,"station_id":"ce4bgvp2rcd13ifvqcu0","pricing_plan_id":"cebpf4jnsgd1na2vs0mg"},{"bike_id":"0e2f4137-e82a-401c-945f-6a1c7c098239","system_id":"levelo_inurba_marseille","lat":43.29618,"lon":5.37142,"is_reserved":false,"is_disabled":false,"rental_uris":{"android":"levelo://app?vid=0e2f4137-e82a-401c-945f-6a1c7c098239","ios":"levelo://app?vid=0e2f4137-e82a-401c-945f-6a1c7c098239"},"vehicle_type_id":"4","last_reported":1774287729,"current_range_meters":10800,"station_id":"ce4bgnh2rcd13ifvqc0g","pricing_plan_id":"cebpf4jnsgd1na2vs0mg"},{"bike_id":"b75036ac-d81d-4bfd-a9c8-a051a6ff39fe","system_id":"levelo_inurba_marseille","lat":43.28529,"lon":5.44126,"is_reserved":false,"is_disabled":false,"rental_uris":{"android":"levelo://app?vid=b75036ac-d81d-4bfd-a9c8-a051a6ff39fe","ios":"levelo://app?vid=b75036ac-d81d-4bfd-a9c8-a051a6ff39fe"},"vehicle_type_id":"4","last_reported":1774287729,"current_range_meters":10800,"station_id":"st_d3j3df2ikq2c7380ej80","pricing_plan_id":"cebpf4jnsgd1na2vs0mg"},{"bike_id":"efe811b6-5e10-4e8c-9e59-a484522fb832","system_id":"levelo_inurba_marseille","lat":43.25576,"lon":5.38226,"is_reserved":false,"is_disabled":false,"rental_uris":{"android":"levelo://app?vid=efe811b6-5e10-4e8c-9e59-a484522fb832","ios":"levelo://app?vid=efe811b6-5e10-4e8c-9e59-a484522fb832"},"vehicle_type_id":"4","last_reported":1774287729,"current_range_meters":10800,"station_id":"ce4bhih2rcd13ifvqfs0","pricing_plan_id":"cebpf4jnsgd1na2vs0mg"},{"bike_id":"da6972b3-b161-480b-8ef0-1ff556fc7299","system_id":"levelo_inurba_marseille","lat":43.23783,"lon":5.36623,"is_reserved":false,"is_disabled":false,"rental_uris":{"android":"levelo://app?vid=da6972b3-b161-480b-8ef0-1ff556fc7299","ios":"levelo://app?vid=da6972b3-b161-480b-8ef0-1ff556fc7299"},"vehicle_type_id":"4","last_reported":1774287729,"current_range_meters":10800,"station_id":"st_d3nk18o9ro0c73en2l3g","pricing_plan_id":"cebpf4jnsgd1na2vs0mg"},{"bike_id":"cd91631e-c7e8-46db-b75d-7277bdfa7025","system_id":"levelo_inurba_marseille","lat":43.28434,"lon":5.39184,"is_reserved":false,"is_disabled":false,"rental_uris":{"android":"levelo://app?vid=cd91631e-c7e8-46db-b75d-7277bdfa7025","ios":"levelo://app?vid=cd91631e-c7e8-46db-b75d-7277bdfa7025"},"vehicle_type_id":"4","last_reported":1774287729,"current_range_meters":10800,"station_id":"ce4bhoh2rcd13ifvqh5g","pricing_plan_id":"cebpf4jnsgd1na2vs0mg"},{"bike_id":"82fe04f2-4c2d-4880-83f7-41b5f33b5045","system_id":"levelo_inurba_marseille","lat":43.30945,"lon":5.39014,"is_reserved":false,"is_disabled":true,"rental_uris":{"android":"levelo://app?vid=82fe04f2-4c2d-4880-83f7-41b5f33b5045","ios":"levelo://app?vid=82fe04f2-4c2d-4880-83f7-41b5f33b5045"},"vehicle_type_id":"4","last_reported":1774287729,"current_range_meters":10800,"station_id":"ce4bgup2rcd13ifvqco0","pricing_plan_id":"cebpf4jnsgd1na2vs0mg"},{"bike_id":"9a16d5f7-9e6c-4278-abd3-0e834eb319ac","system_id":"levelo_inurba_marseille","lat":43.28212,"lon":5.39053,"is_reserved":false,"is_disabled":false,"rental_uris":{"android":"levelo://app?vid=9a16d5f7-9e6c-4278-abd3-0e834eb319ac","ios":"levelo://app?vid=9a16d5f7-9e6c-4278-abd3-0e834eb319ac"},"vehicle_type_id":"4","last_reported":1774287729,"current_range_meters":10800,"station_id":"ce4bhn92rcd13ifvqgsg","pricing_plan_id":"cebpf4jnsgd1na2vs0mg"},{"bike_id":"85ab34c5-59e0-40cc-a3a4-463caccd0cc9","system_id":"levelo_inurba_marseille","lat":43.31774,"lon":5.39868,"is_reserved":false,"is_disabled":false,"rental_uris":{"android":"levelo://app?vid=85ab34c5-59e0-40cc-a3a4-463caccd0cc9","ios":"levelo://app?vid=85ab34c5-59e0-40cc-a3a4-463caccd0cc9"},"vehicle_type_id":"4","last_reported":1774287729,"current_range_meters":10800,"station_id":"","pricing_plan_id":"cebpf4jnsgd1na2vs0mg"},{"bike_id":"60e39849-1d32-4745-8764-0eb454d04c5f","system_id":"levelo_inurba_marseille","lat":43.29536,"lon":5.42302,"is_reserved":false,"is_disabled":true,"rental_uris":{"android":"levelo://app?vid=60e39849-1d32-4745-8764-0eb454d04c5f","ios":"levelo://app?vid=60e39849-1d32-4745-8764-0eb454d04c5f"},"vehicle_type_id":"4","last_reported":1774287729,"current_range_meters":10800,"station_id":"ce4bhph2rcd13ifvqhdg","pricing_plan_id":"cebpf4jnsgd1na2vs0mg"},{"bike_id":"15e2d87f-6fc3-4a62-827c-15a431daeee6","system_id":"levelo_inurba_marseille","lat":43.29878,"lon":5.38896,"is_reserved":false,"is_disabled":false,"rental_uris":{"android":"levelo://app?vid=15e2d87f-6fc3-4a62-827c-15a431daeee6","ios":"levelo://app?vid=15e2d87f-6fc3-4a62-827c-15a431daeee6"},"vehicle_type_id":"4","last_reported":1774287729,"current_range_meters":10800,"station_id":"ce4bh392rcd13ifvqdl0","pricing_plan_id":"cebpf4jnsgd1na2vs0mg"},{"bike_id":"af7c1f9c-314f-45cf-a27e-b868a4e0f9c3","system_id":"levelo_inurba_marseille","lat":43.26563,"lon":5.39026,"is_reserved":false,"is_disabled":false,"rental_uris":{"android":"levelo://app?vid=af7c1f9c-314f-45cf-a27e-b868a4e0f9c3","ios":"levelo://app?vid=af7c1f9c-314f-45cf-a27e-b868a4e0f9c3"},"vehicle_type_id":"4","last_reported":1774287729,"current_range_meters":10800,"station_id":"ce4bhe12rcd13ifvqf30","pricing_plan_id":"cebpf4jnsgd1na2vs0mg"},{"bike_id":"c3ffa20a-9e8b-4815-ae4a-b5c1a5ed7334","system_id":"levelo_inurba_marseille","lat":43.31534,"lon":5.38039,"is_reserved":false,"is_disabled":false,"rental_uris":{"android":"levelo://app?vid=c3ffa20a-9e8b-4815-ae4a-b5c1a5ed7334","ios":"levelo://app?vid=c3ffa20a-9e8b-4815-ae4a-b5c1a5ed7334"},"vehicle_type_id":"4","last_reported":1774287729,"current_range_meters":10800,"station_id":"ce4bhsp2rcd13ifvqi50","pricing_plan_id":"cebpf4jnsgd1na2vs0mg"},{"bike_id":"b9d157e4-adb0-4d64-b93d-349f42c39fcf","system_id":"levelo_inurba_marseille","lat":43.31904,"lon":5.36785,"is_reserved":false,"is_disabled":false,"rental_uris":{"android":"levelo://app?vid=b9d157e4-adb0-4d64-b93d-349f42c39fcf","ios":"levelo://app?vid=b9d157e4-adb0-4d64-b93d-349f42c39fcf"},"vehicle_type_id":"4","last_reported":1774287729,"current_range_meters":10800,"station_id":"st_d6o2h0d0559c73evc1b0","pricing_plan_id":"cebpf4jnsgd1na2vs0mg"},