{"last_updated":1692389218,"ttl":30,"version":"2.2","data":{"bikes":[{"bike_id":"f22ca441-4e4e-4660-b824-b2f46943e54d","system_id":"levelo_inurba_marseille","lat":43.31232,"lon":5.36891,"is_reserved":false,"is_disabled":false,"rental_uris":{"android":"levelo://app?vid=f22ca441-4e4e-4660-b824-b2f46943e54d","ios":"levelo://app?vid=f22ca441-4e4e-4660-b824-b2f46943e54d"},"vehicle_type_id":"4","last_reported":1692389218,"current_range_meters":31600,"station_id":"ce4bgl92rcd13ifvqbq0","pricing_plan_id":"free"},{"bike_id":"492c890f-762d-4779-9020-3f8f16d53c62","system_id":"levelo_inurba_marseille","lat":43.309076,"lon":5.368465,"is_reserved":false,"is_disabled":false,"rental_uris":{"android":"levelo://app?vid=492c890f-762d-4779-9020-3f8f16d53c62","ios":"levelo://app?vid=492c890f-762d-4779-9020-3f8f16d53c62"},"vehicle_type_id":"4","last_reported":1692389218,"current_range_meters":0,"station_id":"ce4bgn92rcd13ifvqbvg","pricing_plan_id":"free"},{"bike_id":"7a862b3f-9216-4d75-b31d-1de4077ac154","system_id":"levelo_inurba_marseille","lat":43.314811,"lon":5.373103,"is_reserved":false,"is_disabled":false,"rental_uris":{"android":"levelo://app?vid=7a862b3f-9216-4d75-b31d-1de4077ac154","ios":"levelo://app?vid=7a862b3f-9216-4d75-b31d-1de4077ac154"},"vehicle_type_id":"4","last_reported":1692389218,"current_range_meters":30000,"station_id":"ce4bgt12rcd13ifvqcd0","pricing_plan_id":"free"},{"bike_id":"a6bf38f1-7c90-4059-b987-be26a6a4a422","system_id":"levelo_inurba_marseille","lat":43.31487,"lon":5.37309,"is_reserved":false,"is_disabled":false,"rental_uris":{"android":"levelo://app?vid=a6bf38f1-7c90-4059-b987-be26a6a4a422","ios":"levelo://app?vid=a6bf38f1-7c90-4059-b987-be26a6a4a422"},"vehicle_type_id":"4","last_reported":1692389218,"current_range_meters":28400,"station_id":"ce4bgt12rcd13ifvqcd0","pricing_plan_id":"free"},{"bike_id":"d117e67a-e43b-467b-afd2-5bda29fcc86e","system_id":"levelo_inurba_marseille","lat":43.314811,"lon":5.373104,"is_reserved":false,"is_disabled":false,"rental_uris":{"android":"levelo://app?vid=d117e67a-e43b-467b-afd2-5bda29fcc86e","ios":"levelo://app?vid=d117e67a-e43b-467b-afd2-5bda29fcc86e"},"vehicle_type_id":"4","last_reported":1692389218,"current_range_meters":15600,"station_id":"ce4bgt12rcd13ifvqcd0","pricing_plan_id":"free"},{"bike_id":"4fe830ea-9324-460d-a3fe-fec5f2739f4e","system_id":"levelo_inurba_marseille","lat":43.314811,"lon":5.373103,"is_reserved":false,"is_disabled":false,"rental_uris":{"android":"levelo://app?vid=4fe830ea-9324-460d-a3fe-fec5f2739f4e","ios":"levelo://app?vid=4fe830ea-9324-460d-a3fe-fec5f2739f4e"},"vehicle_type_id":"4","last_reported":1692389218,"current_range_meters":28800,"station_id":"ce4bgt12rcd13ifvqcd0","pricing_plan_id":"free"},{"bike_id":"729033c9-8d5b-428f-a4c8-bd753c518e66","system_id":"levelo_inurba_marseille","lat":43.309039,"lon":5.371797,"is_reserved":false,"is_disabled":false,"rental_uris":{"android":"levelo://app?vid=729033c9-8d5b-428f-a4c8-bd753c518e66","ios":"levelo://app?vid=729033c9-8d5b-428f-a4c8-bd753c518e66"},"vehicle_type_id":"4","last_reported":1692389218,"current_range_meters":12000,"station_id":"ce4bguh2rcd13ifvqckg","pricing_plan_id":"free"},{"bike_id":"d80d6f82-69d5-48d8-a61d-ca29c11ee410","system_id":"levelo_inurba_marseille","lat":43.309039,"lon":5.371797,"is_reserved":false,"is_disabled":false,"rental_uris":{"android":"levelo://app?vid=d80d6f82-69d5-48d8-a61d-ca29c11ee410","ios":"levelo://app?vid=d80d6f82-69d5-48d8-a61d-ca29c11ee410"},"vehicle_type_id":"4","last_reported":1692389218,"current_range_meters":22000,"station_id":"ce4bguh2rcd13ifvqckg","pricing_plan_id":"free"},{"bike_id":"9fbe6e18-d192-44c2-98b5-cafb68b41aa4","system_id":"levelo_inurba_marseille","lat":43.30533,"lon":5.36532,"is_reserved":false,"is_disabled":false,"rental_uris":{"android":"levelo://app?vid=9fbe6e18-d192-44c2-98b5-cafb68b41aa4","ios":"levelo://app?vid=9fbe6e18-d192-44c2-98b5-cafb68b41aa4"},"vehicle_type_id":"4","last_reported":1692389218,"current_range_meters":14800,"station_id":"ce4bgs12rcd13ifvqcag","pricing_plan_id":"free"},{"bike_id":"386ed8e3-b71e-4f68-86af-202c5b76503e","system_id":"levelo_inurba_marseille","lat":43.30523,"lon":5.36705,"is_reserved":false,"is_disabled":false,"rental_uris":{"android":"levelo://app?vid=386ed8e3-b71e-4f68-86af-202c5b76503e","ios":"levelo://app?vid=386ed8e3-b71e-4f68-86af-202c5b76503e"},"vehicle_type_id":"4","last_reported":1692389218,"current_range_meters":28800,"station_id":"ce4bgrp2rcd13ifvqc9g","pricing_plan_id":"free"},{"bike_id":"bd7db75c-cb61-42c9-9772-4d861907667d","system_id":"levelo_inurba_marseille","lat":43.305989,"lon":5.37225,"is_reserved":false,"is_disabled":false,"rental_uris":{"android":"levelo://app?vid=bd7db75c-cb61-42c9-9772-4d861907667d","ios":"levelo://app?vid=bd7db75c-cb61-42c9-9772-4d861907667d"},"vehicle_type_id":"4","last_reported":1692389218,"current_range_meters":10800,"station_id":"ce4bgqh2rcd13ifvqc4g","pricing_plan_id":"free"},{"bike_id":"90173a3c-5ffb-4aca-994e-257854bd42d1","system_id":"levelo_inurba_marseille","lat":43.305989,"lon":5.37225,"is_reserved":false,"is_disabled":false,"rental_uris":{"android":"levelo://app?vid=90173a3c-5ffb-4aca-994e-257854bd42d1","ios":"levelo://app?vid=90173a3c-5ffb-4aca-994e-257854bd42d1"},"vehicle_type_id":"4","last_reported":1692389218,"current_range_meters":14400,"station_id":"ce4bgqh2rcd13ifvqc4g","pricing_plan_id":"free"},{"bike_id":"f7b5cc4e-2531-4ac5-9c85-032205d797e9","system_id":"levelo_inurba_marseille","lat":43.305989,"lon":5.37225,"is_reserved":false,"is_disabled":false,"rental_uris":{"android":"levelo://app?vid=f7b5cc4e-2531-4ac5-9c85-032205d797e9","ios":"levelo://app?vid=f7b5cc4e-2531-4ac5-9c85-032205d797e9"},"vehicle_type_id":"4","last_reported":1692389218,"current_range_meters":20000,"station_id":"ce4bgqh2rcd13ifvqc4g","pricing_plan_id":"free"},{"bike_id":"9e0419fd-ea03-46cf-9210-7e6cb40c347e","system_id":"levelo_inurba_marseille","lat":43.311125,"lon":5.377624,"is_reserved":false,"is_disabled":false,"rental_uris":{"android":"levelo://app?vid=9e0419fd-ea03-46cf-9210-7e6cb40c347e","ios":"levelo://app?vid=9e0419fd-ea03-46cf-9210-7e6cb40c347e"},"vehicle_type_id":"4","last_reported":1692389218,"current_range_meters":7600,"station_id":"ce4bgt92rcd13ifvqcg0","pricing_plan_id":"free"},{"bike_id":"21e7e65d-ce60-4b85-a652-e8908c4e0528","system_id":"levelo_inurba_marseille","lat":43.311125,"lon":5.377624,"is_reserved":false,"is_disabled":false,"rental_uris":{"android":"levelo://app?vid=21e7e65d-ce60-4b85-a652-e8908c4e0528","ios":"levelo://app?vid=21e7e65d-ce60-4b85-a652-e8908c4e0528"},"vehicle_type_id":"4","last_reported":1692389218,"current_range_meters":15600,"station_id":"ce4bgt92rcd13ifvqcg0","pricing_plan_id":"free"},{"bike_id":"3d5ef014-6dd3-434c-8973-58fa2c316faf","system_id":"levelo_inurba_marseille","lat":43.311125,"lon":5.377624,"is_reserved":false,"is_disabled":false,"rental_uris":{"android":"levelo://app?vid=3d5ef014-6dd3-434c-8973-58fa2c316faf","ios":"levelo://app?vid=3d5ef014-6dd3-434c-8973-58fa2c316faf"},"vehicle_type_id":"4","last_reported":1692389218,"current_range_meters":24800,"station_id":"ce4bgt92rcd13ifvqcg0","pricing_plan_id":"free"},{"bike_id":"17795b23-def9-4891-a3dc-118b4277a6cf","system_id":"levelo_inurba_marseille","lat":43.307945,"lon":5.376487,"is_reserved":false,"is_disabled":false,"rental_uris":{"android":"levelo://app?vid=17795b23-def9-4891-a3dc-118b4277a6cf","ios":"levelo://app?vid=17795b23-def9-4891-a3dc-118b4277a6cf"},"vehicle_type_id":"4","last_reported":1692389218,"current_range_meters":24000,"station_id":"ce4bgv92rcd13ifvqcq0","pricing_plan_id":"free"},{"bike_id":"9e2ade74-71b6-49d5-836d-53aa4b918390","system_id":"levelo_inurba_marseille","lat":43.31689,"lon":5.37745,"is_reserved":false,"is_disabled":false,"rental_uris":{"android":"levelo://app?vid=9e2ade74-71b6-49d5-836d-53aa4b918390","ios":"levelo://app?vid=9e2ade74-71b6-49d5-836d-53aa4b918390"},"vehicle_type_id":"4","last_reported":1692389218,"current_range_meters":25600,"station_id":"ce4bgth2rcd13ifvqch0","pricing_plan_id":"free"},{"bike_id":"a6651547-d993-431a-9bb2-3389a1270c4d","system_id":"levelo_inurba_marseille","lat":43.31534,"lon":5.38024,"is_reserved":false,"is_disabled":false,"rental_uris":{"android":"levelo://app?vid=a6651547-d993-431a-9bb2-3389a1270c4d","ios":"levelo://app?vid=a6651547-d993-431a-9bb2-3389a1270c4d"},"vehicle_type_id":"4","last_reported":1692389218,"current_range_meters":28800,"station_id":"ce4bhsp2rcd13ifvqi50","pricing_plan_id":"free"},{"bike_id":"28b8c7fd-4c88-403f-9814-975b1d0e7007","system_id":"levelo_inurba_marseille","lat":43.315293,"lon":5.380349,"is_reserved":false,"is_disabled":false,"rental_uris":{"android":"levelo://app?vid=28b8c7fd-4c88-403f-9814-975b1d0e7007","ios":"levelo://app?vid=28b8c7fd-4c88-403f-9814-975b1d0e7007"},"vehicle_type_id":"4","last_reported":1692389218,"current_range_meters":28400,"station_id":"ce4bhsp2rcd13ifvqi50","pricing_plan_id":"free"},{"bike_id":"bfd18b81-7891-4c2a-9875-8c3cac67fc01","system_id":"levelo_inurba_marseille","lat":43.315293,"lon":5.380349,"is_reserved":false,"is_disabled":false,"rental_uris":{"android":"levelo://app?vid=bfd18b81-7891-4c2a-9875-8c3cac67fc01","ios":"levelo://app?vid=bfd18b81-7891-4c2a-9875-8c3cac67fc01"},"vehicle_type_id":"4","last_reported":1692389218,"current_range_meters":30000,"station_id":"ce4bhsp2rcd13ifvqi50","pricing_plan_id":"free"},{"bike_id":"ae206411-eaa8-4ac8-9636-8149e80af6c8","system_id":"levelo_inurba_marseille","lat":43.31534,"lon":5.38028,"is_reserved":false,"is_disabled":false,"rental_uris":{"android":"levelo://app?vid=ae206411-eaa8-4ac8-9636-8149e80af6c8","ios":"levelo://app?vid=ae206411-eaa8-4ac8-9636-8149e80af6c8"},"vehicle_type_id":"4","last_reported":1692389218,"current_range_meters":19200,"station_id":"ce4bhsp2rcd13ifvqi50","pricing_plan_id":"free"},{"bike_id":"2ea97f1a-1347-4738-a08b-7b9e24416fd8","system_id":"levelo_inurba_marseille","lat":43.31525,"lon":5.38032,"is_reserved":false,"is_disabled":false,"rental_uris":{"android":"levelo://app?vid=2ea97f1a-1347-4738-a08b-7b9e24416fd8","ios":"levelo://app?vid=2ea97f1a-1347-4738-a08b-7b9e24416fd8"},"vehicle_type_id":"4","last_reported":1692389218,"current_range_meters":21200,"station_id":"ce4bhsp2rcd13ifvqi50","pricing_plan_id":"free"},{"bike_id":"b1ce8c2f-d585-4193-8765-0ab0d3fd8f86","system_id":"levelo_inurba_marseille","lat":43.315293,"lon":5.380349,"is_reserved":false,"is_disabled":false,"rental_uris":{"android":"levelo://app?vid=b1ce8c2f-d585-4193-8765-0ab0d3fd8f86","ios":"levelo://app?vid=b1ce8c2f-d585-4193-8765-0ab0d3fd8f86"},"vehicle_type_id":"4","last_reported":1692389218,"current_range_meters":18000,"station_id":"ce4bhsp2rcd13ifvqi50","pricing_plan_id":"free"},{"bike_id":"1371b4ca-3860-4ff7-a6a1-15c1250fb196","system_id":"levelo_inurba_marseille","lat":43.31534,"lon":5.38033,"is_reserved":false,"is_disabled":false,"rental_uris":{"android":"levelo://app?vid=1371b4ca-3860-4ff7-a6a1-15c1250fb196","ios":"levelo://app?vid=1371b4ca-3860-4ff7-a6a1-15c1250fb196"},"vehicle_type_id":"4","last_reported":1692389218,"current_range_meters":21200,"station_id":"ce4bhsp2rcd13ifvqi50","pricing_plan_id":"free"},{"bike_id":"58d8d104-8d3f-4976-99f8-939c4abc52f7","system_id":"levelo_inurba_marseille","lat":43.315293,"lon":5.380349,"is_reserved":false,"is_disabled":false,"rental_uris":{"android":"levelo://app?vid=58d8d104-8d3f-4976-99f8-939c4abc52f7","ios":"levelo://app?vid=58d8d104-8d3f-4976-99f8-939c4abc52f7"},"vehicle_type_id":"4","last_reported":1692389218,"current_range_meters":14000,"station_id":"ce4bhsp2rcd13ifvqi50","pricing_plan_id":"free"},{"bike_id":"e3310298-fb10-4c18-ae38-2570af28e985","system_id":"levelo_inurba_marseille","lat":43.315289,"lon":5.380349,"is_reserved":false,"is_disabled":false,"rental_uris":{"android":"levelo://app?vid=e3310298-fb10-4c18-ae38-2570af28e985","ios":"levelo://app?vid=e3310298-fb10-4c18-ae38-2570af28e985"},"vehicle_type_id":"4","last_reported":1692389218,"current_range_meters":8800,"station_id":"ce4bhsp2rcd13ifvqi50","pricing_plan_id":"free"},{"bike_id":"784dd607-42ba-4c87-aa30-553f0fab1303","system_id":"levelo_inurba_marseille","lat":43.31526,"lon":5.38038,"is_reserved":false,"is_disabled":false,"rental_uris":{"android":"levelo://app?vid=784dd607-42ba-4c87-aa30-553f0fab1303","ios":"levelo://app?vid=784dd607-42ba-4c87-aa30-553f0fab1303"},"vehicle_type_id":"4","last_reported":1692389218,"current_range_meters":17600,"station_id":"ce4bhsp2rcd13ifvqi50","pricing_plan_id":"free"},{"bike_id":"0d20c648-5861-4067-90df-a6f48ef2b067","system_id":"levelo_inurba_marseille","lat":43.301939,"lon":5.366286,"is_reserved":false,"is_disabled":false,"rental_uris":{"android":"levelo://app?vid=0d20c648-5861-4067-90df-a6f48ef2b067","ios":"levelo://app?vid=0d20c648-5861-4067-90df-a6f48ef2b067"},"vehicle_type_id":"4","last_reported":1692389218,"current_range_meters":18400,"station_id":"ce4bgrh2rcd13ifvqc8g","pricing_plan_id":"free"},{"bike_id":"af4909df-9026-4404-b23a-0a3ba531a647","system_id":"levelo_inurba_marseille","lat":43.30183,"lon":5.36616,"is_reserved":false,"is_disabled":false,"rental_uris":{"android":"levelo://app?vid=af4909df-9026-4404-b23a-0a3ba531a647","ios":"levelo://app?vid=af4909df-9026-4404-b23a-0a3ba531a647"},"vehicle_type_id":"4","last_reported":1692389218,"current_range_meters":22400,"station_id":"ce4bgrh2rcd13ifvqc8g","pricing_plan_id":"free"},{"bike_id":"b7d27f4b-8b3e-4ec8-9b29-9ebe31e92f4d","system_id":"levelo_inurba_marseille","lat":43.30801,"lon":5.38145,"is_reserved":false,"is_disabled":false,"rental_uris":{"android":"levelo://app?vid=b7d27f4b-8b3e-4ec8-9b29-9ebe31e92f4d","ios":"levelo://app?vid=b7d27f4b-8b3e-4ec8-9b29-9ebe31e92f4d"},"vehicle_type_id":"4","last_reported":1692389218,"current_range_meters":29600,"station_id":"ce4bgt12rcd13ifvqce0","pricing_plan_id":"free"},{"bike_id":"9e6ebe6c-6d21-471a-b46f-c2305f56f84c","system_id":"levelo_inurba_marseille","lat":43.304606,"lon":5.379026,"is_reserved":false,"is_disabled":false,"rental_uris":{"android":"levelo://app?vid=9e6ebe6c-6d21-471a-b46f-c2305f56f84c","ios":"levelo://app?vid=9e6ebe6c-6d21-471a-b46f-c2305f56f84c"},"vehicle_type_id":"4","last_reported":1692389218,"current_range_meters":29600,"station_id":"ce4bgup2rcd13ifvqcn0","pricing_plan_id":"free"},{"bike_id":"f1a82e44-5360-43c3-bf73-9f17df1e6c69","system_id":"levelo_inurba_marseille","lat":43.304606,"lon":5.379026,"is_reserved":false,"is_disabled":false,"rental_uris":{"android":"levelo://app?vid=f1a82e44-5360-43c3-bf73-9f17df1e6c69","ios":"levelo://app?vid=f1a82e44-5360-43c3-bf73-9f17df1e6c69"},"vehicle_type_id":"4","last_reported":1692389218,"current_range_meters":26800,"station_id":"ce4bgup2rcd13ifvqcn0","pricing_plan_id":"free"},{"bike_id":"1d3b0a9f-2070-4fae-81f3-a89b19f768cb","system_id":"levelo_inurba_marseille","lat":43.304606,"lon":5.379026,"is_reserved":false,"is_disabled":false,"rental_uris":{"android":"levelo://app?vid=1d3b0a9f-2070-4fae-81f3-a89b19f768cb","ios":"levelo://app?vid=1d3b0a9f-2070-4fae-81f3-a89b19f768cb"},"vehicle_type_id":"4","last_reported":1692389218,"current_range_meters":31200,"station_id":"ce4bgup2rcd13ifvqcn0","pricing_plan_id":"free"},{"bike_id":"b7ce8a6e-a107-4ca8-81a8-6ae930bcc278","system_id":"levelo_inurba_marseille","lat":43.304606,"lon":5.379026,"is_reserved":false,"is_disabled":false,"rental_uris":{"android":"levelo://app?vid=b7ce8a6e-a107-4ca8-81a8-6ae930bcc278","ios":"levelo://app?vid=b7ce8a6e-a107-4ca8-81a8-6ae930bcc278"},"vehicle_type_id":"4","last_reported":1692389218,"current_range_meters":31200,"station_id":"ce4bgup2rcd13ifvqcn0","pricing_plan_id":"free"},{"bike_id":"44e27681-7ac7-4655-ba65-37f7b0cf7452","system_id":"levelo_inurba_marseille","lat":43.304606,"lon":5.379026,"is_reserved":false,"is_disabled":false,"rental_uris":{"android":"levelo://app?vid=44e27681-7ac7-4655-ba65-37f7b0cf7452","ios":"levelo://app?vid=44e27681-7ac7-4655-ba65-37f7b0cf7452"},"vehicle_type_id":"4","last_reported":1692389218,"current_range_meters":29200,"station_id":"ce4bgup2rcd13ifvqcn0","pricing_plan_id":"free"},{"bike_id":"38085436-0f18-4418-a46f-716d99c35e90","system_id":"levelo_inurba_marseille","lat":43.301451,"lon":5.374231,"is_reserved":false,"is_disabled":false,"rental_uris":{"android":"levelo://app?vid=38085436-0f18-4418-a46f-716d99c35e90","ios":"levelo://app?vid=38085436-0f18-4418-a46f-716d99c35e90"},"vehicle_type_id":"4","last_reported":1692389218,"current_range_meters":0,"station_id":"ce4bgs92rcd13ifvqcc0","pricing_plan_id":"free"},{"bike_id":"64101f2f-5146-42ba-9eb0-70bf3c1590ef","system_id":"levelo_inurba_marseille","lat":43.30143,"lon":5.37428,"is_reserved":false,"is_disabled":false,"rental_uris":{"android":"levelo://app?vid=64101f2f-5146-42ba-9eb0-70bf3c1590ef","ios":"levelo://app?vid=64101f2f-5146-42ba-9eb0-70bf3c1590ef"},"vehicle_type_id":"4","last_reported":1692389218,"current_range_meters":0,"station_id":"ce4bgs92rcd13ifvqcc0","pricing_plan_id":"free"},{"bike_id":"27f42fd0-2d3f-4f54-ad9b-35cfde011298","system_id":"levelo_inurba_marseille","lat":43.319935,"lon":5.381699,"is_reserved":false,"is_disabled":false,"rental_uris":{"android":"levelo://app?vid=27f42fd0-2d3f-4f54-ad9b-35cfde011298","ios":"levelo://app?vid=27f42fd0-2d3f-4f54-ad9b-35cfde011298"},"vehicle_type_id":"4","last_reported":1692389218,"current_range_meters":28400,"station_id":"ce4bhr12rcd13ifvqhpg","pricing_plan_id":"free"},{"bike_id":"8f9423b6-2f75-4d37-9601-472d76ede970","system_id":"levelo_inurba_marseille","lat":43.31364,"lon":5.38468,"is_reserved":false,"is_disabled":false,"rental_uris":{"android":"levelo://app?vid=8f9423b6-2f75-4d37-9601-472d76ede970","ios":"levelo://app?vid=8f9423b6-2f75-4d37-9601-472d76ede970"},"vehicle_type_id":"4","last_reported":1692389218,"current_range_meters":11200,"station_id":"ce4bgt92rcd13ifvqcf0","pricing_plan_id":"free"},{"bike_id":"38c37c5f-f654-4be8-be67-10214d629724","system_id":"levelo_inurba_marseille","lat":43.313571,"lon":5.384829,"is_reserved":false,"is_disabled":false,"rental_uris":{"android":"levelo://app?vid=38c37c5f-f654-4be8-be67-10214d629724","ios":"levelo://app?vid=38c37c5f-f654-4be8-be67-10214d629724"},"vehicle_type_id":"4","last_reported":1692389218,"current_range_meters":5200,"station_id":"ce4bgt92rcd13ifvqcf0","pricing_plan_id":"free"},{"bike_id":"217770fc-a016-4820-9001-aed0edd8e68e","system_id":"levelo_inurba_marseille","lat":43.2993,"lon":5.36552,"is_reserved":false,"is_disabled":false,"rental_uris":{"android":"levelo://app?vid=217770fc-a016-4820-9001-aed0edd8e68e","ios":"levelo://app?vid=217770fc-a016-4820-9001-aed0edd8e68e"},"vehicle_type_id":"4","last_reported":1692389218,"current_range_meters":18000,"station_id":"ce4bgm92rcd13ifvqbr0","pricing_plan_id":"free"},{"bike_id":"210ca47b-4767-44ed-8fcc-c603eabdbbf7","system_id":"levelo_inurba_marseille","lat":43.299724,"lon":5.371829,"is_reserved":false,"is_disabled":false,"rental_uris":{"android":"levelo://app?vid=210ca47b-4767-44ed-8fcc-c603eabdbbf7","ios":"levelo://app?vid=210ca47b-4767-44ed-8fcc-c603eabdbbf7"},"vehicle_type_id":"4","last_reported":1692389218,"current_range_meters":1600,"station_id":"ce4bgr92rcd13ifvqc7g","pricing_plan_id":"free"},{"bike_id":"5261520e-d91e-45f3-a4a0-a82004806d83","system_id":"levelo_inurba_marseille","lat":43.311722,"lon":5.387247,"is_reserved":false,"is_disabled":false,"rental_uris":{"android":"levelo://app?vid=5261520e-d91e-45f3-a4a0-a82004806d83","ios":"levelo://app?vid=5261520e-d91e-45f3-a4a0-a82004806d83"},"vehicle_type_id":"4","last_reported":1692389218,"current_range_meters":12800,"station_id":"ce4bgv12rcd13ifvqcp0","pricing_plan_id":"free"},{"bike_id":"96738f0b-67be-4ec4-94f5-d8c2c2bf7f8c","system_id":"levelo_inurba_marseille","lat":43.309034,"lon":5.371783,"is_reserved":false,"is_disabled":false,"rental_uris":{"android":"levelo://app?vid=96738f0b-67be-4ec4-94f5-d8c2c2bf7f8c","ios":"levelo://app?vid=96738f0b-67be-4ec4-94f5-d8c2c2bf7f8c"},"vehicle_type_id":"4","last_reported":1692389218,"current_range_meters":16000,"station_id":"ce4bguh2rcd13ifvqckg","pricing_plan_id":"free"},{"bike_id":"82c94f95-79e6-4c58-bed8-c76d9265c1ee","system_id":"levelo_inurba_marseille","lat":43.305364,"lon":5.384119,"is_reserved":false,"is_disabled":false,"rental_uris":{"android":"levelo://app?vid=82c94f95-79e6-4c58-bed8-c76d9265c1ee","ios":"levelo://app?vid=82c94f95-79e6-4c58-bed8-c76d9265c1ee"},"vehicle_type_id":"4","last_reported":1692389218,"current_range_meters":15200,"station_id":"ce4bgg92rcd13ifvqb30","pricing_plan_id":"free"},{"bike_id":"163a6a19-6a42-4885-b221-48e99bb2ddcb","system_id":"levelo_inurba_marseille","lat":43.30536,"lon":5.38426,"is_reserved":false,"is_disabled":false,"rental_uris":{"android":"levelo://app?vid=163a6a19-6a42-4885-b221-48e99bb2ddcb","ios":"levelo://app?vid=163a6a19-6a42-4885-b221-48e99bb2ddcb"},"vehicle_type_id":"4","last_reported":1692389218,"current_range_meters":14800,"station_id":"ce4bgg92rcd13ifvqb30","pricing_plan_id":"free"},{"bike_id":"ac195229-1cd0-45ba-ac4e-a83c47d61d25","system_id":"levelo_inurba_marseille","lat":43.30535,"lon":5.38426,"is_reserved":false,"is_disabled":false,"rental_uris":{"android":"levelo://app?vid=ac195229-1cd0-45ba-ac4e-a83c47d61d25","ios":"levelo://app?vid=ac195229-1cd0-45ba-ac4e-a83c47d61d25"},"vehicle_type_id":"4","last_reported":1692389218,"current_range_meters":20000,"station_id":"ce4bgg92rcd13ifvqb30","pricing_plan_id":"free"},{"bike_id":"647a08a8-e20e-488b-a742-f7025e179636","system_id":"levelo_inurba_marseille","lat":43.305364,"lon":5.384119,"is_reserved":false,"is_disabled":false,"rental_uris":{"android":"levelo://app?vid=647a08a8-e20e-488b-a742-f7025e179636","ios":"levelo://app?vid=647a08a8-e20e-488b-a742-f7025e179636"},"vehicle_type_id":"4","last_reported":1692389218,"current_range_meters":7200,"station_id":"ce4bgg92rcd13ifvqb30","pricing_plan_id":"free"},{"bike_id":"684b6412-b89a-4f80-b198-b6ff393f18be","system_id":"levelo_inurba_marseille","lat":43.299243,"lon":5.374807,"is_reserved":false,"is_disabled":false,"rental_uris":{"android":"levelo://app?vid=684b6412-b89a-4f80-b198-b6ff393f18be","ios":"levelo://app?vid=684b6412-b89a-4f80-b198-b6ff393f18be"},"vehicle_type_id":"4","last_reported":1692389218,"current_range_meters":22000,"station_id":"ce4bgjh2rcd13ifvqbg0","pricing_plan_id":"free"},{"bike_id":"01658df8-bbfa-4016-be7a-11ff53cc81fb","system_id":"levelo_inurba_marseille","lat":43.305354,"lon":5.384283,"is_reserved":false,"is_disabled":false,"rental_uris":{"android":"levelo://app?vid=01658df8-bbfa-4016-be7a-11ff53cc81fb","ios":"levelo://app?vid=01658df8-bbfa-4016-be7a-11ff53cc81fb"},"vehicle_type_id":"4","last_reported":1692389218,"current_range_meters":21600,"station_id":"ce4bgg92rcd13ifvqb30","pricing_plan_id":"free"},{"bike_id":"cd4c7ca9-f0ec-42e6-9c30-6841c5c9957c","system_id":"levelo_inurba_marseille","lat":43.311722,"lon":5.387247,"is_reserved":false,"is_disabled":false,"rental_uris":{"android":"levelo://app?vid=cd4c7ca9-f0ec-42e6-9c30-6841c5c9957c","ios":"levelo://app?vid=cd4c7ca9-f0ec-42e6-9c30-6841c5c9957c"},"vehicle_type_id":"4","last_reported":1692389218,"current_range_meters":18400,"station_id":"ce4bgv12rcd13ifvqcp0","pricing_plan_id":"free"},{"bike_id":"608e5653-c0fc-4b74-9cdb-07194e64f605","system_id":"levelo_inurba_marseille","lat":43.311722,"lon":5.387247,"is_reserved":false,"is_disabled":false,"rental_uris":{"android":"levelo://app?vid=608e5653-c0fc-4b74-9cdb-07194e64f605","ios":"levelo://app?vid=608e5653-c0fc-4b74-9cdb-07194e64f605"},"vehicle_type_id":"4","last_reported":1692389218,"current_range_meters":11600,"station_id":"ce4bgv12rcd13ifvqcp0","pricing_plan_id":"free"},{"bike_id":"27f870bf-caca-4398-a865-f8c0c3fe2a64","system_id":"levelo_inurba_marseille","lat":43.299243,"lon":5.37481,"is_reserved":false,"is_disabled":false,"rental_uris":{"android":"levelo://app?vid=27f870bf-caca-4398-a865-f8c0c3fe2a64","ios":"levelo://app?vid=27f870bf-caca-4398-a865-f8c0c3fe2a64"},"vehicle_type_id":"4","last_reported":1692389218,"current_range_meters":10000,"station_id":"ce4bgjh2rcd13ifvqbg0","pricing_plan_id":"free"},{"bike_id":"7583638b-d9a0-4765-9307-29e3849b972c","system_id":"levelo_inurba_marseille","lat":43.311722,"lon":5.387247,"is_reserved":false,"is_disabled":false,"rental_uris":{"android":"levelo://app?vid=7583638b-d9a0-4765-9307-29e3849b972c","ios":"levelo://app?vid=7583638b-d9a0-4765-9307-29e3849b972c"},"vehicle_type_id":"4","last_reported":1692389218,"current_range_meters":4800,"station_id":"ce4bgv12rcd13ifvqcp0","pricing_plan_id":"free"},{"bike_id":"f9036c6b-d771-44f9-ba90-660c154bded5","system_id":"levelo_inurba_marseille","lat":43.311722,"lon":5.387247,"is_reserved":false,"is_disabled":false,"rental_uris":{"android":"levelo://app?vid=f9036c6b-d771-44f9-ba90-660c154bded5","ios":"levelo://app?vid=f9036c6b-d771-44f9-ba90-660c154bded5"},"vehicle_type_id":"4","last_reported":1692389218,"current_range_meters":2800,"station_id":"ce4bgv12rcd13ifvqcp0","pricing_plan_id":"free"},{"bike_id":"6bc0237a-5c23-4d3d-86ce-886319e4f0cf","system_id":"levelo_inurba_marseille","lat":43.3262,"lon":5.37606,"is_reserved":false,"is_disabled":false,"rental_uris":{"android":"levelo://app?vid=6bc0237a-5c23-4d3d-86ce-886319e4f0cf","ios":"levelo://app?vid=6bc0237a-5c23-4d3d-86ce-886319e4f0cf"},"vehicle_type_id":"4","last_reported":1692389218,"current_range_meters":24400,"station_id":"","pricing_plan_id":"free"},{"bike_id":"8d59382f-1ea9-4f74-bcfd-1632911ac8b5","system_id":"levelo_inurba_marseille","lat":43.32621,"lon":5.37606,"is_reserved":false,"is_disabled":false,"rental_uris":{"android":"levelo://app?vid=8d59382f-1ea9-4f74-bcfd-1632911ac8b5","ios":"levelo://app?vid=8d59382f-1ea9-4f74-bcfd-1632911ac8b5"},"vehicle_type_id":"4","last_reported":1692389218,"current_range_meters":28000,"station_id":"","pricing_plan_id":"free"},{"bike_id":"5f91fc7d-0833-4a7c-a0d8-21ec0ad5455a","system_id":"levelo_inurba_marseille","lat":43.32286,"lon":5.3826,"is_reserved":false,"is_disabled":false,"rental_uris":{"android":"levelo://app?vid=5f91fc7d-0833-4a7c-a0d8-21ec0ad5455a","ios":"levelo://app?vid=5f91fc7d-0833-4a7c-a0d8-21ec0ad5455a"},"vehicle_type_id":"4","last_reported":1692389218,"current_range_meters":24800,"station_id":"ce4bhr12rcd13ifvqhqg","pricing_plan_id":"free"},{"bike_id":"a1f7b084-f437-4e0c-8b20-334f54c48d59","system_id":"levelo_inurba_marseille","lat":43.32285,"lon":5.38262,"is_reserved":false,"is_disabled":false,"rental_uris":{"android":"levelo://app?vid=a1f7b084-f437-4e0c-8b20-334f54c48d59","ios":"levelo://app?vid=a1f7b084-f437-4e0c-8b20-334f54c48d59"},"vehicle_type_id":"4","last_reported":1692389218,"current_range_meters":22400,"station_id":"ce4bhr12rcd13ifvqhqg","pricing_plan_id":"free"},{"bike_id":"b9784bc4-a1f4-4e7b-a996-3746dcc4c656","system_id":"levelo_inurba_marseille","lat":43.32284,"lon":5.38266,"is_reserved":false,"is_disabled":false,"rental_uris":{"android":"levelo://app?vid=b9784bc4-a1f4-4e7b-a996-3746dcc4c656","ios":"levelo://app?vid=b9784bc4-a1f4-4e7b-a996-3746dcc4c656"},"vehicle_type_id":"4","last_reported":1692389218,"current_range_meters":14000,"station_id":"ce4bhr12rcd13ifvqhqg","pricing_plan_id":"free"},{"bike_id":"673200d6-9c00-4797-bd65-06254571f6fe","system_id":"levelo_inurba_marseille","lat":43.32289,"lon":5.38267,"is_reserved":false,"is_disabled":false,"rental_uris":{"android":"levelo://app?vid=673200d6-9c00-4797-bd65-06254571f6fe","ios":"levelo://app?vid=673200d6-9c00-4797-bd65-06254571f6fe"},"vehicle_type_id":"4","last_reported":1692389218,"current_range_meters":26800,"station_id":"ce4bhr12rcd13ifvqhqg","pricing_plan_id":"free"},{"bike_id":"15120a69-1dc0-488d-b5dc-3813b3f3db2b","system_id":"levelo_inurba_marseille","lat":43.32288,"lon":5.38271,"is_reserved":false,"is_disabled":false,"rental_uris":{"android":"levelo://app?vid=15120a69-1dc0-488d-b5dc-3813b3f3db2b","ios":"levelo://app?vid=15120a69-1dc0-488d-b5dc-3813b3f3db2b"},"vehicle_type_id":"4","last_reported":1692389218,"current_range_meters":800,"station_id":"ce4bhr12rcd13ifvqhqg","pricing_plan_id":"free"},{"bike_id":"20066552-063e-4d3e-9e10-e0e8a6d2c838","system_id":"levelo_inurba_marseille","lat":43.3229,"lon":5.38269,"is_reserved":false,"is_disabled":false,"rental_uris":{"android":"levelo://app?vid=20066552-063e-4d3e-9e10-e0e8a6d2c838","ios":"levelo://app?vid=20066552-063e-4d3e-9e10-e0e8a6d2c838"},"vehicle_type_id":"4","last_reported":1692389218,"current_range_meters":5600,"station_id":"ce4bhr12rcd13ifvqhqg","pricing_plan_id":"free"},{"bike_id":"5b5c8cae-b425-4976-9ba8-5ae205664d6b","system_id":"levelo_inurba_marseille","lat":43.3229,"lon":5.38271,"is_reserved":false,"is_disabled":false,"rental_uris":{"android":"levelo://app?vid=5b5c8cae-b425-4976-9ba8-5ae205664d6b","ios":"levelo://app?vid=5b5c8cae-b425-4976-9ba8-5ae205664d6b"},"vehicle_type_id":"4","last_reported":1692389218,"current_range_meters":22800,"station_id":"ce4bhr12rcd13ifvqhqg","pricing_plan_id":"free"},{"bike_id":"bd67d9fb-7fe3-4a46-875c-6a0db559344c","system_id":"levelo_inurba_marseille","lat":43.3229,"lon":5.38272,"is_reserved":false,"is_disabled":false,"rental_uris":{"android":"levelo://app?vid=bd67d9fb-7fe3-4a46-875c-6a0db559344c","ios":"levelo://app?vid=bd67d9fb-7fe3-4a46-875c-6a0db559344c"},"vehicle_type_id":"4","last_reported":1692389218,"current_range_meters":26800,"station_id":"ce4bhr12rcd13ifvqhqg","pricing_plan_id":"free"},{"bike_id":"6448bada-ce13-4a40-a1db-ae0f0d08f94a","system_id":"levelo_inurba_marseille","lat":43.297774,"lon":5.370875,"is_reserved":false,"is_disabled":false,"rental_uris":{"android":"levelo://app?vid=6448bada-ce13-4a40-a1db-ae0f0d08f94a","ios":"levelo://app?vid=6448bada-ce13-4a40-a1db-ae0f0d08f94a"},"vehicle_type_id":"4","last_reported":1692389218,"current_range_meters":1600,"station_id":"ce4bgop2rcd13ifvqc1g","pricing_plan_id":"free"},{"bike_id":"733fca04-614b-4fae-906b-8689324fd10d","system_id":"levelo_inurba_marseille","lat":43.31512,"lon":5.38789,"is_reserved":false,"is_disabled":false,"rental_uris":{"android":"levelo://app?vid=733fca04-614b-4fae-906b-8689324fd10d","ios":"levelo://app?vid=733fca04-614b-4fae-906b-8689324fd10d"},"vehicle_type_id":"4","last_reported":1692389218,"current_range_meters":30400,"station_id":"","pricing_plan_id":"free"},{"bike_id":"dfeeac75-820a-4455-804e-e17b713a5fe3","system_id":"levelo_inurba_marseille","lat":43.32827,"lon":5.36684,"is_reserved":false,"is_disabled":false,"rental_uris":{"android":"levelo://app?vid=dfeeac75-820a-4455-804e-e17b713a5fe3","ios":"levelo://app?vid=dfeeac75-820a-4455-804e-e17b713a5fe3"},"vehicle_type_id":"4","last_reported":1692389218,"current_range_meters":5200,"station_id":"ce4bhs92rcd13ifvqi0g","pricing_plan_id":"free"},{"bike_id":"e3a21d07-f446-4608-85be-12a81574bffc","system_id":"levelo_inurba_marseille","lat":43.32828,"lon":5.36676,"is_reserved":false,"is_disabled":false,"rental_uris":{"android":"levelo://app?vid=e3a21d07-f446-4608-85be-12a81574bffc","ios":"levelo://app?vid=e3a21d07-f446-4608-85be-12a81574bffc"},"vehicle_type_id":"4","last_reported":1692389218,"current_range_meters":20000,"station_id":"ce4bhs92rcd13ifvqi0g","pricing_plan_id":"free"},{"bike_id":"c19114af-ab1c-4a57-8410-cc7725c9d41a","system_id":"levelo_inurba_marseille","lat":43.32832,"lon":5.36679,"is_reserved":false,"is_disabled":false,"rental_uris":{"android":"levelo://app?vid=c19114af-ab1c-4a57-8410-cc7725c9d41a","ios":"levelo://app?vid=c19114af-ab1c-4a57-8410-cc7725c9d41a"},"vehicle_type_id":"4","last_reported":1692389218,"current_range_meters":400,"station_id":"ce4bhs92rcd13ifvqi0g","pricing_plan_id":"free"},{"bike_id":"dd789220-e7b5-42c1-b9dc-dc4243148021","system_id":"levelo_inurba_marseille","lat":43.297163,"lon":5.365866,"is_reserved":false,"is_disabled":false,"rental_uris":{"android":"levelo://app?vid=dd789220-e7b5-42c1-b9dc-dc4243148021","ios":"levelo://app?vid=dd789220-e7b5-42c1-b9dc-dc4243148021"},"vehicle_type_id":"4","last_reported":1692389218,"current_range_meters":31600,"station_id":"ce4bgn12rcd13ifvqbt0","pricing_plan_id":"free"},{"bike_id":"3f4aac1a-2363-415d-bb0f-a5229a8a30c0","system_id":"levelo_inurba_marseille","lat":43.297163,"lon":5.365866,"is_reserved":false,"is_disabled":false,"rental_uris":{"android":"levelo://app?vid=3f4aac1a-2363-415d-bb0f-a5229a8a30c0","ios":"levelo://app?vid=3f4aac1a-2363-415d-bb0f-a5229a8a30c0"},"vehicle_type_id":"4","last_reported":1692389218,"current_range_meters":29600,"station_id":"ce4bgn12rcd13ifvqbt0","pricing_plan_id":"free"},{"bike_id":"462390b6-325d-490b-8bd9-86c5ea3553fa","system_id":"levelo_inurba_marseille","lat":43.2968,"lon":5.37291,"is_reserved":false,"is_disabled":false,"rental_uris":{"android":"levelo://app?vid=462390b6-325d-490b-8bd9-86c5ea3553fa","ios":"levelo://app?vid=462390b6-325d-490b-8bd9-86c5ea3553fa"},"vehicle_type_id":"4","last_reported":1692389218,"current_range_meters":27200,"station_id":"ce4bgk12rcd13ifvqbj0","pricing_plan_id":"free"},{"bike_id":"e2395d82-9667-4d11-98d0-4c1a88a0e6e3","system_id":"levelo_inurba_marseille","lat":43.2968,"lon":5.37291,"is_reserved":false,"is_disabled":false,"rental_uris":{"android":"levelo://app?vid=e2395d82-9667-4d11-98d0-4c1a88a0e6e3","ios":"levelo://app?vid=e2395d82-9667-4d11-98d0-4c1a88a0e6e3"},"vehicle_type_id":"4","last_reported":1692389218,"current_range_meters":2000,"station_id":"ce4bgk12rcd13ifvqbj0","pricing_plan_id":"free"},{"bike_id":"d3139180-8ba9-4c91-b6e4-8baae3c22113","system_id":"levelo_inurba_marseille","lat":43.296131,"lon":5.370773,"is_reserved":false,"is_disabled":false,"rental_uris":{"android":"levelo://app?vid=d3139180-8ba9-4c91-b6e4-8baae3c22113","ios":"levelo://app?vid=d3139180-8ba9-4c91-b6e4-8baae3c22113"},"vehicle_type_id":"4","last_reported":1692389218,"current_range_meters":31200,"station_id":"ce4bgnh2rcd13ifvqc0g","pricing_plan_id":"free"},{"bike_id":"bb155e93-116e-494a-9911-2df351c7dae8","system_id":"levelo_inurba_marseille","lat":43.296131,"lon":5.370791,"is_reserved":false,"is_disabled":false,"rental_uris":{"android":"levelo://app?vid=bb155e93-116e-494a-9911-2df351c7dae8","ios":"levelo://app?vid=bb155e93-116e-494a-9911-2df351c7dae8"},"vehicle_type_id":"4","last_reported":1692389218,"current_range_meters":30000,"station_id":"ce4bgnh2rcd13ifvqc0g","pricing_plan_id":"free"},{"bike_id":"c0fda312-5076-4481-b76f-a0f65f9966cc","system_id":"levelo_inurba_marseille","lat":43.299028,"lon":5.381509,"is_reserved":false,"is_disabled":false,"rental_uris":{"android":"levelo://app?vid=c0fda312-5076-4481-b76f-a0f65f9966cc","ios":"levelo://app?vid=c0fda312-5076-4481-b76f-a0f65f9966cc"},"vehicle_type_id":"4","last_reported":1692389218,"current_range_meters":5200,"station_id":"ce4bgj12rcd13ifvqbc0","pricing_plan_id":"free"},{"bike_id":"53896b2b-1805-447d-8ad7-e1d4b4fe49b6","system_id":"levelo_inurba_marseille","lat":43.299028,"lon":5.381509,"is_reserved":false,"is_disabled":false,"rental_uris":{"android":"levelo://app?vid=53896b2b-1805-447d-8ad7-e1d4b4fe49b6","ios":"levelo://app?vid=53896b2b-1805-447d-8ad7-e1d4b4fe49b6"},"vehicle_type_id":"4","last_reported":1692389218,"current_range_meters":7200,"station_id":"ce4bgj12rcd13ifvqbc0","pricing_plan_id":"free"},{"bike_id":"bb186c5b-2918-472e-9e03-f670806473b5","system_id":"levelo_inurba_marseille","lat":43.30947,"lon":5.39027,"is_reserved":false,"is_disabled":false,"rental_uris":{"android":"levelo://app?vid=bb186c5b-2918-472e-9e03-f670806473b5","ios":"levelo://app?vid=bb186c5b-2918-472e-9e03-f670806473b5"},"vehicle_type_id":"4","last_reported":1692389218,"current_range_meters":3600,"station_id":"ce4bgup2rcd13ifvqco0","pricing_plan_id":"free"},{"bike_id":"d84bf7db-c5f2-4602-9a72-49eb57d0f18b","system_id":"levelo_inurba_marseille","lat":43.309589,"lon":5.390258,"is_reserved":false,"is_disabled":false,"rental_uris":{"android":"levelo://app?vid=d84bf7db-c5f2-4602-9a72-49eb57d0f18b","ios":"levelo://app?vid=d84bf7db-c5f2-4602-9a72-49eb57d0f18b"},"vehicle_type_id":"4","last_reported":1692389218,"current_range_meters":13600,"station_id":"ce4bgup2rcd13ifvqco0","pricing_plan_id":"free"},{"bike_id":"04ce64c9-5428-484e-90df-577bfdaa1ce3","system_id":"levelo_inurba_marseille","lat":43.309589,"lon":5.390258,"is_reserved":false,"is_disabled":false,"rental_uris":{"android":"levelo://app?vid=04ce64c9-5428-484e-90df-577bfdaa1ce3","ios":"levelo://app?vid=04ce64c9-5428-484e-90df-577bfdaa1ce3"},"vehicle_type_id":"4","last_reported":1692389218,"current_range_meters":22400,"station_id":"ce4bgup2rcd13ifvqco0","pricing_plan_id":"free"},{"bike_id":"7e216c7f-1ab0-42c6-8a53-f6343995fc2f","system_id":"levelo_inurba_marseille","lat":43.309589,"lon":5.390258,"is_reserved":false,"is_disabled":false,"rental_uris":{"android":"levelo://app?vid=7e216c7f-1ab0-42c6-8a53-f6343995fc2f","ios":"levelo://app?vid=7e216c7f-1ab0-42c6-8a53-f6343995fc2f"},"vehicle_type_id":"4","last_reported":1692389218,"current_range_meters":16000,"station_id":"ce4bgup2rcd13ifvqco0","pricing_plan_id":"free"},{"bike_id":"841d96b3-89ec-4369-b29f-e8549b719261","system_id":"levelo_inurba_marseille","lat":43.309589,"lon":5.390258,"is_reserved":false,"is_disabled":false,"rental_uris":{"android":"levelo://app?vid=841d96b3-89ec-4369-b29f-e8549b719261","ios":"levelo://app?vid=841d96b3-89ec-4369-b29f-e8549b719261"},"vehicle_type_id":"4","last_reported":1692389218,"current_range_meters":30000,"station_id":"ce4bgup2rcd13ifvqco0","pricing_plan_id":"free"},{"bike_id":"64c69acd-83e9-435f-9887-36f312ab84a6","system_id":"levelo_inurba_marseille","lat":43.309589,"lon":5.390258,"is_reserved":false,"is_disabled":false,"rental_uris":{"android":"levelo://app?vid=64c69acd-83e9-435f-9887-36f312ab84a6","ios":"levelo://app?vid=64c69acd-83e9-435f-9887-36f312ab84a6"},"vehicle_type_id":"4","last_reported":1692389218,"current_range_meters":11200,"station_id":"ce4bgup2rcd13ifvqco0","pricing_plan_id":"free"},{"bike_id":"819cd743-1187-41a0-8557-11fd8ddafd58","system_id":"levelo_inurba_marseille","lat":43.30955,"lon":5.39042,"is_reserved":false,"is_disabled":false,"rental_uris":{"android":"levelo://app?vid=819cd743-1187-41a0-8557-11fd8ddafd58","ios":"levelo://app?vid=819cd743-1187-41a0-8557-11fd8ddafd58"},"vehicle_type_id":"4","last_reported":1692389218,"current_range_meters":20800,"station_id":"ce4bgup2rcd13ifvqco0","pricing_plan_id":"free"},{"bike_id":"524d58bc-08b7-4a0e-a650-083ccb4c3809","system_id":"levelo_inurba_marseille","lat":43.309589,"lon":5.390258,"is_reserved":false,"is_disabled":false,"rental_uris":{"android":"levelo://app?vid=524d58bc-08b7-4a0e-a650-083ccb4c3809","ios":"levelo://app?vid=524d58bc-08b7-4a0e-a650-083ccb4c3809"},"vehicle_type_id":"4","last_reported":1692389218,"current_range_meters":12000,"station_id":"ce4bgup2rcd13ifvqco0","pricing_plan_id":"free"},{"bike_id":"87a9148b-dcfd-4e39-964e-4b06cbbb14db","system_id":"levelo_inurba_marseille","lat":43.30958,"lon":5.39045,"is_reserved":false,"is_disabled":false,"rental_uris":{"android":"levelo://app?vid=87a9148b-dcfd-4e39-964e-4b06cbbb14db","ios":"levelo://app?vid=87a9148b-dcfd-4e39-964e-4b06cbbb14db"},"vehicle_type_id":"4","last_reported":1692389218,"current_range_meters":26400,"station_id":"ce4bgup2rcd13ifvqco0","pricing_plan_id":"free"},{"bike_id":"37a2e1bd-943c-46fe-95d9-cb1699a5d9e4","system_id":"levelo_inurba_marseille","lat":43.309589,"lon":5.390258,"is_reserved":false,"is_disabled":false,"rental_uris":{"android":"levelo://app?vid=37a2e1bd-943c-46fe-95d9-cb1699a5d9e4","ios":"levelo://app?vid=37a2e1bd-943c-46fe-95d9-cb1699a5d9e4"},"vehicle_type_id":"4","last_reported":1692389218,"current_range_meters":18400,"station_id":"ce4bgup2rcd13ifvqco0","pricing_plan_id":"free"},{"bike_id":"15821cfc-20ff-41d9-a8eb-ac0194c5a83d","system_id":"levelo_inurba_marseille","lat":43.309589,"lon":5.390258,"is_reserved":false,"is_disabled":false,"rental_uris":{"android":"levelo://app?vid=15821cfc-20ff-41d9-a8eb-ac0194c5a83d","ios":"levelo://app?vid=15821cfc-20ff-41d9-a8eb-ac0194c5a83d"},"vehicle_type_id":"4","last_reported":1692389218,"current_range_meters":18400,"station_id":"ce4bgup2rcd13ifvqco0","pricing_plan_id":"free"},{"bike_id":"d9b5dd35-78ff-41d2-8dd0-3b9c745bb7c6","system_id":"levelo_inurba_marseille","lat":43.309589,"lon":5.390258,"is_reserved":false,"is_disabled":false,"rental_uris":{"android":"levelo://app?vid=d9b5dd35-78ff-41d2-8dd0-3b9c745bb7c6","ios":"levelo://app?vid=d9b5dd35-78ff-41d2-8dd0-3b9c745bb7c6"},"vehicle_type_id":"4","last_reported":1692389218,"current_range_meters":8800,"station_id":"ce4bgup2rcd13ifvqco0","pricing_plan_id":"free"},{"bike_id":"4af5f57b-10b3-43c8-a90e-42a6b072c47f","system_id":"levelo_inurba_marseille","lat":43.309589,"lon":5.390258,"is_reserved":false,"is_disabled":false,"rental_uris":{"android":"levelo://app?vid=4af5f57b-10b3-43c8-a90e-42a6b072c47f","ios":"levelo://app?vid=4af5f57b-10b3-43c8-a90e-42a6b072c47f"},"vehicle_type_id":"4","last_reported":1692389218,"current_range_meters":23200,"station_id":"ce4bgup2rcd13ifvqco0","pricing_plan_id":"free"},{"bike_id":"9dc979db-3570-4298-b056-986f26cf21f3","system_id":"levelo_inurba_marseille","lat":43.309589,"lon":5.390258,"is_reserved":false,"is_disabled":false,"rental_uris":{"android":"levelo://app?vid=9dc979db-3570-4298-b056-986f26cf21f3","ios":"levelo://app?vid=9dc979db-3570-4298-b056-986f26cf21f3"},"vehicle_type_id":"4","last_reported":1692389218,"current_range_meters":23600,"station_id":"ce4bgup2rcd13ifvqco0","pricing_plan_id":"free"},{"bike_id":"0a502ef3-3964-44ad-90f5-946e369102a0","system_id":"levelo_inurba_marseille","lat":43.309589,"lon":5.390258,"is_reserved":false,"is_disabled":false,"rental_uris":{"android":"levelo://app?vid=0a502ef3-3964-44ad-90f5-946e369102a0","ios":"levelo://app?vid=0a502ef3-3964-44ad-90f5-946e369102a0"},"vehicle_type_id":"4","last_reported":1692389218,"current_range_meters":7200,"station_id":"ce4bgup2rcd13ifvqco0","pricing_plan_id":"free"},{"bike_id":"f907c73f-3475-4ffe-9ab2-93556a58d024","system_id":"levelo_inurba_marseille","lat":43.309589,"lon":5.390258,"is_reserved":false,"is_disabled":false,"rental_uris":{"android":"levelo://app?vid=f907c73f-3475-4ffe-9ab2-93556a58d024","ios":"levelo://app?vid=f907c73f-3475-4ffe-9ab2-93556a58d024"},"vehicle_type_id":"4","last_reported":1692389218,"current_range_meters":31600,"station_id":"ce4bgup2rcd13ifvqco0","pricing_plan_id":"free"},{"bike_id":"f9ca5a83-6511-4601-b281-2a1566d48b1d","system_id":"levelo_inurba_marseille","lat":43.298037,"lon":5.381066,"is_reserved":false,"is_disabled":false,"rental_uris":{"android":"levelo://app?vid=f9ca5a83-6511-4601-b281-2a1566d48b1d","ios":"levelo://app?vid=f9ca5a83-6511-4601-b281-2a1566d48b1d"},"vehicle_type_id":"4","last_reported":1692389218,"current_range_meters":3200,"station_id":"ce4bgip2rcd13ifvqbb0","pricing_plan_id":"free"},{"bike_id":"ed508707-c3a3-4dee-89d2-75e7c091f4e6","system_id":"levelo_inurba_marseille","lat":43.298037,"lon":5.381066,"is_reserved":false,"is_disabled":false,"rental_uris":{"android":"levelo://app?vid=ed508707-c3a3-4dee-89d2-75e7c091f4e6","ios":"levelo://app?vid=ed508707-c3a3-4dee-89d2-75e7c091f4e6"},"vehicle_type_id":"4","last_reported":1692389218,"current_range_meters":4800,"station_id":"ce4bgip2rcd13ifvqbb0","pricing_plan_id":"free"},{"bike_id":"b7f16c59-d79b-47c8-a382-4417ce97cd82","system_id":"levelo_inurba_marseille","lat":43.304278,"lon":5.388868,"is_reserved":false,"is_disabled":false,"rental_uris":{"android":"levelo://app?vid=b7f16c59-d79b-47c8-a382-4417ce97cd82","ios":"levelo://app?vid=b7f16c59-d79b-47c8-a382-4417ce97cd82"},"vehicle_type_id":"4","last_reported":1692389218,"current_range_meters":0,"station_id":"ce4bgk12rcd13ifvqbi0","pricing_plan_id":"free"},{"bike_id":"1b8b64a5-c1af-4de3-b264-7cbf1060c6fe","system_id":"levelo_inurba_marseille","lat":43.29573,"lon":5.37517,"is_reserved":false,"is_disabled":false,"rental_uris":{"android":"levelo://app?vid=1b8b64a5-c1af-4de3-b264-7cbf1060c6fe","ios":"levelo://app?vid=1b8b64a5-c1af-4de3-b264-7cbf1060c6fe"},"vehicle_type_id":"4","last_reported":1692389218,"current_range_meters":14400,"station_id":"ce4bgh92rcd13ifvqb50","pricing_plan_id":"free"},{"bike_id":"dfeac75d-486f-4146-b0fd-5b386fe4500c","system_id":"levelo_inurba_marseille","lat":43.30432,"lon":5.38885,"is_reserved":false,"is_disabled":false,"rental_uris":{"android":"levelo://app?vid=dfeac75d-486f-4146-b0fd-5b386fe4500c","ios":"levelo://app?vid=dfeac75d-486f-4146-b0fd-5b386fe4500c"},"vehicle_type_id":"4","last_reported":1692389218,"current_range_meters":4400,"station_id":"ce4bgk12rcd13ifvqbi0","pricing_plan_id":"free"},{"bike_id":"ca83467f-ed2b-4ed2-9ada-8447142f8c5c","system_id":"levelo_inurba_marseille","lat":43.3043,"lon":5.38886,"is_reserved":false,"is_disabled":false,"rental_uris":{"android":"levelo://app?vid=ca83467f-ed2b-4ed2-9ada-8447142f8c5c","ios":"levelo://app?vid=ca83467f-ed2b-4ed2-9ada-8447142f8c5c"},"vehicle_type_id":"4","last_reported":1692389218,"current_range_meters":14800,"station_id":"ce4bgk12rcd13ifvqbi0","pricing_plan_id":"free"},{"bike_id":"a2caed30-092e-4ff7-acfd-60979bd4fff0","system_id":"levelo_inurba_marseille","lat":43.30443,"lon":5.38898,"is_reserved":false,"is_disabled":false,"rental_uris":{"android":"levelo://app?vid=a2caed30-092e-4ff7-acfd-60979bd4fff0","ios":"levelo://app?vid=a2caed30-092e-4ff7-acfd-60979bd4fff0"},"vehicle_type_id":"4","last_reported":1692389218,"current_range_meters":31200,"station_id":"ce4bgk12rcd13ifvqbi0","pricing_plan_id":"free"},{"bike_id":"49544035-0e17-49fc-a8d7-6783c330954d","system_id":"levelo_inurba_marseille","lat":43.304278,"lon":5.388868,"is_reserved":false,"is_disabled":false,"rental_uris":{"android":"levelo://app?vid=49544035-0e17-49fc-a8d7-6783c330954d","ios":"levelo://app?vid=49544035-0e17-49fc-a8d7-6783c330954d"},"vehicle_type_id":"4","last_reported":1692389218,"current_range_meters":11600,"station_id":"ce4bgk12rcd13ifvqbi0","pricing_plan_id":"free"},{"bike_id":"a4df99ce-0488-49dd-a888-94686f562e88","system_id":"levelo_inurba_marseille","lat":43.295748,"lon":5.37522,"is_reserved":false,"is_disabled":false,"rental_uris":{"android":"levelo://app?vid=a4df99ce-0488-49dd-a888-94686f562e88","ios":"levelo://app?vid=a4df99ce-0488-49dd-a888-94686f562e88"},"vehicle_type_id":"4","last_reported":1692389218,"current_range_meters":27600,"station_id":"ce4bgh92rcd13ifvqb50","pricing_plan_id":"free"},{"bike_id":"f6282d45-aab2-43e0-acd2-9d48167b378c","system_id":"levelo_inurba_marseille","lat":43.295748,"lon":5.37522,"is_reserved":false,"is_disabled":false,"rental_uris":{"android":"levelo://app?vid=f6282d45-aab2-43e0-acd2-9d48167b378c","ios":"levelo://app?vid=f6282d45-aab2-43e0-acd2-9d48167b378c"},"vehicle_type_id":"4","last_reported":1692389218,"current_range_meters":8800,"station_id":"ce4bgh92rcd13ifvqb50","pricing_plan_id":"free"},{"bike_id":"60190555-bc12-423f-95bd-5269cfd7797f","system_id":"levelo_inurba_marseille","lat":43.296263,"lon":5.377094,"is_reserved":false,"is_disabled":false,"rental_uris":{"android":"levelo://app?vid=60190555-bc12-423f-95bd-5269cfd7797f","ios":"levelo://app?vid=60190555-bc12-423f-95bd-5269cfd7797f"},"vehicle_type_id":"4","last_reported":1692389218,"current_range_meters":17200,"station_id":"ce4bgi92rcd13ifvqb90","pricing_plan_id":"free"},{"bike_id":"d625de4e-67c6-4024-8113-426718d9cc64","system_id":"levelo_inurba_marseille","lat":43.295748,"lon":5.37522,"is_reserved":false,"is_disabled":false,"rental_uris":{"android":"levelo://app?vid=d625de4e-67c6-4024-8113-426718d9cc64","ios":"levelo://app?vid=d625de4e-67c6-4024-8113-426718d9cc64"},"vehicle_type_id":"4","last_reported":1692389218,"current_range_meters":7600,"station_id":"ce4bgh92rcd13ifvqb50","pricing_plan_id":"free"},{"bike_id":"63019e6c-94a1-4420-8cc5-0bec5713a4aa","system_id":"levelo_inurba_marseille","lat":43.304278,"lon":5.388868,"is_reserved":false,"is_disabled":false,"rental_uris":{"android":"levelo://app?vid=63019e6c-94a1-4420-8cc5-0bec5713a4aa","ios":"levelo://app?vid=63019e6c-94a1-4420-8cc5-0bec5713a4aa"},"vehicle_type_id":"4","last_reported":1692389218,"current_range_meters":14400,"station_id":"ce4bgk12rcd13ifvqbi0","pricing_plan_id":"free"},{"bike_id":"fa808050-d2d0-4ab3-84b3-f700858e8d6f","system_id":"levelo_inurba_marseille","lat":43.296277,"lon":5.377108,"is_reserved":false,"is_disabled":false,"rental_uris":{"android":"levelo://app?vid=fa808050-d2d0-4ab3-84b3-f700858e8d6f","ios":"levelo://app?vid=fa808050-d2d0-4ab3-84b3-f700858e8d6f"},"vehicle_type_id":"4","last_reported":1692389218,"current_range_meters":13600,"station_id":"ce4bgi92rcd13ifvqb90","pricing_plan_id":"free"},{"bike_id":"dd4b086f-8f95-460f-b030-32d3f0f174c0","system_id":"levelo_inurba_marseille","lat":43.296263,"lon":5.377094,"is_reserved":false,"is_disabled":false,"rental_uris":{"android":"levelo://app?vid=dd4b086f-8f95-460f-b030-32d3f0f174c0","ios":"levelo://app?vid=dd4b086f-8f95-460f-b030-32d3f0f174c0"},"vehicle_type_id":"4","last_reported":1692389218,"current_range_meters":24000,"station_id":"ce4bgi92rcd13ifvqb90","pricing_plan_id":"free"},{"bike_id":"9fc9a40b-5988-4992-b503-ce6da2d2c642","system_id":"levelo_inurba_marseille","lat":43.296277,"lon":5.377108,"is_reserved":false,"is_disabled":false,"rental_uris":{"android":"levelo://app?vid=9fc9a40b-5988-4992-b503-ce6da2d2c642","ios":"levelo://app?vid=9fc9a40b-5988-4992-b503-ce6da2d2c642"},"vehicle_type_id":"4","last_reported":1692389218,"current_range_meters":4400,"station_id":"ce4bgi92rcd13ifvqb90","pricing_plan_id":"free"},{"bike_id":"50554ba7-959d-4678-bf65-8d02b8631274","system_id":"levelo_inurba_marseille","lat":43.296277,"lon":5.377108,"is_reserved":false,"is_disabled":false,"rental_uris":{"android":"levelo://app?vid=50554ba7-959d-4678-bf65-8d02b8631274","ios":"levelo://app?vid=50554ba7-959d-4678-bf65-8d02b8631274"},"vehicle_type_id":"4","last_reported":1692389218,"current_range_meters":2000,"station_id":"ce4bgi92rcd13ifvqb90","pricing_plan_id":"free"},{"bike_id":"4d1f7b37-9af1-4c8b-bccd-d6d6321a6d50","system_id":"levelo_inurba_marseille","lat":43.299724,"lon":5.384848,"is_reserved":false,"is_disabled":false,"rental_uris":{"android":"levelo://app?vid=4d1f7b37-9af1-4c8b-bccd-d6d6321a6d50","ios":"levelo://app?vid=4d1f7b37-9af1-4c8b-bccd-d6d6321a6d50"},"vehicle_type_id":"4","last_reported":1692389218,"current_range_meters":30400,"station_id":"ce4bgj92rcd13ifvqbd0","pricing_plan_id":"free"},{"bike_id":"ac509b7d-883b-42a9-a936-71fee30f9312","system_id":"levelo_inurba_marseille","lat":43.299717,"lon":5.384845,"is_reserved":false,"is_disabled":false,"rental_uris":{"android":"levelo://app?vid=ac509b7d-883b-42a9-a936-71fee30f9312","ios":"levelo://app?vid=ac509b7d-883b-42a9-a936-71fee30f9312"},"vehicle_type_id":"4","last_reported":1692389218,"current_range_meters":12800,"station_id":"ce4bgj92rcd13ifvqbd0","pricing_plan_id":"free"},{"bike_id":"1d75c6d0-d752-444e-8688-87afd61aca72","system_id":"levelo_inurba_marseille","lat":43.299717,"lon":5.384845,"is_reserved":false,"is_disabled":false,"rental_uris":{"android":"levelo://app?vid=1d75c6d0-d752-444e-8688-87afd61aca72","ios":"levelo://app?vid=1d75c6d0-d752-444e-8688-87afd61aca72"},"vehicle_type_id":"4","last_reported":1692389218,"current_range_meters":13200,"station_id":"ce4bgj92rcd13ifvqbd0","pricing_plan_id":"free"},{"bike_id":"4314cd19-09e7-4af1-900a-88512d095e20","system_id":"levelo_inurba_marseille","lat":43.32363,"lon":5.38876,"is_reserved":false,"is_disabled":false,"rental_uris":{"android":"levelo://app?vid=4314cd19-09e7-4af1-900a-88512d095e20","ios":"levelo://app?vid=4314cd19-09e7-4af1-900a-88512d095e20"},"vehicle_type_id":"4","last_reported":1692389218,"current_range_meters":11600,"station_id":"ce4bhqp2rcd13ifvqhog","pricing_plan_id":"free"},{"bike_id":"207f2f90-5396-4fe6-bd95-d438ab16c0b7","system_id":"levelo_inurba_marseille","lat":43.32363,"lon":5.3888,"is_reserved":false,"is_disabled":false,"rental_uris":{"android":"levelo://app?vid=207f2f90-5396-4fe6-bd95-d438ab16c0b7","ios":"levelo://app?vid=207f2f90-5396-4fe6-bd95-d438ab16c0b7"},"vehicle_type_id":"4","last_reported":1692389218,"current_range_meters":8800,"station_id":"ce4bhqp2rcd13ifvqhog","pricing_plan_id":"free"},{"bike_id":"a97f77a2-1520-4bfc-9df0-0f9c62851caa","system_id":"levelo_inurba_marseille","lat":43.32365,"lon":5.3888,"is_reserved":false,"is_disabled":false,"rental_uris":{"android":"levelo://app?vid=a97f77a2-1520-4bfc-9df0-0f9c62851caa","ios":"levelo://app?vid=a97f77a2-1520-4bfc-9df0-0f9c62851caa"},"vehicle_type_id":"4","last_reported":1692389218,"current_range_meters":4400,"station_id":"ce4bhqp2rcd13ifvqhog","pricing_plan_id":"free"},{"bike_id":"810e5c4e-cfbd-4fb4-b6d8-02289cde4c80","system_id":"levelo_inurba_marseille","lat":43.32363,"lon":5.38882,"is_reserved":false,"is_disabled":false,"rental_uris":{"android":"levelo://app?vid=810e5c4e-cfbd-4fb4-b6d8-02289cde4c80","ios":"levelo://app?vid=810e5c4e-cfbd-4fb4-b6d8-02289cde4c80"},"vehicle_type_id":"4","last_reported":1692389218,"current_range_meters":16800,"station_id":"ce4bhqp2rcd13ifvqhog","pricing_plan_id":"free"},{"bike_id":"55f08f4d-333e-4077-9882-16e72e12ddbf","system_id":"levelo_inurba_marseille","lat":43.32361,"lon":5.38885,"is_reserved":false,"is_disabled":false,"rental_uris":{"android":"levelo://app?vid=55f08f4d-333e-4077-9882-16e72e12ddbf","ios":"levelo://app?vid=55f08f4d-333e-4077-9882-16e72e12ddbf"},"vehicle_type_id":"4","last_reported":1692389218,"current_range_meters":9200,"station_id":"ce4bhqp2rcd13ifvqhog","pricing_plan_id":"free"},{"bike_id":"6b6cba89-d2b8-44bb-8454-5df08cf65f67","system_id":"levelo_inurba_marseille","lat":43.32365,"lon":5.38884,"is_reserved":false,"is_disabled":false,"rental_uris":{"android":"levelo://app?vid=6b6cba89-d2b8-44bb-8454-5df08cf65f67","ios":"levelo://app?vid=6b6cba89-d2b8-44bb-8454-5df08cf65f67"},"vehicle_type_id":"4","last_reported":1692389218,"current_range_meters":16800,"station_id":"ce4bhqp2rcd13ifvqhog","pricing_plan_id":"free"},{"bike_id":"03f2098f-b50c-4ca4-a765-8806d474ecf2","system_id":"levelo_inurba_marseille","lat":43.32366,"lon":5.38884,"is_reserved":false,"is_disabled":false,"rental_uris":{"android":"levelo://app?vid=03f2098f-b50c-4ca4-a765-8806d474ecf2","ios":"levelo://app?vid=03f2098f-b50c-4ca4-a765-8806d474ecf2"},"vehicle_type_id":"4","last_reported":1692389218,"current_range_meters":12800,"station_id":"ce4bhqp2rcd13ifvqhog","pricing_plan_id":"free"},{"bike_id":"3ca3f621-3ed1-46b4-b4f6-37a71d187fa3","system_id":"levelo_inurba_marseille","lat":43.32368,"lon":5.38888,"is_reserved":false,"is_disabled":false,"rental_uris":{"android":"levelo://app?vid=3ca3f621-3ed1-46b4-b4f6-37a71d187fa3","ios":"levelo://app?vid=3ca3f621-3ed1-46b4-b4f6-37a71d187fa3"},"vehicle_type_id":"4","last_reported":1692389218,"current_range_meters":12000,"station_id":"ce4bhqp2rcd13ifvqhog","pricing_plan_id":"free"},{"bike_id":"0126f869-77bb-4690-a14f-53e2dd9d4689","system_id":"levelo_inurba_marseille","lat":43.32371,"lon":5.38886,"is_reserved":false,"is_disabled":false,"rental_uris":{"android":"levelo://app?vid=0126f869-77bb-4690-a14f-53e2dd9d4689","ios":"levelo://app?vid=0126f869-77bb-4690-a14f-53e2dd9d4689"},"vehicle_type_id":"4","last_reported":1692389218,"current_range_meters":29600,"station_id":"ce4bhqp2rcd13ifvqhog","pricing_plan_id":"free"},{"bike_id":"cfcdf6ca-4c9a-4799-b443-d4ef56c81e43","system_id":"levelo_inurba_marseille","lat":43.2928,"lon":5.36846,"is_reserved":false,"is_disabled":false,"rental_uris":{"android":"levelo://app?vid=cfcdf6ca-4c9a-4799-b443-d4ef56c81e43","ios":"levelo://app?vid=cfcdf6ca-4c9a-4799-b443-d4ef56c81e43"},"vehicle_type_id":"4","last_reported":1692389218,"current_range_meters":0,"station_id":"ce4bhbp2rcd13ifvqesg","pricing_plan_id":"free"},{"bike_id":"0aac90e6-63fb-4d21-9e08-8e9c3140b816","system_id":"levelo_inurba_marseille","lat":43.305994,"lon":5.393687,"is_reserved":false,"is_disabled":false,"rental_uris":{"android":"levelo://app?vid=0aac90e6-63fb-4d21-9e08-8e9c3140b816","ios":"levelo://app?vid=0aac90e6-63fb-4d21-9e08-8e9c3140b816"},"vehicle_type_id":"4","last_reported":1692389218,"current_range_meters":23200,"station_id":"ce4bh0p2rcd13ifvqd80","pricing_plan_id":"free"},{"bike_id":"a3d4c462-952a-478c-acc7-73e5ab3c792e","system_id":"levelo_inurba_marseille","lat":43.305994,"lon":5.393687,"is_reserved":false,"is_disabled":false,"rental_uris":{"android":"levelo://app?vid=a3d4c462-952a-478c-acc7-73e5ab3c792e","ios":"levelo://app?vid=a3d4c462-952a-478c-acc7-73e5ab3c792e"},"vehicle_type_id":"4","last_reported":1692389218,"current_range_meters":14800,"station_id":"ce4bh0p2rcd13ifvqd80","pricing_plan_id":"free"},{"bike_id":"38fef587-7cc5-4800-b069-87b8f296a10a","system_id":"levelo_inurba_marseille","lat":43.293009,"lon":5.374584,"is_reserved":false,"is_disabled":false,"rental_uris":{"android":"levelo://app?vid=38fef587-7cc5-4800-b069-87b8f296a10a","ios":"levelo://app?vid=38fef587-7cc5-4800-b069-87b8f296a10a"},"vehicle_type_id":"4","last_reported":1692389218,"current_range_meters":31200,"station_id":"ce4bgi12rcd13ifvqb70","pricing_plan_id":"free"},{"bike_id":"b3de0ed2-17d9-4f29-be72-8e813cbb111c","system_id":"levelo_inurba_marseille","lat":43.305994,"lon":5.393687,"is_reserved":false,"is_disabled":false,"rental_uris":{"android":"levelo://app?vid=b3de0ed2-17d9-4f29-be72-8e813cbb111c","ios":"levelo://app?vid=b3de0ed2-17d9-4f29-be72-8e813cbb111c"},"vehicle_type_id":"4","last_reported":1692389218,"current_range_meters":20800,"station_id":"ce4bh0p2rcd13ifvqd80","pricing_plan_id":"free"},{"bike_id":"3b5631b1-e544-43fa-b9c5-3ba12c57dbdb","system_id":"levelo_inurba_marseille","lat":43.305994,"lon":5.393687,"is_reserved":false,"is_disabled":false,"rental_uris":{"android":"levelo://app?vid=3b5631b1-e544-43fa-b9c5-3ba12c57dbdb","ios":"levelo://app?vid=3b5631b1-e544-43fa-b9c5-3ba12c57dbdb"},"vehicle_type_id":"4","last_reported":1692389218,"current_range_meters":26800,"station_id":"ce4bh0p2rcd13ifvqd80","pricing_plan_id":"free"},{"bike_id":"e80b65e7-fe6f-4d30-b7f5-476eacf8537a","system_id":"levelo_inurba_marseille","lat":43.30594,"lon":5.3936,"is_reserved":false,"is_disabled":false,"rental_uris":{"android":"levelo://app?vid=e80b65e7-fe6f-4d30-b7f5-476eacf8537a","ios":"levelo://app?vid=e80b65e7-fe6f-4d30-b7f5-476eacf8537a"},"vehicle_type_id":"4","last_reported":1692389218,"current_range_meters":0,"station_id":"ce4bh0p2rcd13ifvqd80","pricing_plan_id":"free"},{"bike_id":"71acc25e-bdbf-4a00-a391-6ad7cffbd1d7","system_id":"levelo_inurba_marseille","lat":43.29293,"lon":5.37458,"is_reserved":false,"is_disabled":false,"rental_uris":{"android":"levelo://app?vid=71acc25e-bdbf-4a00-a391-6ad7cffbd1d7","ios":"levelo://app?vid=71acc25e-bdbf-4a00-a391-6ad7cffbd1d7"},"vehicle_type_id":"4","last_reported":1692389218,"current_range_meters":28400,"station_id":"","pricing_plan_id":"free"},{"bike_id":"09200098-1dcc-46b1-9e49-cb61c97ac6b2","system_id":"levelo_inurba_marseille","lat":43.305994,"lon":5.393687,"is_reserved":false,"is_disabled":false,"rental_uris":{"android":"levelo://app?vid=09200098-1dcc-46b1-9e49-cb61c97ac6b2","ios":"levelo://app?vid=09200098-1dcc-46b1-9e49-cb61c97ac6b2"},"vehicle_type_id":"4","last_reported":1692389218,"current_range_meters":0,"station_id":"ce4bh0p2rcd13ifvqd80","pricing_plan_id":"free"},{"bike_id":"c6b7c590-88da-443e-88f3-1358352b2cbd","system_id":"levelo_inurba_marseille","lat":43.305994,"lon":5.393687,"is_reserved":false,"is_disabled":false,"rental_uris":{"android":"levelo://app?vid=c6b7c590-88da-443e-88f3-1358352b2cbd","ios":"levelo://app?vid=c6b7c590-88da-443e-88f3-1358352b2cbd"},"vehicle_type_id":"4","last_reported":1692389218,"current_range_meters":4000,"station_id":"ce4bh0p2rcd13ifvqd80","pricing_plan_id":"free"},{"bike_id":"d55f701e-98ed-4e3a-9d20-8976c06182bc","system_id":"levelo_inurba_marseille","lat":43.30309,"lon":5.39211,"is_reserved":false,"is_disabled":false,"rental_uris":{"android":"levelo://app?vid=d55f701e-98ed-4e3a-9d20-8976c06182bc","ios":"levelo://app?vid=d55f701e-98ed-4e3a-9d20-8976c06182bc"},"vehicle_type_id":"4","last_reported":1692389218,"current_range_meters":19200,"station_id":"ce4bgkh2rcd13ifvqbk0","pricing_plan_id":"free"},{"bike_id":"086f2996-4b2e-4c27-bf9e-292839d0a7b4","system_id":"levelo_inurba_marseille","lat":43.29226,"lon":5.37217,"is_reserved":false,"is_disabled":false,"rental_uris":{"android":"levelo://app?vid=086f2996-4b2e-4c27-bf9e-292839d0a7b4","ios":"levelo://app?vid=086f2996-4b2e-4c27-bf9e-292839d0a7b4"},"vehicle_type_id":"4","last_reported":1692389218,"current_range_meters":18400,"station_id":"","pricing_plan_id":"free"},{"bike_id":"46cfbd61-fe99-4296-a18c-ef80c6831d37","system_id":"levelo_inurba_marseille","lat":43.300852,"lon":5.390859,"is_reserved":false,"is_disabled":false,"rental_uris":{"android":"levelo://app?vid=46cfbd61-fe99-4296-a18c-ef80c6831d37","ios":"levelo://app?vid=46cfbd61-fe99-4296-a18c-ef80c6831d37"},"vehicle_type_id":"4","last_reported":1692389218,"current_range_meters":24800,"station_id":"ce4bh192rcd13ifvqdb0","pricing_plan_id":"free"},{"bike_id":"dda6b89f-1011-4af9-827a-82605d7ab7bb","system_id":"levelo_inurba_marseille","lat":43.292311,"lon":5.360731,"is_reserved":false,"is_disabled":false,"rental_uris":{"android":"levelo://app?vid=dda6b89f-1011-4af9-827a-82605d7ab7bb","ios":"levelo://app?vid=dda6b89f-1011-4af9-827a-82605d7ab7bb"},"vehicle_type_id":"4","last_reported":1692389218,"current_range_meters":16000,"station_id":"ce4bhbh2rcd13ifvqeqg","pricing_plan_id":"free"},{"bike_id":"ae5ab678-9950-42fd-a811-de3fed97d469","system_id":"levelo_inurba_marseille","lat":43.29225,"lon":5.36075,"is_reserved":false,"is_disabled":false,"rental_uris":{"android":"levelo://app?vid=ae5ab678-9950-42fd-a811-de3fed97d469","ios":"levelo://app?vid=ae5ab678-9950-42fd-a811-de3fed97d469"},"vehicle_type_id":"4","last_reported":1692389218,"current_range_meters":0,"station_id":"ce4bhbh2rcd13ifvqeqg","pricing_plan_id":"free"},{"bike_id":"011e2441-7727-47df-b9a8-b379ae27e39f","system_id":"levelo_inurba_marseille","lat":43.29529,"lon":5.385581,"is_reserved":false,"is_disabled":false,"rental_uris":{"android":"levelo://app?vid=011e2441-7727-47df-b9a8-b379ae27e39f","ios":"levelo://app?vid=011e2441-7727-47df-b9a8-b379ae27e39f"},"vehicle_type_id":"4","last_reported":1692389218,"current_range_meters":800,"station_id":"ce4bgih2rcd13ifvqba0","pricing_plan_id":"free"},{"bike_id":"04a30cc9-b38b-41f6-b930-c8f4a211533e","system_id":"levelo_inurba_marseille","lat":43.292311,"lon":5.360731,"is_reserved":false,"is_disabled":false,"rental_uris":{"android":"levelo://app?vid=04a30cc9-b38b-41f6-b930-c8f4a211533e","ios":"levelo://app?vid=04a30cc9-b38b-41f6-b930-c8f4a211533e"},"vehicle_type_id":"4","last_reported":1692389218,"current_range_meters":26800,"station_id":"ce4bhbh2rcd13ifvqeqg","pricing_plan_id":"free"},{"bike_id":"59fbc0df-5b31-4b50-b976-cfe6aece3be2","system_id":"levelo_inurba_marseille","lat":43.313291,"lon":5.396838,"is_reserved":false,"is_disabled":false,"rental_uris":{"android":"levelo://app?vid=59fbc0df-5b31-4b50-b976-cfe6aece3be2","ios":"levelo://app?vid=59fbc0df-5b31-4b50-b976-cfe6aece3be2"},"vehicle_type_id":"4","last_reported":1692389218,"current_range_meters":6800,"station_id":"ce4bgvp2rcd13ifvqcu0","pricing_plan_id":"free"},{"bike_id":"5993409d-f254-421a-8076-4402fc9570bd","system_id":"levelo_inurba_marseille","lat":43.31327,"lon":5.39692,"is_reserved":false,"is_disabled":false,"rental_uris":{"android":"levelo://app?vid=5993409d-f254-421a-8076-4402fc9570bd","ios":"levelo://app?vid=5993409d-f254-421a-8076-4402fc9570bd"},"vehicle_type_id":"4","last_reported":1692389218,"current_range_meters":1600,"station_id":"ce4bgvp2rcd13ifvqcu0","pricing_plan_id":"free"},{"bike_id":"647f75c9-f16a-4780-b654-c3aba5519296","system_id":"levelo_inurba_marseille","lat":43.31322,"lon":5.39698,"is_reserved":false,"is_disabled":false,"rental_uris":{"android":"levelo://app?vid=647f75c9-f16a-4780-b654-c3aba5519296","ios":"levelo://app?vid=647f75c9-f16a-4780-b654-c3aba5519296"},"vehicle_type_id":"4","last_reported":1692389218,"current_range_meters":2000,"station_id":"ce4bgvp2rcd13ifvqcu0","pricing_plan_id":"free"},{"bike_id":"f8e22b43-9b04-48fe-b796-2d8d3e42740f","system_id":"levelo_inurba_marseille","lat":43.31327,"lon":5.397,"is_reserved":false,"is_disabled":false,"rental_uris":{"android":"levelo://app?vid=f8e22b43-9b04-48fe-b796-2d8d3e42740f","ios":"levelo://app?vid=f8e22b43-9b04-48fe-b796-2d8d3e42740f"},"vehicle_type_id":"4","last_reported":1692389218,"current_range_meters":9600,"station_id":"ce4bgvp2rcd13ifvqcu0","pricing_plan_id":"free"},{"bike_id":"326d3c14-fac1-466b-9fe1-252bc2f7e190","system_id":"levelo_inurba_marseille","lat":43.30883,"lon":5.39662,"is_reserved":false,"is_disabled":false,"rental_uris":{"android":"levelo://app?vid=326d3c14-fac1-466b-9fe1-252bc2f7e190","ios":"levelo://app?vid=326d3c14-fac1-466b-9fe1-252bc2f7e190"},"vehicle_type_id":"4","last_reported":1692389218,"current_range_meters":6400,"station_id":"ce4bh012rcd13ifvqcv0","pricing_plan_id":"free"},{"bike_id":"338ac97d-ad46-45c6-a43c-a35d22954373","system_id":"levelo_inurba_marseille","lat":43.29529,"lon":5.385581,"is_reserved":false,"is_disabled":false,"rental_uris":{"android":"levelo://app?vid=338ac97d-ad46-45c6-a43c-a35d22954373","ios":"levelo://app?vid=338ac97d-ad46-45c6-a43c-a35d22954373"},"vehicle_type_id":"4","last_reported":1692389218,"current_range_meters":4400,"station_id":"ce4bgih2rcd13ifvqba0","pricing_plan_id":"free"},{"bike_id":"d4b6399e-98c2-4016-8719-360d81476cfa","system_id":"levelo_inurba_marseille","lat":43.29529,"lon":5.385581,"is_reserved":false,"is_disabled":false,"rental_uris":{"android":"levelo://app?vid=d4b6399e-98c2-4016-8719-360d81476cfa","ios":"levelo://app?vid=d4b6399e-98c2-4016-8719-360d81476cfa"},"vehicle_type_id":"4","last_reported":1692389218,"current_range_meters":14800,"station_id":"ce4bgih2rcd13ifvqba0","pricing_plan_id":"free"},{"bike_id":"46838bf8-0b53-4e8e-934a-a6b3787fcc22","system_id":"levelo_inurba_marseille","lat":43.29529,"lon":5.385581,"is_reserved":false,"is_disabled":false,"rental_uris":{"android":"levelo://app?vid=46838bf8-0b53-4e8e-934a-a6b3787fcc22","ios":"levelo://app?vid=46838bf8-0b53-4e8e-934a-a6b3787fcc22"},"vehicle_type_id":"4","last_reported":1692389218,"current_range_meters":800,"station_id":"ce4bgih2rcd13ifvqba0","pricing_plan_id":"free"},{"bike_id":"9c543448-948b-4599-a890-c75ac4c28e73","system_id":"levelo_inurba_marseille","lat":43.29529,"lon":5.385581,"is_reserved":false,"is_disabled":false,"rental_uris":{"android":"levelo://app?vid=9c543448-948b-4599-a890-c75ac4c28e73","ios":"levelo://app?vid=9c543448-948b-4599-a890-c75ac4c28e73"},"vehicle_type_id":"4","last_reported":1692389218,"current_range_meters":18000,"station_id":"ce4bgih2rcd13ifvqba0","pricing_plan_id":"free"},{"bike_id":"e33a45f7-7dac-4dc9-9b01-add96e8cd393","system_id":"levelo_inurba_marseille","lat":43.29529,"lon":5.385581,"is_reserved":false,"is_disabled":false,"rental_uris":{"android":"levelo://app?vid=e33a45f7-7dac-4dc9-9b01-add96e8cd393","ios":"levelo://app?vid=e33a45f7-7dac-4dc9-9b01-add96e8cd393"},"vehicle_type_id":"4","last_reported":1692389218,"current_range_meters":3200,"station_id":"ce4bgih2rcd13ifvqba0","pricing_plan_id":"free"},{"bike_id":"7e3240bc-0c55-44c1-bf14-8c8b41d7417e","system_id":"levelo_inurba_marseille","lat":43.29529,"lon":5.385581,"is_reserved":false,"is_disabled":false,"rental_uris":{"android":"levelo://app?vid=7e3240bc-0c55-44c1-bf14-8c8b41d7417e","ios":"levelo://app?vid=7e3240bc-0c55-44c1-bf14-8c8b41d7417e"},"vehicle_type_id":"4","last_reported":1692389218,"current_range_meters":0,"station_id":"ce4bgih2rcd13ifvqba0","pricing_plan_id":"free"},{"bike_id":"a69e5878-dcae-4a8c-ba95-13a0628cddc9","system_id":"levelo_inurba_marseille","lat":43.29529,"lon":5.385581,"is_reserved":false,"is_disabled":false,"rental_uris":{"android":"levelo://app?vid=a69e5878-dcae-4a8c-ba95-13a0628cddc9","ios":"levelo://app?vid=a69e5878-dcae-4a8c-ba95-13a0628cddc9"},"vehicle_type_id":"4","last_reported":1692389218,"current_range_meters":12000,"station_id":"ce4bgih2rcd13ifvqba0","pricing_plan_id":"free"},{"bike_id":"7c398c27-e259-43d6-b055-9f32aad9e72d","system_id":"levelo_inurba_marseille","lat":43.29529,"lon":5.385581,"is_reserved":false,"is_disabled":false,"rental_uris":{"android":"levelo://app?vid=7c398c27-e259-43d6-b055-9f32aad9e72d","ios":"levelo://app?vid=7c398c27-e259-43d6-b055-9f32aad9e72d"},"vehicle_type_id":"4","last_reported":1692389218,"current_range_meters":17200,"station_id":"ce4bgih2rcd13ifvqba0","pricing_plan_id":"free"},{"bike_id":"f0d4fcc5-3c89-420b-8c88-bc682d2f6499","system_id":"levelo_inurba_marseille","lat":43.29529,"lon":5.385581,"is_reserved":false,"is_disabled":false,"rental_uris":{"android":"levelo://app?vid=f0d4fcc5-3c89-420b-8c88-bc682d2f6499","ios":"levelo://app?vid=f0d4fcc5-3c89-420b-8c88-bc682d2f6499"},"vehicle_type_id":"4","last_reported":1692389218,"current_range_meters":27600,"station_id":"ce4bgih2rcd13ifvqba0","pricing_plan_id":"free"},{"bike_id":"815597ee-31a3-4f21-82b2-973e2d1c8934","system_id":"levelo_inurba_marseille","lat":43.29529,"lon":5.385581,"is_reserved":false,"is_disabled":false,"rental_uris":{"android":"levelo://app?vid=815597ee-31a3-4f21-82b2-973e2d1c8934","ios":"levelo://app?vid=815597ee-31a3-4f21-82b2-973e2d1c8934"},"vehicle_type_id":"4","last_reported":1692389218,"current_range_meters":16800,"station_id":"ce4bgih2rcd13ifvqba0","pricing_plan_id":"free"},{"bike_id":"ddab2aea-b4ea-4386-988c-85e48f186723","system_id":"levelo_inurba_marseille","lat":43.29529,"lon":5.385581,"is_reserved":false,"is_disabled":false,"rental_uris":{"android":"levelo://app?vid=ddab2aea-b4ea-4386-988c-85e48f186723","ios":"levelo://app?vid=ddab2aea-b4ea-4386-988c-85e48f186723"},"vehicle_type_id":"4","last_reported":1692389218,"current_range_meters":12800,"station_id":"ce4bgih2rcd13ifvqba0","pricing_plan_id":"free"},{"bike_id":"ea89fbb6-cf2b-4156-8416-86895d821981","system_id":"levelo_inurba_marseille","lat":43.29529,"lon":5.385581,"is_reserved":false,"is_disabled":false,"rental_uris":{"android":"levelo://app?vid=ea89fbb6-cf2b-4156-8416-86895d821981","ios":"levelo://app?vid=ea89fbb6-cf2b-4156-8416-86895d821981"},"vehicle_type_id":"4","last_reported":1692389218,"current_range_meters":20000,"station_id":"ce4bgih2rcd13ifvqba0","pricing_plan_id":"free"},{"bike_id":"a7db73b5-8e23-4a7a-89a7-48b4794a5301","system_id":"levelo_inurba_marseille","lat":43.29529,"lon":5.385581,"is_reserved":false,"is_disabled":false,"rental_uris":{"android":"levelo://app?vid=a7db73b5-8e23-4a7a-89a7-48b4794a5301","ios":"levelo://app?vid=a7db73b5-8e23-4a7a-89a7-48b4794a5301"},"vehicle_type_id":"4","last_reported":1692389218,"current_range_meters":21600,"station_id":"ce4bgih2rcd13ifvqba0","pricing_plan_id":"free"},{"bike_id":"5e2e6bed-1eb8-4cfa-bb3e-4ca1fbdb1635","system_id":"levelo_inurba_marseille","lat":43.29529,"lon":5.385581,"is_reserved":false,"is_disabled":false,"rental_uris":{"android":"levelo://app?vid=5e2e6bed-1eb8-4cfa-bb3e-4ca1fbdb1635","ios":"levelo://app?vid=5e2e6bed-1eb8-4cfa-bb3e-4ca1fbdb1635"},"vehicle_type_id":"4","last_reported":1692389218,"current_range_meters":22800,"station_id":"ce4bgih2rcd13ifvqba0","pricing_plan_id":"free"},{"bike_id":"e1e67a3b-b633-4154-bf2a-6039b2d34e8f","system_id":"levelo_inurba_marseille","lat":43.29529,"lon":5.385581,"is_reserved":false,"is_disabled":false,"rental_uris":{"android":"levelo://app?vid=e1e67a3b-b633-4154-bf2a-6039b2d34e8f","ios":"levelo://app?vid=e1e67a3b-b633-4154-bf2a-6039b2d34e8f"},"vehicle_type_id":"4","last_reported":1692389218,"current_range_meters":4800,"station_id":"ce4bgih2rcd13ifvqba0","pricing_plan_id":"free"},{"bike_id":"171caea8-e81f-4d05-8685-3c5eb0b20a81","system_id":"levelo_inurba_marseille","lat":43.290779,"lon":5.371482,"is_reserved":false,"is_disabled":false,"rental_uris":{"android":"levelo://app?vid=171caea8-e81f-4d05-8685-3c5eb0b20a81","ios":"levelo://app?vid=171caea8-e81f-4d05-8685-3c5eb0b20a81"},"vehicle_type_id":"4","last_reported":1692389218,"current_range_meters":28800,"station_id":"ce4bh5p2rcd13ifvqe4g","pricing_plan_id":"free"},{"bike_id":"d274d145-0f78-4301-a12f-2b0f3cd78703","system_id":"levelo_inurba_marseille","lat":43.29074,"lon":5.37159,"is_reserved":false,"is_disabled":false,"rental_uris":{"android":"levelo://app?vid=d274d145-0f78-4301-a12f-2b0f3cd78703","ios":"levelo://app?vid=d274d145-0f78-4301-a12f-2b0f3cd78703"},"vehicle_type_id":"4","last_reported":1692389218,"current_range_meters":6800,"station_id":"ce4bh5p2rcd13ifvqe4g","pricing_plan_id":"free"},{"bike_id":"b1fcb94d-a015-4a15-b278-2da7b008d1ad","system_id":"levelo_inurba_marseille","lat":43.290779,"lon":5.371482,"is_reserved":false,"is_disabled":false,"rental_uris":{"android":"levelo://app?vid=b1fcb94d-a015-4a15-b278-2da7b008d1ad","ios":"levelo://app?vid=b1fcb94d-a015-4a15-b278-2da7b008d1ad"},"vehicle_type_id":"4","last_reported":1692389218,"current_range_meters":24800,"station_id":"ce4bh5p2rcd13ifvqe4g","pricing_plan_id":"free"},{"bike_id":"c4886bcf-133a-4d0b-a4af-8af88a3e456d","system_id":"levelo_inurba_marseille","lat":43.30212,"lon":5.39464,"is_reserved":false,"is_disabled":false,"rental_uris":{"android":"levelo://app?vid=c4886bcf-133a-4d0b-a4af-8af88a3e456d","ios":"levelo://app?vid=c4886bcf-133a-4d0b-a4af-8af88a3e456d"},"vehicle_type_id":"4","last_reported":1692389218,"current_range_meters":25200,"station_id":"ce4bh0p2rcd13ifvqd70","pricing_plan_id":"free"},{"bike_id":"b5bf850a-a79f-4cc1-8bf8-669370092413","system_id":"levelo_inurba_marseille","lat":43.302008,"lon":5.394694,"is_reserved":false,"is_disabled":false,"rental_uris":{"android":"levelo://app?vid=b5bf850a-a79f-4cc1-8bf8-669370092413","ios":"levelo://app?vid=b5bf850a-a79f-4cc1-8bf8-669370092413"},"vehicle_type_id":"4","last_reported":1692389218,"current_range_meters":30400,"station_id":"ce4bh0p2rcd13ifvqd70","pricing_plan_id":"free"},{"bike_id":"2c9691a3-b59b-49e9-8578-2e2ab5ba4626","system_id":"levelo_inurba_marseille","lat":43.302008,"lon":5.394694,"is_reserved":false,"is_disabled":false,"rental_uris":{"android":"levelo://app?vid=2c9691a3-b59b-49e9-8578-2e2ab5ba4626","ios":"levelo://app?vid=2c9691a3-b59b-49e9-8578-2e2ab5ba4626"},"vehicle_type_id":"4","last_reported":1692389218,"current_range_meters":5200,"station_id":"ce4bh0p2rcd13ifvqd70","pricing_plan_id":"free"},{"bike_id":"45252ddd-c66d-4d6e-86d8-82a17bebb271","system_id":"levelo_inurba_marseille","lat":43.290624,"lon":5.359245,"is_reserved":false,"is_disabled":false,"rental_uris":{"android":"levelo://app?vid=45252ddd-c66d-4d6e-86d8-82a17bebb271","ios":"levelo://app?vid=45252ddd-c66d-4d6e-86d8-82a17bebb271"},"vehicle_type_id":"4","last_reported":1692389218,"current_range_meters":4800,"station_id":"ce4bha92rcd13ifvqeg0","pricing_plan_id":"free"},{"bike_id":"749763eb-d357-40e1-9652-8e62c76bff4e","system_id":"levelo_inurba_marseille","lat":43.290631,"lon":5.359244,"is_reserved":false,"is_disabled":false,"rental_uris":{"android":"levelo://app?vid=749763eb-d357-40e1-9652-8e62c76bff4e","ios":"levelo://app?vid=749763eb-d357-40e1-9652-8e62c76bff4e"},"vehicle_type_id":"4","last_reported":1692389218,"current_range_meters":6400,"station_id":"ce4bha92rcd13ifvqeg0","pricing_plan_id":"free"},{"bike_id":"b43ab330-b7cf-41ad-9f53-78f38ade6834","system_id":"levelo_inurba_marseille","lat":43.290631,"lon":5.359244,"is_reserved":false,"is_disabled":false,"rental_uris":{"android":"levelo://app?vid=b43ab330-b7cf-41ad-9f53-78f38ade6834","ios":"levelo://app?vid=b43ab330-b7cf-41ad-9f53-78f38ade6834"},"vehicle_type_id":"4","last_reported":1692389218,"current_range_meters":2000,"station_id":"ce4bha92rcd13ifvqeg0","pricing_plan_id":"free"},{"bike_id":"34f60922-8265-4670-8299-f44cbd94ecca","system_id":"levelo_inurba_marseille","lat":43.294153,"lon":5.386305,"is_reserved":false,"is_disabled":false,"rental_uris":{"android":"levelo://app?vid=34f60922-8265-4670-8299-f44cbd94ecca","ios":"levelo://app?vid=34f60922-8265-4670-8299-f44cbd94ecca"},"vehicle_type_id":"4","last_reported":1692389218,"current_range_meters":6000,"station_id":"ce4bh2h2rcd13ifvqdh0","pricing_plan_id":"free"},{"bike_id":"082b2cc1-f23b-441d-ad38-e7fb76d7c33b","system_id":"levelo_inurba_marseille","lat":43.29423,"lon":5.38629,"is_reserved":false,"is_disabled":false,"rental_uris":{"android":"levelo://app?vid=082b2cc1-f23b-441d-ad38-e7fb76d7c33b","ios":"levelo://app?vid=082b2cc1-f23b-441d-ad38-e7fb76d7c33b"},"vehicle_type_id":"4","last_reported":1692389218,"current_range_meters":25600,"station_id":"ce4bh2h2rcd13ifvqdh0","pricing_plan_id":"free"},{"bike_id":"af445658-89a2-47e1-9e9d-b406c9ae07c9","system_id":"levelo_inurba_marseille","lat":43.29419,"lon":5.38623,"is_reserved":false,"is_disabled":false,"rental_uris":{"android":"levelo://app?vid=af445658-89a2-47e1-9e9d-b406c9ae07c9","ios":"levelo://app?vid=af445658-89a2-47e1-9e9d-b406c9ae07c9"},"vehicle_type_id":"4","last_reported":1692389218,"current_range_meters":1600,"station_id":"ce4bh2h2rcd13ifvqdh0","pricing_plan_id":"free"},{"bike_id":"0efd717f-e234-40bb-9b77-785360aba2fc","system_id":"levelo_inurba_marseille","lat":43.2942,"lon":5.38628,"is_reserved":false,"is_disabled":false,"rental_uris":{"android":"levelo://app?vid=0efd717f-e234-40bb-9b77-785360aba2fc","ios":"levelo://app?vid=0efd717f-e234-40bb-9b77-785360aba2fc"},"vehicle_type_id":"4","last_reported":1692389218,"current_range_meters":19200,"station_id":"ce4bh2h2rcd13ifvqdh0","pricing_plan_id":"free"},{"bike_id":"df903d66-27fe-422d-a234-3fb1fc9da286","system_id":"levelo_inurba_marseille","lat":43.29421,"lon":5.3863,"is_reserved":false,"is_disabled":false,"rental_uris":{"android":"levelo://app?vid=df903d66-27fe-422d-a234-3fb1fc9da286","ios":"levelo://app?vid=df903d66-27fe-422d-a234-3fb1fc9da286"},"vehicle_type_id":"4","last_reported":1692389218,"current_range_meters":0,"station_id":"ce4bh2h2rcd13ifvqdh0","pricing_plan_id":"free"},{"bike_id":"af3bc1b7-5494-4eac-8d31-87c222cbb140","system_id":"levelo_inurba_marseille","lat":43.29419,"lon":5.38631,"is_reserved":false,"is_disabled":false,"rental_uris":{"android":"levelo://app?vid=af3bc1b7-5494-4eac-8d31-87c222cbb140","ios":"levelo://app?vid=af3bc1b7-5494-4eac-8d31-87c222cbb140"},"vehicle_type_id":"4","last_reported":1692389218,"current_range_meters":2000,"station_id":"ce4bh2h2rcd13ifvqdh0","pricing_plan_id":"free"},{"bike_id":"486c42e6-80ff-4017-99c2-983fe35090be","system_id":"levelo_inurba_marseille","lat":43.29418,"lon":5.3863,"is_reserved":false,"is_disabled":false,"rental_uris":{"android":"levelo://app?vid=486c42e6-80ff-4017-99c2-983fe35090be","ios":"levelo://app?vid=486c42e6-80ff-4017-99c2-983fe35090be"},"vehicle_type_id":"4","last_reported":1692389218,"current_range_meters":4400,"station_id":"ce4bh2h2rcd13ifvqdh0","pricing_plan_id":"free"},{"bike_id":"5c66fe9e-afd9-4cea-aacb-7e55a145e43d","system_id":"levelo_inurba_marseille","lat":43.29418,"lon":5.3863,"is_reserved":false,"is_disabled":false,"rental_uris":{"android":"levelo://app?vid=5c66fe9e-afd9-4cea-aacb-7e55a145e43d","ios":"levelo://app?vid=5c66fe9e-afd9-4cea-aacb-7e55a145e43d"},"vehicle_type_id":"4","last_reported":1692389218,"current_range_meters":28000,"station_id":"ce4bh2h2rcd13ifvqdh0","pricing_plan_id":"free"},{"bike_id":"a18f392a-952e-45a5-8627-6be160305e27","system_id":"levelo_inurba_marseille","lat":43.294153,"lon":5.386305,"is_reserved":false,"is_disabled":false,"rental_uris":{"android":"levelo://app?vid=a18f392a-952e-45a5-8627-6be160305e27","ios":"levelo://app?vid=a18f392a-952e-45a5-8627-6be160305e27"},"vehicle_type_id":"4","last_reported":1692389218,"current_range_meters":10400,"station_id":"ce4bh2h2rcd13ifvqdh0","pricing_plan_id":"free"},{"bike_id":"bd73c822-d8ee-4013-8cd8-5c2aa04a1da0","system_id":"levelo_inurba_marseille","lat":43.29417,"lon":5.38629,"is_reserved":false,"is_disabled":false,"rental_uris":{"android":"levelo://app?vid=bd73c822-d8ee-4013-8cd8-5c2aa04a1da0","ios":"levelo://app?vid=bd73c822-d8ee-4013-8cd8-5c2aa04a1da0"},"vehicle_type_id":"4","last_reported":1692389218,"current_range_meters":0,"station_id":"","pricing_plan_id":"free"},{"bike_id":"97ac6290-f5a2-4988-af3f-ed76bfbe06c4","system_id":"levelo_inurba_marseille","lat":43.294153,"lon":5.386305,"is_reserved":false,"is_disabled":false,"rental_uris":{"android":"levelo://app?vid=97ac6290-f5a2-4988-af3f-ed76bfbe06c4","ios":"levelo://app?vid=97ac6290-f5a2-4988-af3f-ed76bfbe06c4"},"vehicle_type_id":"4","last_reported":1692389218,"current_range_meters":26400,"station_id":"ce4bh2h2rcd13ifvqdh0","pricing_plan_id":"free"},{"bike_id":"d443b301-b697-4014-9a5f-81ada8222cd4","system_id":"levelo_inurba_marseille","lat":43.294153,"lon":5.386305,"is_reserved":false,"is_disabled":false,"rental_uris":{"android":"levelo://app?vid=d443b301-b697-4014-9a5f-81ada8222cd4","ios":"levelo://app?vid=d443b301-b697-4014-9a5f-81ada8222cd4"},"vehicle_type_id":"4","last_reported":1692389218,"current_range_meters":2000,"station_id":"ce4bh2h2rcd13ifvqdh0","pricing_plan_id":"free"},{"bike_id":"5ac179f2-9725-463c-8bbf-4572e59e52e5","system_id":"levelo_inurba_marseille","lat":43.29415,"lon":5.38627,"is_reserved":false,"is_disabled":false,"rental_uris":{"android":"levelo://app?vid=5ac179f2-9725-463c-8bbf-4572e59e52e5","ios":"levelo://app?vid=5ac179f2-9725-463c-8bbf-4572e59e52e5"},"vehicle_type_id":"4","last_reported":1692389218,"current_range_meters":0,"station_id":"ce4bh2h2rcd13ifvqdh0","pricing_plan_id":"free"},{"bike_id":"77f743fa-e6a2-4745-99af-13ab1feb321d","system_id":"levelo_inurba_marseille","lat":43.29413,"lon":5.38624,"is_reserved":false,"is_disabled":false,"rental_uris":{"android":"levelo://app?vid=77f743fa-e6a2-4745-99af-13ab1feb321d","ios":"levelo://app?vid=77f743fa-e6a2-4745-99af-13ab1feb321d"},"vehicle_type_id":"4","last_reported":1692389218,"current_range_meters":10400,"station_id":"ce4bh2h2rcd13ifvqdh0","pricing_plan_id":"free"},{"bike_id":"45f7a7e2-3100-4c51-99f3-9c804013feeb","system_id":"levelo_inurba_marseille","lat":43.260219,"lon":5.37546,"is_reserved":false,"is_disabled":false,"rental_uris":{"android":"levelo://app?vid=45f7a7e2-3100-4c51-99f3-9c804013feeb","ios":"levelo://app?vid=45f7a7e2-3100-4c51-99f3-9c804013feeb"},"vehicle_type_id":"4","last_reported":1692389218,"current_range_meters":2800,"station_id":"ce4bhgh2rcd13ifvqfa0","pricing_plan_id":"free"},{"bike_id":"e11a67c2-13ea-4c01-a0dc-a90b995651e2","system_id":"levelo_inurba_marseille","lat":43.294153,"lon":5.386305,"is_reserved":false,"is_disabled":false,"rental_uris":{"android":"levelo://app?vid=e11a67c2-13ea-4c01-a0dc-a90b995651e2","ios":"levelo://app?vid=e11a67c2-13ea-4c01-a0dc-a90b995651e2"},"vehicle_type_id":"4","last_reported":1692389218,"current_range_meters":31600,"station_id":"ce4bh2h2rcd13ifvqdh0","pricing_plan_id":"free"},{"bike_id":"98ac39c7-1b0a-4e23-b536-29576ad3192c","system_id":"levelo_inurba_marseille","lat":43.29416,"lon":5.38633,"is_reserved":false,"is_disabled":false,"rental_uris":{"android":"levelo://app?vid=98ac39c7-1b0a-4e23-b536-29576ad3192c","ios":"levelo://app?vid=98ac39c7-1b0a-4e23-b536-29576ad3192c"},"vehicle_type_id":"4","last_reported":1692389218,"current_range_meters":19600,"station_id":"ce4bh2h2rcd13ifvqdh0","pricing_plan_id":"free"},{"bike_id":"4d8cb496-1431-41b2-a54f-8c59dcdf5a78","system_id":"levelo_inurba_marseille","lat":43.294153,"lon":5.386305,"is_reserved":false,"is_disabled":false,"rental_uris":{"android":"levelo://app?vid=4d8cb496-1431-41b2-a54f-8c59dcdf5a78","ios":"levelo://app?vid=4d8cb496-1431-41b2-a54f-8c59dcdf5a78"},"vehicle_type_id":"4","last_reported":1692389218,"current_range_meters":4400,"station_id":"ce4bh2h2rcd13ifvqdh0","pricing_plan_id":"free"},{"bike_id":"7dec95ac-ada7-406e-9e98-105c25bebae1","system_id":"levelo_inurba_marseille","lat":43.29414,"lon":5.38631,"is_reserved":false,"is_disabled":false,"rental_uris":{"android":"levelo://app?vid=7dec95ac-ada7-406e-9e98-105c25bebae1","ios":"levelo://app?vid=7dec95ac-ada7-406e-9e98-105c25bebae1"},"vehicle_type_id":"4","last_reported":1692389218,"current_range_meters":12800,"station_id":"ce4bh2h2rcd13ifvqdh0","pricing_plan_id":"free"},{"bike_id":"dd0f1b2c-b008-415f-b167-e10f0b253100","system_id":"levelo_inurba_marseille","lat":43.294153,"lon":5.386305,"is_reserved":false,"is_disabled":false,"rental_uris":{"android":"levelo://app?vid=dd0f1b2c-b008-415f-b167-e10f0b253100","ios":"levelo://app?vid=dd0f1b2c-b008-415f-b167-e10f0b253100"},"vehicle_type_id":"4","last_reported":1692389218,"current_range_meters":8800,"station_id":"ce4bh2h2rcd13ifvqdh0","pricing_plan_id":"free"},{"bike_id":"53b16bce-518a-4670-8658-ad2ceb40dbad","system_id":"levelo_inurba_marseille","lat":43.294153,"lon":5.386305,"is_reserved":false,"is_disabled":false,"rental_uris":{"android":"levelo://app?vid=53b16bce-518a-4670-8658-ad2ceb40dbad","ios":"levelo://app?vid=53b16bce-518a-4670-8658-ad2ceb40dbad"},"vehicle_type_id":"4","last_reported":1692389218,"current_range_meters":14800,"station_id":"ce4bh2h2rcd13ifvqdh0","pricing_plan_id":"free"},{"bike_id":"17a8bbd6-9227-4c58-abe8-89c57257fb70","system_id":"levelo_inurba_marseille","lat":43.29414,"lon":5.38639,"is_reserved":false,"is_disabled":false,"rental_uris":{"android":"levelo://app?vid=17a8bbd6-9227-4c58-abe8-89c57257fb70","ios":"levelo://app?vid=17a8bbd6-9227-4c58-abe8-89c57257fb70"},"vehicle_type_id":"4","last_reported":1692389218,"current_range_meters":3600,"station_id":"ce4bh2h2rcd13ifvqdh0","pricing_plan_id":"free"},{"bike_id":"16b58cb6-64f6-4a75-9637-58c48a96bdb8","system_id":"levelo_inurba_marseille","lat":43.2941,"lon":5.38632,"is_reserved":false,"is_disabled":false,"rental_uris":{"android":"levelo://app?vid=16b58cb6-64f6-4a75-9637-58c48a96bdb8","ios":"levelo://app?vid=16b58cb6-64f6-4a75-9637-58c48a96bdb8"},"vehicle_type_id":"4","last_reported":1692389218,"current_range_meters":9200,"station_id":"ce4bh2h2rcd13ifvqdh0","pricing_plan_id":"free"},{"bike_id":"f08c9287-c4aa-499f-b9d6-809a5a2b784a","system_id":"levelo_inurba_marseille","lat":43.292642,"lon":5.384254,"is_reserved":false,"is_disabled":false,"rental_uris":{"android":"levelo://app?vid=f08c9287-c4aa-499f-b9d6-809a5a2b784a","ios":"levelo://app?vid=f08c9287-c4aa-499f-b9d6-809a5a2b784a"},"vehicle_type_id":"4","last_reported":1692389218,"current_range_meters":16000,"station_id":"ce4bh692rcd13ifvqea0","pricing_plan_id":"free"},{"bike_id":"67e341bd-8f84-4e80-b7af-91a962c2e239","system_id":"levelo_inurba_marseille","lat":43.292642,"lon":5.384254,"is_reserved":false,"is_disabled":false,"rental_uris":{"android":"levelo://app?vid=67e341bd-8f84-4e80-b7af-91a962c2e239","ios":"levelo://app?vid=67e341bd-8f84-4e80-b7af-91a962c2e239"},"vehicle_type_id":"4","last_reported":1692389218,"current_range_meters":16800,"station_id":"ce4bh692rcd13ifvqea0","pricing_plan_id":"free"},{"bike_id":"755557b2-73ce-49d8-acf9-69244b2c0149","system_id":"levelo_inurba_marseille","lat":43.292644,"lon":5.384257,"is_reserved":false,"is_disabled":false,"rental_uris":{"android":"levelo://app?vid=755557b2-73ce-49d8-acf9-69244b2c0149","ios":"levelo://app?vid=755557b2-73ce-49d8-acf9-69244b2c0149"},"vehicle_type_id":"4","last_reported":1692389218,"current_range_meters":21200,"station_id":"ce4bh692rcd13ifvqea0","pricing_plan_id":"free"},{"bike_id":"e45958f9-b7e5-45eb-8e87-a7678f6d4cd2","system_id":"levelo_inurba_marseille","lat":43.292644,"lon":5.384257,"is_reserved":false,"is_disabled":false,"rental_uris":{"android":"levelo://app?vid=e45958f9-b7e5-45eb-8e87-a7678f6d4cd2","ios":"levelo://app?vid=e45958f9-b7e5-45eb-8e87-a7678f6d4cd2"},"vehicle_type_id":"4","last_reported":1692389218,"current_range_meters":31200,"station_id":"ce4bh692rcd13ifvqea0","pricing_plan_id":"free"},{"bike_id":"5c59d5d1-8079-4f95-9c0b-804f49e502d2","system_id":"levelo_inurba_marseille","lat":43.292644,"lon":5.384257,"is_reserved":false,"is_disabled":false,"rental_uris":{"android":"levelo://app?vid=5c59d5d1-8079-4f95-9c0b-804f49e502d2","ios":"levelo://app?vid=5c59d5d1-8079-4f95-9c0b-804f49e502d2"},"vehicle_type_id":"4","last_reported":1692389218,"current_range_meters":6800,"station_id":"ce4bh692rcd13ifvqea0","pricing_plan_id":"free"},{"bike_id":"6b086155-9f6e-4d62-9ae1-2403540a3bbf","system_id":"levelo_inurba_marseille","lat":43.292644,"lon":5.384257,"is_reserved":false,"is_disabled":false,"rental_uris":{"android":"levelo://app?vid=6b086155-9f6e-4d62-9ae1-2403540a3bbf","ios":"levelo://app?vid=6b086155-9f6e-4d62-9ae1-2403540a3bbf"},"vehicle_type_id":"4","last_reported":1692389218,"current_range_meters":26400,"station_id":"ce4bh692rcd13ifvqea0","pricing_plan_id":"free"},{"bike_id":"88a72875-b222-402f-9fb5-923222c340b7","system_id":"levelo_inurba_marseille","lat":43.29272,"lon":5.38449,"is_reserved":false,"is_disabled":false,"rental_uris":{"android":"levelo://app?vid=88a72875-b222-402f-9fb5-923222c340b7","ios":"levelo://app?vid=88a72875-b222-402f-9fb5-923222c340b7"},"vehicle_type_id":"4","last_reported":1692389218,"current_range_meters":13600,"station_id":"ce4bh692rcd13ifvqea0","pricing_plan_id":"free"},{"bike_id":"e4696fc1-ab71-429e-889f-846785587e32","system_id":"levelo_inurba_marseille","lat":43.29267,"lon":5.3844,"is_reserved":false,"is_disabled":false,"rental_uris":{"android":"levelo://app?vid=e4696fc1-ab71-429e-889f-846785587e32","ios":"levelo://app?vid=e4696fc1-ab71-429e-889f-846785587e32"},"vehicle_type_id":"4","last_reported":1692389218,"current_range_meters":22400,"station_id":"ce4bh692rcd13ifvqea0","pricing_plan_id":"free"},{"bike_id":"4efb2839-69b9-4388-a975-a61e01a722e3","system_id":"levelo_inurba_marseille","lat":43.29269,"lon":5.38445,"is_reserved":false,"is_disabled":false,"rental_uris":{"android":"levelo://app?vid=4efb2839-69b9-4388-a975-a61e01a722e3","ios":"levelo://app?vid=4efb2839-69b9-4388-a975-a61e01a722e3"},"vehicle_type_id":"4","last_reported":1692389218,"current_range_meters":8000,"station_id":"ce4bh692rcd13ifvqea0","pricing_plan_id":"free"},{"bike_id":"0ce9a46d-0192-4810-b6e3-05c0afb68954","system_id":"levelo_inurba_marseille","lat":43.292642,"lon":5.384254,"is_reserved":false,"is_disabled":false,"rental_uris":{"android":"levelo://app?vid=0ce9a46d-0192-4810-b6e3-05c0afb68954","ios":"levelo://app?vid=0ce9a46d-0192-4810-b6e3-05c0afb68954"},"vehicle_type_id":"4","last_reported":1692389218,"current_range_meters":30000,"station_id":"ce4bh692rcd13ifvqea0","pricing_plan_id":"free"},{"bike_id":"db53003c-6d68-40a6-aabd-92e5a4d1c627","system_id":"levelo_inurba_marseille","lat":43.29274,"lon":5.38456,"is_reserved":false,"is_disabled":false,"rental_uris":{"android":"levelo://app?vid=db53003c-6d68-40a6-aabd-92e5a4d1c627","ios":"levelo://app?vid=db53003c-6d68-40a6-aabd-92e5a4d1c627"},"vehicle_type_id":"4","last_reported":1692389218,"current_range_meters":22400,"station_id":"ce4bh692rcd13ifvqea0","pricing_plan_id":"free"},{"bike_id":"c4710a08-e554-4b57-baef-4e5c306e5540","system_id":"levelo_inurba_marseille","lat":43.29271,"lon":5.3845,"is_reserved":false,"is_disabled":false,"rental_uris":{"android":"levelo://app?vid=c4710a08-e554-4b57-baef-4e5c306e5540","ios":"levelo://app?vid=c4710a08-e554-4b57-baef-4e5c306e5540"},"vehicle_type_id":"4","last_reported":1692389218,"current_range_meters":24000,"station_id":"ce4bh692rcd13ifvqea0","pricing_plan_id":"free"},{"bike_id":"cfd59b25-ce71-46d7-badc-b025987df720","system_id":"levelo_inurba_marseille","lat":43.29263,"lon":5.38434,"is_reserved":false,"is_disabled":false,"rental_uris":{"android":"levelo://app?vid=cfd59b25-ce71-46d7-badc-b025987df720","ios":"levelo://app?vid=cfd59b25-ce71-46d7-badc-b025987df720"},"vehicle_type_id":"4","last_reported":1692389218,"current_range_meters":0,"station_id":"ce4bh692rcd13ifvqea0","pricing_plan_id":"free"},{"bike_id":"2fdc9615-1c17-449a-84e7-5721fda3d212","system_id":"levelo_inurba_marseille","lat":43.304296,"lon":5.397513,"is_reserved":false,"is_disabled":false,"rental_uris":{"android":"levelo://app?vid=2fdc9615-1c17-449a-84e7-5721fda3d212","ios":"levelo://app?vid=2fdc9615-1c17-449a-84e7-5721fda3d212"},"vehicle_type_id":"4","last_reported":1692389218,"current_range_meters":24800,"station_id":"ce4bh092rcd13ifvqd20","pricing_plan_id":"free"},{"bike_id":"8b9a8bfd-fb0b-4354-8156-1abbc2066982","system_id":"levelo_inurba_marseille","lat":43.29262,"lon":5.38436,"is_reserved":false,"is_disabled":false,"rental_uris":{"android":"levelo://app?vid=8b9a8bfd-fb0b-4354-8156-1abbc2066982","ios":"levelo://app?vid=8b9a8bfd-fb0b-4354-8156-1abbc2066982"},"vehicle_type_id":"4","last_reported":1692389218,"current_range_meters":19200,"station_id":"ce4bh692rcd13ifvqea0","pricing_plan_id":"free"},{"bike_id":"b66c1dc7-d18f-42cf-8cdf-79e0b26df9f0","system_id":"levelo_inurba_marseille","lat":43.292644,"lon":5.384257,"is_reserved":false,"is_disabled":false,"rental_uris":{"android":"levelo://app?vid=b66c1dc7-d18f-42cf-8cdf-79e0b26df9f0","ios":"levelo://app?vid=b66c1dc7-d18f-42cf-8cdf-79e0b26df9f0"},"vehicle_type_id":"4","last_reported":1692389218,"current_range_meters":10800,"station_id":"ce4bh692rcd13ifvqea0","pricing_plan_id":"free"},{"bike_id":"4c417045-4d75-49d2-8e2a-99fd7025f5da","system_id":"levelo_inurba_marseille","lat":43.29262,"lon":5.3844,"is_reserved":false,"is_disabled":false,"rental_uris":{"android":"levelo://app?vid=4c417045-4d75-49d2-8e2a-99fd7025f5da","ios":"levelo://app?vid=4c417045-4d75-49d2-8e2a-99fd7025f5da"},"vehicle_type_id":"4","last_reported":1692389218,"current_range_meters":1600,"station_id":"ce4bh692rcd13ifvqea0","pricing_plan_id":"free"},{"bike_id":"81f27b8a-3da7-4e46-a9d3-2f86dce64898","system_id":"levelo_inurba_marseille","lat":43.29262,"lon":5.3844,"is_reserved":false,"is_disabled":false,"rental_uris":{"android":"levelo://app?vid=81f27b8a-3da7-4e46-a9d3-2f86dce64898","ios":"levelo://app?vid=81f27b8a-3da7-4e46-a9d3-2f86dce64898"},"vehicle_type_id":"4","last_reported":1692389218,"current_range_meters":6800,"station_id":"ce4bh692rcd13ifvqea0","pricing_plan_id":"free"},{"bike_id":"80b5c6ee-383e-414d-8bb9-bd6e97b5a000","system_id":"levelo_inurba_marseille","lat":43.29266,"lon":5.38449,"is_reserved":false,"is_disabled":false,"rental_uris":{"android":"levelo://app?vid=80b5c6ee-383e-414d-8bb9-bd6e97b5a000","ios":"levelo://app?vid=80b5c6ee-383e-414d-8bb9-bd6e97b5a000"},"vehicle_type_id":"4","last_reported":1692389218,"current_range_meters":12400,"station_id":"ce4bh692rcd13ifvqea0","pricing_plan_id":"free"},{"bike_id":"0c16c7c3-95c2-4bc4-a895-601e59fab0d3","system_id":"levelo_inurba_marseille","lat":43.292642,"lon":5.384254,"is_reserved":false,"is_disabled":false,"rental_uris":{"android":"levelo://app?vid=0c16c7c3-95c2-4bc4-a895-601e59fab0d3","ios":"levelo://app?vid=0c16c7c3-95c2-4bc4-a895-601e59fab0d3"},"vehicle_type_id":"4","last_reported":1692389218,"current_range_meters":19600,"station_id":"ce4bh692rcd13ifvqea0","pricing_plan_id":"free"},{"bike_id":"771b5228-f852-42b9-ab73-3e1ce1a5323e","system_id":"levelo_inurba_marseille","lat":43.29266,"lon":5.38452,"is_reserved":false,"is_disabled":false,"rental_uris":{"android":"levelo://app?vid=771b5228-f852-42b9-ab73-3e1ce1a5323e","ios":"levelo://app?vid=771b5228-f852-42b9-ab73-3e1ce1a5323e"},"vehicle_type_id":"4","last_reported":1692389218,"current_range_meters":14400,"station_id":"ce4bh692rcd13ifvqea0","pricing_plan_id":"free"},{"bike_id":"8d443f4a-6005-45d2-b7bc-13d931ef7f9e","system_id":"levelo_inurba_marseille","lat":43.29264,"lon":5.384478,"is_reserved":false,"is_disabled":false,"rental_uris":{"android":"levelo://app?vid=8d443f4a-6005-45d2-b7bc-13d931ef7f9e","ios":"levelo://app?vid=8d443f4a-6005-45d2-b7bc-13d931ef7f9e"},"vehicle_type_id":"4","last_reported":1692389218,"current_range_meters":4000,"station_id":"ce4bh692rcd13ifvqea0","pricing_plan_id":"free"},{"bike_id":"843ef16d-936f-4925-ba04-159add64a9d0","system_id":"levelo_inurba_marseille","lat":43.292642,"lon":5.384254,"is_reserved":false,"is_disabled":false,"rental_uris":{"android":"levelo://app?vid=843ef16d-936f-4925-ba04-159add64a9d0","ios":"levelo://app?vid=843ef16d-936f-4925-ba04-159add64a9d0"},"vehicle_type_id":"4","last_reported":1692389218,"current_range_meters":14800,"station_id":"ce4bh692rcd13ifvqea0","pricing_plan_id":"free"},{"bike_id":"14e7405a-b8fa-4de3-83d5-d3653c403dc9","system_id":"levelo_inurba_marseille","lat":43.29259,"lon":5.38441,"is_reserved":false,"is_disabled":false,"rental_uris":{"android":"levelo://app?vid=14e7405a-b8fa-4de3-83d5-d3653c403dc9","ios":"levelo://app?vid=14e7405a-b8fa-4de3-83d5-d3653c403dc9"},"vehicle_type_id":"4","last_reported":1692389218,"current_range_meters":25600,"station_id":"ce4bh692rcd13ifvqea0","pricing_plan_id":"free"},{"bike_id":"70921125-53a8-4c7c-943f-380d2e703c97","system_id":"levelo_inurba_marseille","lat":43.29258,"lon":5.38439,"is_reserved":false,"is_disabled":false,"rental_uris":{"android":"levelo://app?vid=70921125-53a8-4c7c-943f-380d2e703c97","ios":"levelo://app?vid=70921125-53a8-4c7c-943f-380d2e703c97"},"vehicle_type_id":"4","last_reported":1692389218,"current_range_meters":2800,"station_id":"ce4bh692rcd13ifvqea0","pricing_plan_id":"free"},{"bike_id":"d233ef84-2ed4-4711-823a-dbd3ceebbfda","system_id":"levelo_inurba_marseille","lat":43.292642,"lon":5.384254,"is_reserved":false,"is_disabled":false,"rental_uris":{"android":"levelo://app?vid=d233ef84-2ed4-4711-823a-dbd3ceebbfda","ios":"levelo://app?vid=d233ef84-2ed4-4711-823a-dbd3ceebbfda"},"vehicle_type_id":"4","last_reported":1692389218,"current_range_meters":13600,"station_id":"ce4bh692rcd13ifvqea0","pricing_plan_id":"free"},{"bike_id":"cdebf1bf-3531-4f2b-a2f5-6cef2c01b89e","system_id":"levelo_inurba_marseille","lat":43.29257,"lon":5.3844,"is_reserved":false,"is_disabled":false,"rental_uris":{"android":"levelo://app?vid=cdebf1bf-3531-4f2b-a2f5-6cef2c01b89e","ios":"levelo://app?vid=cdebf1bf-3531-4f2b-a2f5-6cef2c01b89e"},"vehicle_type_id":"4","last_reported":1692389218,"current_range_meters":17200,"station_id":"ce4bh692rcd13ifvqea0","pricing_plan_id":"free"},{"bike_id":"8639f404-bbf7-4cbe-984d-79f8e6dc0da9","system_id":"levelo_inurba_marseille","lat":43.292569,"lon":5.384405,"is_reserved":false,"is_disabled":false,"rental_uris":{"android":"levelo://app?vid=8639f404-bbf7-4cbe-984d-79f8e6dc0da9","ios":"levelo://app?vid=8639f404-bbf7-4cbe-984d-79f8e6dc0da9"},"vehicle_type_id":"4","last_reported":1692389218,"current_range_meters":4800,"station_id":"ce4bh692rcd13ifvqea0","pricing_plan_id":"free"},{"bike_id":"c14e4177-5e3b-4755-a2c9-f4be28331cda","system_id":"levelo_inurba_marseille","lat":43.292644,"lon":5.384257,"is_reserved":false,"is_disabled":false,"rental_uris":{"android":"levelo://app?vid=c14e4177-5e3b-4755-a2c9-f4be28331cda","ios":"levelo://app?vid=c14e4177-5e3b-4755-a2c9-f4be28331cda"},"vehicle_type_id":"4","last_reported":1692389218,"current_range_meters":8800,"station_id":"ce4bh692rcd13ifvqea0","pricing_plan_id":"free"},{"bike_id":"41ed9d8d-7bd3-4ae5-9953-723b122092fd","system_id":"levelo_inurba_marseille","lat":43.33037,"lon":5.38913,"is_reserved":false,"is_disabled":false,"rental_uris":{"android":"levelo://app?vid=41ed9d8d-7bd3-4ae5-9953-723b122092fd","ios":"levelo://app?vid=41ed9d8d-7bd3-4ae5-9953-723b122092fd"},"vehicle_type_id":"4","last_reported":1692389218,"current_range_meters":30000,"station_id":"ce4bhr92rcd13ifvqhrg","pricing_plan_id":"free"},{"bike_id":"33f78fbf-f7ec-4b55-9ebc-a8318d5db131","system_id":"levelo_inurba_marseille","lat":43.33044,"lon":5.38915,"is_reserved":false,"is_disabled":false,"rental_uris":{"android":"levelo://app?vid=33f78fbf-f7ec-4b55-9ebc-a8318d5db131","ios":"levelo://app?vid=33f78fbf-f7ec-4b55-9ebc-a8318d5db131"},"vehicle_type_id":"4","last_reported":1692389218,"current_range_meters":25600,"station_id":"ce4bhr92rcd13ifvqhrg","pricing_plan_id":"free"},{"bike_id":"16105e4d-cb4a-4aae-91bb-2ecd41a7406b","system_id":"levelo_inurba_marseille","lat":43.33038,"lon":5.38924,"is_reserved":false,"is_disabled":false,"rental_uris":{"android":"levelo://app?vid=16105e4d-cb4a-4aae-91bb-2ecd41a7406b","ios":"levelo://app?vid=16105e4d-cb4a-4aae-91bb-2ecd41a7406b"},"vehicle_type_id":"4","last_reported":1692389218,"current_range_meters":28400,"station_id":"ce4bhr92rcd13ifvqhrg","pricing_plan_id":"free"},{"bike_id":"de450cac-4370-4660-9455-3e94463307a2","system_id":"levelo_inurba_marseille","lat":43.33042,"lon":5.38922,"is_reserved":false,"is_disabled":false,"rental_uris":{"android":"levelo://app?vid=de450cac-4370-4660-9455-3e94463307a2","ios":"levelo://app?vid=de450cac-4370-4660-9455-3e94463307a2"},"vehicle_type_id":"4","last_reported":1692389218,"current_range_meters":23200,"station_id":"ce4bhr92rcd13ifvqhrg","pricing_plan_id":"free"},