{"last_updated":1679328642,"ttl":30,"version":"2.2","data":{"bikes":[{"bike_id":"dd6907e9-3f2a-4eef-a874-f92ab7092ece","system_id":"levelo_inurba_marseille","lat":43.312239,"lon":5.368562,"is_reserved":false,"is_disabled":false,"rental_uris":{"android":"levelo://app?vid=dd6907e9-3f2a-4eef-a874-f92ab7092ece","ios":"levelo://app?vid=dd6907e9-3f2a-4eef-a874-f92ab7092ece"},"vehicle_type_id":"4","last_reported":1679328653,"current_range_meters":29600,"station_id":"ce4bgl92rcd13ifvqbq0","pricing_plan_id":"free"},{"bike_id":"6dc208cf-c15e-4ac8-b7d6-fd30cf1433a5","system_id":"levelo_inurba_marseille","lat":43.31362,"lon":5.37084,"is_reserved":false,"is_disabled":false,"rental_uris":{"android":"levelo://app?vid=6dc208cf-c15e-4ac8-b7d6-fd30cf1433a5","ios":"levelo://app?vid=6dc208cf-c15e-4ac8-b7d6-fd30cf1433a5"},"vehicle_type_id":"4","last_reported":1679328653,"current_range_meters":0,"station_id":"","pricing_plan_id":"free"},{"bike_id":"99c37003-8b55-4ea6-af9f-f38ae17d7711","system_id":"levelo_inurba_marseille","lat":43.314811,"lon":5.373103,"is_reserved":false,"is_disabled":false,"rental_uris":{"android":"levelo://app?vid=99c37003-8b55-4ea6-af9f-f38ae17d7711","ios":"levelo://app?vid=99c37003-8b55-4ea6-af9f-f38ae17d7711"},"vehicle_type_id":"4","last_reported":1679328653,"current_range_meters":8800,"station_id":"ce4bgt12rcd13ifvqcd0","pricing_plan_id":"free"},{"bike_id":"0fa1ea41-01ca-467a-9c06-2ec0980882f2","system_id":"levelo_inurba_marseille","lat":43.30568,"lon":5.36689,"is_reserved":false,"is_disabled":false,"rental_uris":{"android":"levelo://app?vid=0fa1ea41-01ca-467a-9c06-2ec0980882f2","ios":"levelo://app?vid=0fa1ea41-01ca-467a-9c06-2ec0980882f2"},"vehicle_type_id":"4","last_reported":1679328653,"current_range_meters":9600,"station_id":"ce4bgh92rcd13ifvqb50","pricing_plan_id":"free"},{"bike_id":"3cf8659d-00a4-41db-8be0-92d599b96990","system_id":"levelo_inurba_marseille","lat":43.30542,"lon":5.367075,"is_reserved":false,"is_disabled":false,"rental_uris":{"android":"levelo://app?vid=3cf8659d-00a4-41db-8be0-92d599b96990","ios":"levelo://app?vid=3cf8659d-00a4-41db-8be0-92d599b96990"},"vehicle_type_id":"4","last_reported":1679328653,"current_range_meters":2000,"station_id":"","pricing_plan_id":"free"},{"bike_id":"ea4c76f4-2ccd-4e0d-bc12-6b0377e71000","system_id":"levelo_inurba_marseille","lat":43.30594,"lon":5.37218,"is_reserved":false,"is_disabled":false,"rental_uris":{"android":"levelo://app?vid=ea4c76f4-2ccd-4e0d-bc12-6b0377e71000","ios":"levelo://app?vid=ea4c76f4-2ccd-4e0d-bc12-6b0377e71000"},"vehicle_type_id":"4","last_reported":1679328653,"current_range_meters":800,"station_id":"ce4bgqh2rcd13ifvqc4g","pricing_plan_id":"free"},{"bike_id":"4733a617-6492-4762-84a4-b6c7e41d51a4","system_id":"levelo_inurba_marseille","lat":43.305294,"lon":5.376079,"is_reserved":false,"is_disabled":false,"rental_uris":{"android":"levelo://app?vid=4733a617-6492-4762-84a4-b6c7e41d51a4","ios":"levelo://app?vid=4733a617-6492-4762-84a4-b6c7e41d51a4"},"vehicle_type_id":"4","last_reported":1679328653,"current_range_meters":0,"station_id":"","pricing_plan_id":"free"},{"bike_id":"f4ec21bc-3004-409f-ba6f-f492afc925f4","system_id":"levelo_inurba_marseille","lat":43.301939,"lon":5.366286,"is_reserved":false,"is_disabled":false,"rental_uris":{"android":"levelo://app?vid=f4ec21bc-3004-409f-ba6f-f492afc925f4","ios":"levelo://app?vid=f4ec21bc-3004-409f-ba6f-f492afc925f4"},"vehicle_type_id":"4","last_reported":1679328653,"current_range_meters":16000,"station_id":"ce4bgrh2rcd13ifvqc8g","pricing_plan_id":"free"},{"bike_id":"13be1508-98f5-44d0-ae07-cbc31452e7f6","system_id":"levelo_inurba_marseille","lat":43.30188,"lon":5.36619,"is_reserved":false,"is_disabled":false,"rental_uris":{"android":"levelo://app?vid=13be1508-98f5-44d0-ae07-cbc31452e7f6","ios":"levelo://app?vid=13be1508-98f5-44d0-ae07-cbc31452e7f6"},"vehicle_type_id":"4","last_reported":1679328653,"current_range_meters":26400,"station_id":"ce4bgrh2rcd13ifvqc8g","pricing_plan_id":"free"},{"bike_id":"6e803f28-509b-4820-a86a-e7d42405e7d4","system_id":"levelo_inurba_marseille","lat":43.301939,"lon":5.366286,"is_reserved":false,"is_disabled":false,"rental_uris":{"android":"levelo://app?vid=6e803f28-509b-4820-a86a-e7d42405e7d4","ios":"levelo://app?vid=6e803f28-509b-4820-a86a-e7d42405e7d4"},"vehicle_type_id":"4","last_reported":1679328653,"current_range_meters":0,"station_id":"ce4bgrh2rcd13ifvqc8g","pricing_plan_id":"free"},{"bike_id":"63dff832-f628-4e95-91a9-f57ad4d6a37e","system_id":"levelo_inurba_marseille","lat":43.301939,"lon":5.366286,"is_reserved":false,"is_disabled":false,"rental_uris":{"android":"levelo://app?vid=63dff832-f628-4e95-91a9-f57ad4d6a37e","ios":"levelo://app?vid=63dff832-f628-4e95-91a9-f57ad4d6a37e"},"vehicle_type_id":"4","last_reported":1679328653,"current_range_meters":10400,"station_id":"ce4bgrh2rcd13ifvqc8g","pricing_plan_id":"free"},{"bike_id":"3b47f9a8-7a2e-4fd9-84c6-3128f2b942f8","system_id":"levelo_inurba_marseille","lat":43.308012,"lon":5.381511,"is_reserved":false,"is_disabled":false,"rental_uris":{"android":"levelo://app?vid=3b47f9a8-7a2e-4fd9-84c6-3128f2b942f8","ios":"levelo://app?vid=3b47f9a8-7a2e-4fd9-84c6-3128f2b942f8"},"vehicle_type_id":"4","last_reported":1679328653,"current_range_meters":0,"station_id":"ce4bgt12rcd13ifvqce0","pricing_plan_id":"free"},{"bike_id":"1f904b95-c34d-48f4-93c0-149f2d21dc65","system_id":"levelo_inurba_marseille","lat":43.304606,"lon":5.379026,"is_reserved":false,"is_disabled":false,"rental_uris":{"android":"levelo://app?vid=1f904b95-c34d-48f4-93c0-149f2d21dc65","ios":"levelo://app?vid=1f904b95-c34d-48f4-93c0-149f2d21dc65"},"vehicle_type_id":"4","last_reported":1679328653,"current_range_meters":9600,"station_id":"ce4bgup2rcd13ifvqcn0","pricing_plan_id":"free"},{"bike_id":"10fabb1b-b3c5-4a80-a6c6-b820086dc4ec","system_id":"levelo_inurba_marseille","lat":43.304632,"lon":5.379135,"is_reserved":false,"is_disabled":false,"rental_uris":{"android":"levelo://app?vid=10fabb1b-b3c5-4a80-a6c6-b820086dc4ec","ios":"levelo://app?vid=10fabb1b-b3c5-4a80-a6c6-b820086dc4ec"},"vehicle_type_id":"4","last_reported":1679328653,"current_range_meters":0,"station_id":"ce4bgup2rcd13ifvqcn0","pricing_plan_id":"free"},{"bike_id":"abb1096a-bb8e-4f83-bcaa-aa0b74ecf680","system_id":"levelo_inurba_marseille","lat":43.30143,"lon":5.37413,"is_reserved":false,"is_disabled":false,"rental_uris":{"android":"levelo://app?vid=abb1096a-bb8e-4f83-bcaa-aa0b74ecf680","ios":"levelo://app?vid=abb1096a-bb8e-4f83-bcaa-aa0b74ecf680"},"vehicle_type_id":"4","last_reported":1679328653,"current_range_meters":18000,"station_id":"ce4bgs92rcd13ifvqcc0","pricing_plan_id":"free"},{"bike_id":"aabd802c-ae38-4f61-bfd0-5a6cc3558d4a","system_id":"levelo_inurba_marseille","lat":43.31359,"lon":5.38493,"is_reserved":false,"is_disabled":false,"rental_uris":{"android":"levelo://app?vid=aabd802c-ae38-4f61-bfd0-5a6cc3558d4a","ios":"levelo://app?vid=aabd802c-ae38-4f61-bfd0-5a6cc3558d4a"},"vehicle_type_id":"4","last_reported":1679328653,"current_range_meters":0,"station_id":"ce4bgt92rcd13ifvqcf0","pricing_plan_id":"free"},{"bike_id":"a08aa66a-1987-41e3-9797-7dccd48b5067","system_id":"levelo_inurba_marseille","lat":43.29944,"lon":5.36554,"is_reserved":false,"is_disabled":false,"rental_uris":{"android":"levelo://app?vid=a08aa66a-1987-41e3-9797-7dccd48b5067","ios":"levelo://app?vid=a08aa66a-1987-41e3-9797-7dccd48b5067"},"vehicle_type_id":"4","last_reported":1679328653,"current_range_meters":10800,"station_id":"","pricing_plan_id":"free"},{"bike_id":"4f539ebc-439d-4f33-84af-077bdc7feaef","system_id":"levelo_inurba_marseille","lat":43.299094,"lon":5.365415,"is_reserved":false,"is_disabled":false,"rental_uris":{"android":"levelo://app?vid=4f539ebc-439d-4f33-84af-077bdc7feaef","ios":"levelo://app?vid=4f539ebc-439d-4f33-84af-077bdc7feaef"},"vehicle_type_id":"4","last_reported":1679328653,"current_range_meters":14400,"station_id":"ce4bgm92rcd13ifvqbr0","pricing_plan_id":"free"},{"bike_id":"ce512c20-ded5-44f1-9772-8eac1abb01b7","system_id":"levelo_inurba_marseille","lat":43.306227,"lon":5.383247,"is_reserved":false,"is_disabled":false,"rental_uris":{"android":"levelo://app?vid=ce512c20-ded5-44f1-9772-8eac1abb01b7","ios":"levelo://app?vid=ce512c20-ded5-44f1-9772-8eac1abb01b7"},"vehicle_type_id":"4","last_reported":1679328653,"current_range_meters":1600,"station_id":"","pricing_plan_id":"free"},{"bike_id":"01ffe7dd-532b-4f21-bec2-d405fecda320","system_id":"levelo_inurba_marseille","lat":43.32561,"lon":5.37454,"is_reserved":false,"is_disabled":false,"rental_uris":{"android":"levelo://app?vid=01ffe7dd-532b-4f21-bec2-d405fecda320","ios":"levelo://app?vid=01ffe7dd-532b-4f21-bec2-d405fecda320"},"vehicle_type_id":"4","last_reported":1679328653,"current_range_meters":12400,"station_id":"","pricing_plan_id":"free"},{"bike_id":"e3378083-e790-4fa6-a200-f798b2174cb6","system_id":"levelo_inurba_marseille","lat":43.29853,"lon":5.36284,"is_reserved":false,"is_disabled":false,"rental_uris":{"android":"levelo://app?vid=e3378083-e790-4fa6-a200-f798b2174cb6","ios":"levelo://app?vid=e3378083-e790-4fa6-a200-f798b2174cb6"},"vehicle_type_id":"4","last_reported":1679328653,"current_range_meters":22000,"station_id":"ce4bgpp2rcd13ifvqc3g","pricing_plan_id":"free"},{"bike_id":"cedb415d-c800-4f11-a012-01b6eb8dfa9b","system_id":"levelo_inurba_marseille","lat":43.29853,"lon":5.36268,"is_reserved":false,"is_disabled":false,"rental_uris":{"android":"levelo://app?vid=cedb415d-c800-4f11-a012-01b6eb8dfa9b","ios":"levelo://app?vid=cedb415d-c800-4f11-a012-01b6eb8dfa9b"},"vehicle_type_id":"4","last_reported":1679328653,"current_range_meters":12000,"station_id":"","pricing_plan_id":"free"},{"bike_id":"760af401-e56f-4058-8144-3926b0123fa2","system_id":"levelo_inurba_marseille","lat":43.298433,"lon":5.362774,"is_reserved":false,"is_disabled":false,"rental_uris":{"android":"levelo://app?vid=760af401-e56f-4058-8144-3926b0123fa2","ios":"levelo://app?vid=760af401-e56f-4058-8144-3926b0123fa2"},"vehicle_type_id":"4","last_reported":1679328653,"current_range_meters":21600,"station_id":"ce4bgpp2rcd13ifvqc3g","pricing_plan_id":"free"},{"bike_id":"6c15b380-faa3-4b85-93e0-5ece5bb97bf1","system_id":"levelo_inurba_marseille","lat":43.29848,"lon":5.36288,"is_reserved":false,"is_disabled":false,"rental_uris":{"android":"levelo://app?vid=6c15b380-faa3-4b85-93e0-5ece5bb97bf1","ios":"levelo://app?vid=6c15b380-faa3-4b85-93e0-5ece5bb97bf1"},"vehicle_type_id":"4","last_reported":1679328653,"current_range_meters":16400,"station_id":"","pricing_plan_id":"free"},{"bike_id":"0a53e4b3-534c-4215-811f-236335b5cf95","system_id":"levelo_inurba_marseille","lat":43.298433,"lon":5.362774,"is_reserved":false,"is_disabled":false,"rental_uris":{"android":"levelo://app?vid=0a53e4b3-534c-4215-811f-236335b5cf95","ios":"levelo://app?vid=0a53e4b3-534c-4215-811f-236335b5cf95"},"vehicle_type_id":"4","last_reported":1679328653,"current_range_meters":25200,"station_id":"ce4bgpp2rcd13ifvqc3g","pricing_plan_id":"free"},{"bike_id":"d6fff584-da0a-4562-9081-bb18d8ff8a71","system_id":"levelo_inurba_marseille","lat":43.298433,"lon":5.362774,"is_reserved":false,"is_disabled":false,"rental_uris":{"android":"levelo://app?vid=d6fff584-da0a-4562-9081-bb18d8ff8a71","ios":"levelo://app?vid=d6fff584-da0a-4562-9081-bb18d8ff8a71"},"vehicle_type_id":"4","last_reported":1679328653,"current_range_meters":31600,"station_id":"ce4bgpp2rcd13ifvqc3g","pricing_plan_id":"free"},{"bike_id":"e1df1a7d-064a-47e4-94e2-18c41e5aa0af","system_id":"levelo_inurba_marseille","lat":43.298433,"lon":5.362774,"is_reserved":false,"is_disabled":false,"rental_uris":{"android":"levelo://app?vid=e1df1a7d-064a-47e4-94e2-18c41e5aa0af","ios":"levelo://app?vid=e1df1a7d-064a-47e4-94e2-18c41e5aa0af"},"vehicle_type_id":"4","last_reported":1679328653,"current_range_meters":29600,"station_id":"ce4bgpp2rcd13ifvqc3g","pricing_plan_id":"free"},{"bike_id":"f305b560-d16a-4612-8100-5dcb87352813","system_id":"levelo_inurba_marseille","lat":43.298433,"lon":5.362774,"is_reserved":false,"is_disabled":false,"rental_uris":{"android":"levelo://app?vid=f305b560-d16a-4612-8100-5dcb87352813","ios":"levelo://app?vid=f305b560-d16a-4612-8100-5dcb87352813"},"vehicle_type_id":"4","last_reported":1679328653,"current_range_meters":31600,"station_id":"ce4bgpp2rcd13ifvqc3g","pricing_plan_id":"free"},{"bike_id":"1b6bccd4-ef6a-464d-b463-3b715067c04a","system_id":"levelo_inurba_marseille","lat":43.29793,"lon":5.37106,"is_reserved":false,"is_disabled":false,"rental_uris":{"android":"levelo://app?vid=1b6bccd4-ef6a-464d-b463-3b715067c04a","ios":"levelo://app?vid=1b6bccd4-ef6a-464d-b463-3b715067c04a"},"vehicle_type_id":"4","last_reported":1679328653,"current_range_meters":21600,"station_id":"","pricing_plan_id":"free"},{"bike_id":"da559938-c2fd-408a-b61d-eddeb0401649","system_id":"levelo_inurba_marseille","lat":43.29789,"lon":5.37108,"is_reserved":false,"is_disabled":false,"rental_uris":{"android":"levelo://app?vid=da559938-c2fd-408a-b61d-eddeb0401649","ios":"levelo://app?vid=da559938-c2fd-408a-b61d-eddeb0401649"},"vehicle_type_id":"4","last_reported":1679328653,"current_range_meters":15600,"station_id":"","pricing_plan_id":"free"},{"bike_id":"7cfb3af5-ac98-417d-b072-5155ba50eb7f","system_id":"levelo_inurba_marseille","lat":43.2988,"lon":5.37579,"is_reserved":false,"is_disabled":false,"rental_uris":{"android":"levelo://app?vid=7cfb3af5-ac98-417d-b072-5155ba50eb7f","ios":"levelo://app?vid=7cfb3af5-ac98-417d-b072-5155ba50eb7f"},"vehicle_type_id":"4","last_reported":1679328653,"current_range_meters":17200,"station_id":"","pricing_plan_id":"free"},{"bike_id":"c5531ef8-a9a6-4169-b95c-94c5ec6d2751","system_id":"levelo_inurba_marseille","lat":43.328371,"lon":5.366912,"is_reserved":false,"is_disabled":false,"rental_uris":{"android":"levelo://app?vid=c5531ef8-a9a6-4169-b95c-94c5ec6d2751","ios":"levelo://app?vid=c5531ef8-a9a6-4169-b95c-94c5ec6d2751"},"vehicle_type_id":"4","last_reported":1679328653,"current_range_meters":26800,"station_id":"ce4bhs92rcd13ifvqi0g","pricing_plan_id":"free"},{"bike_id":"4e9d81e8-41d3-4232-8269-0b0b7e6952f8","system_id":"levelo_inurba_marseille","lat":43.29693,"lon":5.37298,"is_reserved":false,"is_disabled":false,"rental_uris":{"android":"levelo://app?vid=4e9d81e8-41d3-4232-8269-0b0b7e6952f8","ios":"levelo://app?vid=4e9d81e8-41d3-4232-8269-0b0b7e6952f8"},"vehicle_type_id":"4","last_reported":1679328653,"current_range_meters":17600,"station_id":"","pricing_plan_id":"free"},{"bike_id":"6dc13db0-b17a-4386-a2ac-c95c2ec73701","system_id":"levelo_inurba_marseille","lat":43.296131,"lon":5.370791,"is_reserved":false,"is_disabled":false,"rental_uris":{"android":"levelo://app?vid=6dc13db0-b17a-4386-a2ac-c95c2ec73701","ios":"levelo://app?vid=6dc13db0-b17a-4386-a2ac-c95c2ec73701"},"vehicle_type_id":"4","last_reported":1679328653,"current_range_meters":0,"station_id":"ce4bgnh2rcd13ifvqc0g","pricing_plan_id":"free"},{"bike_id":"805dd7c6-3744-4353-b1be-38a85ea80f61","system_id":"levelo_inurba_marseille","lat":43.296245,"lon":5.371651,"is_reserved":false,"is_disabled":false,"rental_uris":{"android":"levelo://app?vid=805dd7c6-3744-4353-b1be-38a85ea80f61","ios":"levelo://app?vid=805dd7c6-3744-4353-b1be-38a85ea80f61"},"vehicle_type_id":"4","last_reported":1679328653,"current_range_meters":29200,"station_id":"","pricing_plan_id":"free"},{"bike_id":"27ac7998-7f0c-4e60-8874-89993590d48e","system_id":"levelo_inurba_marseille","lat":43.296935,"lon":5.376544,"is_reserved":false,"is_disabled":false,"rental_uris":{"android":"levelo://app?vid=27ac7998-7f0c-4e60-8874-89993590d48e","ios":"levelo://app?vid=27ac7998-7f0c-4e60-8874-89993590d48e"},"vehicle_type_id":"4","last_reported":1679328653,"current_range_meters":8400,"station_id":"ce4bgkh2rcd13ifvqbl0","pricing_plan_id":"free"},{"bike_id":"310ff83f-beef-466c-9569-bdff3686fa92","system_id":"levelo_inurba_marseille","lat":43.299028,"lon":5.381509,"is_reserved":false,"is_disabled":false,"rental_uris":{"android":"levelo://app?vid=310ff83f-beef-466c-9569-bdff3686fa92","ios":"levelo://app?vid=310ff83f-beef-466c-9569-bdff3686fa92"},"vehicle_type_id":"4","last_reported":1679328653,"current_range_meters":2000,"station_id":"ce4bgj12rcd13ifvqbc0","pricing_plan_id":"free"},{"bike_id":"6aa95c31-78e4-49e9-b97a-517333230e97","system_id":"levelo_inurba_marseille","lat":43.299028,"lon":5.381509,"is_reserved":false,"is_disabled":false,"rental_uris":{"android":"levelo://app?vid=6aa95c31-78e4-49e9-b97a-517333230e97","ios":"levelo://app?vid=6aa95c31-78e4-49e9-b97a-517333230e97"},"vehicle_type_id":"4","last_reported":1679328653,"current_range_meters":13200,"station_id":"ce4bgj12rcd13ifvqbc0","pricing_plan_id":"free"},{"bike_id":"16803049-fc3c-4ca3-bd60-f94f8d426790","system_id":"levelo_inurba_marseille","lat":43.317645,"lon":5.390235,"is_reserved":false,"is_disabled":false,"rental_uris":{"android":"levelo://app?vid=16803049-fc3c-4ca3-bd60-f94f8d426790","ios":"levelo://app?vid=16803049-fc3c-4ca3-bd60-f94f8d426790"},"vehicle_type_id":"4","last_reported":1679328653,"current_range_meters":17600,"station_id":"ce4bhqp2rcd13ifvqhng","pricing_plan_id":"free"},{"bike_id":"0d3d671e-1f9c-43bb-a909-e63d0fcef912","system_id":"levelo_inurba_marseille","lat":43.298037,"lon":5.381066,"is_reserved":false,"is_disabled":false,"rental_uris":{"android":"levelo://app?vid=0d3d671e-1f9c-43bb-a909-e63d0fcef912","ios":"levelo://app?vid=0d3d671e-1f9c-43bb-a909-e63d0fcef912"},"vehicle_type_id":"4","last_reported":1679328653,"current_range_meters":26000,"station_id":"ce4bgip2rcd13ifvqbb0","pricing_plan_id":"free"},{"bike_id":"680301cd-08be-48e0-a917-52de82deeaa1","system_id":"levelo_inurba_marseille","lat":43.298037,"lon":5.381066,"is_reserved":false,"is_disabled":false,"rental_uris":{"android":"levelo://app?vid=680301cd-08be-48e0-a917-52de82deeaa1","ios":"levelo://app?vid=680301cd-08be-48e0-a917-52de82deeaa1"},"vehicle_type_id":"4","last_reported":1679328653,"current_range_meters":12000,"station_id":"ce4bgip2rcd13ifvqbb0","pricing_plan_id":"free"},{"bike_id":"62d93b98-2e90-41df-a3b0-bbfa216bb526","system_id":"levelo_inurba_marseille","lat":43.298037,"lon":5.381066,"is_reserved":false,"is_disabled":false,"rental_uris":{"android":"levelo://app?vid=62d93b98-2e90-41df-a3b0-bbfa216bb526","ios":"levelo://app?vid=62d93b98-2e90-41df-a3b0-bbfa216bb526"},"vehicle_type_id":"4","last_reported":1679328653,"current_range_meters":23600,"station_id":"ce4bgip2rcd13ifvqbb0","pricing_plan_id":"free"},{"bike_id":"70af202a-622a-4b77-b28d-3a2d483041ac","system_id":"levelo_inurba_marseille","lat":43.298037,"lon":5.381066,"is_reserved":false,"is_disabled":false,"rental_uris":{"android":"levelo://app?vid=70af202a-622a-4b77-b28d-3a2d483041ac","ios":"levelo://app?vid=70af202a-622a-4b77-b28d-3a2d483041ac"},"vehicle_type_id":"4","last_reported":1679328653,"current_range_meters":20400,"station_id":"ce4bgip2rcd13ifvqbb0","pricing_plan_id":"free"},{"bike_id":"b6fe6bde-4c92-48ae-9f35-1832250d856f","system_id":"levelo_inurba_marseille","lat":43.2958,"lon":5.37509,"is_reserved":false,"is_disabled":false,"rental_uris":{"android":"levelo://app?vid=b6fe6bde-4c92-48ae-9f35-1832250d856f","ios":"levelo://app?vid=b6fe6bde-4c92-48ae-9f35-1832250d856f"},"vehicle_type_id":"4","last_reported":1679328653,"current_range_meters":3200,"station_id":"ce4bgh92rcd13ifvqb50","pricing_plan_id":"free"},{"bike_id":"b384f20e-0160-4a58-a6d7-cbd2d8e62461","system_id":"levelo_inurba_marseille","lat":43.29579,"lon":5.37519,"is_reserved":false,"is_disabled":false,"rental_uris":{"android":"levelo://app?vid=b384f20e-0160-4a58-a6d7-cbd2d8e62461","ios":"levelo://app?vid=b384f20e-0160-4a58-a6d7-cbd2d8e62461"},"vehicle_type_id":"4","last_reported":1679328653,"current_range_meters":0,"station_id":"","pricing_plan_id":"free"},{"bike_id":"b8686d24-02d1-4db7-8655-d69a2a0563d8","system_id":"levelo_inurba_marseille","lat":43.295748,"lon":5.37522,"is_reserved":false,"is_disabled":false,"rental_uris":{"android":"levelo://app?vid=b8686d24-02d1-4db7-8655-d69a2a0563d8","ios":"levelo://app?vid=b8686d24-02d1-4db7-8655-d69a2a0563d8"},"vehicle_type_id":"4","last_reported":1679328653,"current_range_meters":2400,"station_id":"ce4bgh92rcd13ifvqb50","pricing_plan_id":"free"},{"bike_id":"5cc5107f-11e7-4466-bfb5-08e27f30e46a","system_id":"levelo_inurba_marseille","lat":43.304305,"lon":5.388865,"is_reserved":false,"is_disabled":false,"rental_uris":{"android":"levelo://app?vid=5cc5107f-11e7-4466-bfb5-08e27f30e46a","ios":"levelo://app?vid=5cc5107f-11e7-4466-bfb5-08e27f30e46a"},"vehicle_type_id":"4","last_reported":1679328653,"current_range_meters":26400,"station_id":"","pricing_plan_id":"free"},{"bike_id":"fda4bf94-788d-4d49-b0e1-c34cdb460025","system_id":"levelo_inurba_marseille","lat":43.296277,"lon":5.377108,"is_reserved":false,"is_disabled":false,"rental_uris":{"android":"levelo://app?vid=fda4bf94-788d-4d49-b0e1-c34cdb460025","ios":"levelo://app?vid=fda4bf94-788d-4d49-b0e1-c34cdb460025"},"vehicle_type_id":"4","last_reported":1679328653,"current_range_meters":31600,"station_id":"ce4bgi92rcd13ifvqb90","pricing_plan_id":"free"},{"bike_id":"81fcef2f-174a-434b-910e-9058ba52b363","system_id":"levelo_inurba_marseille","lat":43.296277,"lon":5.377108,"is_reserved":false,"is_disabled":false,"rental_uris":{"android":"levelo://app?vid=81fcef2f-174a-434b-910e-9058ba52b363","ios":"levelo://app?vid=81fcef2f-174a-434b-910e-9058ba52b363"},"vehicle_type_id":"4","last_reported":1679328653,"current_range_meters":27200,"station_id":"ce4bgi92rcd13ifvqb90","pricing_plan_id":"free"},{"bike_id":"891555dd-5297-477e-af34-d0f8a321cc84","system_id":"levelo_inurba_marseille","lat":43.299717,"lon":5.384845,"is_reserved":false,"is_disabled":false,"rental_uris":{"android":"levelo://app?vid=891555dd-5297-477e-af34-d0f8a321cc84","ios":"levelo://app?vid=891555dd-5297-477e-af34-d0f8a321cc84"},"vehicle_type_id":"4","last_reported":1679328653,"current_range_meters":7200,"station_id":"ce4bgj92rcd13ifvqbd0","pricing_plan_id":"free"},{"bike_id":"f6d84e30-c8cf-491b-957d-5fbd1f3ac960","system_id":"levelo_inurba_marseille","lat":43.299717,"lon":5.384845,"is_reserved":false,"is_disabled":false,"rental_uris":{"android":"levelo://app?vid=f6d84e30-c8cf-491b-957d-5fbd1f3ac960","ios":"levelo://app?vid=f6d84e30-c8cf-491b-957d-5fbd1f3ac960"},"vehicle_type_id":"4","last_reported":1679328653,"current_range_meters":3600,"station_id":"ce4bgj92rcd13ifvqbd0","pricing_plan_id":"free"},{"bike_id":"4af2e491-32b4-4289-a13c-539cfa8805e9","system_id":"levelo_inurba_marseille","lat":43.29972,"lon":5.38497,"is_reserved":false,"is_disabled":false,"rental_uris":{"android":"levelo://app?vid=4af2e491-32b4-4289-a13c-539cfa8805e9","ios":"levelo://app?vid=4af2e491-32b4-4289-a13c-539cfa8805e9"},"vehicle_type_id":"4","last_reported":1679328653,"current_range_meters":5200,"station_id":"ce4bh512rcd13ifvqe3g","pricing_plan_id":"free"},{"bike_id":"eae91e1b-6e86-4999-ab43-4fbe7e63e0c2","system_id":"levelo_inurba_marseille","lat":43.299717,"lon":5.384845,"is_reserved":false,"is_disabled":false,"rental_uris":{"android":"levelo://app?vid=eae91e1b-6e86-4999-ab43-4fbe7e63e0c2","ios":"levelo://app?vid=eae91e1b-6e86-4999-ab43-4fbe7e63e0c2"},"vehicle_type_id":"4","last_reported":1679328653,"current_range_meters":2000,"station_id":"ce4bgj92rcd13ifvqbd0","pricing_plan_id":"free"},{"bike_id":"c6f788f6-dcb1-4b54-aa83-d747a79f7e4b","system_id":"levelo_inurba_marseille","lat":43.295279,"lon":5.375048,"is_reserved":false,"is_disabled":false,"rental_uris":{"android":"levelo://app?vid=c6f788f6-dcb1-4b54-aa83-d747a79f7e4b","ios":"levelo://app?vid=c6f788f6-dcb1-4b54-aa83-d747a79f7e4b"},"vehicle_type_id":"4","last_reported":1679328653,"current_range_meters":27600,"station_id":"ce4bgkp2rcd13ifvqbmg","pricing_plan_id":"free"},{"bike_id":"96902daa-8a70-47e3-9b35-b7ff3ec938ed","system_id":"levelo_inurba_marseille","lat":43.29854,"lon":5.38363,"is_reserved":false,"is_disabled":false,"rental_uris":{"android":"levelo://app?vid=96902daa-8a70-47e3-9b35-b7ff3ec938ed","ios":"levelo://app?vid=96902daa-8a70-47e3-9b35-b7ff3ec938ed"},"vehicle_type_id":"4","last_reported":1679328653,"current_range_meters":20800,"station_id":"","pricing_plan_id":"free"},{"bike_id":"ed1a4557-96ab-48fa-b103-709266141e16","system_id":"levelo_inurba_marseille","lat":43.29693,"lon":5.38119,"is_reserved":false,"is_disabled":false,"rental_uris":{"android":"levelo://app?vid=ed1a4557-96ab-48fa-b103-709266141e16","ios":"levelo://app?vid=ed1a4557-96ab-48fa-b103-709266141e16"},"vehicle_type_id":"4","last_reported":1679328653,"current_range_meters":22400,"station_id":"","pricing_plan_id":"free"},{"bike_id":"db50d2c0-1532-4f41-9cb8-ef33cbddbf0a","system_id":"levelo_inurba_marseille","lat":43.32367,"lon":5.388836,"is_reserved":false,"is_disabled":false,"rental_uris":{"android":"levelo://app?vid=db50d2c0-1532-4f41-9cb8-ef33cbddbf0a","ios":"levelo://app?vid=db50d2c0-1532-4f41-9cb8-ef33cbddbf0a"},"vehicle_type_id":"4","last_reported":1679328653,"current_range_meters":27200,"station_id":"ce4bhqp2rcd13ifvqhog","pricing_plan_id":"free"},{"bike_id":"572462a6-a98f-4a47-b4c0-11a83d78232b","system_id":"levelo_inurba_marseille","lat":43.32367,"lon":5.388836,"is_reserved":false,"is_disabled":false,"rental_uris":{"android":"levelo://app?vid=572462a6-a98f-4a47-b4c0-11a83d78232b","ios":"levelo://app?vid=572462a6-a98f-4a47-b4c0-11a83d78232b"},"vehicle_type_id":"4","last_reported":1679328653,"current_range_meters":23200,"station_id":"ce4bhqp2rcd13ifvqhog","pricing_plan_id":"free"},{"bike_id":"19191aea-682c-4766-8db0-992f51745fbd","system_id":"levelo_inurba_marseille","lat":43.2923,"lon":5.36241,"is_reserved":false,"is_disabled":false,"rental_uris":{"android":"levelo://app?vid=19191aea-682c-4766-8db0-992f51745fbd","ios":"levelo://app?vid=19191aea-682c-4766-8db0-992f51745fbd"},"vehicle_type_id":"4","last_reported":1679328653,"current_range_meters":21600,"station_id":"","pricing_plan_id":"free"},{"bike_id":"d392db32-a34f-434d-a1ce-3e05f676c10f","system_id":"levelo_inurba_marseille","lat":43.2923,"lon":5.36224,"is_reserved":false,"is_disabled":false,"rental_uris":{"android":"levelo://app?vid=d392db32-a34f-434d-a1ce-3e05f676c10f","ios":"levelo://app?vid=d392db32-a34f-434d-a1ce-3e05f676c10f"},"vehicle_type_id":"4","last_reported":1679328653,"current_range_meters":14800,"station_id":"","pricing_plan_id":"free"},{"bike_id":"b20863b5-c648-4c1d-a307-6c4b6112179f","system_id":"levelo_inurba_marseille","lat":43.288497,"lon":5.393089,"is_reserved":false,"is_disabled":false,"rental_uris":{"android":"levelo://app?vid=b20863b5-c648-4c1d-a307-6c4b6112179f","ios":"levelo://app?vid=b20863b5-c648-4c1d-a307-6c4b6112179f"},"vehicle_type_id":"4","last_reported":1679328653,"current_range_meters":16800,"station_id":"ce4bh2p2rcd13ifvqdi0","pricing_plan_id":"free"},{"bike_id":"c1190db0-4f31-4c85-894c-eea4213f7dc3","system_id":"levelo_inurba_marseille","lat":43.292624,"lon":5.376165,"is_reserved":false,"is_disabled":false,"rental_uris":{"android":"levelo://app?vid=c1190db0-4f31-4c85-894c-eea4213f7dc3","ios":"levelo://app?vid=c1190db0-4f31-4c85-894c-eea4213f7dc3"},"vehicle_type_id":"4","last_reported":1679328653,"current_range_meters":23600,"station_id":"ce4bgi12rcd13ifvqb80","pricing_plan_id":"free"},{"bike_id":"d6218e52-3d41-421b-99fe-0b11e3b1de2d","system_id":"levelo_inurba_marseille","lat":43.291671,"lon":5.371575,"is_reserved":false,"is_disabled":false,"rental_uris":{"android":"levelo://app?vid=d6218e52-3d41-421b-99fe-0b11e3b1de2d","ios":"levelo://app?vid=d6218e52-3d41-421b-99fe-0b11e3b1de2d"},"vehicle_type_id":"4","last_reported":1679328653,"current_range_meters":25200,"station_id":"ce4bha92rcd13ifvqeh0","pricing_plan_id":"free"},{"bike_id":"f4a9ed63-beea-4e26-a367-e4ff460d2ff0","system_id":"levelo_inurba_marseille","lat":43.31328,"lon":5.39687,"is_reserved":false,"is_disabled":false,"rental_uris":{"android":"levelo://app?vid=f4a9ed63-beea-4e26-a367-e4ff460d2ff0","ios":"levelo://app?vid=f4a9ed63-beea-4e26-a367-e4ff460d2ff0"},"vehicle_type_id":"4","last_reported":1679328653,"current_range_meters":24800,"station_id":"","pricing_plan_id":"free"},{"bike_id":"18bbb74e-e6b4-4456-ac41-15e7eee3ff68","system_id":"levelo_inurba_marseille","lat":43.319256,"lon":5.395656,"is_reserved":false,"is_disabled":false,"rental_uris":{"android":"levelo://app?vid=18bbb74e-e6b4-4456-ac41-15e7eee3ff68","ios":"levelo://app?vid=18bbb74e-e6b4-4456-ac41-15e7eee3ff68"},"vehicle_type_id":"4","last_reported":1679328653,"current_range_meters":16800,"station_id":"","pricing_plan_id":"free"},{"bike_id":"04db3eaf-321c-416d-95e6-b5b118c8852e","system_id":"levelo_inurba_marseille","lat":43.29537,"lon":5.38546,"is_reserved":false,"is_disabled":false,"rental_uris":{"android":"levelo://app?vid=04db3eaf-321c-416d-95e6-b5b118c8852e","ios":"levelo://app?vid=04db3eaf-321c-416d-95e6-b5b118c8852e"},"vehicle_type_id":"4","last_reported":1679328653,"current_range_meters":7200,"station_id":"","pricing_plan_id":"free"},{"bike_id":"d8c6bd71-f095-4d43-aa72-3677880271f9","system_id":"levelo_inurba_marseille","lat":43.29529,"lon":5.385581,"is_reserved":false,"is_disabled":false,"rental_uris":{"android":"levelo://app?vid=d8c6bd71-f095-4d43-aa72-3677880271f9","ios":"levelo://app?vid=d8c6bd71-f095-4d43-aa72-3677880271f9"},"vehicle_type_id":"4","last_reported":1679328653,"current_range_meters":16000,"station_id":"ce4bgih2rcd13ifvqba0","pricing_plan_id":"free"},{"bike_id":"cbee026e-5411-448a-809d-b0b9b4e71e93","system_id":"levelo_inurba_marseille","lat":43.290779,"lon":5.371482,"is_reserved":false,"is_disabled":false,"rental_uris":{"android":"levelo://app?vid=cbee026e-5411-448a-809d-b0b9b4e71e93","ios":"levelo://app?vid=cbee026e-5411-448a-809d-b0b9b4e71e93"},"vehicle_type_id":"4","last_reported":1679328653,"current_range_meters":6400,"station_id":"ce4bh5p2rcd13ifvqe4g","pricing_plan_id":"free"},{"bike_id":"f9f36792-9652-4e8b-958c-8cfaafec0178","system_id":"levelo_inurba_marseille","lat":43.29074,"lon":5.37165,"is_reserved":false,"is_disabled":false,"rental_uris":{"android":"levelo://app?vid=f9f36792-9652-4e8b-958c-8cfaafec0178","ios":"levelo://app?vid=f9f36792-9652-4e8b-958c-8cfaafec0178"},"vehicle_type_id":"4","last_reported":1679328653,"current_range_meters":4400,"station_id":"ce4bh5p2rcd13ifvqe4g","pricing_plan_id":"free"},{"bike_id":"e75c0879-b5e2-48a9-a153-cba91033b23d","system_id":"levelo_inurba_marseille","lat":43.302008,"lon":5.394694,"is_reserved":false,"is_disabled":false,"rental_uris":{"android":"levelo://app?vid=e75c0879-b5e2-48a9-a153-cba91033b23d","ios":"levelo://app?vid=e75c0879-b5e2-48a9-a153-cba91033b23d"},"vehicle_type_id":"4","last_reported":1679328653,"current_range_meters":22000,"station_id":"ce4bh0p2rcd13ifvqd70","pricing_plan_id":"free"},{"bike_id":"2bcc4d33-fcbf-408a-96d3-51e8a29f51b1","system_id":"levelo_inurba_marseille","lat":43.29077,"lon":5.357349,"is_reserved":false,"is_disabled":false,"rental_uris":{"android":"levelo://app?vid=2bcc4d33-fcbf-408a-96d3-51e8a29f51b1","ios":"levelo://app?vid=2bcc4d33-fcbf-408a-96d3-51e8a29f51b1"},"vehicle_type_id":"4","last_reported":1679328653,"current_range_meters":17200,"station_id":"","pricing_plan_id":"free"},{"bike_id":"ea615fb7-3274-4386-9d1a-64b0dde91d9d","system_id":"levelo_inurba_marseille","lat":43.294162,"lon":5.386292,"is_reserved":false,"is_disabled":false,"rental_uris":{"android":"levelo://app?vid=ea615fb7-3274-4386-9d1a-64b0dde91d9d","ios":"levelo://app?vid=ea615fb7-3274-4386-9d1a-64b0dde91d9d"},"vehicle_type_id":"4","last_reported":1679328653,"current_range_meters":10000,"station_id":"ce4bh2h2rcd13ifvqdh0","pricing_plan_id":"free"},{"bike_id":"34d582f1-517d-4447-97eb-b54fba6c5d77","system_id":"levelo_inurba_marseille","lat":43.302367,"lon":5.39555,"is_reserved":false,"is_disabled":false,"rental_uris":{"android":"levelo://app?vid=34d582f1-517d-4447-97eb-b54fba6c5d77","ios":"levelo://app?vid=34d582f1-517d-4447-97eb-b54fba6c5d77"},"vehicle_type_id":"4","last_reported":1679328653,"current_range_meters":27600,"station_id":"","pricing_plan_id":"free"},{"bike_id":"606ed9bb-1289-4b99-8b10-a4b39173542b","system_id":"levelo_inurba_marseille","lat":43.289468,"lon":5.363719,"is_reserved":false,"is_disabled":false,"rental_uris":{"android":"levelo://app?vid=606ed9bb-1289-4b99-8b10-a4b39173542b","ios":"levelo://app?vid=606ed9bb-1289-4b99-8b10-a4b39173542b"},"vehicle_type_id":"4","last_reported":1679328653,"current_range_meters":24000,"station_id":"ce4bhc92rcd13ifvqetg","pricing_plan_id":"free"},{"bike_id":"785683bc-2b9f-40e8-81b9-65910be979c3","system_id":"levelo_inurba_marseille","lat":43.28939,"lon":5.36382,"is_reserved":false,"is_disabled":false,"rental_uris":{"android":"levelo://app?vid=785683bc-2b9f-40e8-81b9-65910be979c3","ios":"levelo://app?vid=785683bc-2b9f-40e8-81b9-65910be979c3"},"vehicle_type_id":"4","last_reported":1679328653,"current_range_meters":14800,"station_id":"ce4bhc92rcd13ifvqetg","pricing_plan_id":"free"},{"bike_id":"66b2612c-2f6f-4774-8321-571ffae0a779","system_id":"levelo_inurba_marseille","lat":43.289333,"lon":5.363814,"is_reserved":false,"is_disabled":false,"rental_uris":{"android":"levelo://app?vid=66b2612c-2f6f-4774-8321-571ffae0a779","ios":"levelo://app?vid=66b2612c-2f6f-4774-8321-571ffae0a779"},"vehicle_type_id":"4","last_reported":1679328653,"current_range_meters":28400,"station_id":"ce4bhc92rcd13ifvqetg","pricing_plan_id":"free"},{"bike_id":"b4c9ed69-8566-4eaa-b912-fc9d5c385bd8","system_id":"levelo_inurba_marseille","lat":43.292644,"lon":5.384257,"is_reserved":false,"is_disabled":false,"rental_uris":{"android":"levelo://app?vid=b4c9ed69-8566-4eaa-b912-fc9d5c385bd8","ios":"levelo://app?vid=b4c9ed69-8566-4eaa-b912-fc9d5c385bd8"},"vehicle_type_id":"4","last_reported":1679328653,"current_range_meters":16000,"station_id":"ce4bh692rcd13ifvqea0","pricing_plan_id":"free"},{"bike_id":"d8977701-60a6-4a14-ac6a-a6c48cab4571","system_id":"levelo_inurba_marseille","lat":43.292644,"lon":5.384257,"is_reserved":false,"is_disabled":false,"rental_uris":{"android":"levelo://app?vid=d8977701-60a6-4a14-ac6a-a6c48cab4571","ios":"levelo://app?vid=d8977701-60a6-4a14-ac6a-a6c48cab4571"},"vehicle_type_id":"4","last_reported":1679328653,"current_range_meters":16000,"station_id":"ce4bh692rcd13ifvqea0","pricing_plan_id":"free"},{"bike_id":"15bb25ef-58f9-4174-b894-f195f7b6474f","system_id":"levelo_inurba_marseille","lat":43.290104,"lon":5.356111,"is_reserved":false,"is_disabled":false,"rental_uris":{"android":"levelo://app?vid=15bb25ef-58f9-4174-b894-f195f7b6474f","ios":"levelo://app?vid=15bb25ef-58f9-4174-b894-f195f7b6474f"},"vehicle_type_id":"4","last_reported":1679328653,"current_range_meters":26000,"station_id":"ce4bhb92rcd13ifvqen0","pricing_plan_id":"free"},{"bike_id":"42ad937e-9001-4228-b8ad-1218d6f873bd","system_id":"levelo_inurba_marseille","lat":43.29008,"lon":5.356109,"is_reserved":false,"is_disabled":false,"rental_uris":{"android":"levelo://app?vid=42ad937e-9001-4228-b8ad-1218d6f873bd","ios":"levelo://app?vid=42ad937e-9001-4228-b8ad-1218d6f873bd"},"vehicle_type_id":"4","last_reported":1679328653,"current_range_meters":4400,"station_id":"","pricing_plan_id":"free"},{"bike_id":"83b76f42-ba46-4ba4-83e7-b2e52bae8ebe","system_id":"levelo_inurba_marseille","lat":43.290104,"lon":5.356111,"is_reserved":false,"is_disabled":false,"rental_uris":{"android":"levelo://app?vid=83b76f42-ba46-4ba4-83e7-b2e52bae8ebe","ios":"levelo://app?vid=83b76f42-ba46-4ba4-83e7-b2e52bae8ebe"},"vehicle_type_id":"4","last_reported":1679328653,"current_range_meters":20400,"station_id":"ce4bhb92rcd13ifvqen0","pricing_plan_id":"free"},{"bike_id":"8efa7f5b-378d-45c5-8935-64819bb9e60a","system_id":"levelo_inurba_marseille","lat":43.33046,"lon":5.38917,"is_reserved":false,"is_disabled":false,"rental_uris":{"android":"levelo://app?vid=8efa7f5b-378d-45c5-8935-64819bb9e60a","ios":"levelo://app?vid=8efa7f5b-378d-45c5-8935-64819bb9e60a"},"vehicle_type_id":"4","last_reported":1679328653,"current_range_meters":10800,"station_id":"","pricing_plan_id":"free"},{"bike_id":"b11bf295-3890-4342-8459-429c296eea72","system_id":"levelo_inurba_marseille","lat":43.330442,"lon":5.389148,"is_reserved":false,"is_disabled":false,"rental_uris":{"android":"levelo://app?vid=b11bf295-3890-4342-8459-429c296eea72","ios":"levelo://app?vid=b11bf295-3890-4342-8459-429c296eea72"},"vehicle_type_id":"4","last_reported":1679328653,"current_range_meters":16800,"station_id":"ce4bhr92rcd13ifvqhrg","pricing_plan_id":"free"},{"bike_id":"78592480-47e2-40fb-b93b-73b47fadbd30","system_id":"levelo_inurba_marseille","lat":43.33051,"lon":5.38915,"is_reserved":false,"is_disabled":false,"rental_uris":{"android":"levelo://app?vid=78592480-47e2-40fb-b93b-73b47fadbd30","ios":"levelo://app?vid=78592480-47e2-40fb-b93b-73b47fadbd30"},"vehicle_type_id":"4","last_reported":1679328653,"current_range_meters":0,"station_id":"ce4bhr92rcd13ifvqhrg","pricing_plan_id":"free"},{"bike_id":"7a30693d-654d-49d4-8caa-5a773866bc97","system_id":"levelo_inurba_marseille","lat":43.291005,"lon":5.38128,"is_reserved":false,"is_disabled":false,"rental_uris":{"android":"levelo://app?vid=7a30693d-654d-49d4-8caa-5a773866bc97","ios":"levelo://app?vid=7a30693d-654d-49d4-8caa-5a773866bc97"},"vehicle_type_id":"4","last_reported":1679328653,"current_range_meters":18800,"station_id":"","pricing_plan_id":"free"},{"bike_id":"7c1916fc-3f96-47ae-9321-3a3ab95f1943","system_id":"levelo_inurba_marseille","lat":43.290995,"lon":5.381361,"is_reserved":false,"is_disabled":false,"rental_uris":{"android":"levelo://app?vid=7c1916fc-3f96-47ae-9321-3a3ab95f1943","ios":"levelo://app?vid=7c1916fc-3f96-47ae-9321-3a3ab95f1943"},"vehicle_type_id":"4","last_reported":1679328653,"current_range_meters":800,"station_id":"ce4bh512rcd13ifvqe2g","pricing_plan_id":"free"},{"bike_id":"6f04f20c-12e4-4ae9-8b7e-c924ebfba283","system_id":"levelo_inurba_marseille","lat":43.29098,"lon":5.38155,"is_reserved":false,"is_disabled":false,"rental_uris":{"android":"levelo://app?vid=6f04f20c-12e4-4ae9-8b7e-c924ebfba283","ios":"levelo://app?vid=6f04f20c-12e4-4ae9-8b7e-c924ebfba283"},"vehicle_type_id":"4","last_reported":1679328653,"current_range_meters":29200,"station_id":"ce4bh512rcd13ifvqe2g","pricing_plan_id":"free"},{"bike_id":"49256d0d-a848-4cf9-91c8-59fca47a5a80","system_id":"levelo_inurba_marseille","lat":43.289777,"lon":5.378413,"is_reserved":false,"is_disabled":false,"rental_uris":{"android":"levelo://app?vid=49256d0d-a848-4cf9-91c8-59fca47a5a80","ios":"levelo://app?vid=49256d0d-a848-4cf9-91c8-59fca47a5a80"},"vehicle_type_id":"4","last_reported":1679328653,"current_range_meters":0,"station_id":"","pricing_plan_id":"free"},{"bike_id":"81b0cb19-c204-472a-a01f-9af6cbee9e58","system_id":"levelo_inurba_marseille","lat":43.29524,"lon":5.39041,"is_reserved":false,"is_disabled":false,"rental_uris":{"android":"levelo://app?vid=81b0cb19-c204-472a-a01f-9af6cbee9e58","ios":"levelo://app?vid=81b0cb19-c204-472a-a01f-9af6cbee9e58"},"vehicle_type_id":"4","last_reported":1679328653,"current_range_meters":12800,"station_id":"","pricing_plan_id":"free"},{"bike_id":"61a67a30-bb8f-4525-a8c8-7a92e43e482e","system_id":"levelo_inurba_marseille","lat":43.28853,"lon":5.35856,"is_reserved":false,"is_disabled":false,"rental_uris":{"android":"levelo://app?vid=61a67a30-bb8f-4525-a8c8-7a92e43e482e","ios":"levelo://app?vid=61a67a30-bb8f-4525-a8c8-7a92e43e482e"},"vehicle_type_id":"4","last_reported":1679328653,"current_range_meters":10400,"station_id":"ce4bhb12rcd13ifvqem0","pricing_plan_id":"free"},{"bike_id":"3eed6fc3-b431-4ad0-bab8-738a737c4a54","system_id":"levelo_inurba_marseille","lat":43.33753,"lon":5.37476,"is_reserved":false,"is_disabled":false,"rental_uris":{"android":"levelo://app?vid=3eed6fc3-b431-4ad0-bab8-738a737c4a54","ios":"levelo://app?vid=3eed6fc3-b431-4ad0-bab8-738a737c4a54"},"vehicle_type_id":"4","last_reported":1679328653,"current_range_meters":0,"station_id":"","pricing_plan_id":"free"},{"bike_id":"f201d180-5de4-49e0-944b-72a90dbd9454","system_id":"levelo_inurba_marseille","lat":43.30639,"lon":5.40092,"is_reserved":false,"is_disabled":false,"rental_uris":{"android":"levelo://app?vid=f201d180-5de4-49e0-944b-72a90dbd9454","ios":"levelo://app?vid=f201d180-5de4-49e0-944b-72a90dbd9454"},"vehicle_type_id":"4","last_reported":1679328653,"current_range_meters":29200,"station_id":"ce4bh112rcd13ifvqda0","pricing_plan_id":"free"},{"bike_id":"fc77daca-a740-4b52-a159-524b6ad0a539","system_id":"levelo_inurba_marseille","lat":43.301326,"lon":5.398693,"is_reserved":false,"is_disabled":false,"rental_uris":{"android":"levelo://app?vid=fc77daca-a740-4b52-a159-524b6ad0a539","ios":"levelo://app?vid=fc77daca-a740-4b52-a159-524b6ad0a539"},"vehicle_type_id":"4","last_reported":1679328653,"current_range_meters":28800,"station_id":"","pricing_plan_id":"free"},{"bike_id":"796fb093-917b-4172-9e8c-92a2f80d572e","system_id":"levelo_inurba_marseille","lat":43.301117,"lon":5.398795,"is_reserved":false,"is_disabled":false,"rental_uris":{"android":"levelo://app?vid=796fb093-917b-4172-9e8c-92a2f80d572e","ios":"levelo://app?vid=796fb093-917b-4172-9e8c-92a2f80d572e"},"vehicle_type_id":"4","last_reported":1679328653,"current_range_meters":25600,"station_id":"ce4bh0h2rcd13ifvqd40","pricing_plan_id":"free"},{"bike_id":"8d9e547c-1b03-4410-9069-ba5c0b7f9fb2","system_id":"levelo_inurba_marseille","lat":43.301117,"lon":5.398795,"is_reserved":false,"is_disabled":false,"rental_uris":{"android":"levelo://app?vid=8d9e547c-1b03-4410-9069-ba5c0b7f9fb2","ios":"levelo://app?vid=8d9e547c-1b03-4410-9069-ba5c0b7f9fb2"},"vehicle_type_id":"4","last_reported":1679328653,"current_range_meters":10800,"station_id":"ce4bh0h2rcd13ifvqd40","pricing_plan_id":"free"},{"bike_id":"86663833-2640-4234-acac-fdc4ac954d34","system_id":"levelo_inurba_marseille","lat":43.29871,"lon":5.39726,"is_reserved":false,"is_disabled":false,"rental_uris":{"android":"levelo://app?vid=86663833-2640-4234-acac-fdc4ac954d34","ios":"levelo://app?vid=86663833-2640-4234-acac-fdc4ac954d34"},"vehicle_type_id":"4","last_reported":1679328653,"current_range_meters":28800,"station_id":"ce4bh0h2rcd13ifvqd50","pricing_plan_id":"free"},{"bike_id":"9e618f50-53e8-4c93-b0fa-ebd8df5e773f","system_id":"levelo_inurba_marseille","lat":43.29524,"lon":5.39403,"is_reserved":false,"is_disabled":false,"rental_uris":{"android":"levelo://app?vid=9e618f50-53e8-4c93-b0fa-ebd8df5e773f","ios":"levelo://app?vid=9e618f50-53e8-4c93-b0fa-ebd8df5e773f"},"vehicle_type_id":"4","last_reported":1679328653,"current_range_meters":4000,"station_id":"ce4bh212rcd13ifvqde0","pricing_plan_id":"free"},{"bike_id":"33e69c05-1b73-4882-bcc3-64bc82d4637f","system_id":"levelo_inurba_marseille","lat":43.29523,"lon":5.39403,"is_reserved":false,"is_disabled":false,"rental_uris":{"android":"levelo://app?vid=33e69c05-1b73-4882-bcc3-64bc82d4637f","ios":"levelo://app?vid=33e69c05-1b73-4882-bcc3-64bc82d4637f"},"vehicle_type_id":"4","last_reported":1679328653,"current_range_meters":25600,"station_id":"ce4bh212rcd13ifvqde0","pricing_plan_id":"free"},{"bike_id":"847a5f09-84ec-40b4-ad07-000c02116797","system_id":"levelo_inurba_marseille","lat":43.29521,"lon":5.39403,"is_reserved":false,"is_disabled":false,"rental_uris":{"android":"levelo://app?vid=847a5f09-84ec-40b4-ad07-000c02116797","ios":"levelo://app?vid=847a5f09-84ec-40b4-ad07-000c02116797"},"vehicle_type_id":"4","last_reported":1679328653,"current_range_meters":4800,"station_id":"ce4bh212rcd13ifvqde0","pricing_plan_id":"free"},{"bike_id":"13426282-4906-4599-867c-b9a64f684ddc","system_id":"levelo_inurba_marseille","lat":43.302608,"lon":5.400499,"is_reserved":false,"is_disabled":false,"rental_uris":{"android":"levelo://app?vid=13426282-4906-4599-867c-b9a64f684ddc","ios":"levelo://app?vid=13426282-4906-4599-867c-b9a64f684ddc"},"vehicle_type_id":"4","last_reported":1679328653,"current_range_meters":31600,"station_id":"ce4bgvh2rcd13ifvqcs0","pricing_plan_id":"free"},{"bike_id":"ad4d08f1-b1cb-4250-80c9-9a4ee4417636","system_id":"levelo_inurba_marseille","lat":43.295169,"lon":5.394094,"is_reserved":false,"is_disabled":false,"rental_uris":{"android":"levelo://app?vid=ad4d08f1-b1cb-4250-80c9-9a4ee4417636","ios":"levelo://app?vid=ad4d08f1-b1cb-4250-80c9-9a4ee4417636"},"vehicle_type_id":"4","last_reported":1679328653,"current_range_meters":0,"station_id":"","pricing_plan_id":"free"},{"bike_id":"61e17c13-78b9-4597-85a9-3bd7621898dd","system_id":"levelo_inurba_marseille","lat":43.300749,"lon":5.399592,"is_reserved":false,"is_disabled":false,"rental_uris":{"android":"levelo://app?vid=61e17c13-78b9-4597-85a9-3bd7621898dd","ios":"levelo://app?vid=61e17c13-78b9-4597-85a9-3bd7621898dd"},"vehicle_type_id":"4","last_reported":1679328653,"current_range_meters":0,"station_id":"","pricing_plan_id":"free"},{"bike_id":"06c0ec93-6b30-4a35-81a7-63d02d473336","system_id":"levelo_inurba_marseille","lat":43.302759,"lon":5.400793,"is_reserved":false,"is_disabled":false,"rental_uris":{"android":"levelo://app?vid=06c0ec93-6b30-4a35-81a7-63d02d473336","ios":"levelo://app?vid=06c0ec93-6b30-4a35-81a7-63d02d473336"},"vehicle_type_id":"4","last_reported":1679328653,"current_range_meters":8800,"station_id":"ce4bgvh2rcd13ifvqcs0","pricing_plan_id":"free"},{"bike_id":"d027ba08-ec70-49ff-a871-ecb3561c9359","system_id":"levelo_inurba_marseille","lat":43.302759,"lon":5.400793,"is_reserved":false,"is_disabled":false,"rental_uris":{"android":"levelo://app?vid=d027ba08-ec70-49ff-a871-ecb3561c9359","ios":"levelo://app?vid=d027ba08-ec70-49ff-a871-ecb3561c9359"},"vehicle_type_id":"4","last_reported":1679328653,"current_range_meters":13200,"station_id":"ce4bgvh2rcd13ifvqcs0","pricing_plan_id":"free"},{"bike_id":"a374d493-c351-4a8e-9268-327401f200ff","system_id":"levelo_inurba_marseille","lat":43.286039,"lon":5.370679,"is_reserved":false,"is_disabled":false,"rental_uris":{"android":"levelo://app?vid=a374d493-c351-4a8e-9268-327401f200ff","ios":"levelo://app?vid=a374d493-c351-4a8e-9268-327401f200ff"},"vehicle_type_id":"4","last_reported":1679328653,"current_range_meters":800,"station_id":"ce4bht12rcd13ifvqi60","pricing_plan_id":"free"},{"bike_id":"7ad2043f-8d08-4709-811a-7d5be290552c","system_id":"levelo_inurba_marseille","lat":43.286039,"lon":5.370679,"is_reserved":false,"is_disabled":false,"rental_uris":{"android":"levelo://app?vid=7ad2043f-8d08-4709-811a-7d5be290552c","ios":"levelo://app?vid=7ad2043f-8d08-4709-811a-7d5be290552c"},"vehicle_type_id":"4","last_reported":1679328653,"current_range_meters":7600,"station_id":"ce4bht12rcd13ifvqi60","pricing_plan_id":"free"},{"bike_id":"46b3f5c2-7868-4e54-920e-73c9bd4a18c2","system_id":"levelo_inurba_marseille","lat":43.286039,"lon":5.370679,"is_reserved":false,"is_disabled":false,"rental_uris":{"android":"levelo://app?vid=46b3f5c2-7868-4e54-920e-73c9bd4a18c2","ios":"levelo://app?vid=46b3f5c2-7868-4e54-920e-73c9bd4a18c2"},"vehicle_type_id":"4","last_reported":1679328653,"current_range_meters":24800,"station_id":"ce4bht12rcd13ifvqi60","pricing_plan_id":"free"},{"bike_id":"264f0e62-7bb6-4653-86ac-b663c08ba2de","system_id":"levelo_inurba_marseille","lat":43.30032,"lon":5.40104,"is_reserved":false,"is_disabled":false,"rental_uris":{"android":"levelo://app?vid=264f0e62-7bb6-4653-86ac-b663c08ba2de","ios":"levelo://app?vid=264f0e62-7bb6-4653-86ac-b663c08ba2de"},"vehicle_type_id":"4","last_reported":1679328653,"current_range_meters":17600,"station_id":"ce4bh0h2rcd13ifvqd50","pricing_plan_id":"free"},{"bike_id":"ccf19a72-cca6-4aa3-a383-771fbdb9617a","system_id":"levelo_inurba_marseille","lat":43.284534,"lon":5.358662,"is_reserved":false,"is_disabled":false,"rental_uris":{"android":"levelo://app?vid=ccf19a72-cca6-4aa3-a383-771fbdb9617a","ios":"levelo://app?vid=ccf19a72-cca6-4aa3-a383-771fbdb9617a"},"vehicle_type_id":"4","last_reported":1679328653,"current_range_meters":6000,"station_id":"ce4bhah2rcd13ifvqei0","pricing_plan_id":"free"},{"bike_id":"0dc83348-2e44-41f0-97e1-edd2baa393b6","system_id":"levelo_inurba_marseille","lat":43.284534,"lon":5.358662,"is_reserved":false,"is_disabled":false,"rental_uris":{"android":"levelo://app?vid=0dc83348-2e44-41f0-97e1-edd2baa393b6","ios":"levelo://app?vid=0dc83348-2e44-41f0-97e1-edd2baa393b6"},"vehicle_type_id":"4","last_reported":1679328653,"current_range_meters":4000,"station_id":"ce4bhah2rcd13ifvqei0","pricing_plan_id":"free"},{"bike_id":"0103a05f-4025-461d-8b23-15d0f03bfd63","system_id":"levelo_inurba_marseille","lat":43.284683,"lon":5.358847,"is_reserved":false,"is_disabled":false,"rental_uris":{"android":"levelo://app?vid=0103a05f-4025-461d-8b23-15d0f03bfd63","ios":"levelo://app?vid=0103a05f-4025-461d-8b23-15d0f03bfd63"},"vehicle_type_id":"4","last_reported":1679328653,"current_range_meters":10400,"station_id":"","pricing_plan_id":"free"},{"bike_id":"6bec5c6d-09d0-4e37-aa65-1fc267d26827","system_id":"levelo_inurba_marseille","lat":43.28466,"lon":5.35886,"is_reserved":false,"is_disabled":false,"rental_uris":{"android":"levelo://app?vid=6bec5c6d-09d0-4e37-aa65-1fc267d26827","ios":"levelo://app?vid=6bec5c6d-09d0-4e37-aa65-1fc267d26827"},"vehicle_type_id":"4","last_reported":1679328653,"current_range_meters":15600,"station_id":"ce4bhah2rcd13ifvqei0","pricing_plan_id":"free"},{"bike_id":"7f44b848-4801-47f0-bf9d-bfdeb6f35470","system_id":"levelo_inurba_marseille","lat":43.28464,"lon":5.35889,"is_reserved":false,"is_disabled":false,"rental_uris":{"android":"levelo://app?vid=7f44b848-4801-47f0-bf9d-bfdeb6f35470","ios":"levelo://app?vid=7f44b848-4801-47f0-bf9d-bfdeb6f35470"},"vehicle_type_id":"4","last_reported":1679328653,"current_range_meters":7200,"station_id":"","pricing_plan_id":"free"},{"bike_id":"002b91b3-19d5-4bb0-a2dc-67590f590a28","system_id":"levelo_inurba_marseille","lat":43.28463,"lon":5.3589,"is_reserved":false,"is_disabled":false,"rental_uris":{"android":"levelo://app?vid=002b91b3-19d5-4bb0-a2dc-67590f590a28","ios":"levelo://app?vid=002b91b3-19d5-4bb0-a2dc-67590f590a28"},"vehicle_type_id":"4","last_reported":1679328653,"current_range_meters":0,"station_id":"ce4bhah2rcd13ifvqei0","pricing_plan_id":"free"},{"bike_id":"10f30465-8648-4e76-851a-7c947b485606","system_id":"levelo_inurba_marseille","lat":43.28464,"lon":5.35882,"is_reserved":false,"is_disabled":false,"rental_uris":{"android":"levelo://app?vid=10f30465-8648-4e76-851a-7c947b485606","ios":"levelo://app?vid=10f30465-8648-4e76-851a-7c947b485606"},"vehicle_type_id":"4","last_reported":1679328653,"current_range_meters":22400,"station_id":"","pricing_plan_id":"free"},{"bike_id":"83a8cf32-70a3-4ebf-9898-b11ce481d957","system_id":"levelo_inurba_marseille","lat":43.28461,"lon":5.35884,"is_reserved":false,"is_disabled":false,"rental_uris":{"android":"levelo://app?vid=83a8cf32-70a3-4ebf-9898-b11ce481d957","ios":"levelo://app?vid=83a8cf32-70a3-4ebf-9898-b11ce481d957"},"vehicle_type_id":"4","last_reported":1679328653,"current_range_meters":11200,"station_id":"","pricing_plan_id":"free"},{"bike_id":"aefe9be5-0505-48bb-8a08-7e52d8856674","system_id":"levelo_inurba_marseille","lat":43.284534,"lon":5.358662,"is_reserved":false,"is_disabled":false,"rental_uris":{"android":"levelo://app?vid=aefe9be5-0505-48bb-8a08-7e52d8856674","ios":"levelo://app?vid=aefe9be5-0505-48bb-8a08-7e52d8856674"},"vehicle_type_id":"4","last_reported":1679328653,"current_range_meters":20800,"station_id":"ce4bhah2rcd13ifvqei0","pricing_plan_id":"free"},{"bike_id":"8316ecd1-ad69-432b-bec8-a5789e4a4f7e","system_id":"levelo_inurba_marseille","lat":43.295713,"lon":5.399639,"is_reserved":false,"is_disabled":false,"rental_uris":{"android":"levelo://app?vid=8316ecd1-ad69-432b-bec8-a5789e4a4f7e","ios":"levelo://app?vid=8316ecd1-ad69-432b-bec8-a5789e4a4f7e"},"vehicle_type_id":"4","last_reported":1679328653,"current_range_meters":16000,"station_id":"ce4bh312rcd13ifvqdj0","pricing_plan_id":"free"},{"bike_id":"2bf88413-278a-424e-931e-6c2706c51249","system_id":"levelo_inurba_marseille","lat":43.295704,"lon":5.399725,"is_reserved":false,"is_disabled":false,"rental_uris":{"android":"levelo://app?vid=2bf88413-278a-424e-931e-6c2706c51249","ios":"levelo://app?vid=2bf88413-278a-424e-931e-6c2706c51249"},"vehicle_type_id":"4","last_reported":1679328653,"current_range_meters":11600,"station_id":"","pricing_plan_id":"free"},{"bike_id":"883b14b3-96b7-4993-bb8a-82a7731e55d1","system_id":"levelo_inurba_marseille","lat":43.295713,"lon":5.399639,"is_reserved":false,"is_disabled":false,"rental_uris":{"android":"levelo://app?vid=883b14b3-96b7-4993-bb8a-82a7731e55d1","ios":"levelo://app?vid=883b14b3-96b7-4993-bb8a-82a7731e55d1"},"vehicle_type_id":"4","last_reported":1679328653,"current_range_meters":19600,"station_id":"ce4bh312rcd13ifvqdj0","pricing_plan_id":"free"},{"bike_id":"0e20bdfd-f27c-4dcc-8b3b-60d79f5fcf29","system_id":"levelo_inurba_marseille","lat":43.286595,"lon":5.386795,"is_reserved":false,"is_disabled":false,"rental_uris":{"android":"levelo://app?vid=0e20bdfd-f27c-4dcc-8b3b-60d79f5fcf29","ios":"levelo://app?vid=0e20bdfd-f27c-4dcc-8b3b-60d79f5fcf29"},"vehicle_type_id":"4","last_reported":1679328653,"current_range_meters":22800,"station_id":"ce4bh492rcd13ifvqdug","pricing_plan_id":"free"},{"bike_id":"a465b3d3-fa92-401a-bbcd-840da7f4b164","system_id":"levelo_inurba_marseille","lat":43.286595,"lon":5.386795,"is_reserved":false,"is_disabled":false,"rental_uris":{"android":"levelo://app?vid=a465b3d3-fa92-401a-bbcd-840da7f4b164","ios":"levelo://app?vid=a465b3d3-fa92-401a-bbcd-840da7f4b164"},"vehicle_type_id":"4","last_reported":1679328653,"current_range_meters":12800,"station_id":"ce4bh492rcd13ifvqdug","pricing_plan_id":"free"},{"bike_id":"c5c91f1f-febb-4c40-9e13-d02d589014dc","system_id":"levelo_inurba_marseille","lat":43.3234,"lon":5.40619,"is_reserved":false,"is_disabled":false,"rental_uris":{"android":"levelo://app?vid=c5c91f1f-febb-4c40-9e13-d02d589014dc","ios":"levelo://app?vid=c5c91f1f-febb-4c40-9e13-d02d589014dc"},"vehicle_type_id":"4","last_reported":1679328653,"current_range_meters":12800,"station_id":"","pricing_plan_id":"free"},{"bike_id":"46e79976-844d-44d5-9df6-ffc85da997a8","system_id":"levelo_inurba_marseille","lat":43.32341,"lon":5.40625,"is_reserved":false,"is_disabled":false,"rental_uris":{"android":"levelo://app?vid=46e79976-844d-44d5-9df6-ffc85da997a8","ios":"levelo://app?vid=46e79976-844d-44d5-9df6-ffc85da997a8"},"vehicle_type_id":"4","last_reported":1679328653,"current_range_meters":15200,"station_id":"","pricing_plan_id":"free"},{"bike_id":"c15ec9c6-eb61-402d-806f-b40ecab2db20","system_id":"levelo_inurba_marseille","lat":43.284793,"lon":5.384113,"is_reserved":false,"is_disabled":false,"rental_uris":{"android":"levelo://app?vid=c15ec9c6-eb61-402d-806f-b40ecab2db20","ios":"levelo://app?vid=c15ec9c6-eb61-402d-806f-b40ecab2db20"},"vehicle_type_id":"4","last_reported":1679328653,"current_range_meters":12400,"station_id":"ce4bh512rcd13ifvqe3g","pricing_plan_id":"free"},{"bike_id":"1925278d-30f7-4a50-9fbd-caf9712a0638","system_id":"levelo_inurba_marseille","lat":43.28484,"lon":5.38421,"is_reserved":false,"is_disabled":false,"rental_uris":{"android":"levelo://app?vid=1925278d-30f7-4a50-9fbd-caf9712a0638","ios":"levelo://app?vid=1925278d-30f7-4a50-9fbd-caf9712a0638"},"vehicle_type_id":"4","last_reported":1679328653,"current_range_meters":0,"station_id":"ce4bh512rcd13ifvqe3g","pricing_plan_id":"free"},{"bike_id":"867e7937-fc3e-4e16-a4a1-788fe082e403","system_id":"levelo_inurba_marseille","lat":43.284793,"lon":5.384113,"is_reserved":false,"is_disabled":false,"rental_uris":{"android":"levelo://app?vid=867e7937-fc3e-4e16-a4a1-788fe082e403","ios":"levelo://app?vid=867e7937-fc3e-4e16-a4a1-788fe082e403"},"vehicle_type_id":"4","last_reported":1679328653,"current_range_meters":15200,"station_id":"ce4bh512rcd13ifvqe3g","pricing_plan_id":"free"},{"bike_id":"b6a1239a-e206-4c2c-814f-06905cd22898","system_id":"levelo_inurba_marseille","lat":43.282744,"lon":5.350533,"is_reserved":false,"is_disabled":false,"rental_uris":{"android":"levelo://app?vid=b6a1239a-e206-4c2c-814f-06905cd22898","ios":"levelo://app?vid=b6a1239a-e206-4c2c-814f-06905cd22898"},"vehicle_type_id":"4","last_reported":1679328653,"current_range_meters":12000,"station_id":"ce4bhbp2rcd13ifvqerg","pricing_plan_id":"free"},{"bike_id":"95522934-5336-4377-b78f-29f8b4c3ea92","system_id":"levelo_inurba_marseille","lat":43.283502,"lon":5.386471,"is_reserved":false,"is_disabled":false,"rental_uris":{"android":"levelo://app?vid=95522934-5336-4377-b78f-29f8b4c3ea92","ios":"levelo://app?vid=95522934-5336-4377-b78f-29f8b4c3ea92"},"vehicle_type_id":"4","last_reported":1679328653,"current_range_meters":3600,"station_id":"ce4bh492rcd13ifvqdvg","pricing_plan_id":"free"},{"bike_id":"7cf56a5e-bb46-4498-9da7-b1626c0f73c0","system_id":"levelo_inurba_marseille","lat":43.28367,"lon":5.38628,"is_reserved":false,"is_disabled":false,"rental_uris":{"android":"levelo://app?vid=7cf56a5e-bb46-4498-9da7-b1626c0f73c0","ios":"levelo://app?vid=7cf56a5e-bb46-4498-9da7-b1626c0f73c0"},"vehicle_type_id":"4","last_reported":1679328653,"current_range_meters":18000,"station_id":"","pricing_plan_id":"free"},{"bike_id":"f4560b89-7dbb-4892-9053-1c1db0ed67be","system_id":"levelo_inurba_marseille","lat":43.282685,"lon":5.350648,"is_reserved":false,"is_disabled":false,"rental_uris":{"android":"levelo://app?vid=f4560b89-7dbb-4892-9053-1c1db0ed67be","ios":"levelo://app?vid=f4560b89-7dbb-4892-9053-1c1db0ed67be"},"vehicle_type_id":"4","last_reported":1679328653,"current_range_meters":12400,"station_id":"ce4bhbp2rcd13ifvqerg","pricing_plan_id":"free"},{"bike_id":"dc46f849-62cf-47d9-993c-25d51a98d655","system_id":"levelo_inurba_marseille","lat":43.280702,"lon":5.505506,"is_reserved":false,"is_disabled":false,"rental_uris":{"android":"levelo://app?vid=dc46f849-62cf-47d9-993c-25d51a98d655","ios":"levelo://app?vid=dc46f849-62cf-47d9-993c-25d51a98d655"},"vehicle_type_id":"4","last_reported":1679328653,"current_range_meters":1200,"station_id":"","pricing_plan_id":"free"},{"bike_id":"f9420922-bc52-4073-8c1c-58bc8a8d6227","system_id":"levelo_inurba_marseille","lat":43.280382,"lon":5.369291,"is_reserved":false,"is_disabled":false,"rental_uris":{"android":"levelo://app?vid=f9420922-bc52-4073-8c1c-58bc8a8d6227","ios":"levelo://app?vid=f9420922-bc52-4073-8c1c-58bc8a8d6227"},"vehicle_type_id":"4","last_reported":1679328653,"current_range_meters":15600,"station_id":"ce4bha12rcd13ifvqef0","pricing_plan_id":"free"},{"bike_id":"5a13b57c-4bdc-447d-95bd-5031be874f07","system_id":"levelo_inurba_marseille","lat":43.290029,"lon":5.398878,"is_reserved":false,"is_disabled":false,"rental_uris":{"android":"levelo://app?vid=5a13b57c-4bdc-447d-95bd-5031be874f07","ios":"levelo://app?vid=5a13b57c-4bdc-447d-95bd-5031be874f07"},"vehicle_type_id":"4","last_reported":1679328653,"current_range_meters":28400,"station_id":"","pricing_plan_id":"free"},{"bike_id":"e18731dd-1c9f-4370-a859-2e307977428c","system_id":"levelo_inurba_marseille","lat":43.287985,"lon":5.396174,"is_reserved":false,"is_disabled":false,"rental_uris":{"android":"levelo://app?vid=e18731dd-1c9f-4370-a859-2e307977428c","ios":"levelo://app?vid=e18731dd-1c9f-4370-a859-2e307977428c"},"vehicle_type_id":"4","last_reported":1679328653,"current_range_meters":0,"station_id":"","pricing_plan_id":"free"},{"bike_id":"e20f3985-0391-410f-b708-1d804dbc845f","system_id":"levelo_inurba_marseille","lat":43.304188,"lon":5.412904,"is_reserved":false,"is_disabled":false,"rental_uris":{"android":"levelo://app?vid=e20f3985-0391-410f-b708-1d804dbc845f","ios":"levelo://app?vid=e20f3985-0391-410f-b708-1d804dbc845f"},"vehicle_type_id":"4","last_reported":1679328653,"current_range_meters":24800,"station_id":"ce4bhop2rcd13ifvqh8g","pricing_plan_id":"free"},{"bike_id":"2494b2c5-a85f-482a-b845-a01b3862814c","system_id":"levelo_inurba_marseille","lat":43.304188,"lon":5.412904,"is_reserved":false,"is_disabled":false,"rental_uris":{"android":"levelo://app?vid=2494b2c5-a85f-482a-b845-a01b3862814c","ios":"levelo://app?vid=2494b2c5-a85f-482a-b845-a01b3862814c"},"vehicle_type_id":"4","last_reported":1679328653,"current_range_meters":11600,"station_id":"ce4bhop2rcd13ifvqh8g","pricing_plan_id":"free"},{"bike_id":"6cb741a2-e89f-4f42-bb61-50e06352563e","system_id":"levelo_inurba_marseille","lat":43.279742,"lon":5.38744,"is_reserved":false,"is_disabled":false,"rental_uris":{"android":"levelo://app?vid=6cb741a2-e89f-4f42-bb61-50e06352563e","ios":"levelo://app?vid=6cb741a2-e89f-4f42-bb61-50e06352563e"},"vehicle_type_id":"4","last_reported":1679328653,"current_range_meters":0,"station_id":"ce4bhg12rcd13ifvqf80","pricing_plan_id":"free"},{"bike_id":"23e5fa4a-2145-4c28-8139-95569caa4dd8","system_id":"levelo_inurba_marseille","lat":43.292655,"lon":5.409096,"is_reserved":false,"is_disabled":false,"rental_uris":{"android":"levelo://app?vid=23e5fa4a-2145-4c28-8139-95569caa4dd8","ios":"levelo://app?vid=23e5fa4a-2145-4c28-8139-95569caa4dd8"},"vehicle_type_id":"4","last_reported":1679328653,"current_range_meters":0,"station_id":"","pricing_plan_id":"free"},{"bike_id":"c06f0722-c4df-4381-ba64-ec228f5bb953","system_id":"levelo_inurba_marseille","lat":43.27627,"lon":5.36111,"is_reserved":false,"is_disabled":false,"rental_uris":{"android":"levelo://app?vid=c06f0722-c4df-4381-ba64-ec228f5bb953","ios":"levelo://app?vid=c06f0722-c4df-4381-ba64-ec228f5bb953"},"vehicle_type_id":"4","last_reported":1679328653,"current_range_meters":18000,"station_id":"ce4bgj92rcd13ifvqbe0","pricing_plan_id":"free"},{"bike_id":"0d8d4501-5d5e-4e54-a455-207f5f676468","system_id":"levelo_inurba_marseille","lat":43.27621,"lon":5.3611,"is_reserved":false,"is_disabled":false,"rental_uris":{"android":"levelo://app?vid=0d8d4501-5d5e-4e54-a455-207f5f676468","ios":"levelo://app?vid=0d8d4501-5d5e-4e54-a455-207f5f676468"},"vehicle_type_id":"4","last_reported":1679328653,"current_range_meters":19200,"station_id":"ce4bgj92rcd13ifvqbe0","pricing_plan_id":"free"},{"bike_id":"2c4b1e85-2a01-464a-9762-3061254925ec","system_id":"levelo_inurba_marseille","lat":43.27821,"lon":5.38686,"is_reserved":false,"is_disabled":false,"rental_uris":{"android":"levelo://app?vid=2c4b1e85-2a01-464a-9762-3061254925ec","ios":"levelo://app?vid=2c4b1e85-2a01-464a-9762-3061254925ec"},"vehicle_type_id":"4","last_reported":1679328653,"current_range_meters":9200,"station_id":"","pricing_plan_id":"free"},{"bike_id":"9c830f9c-aa73-46a6-8890-cdfb75eb5012","system_id":"levelo_inurba_marseille","lat":43.280784,"lon":5.396622,"is_reserved":false,"is_disabled":false,"rental_uris":{"android":"levelo://app?vid=9c830f9c-aa73-46a6-8890-cdfb75eb5012","ios":"levelo://app?vid=9c830f9c-aa73-46a6-8890-cdfb75eb5012"},"vehicle_type_id":"4","last_reported":1679328653,"current_range_meters":8000,"station_id":"ce4bho12rcd13ifvqh2g","pricing_plan_id":"free"},{"bike_id":"6a40701e-96d6-40c7-8f16-3d7a412c7658","system_id":"levelo_inurba_marseille","lat":43.280784,"lon":5.396622,"is_reserved":false,"is_disabled":false,"rental_uris":{"android":"levelo://app?vid=6a40701e-96d6-40c7-8f16-3d7a412c7658","ios":"levelo://app?vid=6a40701e-96d6-40c7-8f16-3d7a412c7658"},"vehicle_type_id":"4","last_reported":1679328653,"current_range_meters":21200,"station_id":"ce4bho12rcd13ifvqh2g","pricing_plan_id":"free"},{"bike_id":"23b6c74a-3624-4636-871f-6ffd0f71911c","system_id":"levelo_inurba_marseille","lat":43.273613,"lon":5.362705,"is_reserved":false,"is_disabled":false,"rental_uris":{"android":"levelo://app?vid=23b6c74a-3624-4636-871f-6ffd0f71911c","ios":"levelo://app?vid=23b6c74a-3624-4636-871f-6ffd0f71911c"},"vehicle_type_id":"4","last_reported":1679328653,"current_range_meters":13600,"station_id":"ce4bhbh2rcd13ifvqeo0","pricing_plan_id":"free"},{"bike_id":"88e05b31-b81d-4a7f-9574-f441ab262b8b","system_id":"levelo_inurba_marseille","lat":43.27384,"lon":5.36262,"is_reserved":false,"is_disabled":false,"rental_uris":{"android":"levelo://app?vid=88e05b31-b81d-4a7f-9574-f441ab262b8b","ios":"levelo://app?vid=88e05b31-b81d-4a7f-9574-f441ab262b8b"},"vehicle_type_id":"4","last_reported":1679328653,"current_range_meters":27200,"station_id":"","pricing_plan_id":"free"},{"bike_id":"4d38f755-24d6-4687-8d02-2daf2c55cc7e","system_id":"levelo_inurba_marseille","lat":43.273613,"lon":5.362705,"is_reserved":false,"is_disabled":false,"rental_uris":{"android":"levelo://app?vid=4d38f755-24d6-4687-8d02-2daf2c55cc7e","ios":"levelo://app?vid=4d38f755-24d6-4687-8d02-2daf2c55cc7e"},"vehicle_type_id":"4","last_reported":1679328653,"current_range_meters":14800,"station_id":"ce4bhbh2rcd13ifvqeo0","pricing_plan_id":"free"},{"bike_id":"858f309b-be59-4ddb-9d26-ac5636caa5ca","system_id":"levelo_inurba_marseille","lat":43.273613,"lon":5.362705,"is_reserved":false,"is_disabled":false,"rental_uris":{"android":"levelo://app?vid=858f309b-be59-4ddb-9d26-ac5636caa5ca","ios":"levelo://app?vid=858f309b-be59-4ddb-9d26-ac5636caa5ca"},"vehicle_type_id":"4","last_reported":1679328653,"current_range_meters":400,"station_id":"ce4bhbh2rcd13ifvqeo0","pricing_plan_id":"free"},{"bike_id":"6a07918a-374b-4263-b696-aa265e86d1fd","system_id":"levelo_inurba_marseille","lat":43.27382,"lon":5.36255,"is_reserved":false,"is_disabled":false,"rental_uris":{"android":"levelo://app?vid=6a07918a-374b-4263-b696-aa265e86d1fd","ios":"levelo://app?vid=6a07918a-374b-4263-b696-aa265e86d1fd"},"vehicle_type_id":"4","last_reported":1679328653,"current_range_meters":21200,"station_id":"","pricing_plan_id":"free"},{"bike_id":"7237c783-e7e2-4776-b543-8903ff105208","system_id":"levelo_inurba_marseille","lat":43.273613,"lon":5.362705,"is_reserved":false,"is_disabled":false,"rental_uris":{"android":"levelo://app?vid=7237c783-e7e2-4776-b543-8903ff105208","ios":"levelo://app?vid=7237c783-e7e2-4776-b543-8903ff105208"},"vehicle_type_id":"4","last_reported":1679328653,"current_range_meters":11200,"station_id":"ce4bhbh2rcd13ifvqeo0","pricing_plan_id":"free"},{"bike_id":"6d37059b-faca-4d28-89a4-6bba81519297","system_id":"levelo_inurba_marseille","lat":43.273613,"lon":5.362705,"is_reserved":false,"is_disabled":false,"rental_uris":{"android":"levelo://app?vid=6d37059b-faca-4d28-89a4-6bba81519297","ios":"levelo://app?vid=6d37059b-faca-4d28-89a4-6bba81519297"},"vehicle_type_id":"4","last_reported":1679328653,"current_range_meters":7200,"station_id":"ce4bhbh2rcd13ifvqeo0","pricing_plan_id":"free"},{"bike_id":"54265a31-da9c-4ee3-8068-65054fa082f6","system_id":"levelo_inurba_marseille","lat":43.273613,"lon":5.362705,"is_reserved":false,"is_disabled":false,"rental_uris":{"android":"levelo://app?vid=54265a31-da9c-4ee3-8068-65054fa082f6","ios":"levelo://app?vid=54265a31-da9c-4ee3-8068-65054fa082f6"},"vehicle_type_id":"4","last_reported":1679328653,"current_range_meters":16800,"station_id":"ce4bhbh2rcd13ifvqeo0","pricing_plan_id":"free"},{"bike_id":"e499ba17-fca4-46ae-a500-d60a60be4687","system_id":"levelo_inurba_marseille","lat":43.27378,"lon":5.36262,"is_reserved":false,"is_disabled":false,"rental_uris":{"android":"levelo://app?vid=e499ba17-fca4-46ae-a500-d60a60be4687","ios":"levelo://app?vid=e499ba17-fca4-46ae-a500-d60a60be4687"},"vehicle_type_id":"4","last_reported":1679328653,"current_range_meters":16000,"station_id":"ce4bhbh2rcd13ifvqeo0","pricing_plan_id":"free"},{"bike_id":"89233181-1262-468d-a6dd-429d9814186f","system_id":"levelo_inurba_marseille","lat":43.273613,"lon":5.362705,"is_reserved":false,"is_disabled":false,"rental_uris":{"android":"levelo://app?vid=89233181-1262-468d-a6dd-429d9814186f","ios":"levelo://app?vid=89233181-1262-468d-a6dd-429d9814186f"},"vehicle_type_id":"4","last_reported":1679328653,"current_range_meters":6800,"station_id":"ce4bhbh2rcd13ifvqeo0","pricing_plan_id":"free"},{"bike_id":"f91e90ac-2176-4818-9911-438e48bc8d1d","system_id":"levelo_inurba_marseille","lat":43.273613,"lon":5.362705,"is_reserved":false,"is_disabled":false,"rental_uris":{"android":"levelo://app?vid=f91e90ac-2176-4818-9911-438e48bc8d1d","ios":"levelo://app?vid=f91e90ac-2176-4818-9911-438e48bc8d1d"},"vehicle_type_id":"4","last_reported":1679328653,"current_range_meters":22800,"station_id":"ce4bhbh2rcd13ifvqeo0","pricing_plan_id":"free"},{"bike_id":"5decdf6e-507d-4b50-8f3a-98c61cdaaf55","system_id":"levelo_inurba_marseille","lat":43.27376,"lon":5.36267,"is_reserved":false,"is_disabled":false,"rental_uris":{"android":"levelo://app?vid=5decdf6e-507d-4b50-8f3a-98c61cdaaf55","ios":"levelo://app?vid=5decdf6e-507d-4b50-8f3a-98c61cdaaf55"},"vehicle_type_id":"4","last_reported":1679328653,"current_range_meters":400,"station_id":"ce4bhbh2rcd13ifvqeo0","pricing_plan_id":"free"},{"bike_id":"0822a4b9-a128-4ae9-81cc-7d56baf2a17f","system_id":"levelo_inurba_marseille","lat":43.273613,"lon":5.362705,"is_reserved":false,"is_disabled":false,"rental_uris":{"android":"levelo://app?vid=0822a4b9-a128-4ae9-81cc-7d56baf2a17f","ios":"levelo://app?vid=0822a4b9-a128-4ae9-81cc-7d56baf2a17f"},"vehicle_type_id":"4","last_reported":1679328653,"current_range_meters":18000,"station_id":"ce4bhbh2rcd13ifvqeo0","pricing_plan_id":"free"},{"bike_id":"4a8bcd9e-3ec5-4cbb-83a3-cab656a72487","system_id":"levelo_inurba_marseille","lat":43.27372,"lon":5.3626,"is_reserved":false,"is_disabled":false,"rental_uris":{"android":"levelo://app?vid=4a8bcd9e-3ec5-4cbb-83a3-cab656a72487","ios":"levelo://app?vid=4a8bcd9e-3ec5-4cbb-83a3-cab656a72487"},"vehicle_type_id":"4","last_reported":1679328653,"current_range_meters":21600,"station_id":"","pricing_plan_id":"free"},{"bike_id":"fa8c68f6-78f2-4cc6-8aa5-134761a4a530","system_id":"levelo_inurba_marseille","lat":43.280382,"lon":5.369291,"is_reserved":false,"is_disabled":false,"rental_uris":{"android":"levelo://app?vid=fa8c68f6-78f2-4cc6-8aa5-134761a4a530","ios":"levelo://app?vid=fa8c68f6-78f2-4cc6-8aa5-134761a4a530"},"vehicle_type_id":"4","last_reported":1679328653,"current_range_meters":2000,"station_id":"ce4bha12rcd13ifvqef0","pricing_plan_id":"free"},{"bike_id":"1444b786-d6a7-40e4-8a9e-b7b7a64eeed3","system_id":"levelo_inurba_marseille","lat":43.3271,"lon":5.41738,"is_reserved":false,"is_disabled":false,"rental_uris":{"android":"levelo://app?vid=1444b786-d6a7-40e4-8a9e-b7b7a64eeed3","ios":"levelo://app?vid=1444b786-d6a7-40e4-8a9e-b7b7a64eeed3"},"vehicle_type_id":"4","last_reported":1679328653,"current_range_meters":0,"station_id":"","pricing_plan_id":"free"},{"bike_id":"500de9f2-8665-42c9-b84c-a471850a6d0c","system_id":"levelo_inurba_marseille","lat":43.28168,"lon":5.404562,"is_reserved":false,"is_disabled":false,"rental_uris":{"android":"levelo://app?vid=500de9f2-8665-42c9-b84c-a471850a6d0c","ios":"levelo://app?vid=500de9f2-8665-42c9-b84c-a471850a6d0c"},"vehicle_type_id":"4","last_reported":1679328653,"current_range_meters":10000,"station_id":"ce4bh392rcd13ifvqdm0","pricing_plan_id":"free"},{"bike_id":"62205a94-b29e-47f4-ad4f-8163c3993621","system_id":"levelo_inurba_marseille","lat":43.27403,"lon":5.39017,"is_reserved":false,"is_disabled":false,"rental_uris":{"android":"levelo://app?vid=62205a94-b29e-47f4-ad4f-8163c3993621","ios":"levelo://app?vid=62205a94-b29e-47f4-ad4f-8163c3993621"},"vehicle_type_id":"4","last_reported":1679328653,"current_range_meters":7200,"station_id":"","pricing_plan_id":"free"},{"bike_id":"10bbb9f4-ed4f-43e2-ab27-ee5a5a2c36ef","system_id":"levelo_inurba_marseille","lat":43.274103,"lon":5.394016,"is_reserved":false,"is_disabled":false,"rental_uris":{"android":"levelo://app?vid=10bbb9f4-ed4f-43e2-ab27-ee5a5a2c36ef","ios":"levelo://app?vid=10bbb9f4-ed4f-43e2-ab27-ee5a5a2c36ef"},"vehicle_type_id":"4","last_reported":1679328653,"current_range_meters":20400,"station_id":"ce4bhdp2rcd13ifvqf20","pricing_plan_id":"free"},{"bike_id":"c11ddfb0-7ac5-4a44-9ab8-02b3f8c72d50","system_id":"levelo_inurba_marseille","lat":43.274103,"lon":5.394016,"is_reserved":false,"is_disabled":false,"rental_uris":{"android":"levelo://app?vid=c11ddfb0-7ac5-4a44-9ab8-02b3f8c72d50","ios":"levelo://app?vid=c11ddfb0-7ac5-4a44-9ab8-02b3f8c72d50"},"vehicle_type_id":"4","last_reported":1679328653,"current_range_meters":4800,"station_id":"ce4bhdp2rcd13ifvqf20","pricing_plan_id":"free"},{"bike_id":"37f6ad06-fac0-40be-9c36-6da6ed1b2c2c","system_id":"levelo_inurba_marseille","lat":43.274191,"lon":5.394078,"is_reserved":false,"is_disabled":false,"rental_uris":{"android":"levelo://app?vid=37f6ad06-fac0-40be-9c36-6da6ed1b2c2c","ios":"levelo://app?vid=37f6ad06-fac0-40be-9c36-6da6ed1b2c2c"},"vehicle_type_id":"4","last_reported":1679328653,"current_range_meters":19200,"station_id":"","pricing_plan_id":"free"},{"bike_id":"640f81b2-b30a-40ce-86f3-718a14ddb460","system_id":"levelo_inurba_marseille","lat":43.295523,"lon":5.422926,"is_reserved":false,"is_disabled":false,"rental_uris":{"android":"levelo://app?vid=640f81b2-b30a-40ce-86f3-718a14ddb460","ios":"levelo://app?vid=640f81b2-b30a-40ce-86f3-718a14ddb460"},"vehicle_type_id":"4","last_reported":1679328653,"current_range_meters":16800,"station_id":"ce4bhph2rcd13ifvqhdg","pricing_plan_id":"free"},{"bike_id":"612b5214-8748-4d02-823f-0b33a0ceb8fc","system_id":"levelo_inurba_marseille","lat":43.29557,"lon":5.42298,"is_reserved":false,"is_disabled":false,"rental_uris":{"android":"levelo://app?vid=612b5214-8748-4d02-823f-0b33a0ceb8fc","ios":"levelo://app?vid=612b5214-8748-4d02-823f-0b33a0ceb8fc"},"vehicle_type_id":"4","last_reported":1679328653,"current_range_meters":14800,"station_id":"ce4bhph2rcd13ifvqhdg","pricing_plan_id":"free"},{"bike_id":"51179264-599d-40f8-8e13-c5a3a39a8008","system_id":"levelo_inurba_marseille","lat":43.272116,"lon":5.391763,"is_reserved":false,"is_disabled":false,"rental_uris":{"android":"levelo://app?vid=51179264-599d-40f8-8e13-c5a3a39a8008","ios":"levelo://app?vid=51179264-599d-40f8-8e13-c5a3a39a8008"},"vehicle_type_id":"4","last_reported":1679328653,"current_range_meters":7600,"station_id":"ce4bhhp2rcd13ifvqfm0","pricing_plan_id":"free"},{"bike_id":"95b05202-6d74-47bd-8750-64cd43c04f67","system_id":"levelo_inurba_marseille","lat":43.272116,"lon":5.391763,"is_reserved":false,"is_disabled":false,"rental_uris":{"android":"levelo://app?vid=95b05202-6d74-47bd-8750-64cd43c04f67","ios":"levelo://app?vid=95b05202-6d74-47bd-8750-64cd43c04f67"},"vehicle_type_id":"4","last_reported":1679328653,"current_range_meters":7200,"station_id":"ce4bhhp2rcd13ifvqfm0","pricing_plan_id":"free"},{"bike_id":"34d64b78-7e9c-4a41-a452-c4763427ece8","system_id":"levelo_inurba_marseille","lat":43.272116,"lon":5.391747,"is_reserved":false,"is_disabled":false,"rental_uris":{"android":"levelo://app?vid=34d64b78-7e9c-4a41-a452-c4763427ece8","ios":"levelo://app?vid=34d64b78-7e9c-4a41-a452-c4763427ece8"},"vehicle_type_id":"4","last_reported":1679328653,"current_range_meters":6000,"station_id":"ce4bhhp2rcd13ifvqfm0","pricing_plan_id":"free"},{"bike_id":"e79fc38d-e722-4f05-8939-80b92668bc14","system_id":"levelo_inurba_marseille","lat":43.272118,"lon":5.391758,"is_reserved":false,"is_disabled":false,"rental_uris":{"android":"levelo://app?vid=e79fc38d-e722-4f05-8939-80b92668bc14","ios":"levelo://app?vid=e79fc38d-e722-4f05-8939-80b92668bc14"},"vehicle_type_id":"4","last_reported":1679328653,"current_range_meters":21200,"station_id":"ce4bhhp2rcd13ifvqfm0","pricing_plan_id":"free"},{"bike_id":"8bb94b6a-b08e-45d6-8e89-2f524be4e396","system_id":"levelo_inurba_marseille","lat":43.27207,"lon":5.391871,"is_reserved":false,"is_disabled":false,"rental_uris":{"android":"levelo://app?vid=8bb94b6a-b08e-45d6-8e89-2f524be4e396","ios":"levelo://app?vid=8bb94b6a-b08e-45d6-8e89-2f524be4e396"},"vehicle_type_id":"4","last_reported":1679328653,"current_range_meters":18000,"station_id":"","pricing_plan_id":"free"},{"bike_id":"996280e6-45d8-4c69-9ed2-b674a433a6ac","system_id":"levelo_inurba_marseille","lat":43.278137,"lon":5.407076,"is_reserved":false,"is_disabled":false,"rental_uris":{"android":"levelo://app?vid=996280e6-45d8-4c69-9ed2-b674a433a6ac","ios":"levelo://app?vid=996280e6-45d8-4c69-9ed2-b674a433a6ac"},"vehicle_type_id":"4","last_reported":1679328653,"current_range_meters":5600,"station_id":"ce4bhnh2rcd13ifvqgtg","pricing_plan_id":"free"},{"bike_id":"1e1e98aa-3c1d-4ce0-9e79-0dee6352bb2b","system_id":"levelo_inurba_marseille","lat":43.269467,"lon":5.386439,"is_reserved":false,"is_disabled":false,"rental_uris":{"android":"levelo://app?vid=1e1e98aa-3c1d-4ce0-9e79-0dee6352bb2b","ios":"levelo://app?vid=1e1e98aa-3c1d-4ce0-9e79-0dee6352bb2b"},"vehicle_type_id":"4","last_reported":1679328653,"current_range_meters":25600,"station_id":"ce4bhh92rcd13ifvqfh0","pricing_plan_id":"free"},{"bike_id":"c0186496-af3e-4102-b46b-73b0c32ae49d","system_id":"levelo_inurba_marseille","lat":43.26946,"lon":5.38932,"is_reserved":false,"is_disabled":false,"rental_uris":{"android":"levelo://app?vid=c0186496-af3e-4102-b46b-73b0c32ae49d","ios":"levelo://app?vid=c0186496-af3e-4102-b46b-73b0c32ae49d"},"vehicle_type_id":"4","last_reported":1679328653,"current_range_meters":20000,"station_id":"","pricing_plan_id":"free"},{"bike_id":"ed10e1b6-1b58-4c71-acdc-46c35bac16c8","system_id":"levelo_inurba_marseille","lat":43.265714,"lon":5.372891,"is_reserved":false,"is_disabled":false,"rental_uris":{"android":"levelo://app?vid=ed10e1b6-1b58-4c71-acdc-46c35bac16c8","ios":"levelo://app?vid=ed10e1b6-1b58-4c71-acdc-46c35bac16c8"},"vehicle_type_id":"4","last_reported":1679328653,"current_range_meters":25600,"station_id":"ce4bhg12rcd13ifvqf70","pricing_plan_id":"free"},{"bike_id":"2ecc6902-f03f-46e2-8e14-c77d302da126","system_id":"levelo_inurba_marseille","lat":43.23193,"lon":5.35546,"is_reserved":false,"is_disabled":false,"rental_uris":{"android":"levelo://app?vid=2ecc6902-f03f-46e2-8e14-c77d302da126","ios":"levelo://app?vid=2ecc6902-f03f-46e2-8e14-c77d302da126"},"vehicle_type_id":"4","last_reported":1679328653,"current_range_meters":16400,"station_id":"","pricing_plan_id":"free"},{"bike_id":"b0277e01-a171-4282-9c1e-256e3e9ae563","system_id":"levelo_inurba_marseille","lat":43.26788,"lon":5.39418,"is_reserved":false,"is_disabled":false,"rental_uris":{"android":"levelo://app?vid=b0277e01-a171-4282-9c1e-256e3e9ae563","ios":"levelo://app?vid=b0277e01-a171-4282-9c1e-256e3e9ae563"},"vehicle_type_id":"4","last_reported":1679328653,"current_range_meters":3200,"station_id":"ce4bhh12rcd13ifvqfg0","pricing_plan_id":"free"},{"bike_id":"98115c35-e3a5-4286-ba94-ad35fe95d673","system_id":"levelo_inurba_marseille","lat":43.265758,"lon":5.390041,"is_reserved":false,"is_disabled":false,"rental_uris":{"android":"levelo://app?vid=98115c35-e3a5-4286-ba94-ad35fe95d673","ios":"levelo://app?vid=98115c35-e3a5-4286-ba94-ad35fe95d673"},"vehicle_type_id":"4","last_reported":1679328653,"current_range_meters":9600,"station_id":"ce4bhe12rcd13ifvqf30","pricing_plan_id":"free"},{"bike_id":"f034ea72-bf99-4ad0-a268-15de388c246d","system_id":"levelo_inurba_marseille","lat":43.308051,"lon":5.43527,"is_reserved":false,"is_disabled":false,"rental_uris":{"android":"levelo://app?vid=f034ea72-bf99-4ad0-a268-15de388c246d","ios":"levelo://app?vid=f034ea72-bf99-4ad0-a268-15de388c246d"},"vehicle_type_id":"4","last_reported":1679328653,"current_range_meters":14400,"station_id":"ce4bhph2rcd13ifvqheg","pricing_plan_id":"free"},{"bike_id":"ac346cc9-b253-440b-a861-673a455e5baf","system_id":"levelo_inurba_marseille","lat":43.26488,"lon":5.3915,"is_reserved":false,"is_disabled":false,"rental_uris":{"android":"levelo://app?vid=ac346cc9-b253-440b-a861-673a455e5baf","ios":"levelo://app?vid=ac346cc9-b253-440b-a861-673a455e5baf"},"vehicle_type_id":"4","last_reported":1679328653,"current_range_meters":26800,"station_id":"","pricing_plan_id":"free"},{"bike_id":"7846279c-ee06-46d7-8feb-496a220e6557","system_id":"levelo_inurba_marseille","lat":43.31713,"lon":5.4371,"is_reserved":false,"is_disabled":false,"rental_uris":{"android":"levelo://app?vid=7846279c-ee06-46d7-8feb-496a220e6557","ios":"levelo://app?vid=7846279c-ee06-46d7-8feb-496a220e6557"},"vehicle_type_id":"4","last_reported":1679328653,"current_range_meters":26000,"station_id":"","pricing_plan_id":"free"},{"bike_id":"af7a1d3e-f7e8-4327-a941-de1b90d3f8c9","system_id":"levelo_inurba_marseille","lat":43.317104,"lon":5.436818,"is_reserved":false,"is_disabled":false,"rental_uris":{"android":"levelo://app?vid=af7a1d3e-f7e8-4327-a941-de1b90d3f8c9","ios":"levelo://app?vid=af7a1d3e-f7e8-4327-a941-de1b90d3f8c9"},"vehicle_type_id":"4","last_reported":1679328653,"current_range_meters":16000,"station_id":"ce4bhp92rcd13ifvqhcg","pricing_plan_id":"free"},{"bike_id":"835df173-9df3-4e7c-8651-1654cc711dc0","system_id":"levelo_inurba_marseille","lat":43.317175,"lon":5.4371,"is_reserved":false,"is_disabled":false,"rental_uris":{"android":"levelo://app?vid=835df173-9df3-4e7c-8651-1654cc711dc0","ios":"levelo://app?vid=835df173-9df3-4e7c-8651-1654cc711dc0"},"vehicle_type_id":"4","last_reported":1679328653,"current_range_meters":3600,"station_id":"ce4bhp92rcd13ifvqhcg","pricing_plan_id":"free"},{"bike_id":"fae85872-d8a3-4295-82c1-de6047627978","system_id":"levelo_inurba_marseille","lat":43.317104,"lon":5.436818,"is_reserved":false,"is_disabled":false,"rental_uris":{"android":"levelo://app?vid=fae85872-d8a3-4295-82c1-de6047627978","ios":"levelo://app?vid=fae85872-d8a3-4295-82c1-de6047627978"},"vehicle_type_id":"4","last_reported":1679328653,"current_range_meters":20000,"station_id":"ce4bhp92rcd13ifvqhcg","pricing_plan_id":"free"},{"bike_id":"99265cf5-2860-4288-a259-9910991e3c43","system_id":"levelo_inurba_marseille","lat":43.26108,"lon":5.38388,"is_reserved":false,"is_disabled":false,"rental_uris":{"android":"levelo://app?vid=99265cf5-2860-4288-a259-9910991e3c43","ios":"levelo://app?vid=99265cf5-2860-4288-a259-9910991e3c43"},"vehicle_type_id":"4","last_reported":1679328653,"current_range_meters":0,"station_id":"","pricing_plan_id":"free"},{"bike_id":"71ad990b-694c-42d5-bae3-06e8a6b4e139","system_id":"levelo_inurba_marseille","lat":43.2635,"lon":5.3962,"is_reserved":false,"is_disabled":false,"rental_uris":{"android":"levelo://app?vid=71ad990b-694c-42d5-bae3-06e8a6b4e139","ios":"levelo://app?vid=71ad990b-694c-42d5-bae3-06e8a6b4e139"},"vehicle_type_id":"4","last_reported":1679328653,"current_range_meters":9600,"station_id":"","pricing_plan_id":"free"},{"bike_id":"396204fd-2481-419c-93c0-1d162f813a55","system_id":"levelo_inurba_marseille","lat":43.25935,"lon":5.37553,"is_reserved":false,"is_disabled":false,"rental_uris":{"android":"levelo://app?vid=396204fd-2481-419c-93c0-1d162f813a55","ios":"levelo://app?vid=396204fd-2481-419c-93c0-1d162f813a55"},"vehicle_type_id":"4","last_reported":1679328653,"current_range_meters":7200,"station_id":"","pricing_plan_id":"free"},{"bike_id":"2723b764-c63a-4c66-85d6-29ebf560968d","system_id":"levelo_inurba_marseille","lat":43.26066,"lon":5.39397,"is_reserved":false,"is_disabled":false,"rental_uris":{"android":"levelo://app?vid=2723b764-c63a-4c66-85d6-29ebf560968d","ios":"levelo://app?vid=2723b764-c63a-4c66-85d6-29ebf560968d"},"vehicle_type_id":"4","last_reported":1679328653,"current_range_meters":18000,"station_id":"","pricing_plan_id":"free"},{"bike_id":"ddbc25dd-de03-4690-8bc7-cc0cce2f4a1b","system_id":"levelo_inurba_marseille","lat":43.2607,"lon":5.393983,"is_reserved":false,"is_disabled":false,"rental_uris":{"android":"levelo://app?vid=ddbc25dd-de03-4690-8bc7-cc0cce2f4a1b","ios":"levelo://app?vid=ddbc25dd-de03-4690-8bc7-cc0cce2f4a1b"},"vehicle_type_id":"4","last_reported":1679328653,"current_range_meters":8800,"station_id":"ce4bhh92rcd13ifvqfj0","pricing_plan_id":"free"},{"bike_id":"24275893-3a5d-4352-9215-94f3a5943781","system_id":"levelo_inurba_marseille","lat":43.26064,"lon":5.39405,"is_reserved":false,"is_disabled":false,"rental_uris":{"android":"levelo://app?vid=24275893-3a5d-4352-9215-94f3a5943781","ios":"levelo://app?vid=24275893-3a5d-4352-9215-94f3a5943781"},"vehicle_type_id":"4","last_reported":1679328653,"current_range_meters":0,"station_id":"ce4bhh92rcd13ifvqfj0","pricing_plan_id":"free"},{"bike_id":"947d6e45-7cdb-4329-88ed-f060853375ac","system_id":"levelo_inurba_marseille","lat":43.26087,"lon":5.39774,"is_reserved":false,"is_disabled":false,"rental_uris":{"android":"levelo://app?vid=947d6e45-7cdb-4329-88ed-f060853375ac","ios":"levelo://app?vid=947d6e45-7cdb-4329-88ed-f060853375ac"},"vehicle_type_id":"4","last_reported":1679328653,"current_range_meters":22800,"station_id":"ce4bhi12rcd13ifvqfq0","pricing_plan_id":"free"},{"bike_id":"9e3043a0-62cc-43b7-a488-f3ad2f9f071b","system_id":"levelo_inurba_marseille","lat":43.29246,"lon":5.44135,"is_reserved":false,"is_disabled":false,"rental_uris":{"android":"levelo://app?vid=9e3043a0-62cc-43b7-a488-f3ad2f9f071b","ios":"levelo://app?vid=9e3043a0-62cc-43b7-a488-f3ad2f9f071b"},"vehicle_type_id":"4","last_reported":1679328653,"current_range_meters":14400,"station_id":"","pricing_plan_id":"free"},{"bike_id":"0fbb182a-3180-4ddd-b744-84a34752026d","system_id":"levelo_inurba_marseille","lat":43.25585,"lon":5.38237,"is_reserved":false,"is_disabled":false,"rental_uris":{"android":"levelo://app?vid=0fbb182a-3180-4ddd-b744-84a34752026d","ios":"levelo://app?vid=0fbb182a-3180-4ddd-b744-84a34752026d"},"vehicle_type_id":"4","last_reported":1679328653,"current_range_meters":28400,"station_id":"","pricing_plan_id":"free"},{"bike_id":"97aec2e3-fbc8-45ad-acc4-90b1774c6b43","system_id":"levelo_inurba_marseille","lat":43.255756,"lon":5.382303,"is_reserved":false,"is_disabled":false,"rental_uris":{"android":"levelo://app?vid=97aec2e3-fbc8-45ad-acc4-90b1774c6b43","ios":"levelo://app?vid=97aec2e3-fbc8-45ad-acc4-90b1774c6b43"},"vehicle_type_id":"4","last_reported":1679328653,"current_range_meters":13600,"station_id":"ce4bhih2rcd13ifvqfs0","pricing_plan_id":"free"},{"bike_id":"68aaa020-23d3-40e9-9b1f-8e3baf07ecad","system_id":"levelo_inurba_marseille","lat":43.25584,"lon":5.38242,"is_reserved":false,"is_disabled":false,"rental_uris":{"android":"levelo://app?vid=68aaa020-23d3-40e9-9b1f-8e3baf07ecad","ios":"levelo://app?vid=68aaa020-23d3-40e9-9b1f-8e3baf07ecad"},"vehicle_type_id":"4","last_reported":1679328653,"current_range_meters":29600,"station_id":"","pricing_plan_id":"free"},{"bike_id":"a2ff62cf-1083-4e99-af5c-3653784ac260","system_id":"levelo_inurba_marseille","lat":43.255825,"lon":5.382332,"is_reserved":false,"is_disabled":false,"rental_uris":{"android":"levelo://app?vid=a2ff62cf-1083-4e99-af5c-3653784ac260","ios":"levelo://app?vid=a2ff62cf-1083-4e99-af5c-3653784ac260"},"vehicle_type_id":"4","last_reported":1679328653,"current_range_meters":2400,"station_id":"","pricing_plan_id":"free"},{"bike_id":"6b843742-69dd-4f20-a8b3-8e9b843fc995","system_id":"levelo_inurba_marseille","lat":43.231946,"lon":5.355454,"is_reserved":false,"is_disabled":false,"rental_uris":{"android":"levelo://app?vid=6b843742-69dd-4f20-a8b3-8e9b843fc995","ios":"levelo://app?vid=6b843742-69dd-4f20-a8b3-8e9b843fc995"},"vehicle_type_id":"4","last_reported":1679328653,"current_range_meters":31600,"station_id":"","pricing_plan_id":"free"},{"bike_id":"b58a011f-32ff-4ae5-a381-28e7e96269b0","system_id":"levelo_inurba_marseille","lat":43.25498,"lon":5.37645,"is_reserved":false,"is_disabled":false,"rental_uris":{"android":"levelo://app?vid=b58a011f-32ff-4ae5-a381-28e7e96269b0","ios":"levelo://app?vid=b58a011f-32ff-4ae5-a381-28e7e96269b0"},"vehicle_type_id":"4","last_reported":1679328653,"current_range_meters":31600,"station_id":"","pricing_plan_id":"free"},{"bike_id":"521c56e9-f331-4471-a362-fbd8e81ae1cd","system_id":"levelo_inurba_marseille","lat":43.254947,"lon":5.376454,"is_reserved":false,"is_disabled":false,"rental_uris":{"android":"levelo://app?vid=521c56e9-f331-4471-a362-fbd8e81ae1cd","ios":"levelo://app?vid=521c56e9-f331-4471-a362-fbd8e81ae1cd"},"vehicle_type_id":"4","last_reported":1679328653,"current_range_meters":30400,"station_id":"ce4bhh12rcd13ifvqff0","pricing_plan_id":"free"},{"bike_id":"ce80a5e7-2f7d-4e6b-916b-9055755837c9","system_id":"levelo_inurba_marseille","lat":43.25493,"lon":5.37643,"is_reserved":false,"is_disabled":false,"rental_uris":{"android":"levelo://app?vid=ce80a5e7-2f7d-4e6b-916b-9055755837c9","ios":"levelo://app?vid=ce80a5e7-2f7d-4e6b-916b-9055755837c9"},"vehicle_type_id":"4","last_reported":1679328653,"current_range_meters":31600,"station_id":"","pricing_plan_id":"free"},{"bike_id":"cc6e3dec-3b3f-4a71-a72b-27d1d26d82da","system_id":"levelo_inurba_marseille","lat":43.27074,"lon":5.42279,"is_reserved":false,"is_disabled":false,"rental_uris":{"android":"levelo://app?vid=cc6e3dec-3b3f-4a71-a72b-27d1d26d82da","ios":"levelo://app?vid=cc6e3dec-3b3f-4a71-a72b-27d1d26d82da"},"vehicle_type_id":"4","last_reported":1679328653,"current_range_meters":24800,"station_id":"","pricing_plan_id":"free"},{"bike_id":"18e84b79-cfc4-4ae8-9f0b-7064c1c83696","system_id":"levelo_inurba_marseille","lat":43.25863,"lon":5.39895,"is_reserved":false,"is_disabled":false,"rental_uris":{"android":"levelo://app?vid=18e84b79-cfc4-4ae8-9f0b-7064c1c83696","ios":"levelo://app?vid=18e84b79-cfc4-4ae8-9f0b-7064c1c83696"},"vehicle_type_id":"4","last_reported":1679328653,"current_range_meters":20000,"station_id":"ce4bhl92rcd13ifvqghg","pricing_plan_id":"free"},{"bike_id":"43beef26-c577-4775-8eff-a6bb421f882d","system_id":"levelo_inurba_marseille","lat":43.25854,"lon":5.39906,"is_reserved":false,"is_disabled":false,"rental_uris":{"android":"levelo://app?vid=43beef26-c577-4775-8eff-a6bb421f882d","ios":"levelo://app?vid=43beef26-c577-4775-8eff-a6bb421f882d"},"vehicle_type_id":"4","last_reported":1679328653,"current_range_meters":28800,"station_id":"ce4bhl92rcd13ifvqghg","pricing_plan_id":"free"},{"bike_id":"3de33a13-6986-4373-86f0-161fd25e41a3","system_id":"levelo_inurba_marseille","lat":43.25629,"lon":5.39758,"is_reserved":false,"is_disabled":false,"rental_uris":{"android":"levelo://app?vid=3de33a13-6986-4373-86f0-161fd25e41a3","ios":"levelo://app?vid=3de33a13-6986-4373-86f0-161fd25e41a3"},"vehicle_type_id":"4","last_reported":1679328653,"current_range_meters":20400,"station_id":"","pricing_plan_id":"free"},{"bike_id":"09b9239a-824a-4525-9a63-2d845d1b4146","system_id":"levelo_inurba_marseille","lat":43.250023,"lon":5.38919,"is_reserved":false,"is_disabled":false,"rental_uris":{"android":"levelo://app?vid=09b9239a-824a-4525-9a63-2d845d1b4146","ios":"levelo://app?vid=09b9239a-824a-4525-9a63-2d845d1b4146"},"vehicle_type_id":"4","last_reported":1679328653,"current_range_meters":24000,"station_id":"ce4bhgp2rcd13ifvqfd0","pricing_plan_id":"free"},{"bike_id":"c2e26e9e-1ac6-4ced-b404-f49efcadcfe5","system_id":"levelo_inurba_marseille","lat":43.250035,"lon":5.38923,"is_reserved":false,"is_disabled":false,"rental_uris":{"android":"levelo://app?vid=c2e26e9e-1ac6-4ced-b404-f49efcadcfe5","ios":"levelo://app?vid=c2e26e9e-1ac6-4ced-b404-f49efcadcfe5"},"vehicle_type_id":"4","last_reported":1679328653,"current_range_meters":0,"station_id":"","pricing_plan_id":"free"},{"bike_id":"76d488d2-e88e-4e1d-a7c6-80aab65eb070","system_id":"levelo_inurba_marseille","lat":43.250009,"lon":5.389195,"is_reserved":false,"is_disabled":false,"rental_uris":{"android":"levelo://app?vid=76d488d2-e88e-4e1d-a7c6-80aab65eb070","ios":"levelo://app?vid=76d488d2-e88e-4e1d-a7c6-80aab65eb070"},"vehicle_type_id":"4","last_reported":1679328653,"current_range_meters":11200,"station_id":"ce4bhgp2rcd13ifvqfd0","pricing_plan_id":"free"},{"bike_id":"7ce1380f-97e8-4475-912f-4d532f4af17f","system_id":"levelo_inurba_marseille","lat":43.2479,"lon":5.374457,"is_reserved":false,"is_disabled":false,"rental_uris":{"android":"levelo://app?vid=7ce1380f-97e8-4475-912f-4d532f4af17f","ios":"levelo://app?vid=7ce1380f-97e8-4475-912f-4d532f4af17f"},"vehicle_type_id":"4","last_reported":1679328653,"current_range_meters":28000,"station_id":"ce4bhgh2rcd13ifvqfb0","pricing_plan_id":"free"},{"bike_id":"cf4d64b1-17b7-4de4-a895-9be0fa67ac8a","system_id":"levelo_inurba_marseille","lat":43.2479,"lon":5.374457,"is_reserved":false,"is_disabled":false,"rental_uris":{"android":"levelo://app?vid=cf4d64b1-17b7-4de4-a895-9be0fa67ac8a","ios":"levelo://app?vid=cf4d64b1-17b7-4de4-a895-9be0fa67ac8a"},"vehicle_type_id":"4","last_reported":1679328653,"current_range_meters":26000,"station_id":"ce4bhgh2rcd13ifvqfb0","pricing_plan_id":"free"},{"bike_id":"1145e476-8a1f-465f-87cb-86080d6541b3","system_id":"levelo_inurba_marseille","lat":43.2479,"lon":5.374457,"is_reserved":false,"is_disabled":false,"rental_uris":{"android":"levelo://app?vid=1145e476-8a1f-465f-87cb-86080d6541b3","ios":"levelo://app?vid=1145e476-8a1f-465f-87cb-86080d6541b3"},"vehicle_type_id":"4","last_reported":1679328653,"current_range_meters":31600,"station_id":"ce4bhgh2rcd13ifvqfb0","pricing_plan_id":"free"},{"bike_id":"7c398c6b-dba1-40ab-8f00-025273031ba0","system_id":"levelo_inurba_marseille","lat":43.249504,"lon":5.389168,"is_reserved":false,"is_disabled":false,"rental_uris":{"android":"levelo://app?vid=7c398c6b-dba1-40ab-8f00-025273031ba0","ios":"levelo://app?vid=7c398c6b-dba1-40ab-8f00-025273031ba0"},"vehicle_type_id":"4","last_reported":1679328653,"current_range_meters":10400,"station_id":"ce4bhgp2rcd13ifvqfd0","pricing_plan_id":"free"},{"bike_id":"ba887418-bc1b-42a6-9964-ecd9239afbb2","system_id":"levelo_inurba_marseille","lat":43.24693,"lon":5.382096,"is_reserved":false,"is_disabled":false,"rental_uris":{"android":"levelo://app?vid=ba887418-bc1b-42a6-9964-ecd9239afbb2","ios":"levelo://app?vid=ba887418-bc1b-42a6-9964-ecd9239afbb2"},"vehicle_type_id":"4","last_reported":1679328653,"current_range_meters":25600,"station_id":"ce4bhih2rcd13ifvqfr0","pricing_plan_id":"free"},{"bike_id":"764ee585-cbbb-4855-80bd-449ebe6481c0","system_id":"levelo_inurba_marseille","lat":43.2467,"lon":5.38164,"is_reserved":false,"is_disabled":false,"rental_uris":{"android":"levelo://app?vid=764ee585-cbbb-4855-80bd-449ebe6481c0","ios":"levelo://app?vid=764ee585-cbbb-4855-80bd-449ebe6481c0"},"vehicle_type_id":"4","last_reported":1679328653,"current_range_meters":10000,"station_id":"","pricing_plan_id":"free"},{"bike_id":"35606de3-6228-4a68-9fd6-3152cc6b4fda","system_id":"levelo_inurba_marseille","lat":43.24666,"lon":5.3817,"is_reserved":false,"is_disabled":false,"rental_uris":{"android":"levelo://app?vid=35606de3-6228-4a68-9fd6-3152cc6b4fda","ios":"levelo://app?vid=35606de3-6228-4a68-9fd6-3152cc6b4fda"},"vehicle_type_id":"4","last_reported":1679328653,"current_range_meters":9200,"station_id":"","pricing_plan_id":"free"},{"bike_id":"5031581c-99c0-4f6d-a143-dc152856471c","system_id":"levelo_inurba_marseille","lat":43.25116,"lon":5.4032,"is_reserved":false,"is_disabled":false,"rental_uris":{"android":"levelo://app?vid=5031581c-99c0-4f6d-a143-dc152856471c","ios":"levelo://app?vid=5031581c-99c0-4f6d-a143-dc152856471c"},"vehicle_type_id":"4","last_reported":1679328653,"current_range_meters":10000,"station_id":"","pricing_plan_id":"free"},{"bike_id":"c572f995-b324-4f4b-a0ec-c90fa09f13b8","system_id":"levelo_inurba_marseille","lat":43.251134,"lon":5.403194,"is_reserved":false,"is_disabled":false,"rental_uris":{"android":"levelo://app?vid=c572f995-b324-4f4b-a0ec-c90fa09f13b8","ios":"levelo://app?vid=c572f995-b324-4f4b-a0ec-c90fa09f13b8"},"vehicle_type_id":"4","last_reported":1679328653,"current_range_meters":21600,"station_id":"","pricing_plan_id":"free"},{"bike_id":"9687363d-da96-48e4-9fff-eeeba1efa7c1","system_id":"levelo_inurba_marseille","lat":43.250595,"lon":5.402987,"is_reserved":false,"is_disabled":false,"rental_uris":{"android":"levelo://app?vid=9687363d-da96-48e4-9fff-eeeba1efa7c1","ios":"levelo://app?vid=9687363d-da96-48e4-9fff-eeeba1efa7c1"},"vehicle_type_id":"4","last_reported":1679328653,"current_range_meters":5200,"station_id":"ce4bhlh2rcd13ifvqgig","pricing_plan_id":"free"},{"bike_id":"3e88b435-3095-4047-8a4f-4e519e9d7a25","system_id":"levelo_inurba_marseille","lat":43.24652,"lon":5.38894,"is_reserved":false,"is_disabled":false,"rental_uris":{"android":"levelo://app?vid=3e88b435-3095-4047-8a4f-4e519e9d7a25","ios":"levelo://app?vid=3e88b435-3095-4047-8a4f-4e519e9d7a25"},"vehicle_type_id":"4","last_reported":1679328653,"current_range_meters":5200,"station_id":"","pricing_plan_id":"free"},{"bike_id":"83654f32-8bc9-4987-ae3d-c668b6fb7f5b","system_id":"levelo_inurba_marseille","lat":43.24648,"lon":5.38894,"is_reserved":false,"is_disabled":false,"rental_uris":{"android":"levelo://app?vid=83654f32-8bc9-4987-ae3d-c668b6fb7f5b","ios":"levelo://app?vid=83654f32-8bc9-4987-ae3d-c668b6fb7f5b"},"vehicle_type_id":"4","last_reported":1679328653,"current_range_meters":14000,"station_id":"","pricing_plan_id":"free"},{"bike_id":"4d3a0ec8-21d8-4244-9ec6-9d9cfeb7f10c","system_id":"levelo_inurba_marseille","lat":43.243884,"lon":5.370736,"is_reserved":false,"is_disabled":false,"rental_uris":{"android":"levelo://app?vid=4d3a0ec8-21d8-4244-9ec6-9d9cfeb7f10c","ios":"levelo://app?vid=4d3a0ec8-21d8-4244-9ec6-9d9cfeb7f10c"},"vehicle_type_id":"4","last_reported":1679328653,"current_range_meters":6000,"station_id":"ce4bhhh2rcd13ifvqfk0","pricing_plan_id":"free"},{"bike_id":"282c72a3-4d35-4b2f-b16e-d75247549d04","system_id":"levelo_inurba_marseille","lat":43.245581,"lon":5.395069,"is_reserved":false,"is_disabled":false,"rental_uris":{"android":"levelo://app?vid=282c72a3-4d35-4b2f-b16e-d75247549d04","ios":"levelo://app?vid=282c72a3-4d35-4b2f-b16e-d75247549d04"},"vehicle_type_id":"4","last_reported":1679328653,"current_range_meters":23200,"station_id":"ce4bhlp2rcd13ifvqgjg","pricing_plan_id":"free"},{"bike_id":"a45ebdbe-7bd9-47e7-b849-60af602d3362","system_id":"levelo_inurba_marseille","lat":43.240623,"lon":5.377642,"is_reserved":false,"is_disabled":false,"rental_uris":{"android":"levelo://app?vid=a45ebdbe-7bd9-47e7-b849-60af602d3362","ios":"levelo://app?vid=a45ebdbe-7bd9-47e7-b849-60af602d3362"},"vehicle_type_id":"4","last_reported":1679328653,"current_range_meters":31600,"station_id":"ce4bhnp2rcd13ifvqgvg","pricing_plan_id":"free"},{"bike_id":"91059f65-0e4d-47d1-866f-f659890744b9","system_id":"levelo_inurba_marseille","lat":43.240623,"lon":5.377642,"is_reserved":false,"is_disabled":false,"rental_uris":{"android":"levelo://app?vid=91059f65-0e4d-47d1-866f-f659890744b9","ios":"levelo://app?vid=91059f65-0e4d-47d1-866f-f659890744b9"},"vehicle_type_id":"4","last_reported":1679328653,"current_range_meters":21600,"station_id":"ce4bhnp2rcd13ifvqgvg","pricing_plan_id":"free"},{"bike_id":"a754b0ce-403d-4cac-a7c5-4642d85354a5","system_id":"levelo_inurba_marseille","lat":43.239588,"lon":5.366238,"is_reserved":false,"is_disabled":false,"rental_uris":{"android":"levelo://app?vid=a754b0ce-403d-4cac-a7c5-4642d85354a5","ios":"levelo://app?vid=a754b0ce-403d-4cac-a7c5-4642d85354a5"},"vehicle_type_id":"4","last_reported":1679328653,"current_range_meters":5600,"station_id":"ce4bhi12rcd13ifvqfp0","pricing_plan_id":"free"},{"bike_id":"8b09751f-7a62-46fc-867d-0d3fc8b207ae","system_id":"levelo_inurba_marseille","lat":43.239588,"lon":5.366238,"is_reserved":false,"is_disabled":false,"rental_uris":{"android":"levelo://app?vid=8b09751f-7a62-46fc-867d-0d3fc8b207ae","ios":"levelo://app?vid=8b09751f-7a62-46fc-867d-0d3fc8b207ae"},"vehicle_type_id":"4","last_reported":1679328653,"current_range_meters":13600,"station_id":"ce4bhi12rcd13ifvqfp0","pricing_plan_id":"free"},{"bike_id":"421fcd3e-2858-472e-a7e1-3daf615760c9","system_id":"levelo_inurba_marseille","lat":43.239695,"lon":5.36631,"is_reserved":false,"is_disabled":false,"rental_uris":{"android":"levelo://app?vid=421fcd3e-2858-472e-a7e1-3daf615760c9","ios":"levelo://app?vid=421fcd3e-2858-472e-a7e1-3daf615760c9"},"vehicle_type_id":"4","last_reported":1679328653,"current_range_meters":18800,"station_id":"ce4bhi12rcd13ifvqfp0","pricing_plan_id":"free"},{"bike_id":"7c5e16d5-fad4-4db9-bb2c-bfbf82913f97","system_id":"levelo_inurba_marseille","lat":43.239588,"lon":5.366238,"is_reserved":false,"is_disabled":false,"rental_uris":{"android":"levelo://app?vid=7c5e16d5-fad4-4db9-bb2c-bfbf82913f97","ios":"levelo://app?vid=7c5e16d5-fad4-4db9-bb2c-bfbf82913f97"},"vehicle_type_id":"4","last_reported":1679328653,"current_range_meters":7200,"station_id":"ce4bhi12rcd13ifvqfp0","pricing_plan_id":"free"},{"bike_id":"da8ef29a-bcb4-4568-a9f0-5a5cf76bafef","system_id":"levelo_inurba_marseille","lat":43.239588,"lon":5.366238,"is_reserved":false,"is_disabled":false,"rental_uris":{"android":"levelo://app?vid=da8ef29a-bcb4-4568-a9f0-5a5cf76bafef","ios":"levelo://app?vid=da8ef29a-bcb4-4568-a9f0-5a5cf76bafef"},"vehicle_type_id":"4","last_reported":1679328653,"current_range_meters":0,"station_id":"ce4bhi12rcd13ifvqfp0","pricing_plan_id":"free"},{"bike_id":"2a4383bb-b19b-4fb6-a991-a9c86ff49778","system_id":"levelo_inurba_marseille","lat":43.240623,"lon":5.377642,"is_reserved":false,"is_disabled":false,"rental_uris":{"android":"levelo://app?vid=2a4383bb-b19b-4fb6-a991-a9c86ff49778","ios":"levelo://app?vid=2a4383bb-b19b-4fb6-a991-a9c86ff49778"},