{"last_updated":1722539184,"ttl":30,"version":"2.2","data":{"bikes":[{"bike_id":"02151a43-8ce9-4b6e-9270-fea8d90d5621","system_id":"levelo_inurba_marseille","lat":43.312239,"lon":5.368562,"is_reserved":false,"is_disabled":false,"rental_uris":{"android":"levelo://app?vid=02151a43-8ce9-4b6e-9270-fea8d90d5621","ios":"levelo://app?vid=02151a43-8ce9-4b6e-9270-fea8d90d5621"},"vehicle_type_id":"4","last_reported":1722539184,"current_range_meters":29200,"station_id":"ce4bgl92rcd13ifvqbq0","pricing_plan_id":"cebpf4jnsgd1na2vs0mg"},{"bike_id":"129d5772-2bb5-42e6-b9ff-c0bd2702cedf","system_id":"levelo_inurba_marseille","lat":43.31221,"lon":5.36861,"is_reserved":false,"is_disabled":false,"rental_uris":{"android":"levelo://app?vid=129d5772-2bb5-42e6-b9ff-c0bd2702cedf","ios":"levelo://app?vid=129d5772-2bb5-42e6-b9ff-c0bd2702cedf"},"vehicle_type_id":"4","last_reported":1722539184,"current_range_meters":6000,"station_id":"ce4bgl92rcd13ifvqbq0","pricing_plan_id":"cebpf4jnsgd1na2vs0mg"},{"bike_id":"6dbaec35-44ca-432c-ab46-4d1c93244165","system_id":"levelo_inurba_marseille","lat":43.309076,"lon":5.368465,"is_reserved":false,"is_disabled":false,"rental_uris":{"android":"levelo://app?vid=6dbaec35-44ca-432c-ab46-4d1c93244165","ios":"levelo://app?vid=6dbaec35-44ca-432c-ab46-4d1c93244165"},"vehicle_type_id":"4","last_reported":1722539184,"current_range_meters":12800,"station_id":"ce4bgn92rcd13ifvqbvg","pricing_plan_id":"cebpf4jnsgd1na2vs0mg"},{"bike_id":"d66aa5b1-5355-403c-aa05-5ec626de605d","system_id":"levelo_inurba_marseille","lat":43.309039,"lon":5.371797,"is_reserved":false,"is_disabled":false,"rental_uris":{"android":"levelo://app?vid=d66aa5b1-5355-403c-aa05-5ec626de605d","ios":"levelo://app?vid=d66aa5b1-5355-403c-aa05-5ec626de605d"},"vehicle_type_id":"4","last_reported":1722539184,"current_range_meters":2400,"station_id":"ce4bguh2rcd13ifvqckg","pricing_plan_id":"cebpf4jnsgd1na2vs0mg"},{"bike_id":"2a28a73c-2106-4513-add0-dae2de8fc16d","system_id":"levelo_inurba_marseille","lat":43.309039,"lon":5.371797,"is_reserved":false,"is_disabled":false,"rental_uris":{"android":"levelo://app?vid=2a28a73c-2106-4513-add0-dae2de8fc16d","ios":"levelo://app?vid=2a28a73c-2106-4513-add0-dae2de8fc16d"},"vehicle_type_id":"4","last_reported":1722539184,"current_range_meters":1600,"station_id":"ce4bguh2rcd13ifvqckg","pricing_plan_id":"cebpf4jnsgd1na2vs0mg"},{"bike_id":"1e7b4410-56c0-4c12-8592-93c06ba7670a","system_id":"levelo_inurba_marseille","lat":43.309034,"lon":5.371783,"is_reserved":false,"is_disabled":false,"rental_uris":{"android":"levelo://app?vid=1e7b4410-56c0-4c12-8592-93c06ba7670a","ios":"levelo://app?vid=1e7b4410-56c0-4c12-8592-93c06ba7670a"},"vehicle_type_id":"4","last_reported":1722539184,"current_range_meters":0,"station_id":"ce4bguh2rcd13ifvqckg","pricing_plan_id":"cebpf4jnsgd1na2vs0mg"},{"bike_id":"4eb137ea-ef73-45de-9ef9-ca6f9cbf53be","system_id":"levelo_inurba_marseille","lat":43.30544,"lon":5.36709,"is_reserved":false,"is_disabled":false,"rental_uris":{"android":"levelo://app?vid=4eb137ea-ef73-45de-9ef9-ca6f9cbf53be","ios":"levelo://app?vid=4eb137ea-ef73-45de-9ef9-ca6f9cbf53be"},"vehicle_type_id":"4","last_reported":1722539184,"current_range_meters":3600,"station_id":"ce4bgrp2rcd13ifvqc9g","pricing_plan_id":"cebpf4jnsgd1na2vs0mg"},{"bike_id":"c6fa08a7-8c3f-4a3e-917f-71f53848cef8","system_id":"levelo_inurba_marseille","lat":43.30543,"lon":5.36707,"is_reserved":false,"is_disabled":false,"rental_uris":{"android":"levelo://app?vid=c6fa08a7-8c3f-4a3e-917f-71f53848cef8","ios":"levelo://app?vid=c6fa08a7-8c3f-4a3e-917f-71f53848cef8"},"vehicle_type_id":"4","last_reported":1722539184,"current_range_meters":1600,"station_id":"ce4bgrp2rcd13ifvqc9g","pricing_plan_id":"cebpf4jnsgd1na2vs0mg"},{"bike_id":"95de97fc-da67-404b-b6d8-18d6e57a4d1c","system_id":"levelo_inurba_marseille","lat":43.305368,"lon":5.367343,"is_reserved":false,"is_disabled":false,"rental_uris":{"android":"levelo://app?vid=95de97fc-da67-404b-b6d8-18d6e57a4d1c","ios":"levelo://app?vid=95de97fc-da67-404b-b6d8-18d6e57a4d1c"},"vehicle_type_id":"4","last_reported":1722539184,"current_range_meters":16400,"station_id":"ce4bgrp2rcd13ifvqc9g","pricing_plan_id":"cebpf4jnsgd1na2vs0mg"},{"bike_id":"da7e9386-a793-406a-bf98-31e34518e76a","system_id":"levelo_inurba_marseille","lat":43.31118,"lon":5.37759,"is_reserved":false,"is_disabled":false,"rental_uris":{"android":"levelo://app?vid=da7e9386-a793-406a-bf98-31e34518e76a","ios":"levelo://app?vid=da7e9386-a793-406a-bf98-31e34518e76a"},"vehicle_type_id":"4","last_reported":1722539184,"current_range_meters":0,"station_id":"ce4bgt92rcd13ifvqcg0","pricing_plan_id":"cebpf4jnsgd1na2vs0mg"},{"bike_id":"85625cd4-0b88-40fd-b3da-c9baa59ec630","system_id":"levelo_inurba_marseille","lat":43.307945,"lon":5.376487,"is_reserved":false,"is_disabled":false,"rental_uris":{"android":"levelo://app?vid=85625cd4-0b88-40fd-b3da-c9baa59ec630","ios":"levelo://app?vid=85625cd4-0b88-40fd-b3da-c9baa59ec630"},"vehicle_type_id":"4","last_reported":1722539184,"current_range_meters":28400,"station_id":"ce4bgv92rcd13ifvqcq0","pricing_plan_id":"cebpf4jnsgd1na2vs0mg"},{"bike_id":"6abc9918-d331-4ad1-b16d-8255060df1d0","system_id":"levelo_inurba_marseille","lat":43.307945,"lon":5.376487,"is_reserved":false,"is_disabled":false,"rental_uris":{"android":"levelo://app?vid=6abc9918-d331-4ad1-b16d-8255060df1d0","ios":"levelo://app?vid=6abc9918-d331-4ad1-b16d-8255060df1d0"},"vehicle_type_id":"4","last_reported":1722539184,"current_range_meters":3200,"station_id":"ce4bgv92rcd13ifvqcq0","pricing_plan_id":"cebpf4jnsgd1na2vs0mg"},{"bike_id":"1fe25d61-46e2-45d9-8091-d6434ea546b9","system_id":"levelo_inurba_marseille","lat":43.317075,"lon":5.377367,"is_reserved":false,"is_disabled":false,"rental_uris":{"android":"levelo://app?vid=1fe25d61-46e2-45d9-8091-d6434ea546b9","ios":"levelo://app?vid=1fe25d61-46e2-45d9-8091-d6434ea546b9"},"vehicle_type_id":"4","last_reported":1722539184,"current_range_meters":5600,"station_id":"ce4bgth2rcd13ifvqch0","pricing_plan_id":"cebpf4jnsgd1na2vs0mg"},{"bike_id":"e3d0d54c-4907-4314-8adc-447431d1a7a8","system_id":"levelo_inurba_marseille","lat":43.30475,"lon":5.37231,"is_reserved":false,"is_disabled":false,"rental_uris":{"android":"levelo://app?vid=e3d0d54c-4907-4314-8adc-447431d1a7a8","ios":"levelo://app?vid=e3d0d54c-4907-4314-8adc-447431d1a7a8"},"vehicle_type_id":"4","last_reported":1722539184,"current_range_meters":13600,"station_id":"","pricing_plan_id":"cebpf4jnsgd1na2vs0mg"},{"bike_id":"7c14d4b9-0373-42f4-98ca-5464de42dfc1","system_id":"levelo_inurba_marseille","lat":43.315289,"lon":5.380349,"is_reserved":false,"is_disabled":false,"rental_uris":{"android":"levelo://app?vid=7c14d4b9-0373-42f4-98ca-5464de42dfc1","ios":"levelo://app?vid=7c14d4b9-0373-42f4-98ca-5464de42dfc1"},"vehicle_type_id":"4","last_reported":1722539184,"current_range_meters":5200,"station_id":"ce4bhsp2rcd13ifvqi50","pricing_plan_id":"cebpf4jnsgd1na2vs0mg"},{"bike_id":"e589a8df-2272-4444-a94c-bbfa6bb57419","system_id":"levelo_inurba_marseille","lat":43.317054,"lon":5.378284,"is_reserved":false,"is_disabled":false,"rental_uris":{"android":"levelo://app?vid=e589a8df-2272-4444-a94c-bbfa6bb57419","ios":"levelo://app?vid=e589a8df-2272-4444-a94c-bbfa6bb57419"},"vehicle_type_id":"4","last_reported":1722539184,"current_range_meters":7600,"station_id":"","pricing_plan_id":"cebpf4jnsgd1na2vs0mg"},{"bike_id":"f4695f1a-a915-4372-b9de-7d615a80dcbb","system_id":"levelo_inurba_marseille","lat":43.303046,"lon":5.368981,"is_reserved":false,"is_disabled":false,"rental_uris":{"android":"levelo://app?vid=f4695f1a-a915-4372-b9de-7d615a80dcbb","ios":"levelo://app?vid=f4695f1a-a915-4372-b9de-7d615a80dcbb"},"vehicle_type_id":"4","last_reported":1722539184,"current_range_meters":26400,"station_id":"ce4bgqh2rcd13ifvqc5g","pricing_plan_id":"cebpf4jnsgd1na2vs0mg"},{"bike_id":"d8e0fb36-07e9-4d2d-9f48-68eb7671cff4","system_id":"levelo_inurba_marseille","lat":43.314239,"lon":5.380395,"is_reserved":false,"is_disabled":false,"rental_uris":{"android":"levelo://app?vid=d8e0fb36-07e9-4d2d-9f48-68eb7671cff4","ios":"levelo://app?vid=d8e0fb36-07e9-4d2d-9f48-68eb7671cff4"},"vehicle_type_id":"4","last_reported":1722539184,"current_range_meters":4400,"station_id":"","pricing_plan_id":"cebpf4jnsgd1na2vs0mg"},{"bike_id":"d65db3e0-1a67-4b05-be0b-490b29e39322","system_id":"levelo_inurba_marseille","lat":43.303046,"lon":5.368981,"is_reserved":false,"is_disabled":false,"rental_uris":{"android":"levelo://app?vid=d65db3e0-1a67-4b05-be0b-490b29e39322","ios":"levelo://app?vid=d65db3e0-1a67-4b05-be0b-490b29e39322"},"vehicle_type_id":"4","last_reported":1722539184,"current_range_meters":15600,"station_id":"ce4bgqh2rcd13ifvqc5g","pricing_plan_id":"cebpf4jnsgd1na2vs0mg"},{"bike_id":"338ec0dd-2cc0-4bfa-b5cb-6e6172719e04","system_id":"levelo_inurba_marseille","lat":43.31395,"lon":5.38202,"is_reserved":false,"is_disabled":false,"rental_uris":{"android":"levelo://app?vid=338ec0dd-2cc0-4bfa-b5cb-6e6172719e04","ios":"levelo://app?vid=338ec0dd-2cc0-4bfa-b5cb-6e6172719e04"},"vehicle_type_id":"4","last_reported":1722539184,"current_range_meters":16000,"station_id":"","pricing_plan_id":"cebpf4jnsgd1na2vs0mg"},{"bike_id":"fefa8c85-a143-45d7-b3d1-15bf6b235f88","system_id":"levelo_inurba_marseille","lat":43.324771,"lon":5.36557,"is_reserved":false,"is_disabled":false,"rental_uris":{"android":"levelo://app?vid=fefa8c85-a143-45d7-b3d1-15bf6b235f88","ios":"levelo://app?vid=fefa8c85-a143-45d7-b3d1-15bf6b235f88"},"vehicle_type_id":"4","last_reported":1722539184,"current_range_meters":4000,"station_id":"ce4bhs12rcd13ifvqhvg","pricing_plan_id":"cebpf4jnsgd1na2vs0mg"},{"bike_id":"180aa3e5-6bfe-402b-ad5e-a880edefeca2","system_id":"levelo_inurba_marseille","lat":43.324771,"lon":5.36557,"is_reserved":false,"is_disabled":false,"rental_uris":{"android":"levelo://app?vid=180aa3e5-6bfe-402b-ad5e-a880edefeca2","ios":"levelo://app?vid=180aa3e5-6bfe-402b-ad5e-a880edefeca2"},"vehicle_type_id":"4","last_reported":1722539184,"current_range_meters":6800,"station_id":"ce4bhs12rcd13ifvqhvg","pricing_plan_id":"cebpf4jnsgd1na2vs0mg"},{"bike_id":"6081998e-1125-493b-939c-54880bd02346","system_id":"levelo_inurba_marseille","lat":43.3248,"lon":5.36566,"is_reserved":false,"is_disabled":false,"rental_uris":{"android":"levelo://app?vid=6081998e-1125-493b-939c-54880bd02346","ios":"levelo://app?vid=6081998e-1125-493b-939c-54880bd02346"},"vehicle_type_id":"4","last_reported":1722539184,"current_range_meters":31200,"station_id":"ce4bhs12rcd13ifvqhvg","pricing_plan_id":"cebpf4jnsgd1na2vs0mg"},{"bike_id":"ddb72aed-cab4-43b5-974a-7e43ec2820f9","system_id":"levelo_inurba_marseille","lat":43.32484,"lon":5.36559,"is_reserved":false,"is_disabled":false,"rental_uris":{"android":"levelo://app?vid=ddb72aed-cab4-43b5-974a-7e43ec2820f9","ios":"levelo://app?vid=ddb72aed-cab4-43b5-974a-7e43ec2820f9"},"vehicle_type_id":"4","last_reported":1722539184,"current_range_meters":3200,"station_id":"ce4bhs12rcd13ifvqhvg","pricing_plan_id":"cebpf4jnsgd1na2vs0mg"},{"bike_id":"9ddbf6d0-6495-43aa-85b7-11e457d0061b","system_id":"levelo_inurba_marseille","lat":43.310804,"lon":5.38359,"is_reserved":false,"is_disabled":false,"rental_uris":{"android":"levelo://app?vid=9ddbf6d0-6495-43aa-85b7-11e457d0061b","ios":"levelo://app?vid=9ddbf6d0-6495-43aa-85b7-11e457d0061b"},"vehicle_type_id":"4","last_reported":1722539184,"current_range_meters":5200,"station_id":"ce4bgv92rcd13ifvqcr0","pricing_plan_id":"cebpf4jnsgd1na2vs0mg"},{"bike_id":"f4bf10e2-750e-43da-8f91-8b67b9059ad8","system_id":"levelo_inurba_marseille","lat":43.310804,"lon":5.38359,"is_reserved":false,"is_disabled":false,"rental_uris":{"android":"levelo://app?vid=f4bf10e2-750e-43da-8f91-8b67b9059ad8","ios":"levelo://app?vid=f4bf10e2-750e-43da-8f91-8b67b9059ad8"},"vehicle_type_id":"4","last_reported":1722539184,"current_range_meters":3600,"station_id":"ce4bgv92rcd13ifvqcr0","pricing_plan_id":"cebpf4jnsgd1na2vs0mg"},{"bike_id":"21a35de4-2c7f-4dda-bcf6-c1028e4554bd","system_id":"levelo_inurba_marseille","lat":43.31269,"lon":5.38387,"is_reserved":false,"is_disabled":false,"rental_uris":{"android":"levelo://app?vid=21a35de4-2c7f-4dda-bcf6-c1028e4554bd","ios":"levelo://app?vid=21a35de4-2c7f-4dda-bcf6-c1028e4554bd"},"vehicle_type_id":"4","last_reported":1722539184,"current_range_meters":24400,"station_id":"","pricing_plan_id":"cebpf4jnsgd1na2vs0mg"},{"bike_id":"e3a86007-873f-4bf1-b725-fd2a3232ba03","system_id":"levelo_inurba_marseille","lat":43.30143,"lon":5.37413,"is_reserved":false,"is_disabled":false,"rental_uris":{"android":"levelo://app?vid=e3a86007-873f-4bf1-b725-fd2a3232ba03","ios":"levelo://app?vid=e3a86007-873f-4bf1-b725-fd2a3232ba03"},"vehicle_type_id":"4","last_reported":1722539184,"current_range_meters":4400,"station_id":"ce4bgs92rcd13ifvqcc0","pricing_plan_id":"cebpf4jnsgd1na2vs0mg"},{"bike_id":"9c0e8d39-68ba-46db-aad2-c05bbb00b107","system_id":"levelo_inurba_marseille","lat":43.30143,"lon":5.37413,"is_reserved":false,"is_disabled":false,"rental_uris":{"android":"levelo://app?vid=9c0e8d39-68ba-46db-aad2-c05bbb00b107","ios":"levelo://app?vid=9c0e8d39-68ba-46db-aad2-c05bbb00b107"},"vehicle_type_id":"4","last_reported":1722539184,"current_range_meters":0,"station_id":"ce4bgs92rcd13ifvqcc0","pricing_plan_id":"cebpf4jnsgd1na2vs0mg"},{"bike_id":"7983d92b-85cd-4a20-baec-98fef34ddc1e","system_id":"levelo_inurba_marseille","lat":43.301429,"lon":5.37413,"is_reserved":false,"is_disabled":false,"rental_uris":{"android":"levelo://app?vid=7983d92b-85cd-4a20-baec-98fef34ddc1e","ios":"levelo://app?vid=7983d92b-85cd-4a20-baec-98fef34ddc1e"},"vehicle_type_id":"4","last_reported":1722539184,"current_range_meters":0,"station_id":"ce4bgs92rcd13ifvqcc0","pricing_plan_id":"cebpf4jnsgd1na2vs0mg"},{"bike_id":"f6721e75-9428-491a-8367-410ed7b2f2bf","system_id":"levelo_inurba_marseille","lat":43.3129,"lon":5.38481,"is_reserved":false,"is_disabled":false,"rental_uris":{"android":"levelo://app?vid=f6721e75-9428-491a-8367-410ed7b2f2bf","ios":"levelo://app?vid=f6721e75-9428-491a-8367-410ed7b2f2bf"},"vehicle_type_id":"4","last_reported":1722539184,"current_range_meters":12800,"station_id":"","pricing_plan_id":"cebpf4jnsgd1na2vs0mg"},{"bike_id":"330dd213-2152-418c-84cf-491d82e7a181","system_id":"levelo_inurba_marseille","lat":43.3129,"lon":5.38481,"is_reserved":false,"is_disabled":false,"rental_uris":{"android":"levelo://app?vid=330dd213-2152-418c-84cf-491d82e7a181","ios":"levelo://app?vid=330dd213-2152-418c-84cf-491d82e7a181"},"vehicle_type_id":"4","last_reported":1722539184,"current_range_meters":10000,"station_id":"","pricing_plan_id":"cebpf4jnsgd1na2vs0mg"},{"bike_id":"528eccd4-1882-4207-ae8b-30280d7850df","system_id":"levelo_inurba_marseille","lat":43.313571,"lon":5.384829,"is_reserved":false,"is_disabled":false,"rental_uris":{"android":"levelo://app?vid=528eccd4-1882-4207-ae8b-30280d7850df","ios":"levelo://app?vid=528eccd4-1882-4207-ae8b-30280d7850df"},"vehicle_type_id":"4","last_reported":1722539184,"current_range_meters":21200,"station_id":"ce4bgt92rcd13ifvqcf0","pricing_plan_id":"cebpf4jnsgd1na2vs0mg"},{"bike_id":"d563deb1-dbad-4eda-95c8-0d591e655878","system_id":"levelo_inurba_marseille","lat":43.313571,"lon":5.384829,"is_reserved":false,"is_disabled":false,"rental_uris":{"android":"levelo://app?vid=d563deb1-dbad-4eda-95c8-0d591e655878","ios":"levelo://app?vid=d563deb1-dbad-4eda-95c8-0d591e655878"},"vehicle_type_id":"4","last_reported":1722539184,"current_range_meters":24400,"station_id":"ce4bgt92rcd13ifvqcf0","pricing_plan_id":"cebpf4jnsgd1na2vs0mg"},{"bike_id":"e29b3f08-29c9-4dfb-be52-89b0fbf18ecf","system_id":"levelo_inurba_marseille","lat":43.30147,"lon":5.3769,"is_reserved":false,"is_disabled":false,"rental_uris":{"android":"levelo://app?vid=e29b3f08-29c9-4dfb-be52-89b0fbf18ecf","ios":"levelo://app?vid=e29b3f08-29c9-4dfb-be52-89b0fbf18ecf"},"vehicle_type_id":"4","last_reported":1722539184,"current_range_meters":0,"station_id":"","pricing_plan_id":"cebpf4jnsgd1na2vs0mg"},{"bike_id":"0d6658cf-c8a2-4e9d-b71b-9b5e3fd07f3f","system_id":"levelo_inurba_marseille","lat":43.299724,"lon":5.371829,"is_reserved":false,"is_disabled":false,"rental_uris":{"android":"levelo://app?vid=0d6658cf-c8a2-4e9d-b71b-9b5e3fd07f3f","ios":"levelo://app?vid=0d6658cf-c8a2-4e9d-b71b-9b5e3fd07f3f"},"vehicle_type_id":"4","last_reported":1722539184,"current_range_meters":3200,"station_id":"ce4bgr92rcd13ifvqc7g","pricing_plan_id":"cebpf4jnsgd1na2vs0mg"},{"bike_id":"c4476175-a3d0-4a57-864e-12b2e875105d","system_id":"levelo_inurba_marseille","lat":43.299222,"lon":5.365554,"is_reserved":false,"is_disabled":false,"rental_uris":{"android":"levelo://app?vid=c4476175-a3d0-4a57-864e-12b2e875105d","ios":"levelo://app?vid=c4476175-a3d0-4a57-864e-12b2e875105d"},"vehicle_type_id":"4","last_reported":1722539184,"current_range_meters":4000,"station_id":"ce4bgm92rcd13ifvqbr0","pricing_plan_id":"cebpf4jnsgd1na2vs0mg"},{"bike_id":"20a13efc-1fa9-46f6-9608-b1eb5f4bba8a","system_id":"levelo_inurba_marseille","lat":43.299724,"lon":5.371829,"is_reserved":false,"is_disabled":false,"rental_uris":{"android":"levelo://app?vid=20a13efc-1fa9-46f6-9608-b1eb5f4bba8a","ios":"levelo://app?vid=20a13efc-1fa9-46f6-9608-b1eb5f4bba8a"},"vehicle_type_id":"4","last_reported":1722539184,"current_range_meters":19600,"station_id":"ce4bgr92rcd13ifvqc7g","pricing_plan_id":"cebpf4jnsgd1na2vs0mg"},{"bike_id":"d01a0dce-4208-4692-a733-184d1f4c98f0","system_id":"levelo_inurba_marseille","lat":43.299724,"lon":5.371829,"is_reserved":false,"is_disabled":false,"rental_uris":{"android":"levelo://app?vid=d01a0dce-4208-4692-a733-184d1f4c98f0","ios":"levelo://app?vid=d01a0dce-4208-4692-a733-184d1f4c98f0"},"vehicle_type_id":"4","last_reported":1722539184,"current_range_meters":0,"station_id":"ce4bgr92rcd13ifvqc7g","pricing_plan_id":"cebpf4jnsgd1na2vs0mg"},{"bike_id":"c13518c0-b897-4832-8532-272f8cb41e91","system_id":"levelo_inurba_marseille","lat":43.30493,"lon":5.38234,"is_reserved":false,"is_disabled":false,"rental_uris":{"android":"levelo://app?vid=c13518c0-b897-4832-8532-272f8cb41e91","ios":"levelo://app?vid=c13518c0-b897-4832-8532-272f8cb41e91"},"vehicle_type_id":"4","last_reported":1722539184,"current_range_meters":20800,"station_id":"","pricing_plan_id":"cebpf4jnsgd1na2vs0mg"},{"bike_id":"493e5cb7-afe2-43b7-bb1d-2b6cf6a538cb","system_id":"levelo_inurba_marseille","lat":43.29843,"lon":5.36274,"is_reserved":false,"is_disabled":false,"rental_uris":{"android":"levelo://app?vid=493e5cb7-afe2-43b7-bb1d-2b6cf6a538cb","ios":"levelo://app?vid=493e5cb7-afe2-43b7-bb1d-2b6cf6a538cb"},"vehicle_type_id":"4","last_reported":1722539184,"current_range_meters":5200,"station_id":"ce4bgpp2rcd13ifvqc3g","pricing_plan_id":"cebpf4jnsgd1na2vs0mg"},{"bike_id":"415f1f24-52ea-47bc-ab96-66fa6e4ea946","system_id":"levelo_inurba_marseille","lat":43.299243,"lon":5.374807,"is_reserved":false,"is_disabled":false,"rental_uris":{"android":"levelo://app?vid=415f1f24-52ea-47bc-ab96-66fa6e4ea946","ios":"levelo://app?vid=415f1f24-52ea-47bc-ab96-66fa6e4ea946"},"vehicle_type_id":"4","last_reported":1722539184,"current_range_meters":6000,"station_id":"ce4bgjh2rcd13ifvqbg0","pricing_plan_id":"cebpf4jnsgd1na2vs0mg"},{"bike_id":"d72dbddd-3b4c-4148-80de-59a22b3ef338","system_id":"levelo_inurba_marseille","lat":43.299243,"lon":5.37481,"is_reserved":false,"is_disabled":false,"rental_uris":{"android":"levelo://app?vid=d72dbddd-3b4c-4148-80de-59a22b3ef338","ios":"levelo://app?vid=d72dbddd-3b4c-4148-80de-59a22b3ef338"},"vehicle_type_id":"4","last_reported":1722539184,"current_range_meters":26000,"station_id":"ce4bgjh2rcd13ifvqbg0","pricing_plan_id":"cebpf4jnsgd1na2vs0mg"},{"bike_id":"c7ba82a6-7bf5-4c6f-a1be-d3c4ac2fbd9e","system_id":"levelo_inurba_marseille","lat":43.311722,"lon":5.387247,"is_reserved":false,"is_disabled":false,"rental_uris":{"android":"levelo://app?vid=c7ba82a6-7bf5-4c6f-a1be-d3c4ac2fbd9e","ios":"levelo://app?vid=c7ba82a6-7bf5-4c6f-a1be-d3c4ac2fbd9e"},"vehicle_type_id":"4","last_reported":1722539184,"current_range_meters":5600,"station_id":"ce4bgv12rcd13ifvqcp0","pricing_plan_id":"cebpf4jnsgd1na2vs0mg"},{"bike_id":"d708aa7a-d132-4388-99d3-9494736c3957","system_id":"levelo_inurba_marseille","lat":43.297794,"lon":5.370888,"is_reserved":false,"is_disabled":false,"rental_uris":{"android":"levelo://app?vid=d708aa7a-d132-4388-99d3-9494736c3957","ios":"levelo://app?vid=d708aa7a-d132-4388-99d3-9494736c3957"},"vehicle_type_id":"4","last_reported":1722539184,"current_range_meters":28800,"station_id":"ce4bgop2rcd13ifvqc1g","pricing_plan_id":"cebpf4jnsgd1na2vs0mg"},{"bike_id":"bac65d7d-4cbb-4d55-bd76-f3cb90fb6804","system_id":"levelo_inurba_marseille","lat":43.297774,"lon":5.370875,"is_reserved":false,"is_disabled":false,"rental_uris":{"android":"levelo://app?vid=bac65d7d-4cbb-4d55-bd76-f3cb90fb6804","ios":"levelo://app?vid=bac65d7d-4cbb-4d55-bd76-f3cb90fb6804"},"vehicle_type_id":"4","last_reported":1722539184,"current_range_meters":3600,"station_id":"ce4bgop2rcd13ifvqc1g","pricing_plan_id":"cebpf4jnsgd1na2vs0mg"},{"bike_id":"3de5c7cb-7271-425f-8b83-4cdd40840b49","system_id":"levelo_inurba_marseille","lat":43.297774,"lon":5.370875,"is_reserved":false,"is_disabled":false,"rental_uris":{"android":"levelo://app?vid=3de5c7cb-7271-425f-8b83-4cdd40840b49","ios":"levelo://app?vid=3de5c7cb-7271-425f-8b83-4cdd40840b49"},"vehicle_type_id":"4","last_reported":1722539184,"current_range_meters":6400,"station_id":"ce4bgop2rcd13ifvqc1g","pricing_plan_id":"cebpf4jnsgd1na2vs0mg"},{"bike_id":"5b54d771-8cbf-4226-8387-5bbf7a55f329","system_id":"levelo_inurba_marseille","lat":43.297794,"lon":5.370888,"is_reserved":false,"is_disabled":false,"rental_uris":{"android":"levelo://app?vid=5b54d771-8cbf-4226-8387-5bbf7a55f329","ios":"levelo://app?vid=5b54d771-8cbf-4226-8387-5bbf7a55f329"},"vehicle_type_id":"4","last_reported":1722539184,"current_range_meters":31200,"station_id":"ce4bgop2rcd13ifvqc1g","pricing_plan_id":"cebpf4jnsgd1na2vs0mg"},{"bike_id":"749576d7-ac1c-4fdc-b071-bdc937fb475d","system_id":"levelo_inurba_marseille","lat":43.32613,"lon":5.37695,"is_reserved":false,"is_disabled":false,"rental_uris":{"android":"levelo://app?vid=749576d7-ac1c-4fdc-b071-bdc937fb475d","ios":"levelo://app?vid=749576d7-ac1c-4fdc-b071-bdc937fb475d"},"vehicle_type_id":"4","last_reported":1722539184,"current_range_meters":20000,"station_id":"","pricing_plan_id":"cebpf4jnsgd1na2vs0mg"},{"bike_id":"a9507a6a-9885-4127-8584-0cf7e73958a1","system_id":"levelo_inurba_marseille","lat":43.29717,"lon":5.36618,"is_reserved":false,"is_disabled":false,"rental_uris":{"android":"levelo://app?vid=a9507a6a-9885-4127-8584-0cf7e73958a1","ios":"levelo://app?vid=a9507a6a-9885-4127-8584-0cf7e73958a1"},"vehicle_type_id":"4","last_reported":1722539184,"current_range_meters":31200,"station_id":"","pricing_plan_id":"cebpf4jnsgd1na2vs0mg"},{"bike_id":"4bd4d134-91a5-43ed-996a-4aa41f75d5b6","system_id":"levelo_inurba_marseille","lat":43.297163,"lon":5.365866,"is_reserved":false,"is_disabled":false,"rental_uris":{"android":"levelo://app?vid=4bd4d134-91a5-43ed-996a-4aa41f75d5b6","ios":"levelo://app?vid=4bd4d134-91a5-43ed-996a-4aa41f75d5b6"},"vehicle_type_id":"4","last_reported":1722539184,"current_range_meters":6800,"station_id":"ce4bgn12rcd13ifvqbt0","pricing_plan_id":"cebpf4jnsgd1na2vs0mg"},{"bike_id":"754215c2-90cb-4de5-b753-23000909d6f5","system_id":"levelo_inurba_marseille","lat":43.297163,"lon":5.365866,"is_reserved":false,"is_disabled":false,"rental_uris":{"android":"levelo://app?vid=754215c2-90cb-4de5-b753-23000909d6f5","ios":"levelo://app?vid=754215c2-90cb-4de5-b753-23000909d6f5"},"vehicle_type_id":"4","last_reported":1722539184,"current_range_meters":8400,"station_id":"ce4bgn12rcd13ifvqbt0","pricing_plan_id":"cebpf4jnsgd1na2vs0mg"},{"bike_id":"4aacc2d0-a36a-42c7-ab72-1b65ea10d422","system_id":"levelo_inurba_marseille","lat":43.297163,"lon":5.365866,"is_reserved":false,"is_disabled":false,"rental_uris":{"android":"levelo://app?vid=4aacc2d0-a36a-42c7-ab72-1b65ea10d422","ios":"levelo://app?vid=4aacc2d0-a36a-42c7-ab72-1b65ea10d422"},"vehicle_type_id":"4","last_reported":1722539184,"current_range_meters":13600,"station_id":"ce4bgn12rcd13ifvqbt0","pricing_plan_id":"cebpf4jnsgd1na2vs0mg"},{"bike_id":"fc97c7a3-e9f5-4250-8551-b1a4ed4649f3","system_id":"levelo_inurba_marseille","lat":43.297163,"lon":5.365866,"is_reserved":false,"is_disabled":false,"rental_uris":{"android":"levelo://app?vid=fc97c7a3-e9f5-4250-8551-b1a4ed4649f3","ios":"levelo://app?vid=fc97c7a3-e9f5-4250-8551-b1a4ed4649f3"},"vehicle_type_id":"4","last_reported":1722539184,"current_range_meters":23600,"station_id":"ce4bgn12rcd13ifvqbt0","pricing_plan_id":"cebpf4jnsgd1na2vs0mg"},{"bike_id":"45f12110-b865-4d92-85f8-bd915a3236d5","system_id":"levelo_inurba_marseille","lat":43.297163,"lon":5.365866,"is_reserved":false,"is_disabled":false,"rental_uris":{"android":"levelo://app?vid=45f12110-b865-4d92-85f8-bd915a3236d5","ios":"levelo://app?vid=45f12110-b865-4d92-85f8-bd915a3236d5"},"vehicle_type_id":"4","last_reported":1722539184,"current_range_meters":18400,"station_id":"ce4bgn12rcd13ifvqbt0","pricing_plan_id":"cebpf4jnsgd1na2vs0mg"},{"bike_id":"024baf7d-0762-40a4-a043-9198e1292ceb","system_id":"levelo_inurba_marseille","lat":43.2968,"lon":5.37291,"is_reserved":false,"is_disabled":false,"rental_uris":{"android":"levelo://app?vid=024baf7d-0762-40a4-a043-9198e1292ceb","ios":"levelo://app?vid=024baf7d-0762-40a4-a043-9198e1292ceb"},"vehicle_type_id":"4","last_reported":1722539184,"current_range_meters":24800,"station_id":"ce4bgk12rcd13ifvqbj0","pricing_plan_id":"cebpf4jnsgd1na2vs0mg"},{"bike_id":"3d0b2324-346b-4898-8e30-9dccf0d8648f","system_id":"levelo_inurba_marseille","lat":43.2968,"lon":5.37291,"is_reserved":false,"is_disabled":false,"rental_uris":{"android":"levelo://app?vid=3d0b2324-346b-4898-8e30-9dccf0d8648f","ios":"levelo://app?vid=3d0b2324-346b-4898-8e30-9dccf0d8648f"},"vehicle_type_id":"4","last_reported":1722539184,"current_range_meters":31200,"station_id":"ce4bgk12rcd13ifvqbj0","pricing_plan_id":"cebpf4jnsgd1na2vs0mg"},{"bike_id":"c0c87c7c-83c8-45df-aabc-d29929f3104c","system_id":"levelo_inurba_marseille","lat":43.2968,"lon":5.37291,"is_reserved":false,"is_disabled":false,"rental_uris":{"android":"levelo://app?vid=c0c87c7c-83c8-45df-aabc-d29929f3104c","ios":"levelo://app?vid=c0c87c7c-83c8-45df-aabc-d29929f3104c"},"vehicle_type_id":"4","last_reported":1722539184,"current_range_meters":16400,"station_id":"ce4bgk12rcd13ifvqbj0","pricing_plan_id":"cebpf4jnsgd1na2vs0mg"},{"bike_id":"805a8a8a-1e74-4d21-a386-95ea4b6c830e","system_id":"levelo_inurba_marseille","lat":43.29682,"lon":5.37283,"is_reserved":false,"is_disabled":false,"rental_uris":{"android":"levelo://app?vid=805a8a8a-1e74-4d21-a386-95ea4b6c830e","ios":"levelo://app?vid=805a8a8a-1e74-4d21-a386-95ea4b6c830e"},"vehicle_type_id":"4","last_reported":1722539184,"current_range_meters":21600,"station_id":"ce4bgk12rcd13ifvqbj0","pricing_plan_id":"cebpf4jnsgd1na2vs0mg"},{"bike_id":"b1f4bc42-d110-49c9-b687-3b4ee2ca9de3","system_id":"levelo_inurba_marseille","lat":43.2968,"lon":5.37291,"is_reserved":false,"is_disabled":false,"rental_uris":{"android":"levelo://app?vid=b1f4bc42-d110-49c9-b687-3b4ee2ca9de3","ios":"levelo://app?vid=b1f4bc42-d110-49c9-b687-3b4ee2ca9de3"},"vehicle_type_id":"4","last_reported":1722539184,"current_range_meters":28400,"station_id":"ce4bgk12rcd13ifvqbj0","pricing_plan_id":"cebpf4jnsgd1na2vs0mg"},{"bike_id":"3b3459b9-68cf-4904-b896-164caefd2585","system_id":"levelo_inurba_marseille","lat":43.296131,"lon":5.370791,"is_reserved":false,"is_disabled":false,"rental_uris":{"android":"levelo://app?vid=3b3459b9-68cf-4904-b896-164caefd2585","ios":"levelo://app?vid=3b3459b9-68cf-4904-b896-164caefd2585"},"vehicle_type_id":"4","last_reported":1722539184,"current_range_meters":7200,"station_id":"ce4bgnh2rcd13ifvqc0g","pricing_plan_id":"cebpf4jnsgd1na2vs0mg"},{"bike_id":"8f74df8f-e671-4796-a88a-c0ceb59fa2ce","system_id":"levelo_inurba_marseille","lat":43.296129,"lon":5.370777,"is_reserved":false,"is_disabled":false,"rental_uris":{"android":"levelo://app?vid=8f74df8f-e671-4796-a88a-c0ceb59fa2ce","ios":"levelo://app?vid=8f74df8f-e671-4796-a88a-c0ceb59fa2ce"},"vehicle_type_id":"4","last_reported":1722539184,"current_range_meters":18800,"station_id":"ce4bgnh2rcd13ifvqc0g","pricing_plan_id":"cebpf4jnsgd1na2vs0mg"},{"bike_id":"bb48d5e9-6084-4d05-89ca-ea1642ae672f","system_id":"levelo_inurba_marseille","lat":43.296131,"lon":5.370791,"is_reserved":false,"is_disabled":false,"rental_uris":{"android":"levelo://app?vid=bb48d5e9-6084-4d05-89ca-ea1642ae672f","ios":"levelo://app?vid=bb48d5e9-6084-4d05-89ca-ea1642ae672f"},"vehicle_type_id":"4","last_reported":1722539184,"current_range_meters":31200,"station_id":"ce4bgnh2rcd13ifvqc0g","pricing_plan_id":"cebpf4jnsgd1na2vs0mg"},{"bike_id":"9be4c86c-c761-44a8-9676-1fdc7c48b182","system_id":"levelo_inurba_marseille","lat":43.29619,"lon":5.37148,"is_reserved":false,"is_disabled":false,"rental_uris":{"android":"levelo://app?vid=9be4c86c-c761-44a8-9676-1fdc7c48b182","ios":"levelo://app?vid=9be4c86c-c761-44a8-9676-1fdc7c48b182"},"vehicle_type_id":"4","last_reported":1722539184,"current_range_meters":21600,"station_id":"ce4bgnh2rcd13ifvqc0g","pricing_plan_id":"cebpf4jnsgd1na2vs0mg"},{"bike_id":"7ab1bf3e-0027-4461-abee-1a560d0462e4","system_id":"levelo_inurba_marseille","lat":43.296129,"lon":5.370777,"is_reserved":false,"is_disabled":false,"rental_uris":{"android":"levelo://app?vid=7ab1bf3e-0027-4461-abee-1a560d0462e4","ios":"levelo://app?vid=7ab1bf3e-0027-4461-abee-1a560d0462e4"},"vehicle_type_id":"4","last_reported":1722539184,"current_range_meters":24400,"station_id":"ce4bgnh2rcd13ifvqc0g","pricing_plan_id":"cebpf4jnsgd1na2vs0mg"},{"bike_id":"1f390d86-c9e6-4060-b39a-3e68086cc7c3","system_id":"levelo_inurba_marseille","lat":43.296129,"lon":5.370777,"is_reserved":false,"is_disabled":false,"rental_uris":{"android":"levelo://app?vid=1f390d86-c9e6-4060-b39a-3e68086cc7c3","ios":"levelo://app?vid=1f390d86-c9e6-4060-b39a-3e68086cc7c3"},"vehicle_type_id":"4","last_reported":1722539184,"current_range_meters":8800,"station_id":"ce4bgnh2rcd13ifvqc0g","pricing_plan_id":"cebpf4jnsgd1na2vs0mg"},{"bike_id":"f1ba4976-6914-4f47-856d-21aa2472d87c","system_id":"levelo_inurba_marseille","lat":43.296129,"lon":5.370777,"is_reserved":false,"is_disabled":false,"rental_uris":{"android":"levelo://app?vid=f1ba4976-6914-4f47-856d-21aa2472d87c","ios":"levelo://app?vid=f1ba4976-6914-4f47-856d-21aa2472d87c"},"vehicle_type_id":"4","last_reported":1722539184,"current_range_meters":6000,"station_id":"ce4bgnh2rcd13ifvqc0g","pricing_plan_id":"cebpf4jnsgd1na2vs0mg"},{"bike_id":"db3cadfc-f4a5-48ba-90a0-85cdd88cf1d6","system_id":"levelo_inurba_marseille","lat":43.296129,"lon":5.370777,"is_reserved":false,"is_disabled":false,"rental_uris":{"android":"levelo://app?vid=db3cadfc-f4a5-48ba-90a0-85cdd88cf1d6","ios":"levelo://app?vid=db3cadfc-f4a5-48ba-90a0-85cdd88cf1d6"},"vehicle_type_id":"4","last_reported":1722539184,"current_range_meters":19200,"station_id":"ce4bgnh2rcd13ifvqc0g","pricing_plan_id":"cebpf4jnsgd1na2vs0mg"},{"bike_id":"0e261736-3075-44ba-b49b-95c9de508caa","system_id":"levelo_inurba_marseille","lat":43.29618,"lon":5.37147,"is_reserved":false,"is_disabled":false,"rental_uris":{"android":"levelo://app?vid=0e261736-3075-44ba-b49b-95c9de508caa","ios":"levelo://app?vid=0e261736-3075-44ba-b49b-95c9de508caa"},"vehicle_type_id":"4","last_reported":1722539184,"current_range_meters":24800,"station_id":"ce4bgnh2rcd13ifvqc0g","pricing_plan_id":"cebpf4jnsgd1na2vs0mg"},{"bike_id":"8bc3f93e-643d-4732-9849-f909d3d1e91c","system_id":"levelo_inurba_marseille","lat":43.296131,"lon":5.370791,"is_reserved":false,"is_disabled":false,"rental_uris":{"android":"levelo://app?vid=8bc3f93e-643d-4732-9849-f909d3d1e91c","ios":"levelo://app?vid=8bc3f93e-643d-4732-9849-f909d3d1e91c"},"vehicle_type_id":"4","last_reported":1722539184,"current_range_meters":21200,"station_id":"ce4bgnh2rcd13ifvqc0g","pricing_plan_id":"cebpf4jnsgd1na2vs0mg"},{"bike_id":"8fef8902-80cc-4940-9758-1f2028c13711","system_id":"levelo_inurba_marseille","lat":43.296129,"lon":5.370777,"is_reserved":false,"is_disabled":false,"rental_uris":{"android":"levelo://app?vid=8fef8902-80cc-4940-9758-1f2028c13711","ios":"levelo://app?vid=8fef8902-80cc-4940-9758-1f2028c13711"},"vehicle_type_id":"4","last_reported":1722539184,"current_range_meters":3600,"station_id":"ce4bgnh2rcd13ifvqc0g","pricing_plan_id":"cebpf4jnsgd1na2vs0mg"},{"bike_id":"399569f6-3997-4219-a5d2-48b60400e703","system_id":"levelo_inurba_marseille","lat":43.29621,"lon":5.37171,"is_reserved":false,"is_disabled":false,"rental_uris":{"android":"levelo://app?vid=399569f6-3997-4219-a5d2-48b60400e703","ios":"levelo://app?vid=399569f6-3997-4219-a5d2-48b60400e703"},"vehicle_type_id":"4","last_reported":1722539184,"current_range_meters":25600,"station_id":"ce4bgnh2rcd13ifvqc0g","pricing_plan_id":"cebpf4jnsgd1na2vs0mg"},{"bike_id":"9052eaff-5cd4-4c02-a7ee-e1a7852226df","system_id":"levelo_inurba_marseille","lat":43.296131,"lon":5.370791,"is_reserved":false,"is_disabled":false,"rental_uris":{"android":"levelo://app?vid=9052eaff-5cd4-4c02-a7ee-e1a7852226df","ios":"levelo://app?vid=9052eaff-5cd4-4c02-a7ee-e1a7852226df"},"vehicle_type_id":"4","last_reported":1722539184,"current_range_meters":31200,"station_id":"ce4bgnh2rcd13ifvqc0g","pricing_plan_id":"cebpf4jnsgd1na2vs0mg"},{"bike_id":"a8db02e8-9c71-47e3-aae1-fb352c544a5a","system_id":"levelo_inurba_marseille","lat":43.296131,"lon":5.370791,"is_reserved":false,"is_disabled":false,"rental_uris":{"android":"levelo://app?vid=a8db02e8-9c71-47e3-aae1-fb352c544a5a","ios":"levelo://app?vid=a8db02e8-9c71-47e3-aae1-fb352c544a5a"},"vehicle_type_id":"4","last_reported":1722539184,"current_range_meters":31200,"station_id":"ce4bgnh2rcd13ifvqc0g","pricing_plan_id":"cebpf4jnsgd1na2vs0mg"},{"bike_id":"d6a8a25f-4df8-4df2-ab4b-be3afdf5ed31","system_id":"levelo_inurba_marseille","lat":43.29621,"lon":5.37175,"is_reserved":false,"is_disabled":false,"rental_uris":{"android":"levelo://app?vid=d6a8a25f-4df8-4df2-ab4b-be3afdf5ed31","ios":"levelo://app?vid=d6a8a25f-4df8-4df2-ab4b-be3afdf5ed31"},"vehicle_type_id":"4","last_reported":1722539184,"current_range_meters":3600,"station_id":"ce4bgnh2rcd13ifvqc0g","pricing_plan_id":"cebpf4jnsgd1na2vs0mg"},{"bike_id":"5e2f09a0-3d86-4dde-9d95-bd4a2b92bef2","system_id":"levelo_inurba_marseille","lat":43.296129,"lon":5.370777,"is_reserved":false,"is_disabled":false,"rental_uris":{"android":"levelo://app?vid=5e2f09a0-3d86-4dde-9d95-bd4a2b92bef2","ios":"levelo://app?vid=5e2f09a0-3d86-4dde-9d95-bd4a2b92bef2"},"vehicle_type_id":"4","last_reported":1722539184,"current_range_meters":20800,"station_id":"ce4bgnh2rcd13ifvqc0g","pricing_plan_id":"cebpf4jnsgd1na2vs0mg"},{"bike_id":"c2abe8eb-6370-4d20-af46-7da2e540f89b","system_id":"levelo_inurba_marseille","lat":43.296129,"lon":5.370777,"is_reserved":false,"is_disabled":false,"rental_uris":{"android":"levelo://app?vid=c2abe8eb-6370-4d20-af46-7da2e540f89b","ios":"levelo://app?vid=c2abe8eb-6370-4d20-af46-7da2e540f89b"},"vehicle_type_id":"4","last_reported":1722539184,"current_range_meters":9600,"station_id":"ce4bgnh2rcd13ifvqc0g","pricing_plan_id":"cebpf4jnsgd1na2vs0mg"},{"bike_id":"08464e78-b1c6-44ee-929d-4dda0df707af","system_id":"levelo_inurba_marseille","lat":43.2962,"lon":5.37171,"is_reserved":false,"is_disabled":false,"rental_uris":{"android":"levelo://app?vid=08464e78-b1c6-44ee-929d-4dda0df707af","ios":"levelo://app?vid=08464e78-b1c6-44ee-929d-4dda0df707af"},"vehicle_type_id":"4","last_reported":1722539184,"current_range_meters":26000,"station_id":"ce4bgnh2rcd13ifvqc0g","pricing_plan_id":"cebpf4jnsgd1na2vs0mg"},{"bike_id":"38bc48ee-abb7-4f1f-880a-349e3fd38fec","system_id":"levelo_inurba_marseille","lat":43.296129,"lon":5.370777,"is_reserved":false,"is_disabled":false,"rental_uris":{"android":"levelo://app?vid=38bc48ee-abb7-4f1f-880a-349e3fd38fec","ios":"levelo://app?vid=38bc48ee-abb7-4f1f-880a-349e3fd38fec"},"vehicle_type_id":"4","last_reported":1722539184,"current_range_meters":8400,"station_id":"ce4bgnh2rcd13ifvqc0g","pricing_plan_id":"cebpf4jnsgd1na2vs0mg"},{"bike_id":"addbff1f-ce2e-44c3-a8c1-72e33a09baa6","system_id":"levelo_inurba_marseille","lat":43.296131,"lon":5.370791,"is_reserved":false,"is_disabled":false,"rental_uris":{"android":"levelo://app?vid=addbff1f-ce2e-44c3-a8c1-72e33a09baa6","ios":"levelo://app?vid=addbff1f-ce2e-44c3-a8c1-72e33a09baa6"},"vehicle_type_id":"4","last_reported":1722539184,"current_range_meters":28800,"station_id":"ce4bgnh2rcd13ifvqc0g","pricing_plan_id":"cebpf4jnsgd1na2vs0mg"},{"bike_id":"c3df5610-02e9-442b-9f87-34a36c2214bf","system_id":"levelo_inurba_marseille","lat":43.29616,"lon":5.37147,"is_reserved":false,"is_disabled":false,"rental_uris":{"android":"levelo://app?vid=c3df5610-02e9-442b-9f87-34a36c2214bf","ios":"levelo://app?vid=c3df5610-02e9-442b-9f87-34a36c2214bf"},"vehicle_type_id":"4","last_reported":1722539184,"current_range_meters":13200,"station_id":"ce4bgnh2rcd13ifvqc0g","pricing_plan_id":"cebpf4jnsgd1na2vs0mg"},{"bike_id":"d8a3cf42-6e21-49e2-917f-4e57f0814cc7","system_id":"levelo_inurba_marseille","lat":43.296129,"lon":5.370777,"is_reserved":false,"is_disabled":false,"rental_uris":{"android":"levelo://app?vid=d8a3cf42-6e21-49e2-917f-4e57f0814cc7","ios":"levelo://app?vid=d8a3cf42-6e21-49e2-917f-4e57f0814cc7"},"vehicle_type_id":"4","last_reported":1722539184,"current_range_meters":24800,"station_id":"ce4bgnh2rcd13ifvqc0g","pricing_plan_id":"cebpf4jnsgd1na2vs0mg"},{"bike_id":"b23e8ec2-3f3e-413a-97ce-474dd20d2cac","system_id":"levelo_inurba_marseille","lat":43.29619,"lon":5.37171,"is_reserved":false,"is_disabled":false,"rental_uris":{"android":"levelo://app?vid=b23e8ec2-3f3e-413a-97ce-474dd20d2cac","ios":"levelo://app?vid=b23e8ec2-3f3e-413a-97ce-474dd20d2cac"},"vehicle_type_id":"4","last_reported":1722539184,"current_range_meters":4800,"station_id":"ce4bgnh2rcd13ifvqc0g","pricing_plan_id":"cebpf4jnsgd1na2vs0mg"},{"bike_id":"43a3dd59-f7ef-4608-aacd-a35dcbe29a6f","system_id":"levelo_inurba_marseille","lat":43.29573,"lon":5.367355,"is_reserved":false,"is_disabled":false,"rental_uris":{"android":"levelo://app?vid=43a3dd59-f7ef-4608-aacd-a35dcbe29a6f","ios":"levelo://app?vid=43a3dd59-f7ef-4608-aacd-a35dcbe29a6f"},"vehicle_type_id":"4","last_reported":1722539184,"current_range_meters":31200,"station_id":"ce4bgph2rcd13ifvqc2g","pricing_plan_id":"cebpf4jnsgd1na2vs0mg"},{"bike_id":"b9fd63b4-51c8-4159-adcc-63d6de223594","system_id":"levelo_inurba_marseille","lat":43.29618,"lon":5.3717,"is_reserved":false,"is_disabled":false,"rental_uris":{"android":"levelo://app?vid=b9fd63b4-51c8-4159-adcc-63d6de223594","ios":"levelo://app?vid=b9fd63b4-51c8-4159-adcc-63d6de223594"},"vehicle_type_id":"4","last_reported":1722539184,"current_range_meters":24800,"station_id":"ce4bgnh2rcd13ifvqc0g","pricing_plan_id":"cebpf4jnsgd1na2vs0mg"},{"bike_id":"d89df723-50f1-4118-b6f4-c214dc85ffb7","system_id":"levelo_inurba_marseille","lat":43.296131,"lon":5.370773,"is_reserved":false,"is_disabled":false,"rental_uris":{"android":"levelo://app?vid=d89df723-50f1-4118-b6f4-c214dc85ffb7","ios":"levelo://app?vid=d89df723-50f1-4118-b6f4-c214dc85ffb7"},"vehicle_type_id":"4","last_reported":1722539184,"current_range_meters":28400,"station_id":"ce4bgnh2rcd13ifvqc0g","pricing_plan_id":"cebpf4jnsgd1na2vs0mg"},{"bike_id":"4e0db23a-08d8-4312-85af-e91a2bbc300a","system_id":"levelo_inurba_marseille","lat":43.296131,"lon":5.370791,"is_reserved":false,"is_disabled":false,"rental_uris":{"android":"levelo://app?vid=4e0db23a-08d8-4312-85af-e91a2bbc300a","ios":"levelo://app?vid=4e0db23a-08d8-4312-85af-e91a2bbc300a"},"vehicle_type_id":"4","last_reported":1722539184,"current_range_meters":24800,"station_id":"ce4bgnh2rcd13ifvqc0g","pricing_plan_id":"cebpf4jnsgd1na2vs0mg"},{"bike_id":"9e8df357-5869-4042-a7c9-8b286798fd0e","system_id":"levelo_inurba_marseille","lat":43.296131,"lon":5.370791,"is_reserved":false,"is_disabled":false,"rental_uris":{"android":"levelo://app?vid=9e8df357-5869-4042-a7c9-8b286798fd0e","ios":"levelo://app?vid=9e8df357-5869-4042-a7c9-8b286798fd0e"},"vehicle_type_id":"4","last_reported":1722539184,"current_range_meters":4000,"station_id":"ce4bgnh2rcd13ifvqc0g","pricing_plan_id":"cebpf4jnsgd1na2vs0mg"},{"bike_id":"875cef95-9f6c-48bb-80bb-e76635c43a84","system_id":"levelo_inurba_marseille","lat":43.29573,"lon":5.367355,"is_reserved":false,"is_disabled":false,"rental_uris":{"android":"levelo://app?vid=875cef95-9f6c-48bb-80bb-e76635c43a84","ios":"levelo://app?vid=875cef95-9f6c-48bb-80bb-e76635c43a84"},"vehicle_type_id":"4","last_reported":1722539184,"current_range_meters":7200,"station_id":"ce4bgph2rcd13ifvqc2g","pricing_plan_id":"cebpf4jnsgd1na2vs0mg"},{"bike_id":"6a1360c6-14c0-4e1c-b79a-d0f48bfa1900","system_id":"levelo_inurba_marseille","lat":43.29573,"lon":5.367355,"is_reserved":false,"is_disabled":false,"rental_uris":{"android":"levelo://app?vid=6a1360c6-14c0-4e1c-b79a-d0f48bfa1900","ios":"levelo://app?vid=6a1360c6-14c0-4e1c-b79a-d0f48bfa1900"},"vehicle_type_id":"4","last_reported":1722539184,"current_range_meters":26800,"station_id":"ce4bgph2rcd13ifvqc2g","pricing_plan_id":"cebpf4jnsgd1na2vs0mg"},{"bike_id":"861eda2b-4b71-49a3-9129-abf819e1b93d","system_id":"levelo_inurba_marseille","lat":43.29573,"lon":5.367355,"is_reserved":false,"is_disabled":false,"rental_uris":{"android":"levelo://app?vid=861eda2b-4b71-49a3-9129-abf819e1b93d","ios":"levelo://app?vid=861eda2b-4b71-49a3-9129-abf819e1b93d"},"vehicle_type_id":"4","last_reported":1722539184,"current_range_meters":31200,"station_id":"ce4bgph2rcd13ifvqc2g","pricing_plan_id":"cebpf4jnsgd1na2vs0mg"},{"bike_id":"c1507756-7bd5-4037-a2e6-72d83f13afa7","system_id":"levelo_inurba_marseille","lat":43.29573,"lon":5.367355,"is_reserved":false,"is_disabled":false,"rental_uris":{"android":"levelo://app?vid=c1507756-7bd5-4037-a2e6-72d83f13afa7","ios":"levelo://app?vid=c1507756-7bd5-4037-a2e6-72d83f13afa7"},"vehicle_type_id":"4","last_reported":1722539184,"current_range_meters":31200,"station_id":"ce4bgph2rcd13ifvqc2g","pricing_plan_id":"cebpf4jnsgd1na2vs0mg"},{"bike_id":"1174dcc1-76c7-447c-b917-1230a6d34e1c","system_id":"levelo_inurba_marseille","lat":43.29573,"lon":5.367355,"is_reserved":false,"is_disabled":false,"rental_uris":{"android":"levelo://app?vid=1174dcc1-76c7-447c-b917-1230a6d34e1c","ios":"levelo://app?vid=1174dcc1-76c7-447c-b917-1230a6d34e1c"},"vehicle_type_id":"4","last_reported":1722539184,"current_range_meters":16400,"station_id":"ce4bgph2rcd13ifvqc2g","pricing_plan_id":"cebpf4jnsgd1na2vs0mg"},{"bike_id":"c944d612-3967-4017-b118-21a073116ba5","system_id":"levelo_inurba_marseille","lat":43.29573,"lon":5.367355,"is_reserved":false,"is_disabled":false,"rental_uris":{"android":"levelo://app?vid=c944d612-3967-4017-b118-21a073116ba5","ios":"levelo://app?vid=c944d612-3967-4017-b118-21a073116ba5"},"vehicle_type_id":"4","last_reported":1722539184,"current_range_meters":14400,"station_id":"ce4bgph2rcd13ifvqc2g","pricing_plan_id":"cebpf4jnsgd1na2vs0mg"},{"bike_id":"a81c8d7b-e7b2-4e2f-926e-aeb029352429","system_id":"levelo_inurba_marseille","lat":43.29573,"lon":5.367355,"is_reserved":false,"is_disabled":false,"rental_uris":{"android":"levelo://app?vid=a81c8d7b-e7b2-4e2f-926e-aeb029352429","ios":"levelo://app?vid=a81c8d7b-e7b2-4e2f-926e-aeb029352429"},"vehicle_type_id":"4","last_reported":1722539184,"current_range_meters":25600,"station_id":"ce4bgph2rcd13ifvqc2g","pricing_plan_id":"cebpf4jnsgd1na2vs0mg"},{"bike_id":"8850c2b9-3976-4a6f-8f93-a1ceaa03c1d3","system_id":"levelo_inurba_marseille","lat":43.299028,"lon":5.381509,"is_reserved":false,"is_disabled":false,"rental_uris":{"android":"levelo://app?vid=8850c2b9-3976-4a6f-8f93-a1ceaa03c1d3","ios":"levelo://app?vid=8850c2b9-3976-4a6f-8f93-a1ceaa03c1d3"},"vehicle_type_id":"4","last_reported":1722539184,"current_range_meters":4400,"station_id":"ce4bgj12rcd13ifvqbc0","pricing_plan_id":"cebpf4jnsgd1na2vs0mg"},{"bike_id":"d3fa70c2-78d5-4a2f-a99a-dc3416a66d69","system_id":"levelo_inurba_marseille","lat":43.299028,"lon":5.381509,"is_reserved":false,"is_disabled":false,"rental_uris":{"android":"levelo://app?vid=d3fa70c2-78d5-4a2f-a99a-dc3416a66d69","ios":"levelo://app?vid=d3fa70c2-78d5-4a2f-a99a-dc3416a66d69"},"vehicle_type_id":"4","last_reported":1722539184,"current_range_meters":29200,"station_id":"ce4bgj12rcd13ifvqbc0","pricing_plan_id":"cebpf4jnsgd1na2vs0mg"},{"bike_id":"4a289af8-2a94-43b3-8dfc-ee2db5ad9299","system_id":"levelo_inurba_marseille","lat":43.30948,"lon":5.39017,"is_reserved":false,"is_disabled":false,"rental_uris":{"android":"levelo://app?vid=4a289af8-2a94-43b3-8dfc-ee2db5ad9299","ios":"levelo://app?vid=4a289af8-2a94-43b3-8dfc-ee2db5ad9299"},"vehicle_type_id":"4","last_reported":1722539184,"current_range_meters":0,"station_id":"ce4bgup2rcd13ifvqco0","pricing_plan_id":"cebpf4jnsgd1na2vs0mg"},{"bike_id":"428a2a80-58b7-41a0-9ca3-36e3cd8f0759","system_id":"levelo_inurba_marseille","lat":43.30955,"lon":5.39025,"is_reserved":false,"is_disabled":false,"rental_uris":{"android":"levelo://app?vid=428a2a80-58b7-41a0-9ca3-36e3cd8f0759","ios":"levelo://app?vid=428a2a80-58b7-41a0-9ca3-36e3cd8f0759"},"vehicle_type_id":"4","last_reported":1722539184,"current_range_meters":800,"station_id":"ce4bgup2rcd13ifvqco0","pricing_plan_id":"cebpf4jnsgd1na2vs0mg"},{"bike_id":"3c2d7094-0871-4138-8c8f-0de173c2e792","system_id":"levelo_inurba_marseille","lat":43.299028,"lon":5.381509,"is_reserved":false,"is_disabled":false,"rental_uris":{"android":"levelo://app?vid=3c2d7094-0871-4138-8c8f-0de173c2e792","ios":"levelo://app?vid=3c2d7094-0871-4138-8c8f-0de173c2e792"},"vehicle_type_id":"4","last_reported":1722539184,"current_range_meters":1600,"station_id":"ce4bgj12rcd13ifvqbc0","pricing_plan_id":"cebpf4jnsgd1na2vs0mg"},{"bike_id":"d84c6173-8cad-4395-a9fc-7c598754ef97","system_id":"levelo_inurba_marseille","lat":43.30949,"lon":5.39029,"is_reserved":false,"is_disabled":false,"rental_uris":{"android":"levelo://app?vid=d84c6173-8cad-4395-a9fc-7c598754ef97","ios":"levelo://app?vid=d84c6173-8cad-4395-a9fc-7c598754ef97"},"vehicle_type_id":"4","last_reported":1722539184,"current_range_meters":0,"station_id":"ce4bgup2rcd13ifvqco0","pricing_plan_id":"cebpf4jnsgd1na2vs0mg"},{"bike_id":"a3b60755-018d-43cc-b780-47d875ab6674","system_id":"levelo_inurba_marseille","lat":43.296935,"lon":5.376544,"is_reserved":false,"is_disabled":false,"rental_uris":{"android":"levelo://app?vid=a3b60755-018d-43cc-b780-47d875ab6674","ios":"levelo://app?vid=a3b60755-018d-43cc-b780-47d875ab6674"},"vehicle_type_id":"4","last_reported":1722539184,"current_range_meters":4800,"station_id":"ce4bgkh2rcd13ifvqbl0","pricing_plan_id":"cebpf4jnsgd1na2vs0mg"},{"bike_id":"5eb73d6d-1990-434a-b3c4-bad0fc3c6dd7","system_id":"levelo_inurba_marseille","lat":43.296129,"lon":5.370777,"is_reserved":false,"is_disabled":false,"rental_uris":{"android":"levelo://app?vid=5eb73d6d-1990-434a-b3c4-bad0fc3c6dd7","ios":"levelo://app?vid=5eb73d6d-1990-434a-b3c4-bad0fc3c6dd7"},"vehicle_type_id":"4","last_reported":1722539184,"current_range_meters":30400,"station_id":"ce4bgnh2rcd13ifvqc0g","pricing_plan_id":"cebpf4jnsgd1na2vs0mg"},{"bike_id":"6cb84878-71c7-4d7d-94f8-b7d74c26fa53","system_id":"levelo_inurba_marseille","lat":43.30937,"lon":5.39049,"is_reserved":false,"is_disabled":false,"rental_uris":{"android":"levelo://app?vid=6cb84878-71c7-4d7d-94f8-b7d74c26fa53","ios":"levelo://app?vid=6cb84878-71c7-4d7d-94f8-b7d74c26fa53"},"vehicle_type_id":"4","last_reported":1722539184,"current_range_meters":18000,"station_id":"ce4bgup2rcd13ifvqco0","pricing_plan_id":"cebpf4jnsgd1na2vs0mg"},{"bike_id":"97b0745e-76d2-4c00-b78b-fc07b8b14307","system_id":"levelo_inurba_marseille","lat":43.298037,"lon":5.381066,"is_reserved":false,"is_disabled":false,"rental_uris":{"android":"levelo://app?vid=97b0745e-76d2-4c00-b78b-fc07b8b14307","ios":"levelo://app?vid=97b0745e-76d2-4c00-b78b-fc07b8b14307"},"vehicle_type_id":"4","last_reported":1722539184,"current_range_meters":21600,"station_id":"ce4bgip2rcd13ifvqbb0","pricing_plan_id":"cebpf4jnsgd1na2vs0mg"},{"bike_id":"db34d60e-bbdf-4190-8b41-2ad26b7e8d85","system_id":"levelo_inurba_marseille","lat":43.29581,"lon":5.3751,"is_reserved":false,"is_disabled":false,"rental_uris":{"android":"levelo://app?vid=db34d60e-bbdf-4190-8b41-2ad26b7e8d85","ios":"levelo://app?vid=db34d60e-bbdf-4190-8b41-2ad26b7e8d85"},"vehicle_type_id":"4","last_reported":1722539184,"current_range_meters":6000,"station_id":"ce4bgh92rcd13ifvqb50","pricing_plan_id":"cebpf4jnsgd1na2vs0mg"},{"bike_id":"0a1bf9ff-c8ba-4624-9e76-6582e572ecd3","system_id":"levelo_inurba_marseille","lat":43.2958,"lon":5.37513,"is_reserved":false,"is_disabled":false,"rental_uris":{"android":"levelo://app?vid=0a1bf9ff-c8ba-4624-9e76-6582e572ecd3","ios":"levelo://app?vid=0a1bf9ff-c8ba-4624-9e76-6582e572ecd3"},"vehicle_type_id":"4","last_reported":1722539184,"current_range_meters":0,"station_id":"ce4bgh92rcd13ifvqb50","pricing_plan_id":"cebpf4jnsgd1na2vs0mg"},{"bike_id":"c23c2958-2414-4e68-a364-0ab5a120ed74","system_id":"levelo_inurba_marseille","lat":43.29576,"lon":5.37501,"is_reserved":false,"is_disabled":false,"rental_uris":{"android":"levelo://app?vid=c23c2958-2414-4e68-a364-0ab5a120ed74","ios":"levelo://app?vid=c23c2958-2414-4e68-a364-0ab5a120ed74"},"vehicle_type_id":"4","last_reported":1722539184,"current_range_meters":31200,"station_id":"ce4bgh92rcd13ifvqb50","pricing_plan_id":"cebpf4jnsgd1na2vs0mg"},{"bike_id":"08c79cec-5f14-4559-876b-403a9b86e68d","system_id":"levelo_inurba_marseille","lat":43.29579,"lon":5.37515,"is_reserved":false,"is_disabled":false,"rental_uris":{"android":"levelo://app?vid=08c79cec-5f14-4559-876b-403a9b86e68d","ios":"levelo://app?vid=08c79cec-5f14-4559-876b-403a9b86e68d"},"vehicle_type_id":"4","last_reported":1722539184,"current_range_meters":0,"station_id":"ce4bgh92rcd13ifvqb50","pricing_plan_id":"cebpf4jnsgd1na2vs0mg"},{"bike_id":"1f6003d9-5fa0-4dc0-a88d-d29597bd75d9","system_id":"levelo_inurba_marseille","lat":43.295748,"lon":5.37522,"is_reserved":false,"is_disabled":false,"rental_uris":{"android":"levelo://app?vid=1f6003d9-5fa0-4dc0-a88d-d29597bd75d9","ios":"levelo://app?vid=1f6003d9-5fa0-4dc0-a88d-d29597bd75d9"},"vehicle_type_id":"4","last_reported":1722539184,"current_range_meters":6400,"station_id":"ce4bgh92rcd13ifvqb50","pricing_plan_id":"cebpf4jnsgd1na2vs0mg"},{"bike_id":"955970b3-cbad-4932-a20d-9bc04dbe9169","system_id":"levelo_inurba_marseille","lat":43.304278,"lon":5.388868,"is_reserved":false,"is_disabled":false,"rental_uris":{"android":"levelo://app?vid=955970b3-cbad-4932-a20d-9bc04dbe9169","ios":"levelo://app?vid=955970b3-cbad-4932-a20d-9bc04dbe9169"},"vehicle_type_id":"4","last_reported":1722539184,"current_range_meters":20400,"station_id":"ce4bgk12rcd13ifvqbi0","pricing_plan_id":"cebpf4jnsgd1na2vs0mg"},{"bike_id":"43245a11-79b6-4ce1-b448-5e77dd6bb4d3","system_id":"levelo_inurba_marseille","lat":43.30436,"lon":5.38884,"is_reserved":false,"is_disabled":false,"rental_uris":{"android":"levelo://app?vid=43245a11-79b6-4ce1-b448-5e77dd6bb4d3","ios":"levelo://app?vid=43245a11-79b6-4ce1-b448-5e77dd6bb4d3"},"vehicle_type_id":"4","last_reported":1722539184,"current_range_meters":8400,"station_id":"ce4bgk12rcd13ifvqbi0","pricing_plan_id":"cebpf4jnsgd1na2vs0mg"},{"bike_id":"7cd9aff3-509c-4cdd-894a-630229214751","system_id":"levelo_inurba_marseille","lat":43.29574,"lon":5.37512,"is_reserved":false,"is_disabled":false,"rental_uris":{"android":"levelo://app?vid=7cd9aff3-509c-4cdd-894a-630229214751","ios":"levelo://app?vid=7cd9aff3-509c-4cdd-894a-630229214751"},"vehicle_type_id":"4","last_reported":1722539184,"current_range_meters":2400,"station_id":"ce4bgh92rcd13ifvqb50","pricing_plan_id":"cebpf4jnsgd1na2vs0mg"},{"bike_id":"7ed360f8-2462-4221-9d34-e80cb33f79c1","system_id":"levelo_inurba_marseille","lat":43.295748,"lon":5.37522,"is_reserved":false,"is_disabled":false,"rental_uris":{"android":"levelo://app?vid=7ed360f8-2462-4221-9d34-e80cb33f79c1","ios":"levelo://app?vid=7ed360f8-2462-4221-9d34-e80cb33f79c1"},"vehicle_type_id":"4","last_reported":1722539184,"current_range_meters":11200,"station_id":"ce4bgh92rcd13ifvqb50","pricing_plan_id":"cebpf4jnsgd1na2vs0mg"},{"bike_id":"0065be7b-2c4f-421c-a439-0dc09150f405","system_id":"levelo_inurba_marseille","lat":43.30432,"lon":5.38883,"is_reserved":false,"is_disabled":false,"rental_uris":{"android":"levelo://app?vid=0065be7b-2c4f-421c-a439-0dc09150f405","ios":"levelo://app?vid=0065be7b-2c4f-421c-a439-0dc09150f405"},"vehicle_type_id":"4","last_reported":1722539184,"current_range_meters":6000,"station_id":"ce4bgk12rcd13ifvqbi0","pricing_plan_id":"cebpf4jnsgd1na2vs0mg"},{"bike_id":"51a25cc9-9f41-46b8-9731-c54f98fcaca0","system_id":"levelo_inurba_marseille","lat":43.296277,"lon":5.377108,"is_reserved":false,"is_disabled":false,"rental_uris":{"android":"levelo://app?vid=51a25cc9-9f41-46b8-9731-c54f98fcaca0","ios":"levelo://app?vid=51a25cc9-9f41-46b8-9731-c54f98fcaca0"},"vehicle_type_id":"4","last_reported":1722539184,"current_range_meters":0,"station_id":"ce4bgi92rcd13ifvqb90","pricing_plan_id":"cebpf4jnsgd1na2vs0mg"},{"bike_id":"5de642df-fcda-40ac-bf03-286cf23a7225","system_id":"levelo_inurba_marseille","lat":43.295279,"lon":5.375048,"is_reserved":false,"is_disabled":false,"rental_uris":{"android":"levelo://app?vid=5de642df-fcda-40ac-bf03-286cf23a7225","ios":"levelo://app?vid=5de642df-fcda-40ac-bf03-286cf23a7225"},"vehicle_type_id":"4","last_reported":1722539184,"current_range_meters":2000,"station_id":"ce4bgkp2rcd13ifvqbmg","pricing_plan_id":"cebpf4jnsgd1na2vs0mg"},{"bike_id":"ca8658b9-83b9-41e8-8434-7b4583a70955","system_id":"levelo_inurba_marseille","lat":43.299707,"lon":5.384859,"is_reserved":false,"is_disabled":false,"rental_uris":{"android":"levelo://app?vid=ca8658b9-83b9-41e8-8434-7b4583a70955","ios":"levelo://app?vid=ca8658b9-83b9-41e8-8434-7b4583a70955"},"vehicle_type_id":"4","last_reported":1722539184,"current_range_meters":0,"station_id":"ce4bgj92rcd13ifvqbd0","pricing_plan_id":"cebpf4jnsgd1na2vs0mg"},{"bike_id":"12e1e44c-4eac-48e6-b5c5-96527bfdb43e","system_id":"levelo_inurba_marseille","lat":43.29526,"lon":5.37494,"is_reserved":false,"is_disabled":false,"rental_uris":{"android":"levelo://app?vid=12e1e44c-4eac-48e6-b5c5-96527bfdb43e","ios":"levelo://app?vid=12e1e44c-4eac-48e6-b5c5-96527bfdb43e"},"vehicle_type_id":"4","last_reported":1722539184,"current_range_meters":0,"station_id":"ce4bgkp2rcd13ifvqbmg","pricing_plan_id":"cebpf4jnsgd1na2vs0mg"},{"bike_id":"e84fa035-f75d-45ba-a0f3-f44a44d35428","system_id":"levelo_inurba_marseille","lat":43.29522,"lon":5.37493,"is_reserved":false,"is_disabled":false,"rental_uris":{"android":"levelo://app?vid=e84fa035-f75d-45ba-a0f3-f44a44d35428","ios":"levelo://app?vid=e84fa035-f75d-45ba-a0f3-f44a44d35428"},"vehicle_type_id":"4","last_reported":1722539184,"current_range_meters":0,"station_id":"ce4bgkp2rcd13ifvqbmg","pricing_plan_id":"cebpf4jnsgd1na2vs0mg"},{"bike_id":"948409b9-cea0-4318-bdc0-ac84f8a7cf84","system_id":"levelo_inurba_marseille","lat":43.29521,"lon":5.37492,"is_reserved":false,"is_disabled":false,"rental_uris":{"android":"levelo://app?vid=948409b9-cea0-4318-bdc0-ac84f8a7cf84","ios":"levelo://app?vid=948409b9-cea0-4318-bdc0-ac84f8a7cf84"},"vehicle_type_id":"4","last_reported":1722539184,"current_range_meters":0,"station_id":"ce4bgkp2rcd13ifvqbmg","pricing_plan_id":"cebpf4jnsgd1na2vs0mg"},{"bike_id":"16e7a279-8c5c-406a-b7a5-902b058fdf23","system_id":"levelo_inurba_marseille","lat":43.295279,"lon":5.375048,"is_reserved":false,"is_disabled":false,"rental_uris":{"android":"levelo://app?vid=16e7a279-8c5c-406a-b7a5-902b058fdf23","ios":"levelo://app?vid=16e7a279-8c5c-406a-b7a5-902b058fdf23"},"vehicle_type_id":"4","last_reported":1722539184,"current_range_meters":3200,"station_id":"ce4bgkp2rcd13ifvqbmg","pricing_plan_id":"cebpf4jnsgd1na2vs0mg"},{"bike_id":"f047e98d-806a-49b2-bef1-761085a52190","system_id":"levelo_inurba_marseille","lat":43.301396,"lon":5.387812,"is_reserved":false,"is_disabled":false,"rental_uris":{"android":"levelo://app?vid=f047e98d-806a-49b2-bef1-761085a52190","ios":"levelo://app?vid=f047e98d-806a-49b2-bef1-761085a52190"},"vehicle_type_id":"4","last_reported":1722539184,"current_range_meters":1200,"station_id":"ce4bghh2rcd13ifvqb60","pricing_plan_id":"cebpf4jnsgd1na2vs0mg"},{"bike_id":"99f58f77-5686-4492-bcdf-6dee13f18356","system_id":"levelo_inurba_marseille","lat":43.301396,"lon":5.387812,"is_reserved":false,"is_disabled":false,"rental_uris":{"android":"levelo://app?vid=99f58f77-5686-4492-bcdf-6dee13f18356","ios":"levelo://app?vid=99f58f77-5686-4492-bcdf-6dee13f18356"},"vehicle_type_id":"4","last_reported":1722539184,"current_range_meters":10000,"station_id":"ce4bghh2rcd13ifvqb60","pricing_plan_id":"cebpf4jnsgd1na2vs0mg"},{"bike_id":"700c71e0-523b-4a6a-9d53-bd1891f334f5","system_id":"levelo_inurba_marseille","lat":43.29597,"lon":5.38002,"is_reserved":false,"is_disabled":false,"rental_uris":{"android":"levelo://app?vid=700c71e0-523b-4a6a-9d53-bd1891f334f5","ios":"levelo://app?vid=700c71e0-523b-4a6a-9d53-bd1891f334f5"},"vehicle_type_id":"4","last_reported":1722539184,"current_range_meters":800,"station_id":"","pricing_plan_id":"cebpf4jnsgd1na2vs0mg"},{"bike_id":"6fba91a3-d4d3-4b64-b264-9b1865f4c5b2","system_id":"levelo_inurba_marseille","lat":43.32367,"lon":5.388836,"is_reserved":false,"is_disabled":false,"rental_uris":{"android":"levelo://app?vid=6fba91a3-d4d3-4b64-b264-9b1865f4c5b2","ios":"levelo://app?vid=6fba91a3-d4d3-4b64-b264-9b1865f4c5b2"},"vehicle_type_id":"4","last_reported":1722539184,"current_range_meters":8400,"station_id":"ce4bhqp2rcd13ifvqhog","pricing_plan_id":"cebpf4jnsgd1na2vs0mg"},{"bike_id":"e4225a1b-9d62-4c35-a2c9-fcc379cfc94a","system_id":"levelo_inurba_marseille","lat":43.32365,"lon":5.38888,"is_reserved":false,"is_disabled":false,"rental_uris":{"android":"levelo://app?vid=e4225a1b-9d62-4c35-a2c9-fcc379cfc94a","ios":"levelo://app?vid=e4225a1b-9d62-4c35-a2c9-fcc379cfc94a"},"vehicle_type_id":"4","last_reported":1722539184,"current_range_meters":4800,"station_id":"ce4bhqp2rcd13ifvqhog","pricing_plan_id":"cebpf4jnsgd1na2vs0mg"},{"bike_id":"b9f7b871-0750-414e-ad4d-85438c9a9e23","system_id":"levelo_inurba_marseille","lat":43.29602,"lon":5.381084,"is_reserved":false,"is_disabled":false,"rental_uris":{"android":"levelo://app?vid=b9f7b871-0750-414e-ad4d-85438c9a9e23","ios":"levelo://app?vid=b9f7b871-0750-414e-ad4d-85438c9a9e23"},"vehicle_type_id":"4","last_reported":1722539184,"current_range_meters":21600,"station_id":"ce4bgl12rcd13ifvqbo0","pricing_plan_id":"cebpf4jnsgd1na2vs0mg"},{"bike_id":"cafc1b69-472c-4bc0-9b1b-88e6ac8a60d9","system_id":"levelo_inurba_marseille","lat":43.29602,"lon":5.381084,"is_reserved":false,"is_disabled":false,"rental_uris":{"android":"levelo://app?vid=cafc1b69-472c-4bc0-9b1b-88e6ac8a60d9","ios":"levelo://app?vid=cafc1b69-472c-4bc0-9b1b-88e6ac8a60d9"},"vehicle_type_id":"4","last_reported":1722539184,"current_range_meters":20800,"station_id":"ce4bgl12rcd13ifvqbo0","pricing_plan_id":"cebpf4jnsgd1na2vs0mg"},{"bike_id":"ae9fd3a3-9c5b-4b8b-96c2-21178b21075d","system_id":"levelo_inurba_marseille","lat":43.29601,"lon":5.381084,"is_reserved":false,"is_disabled":false,"rental_uris":{"android":"levelo://app?vid=ae9fd3a3-9c5b-4b8b-96c2-21178b21075d","ios":"levelo://app?vid=ae9fd3a3-9c5b-4b8b-96c2-21178b21075d"},"vehicle_type_id":"4","last_reported":1722539184,"current_range_meters":7200,"station_id":"ce4bgl12rcd13ifvqbo0","pricing_plan_id":"cebpf4jnsgd1na2vs0mg"},{"bike_id":"051d3b9a-5720-43bf-ad59-bf385c56f203","system_id":"levelo_inurba_marseille","lat":43.29602,"lon":5.381084,"is_reserved":false,"is_disabled":false,"rental_uris":{"android":"levelo://app?vid=051d3b9a-5720-43bf-ad59-bf385c56f203","ios":"levelo://app?vid=051d3b9a-5720-43bf-ad59-bf385c56f203"},"vehicle_type_id":"4","last_reported":1722539184,"current_range_meters":1200,"station_id":"ce4bgl12rcd13ifvqbo0","pricing_plan_id":"cebpf4jnsgd1na2vs0mg"},{"bike_id":"677d2d4d-6b65-4b02-a318-57a603c6fa52","system_id":"levelo_inurba_marseille","lat":43.296,"lon":5.38104,"is_reserved":false,"is_disabled":false,"rental_uris":{"android":"levelo://app?vid=677d2d4d-6b65-4b02-a318-57a603c6fa52","ios":"levelo://app?vid=677d2d4d-6b65-4b02-a318-57a603c6fa52"},"vehicle_type_id":"4","last_reported":1722539184,"current_range_meters":26800,"station_id":"ce4bgl12rcd13ifvqbo0","pricing_plan_id":"cebpf4jnsgd1na2vs0mg"},{"bike_id":"f0b181a8-1d4e-4569-8888-74346921abbe","system_id":"levelo_inurba_marseille","lat":43.293259,"lon":5.371586,"is_reserved":false,"is_disabled":false,"rental_uris":{"android":"levelo://app?vid=f0b181a8-1d4e-4569-8888-74346921abbe","ios":"levelo://app?vid=f0b181a8-1d4e-4569-8888-74346921abbe"},"vehicle_type_id":"4","last_reported":1722539184,"current_range_meters":31600,"station_id":"ce4bgh92rcd13ifvqb40","pricing_plan_id":"cebpf4jnsgd1na2vs0mg"},{"bike_id":"f7fcc6e6-ba96-4c18-8388-641b7752afcd","system_id":"levelo_inurba_marseille","lat":43.293259,"lon":5.371586,"is_reserved":false,"is_disabled":false,"rental_uris":{"android":"levelo://app?vid=f7fcc6e6-ba96-4c18-8388-641b7752afcd","ios":"levelo://app?vid=f7fcc6e6-ba96-4c18-8388-641b7752afcd"},"vehicle_type_id":"4","last_reported":1722539184,"current_range_meters":19600,"station_id":"ce4bgh92rcd13ifvqb40","pricing_plan_id":"cebpf4jnsgd1na2vs0mg"},{"bike_id":"63e602c0-cc65-4c8b-9bbe-96962ca12d18","system_id":"levelo_inurba_marseille","lat":43.293259,"lon":5.371586,"is_reserved":false,"is_disabled":false,"rental_uris":{"android":"levelo://app?vid=63e602c0-cc65-4c8b-9bbe-96962ca12d18","ios":"levelo://app?vid=63e602c0-cc65-4c8b-9bbe-96962ca12d18"},"vehicle_type_id":"4","last_reported":1722539184,"current_range_meters":29600,"station_id":"ce4bgh92rcd13ifvqb40","pricing_plan_id":"cebpf4jnsgd1na2vs0mg"},{"bike_id":"ed7f5733-a6b2-4255-b4e1-30e1f94bf547","system_id":"levelo_inurba_marseille","lat":43.293259,"lon":5.371586,"is_reserved":false,"is_disabled":false,"rental_uris":{"android":"levelo://app?vid=ed7f5733-a6b2-4255-b4e1-30e1f94bf547","ios":"levelo://app?vid=ed7f5733-a6b2-4255-b4e1-30e1f94bf547"},"vehicle_type_id":"4","last_reported":1722539184,"current_range_meters":8800,"station_id":"ce4bgh92rcd13ifvqb40","pricing_plan_id":"cebpf4jnsgd1na2vs0mg"},{"bike_id":"7272fc28-24f7-4544-8d24-b6448bc724a5","system_id":"levelo_inurba_marseille","lat":43.293259,"lon":5.371586,"is_reserved":false,"is_disabled":false,"rental_uris":{"android":"levelo://app?vid=7272fc28-24f7-4544-8d24-b6448bc724a5","ios":"levelo://app?vid=7272fc28-24f7-4544-8d24-b6448bc724a5"},"vehicle_type_id":"4","last_reported":1722539184,"current_range_meters":2800,"station_id":"ce4bgh92rcd13ifvqb40","pricing_plan_id":"cebpf4jnsgd1na2vs0mg"},{"bike_id":"d0713568-8184-4218-9211-a8d2d5002cca","system_id":"levelo_inurba_marseille","lat":43.292749,"lon":5.368402,"is_reserved":false,"is_disabled":false,"rental_uris":{"android":"levelo://app?vid=d0713568-8184-4218-9211-a8d2d5002cca","ios":"levelo://app?vid=d0713568-8184-4218-9211-a8d2d5002cca"},"vehicle_type_id":"4","last_reported":1722539184,"current_range_meters":0,"station_id":"ce4bhbp2rcd13ifvqesg","pricing_plan_id":"cebpf4jnsgd1na2vs0mg"},{"bike_id":"056e4a26-a0c7-4d07-b102-b932e0e39566","system_id":"levelo_inurba_marseille","lat":43.293249,"lon":5.371578,"is_reserved":false,"is_disabled":false,"rental_uris":{"android":"levelo://app?vid=056e4a26-a0c7-4d07-b102-b932e0e39566","ios":"levelo://app?vid=056e4a26-a0c7-4d07-b102-b932e0e39566"},"vehicle_type_id":"4","last_reported":1722539184,"current_range_meters":0,"station_id":"ce4bgh92rcd13ifvqb40","pricing_plan_id":"cebpf4jnsgd1na2vs0mg"},{"bike_id":"a4b08c85-9d6f-4d0b-9e9a-13c792efac90","system_id":"levelo_inurba_marseille","lat":43.292749,"lon":5.368402,"is_reserved":false,"is_disabled":false,"rental_uris":{"android":"levelo://app?vid=a4b08c85-9d6f-4d0b-9e9a-13c792efac90","ios":"levelo://app?vid=a4b08c85-9d6f-4d0b-9e9a-13c792efac90"},"vehicle_type_id":"4","last_reported":1722539184,"current_range_meters":28800,"station_id":"ce4bhbp2rcd13ifvqesg","pricing_plan_id":"cebpf4jnsgd1na2vs0mg"},{"bike_id":"78809d59-f387-4b3c-a87c-fcf48a108eaa","system_id":"levelo_inurba_marseille","lat":43.290104,"lon":5.356111,"is_reserved":false,"is_disabled":false,"rental_uris":{"android":"levelo://app?vid=78809d59-f387-4b3c-a87c-fcf48a108eaa","ios":"levelo://app?vid=78809d59-f387-4b3c-a87c-fcf48a108eaa"},"vehicle_type_id":"4","last_reported":1722539184,"current_range_meters":10000,"station_id":"ce4bhb92rcd13ifvqen0","pricing_plan_id":"cebpf4jnsgd1na2vs0mg"},{"bike_id":"2ac8c726-ccf4-4d26-ac1b-67019aeb2f42","system_id":"levelo_inurba_marseille","lat":43.293249,"lon":5.371578,"is_reserved":false,"is_disabled":false,"rental_uris":{"android":"levelo://app?vid=2ac8c726-ccf4-4d26-ac1b-67019aeb2f42","ios":"levelo://app?vid=2ac8c726-ccf4-4d26-ac1b-67019aeb2f42"},"vehicle_type_id":"4","last_reported":1722539184,"current_range_meters":6400,"station_id":"ce4bgh92rcd13ifvqb40","pricing_plan_id":"cebpf4jnsgd1na2vs0mg"},{"bike_id":"02c7c0d3-7e75-48a4-8a22-8bc7d44aae2e","system_id":"levelo_inurba_marseille","lat":43.29232,"lon":5.36506,"is_reserved":false,"is_disabled":false,"rental_uris":{"android":"levelo://app?vid=02c7c0d3-7e75-48a4-8a22-8bc7d44aae2e","ios":"levelo://app?vid=02c7c0d3-7e75-48a4-8a22-8bc7d44aae2e"},"vehicle_type_id":"4","last_reported":1722539184,"current_range_meters":3200,"station_id":"","pricing_plan_id":"cebpf4jnsgd1na2vs0mg"},{"bike_id":"d350c30a-d5aa-402e-9b2a-823da3fecd8f","system_id":"levelo_inurba_marseille","lat":43.2936,"lon":5.37835,"is_reserved":false,"is_disabled":false,"rental_uris":{"android":"levelo://app?vid=d350c30a-d5aa-402e-9b2a-823da3fecd8f","ios":"levelo://app?vid=d350c30a-d5aa-402e-9b2a-823da3fecd8f"},"vehicle_type_id":"4","last_reported":1722539184,"current_range_meters":800,"station_id":"ce4bgjh2rcd13ifvqbf0","pricing_plan_id":"cebpf4jnsgd1na2vs0mg"},{"bike_id":"e0456d65-8dd7-4c59-b2ea-c80169383fd4","system_id":"levelo_inurba_marseille","lat":43.292311,"lon":5.360731,"is_reserved":false,"is_disabled":false,"rental_uris":{"android":"levelo://app?vid=e0456d65-8dd7-4c59-b2ea-c80169383fd4","ios":"levelo://app?vid=e0456d65-8dd7-4c59-b2ea-c80169383fd4"},"vehicle_type_id":"4","last_reported":1722539184,"current_range_meters":26000,"station_id":"ce4bhbh2rcd13ifvqeqg","pricing_plan_id":"cebpf4jnsgd1na2vs0mg"},{"bike_id":"10fcac76-50ac-4cd2-b50b-111c0d0e6ab1","system_id":"levelo_inurba_marseille","lat":43.292311,"lon":5.360731,"is_reserved":false,"is_disabled":false,"rental_uris":{"android":"levelo://app?vid=10fcac76-50ac-4cd2-b50b-111c0d0e6ab1","ios":"levelo://app?vid=10fcac76-50ac-4cd2-b50b-111c0d0e6ab1"},"vehicle_type_id":"4","last_reported":1722539184,"current_range_meters":30000,"station_id":"ce4bhbh2rcd13ifvqeqg","pricing_plan_id":"cebpf4jnsgd1na2vs0mg"},{"bike_id":"b7cdb6be-04d0-4c8a-9117-fe9d0767a26e","system_id":"levelo_inurba_marseille","lat":43.292311,"lon":5.360731,"is_reserved":false,"is_disabled":false,"rental_uris":{"android":"levelo://app?vid=b7cdb6be-04d0-4c8a-9117-fe9d0767a26e","ios":"levelo://app?vid=b7cdb6be-04d0-4c8a-9117-fe9d0767a26e"},"vehicle_type_id":"4","last_reported":1722539184,"current_range_meters":4000,"station_id":"ce4bhbh2rcd13ifvqeqg","pricing_plan_id":"cebpf4jnsgd1na2vs0mg"},{"bike_id":"3e728caf-98f7-45c0-8f60-3790efce1dd8","system_id":"levelo_inurba_marseille","lat":43.292311,"lon":5.360731,"is_reserved":false,"is_disabled":false,"rental_uris":{"android":"levelo://app?vid=3e728caf-98f7-45c0-8f60-3790efce1dd8","ios":"levelo://app?vid=3e728caf-98f7-45c0-8f60-3790efce1dd8"},"vehicle_type_id":"4","last_reported":1722539184,"current_range_meters":24800,"station_id":"ce4bhbh2rcd13ifvqeqg","pricing_plan_id":"cebpf4jnsgd1na2vs0mg"},{"bike_id":"9ef63d8b-40bd-42be-bf02-b081150ead14","system_id":"levelo_inurba_marseille","lat":43.292311,"lon":5.360731,"is_reserved":false,"is_disabled":false,"rental_uris":{"android":"levelo://app?vid=9ef63d8b-40bd-42be-bf02-b081150ead14","ios":"levelo://app?vid=9ef63d8b-40bd-42be-bf02-b081150ead14"},"vehicle_type_id":"4","last_reported":1722539184,"current_range_meters":11600,"station_id":"ce4bhbh2rcd13ifvqeqg","pricing_plan_id":"cebpf4jnsgd1na2vs0mg"},{"bike_id":"0711c3d3-bc43-415b-9745-fb6f809581aa","system_id":"levelo_inurba_marseille","lat":43.29222,"lon":5.36073,"is_reserved":false,"is_disabled":false,"rental_uris":{"android":"levelo://app?vid=0711c3d3-bc43-415b-9745-fb6f809581aa","ios":"levelo://app?vid=0711c3d3-bc43-415b-9745-fb6f809581aa"},"vehicle_type_id":"4","last_reported":1722539184,"current_range_meters":31200,"station_id":"ce4bhbh2rcd13ifvqeqg","pricing_plan_id":"cebpf4jnsgd1na2vs0mg"},{"bike_id":"cacb5caf-c6b8-4338-9d6f-f34f7c3fc80f","system_id":"levelo_inurba_marseille","lat":43.292311,"lon":5.360731,"is_reserved":false,"is_disabled":false,"rental_uris":{"android":"levelo://app?vid=cacb5caf-c6b8-4338-9d6f-f34f7c3fc80f","ios":"levelo://app?vid=cacb5caf-c6b8-4338-9d6f-f34f7c3fc80f"},"vehicle_type_id":"4","last_reported":1722539184,"current_range_meters":26000,"station_id":"ce4bhbh2rcd13ifvqeqg","pricing_plan_id":"cebpf4jnsgd1na2vs0mg"},{"bike_id":"01072eb6-9ff0-4188-90eb-bfc6202070c0","system_id":"levelo_inurba_marseille","lat":43.292311,"lon":5.360731,"is_reserved":false,"is_disabled":false,"rental_uris":{"android":"levelo://app?vid=01072eb6-9ff0-4188-90eb-bfc6202070c0","ios":"levelo://app?vid=01072eb6-9ff0-4188-90eb-bfc6202070c0"},"vehicle_type_id":"4","last_reported":1722539184,"current_range_meters":31200,"station_id":"ce4bhbh2rcd13ifvqeqg","pricing_plan_id":"cebpf4jnsgd1na2vs0mg"},{"bike_id":"17c4ceea-aa7c-47de-876b-d88e356c96f7","system_id":"levelo_inurba_marseille","lat":43.292311,"lon":5.360731,"is_reserved":false,"is_disabled":false,"rental_uris":{"android":"levelo://app?vid=17c4ceea-aa7c-47de-876b-d88e356c96f7","ios":"levelo://app?vid=17c4ceea-aa7c-47de-876b-d88e356c96f7"},"vehicle_type_id":"4","last_reported":1722539184,"current_range_meters":19600,"station_id":"ce4bhbh2rcd13ifvqeqg","pricing_plan_id":"cebpf4jnsgd1na2vs0mg"},{"bike_id":"bb91fcee-0cfa-4963-b624-94ba30c92d09","system_id":"levelo_inurba_marseille","lat":43.29257,"lon":5.37613,"is_reserved":false,"is_disabled":false,"rental_uris":{"android":"levelo://app?vid=bb91fcee-0cfa-4963-b624-94ba30c92d09","ios":"levelo://app?vid=bb91fcee-0cfa-4963-b624-94ba30c92d09"},"vehicle_type_id":"4","last_reported":1722539184,"current_range_meters":10400,"station_id":"ce4bgi12rcd13ifvqb80","pricing_plan_id":"cebpf4jnsgd1na2vs0mg"},{"bike_id":"776e1787-66ab-4f87-9044-d8e79cc5c08b","system_id":"levelo_inurba_marseille","lat":43.29257,"lon":5.37614,"is_reserved":false,"is_disabled":false,"rental_uris":{"android":"levelo://app?vid=776e1787-66ab-4f87-9044-d8e79cc5c08b","ios":"levelo://app?vid=776e1787-66ab-4f87-9044-d8e79cc5c08b"},"vehicle_type_id":"4","last_reported":1722539184,"current_range_meters":19200,"station_id":"ce4bgi12rcd13ifvqb80","pricing_plan_id":"cebpf4jnsgd1na2vs0mg"},{"bike_id":"62ac9d4d-0e8f-4b7a-b92b-cb35c76e9bb5","system_id":"levelo_inurba_marseille","lat":43.293009,"lon":5.374584,"is_reserved":false,"is_disabled":false,"rental_uris":{"android":"levelo://app?vid=62ac9d4d-0e8f-4b7a-b92b-cb35c76e9bb5","ios":"levelo://app?vid=62ac9d4d-0e8f-4b7a-b92b-cb35c76e9bb5"},"vehicle_type_id":"4","last_reported":1722539184,"current_range_meters":25200,"station_id":"ce4bgi12rcd13ifvqb70","pricing_plan_id":"cebpf4jnsgd1na2vs0mg"},{"bike_id":"d1212614-1752-45e4-b846-4f9ee35e9314","system_id":"levelo_inurba_marseille","lat":43.29255,"lon":5.37612,"is_reserved":false,"is_disabled":false,"rental_uris":{"android":"levelo://app?vid=d1212614-1752-45e4-b846-4f9ee35e9314","ios":"levelo://app?vid=d1212614-1752-45e4-b846-4f9ee35e9314"},"vehicle_type_id":"4","last_reported":1722539184,"current_range_meters":0,"station_id":"ce4bgi12rcd13ifvqb80","pricing_plan_id":"cebpf4jnsgd1na2vs0mg"},{"bike_id":"0b6aeadb-58ea-48fe-9992-6a844909d07b","system_id":"levelo_inurba_marseille","lat":43.29252,"lon":5.37616,"is_reserved":false,"is_disabled":false,"rental_uris":{"android":"levelo://app?vid=0b6aeadb-58ea-48fe-9992-6a844909d07b","ios":"levelo://app?vid=0b6aeadb-58ea-48fe-9992-6a844909d07b"},"vehicle_type_id":"4","last_reported":1722539184,"current_range_meters":17600,"station_id":"ce4bgi12rcd13ifvqb80","pricing_plan_id":"cebpf4jnsgd1na2vs0mg"},{"bike_id":"c8de78c3-26e6-4a2b-be65-f88f7e357990","system_id":"levelo_inurba_marseille","lat":43.291675,"lon":5.371583,"is_reserved":false,"is_disabled":false,"rental_uris":{"android":"levelo://app?vid=c8de78c3-26e6-4a2b-be65-f88f7e357990","ios":"levelo://app?vid=c8de78c3-26e6-4a2b-be65-f88f7e357990"},"vehicle_type_id":"4","last_reported":1722539184,"current_range_meters":11200,"station_id":"ce4bha92rcd13ifvqeh0","pricing_plan_id":"cebpf4jnsgd1na2vs0mg"},{"bike_id":"624c58a9-4be6-4c78-9fed-9d7c71c9c3ea","system_id":"levelo_inurba_marseille","lat":43.313291,"lon":5.396838,"is_reserved":false,"is_disabled":false,"rental_uris":{"android":"levelo://app?vid=624c58a9-4be6-4c78-9fed-9d7c71c9c3ea","ios":"levelo://app?vid=624c58a9-4be6-4c78-9fed-9d7c71c9c3ea"},"vehicle_type_id":"4","last_reported":1722539184,"current_range_meters":23600,"station_id":"ce4bgvp2rcd13ifvqcu0","pricing_plan_id":"cebpf4jnsgd1na2vs0mg"},{"bike_id":"5605cb97-15f8-470a-b7c2-00396f200b3f","system_id":"levelo_inurba_marseille","lat":43.291994,"lon":5.357886,"is_reserved":false,"is_disabled":false,"rental_uris":{"android":"levelo://app?vid=5605cb97-15f8-470a-b7c2-00396f200b3f","ios":"levelo://app?vid=5605cb97-15f8-470a-b7c2-00396f200b3f"},"vehicle_type_id":"4","last_reported":1722539184,"current_range_meters":18800,"station_id":"ce4bhb12rcd13ifvqel0","pricing_plan_id":"cebpf4jnsgd1na2vs0mg"},{"bike_id":"7843527f-986a-4564-9ac0-09a3e267e99a","system_id":"levelo_inurba_marseille","lat":43.313291,"lon":5.396838,"is_reserved":false,"is_disabled":false,"rental_uris":{"android":"levelo://app?vid=7843527f-986a-4564-9ac0-09a3e267e99a","ios":"levelo://app?vid=7843527f-986a-4564-9ac0-09a3e267e99a"},"vehicle_type_id":"4","last_reported":1722539184,"current_range_meters":12800,"station_id":"ce4bgvp2rcd13ifvqcu0","pricing_plan_id":"cebpf4jnsgd1na2vs0mg"},{"bike_id":"5247a752-f980-4b1e-b7b8-aec0f59594ea","system_id":"levelo_inurba_marseille","lat":43.29534,"lon":5.38537,"is_reserved":false,"is_disabled":false,"rental_uris":{"android":"levelo://app?vid=5247a752-f980-4b1e-b7b8-aec0f59594ea","ios":"levelo://app?vid=5247a752-f980-4b1e-b7b8-aec0f59594ea"},"vehicle_type_id":"4","last_reported":1722539184,"current_range_meters":0,"station_id":"ce4bgih2rcd13ifvqba0","pricing_plan_id":"cebpf4jnsgd1na2vs0mg"},{"bike_id":"1d25e37c-e955-4c0f-ba28-d92021813203","system_id":"levelo_inurba_marseille","lat":43.29529,"lon":5.385581,"is_reserved":false,"is_disabled":false,"rental_uris":{"android":"levelo://app?vid=1d25e37c-e955-4c0f-ba28-d92021813203","ios":"levelo://app?vid=1d25e37c-e955-4c0f-ba28-d92021813203"},"vehicle_type_id":"4","last_reported":1722539184,"current_range_meters":5200,"station_id":"ce4bgih2rcd13ifvqba0","pricing_plan_id":"cebpf4jnsgd1na2vs0mg"},{"bike_id":"6a3f558f-213e-488e-b51d-a23938f1b6c8","system_id":"levelo_inurba_marseille","lat":43.295327,"lon":5.385463,"is_reserved":false,"is_disabled":false,"rental_uris":{"android":"levelo://app?vid=6a3f558f-213e-488e-b51d-a23938f1b6c8","ios":"levelo://app?vid=6a3f558f-213e-488e-b51d-a23938f1b6c8"},"vehicle_type_id":"4","last_reported":1722539184,"current_range_meters":30000,"station_id":"","pricing_plan_id":"cebpf4jnsgd1na2vs0mg"},{"bike_id":"0a119578-dbb8-4b1b-88db-c4ba842d0daf","system_id":"levelo_inurba_marseille","lat":43.29528,"lon":5.38539,"is_reserved":false,"is_disabled":false,"rental_uris":{"android":"levelo://app?vid=0a119578-dbb8-4b1b-88db-c4ba842d0daf","ios":"levelo://app?vid=0a119578-dbb8-4b1b-88db-c4ba842d0daf"},"vehicle_type_id":"4","last_reported":1722539184,"current_range_meters":9200,"station_id":"","pricing_plan_id":"cebpf4jnsgd1na2vs0mg"},{"bike_id":"4e36edc9-46f7-4b34-8a59-aa2450dec0d2","system_id":"levelo_inurba_marseille","lat":43.29527,"lon":5.38547,"is_reserved":false,"is_disabled":false,"rental_uris":{"android":"levelo://app?vid=4e36edc9-46f7-4b34-8a59-aa2450dec0d2","ios":"levelo://app?vid=4e36edc9-46f7-4b34-8a59-aa2450dec0d2"},"vehicle_type_id":"4","last_reported":1722539184,"current_range_meters":19600,"station_id":"","pricing_plan_id":"cebpf4jnsgd1na2vs0mg"},{"bike_id":"794dd1a0-2ec8-45aa-9288-e70d690c8bb1","system_id":"levelo_inurba_marseille","lat":43.295319,"lon":5.385574,"is_reserved":false,"is_disabled":false,"rental_uris":{"android":"levelo://app?vid=794dd1a0-2ec8-45aa-9288-e70d690c8bb1","ios":"levelo://app?vid=794dd1a0-2ec8-45aa-9288-e70d690c8bb1"},"vehicle_type_id":"4","last_reported":1722539184,"current_range_meters":18400,"station_id":"ce4bgih2rcd13ifvqba0","pricing_plan_id":"cebpf4jnsgd1na2vs0mg"},{"bike_id":"665dcb9c-5a6a-4dcb-b7e1-9e2e9f70599e","system_id":"levelo_inurba_marseille","lat":43.290779,"lon":5.371482,"is_reserved":false,"is_disabled":false,"rental_uris":{"android":"levelo://app?vid=665dcb9c-5a6a-4dcb-b7e1-9e2e9f70599e","ios":"levelo://app?vid=665dcb9c-5a6a-4dcb-b7e1-9e2e9f70599e"},"vehicle_type_id":"4","last_reported":1722539184,"current_range_meters":16800,"station_id":"ce4bh5p2rcd13ifvqe4g","pricing_plan_id":"cebpf4jnsgd1na2vs0mg"},{"bike_id":"05f92251-6815-4d72-b778-2c53817f257c","system_id":"levelo_inurba_marseille","lat":43.302008,"lon":5.394694,"is_reserved":false,"is_disabled":false,"rental_uris":{"android":"levelo://app?vid=05f92251-6815-4d72-b778-2c53817f257c","ios":"levelo://app?vid=05f92251-6815-4d72-b778-2c53817f257c"},"vehicle_type_id":"4","last_reported":1722539184,"current_range_meters":21200,"station_id":"ce4bh0p2rcd13ifvqd70","pricing_plan_id":"cebpf4jnsgd1na2vs0mg"},{"bike_id":"b545e9d7-22de-4637-8999-4df5036dd6ee","system_id":"levelo_inurba_marseille","lat":43.302008,"lon":5.394694,"is_reserved":false,"is_disabled":false,"rental_uris":{"android":"levelo://app?vid=b545e9d7-22de-4637-8999-4df5036dd6ee","ios":"levelo://app?vid=b545e9d7-22de-4637-8999-4df5036dd6ee"},"vehicle_type_id":"4","last_reported":1722539184,"current_range_meters":0,"station_id":"ce4bh0p2rcd13ifvqd70","pricing_plan_id":"cebpf4jnsgd1na2vs0mg"},{"bike_id":"c9f6dae3-92af-42fa-92c4-0e59c21b8d95","system_id":"levelo_inurba_marseille","lat":43.29048,"lon":5.35912,"is_reserved":false,"is_disabled":false,"rental_uris":{"android":"levelo://app?vid=c9f6dae3-92af-42fa-92c4-0e59c21b8d95","ios":"levelo://app?vid=c9f6dae3-92af-42fa-92c4-0e59c21b8d95"},"vehicle_type_id":"4","last_reported":1722539184,"current_range_meters":0,"station_id":"ce4bha92rcd13ifvqeg0","pricing_plan_id":"cebpf4jnsgd1na2vs0mg"},{"bike_id":"7de25f0a-c046-4a39-8ccd-a888d138f182","system_id":"levelo_inurba_marseille","lat":43.29046,"lon":5.35905,"is_reserved":false,"is_disabled":false,"rental_uris":{"android":"levelo://app?vid=7de25f0a-c046-4a39-8ccd-a888d138f182","ios":"levelo://app?vid=7de25f0a-c046-4a39-8ccd-a888d138f182"},"vehicle_type_id":"4","last_reported":1722539184,"current_range_meters":4400,"station_id":"ce4bha92rcd13ifvqeg0","pricing_plan_id":"cebpf4jnsgd1na2vs0mg"},{"bike_id":"e3f47b26-8f29-49bd-8299-152b6e1b1bcb","system_id":"levelo_inurba_marseille","lat":43.294162,"lon":5.386292,"is_reserved":false,"is_disabled":false,"rental_uris":{"android":"levelo://app?vid=e3f47b26-8f29-49bd-8299-152b6e1b1bcb","ios":"levelo://app?vid=e3f47b26-8f29-49bd-8299-152b6e1b1bcb"},"vehicle_type_id":"4","last_reported":1722539184,"current_range_meters":14000,"station_id":"ce4bh2h2rcd13ifvqdh0","pricing_plan_id":"cebpf4jnsgd1na2vs0mg"},{"bike_id":"aff02d06-d75c-4ffb-8b05-12b5cd560335","system_id":"levelo_inurba_marseille","lat":43.290327,"lon":5.375711,"is_reserved":false,"is_disabled":false,"rental_uris":{"android":"levelo://app?vid=aff02d06-d75c-4ffb-8b05-12b5cd560335","ios":"levelo://app?vid=aff02d06-d75c-4ffb-8b05-12b5cd560335"},"vehicle_type_id":"4","last_reported":1722539184,"current_range_meters":28000,"station_id":"ce4bh692rcd13ifvqe90","pricing_plan_id":"cebpf4jnsgd1na2vs0mg"},{"bike_id":"9b6b199e-67c3-4471-bf1d-7048eaa1cbee","system_id":"levelo_inurba_marseille","lat":43.294162,"lon":5.386292,"is_reserved":false,"is_disabled":false,"rental_uris":{"android":"levelo://app?vid=9b6b199e-67c3-4471-bf1d-7048eaa1cbee","ios":"levelo://app?vid=9b6b199e-67c3-4471-bf1d-7048eaa1cbee"},"vehicle_type_id":"4","last_reported":1722539184,"current_range_meters":24800,"station_id":"ce4bh2h2rcd13ifvqdh0","pricing_plan_id":"cebpf4jnsgd1na2vs0mg"},{"bike_id":"51cc5895-e29b-4fcb-9c92-196d96b1b705","system_id":"levelo_inurba_marseille","lat":43.29419,"lon":5.38616,"is_reserved":false,"is_disabled":false,"rental_uris":{"android":"levelo://app?vid=51cc5895-e29b-4fcb-9c92-196d96b1b705","ios":"levelo://app?vid=51cc5895-e29b-4fcb-9c92-196d96b1b705"},"vehicle_type_id":"4","last_reported":1722539184,"current_range_meters":5200,"station_id":"ce4bh2h2rcd13ifvqdh0","pricing_plan_id":"cebpf4jnsgd1na2vs0mg"},{"bike_id":"b368b883-c4cf-4e47-bcbe-c9f9b9043cd6","system_id":"levelo_inurba_marseille","lat":43.29418,"lon":5.38616,"is_reserved":false,"is_disabled":false,"rental_uris":{"android":"levelo://app?vid=b368b883-c4cf-4e47-bcbe-c9f9b9043cd6","ios":"levelo://app?vid=b368b883-c4cf-4e47-bcbe-c9f9b9043cd6"},"vehicle_type_id":"4","last_reported":1722539184,"current_range_meters":17600,"station_id":"ce4bh2h2rcd13ifvqdh0","pricing_plan_id":"cebpf4jnsgd1na2vs0mg"},{"bike_id":"54fac555-cb10-4067-a4a1-789791d801d8","system_id":"levelo_inurba_marseille","lat":43.29418,"lon":5.38619,"is_reserved":false,"is_disabled":false,"rental_uris":{"android":"levelo://app?vid=54fac555-cb10-4067-a4a1-789791d801d8","ios":"levelo://app?vid=54fac555-cb10-4067-a4a1-789791d801d8"},"vehicle_type_id":"4","last_reported":1722539184,"current_range_meters":7600,"station_id":"ce4bh2h2rcd13ifvqdh0","pricing_plan_id":"cebpf4jnsgd1na2vs0mg"},{"bike_id":"0c54a749-d300-4e1c-8fc3-7f59f7d00570","system_id":"levelo_inurba_marseille","lat":43.294162,"lon":5.386292,"is_reserved":false,"is_disabled":false,"rental_uris":{"android":"levelo://app?vid=0c54a749-d300-4e1c-8fc3-7f59f7d00570","ios":"levelo://app?vid=0c54a749-d300-4e1c-8fc3-7f59f7d00570"},"vehicle_type_id":"4","last_reported":1722539184,"current_range_meters":6800,"station_id":"ce4bh2h2rcd13ifvqdh0","pricing_plan_id":"cebpf4jnsgd1na2vs0mg"},{"bike_id":"d54beb7f-3092-4753-a0e3-3464f2c138a1","system_id":"levelo_inurba_marseille","lat":43.294162,"lon":5.386292,"is_reserved":false,"is_disabled":false,"rental_uris":{"android":"levelo://app?vid=d54beb7f-3092-4753-a0e3-3464f2c138a1","ios":"levelo://app?vid=d54beb7f-3092-4753-a0e3-3464f2c138a1"},"vehicle_type_id":"4","last_reported":1722539184,"current_range_meters":4400,"station_id":"ce4bh2h2rcd13ifvqdh0","pricing_plan_id":"cebpf4jnsgd1na2vs0mg"},{"bike_id":"1be900da-2b23-4e7f-a0a1-e20058dfe921","system_id":"levelo_inurba_marseille","lat":43.290319,"lon":5.375732,"is_reserved":false,"is_disabled":false,"rental_uris":{"android":"levelo://app?vid=1be900da-2b23-4e7f-a0a1-e20058dfe921","ios":"levelo://app?vid=1be900da-2b23-4e7f-a0a1-e20058dfe921"},"vehicle_type_id":"4","last_reported":1722539184,"current_range_meters":16000,"station_id":"ce4bh692rcd13ifvqe90","pricing_plan_id":"cebpf4jnsgd1na2vs0mg"},{"bike_id":"ef5833c0-749f-4f9e-a025-3dadc07a8be6","system_id":"levelo_inurba_marseille","lat":43.290327,"lon":5.375711,"is_reserved":false,"is_disabled":false,"rental_uris":{"android":"levelo://app?vid=ef5833c0-749f-4f9e-a025-3dadc07a8be6","ios":"levelo://app?vid=ef5833c0-749f-4f9e-a025-3dadc07a8be6"},"vehicle_type_id":"4","last_reported":1722539184,"current_range_meters":0,"station_id":"ce4bh692rcd13ifvqe90","pricing_plan_id":"cebpf4jnsgd1na2vs0mg"},{"bike_id":"085c2fb9-c165-4d2a-92de-5769f72b6108","system_id":"levelo_inurba_marseille","lat":43.294162,"lon":5.386292,"is_reserved":false,"is_disabled":false,"rental_uris":{"android":"levelo://app?vid=085c2fb9-c165-4d2a-92de-5769f72b6108","ios":"levelo://app?vid=085c2fb9-c165-4d2a-92de-5769f72b6108"},"vehicle_type_id":"4","last_reported":1722539184,"current_range_meters":30400,"station_id":"ce4bh2h2rcd13ifvqdh0","pricing_plan_id":"cebpf4jnsgd1na2vs0mg"},{"bike_id":"95adbec0-84cd-4668-b14a-91e213bda4e1","system_id":"levelo_inurba_marseille","lat":43.29416,"lon":5.38623,"is_reserved":false,"is_disabled":false,"rental_uris":{"android":"levelo://app?vid=95adbec0-84cd-4668-b14a-91e213bda4e1","ios":"levelo://app?vid=95adbec0-84cd-4668-b14a-91e213bda4e1"},"vehicle_type_id":"4","last_reported":1722539184,"current_range_meters":30000,"station_id":"ce4bh2h2rcd13ifvqdh0","pricing_plan_id":"cebpf4jnsgd1na2vs0mg"},{"bike_id":"7aeb239b-9d45-4833-a16d-775270919adc","system_id":"levelo_inurba_marseille","lat":43.294162,"lon":5.386292,"is_reserved":false,"is_disabled":false,"rental_uris":{"android":"levelo://app?vid=7aeb239b-9d45-4833-a16d-775270919adc","ios":"levelo://app?vid=7aeb239b-9d45-4833-a16d-775270919adc"},"vehicle_type_id":"4","last_reported":1722539184,"current_range_meters":12000,"station_id":"ce4bh2h2rcd13ifvqdh0","pricing_plan_id":"cebpf4jnsgd1na2vs0mg"},{"bike_id":"44be9ddb-6781-4f4e-8a8c-d055d94c2f32","system_id":"levelo_inurba_marseille","lat":43.294162,"lon":5.386292,"is_reserved":false,"is_disabled":false,"rental_uris":{"android":"levelo://app?vid=44be9ddb-6781-4f4e-8a8c-d055d94c2f32","ios":"levelo://app?vid=44be9ddb-6781-4f4e-8a8c-d055d94c2f32"},"vehicle_type_id":"4","last_reported":1722539184,"current_range_meters":2800,"station_id":"ce4bh2h2rcd13ifvqdh0","pricing_plan_id":"cebpf4jnsgd1na2vs0mg"},{"bike_id":"5beb521e-2bcf-4da6-9657-c247ffb4fc3c","system_id":"levelo_inurba_marseille","lat":43.29415,"lon":5.38624,"is_reserved":false,"is_disabled":false,"rental_uris":{"android":"levelo://app?vid=5beb521e-2bcf-4da6-9657-c247ffb4fc3c","ios":"levelo://app?vid=5beb521e-2bcf-4da6-9657-c247ffb4fc3c"},"vehicle_type_id":"4","last_reported":1722539184,"current_range_meters":21600,"station_id":"ce4bh2h2rcd13ifvqdh0","pricing_plan_id":"cebpf4jnsgd1na2vs0mg"},{"bike_id":"0bdbe7e2-0d55-45d0-b70b-41f5b1da6310","system_id":"levelo_inurba_marseille","lat":43.294162,"lon":5.386292,"is_reserved":false,"is_disabled":false,"rental_uris":{"android":"levelo://app?vid=0bdbe7e2-0d55-45d0-b70b-41f5b1da6310","ios":"levelo://app?vid=0bdbe7e2-0d55-45d0-b70b-41f5b1da6310"},"vehicle_type_id":"4","last_reported":1722539184,"current_range_meters":7600,"station_id":"ce4bh2h2rcd13ifvqdh0","pricing_plan_id":"cebpf4jnsgd1na2vs0mg"},{"bike_id":"264d0a98-e7e8-469c-8763-eb3bf67a71c5","system_id":"levelo_inurba_marseille","lat":43.294162,"lon":5.386292,"is_reserved":false,"is_disabled":false,"rental_uris":{"android":"levelo://app?vid=264d0a98-e7e8-469c-8763-eb3bf67a71c5","ios":"levelo://app?vid=264d0a98-e7e8-469c-8763-eb3bf67a71c5"},"vehicle_type_id":"4","last_reported":1722539184,"current_range_meters":20800,"station_id":"ce4bh2h2rcd13ifvqdh0","pricing_plan_id":"cebpf4jnsgd1na2vs0mg"},{"bike_id":"77b7c380-a816-4bd4-be4a-29b700893493","system_id":"levelo_inurba_marseille","lat":43.294162,"lon":5.386292,"is_reserved":false,"is_disabled":false,"rental_uris":{"android":"levelo://app?vid=77b7c380-a816-4bd4-be4a-29b700893493","ios":"levelo://app?vid=77b7c380-a816-4bd4-be4a-29b700893493"},"vehicle_type_id":"4","last_reported":1722539184,"current_range_meters":31200,"station_id":"ce4bh2h2rcd13ifvqdh0","pricing_plan_id":"cebpf4jnsgd1na2vs0mg"},{"bike_id":"fb87a107-b3ca-4d09-b919-61b24bbe03ba","system_id":"levelo_inurba_marseille","lat":43.29414,"lon":5.38625,"is_reserved":false,"is_disabled":false,"rental_uris":{"android":"levelo://app?vid=fb87a107-b3ca-4d09-b919-61b24bbe03ba","ios":"levelo://app?vid=fb87a107-b3ca-4d09-b919-61b24bbe03ba"},"vehicle_type_id":"4","last_reported":1722539184,"current_range_meters":0,"station_id":"ce4bh2h2rcd13ifvqdh0","pricing_plan_id":"cebpf4jnsgd1na2vs0mg"},{"bike_id":"4461c601-0392-43fa-9877-a59765bfcda7","system_id":"levelo_inurba_marseille","lat":43.29415,"lon":5.38628,"is_reserved":false,"is_disabled":false,"rental_uris":{"android":"levelo://app?vid=4461c601-0392-43fa-9877-a59765bfcda7","ios":"levelo://app?vid=4461c601-0392-43fa-9877-a59765bfcda7"},"vehicle_type_id":"4","last_reported":1722539184,"current_range_meters":7200,"station_id":"ce4bh2h2rcd13ifvqdh0","pricing_plan_id":"cebpf4jnsgd1na2vs0mg"},{"bike_id":"1a651646-17f9-4b01-8e1e-5a44eafe22ab","system_id":"levelo_inurba_marseille","lat":43.289184,"lon":5.366408,"is_reserved":false,"is_disabled":false,"rental_uris":{"android":"levelo://app?vid=1a651646-17f9-4b01-8e1e-5a44eafe22ab","ios":"levelo://app?vid=1a651646-17f9-4b01-8e1e-5a44eafe22ab"},"vehicle_type_id":"4","last_reported":1722539184,"current_range_meters":0,"station_id":"ce4bhap2rcd13ifvqek0","pricing_plan_id":"cebpf4jnsgd1na2vs0mg"},{"bike_id":"de0d3f04-a504-4282-b3ab-2dcd8b0ba9f8","system_id":"levelo_inurba_marseille","lat":43.289184,"lon":5.366408,"is_reserved":false,"is_disabled":false,"rental_uris":{"android":"levelo://app?vid=de0d3f04-a504-4282-b3ab-2dcd8b0ba9f8","ios":"levelo://app?vid=de0d3f04-a504-4282-b3ab-2dcd8b0ba9f8"},"vehicle_type_id":"4","last_reported":1722539184,"current_range_meters":0,"station_id":"ce4bhap2rcd13ifvqek0","pricing_plan_id":"cebpf4jnsgd1na2vs0mg"},{"bike_id":"f9dc54d3-dcd2-41c5-82fe-20b39b9fc3f2","system_id":"levelo_inurba_marseille","lat":43.28936,"lon":5.36632,"is_reserved":false,"is_disabled":false,"rental_uris":{"android":"levelo://app?vid=f9dc54d3-dcd2-41c5-82fe-20b39b9fc3f2","ios":"levelo://app?vid=f9dc54d3-dcd2-41c5-82fe-20b39b9fc3f2"},"vehicle_type_id":"4","last_reported":1722539184,"current_range_meters":0,"station_id":"ce4bhap2rcd13ifvqek0","pricing_plan_id":"cebpf4jnsgd1na2vs0mg"},{"bike_id":"e3f97fef-a9e2-487b-8463-d0258a802a02","system_id":"levelo_inurba_marseille","lat":43.289435,"lon":5.364035,"is_reserved":false,"is_disabled":false,"rental_uris":{"android":"levelo://app?vid=e3f97fef-a9e2-487b-8463-d0258a802a02","ios":"levelo://app?vid=e3f97fef-a9e2-487b-8463-d0258a802a02"},"vehicle_type_id":"4","last_reported":1722539184,"current_range_meters":28400,"station_id":"ce4bhc92rcd13ifvqetg","pricing_plan_id":"cebpf4jnsgd1na2vs0mg"},{"bike_id":"cc3a54e3-7f76-40ae-b666-50532bddda99","system_id":"levelo_inurba_marseille","lat":43.289468,"lon":5.363719,"is_reserved":false,"is_disabled":false,"rental_uris":{"android":"levelo://app?vid=cc3a54e3-7f76-40ae-b666-50532bddda99","ios":"levelo://app?vid=cc3a54e3-7f76-40ae-b666-50532bddda99"},"vehicle_type_id":"4","last_reported":1722539184,"current_range_meters":8400,"station_id":"ce4bhc92rcd13ifvqetg","pricing_plan_id":"cebpf4jnsgd1na2vs0mg"},{"bike_id":"08239fbf-8d27-453a-8e13-d6dad52f65d7","system_id":"levelo_inurba_marseille","lat":43.29275,"lon":5.38438,"is_reserved":false,"is_disabled":false,"rental_uris":{"android":"levelo://app?vid=08239fbf-8d27-453a-8e13-d6dad52f65d7","ios":"levelo://app?vid=08239fbf-8d27-453a-8e13-d6dad52f65d7"},"vehicle_type_id":"4","last_reported":1722539184,"current_range_meters":31200,"station_id":"ce4bh692rcd13ifvqea0","pricing_plan_id":"cebpf4jnsgd1na2vs0mg"},{"bike_id":"25bbc2e6-795d-400d-b6e8-14fa1afe066d","system_id":"levelo_inurba_marseille","lat":43.29269,"lon":5.38432,"is_reserved":false,"is_disabled":false,"rental_uris":{"android":"levelo://app?vid=25bbc2e6-795d-400d-b6e8-14fa1afe066d","ios":"levelo://app?vid=25bbc2e6-795d-400d-b6e8-14fa1afe066d"},"vehicle_type_id":"4","last_reported":1722539184,"current_range_meters":31600,"station_id":"ce4bh692rcd13ifvqea0","pricing_plan_id":"cebpf4jnsgd1na2vs0mg"},{"bike_id":"a24de227-57b6-430d-b80a-47a895bb0230","system_id":"levelo_inurba_marseille","lat":43.29268,"lon":5.38437,"is_reserved":false,"is_disabled":false,"rental_uris":{"android":"levelo://app?vid=a24de227-57b6-430d-b80a-47a895bb0230","ios":"levelo://app?vid=a24de227-57b6-430d-b80a-47a895bb0230"},"vehicle_type_id":"4","last_reported":1722539184,"current_range_meters":0,"station_id":"ce4bh692rcd13ifvqea0","pricing_plan_id":"cebpf4jnsgd1na2vs0mg"},{"bike_id":"aa046c67-3f9b-4b16-b3df-4129a898eafc","system_id":"levelo_inurba_marseille","lat":43.29264,"lon":5.38432,"is_reserved":false,"is_disabled":false,"rental_uris":{"android":"levelo://app?vid=aa046c67-3f9b-4b16-b3df-4129a898eafc","ios":"levelo://app?vid=aa046c67-3f9b-4b16-b3df-4129a898eafc"},"vehicle_type_id":"4","last_reported":1722539184,"current_range_meters":21200,"station_id":"ce4bh692rcd13ifvqea0","pricing_plan_id":"cebpf4jnsgd1na2vs0mg"},{"bike_id":"e527b0d4-5b8e-4e40-ba7d-47e091b80beb","system_id":"levelo_inurba_marseille","lat":43.292644,"lon":5.384257,"is_reserved":false,"is_disabled":false,"rental_uris":{"android":"levelo://app?vid=e527b0d4-5b8e-4e40-ba7d-47e091b80beb","ios":"levelo://app?vid=e527b0d4-5b8e-4e40-ba7d-47e091b80beb"},"vehicle_type_id":"4","last_reported":1722539184,"current_range_meters":13200,"station_id":"ce4bh692rcd13ifvqea0","pricing_plan_id":"cebpf4jnsgd1na2vs0mg"},{"bike_id":"13ad3c2a-e6fd-4c41-84cb-44200f804f95","system_id":"levelo_inurba_marseille","lat":43.29265,"lon":5.38444,"is_reserved":false,"is_disabled":false,"rental_uris":{"android":"levelo://app?vid=13ad3c2a-e6fd-4c41-84cb-44200f804f95","ios":"levelo://app?vid=13ad3c2a-e6fd-4c41-84cb-44200f804f95"},"vehicle_type_id":"4","last_reported":1722539184,"current_range_meters":0,"station_id":"ce4bh692rcd13ifvqea0","pricing_plan_id":"cebpf4jnsgd1na2vs0mg"},{"bike_id":"f8205914-b618-435b-b19e-77d347b89d42","system_id":"levelo_inurba_marseille","lat":43.29262,"lon":5.38439,"is_reserved":false,"is_disabled":false,"rental_uris":{"android":"levelo://app?vid=f8205914-b618-435b-b19e-77d347b89d42","ios":"levelo://app?vid=f8205914-b618-435b-b19e-77d347b89d42"},"vehicle_type_id":"4","last_reported":1722539184,"current_range_meters":0,"station_id":"ce4bh692rcd13ifvqea0","pricing_plan_id":"cebpf4jnsgd1na2vs0mg"},{"bike_id":"c6377e6f-8e3b-4d75-8ac8-73008ea9f416","system_id":"levelo_inurba_marseille","lat":43.29261,"lon":5.38437,"is_reserved":false,"is_disabled":false,"rental_uris":{"android":"levelo://app?vid=c6377e6f-8e3b-4d75-8ac8-73008ea9f416","ios":"levelo://app?vid=c6377e6f-8e3b-4d75-8ac8-73008ea9f416"},"vehicle_type_id":"4","last_reported":1722539184,"current_range_meters":0,"station_id":"ce4bh692rcd13ifvqea0","pricing_plan_id":"cebpf4jnsgd1na2vs0mg"},{"bike_id":"8cd686dd-01af-47bf-973a-c5c45259ec86","system_id":"levelo_inurba_marseille","lat":43.29259,"lon":5.38436,"is_reserved":false,"is_disabled":false,"rental_uris":{"android":"levelo://app?vid=8cd686dd-01af-47bf-973a-c5c45259ec86","ios":"levelo://app?vid=8cd686dd-01af-47bf-973a-c5c45259ec86"},"vehicle_type_id":"4","last_reported":1722539184,"current_range_meters":27600,"station_id":"ce4bh692rcd13ifvqea0","pricing_plan_id":"cebpf4jnsgd1na2vs0mg"},{"bike_id":"e5b68a13-ebd2-47a2-afff-403683d1d6b7","system_id":"levelo_inurba_marseille","lat":43.29264,"lon":5.38447,"is_reserved":false,"is_disabled":false,"rental_uris":{"android":"levelo://app?vid=e5b68a13-ebd2-47a2-afff-403683d1d6b7","ios":"levelo://app?vid=e5b68a13-ebd2-47a2-afff-403683d1d6b7"},"vehicle_type_id":"4","last_reported":1722539184,"current_range_meters":31200,"station_id":"ce4bh692rcd13ifvqea0","pricing_plan_id":"cebpf4jnsgd1na2vs0mg"},{"bike_id":"6ec0bbee-51ef-44e4-b317-8cee503cfc2a","system_id":"levelo_inurba_marseille","lat":43.29261,"lon":5.38444,"is_reserved":false,"is_disabled":false,"rental_uris":{"android":"levelo://app?vid=6ec0bbee-51ef-44e4-b317-8cee503cfc2a","ios":"levelo://app?vid=6ec0bbee-51ef-44e4-b317-8cee503cfc2a"},"vehicle_type_id":"4","last_reported":1722539184,"current_range_meters":0,"station_id":"ce4bh692rcd13ifvqea0","pricing_plan_id":"cebpf4jnsgd1na2vs0mg"},{"bike_id":"1b7e7ff7-39ee-4048-86db-54a6e545b503","system_id":"levelo_inurba_marseille","lat":43.29257,"lon":5.38436,"is_reserved":false,"is_disabled":false,"rental_uris":{"android":"levelo://app?vid=1b7e7ff7-39ee-4048-86db-54a6e545b503","ios":"levelo://app?vid=1b7e7ff7-39ee-4048-86db-54a6e545b503"},"vehicle_type_id":"4","last_reported":1722539184,"current_range_meters":31200,"station_id":"ce4bh692rcd13ifvqea0","pricing_plan_id":"cebpf4jnsgd1na2vs0mg"},{"bike_id":"0d906125-8724-417f-8b60-97bbaf742311","system_id":"levelo_inurba_marseille","lat":43.292577,"lon":5.384437,"is_reserved":false,"is_disabled":false,"rental_uris":{"android":"levelo://app?vid=0d906125-8724-417f-8b60-97bbaf742311","ios":"levelo://app?vid=0d906125-8724-417f-8b60-97bbaf742311"},"vehicle_type_id":"4","last_reported":1722539184,"current_range_meters":0,"station_id":"ce4bh692rcd13ifvqea0","pricing_plan_id":"cebpf4jnsgd1na2vs0mg"},{"bike_id":"85c70d14-747f-483f-9a8c-6a959a8b8cbe","system_id":"levelo_inurba_marseille","lat":43.29259,"lon":5.38449,"is_reserved":false,"is_disabled":false,"rental_uris":{"android":"levelo://app?vid=85c70d14-747f-483f-9a8c-6a959a8b8cbe","ios":"levelo://app?vid=85c70d14-747f-483f-9a8c-6a959a8b8cbe"},"vehicle_type_id":"4","last_reported":1722539184,"current_range_meters":31200,"station_id":"ce4bh692rcd13ifvqea0","pricing_plan_id":"cebpf4jnsgd1na2vs0mg"},{"bike_id":"c61769d6-af2c-4999-8ff5-83b003a66a88","system_id":"levelo_inurba_marseille","lat":43.29005,"lon":5.35606,"is_reserved":false,"is_disabled":false,"rental_uris":{"android":"levelo://app?vid=c61769d6-af2c-4999-8ff5-83b003a66a88","ios":"levelo://app?vid=c61769d6-af2c-4999-8ff5-83b003a66a88"},"vehicle_type_id":"4","last_reported":1722539184,"current_range_meters":0,"station_id":"","pricing_plan_id":"cebpf4jnsgd1na2vs0mg"},{"bike_id":"91553203-bb58-4ca2-a5ca-0839df4d52a3","system_id":"levelo_inurba_marseille","lat":43.290995,"lon":5.381361,"is_reserved":false,"is_disabled":false,"rental_uris":{"android":"levelo://app?vid=91553203-bb58-4ca2-a5ca-0839df4d52a3","ios":"levelo://app?vid=91553203-bb58-4ca2-a5ca-0839df4d52a3"},"vehicle_type_id":"4","last_reported":1722539184,"current_range_meters":800,"station_id":"ce4bh512rcd13ifvqe2g","pricing_plan_id":"cebpf4jnsgd1na2vs0mg"},{"bike_id":"96d4f170-fb65-4bc1-a373-6650079b77c1","system_id":"levelo_inurba_marseille","lat":43.29089,"lon":5.38131,"is_reserved":false,"is_disabled":false,"rental_uris":{"android":"levelo://app?vid=96d4f170-fb65-4bc1-a373-6650079b77c1","ios":"levelo://app?vid=96d4f170-fb65-4bc1-a373-6650079b77c1"},"vehicle_type_id":"4","last_reported":1722539184,"current_range_meters":0,"station_id":"ce4bh512rcd13ifvqe2g","pricing_plan_id":"cebpf4jnsgd1na2vs0mg"},{"bike_id":"9d57a451-0fe6-40b8-ad88-3cc2dd719d7a","system_id":"levelo_inurba_marseille","lat":43.289741,"lon":5.378306,"is_reserved":false,"is_disabled":false,"rental_uris":{"android":"levelo://app?vid=9d57a451-0fe6-40b8-ad88-3cc2dd719d7a","ios":"levelo://app?vid=9d57a451-0fe6-40b8-ad88-3cc2dd719d7a"},"vehicle_type_id":"4","last_reported":1722539184,"current_range_meters":23600,"station_id":"ce4bh9p2rcd13ifvqed0","pricing_plan_id":"cebpf4jnsgd1na2vs0mg"},{"bike_id":"c05d6f76-10ce-4435-9098-b54140895862","system_id":"levelo_inurba_marseille","lat":43.330165,"lon":5.390295,"is_reserved":false,"is_disabled":false,"rental_uris":{"android":"levelo://app?vid=c05d6f76-10ce-4435-9098-b54140895862","ios":"levelo://app?vid=c05d6f76-10ce-4435-9098-b54140895862"},"vehicle_type_id":"4","last_reported":1722539184,"current_range_meters":24800,"station_id":"ce4bhr92rcd13ifvqhrg","pricing_plan_id":"cebpf4jnsgd1na2vs0mg"},{"bike_id":"3cdb8321-b969-4010-9adc-bd1205883269","system_id":"levelo_inurba_marseille","lat":43.295169,"lon":5.390426,"is_reserved":false,"is_disabled":false,"rental_uris":{"android":"levelo://app?vid=3cdb8321-b969-4010-9adc-bd1205883269","ios":"levelo://app?vid=3cdb8321-b969-4010-9adc-bd1205883269"},"vehicle_type_id":"4","last_reported":1722539184,"current_range_meters":0,"station_id":"ce4bh3p2rcd13ifvqdp0","pricing_plan_id":"cebpf4jnsgd1na2vs0mg"},{"bike_id":"2183e254-4d37-461d-b9b8-71d7ab0747e5","system_id":"levelo_inurba_marseille","lat":43.330442,"lon":5.389148,"is_reserved":false,"is_disabled":false,"rental_uris":{"android":"levelo://app?vid=2183e254-4d37-461d-b9b8-71d7ab0747e5","ios":"levelo://app?vid=2183e254-4d37-461d-b9b8-71d7ab0747e5"},"vehicle_type_id":"4","last_reported":1722539184,"current_range_meters":7200,"station_id":"ce4bhr92rcd13ifvqhrg","pricing_plan_id":"cebpf4jnsgd1na2vs0mg"},