{"last_updated":1767107519,"ttl":60,"version":"2.2","data":{"bikes":[{"bike_id":"36e3ab74-d85b-46de-9904-53928a1da310","system_id":"levelo_inurba_marseille","lat":43.25673,"lon":5.40018,"is_reserved":false,"is_disabled":false,"rental_uris":{"android":"levelo://app?vid=36e3ab74-d85b-46de-9904-53928a1da310","ios":"levelo://app?vid=36e3ab74-d85b-46de-9904-53928a1da310"},"vehicle_type_id":"4","last_reported":1767107519,"current_range_meters":2800,"station_id":"","pricing_plan_id":"cebpf4jnsgd1na2vs0mg"},{"bike_id":"b8359eb8-309f-4919-a9d8-14bc8a289068","system_id":"levelo_inurba_marseille","lat":43.29845,"lon":5.381046,"is_reserved":false,"is_disabled":false,"rental_uris":{"android":"levelo://app?vid=b8359eb8-309f-4919-a9d8-14bc8a289068","ios":"levelo://app?vid=b8359eb8-309f-4919-a9d8-14bc8a289068"},"vehicle_type_id":"4","last_reported":1767107519,"current_range_meters":2800,"station_id":"","pricing_plan_id":"cebpf4jnsgd1na2vs0mg"},{"bike_id":"ad306d0c-1a48-471b-8a10-55b1befe9745","system_id":"levelo_inurba_marseille","lat":43.31063,"lon":5.36793,"is_reserved":false,"is_disabled":false,"rental_uris":{"android":"levelo://app?vid=ad306d0c-1a48-471b-8a10-55b1befe9745","ios":"levelo://app?vid=ad306d0c-1a48-471b-8a10-55b1befe9745"},"vehicle_type_id":"4","last_reported":1767107519,"current_range_meters":3200,"station_id":"","pricing_plan_id":"cebpf4jnsgd1na2vs0mg"},{"bike_id":"8f37114c-593f-49f9-8f0e-6087463eb609","system_id":"levelo_inurba_marseille","lat":43.29542,"lon":5.37501,"is_reserved":false,"is_disabled":false,"rental_uris":{"android":"levelo://app?vid=8f37114c-593f-49f9-8f0e-6087463eb609","ios":"levelo://app?vid=8f37114c-593f-49f9-8f0e-6087463eb609"},"vehicle_type_id":"4","last_reported":1767107519,"current_range_meters":3200,"station_id":"ce4bgkp2rcd13ifvqbmg","pricing_plan_id":"cebpf4jnsgd1na2vs0mg"},{"bike_id":"d6a449d9-67ef-4444-ae17-bd1e29b48728","system_id":"levelo_inurba_marseille","lat":43.285767,"lon":5.429835,"is_reserved":false,"is_disabled":false,"rental_uris":{"android":"levelo://app?vid=d6a449d9-67ef-4444-ae17-bd1e29b48728","ios":"levelo://app?vid=d6a449d9-67ef-4444-ae17-bd1e29b48728"},"vehicle_type_id":"4","last_reported":1767107519,"current_range_meters":3200,"station_id":"","pricing_plan_id":"cebpf4jnsgd1na2vs0mg"},{"bike_id":"93048769-87e7-4eb0-aa0f-a0d3819e2726","system_id":"levelo_inurba_marseille","lat":43.21741,"lon":5.34601,"is_reserved":false,"is_disabled":false,"rental_uris":{"android":"levelo://app?vid=93048769-87e7-4eb0-aa0f-a0d3819e2726","ios":"levelo://app?vid=93048769-87e7-4eb0-aa0f-a0d3819e2726"},"vehicle_type_id":"4","last_reported":1767107519,"current_range_meters":3200,"station_id":"st_cvj6r9ubvosntc0bgbag","pricing_plan_id":"cebpf4jnsgd1na2vs0mg"},{"bike_id":"fe32aaef-5caf-4ec3-a4e1-b42035cf8d08","system_id":"levelo_inurba_marseille","lat":43.26583,"lon":5.39978,"is_reserved":false,"is_disabled":false,"rental_uris":{"android":"levelo://app?vid=fe32aaef-5caf-4ec3-a4e1-b42035cf8d08","ios":"levelo://app?vid=fe32aaef-5caf-4ec3-a4e1-b42035cf8d08"},"vehicle_type_id":"4","last_reported":1767107519,"current_range_meters":3200,"station_id":"ce4bhk92rcd13ifvqgc0","pricing_plan_id":"cebpf4jnsgd1na2vs0mg"},{"bike_id":"724a9f40-99f5-4383-9bdf-06898f47d2ff","system_id":"levelo_inurba_marseille","lat":43.27371,"lon":5.42392,"is_reserved":false,"is_disabled":false,"rental_uris":{"android":"levelo://app?vid=724a9f40-99f5-4383-9bdf-06898f47d2ff","ios":"levelo://app?vid=724a9f40-99f5-4383-9bdf-06898f47d2ff"},"vehicle_type_id":"4","last_reported":1767107519,"current_range_meters":3600,"station_id":"","pricing_plan_id":"cebpf4jnsgd1na2vs0mg"},{"bike_id":"1c818977-717b-41f2-8fae-ce6b0c328c89","system_id":"levelo_inurba_marseille","lat":43.31202,"lon":5.36861,"is_reserved":false,"is_disabled":false,"rental_uris":{"android":"levelo://app?vid=1c818977-717b-41f2-8fae-ce6b0c328c89","ios":"levelo://app?vid=1c818977-717b-41f2-8fae-ce6b0c328c89"},"vehicle_type_id":"4","last_reported":1767107519,"current_range_meters":3600,"station_id":"ce4bgl92rcd13ifvqbq0","pricing_plan_id":"cebpf4jnsgd1na2vs0mg"},{"bike_id":"959f4659-d365-4ff3-8e93-16417568f80d","system_id":"levelo_inurba_marseille","lat":43.30068,"lon":5.38782,"is_reserved":false,"is_disabled":false,"rental_uris":{"android":"levelo://app?vid=959f4659-d365-4ff3-8e93-16417568f80d","ios":"levelo://app?vid=959f4659-d365-4ff3-8e93-16417568f80d"},"vehicle_type_id":"4","last_reported":1767107519,"current_range_meters":4000,"station_id":"","pricing_plan_id":"cebpf4jnsgd1na2vs0mg"},{"bike_id":"54c8f443-d67f-4946-a776-419f325e3b53","system_id":"levelo_inurba_marseille","lat":43.28547,"lon":5.38375,"is_reserved":false,"is_disabled":false,"rental_uris":{"android":"levelo://app?vid=54c8f443-d67f-4946-a776-419f325e3b53","ios":"levelo://app?vid=54c8f443-d67f-4946-a776-419f325e3b53"},"vehicle_type_id":"4","last_reported":1767107519,"current_range_meters":4000,"station_id":"","pricing_plan_id":"cebpf4jnsgd1na2vs0mg"},{"bike_id":"d0fb2d19-6671-4276-b906-79c736bb0a27","system_id":"levelo_inurba_marseille","lat":43.28348,"lon":5.38111,"is_reserved":false,"is_disabled":false,"rental_uris":{"android":"levelo://app?vid=d0fb2d19-6671-4276-b906-79c736bb0a27","ios":"levelo://app?vid=d0fb2d19-6671-4276-b906-79c736bb0a27"},"vehicle_type_id":"4","last_reported":1767107519,"current_range_meters":4000,"station_id":"ce4bh412rcd13ifvqdr0","pricing_plan_id":"cebpf4jnsgd1na2vs0mg"},{"bike_id":"5f32739f-7c2c-4183-8daa-26cf7935c82e","system_id":"levelo_inurba_marseille","lat":43.28486,"lon":5.38415,"is_reserved":false,"is_disabled":false,"rental_uris":{"android":"levelo://app?vid=5f32739f-7c2c-4183-8daa-26cf7935c82e","ios":"levelo://app?vid=5f32739f-7c2c-4183-8daa-26cf7935c82e"},"vehicle_type_id":"4","last_reported":1767107519,"current_range_meters":4000,"station_id":"ce4bh512rcd13ifvqe3g","pricing_plan_id":"cebpf4jnsgd1na2vs0mg"},{"bike_id":"f968e67c-8ab9-41b5-a044-bb12e6f82cc2","system_id":"levelo_inurba_marseille","lat":43.26216,"lon":5.3744,"is_reserved":false,"is_disabled":false,"rental_uris":{"android":"levelo://app?vid=f968e67c-8ab9-41b5-a044-bb12e6f82cc2","ios":"levelo://app?vid=f968e67c-8ab9-41b5-a044-bb12e6f82cc2"},"vehicle_type_id":"4","last_reported":1767107519,"current_range_meters":4000,"station_id":"ce4bhgp2rcd13ifvqfc0","pricing_plan_id":"cebpf4jnsgd1na2vs0mg"},{"bike_id":"93238dbe-7e18-4ff9-acc5-cf08ef47ac5a","system_id":"levelo_inurba_marseille","lat":43.27396,"lon":5.41539,"is_reserved":false,"is_disabled":false,"rental_uris":{"android":"levelo://app?vid=93238dbe-7e18-4ff9-acc5-cf08ef47ac5a","ios":"levelo://app?vid=93238dbe-7e18-4ff9-acc5-cf08ef47ac5a"},"vehicle_type_id":"4","last_reported":1767107519,"current_range_meters":4400,"station_id":"","pricing_plan_id":"cebpf4jnsgd1na2vs0mg"},{"bike_id":"febd3ac9-32b2-4f76-8834-a24ee451153a","system_id":"levelo_inurba_marseille","lat":43.323675,"lon":5.38883,"is_reserved":false,"is_disabled":false,"rental_uris":{"android":"levelo://app?vid=febd3ac9-32b2-4f76-8834-a24ee451153a","ios":"levelo://app?vid=febd3ac9-32b2-4f76-8834-a24ee451153a"},"vehicle_type_id":"4","last_reported":1767107519,"current_range_meters":4400,"station_id":"ce4bhqp2rcd13ifvqhog","pricing_plan_id":"cebpf4jnsgd1na2vs0mg"},{"bike_id":"49166d3a-7d57-41ae-b5e6-9a6cbabce031","system_id":"levelo_inurba_marseille","lat":43.29686,"lon":5.36771,"is_reserved":false,"is_disabled":false,"rental_uris":{"android":"levelo://app?vid=49166d3a-7d57-41ae-b5e6-9a6cbabce031","ios":"levelo://app?vid=49166d3a-7d57-41ae-b5e6-9a6cbabce031"},"vehicle_type_id":"4","last_reported":1767107519,"current_range_meters":4800,"station_id":"","pricing_plan_id":"cebpf4jnsgd1na2vs0mg"},{"bike_id":"b0fecc2b-ec8f-4434-ba08-eaae921361a2","system_id":"levelo_inurba_marseille","lat":43.24152,"lon":5.40898,"is_reserved":false,"is_disabled":false,"rental_uris":{"android":"levelo://app?vid=b0fecc2b-ec8f-4434-ba08-eaae921361a2","ios":"levelo://app?vid=b0fecc2b-ec8f-4434-ba08-eaae921361a2"},"vehicle_type_id":"4","last_reported":1767107519,"current_range_meters":4800,"station_id":"","pricing_plan_id":"cebpf4jnsgd1na2vs0mg"},{"bike_id":"5f717701-3264-42c7-8adf-9b519addc804","system_id":"levelo_inurba_marseille","lat":43.30218,"lon":5.39467,"is_reserved":false,"is_disabled":false,"rental_uris":{"android":"levelo://app?vid=5f717701-3264-42c7-8adf-9b519addc804","ios":"levelo://app?vid=5f717701-3264-42c7-8adf-9b519addc804"},"vehicle_type_id":"4","last_reported":1767107519,"current_range_meters":4800,"station_id":"ce4bh0p2rcd13ifvqd70","pricing_plan_id":"cebpf4jnsgd1na2vs0mg"},{"bike_id":"da7220f6-f33f-4374-97d3-ed917e090310","system_id":"levelo_inurba_marseille","lat":43.312179,"lon":5.368743,"is_reserved":false,"is_disabled":false,"rental_uris":{"android":"levelo://app?vid=da7220f6-f33f-4374-97d3-ed917e090310","ios":"levelo://app?vid=da7220f6-f33f-4374-97d3-ed917e090310"},"vehicle_type_id":"4","last_reported":1767107519,"current_range_meters":4800,"station_id":"ce4bgl92rcd13ifvqbq0","pricing_plan_id":"cebpf4jnsgd1na2vs0mg"},{"bike_id":"7451e2f1-97cc-4a6a-824e-1c725c74e9d6","system_id":"levelo_inurba_marseille","lat":43.29418,"lon":5.38081,"is_reserved":false,"is_disabled":false,"rental_uris":{"android":"levelo://app?vid=7451e2f1-97cc-4a6a-824e-1c725c74e9d6","ios":"levelo://app?vid=7451e2f1-97cc-4a6a-824e-1c725c74e9d6"},"vehicle_type_id":"4","last_reported":1767107519,"current_range_meters":5600,"station_id":"","pricing_plan_id":"cebpf4jnsgd1na2vs0mg"},{"bike_id":"b042021c-9ced-457b-8a11-dc9ac3802903","system_id":"levelo_inurba_marseille","lat":43.30427,"lon":5.39786,"is_reserved":false,"is_disabled":true,"rental_uris":{"android":"levelo://app?vid=b042021c-9ced-457b-8a11-dc9ac3802903","ios":"levelo://app?vid=b042021c-9ced-457b-8a11-dc9ac3802903"},"vehicle_type_id":"4","last_reported":1767107519,"current_range_meters":5600,"station_id":"ce4bh092rcd13ifvqd20","pricing_plan_id":"cebpf4jnsgd1na2vs0mg"},{"bike_id":"845a3d73-492d-454a-b68e-3f59baa8c25e","system_id":"levelo_inurba_marseille","lat":43.29535,"lon":5.38541,"is_reserved":false,"is_disabled":false,"rental_uris":{"android":"levelo://app?vid=845a3d73-492d-454a-b68e-3f59baa8c25e","ios":"levelo://app?vid=845a3d73-492d-454a-b68e-3f59baa8c25e"},"vehicle_type_id":"4","last_reported":1767107519,"current_range_meters":5600,"station_id":"ce4bgih2rcd13ifvqba0","pricing_plan_id":"cebpf4jnsgd1na2vs0mg"},{"bike_id":"056109e4-7d33-4f55-bed7-22f13c21b637","system_id":"levelo_inurba_marseille","lat":43.337444,"lon":5.374475,"is_reserved":false,"is_disabled":true,"rental_uris":{"android":"levelo://app?vid=056109e4-7d33-4f55-bed7-22f13c21b637","ios":"levelo://app?vid=056109e4-7d33-4f55-bed7-22f13c21b637"},"vehicle_type_id":"4","last_reported":1767107519,"current_range_meters":5600,"station_id":"","pricing_plan_id":"cebpf4jnsgd1na2vs0mg"},{"bike_id":"08f4624a-a23d-4738-b794-a8bd53bfd7e8","system_id":"levelo_inurba_marseille","lat":43.29952,"lon":5.37872,"is_reserved":false,"is_disabled":false,"rental_uris":{"android":"levelo://app?vid=08f4624a-a23d-4738-b794-a8bd53bfd7e8","ios":"levelo://app?vid=08f4624a-a23d-4738-b794-a8bd53bfd7e8"},"vehicle_type_id":"4","last_reported":1767107519,"current_range_meters":6000,"station_id":"","pricing_plan_id":"cebpf4jnsgd1na2vs0mg"},{"bike_id":"596c9b3b-bd08-4237-a80d-9ed209e66871","system_id":"levelo_inurba_marseille","lat":43.28863,"lon":5.42512,"is_reserved":false,"is_disabled":false,"rental_uris":{"android":"levelo://app?vid=596c9b3b-bd08-4237-a80d-9ed209e66871","ios":"levelo://app?vid=596c9b3b-bd08-4237-a80d-9ed209e66871"},"vehicle_type_id":"4","last_reported":1767107519,"current_range_meters":6000,"station_id":"st_d3b462108ojc7389ooeg","pricing_plan_id":"cebpf4jnsgd1na2vs0mg"},{"bike_id":"08a8efe0-5c96-44cb-b8a5-fcb570b994b5","system_id":"levelo_inurba_marseille","lat":43.3015,"lon":5.39863,"is_reserved":false,"is_disabled":false,"rental_uris":{"android":"levelo://app?vid=08a8efe0-5c96-44cb-b8a5-fcb570b994b5","ios":"levelo://app?vid=08a8efe0-5c96-44cb-b8a5-fcb570b994b5"},"vehicle_type_id":"4","last_reported":1767107519,"current_range_meters":6000,"station_id":"ce4bh0h2rcd13ifvqd40","pricing_plan_id":"cebpf4jnsgd1na2vs0mg"},{"bike_id":"823966f8-03dd-4cfc-a62e-7bb24dcd9f0e","system_id":"levelo_inurba_marseille","lat":43.22525,"lon":5.34848,"is_reserved":false,"is_disabled":false,"rental_uris":{"android":"levelo://app?vid=823966f8-03dd-4cfc-a62e-7bb24dcd9f0e","ios":"levelo://app?vid=823966f8-03dd-4cfc-a62e-7bb24dcd9f0e"},"vehicle_type_id":"4","last_reported":1767107519,"current_range_meters":6000,"station_id":"","pricing_plan_id":"cebpf4jnsgd1na2vs0mg"},{"bike_id":"32541f6a-1d2c-44c2-a392-06055eaf1598","system_id":"levelo_inurba_marseille","lat":43.26228,"lon":5.41623,"is_reserved":false,"is_disabled":false,"rental_uris":{"android":"levelo://app?vid=32541f6a-1d2c-44c2-a392-06055eaf1598","ios":"levelo://app?vid=32541f6a-1d2c-44c2-a392-06055eaf1598"},"vehicle_type_id":"4","last_reported":1767107519,"current_range_meters":6000,"station_id":"","pricing_plan_id":"cebpf4jnsgd1na2vs0mg"},{"bike_id":"8ed0aaee-94a4-4a16-a923-e8b24a7704a6","system_id":"levelo_inurba_marseille","lat":43.28869,"lon":5.42507,"is_reserved":false,"is_disabled":false,"rental_uris":{"android":"levelo://app?vid=8ed0aaee-94a4-4a16-a923-e8b24a7704a6","ios":"levelo://app?vid=8ed0aaee-94a4-4a16-a923-e8b24a7704a6"},"vehicle_type_id":"4","last_reported":1767107519,"current_range_meters":6000,"station_id":"st_d3b462108ojc7389ooeg","pricing_plan_id":"cebpf4jnsgd1na2vs0mg"},{"bike_id":"b53daecf-4a80-4339-9407-d7035afbbf4b","system_id":"levelo_inurba_marseille","lat":43.28715,"lon":5.360854,"is_reserved":false,"is_disabled":false,"rental_uris":{"android":"levelo://app?vid=b53daecf-4a80-4339-9407-d7035afbbf4b","ios":"levelo://app?vid=b53daecf-4a80-4339-9407-d7035afbbf4b"},"vehicle_type_id":"4","last_reported":1767107519,"current_range_meters":6400,"station_id":"cki0cbj6b192h4jlfktg","pricing_plan_id":"cebpf4jnsgd1na2vs0mg"},{"bike_id":"a5390c1b-8ddc-4e56-baf4-66b1fe2b384c","system_id":"levelo_inurba_marseille","lat":43.28874,"lon":5.42528,"is_reserved":false,"is_disabled":false,"rental_uris":{"android":"levelo://app?vid=a5390c1b-8ddc-4e56-baf4-66b1fe2b384c","ios":"levelo://app?vid=a5390c1b-8ddc-4e56-baf4-66b1fe2b384c"},"vehicle_type_id":"4","last_reported":1767107519,"current_range_meters":6400,"station_id":"st_d3b462108ojc7389ooeg","pricing_plan_id":"cebpf4jnsgd1na2vs0mg"},{"bike_id":"f1e029ec-966a-4c18-90a6-6313298321ec","system_id":"levelo_inurba_marseille","lat":43.24224,"lon":5.39153,"is_reserved":false,"is_disabled":false,"rental_uris":{"android":"levelo://app?vid=f1e029ec-966a-4c18-90a6-6313298321ec","ios":"levelo://app?vid=f1e029ec-966a-4c18-90a6-6313298321ec"},"vehicle_type_id":"4","last_reported":1767107519,"current_range_meters":6400,"station_id":"","pricing_plan_id":"cebpf4jnsgd1na2vs0mg"},{"bike_id":"1b98c6d3-988a-40e8-a138-836b264a962b","system_id":"levelo_inurba_marseille","lat":43.32331,"lon":5.36678,"is_reserved":false,"is_disabled":false,"rental_uris":{"android":"levelo://app?vid=1b98c6d3-988a-40e8-a138-836b264a962b","ios":"levelo://app?vid=1b98c6d3-988a-40e8-a138-836b264a962b"},"vehicle_type_id":"4","last_reported":1767107519,"current_range_meters":6400,"station_id":"","pricing_plan_id":"cebpf4jnsgd1na2vs0mg"},{"bike_id":"85f80c36-b01d-4148-8a0f-5ed00798dda8","system_id":"levelo_inurba_marseille","lat":43.301128,"lon":5.364783,"is_reserved":false,"is_disabled":false,"rental_uris":{"android":"levelo://app?vid=85f80c36-b01d-4148-8a0f-5ed00798dda8","ios":"levelo://app?vid=85f80c36-b01d-4148-8a0f-5ed00798dda8"},"vehicle_type_id":"4","last_reported":1767107519,"current_range_meters":6400,"station_id":"","pricing_plan_id":"cebpf4jnsgd1na2vs0mg"},{"bike_id":"0b770a16-7894-4880-ac15-6ead301af74a","system_id":"levelo_inurba_marseille","lat":43.28264,"lon":5.3505,"is_reserved":false,"is_disabled":false,"rental_uris":{"android":"levelo://app?vid=0b770a16-7894-4880-ac15-6ead301af74a","ios":"levelo://app?vid=0b770a16-7894-4880-ac15-6ead301af74a"},"vehicle_type_id":"4","last_reported":1767107519,"current_range_meters":6400,"station_id":"ce4bhbp2rcd13ifvqerg","pricing_plan_id":"cebpf4jnsgd1na2vs0mg"},{"bike_id":"51390b07-fed5-4622-a9b2-8ecff70dd1a1","system_id":"levelo_inurba_marseille","lat":43.29797,"lon":5.38094,"is_reserved":false,"is_disabled":false,"rental_uris":{"android":"levelo://app?vid=51390b07-fed5-4622-a9b2-8ecff70dd1a1","ios":"levelo://app?vid=51390b07-fed5-4622-a9b2-8ecff70dd1a1"},"vehicle_type_id":"4","last_reported":1767107519,"current_range_meters":6800,"station_id":"ce4bgip2rcd13ifvqbb0","pricing_plan_id":"cebpf4jnsgd1na2vs0mg"},{"bike_id":"64b34d26-aa37-4813-970c-928f51a94668","system_id":"levelo_inurba_marseille","lat":43.28977,"lon":5.35498,"is_reserved":false,"is_disabled":false,"rental_uris":{"android":"levelo://app?vid=64b34d26-aa37-4813-970c-928f51a94668","ios":"levelo://app?vid=64b34d26-aa37-4813-970c-928f51a94668"},"vehicle_type_id":"4","last_reported":1767107519,"current_range_meters":6800,"station_id":"","pricing_plan_id":"cebpf4jnsgd1na2vs0mg"},{"bike_id":"1ff7cdb3-5912-4ffb-9462-33eba038b037","system_id":"levelo_inurba_marseille","lat":43.32656,"lon":5.40995,"is_reserved":false,"is_disabled":false,"rental_uris":{"android":"levelo://app?vid=1ff7cdb3-5912-4ffb-9462-33eba038b037","ios":"levelo://app?vid=1ff7cdb3-5912-4ffb-9462-33eba038b037"},"vehicle_type_id":"4","last_reported":1767107519,"current_range_meters":6800,"station_id":"ce4bhpp2rcd13ifvqhgg","pricing_plan_id":"cebpf4jnsgd1na2vs0mg"},{"bike_id":"6fea47af-e6a5-4c7f-9d2a-795c72191d82","system_id":"levelo_inurba_marseille","lat":43.2859,"lon":5.39502,"is_reserved":false,"is_disabled":false,"rental_uris":{"android":"levelo://app?vid=6fea47af-e6a5-4c7f-9d2a-795c72191d82","ios":"levelo://app?vid=6fea47af-e6a5-4c7f-9d2a-795c72191d82"},"vehicle_type_id":"4","last_reported":1767107519,"current_range_meters":7200,"station_id":"ce4bh292rcd13ifvqdg0","pricing_plan_id":"cebpf4jnsgd1na2vs0mg"},{"bike_id":"2d7a0ed0-372a-4cd3-9a27-e9d1f9e72325","system_id":"levelo_inurba_marseille","lat":43.28914,"lon":5.35953,"is_reserved":false,"is_disabled":false,"rental_uris":{"android":"levelo://app?vid=2d7a0ed0-372a-4cd3-9a27-e9d1f9e72325","ios":"levelo://app?vid=2d7a0ed0-372a-4cd3-9a27-e9d1f9e72325"},"vehicle_type_id":"4","last_reported":1767107519,"current_range_meters":7200,"station_id":"","pricing_plan_id":"cebpf4jnsgd1na2vs0mg"},{"bike_id":"c144adb8-946d-4a60-9739-bd28e99b9f29","system_id":"levelo_inurba_marseille","lat":43.28552,"lon":5.44105,"is_reserved":false,"is_disabled":false,"rental_uris":{"android":"levelo://app?vid=c144adb8-946d-4a60-9739-bd28e99b9f29","ios":"levelo://app?vid=c144adb8-946d-4a60-9739-bd28e99b9f29"},"vehicle_type_id":"4","last_reported":1767107519,"current_range_meters":7200,"station_id":"st_d3j3df2ikq2c7380ej80","pricing_plan_id":"cebpf4jnsgd1na2vs0mg"},{"bike_id":"0a62435e-a1a1-4faf-b848-03bd53df937d","system_id":"levelo_inurba_marseille","lat":43.29863,"lon":5.3788,"is_reserved":false,"is_disabled":false,"rental_uris":{"android":"levelo://app?vid=0a62435e-a1a1-4faf-b848-03bd53df937d","ios":"levelo://app?vid=0a62435e-a1a1-4faf-b848-03bd53df937d"},"vehicle_type_id":"4","last_reported":1767107519,"current_range_meters":7200,"station_id":"","pricing_plan_id":"cebpf4jnsgd1na2vs0mg"},{"bike_id":"6430d914-0a21-4065-b1bd-22ff590b6d10","system_id":"levelo_inurba_marseille","lat":43.28874,"lon":5.42519,"is_reserved":false,"is_disabled":false,"rental_uris":{"android":"levelo://app?vid=6430d914-0a21-4065-b1bd-22ff590b6d10","ios":"levelo://app?vid=6430d914-0a21-4065-b1bd-22ff590b6d10"},"vehicle_type_id":"4","last_reported":1767107519,"current_range_meters":8000,"station_id":"st_d3b462108ojc7389ooeg","pricing_plan_id":"cebpf4jnsgd1na2vs0mg"},{"bike_id":"fdf07b73-d9ee-4799-ae3a-513605fdd0be","system_id":"levelo_inurba_marseille","lat":43.27208,"lon":5.391816,"is_reserved":false,"is_disabled":false,"rental_uris":{"android":"levelo://app?vid=fdf07b73-d9ee-4799-ae3a-513605fdd0be","ios":"levelo://app?vid=fdf07b73-d9ee-4799-ae3a-513605fdd0be"},"vehicle_type_id":"4","last_reported":1767107519,"current_range_meters":8000,"station_id":"ce4bhhp2rcd13ifvqfm0","pricing_plan_id":"cebpf4jnsgd1na2vs0mg"},{"bike_id":"1e1ede53-a142-4b2c-87d9-c1cf1fd66ff4","system_id":"levelo_inurba_marseille","lat":43.31315,"lon":5.38185,"is_reserved":false,"is_disabled":false,"rental_uris":{"android":"levelo://app?vid=1e1ede53-a142-4b2c-87d9-c1cf1fd66ff4","ios":"levelo://app?vid=1e1ede53-a142-4b2c-87d9-c1cf1fd66ff4"},"vehicle_type_id":"4","last_reported":1767107519,"current_range_meters":8000,"station_id":"","pricing_plan_id":"cebpf4jnsgd1na2vs0mg"},{"bike_id":"59aab69d-aa14-4a71-8d9b-0aa143ba58f2","system_id":"levelo_inurba_marseille","lat":43.28552,"lon":5.44093,"is_reserved":false,"is_disabled":true,"rental_uris":{"android":"levelo://app?vid=59aab69d-aa14-4a71-8d9b-0aa143ba58f2","ios":"levelo://app?vid=59aab69d-aa14-4a71-8d9b-0aa143ba58f2"},"vehicle_type_id":"4","last_reported":1767107519,"current_range_meters":8000,"station_id":"st_d3j3df2ikq2c7380ej80","pricing_plan_id":"cebpf4jnsgd1na2vs0mg"},{"bike_id":"7593e315-5a7b-48b3-a4b0-25dd29af6ee8","system_id":"levelo_inurba_marseille","lat":43.29642,"lon":5.37733,"is_reserved":false,"is_disabled":false,"rental_uris":{"android":"levelo://app?vid=7593e315-5a7b-48b3-a4b0-25dd29af6ee8","ios":"levelo://app?vid=7593e315-5a7b-48b3-a4b0-25dd29af6ee8"},"vehicle_type_id":"4","last_reported":1767107519,"current_range_meters":8000,"station_id":"ce4bgi92rcd13ifvqb90","pricing_plan_id":"cebpf4jnsgd1na2vs0mg"},{"bike_id":"4a146157-4985-4654-a100-518651da7b9d","system_id":"levelo_inurba_marseille","lat":43.28851,"lon":5.39314,"is_reserved":false,"is_disabled":false,"rental_uris":{"android":"levelo://app?vid=4a146157-4985-4654-a100-518651da7b9d","ios":"levelo://app?vid=4a146157-4985-4654-a100-518651da7b9d"},"vehicle_type_id":"4","last_reported":1767107519,"current_range_meters":8000,"station_id":"ce4bh2p2rcd13ifvqdi0","pricing_plan_id":"cebpf4jnsgd1na2vs0mg"},{"bike_id":"02d20062-9731-4cd9-8290-c33eba21eec4","system_id":"levelo_inurba_marseille","lat":43.28164,"lon":5.42652,"is_reserved":false,"is_disabled":false,"rental_uris":{"android":"levelo://app?vid=02d20062-9731-4cd9-8290-c33eba21eec4","ios":"levelo://app?vid=02d20062-9731-4cd9-8290-c33eba21eec4"},"vehicle_type_id":"4","last_reported":1767107519,"current_range_meters":8000,"station_id":"ce4bhnh2rcd13ifvqgug","pricing_plan_id":"cebpf4jnsgd1na2vs0mg"},{"bike_id":"8cd8286c-2dd8-41ad-b181-1afd615d6e0d","system_id":"levelo_inurba_marseille","lat":43.28588,"lon":5.38356,"is_reserved":false,"is_disabled":false,"rental_uris":{"android":"levelo://app?vid=8cd8286c-2dd8-41ad-b181-1afd615d6e0d","ios":"levelo://app?vid=8cd8286c-2dd8-41ad-b181-1afd615d6e0d"},"vehicle_type_id":"4","last_reported":1767107519,"current_range_meters":8400,"station_id":"","pricing_plan_id":"cebpf4jnsgd1na2vs0mg"},{"bike_id":"c65a04fc-6684-4572-887c-68a3ed09a35f","system_id":"levelo_inurba_marseille","lat":43.29632,"lon":5.40601,"is_reserved":false,"is_disabled":false,"rental_uris":{"android":"levelo://app?vid=c65a04fc-6684-4572-887c-68a3ed09a35f","ios":"levelo://app?vid=c65a04fc-6684-4572-887c-68a3ed09a35f"},"vehicle_type_id":"4","last_reported":1767107519,"current_range_meters":8400,"station_id":"ce4bh0h2rcd13ifvqd60","pricing_plan_id":"cebpf4jnsgd1na2vs0mg"},{"bike_id":"1b6f668e-8a35-42f6-ad7f-89dd43d77cea","system_id":"levelo_inurba_marseille","lat":43.33541,"lon":5.37469,"is_reserved":false,"is_disabled":false,"rental_uris":{"android":"levelo://app?vid=1b6f668e-8a35-42f6-ad7f-89dd43d77cea","ios":"levelo://app?vid=1b6f668e-8a35-42f6-ad7f-89dd43d77cea"},"vehicle_type_id":"4","last_reported":1767107519,"current_range_meters":8400,"station_id":"st_d46tts09ee8s73dlu43g","pricing_plan_id":"cebpf4jnsgd1na2vs0mg"},{"bike_id":"1dd2c077-d7fa-43b2-a55d-f6335f7bc478","system_id":"levelo_inurba_marseille","lat":43.296907,"lon":5.372922,"is_reserved":false,"is_disabled":false,"rental_uris":{"android":"levelo://app?vid=1dd2c077-d7fa-43b2-a55d-f6335f7bc478","ios":"levelo://app?vid=1dd2c077-d7fa-43b2-a55d-f6335f7bc478"},"vehicle_type_id":"4","last_reported":1767107519,"current_range_meters":8400,"station_id":"ce4bgk12rcd13ifvqbj0","pricing_plan_id":"cebpf4jnsgd1na2vs0mg"},{"bike_id":"12c38b32-5974-4311-910a-572392b8079a","system_id":"levelo_inurba_marseille","lat":43.280422,"lon":5.350876,"is_reserved":false,"is_disabled":false,"rental_uris":{"android":"levelo://app?vid=12c38b32-5974-4311-910a-572392b8079a","ios":"levelo://app?vid=12c38b32-5974-4311-910a-572392b8079a"},"vehicle_type_id":"4","last_reported":1767107519,"current_range_meters":8400,"station_id":"","pricing_plan_id":"cebpf4jnsgd1na2vs0mg"},{"bike_id":"7a88ce10-60bc-400e-beb4-546427e000bd","system_id":"levelo_inurba_marseille","lat":43.280805,"lon":5.396514,"is_reserved":false,"is_disabled":false,"rental_uris":{"android":"levelo://app?vid=7a88ce10-60bc-400e-beb4-546427e000bd","ios":"levelo://app?vid=7a88ce10-60bc-400e-beb4-546427e000bd"},"vehicle_type_id":"4","last_reported":1767107519,"current_range_meters":8400,"station_id":"ce4bho12rcd13ifvqh2g","pricing_plan_id":"cebpf4jnsgd1na2vs0mg"},{"bike_id":"d3b9e379-e0f1-4e3a-a03f-5f89a403ad58","system_id":"levelo_inurba_marseille","lat":43.32358,"lon":5.36744,"is_reserved":false,"is_disabled":false,"rental_uris":{"android":"levelo://app?vid=d3b9e379-e0f1-4e3a-a03f-5f89a403ad58","ios":"levelo://app?vid=d3b9e379-e0f1-4e3a-a03f-5f89a403ad58"},"vehicle_type_id":"4","last_reported":1767107519,"current_range_meters":8400,"station_id":"ce4bhsh2rcd13ifvqi2g","pricing_plan_id":"cebpf4jnsgd1na2vs0mg"},{"bike_id":"8964ca2c-6312-47f7-8f23-0d9ca48ee7a5","system_id":"levelo_inurba_marseille","lat":43.29256,"lon":5.38438,"is_reserved":false,"is_disabled":false,"rental_uris":{"android":"levelo://app?vid=8964ca2c-6312-47f7-8f23-0d9ca48ee7a5","ios":"levelo://app?vid=8964ca2c-6312-47f7-8f23-0d9ca48ee7a5"},"vehicle_type_id":"4","last_reported":1767107519,"current_range_meters":8400,"station_id":"ce4bh692rcd13ifvqea0","pricing_plan_id":"cebpf4jnsgd1na2vs0mg"},{"bike_id":"7cd1d4a7-75eb-4fac-b230-251dbd254a78","system_id":"levelo_inurba_marseille","lat":43.317216,"lon":5.423921,"is_reserved":false,"is_disabled":false,"rental_uris":{"android":"levelo://app?vid=7cd1d4a7-75eb-4fac-b230-251dbd254a78","ios":"levelo://app?vid=7cd1d4a7-75eb-4fac-b230-251dbd254a78"},"vehicle_type_id":"4","last_reported":1767107519,"current_range_meters":8800,"station_id":"ce4bhp92rcd13ifvqhbg","pricing_plan_id":"cebpf4jnsgd1na2vs0mg"},{"bike_id":"258d01a8-b23e-4cdf-af24-6ecbb372e1fe","system_id":"levelo_inurba_marseille","lat":43.23798,"lon":5.36638,"is_reserved":false,"is_disabled":false,"rental_uris":{"android":"levelo://app?vid=258d01a8-b23e-4cdf-af24-6ecbb372e1fe","ios":"levelo://app?vid=258d01a8-b23e-4cdf-af24-6ecbb372e1fe"},"vehicle_type_id":"4","last_reported":1767107519,"current_range_meters":8800,"station_id":"st_d3nk18o9ro0c73en2l3g","pricing_plan_id":"cebpf4jnsgd1na2vs0mg"},{"bike_id":"ca602a15-f758-4526-adca-7aea2d9f4b29","system_id":"levelo_inurba_marseille","lat":43.26569,"lon":5.38997,"is_reserved":false,"is_disabled":false,"rental_uris":{"android":"levelo://app?vid=ca602a15-f758-4526-adca-7aea2d9f4b29","ios":"levelo://app?vid=ca602a15-f758-4526-adca-7aea2d9f4b29"},"vehicle_type_id":"4","last_reported":1767107519,"current_range_meters":8800,"station_id":"ce4bhe12rcd13ifvqf30","pricing_plan_id":"cebpf4jnsgd1na2vs0mg"},{"bike_id":"fc4e120b-0726-4965-931e-81ab0132f7d7","system_id":"levelo_inurba_marseille","lat":43.28421,"lon":5.34973,"is_reserved":false,"is_disabled":false,"rental_uris":{"android":"levelo://app?vid=fc4e120b-0726-4965-931e-81ab0132f7d7","ios":"levelo://app?vid=fc4e120b-0726-4965-931e-81ab0132f7d7"},"vehicle_type_id":"4","last_reported":1767107519,"current_range_meters":9200,"station_id":"ce4bhbh2rcd13ifvqepg","pricing_plan_id":"cebpf4jnsgd1na2vs0mg"},{"bike_id":"3129393a-6661-4dee-9f01-623c94670254","system_id":"levelo_inurba_marseille","lat":43.282654,"lon":5.350649,"is_reserved":false,"is_disabled":false,"rental_uris":{"android":"levelo://app?vid=3129393a-6661-4dee-9f01-623c94670254","ios":"levelo://app?vid=3129393a-6661-4dee-9f01-623c94670254"},"vehicle_type_id":"4","last_reported":1767107519,"current_range_meters":9200,"station_id":"ce4bhbp2rcd13ifvqerg","pricing_plan_id":"cebpf4jnsgd1na2vs0mg"},{"bike_id":"66cdfaf2-c1b7-43dc-a08c-def72edb2ce6","system_id":"levelo_inurba_marseille","lat":43.29278,"lon":5.40109,"is_reserved":false,"is_disabled":false,"rental_uris":{"android":"levelo://app?vid=66cdfaf2-c1b7-43dc-a08c-def72edb2ce6","ios":"levelo://app?vid=66cdfaf2-c1b7-43dc-a08c-def72edb2ce6"},"vehicle_type_id":"4","last_reported":1767107519,"current_range_meters":9200,"station_id":"ce4bh312rcd13ifvqdk0","pricing_plan_id":"cebpf4jnsgd1na2vs0mg"},{"bike_id":"1f986bde-e823-4547-a8eb-43be952db802","system_id":"levelo_inurba_marseille","lat":43.29442,"lon":5.37288,"is_reserved":false,"is_disabled":false,"rental_uris":{"android":"levelo://app?vid=1f986bde-e823-4547-a8eb-43be952db802","ios":"levelo://app?vid=1f986bde-e823-4547-a8eb-43be952db802"},"vehicle_type_id":"4","last_reported":1767107519,"current_range_meters":9200,"station_id":"","pricing_plan_id":"cebpf4jnsgd1na2vs0mg"},{"bike_id":"de3eae33-1977-4291-82a7-4b5519ab9e98","system_id":"levelo_inurba_marseille","lat":43.22936,"lon":5.35377,"is_reserved":false,"is_disabled":false,"rental_uris":{"android":"levelo://app?vid=de3eae33-1977-4291-82a7-4b5519ab9e98","ios":"levelo://app?vid=de3eae33-1977-4291-82a7-4b5519ab9e98"},"vehicle_type_id":"4","last_reported":1767107519,"current_range_meters":9200,"station_id":"cpo3532slgdg3j2ikp40","pricing_plan_id":"cebpf4jnsgd1na2vs0mg"},{"bike_id":"e54d4104-9e89-4bb8-b60e-d3755b992e4f","system_id":"levelo_inurba_marseille","lat":43.28572,"lon":5.44122,"is_reserved":false,"is_disabled":false,"rental_uris":{"android":"levelo://app?vid=e54d4104-9e89-4bb8-b60e-d3755b992e4f","ios":"levelo://app?vid=e54d4104-9e89-4bb8-b60e-d3755b992e4f"},"vehicle_type_id":"4","last_reported":1767107519,"current_range_meters":9200,"station_id":"st_d3j3df2ikq2c7380ej80","pricing_plan_id":"cebpf4jnsgd1na2vs0mg"},{"bike_id":"708c1ebd-8ec3-4b8d-b900-9420d21113f1","system_id":"levelo_inurba_marseille","lat":43.27113,"lon":5.43203,"is_reserved":false,"is_disabled":false,"rental_uris":{"android":"levelo://app?vid=708c1ebd-8ec3-4b8d-b900-9420d21113f1","ios":"levelo://app?vid=708c1ebd-8ec3-4b8d-b900-9420d21113f1"},"vehicle_type_id":"4","last_reported":1767107519,"current_range_meters":9200,"station_id":"","pricing_plan_id":"cebpf4jnsgd1na2vs0mg"},{"bike_id":"b05640fc-cf78-4e6b-bafb-c8aa2abc6f80","system_id":"levelo_inurba_marseille","lat":43.273975,"lon":5.390468,"is_reserved":false,"is_disabled":false,"rental_uris":{"android":"levelo://app?vid=b05640fc-cf78-4e6b-bafb-c8aa2abc6f80","ios":"levelo://app?vid=b05640fc-cf78-4e6b-bafb-c8aa2abc6f80"},"vehicle_type_id":"4","last_reported":1767107519,"current_range_meters":9600,"station_id":"","pricing_plan_id":"cebpf4jnsgd1na2vs0mg"},{"bike_id":"ca871f30-0b0c-4661-97a2-3a92a33862a8","system_id":"levelo_inurba_marseille","lat":43.2937,"lon":5.37213,"is_reserved":false,"is_disabled":false,"rental_uris":{"android":"levelo://app?vid=ca871f30-0b0c-4661-97a2-3a92a33862a8","ios":"levelo://app?vid=ca871f30-0b0c-4661-97a2-3a92a33862a8"},"vehicle_type_id":"4","last_reported":1767107519,"current_range_meters":9600,"station_id":"","pricing_plan_id":"cebpf4jnsgd1na2vs0mg"},{"bike_id":"2703b803-944c-4f90-b5fc-f9ddd565456b","system_id":"levelo_inurba_marseille","lat":43.27924,"lon":5.3957,"is_reserved":false,"is_disabled":true,"rental_uris":{"android":"levelo://app?vid=2703b803-944c-4f90-b5fc-f9ddd565456b","ios":"levelo://app?vid=2703b803-944c-4f90-b5fc-f9ddd565456b"},"vehicle_type_id":"4","last_reported":1767107519,"current_range_meters":10000,"station_id":"ce4bhf92rcd13ifvqf40","pricing_plan_id":"cebpf4jnsgd1na2vs0mg"},{"bike_id":"b639f9e6-c9da-4aaa-a454-ca004fdaff73","system_id":"levelo_inurba_marseille","lat":43.29373,"lon":5.37859,"is_reserved":false,"is_disabled":false,"rental_uris":{"android":"levelo://app?vid=b639f9e6-c9da-4aaa-a454-ca004fdaff73","ios":"levelo://app?vid=b639f9e6-c9da-4aaa-a454-ca004fdaff73"},"vehicle_type_id":"4","last_reported":1767107519,"current_range_meters":10000,"station_id":"ce4bgjh2rcd13ifvqbf0","pricing_plan_id":"cebpf4jnsgd1na2vs0mg"},{"bike_id":"23904288-d8db-496e-ac4f-fe2e23c85d61","system_id":"levelo_inurba_marseille","lat":43.29965,"lon":5.37613,"is_reserved":false,"is_disabled":false,"rental_uris":{"android":"levelo://app?vid=23904288-d8db-496e-ac4f-fe2e23c85d61","ios":"levelo://app?vid=23904288-d8db-496e-ac4f-fe2e23c85d61"},"vehicle_type_id":"4","last_reported":1767107519,"current_range_meters":10000,"station_id":"","pricing_plan_id":"cebpf4jnsgd1na2vs0mg"},{"bike_id":"3400d737-a32e-4dca-a00a-47ca201c9735","system_id":"levelo_inurba_marseille","lat":43.29545,"lon":5.42276,"is_reserved":false,"is_disabled":true,"rental_uris":{"android":"levelo://app?vid=3400d737-a32e-4dca-a00a-47ca201c9735","ios":"levelo://app?vid=3400d737-a32e-4dca-a00a-47ca201c9735"},"vehicle_type_id":"4","last_reported":1767107519,"current_range_meters":10000,"station_id":"ce4bhph2rcd13ifvqhdg","pricing_plan_id":"cebpf4jnsgd1na2vs0mg"},{"bike_id":"9eacbeda-139e-4ae2-b018-e1d0a7f55db8","system_id":"levelo_inurba_marseille","lat":43.26361,"lon":5.41073,"is_reserved":false,"is_disabled":false,"rental_uris":{"android":"levelo://app?vid=9eacbeda-139e-4ae2-b018-e1d0a7f55db8","ios":"levelo://app?vid=9eacbeda-139e-4ae2-b018-e1d0a7f55db8"},"vehicle_type_id":"4","last_reported":1767107519,"current_range_meters":10000,"station_id":"st_d4e5ca6na9uc73bfl5fg","pricing_plan_id":"cebpf4jnsgd1na2vs0mg"},{"bike_id":"72440ca5-59c8-46a3-b913-8b5d8a857de3","system_id":"levelo_inurba_marseille","lat":43.28709,"lon":5.37927,"is_reserved":false,"is_disabled":false,"rental_uris":{"android":"levelo://app?vid=72440ca5-59c8-46a3-b913-8b5d8a857de3","ios":"levelo://app?vid=72440ca5-59c8-46a3-b913-8b5d8a857de3"},"vehicle_type_id":"4","last_reported":1767107519,"current_range_meters":10800,"station_id":"ce4bh9p2rcd13ifvqec0","pricing_plan_id":"cebpf4jnsgd1na2vs0mg"},{"bike_id":"4dd2279e-ba48-4f3b-b6c2-c6a46b94d1bc","system_id":"levelo_inurba_marseille","lat":43.27954,"lon":5.38705,"is_reserved":false,"is_disabled":false,"rental_uris":{"android":"levelo://app?vid=4dd2279e-ba48-4f3b-b6c2-c6a46b94d1bc","ios":"levelo://app?vid=4dd2279e-ba48-4f3b-b6c2-c6a46b94d1bc"},"vehicle_type_id":"4","last_reported":1767107519,"current_range_meters":10800,"station_id":"ce4bhg12rcd13ifvqf80","pricing_plan_id":"cebpf4jnsgd1na2vs0mg"},{"bike_id":"487ac138-863a-4ea5-be0a-9d6a573e329b","system_id":"levelo_inurba_marseille","lat":43.28153,"lon":5.4265,"is_reserved":false,"is_disabled":false,"rental_uris":{"android":"levelo://app?vid=487ac138-863a-4ea5-be0a-9d6a573e329b","ios":"levelo://app?vid=487ac138-863a-4ea5-be0a-9d6a573e329b"},"vehicle_type_id":"4","last_reported":1767107519,"current_range_meters":10800,"station_id":"ce4bhnh2rcd13ifvqgug","pricing_plan_id":"cebpf4jnsgd1na2vs0mg"},{"bike_id":"fd730288-95bc-4682-8dc4-a5ea5fa11f2b","system_id":"levelo_inurba_marseille","lat":43.3255,"lon":5.41441,"is_reserved":false,"is_disabled":false,"rental_uris":{"android":"levelo://app?vid=fd730288-95bc-4682-8dc4-a5ea5fa11f2b","ios":"levelo://app?vid=fd730288-95bc-4682-8dc4-a5ea5fa11f2b"},"vehicle_type_id":"4","last_reported":1767107519,"current_range_meters":10800,"station_id":"ce4bhq12rcd13ifvqhhg","pricing_plan_id":"cebpf4jnsgd1na2vs0mg"},{"bike_id":"f277e881-e387-48ff-a273-4fc4fb63b2ae","system_id":"levelo_inurba_marseille","lat":43.27214,"lon":5.39192,"is_reserved":false,"is_disabled":false,"rental_uris":{"android":"levelo://app?vid=f277e881-e387-48ff-a273-4fc4fb63b2ae","ios":"levelo://app?vid=f277e881-e387-48ff-a273-4fc4fb63b2ae"},"vehicle_type_id":"4","last_reported":1767107519,"current_range_meters":10800,"station_id":"ce4bhhp2rcd13ifvqfm0","pricing_plan_id":"cebpf4jnsgd1na2vs0mg"},{"bike_id":"f77e4182-ff1d-419b-b8ca-32b1bdaa3383","system_id":"levelo_inurba_marseille","lat":43.29776,"lon":5.37101,"is_reserved":false,"is_disabled":false,"rental_uris":{"android":"levelo://app?vid=f77e4182-ff1d-419b-b8ca-32b1bdaa3383","ios":"levelo://app?vid=f77e4182-ff1d-419b-b8ca-32b1bdaa3383"},"vehicle_type_id":"4","last_reported":1767107519,"current_range_meters":10800,"station_id":"ce4bgop2rcd13ifvqc1g","pricing_plan_id":"cebpf4jnsgd1na2vs0mg"},{"bike_id":"dcf0cc9b-5919-4981-9884-ceb8b4d8d1cf","system_id":"levelo_inurba_marseille","lat":43.29789,"lon":5.38079,"is_reserved":false,"is_disabled":false,"rental_uris":{"android":"levelo://app?vid=dcf0cc9b-5919-4981-9884-ceb8b4d8d1cf","ios":"levelo://app?vid=dcf0cc9b-5919-4981-9884-ceb8b4d8d1cf"},"vehicle_type_id":"4","last_reported":1767107519,"current_range_meters":11200,"station_id":"ce4bgip2rcd13ifvqbb0","pricing_plan_id":"cebpf4jnsgd1na2vs0mg"},{"bike_id":"df59638d-d2ce-46c9-8792-19c18967ee40","system_id":"levelo_inurba_marseille","lat":43.23794,"lon":5.36638,"is_reserved":false,"is_disabled":false,"rental_uris":{"android":"levelo://app?vid=df59638d-d2ce-46c9-8792-19c18967ee40","ios":"levelo://app?vid=df59638d-d2ce-46c9-8792-19c18967ee40"},"vehicle_type_id":"4","last_reported":1767107519,"current_range_meters":11200,"station_id":"st_d3nk18o9ro0c73en2l3g","pricing_plan_id":"cebpf4jnsgd1na2vs0mg"},{"bike_id":"dc480675-2694-4c79-98e6-9182c8531252","system_id":"levelo_inurba_marseille","lat":43.26731,"lon":5.38269,"is_reserved":false,"is_disabled":false,"rental_uris":{"android":"levelo://app?vid=dc480675-2694-4c79-98e6-9182c8531252","ios":"levelo://app?vid=dc480675-2694-4c79-98e6-9182c8531252"},"vehicle_type_id":"4","last_reported":1767107519,"current_range_meters":11200,"station_id":"","pricing_plan_id":"cebpf4jnsgd1na2vs0mg"},{"bike_id":"13c6f779-0fa7-435d-8f91-e79ded009d19","system_id":"levelo_inurba_marseille","lat":43.29274,"lon":5.36855,"is_reserved":false,"is_disabled":false,"rental_uris":{"android":"levelo://app?vid=13c6f779-0fa7-435d-8f91-e79ded009d19","ios":"levelo://app?vid=13c6f779-0fa7-435d-8f91-e79ded009d19"},"vehicle_type_id":"4","last_reported":1767107519,"current_range_meters":11200,"station_id":"ce4bhbp2rcd13ifvqesg","pricing_plan_id":"cebpf4jnsgd1na2vs0mg"},{"bike_id":"a54de27d-a7d2-4bed-a88c-7cdb5d2da935","system_id":"levelo_inurba_marseille","lat":43.301808,"lon":5.366198,"is_reserved":false,"is_disabled":false,"rental_uris":{"android":"levelo://app?vid=a54de27d-a7d2-4bed-a88c-7cdb5d2da935","ios":"levelo://app?vid=a54de27d-a7d2-4bed-a88c-7cdb5d2da935"},"vehicle_type_id":"4","last_reported":1767107519,"current_range_meters":11200,"station_id":"ce4bgrh2rcd13ifvqc8g","pricing_plan_id":"cebpf4jnsgd1na2vs0mg"},{"bike_id":"1143eabc-e91b-41a6-8eaf-ee9abccf572b","system_id":"levelo_inurba_marseille","lat":43.31437,"lon":5.37497,"is_reserved":false,"is_disabled":false,"rental_uris":{"android":"levelo://app?vid=1143eabc-e91b-41a6-8eaf-ee9abccf572b","ios":"levelo://app?vid=1143eabc-e91b-41a6-8eaf-ee9abccf572b"},"vehicle_type_id":"4","last_reported":1767107519,"current_range_meters":11200,"station_id":"","pricing_plan_id":"cebpf4jnsgd1na2vs0mg"},{"bike_id":"37d20260-50bb-4984-9bc1-61b8e1b060fe","system_id":"levelo_inurba_marseille","lat":43.302144,"lon":5.394607,"is_reserved":false,"is_disabled":false,"rental_uris":{"android":"levelo://app?vid=37d20260-50bb-4984-9bc1-61b8e1b060fe","ios":"levelo://app?vid=37d20260-50bb-4984-9bc1-61b8e1b060fe"},"vehicle_type_id":"4","last_reported":1767107519,"current_range_meters":11200,"station_id":"","pricing_plan_id":"cebpf4jnsgd1na2vs0mg"},{"bike_id":"42cf1c2c-11bc-412c-9983-f3a97441ca6c","system_id":"levelo_inurba_marseille","lat":43.21206,"lon":5.35078,"is_reserved":false,"is_disabled":false,"rental_uris":{"android":"levelo://app?vid=42cf1c2c-11bc-412c-9983-f3a97441ca6c","ios":"levelo://app?vid=42cf1c2c-11bc-412c-9983-f3a97441ca6c"},"vehicle_type_id":"4","last_reported":1767107519,"current_range_meters":11200,"station_id":"st_cvj6sg6p6f1abm77japg","pricing_plan_id":"cebpf4jnsgd1na2vs0mg"},{"bike_id":"39a11058-2b53-44b5-82c9-0fef0f95b97d","system_id":"levelo_inurba_marseille","lat":43.2621,"lon":5.37441,"is_reserved":false,"is_disabled":false,"rental_uris":{"android":"levelo://app?vid=39a11058-2b53-44b5-82c9-0fef0f95b97d","ios":"levelo://app?vid=39a11058-2b53-44b5-82c9-0fef0f95b97d"},"vehicle_type_id":"4","last_reported":1767107519,"current_range_meters":11600,"station_id":"ce4bhgp2rcd13ifvqfc0","pricing_plan_id":"cebpf4jnsgd1na2vs0mg"},{"bike_id":"dce28840-1b59-4930-917a-12d88071d00f","system_id":"levelo_inurba_marseille","lat":43.28537,"lon":5.44097,"is_reserved":false,"is_disabled":false,"rental_uris":{"android":"levelo://app?vid=dce28840-1b59-4930-917a-12d88071d00f","ios":"levelo://app?vid=dce28840-1b59-4930-917a-12d88071d00f"},"vehicle_type_id":"4","last_reported":1767107519,"current_range_meters":11600,"station_id":"st_d3j3df2ikq2c7380ej80","pricing_plan_id":"cebpf4jnsgd1na2vs0mg"},{"bike_id":"99845526-4044-4e14-9d82-95d6704a08b7","system_id":"levelo_inurba_marseille","lat":43.29322,"lon":5.37177,"is_reserved":false,"is_disabled":false,"rental_uris":{"android":"levelo://app?vid=99845526-4044-4e14-9d82-95d6704a08b7","ios":"levelo://app?vid=99845526-4044-4e14-9d82-95d6704a08b7"},"vehicle_type_id":"4","last_reported":1767107519,"current_range_meters":11600,"station_id":"ce4bgh92rcd13ifvqb40","pricing_plan_id":"cebpf4jnsgd1na2vs0mg"},{"bike_id":"2f8fa22c-d842-49a6-9c44-a1071f1f6447","system_id":"levelo_inurba_marseille","lat":43.29263,"lon":5.38426,"is_reserved":false,"is_disabled":false,"rental_uris":{"android":"levelo://app?vid=2f8fa22c-d842-49a6-9c44-a1071f1f6447","ios":"levelo://app?vid=2f8fa22c-d842-49a6-9c44-a1071f1f6447"},"vehicle_type_id":"4","last_reported":1767107519,"current_range_meters":11600,"station_id":"ce4bh692rcd13ifvqea0","pricing_plan_id":"cebpf4jnsgd1na2vs0mg"},{"bike_id":"68f0d86a-8e17-46b1-9c4f-94728196fa18","system_id":"levelo_inurba_marseille","lat":43.316996,"lon":5.404747,"is_reserved":false,"is_disabled":false,"rental_uris":{"android":"levelo://app?vid=68f0d86a-8e17-46b1-9c4f-94728196fa18","ios":"levelo://app?vid=68f0d86a-8e17-46b1-9c4f-94728196fa18"},"vehicle_type_id":"4","last_reported":1767107519,"current_range_meters":11600,"station_id":"ce4bh012rcd13ifvqd00","pricing_plan_id":"cebpf4jnsgd1na2vs0mg"},{"bike_id":"ef7c300f-026c-4b02-8b75-5e5de9a9946e","system_id":"levelo_inurba_marseille","lat":43.29894,"lon":5.37474,"is_reserved":false,"is_disabled":false,"rental_uris":{"android":"levelo://app?vid=ef7c300f-026c-4b02-8b75-5e5de9a9946e","ios":"levelo://app?vid=ef7c300f-026c-4b02-8b75-5e5de9a9946e"},"vehicle_type_id":"4","last_reported":1767107519,"current_range_meters":11600,"station_id":"ce4bgjh2rcd13ifvqbg0","pricing_plan_id":"cebpf4jnsgd1na2vs0mg"},{"bike_id":"b3d23d3a-ef74-40ff-aab7-53d6bb88abc4","system_id":"levelo_inurba_marseille","lat":43.28078,"lon":5.39659,"is_reserved":false,"is_disabled":false,"rental_uris":{"android":"levelo://app?vid=b3d23d3a-ef74-40ff-aab7-53d6bb88abc4","ios":"levelo://app?vid=b3d23d3a-ef74-40ff-aab7-53d6bb88abc4"},"vehicle_type_id":"4","last_reported":1767107519,"current_range_meters":11600,"station_id":"ce4bho12rcd13ifvqh2g","pricing_plan_id":"cebpf4jnsgd1na2vs0mg"},{"bike_id":"f79e9370-b244-4e47-8665-e7c9aebb33a9","system_id":"levelo_inurba_marseille","lat":43.29537,"lon":5.37489,"is_reserved":false,"is_disabled":false,"rental_uris":{"android":"levelo://app?vid=f79e9370-b244-4e47-8665-e7c9aebb33a9","ios":"levelo://app?vid=f79e9370-b244-4e47-8665-e7c9aebb33a9"},"vehicle_type_id":"4","last_reported":1767107519,"current_range_meters":11600,"station_id":"ce4bgkp2rcd13ifvqbmg","pricing_plan_id":"cebpf4jnsgd1na2vs0mg"},{"bike_id":"ef8f5696-883e-4925-b43f-0720a8b5546b","system_id":"levelo_inurba_marseille","lat":43.238,"lon":5.36624,"is_reserved":false,"is_disabled":false,"rental_uris":{"android":"levelo://app?vid=ef8f5696-883e-4925-b43f-0720a8b5546b","ios":"levelo://app?vid=ef8f5696-883e-4925-b43f-0720a8b5546b"},"vehicle_type_id":"4","last_reported":1767107519,"current_range_meters":12000,"station_id":"st_d3nk18o9ro0c73en2l3g","pricing_plan_id":"cebpf4jnsgd1na2vs0mg"},{"bike_id":"17a28c46-0cb5-46be-8f2f-bebf874033a5","system_id":"levelo_inurba_marseille","lat":43.29788,"lon":5.38099,"is_reserved":false,"is_disabled":false,"rental_uris":{"android":"levelo://app?vid=17a28c46-0cb5-46be-8f2f-bebf874033a5","ios":"levelo://app?vid=17a28c46-0cb5-46be-8f2f-bebf874033a5"},"vehicle_type_id":"4","last_reported":1767107519,"current_range_meters":12000,"station_id":"ce4bgip2rcd13ifvqbb0","pricing_plan_id":"cebpf4jnsgd1na2vs0mg"},{"bike_id":"0f0fc6ed-82de-439d-993e-666cb650fe34","system_id":"levelo_inurba_marseille","lat":43.2378,"lon":5.36628,"is_reserved":false,"is_disabled":false,"rental_uris":{"android":"levelo://app?vid=0f0fc6ed-82de-439d-993e-666cb650fe34","ios":"levelo://app?vid=0f0fc6ed-82de-439d-993e-666cb650fe34"},"vehicle_type_id":"4","last_reported":1767107519,"current_range_meters":12000,"station_id":"st_d3nk18o9ro0c73en2l3g","pricing_plan_id":"cebpf4jnsgd1na2vs0mg"},{"bike_id":"6dd6d7de-0746-4ddc-be8f-e1ab3378009e","system_id":"levelo_inurba_marseille","lat":43.24174,"lon":5.36398,"is_reserved":false,"is_disabled":false,"rental_uris":{"android":"levelo://app?vid=6dd6d7de-0746-4ddc-be8f-e1ab3378009e","ios":"levelo://app?vid=6dd6d7de-0746-4ddc-be8f-e1ab3378009e"},"vehicle_type_id":"4","last_reported":1767107519,"current_range_meters":12000,"station_id":"cpo36qri1sfpv3e86is0","pricing_plan_id":"cebpf4jnsgd1na2vs0mg"},{"bike_id":"d4834f7c-8cec-4643-b38e-33ed31e9b71c","system_id":"levelo_inurba_marseille","lat":43.29563,"lon":5.37867,"is_reserved":false,"is_disabled":false,"rental_uris":{"android":"levelo://app?vid=d4834f7c-8cec-4643-b38e-33ed31e9b71c","ios":"levelo://app?vid=d4834f7c-8cec-4643-b38e-33ed31e9b71c"},"vehicle_type_id":"4","last_reported":1767107519,"current_range_meters":12000,"station_id":"","pricing_plan_id":"cebpf4jnsgd1na2vs0mg"},{"bike_id":"246e84fb-1afd-498f-b855-009b4b2e82cd","system_id":"levelo_inurba_marseille","lat":43.304166,"lon":5.413025,"is_reserved":false,"is_disabled":false,"rental_uris":{"android":"levelo://app?vid=246e84fb-1afd-498f-b855-009b4b2e82cd","ios":"levelo://app?vid=246e84fb-1afd-498f-b855-009b4b2e82cd"},"vehicle_type_id":"4","last_reported":1767107519,"current_range_meters":12000,"station_id":"ce4bhop2rcd13ifvqh8g","pricing_plan_id":"cebpf4jnsgd1na2vs0mg"},{"bike_id":"3ae180a1-ad81-4fbd-8d8e-5122c1af76f4","system_id":"levelo_inurba_marseille","lat":43.337444,"lon":5.374475,"is_reserved":false,"is_disabled":false,"rental_uris":{"android":"levelo://app?vid=3ae180a1-ad81-4fbd-8d8e-5122c1af76f4","ios":"levelo://app?vid=3ae180a1-ad81-4fbd-8d8e-5122c1af76f4"},"vehicle_type_id":"4","last_reported":1767107519,"current_range_meters":12000,"station_id":"","pricing_plan_id":"cebpf4jnsgd1na2vs0mg"},{"bike_id":"49b27ff2-eca9-4e8c-b13a-a41bc960ba40","system_id":"levelo_inurba_marseille","lat":43.31051,"lon":5.37175,"is_reserved":false,"is_disabled":false,"rental_uris":{"android":"levelo://app?vid=49b27ff2-eca9-4e8c-b13a-a41bc960ba40","ios":"levelo://app?vid=49b27ff2-eca9-4e8c-b13a-a41bc960ba40"},"vehicle_type_id":"4","last_reported":1767107519,"current_range_meters":12000,"station_id":"st_d4kl2rp97mjs73e7tdfg","pricing_plan_id":"cebpf4jnsgd1na2vs0mg"},{"bike_id":"ccec8baf-8de3-4f76-b969-55b0b35b8975","system_id":"levelo_inurba_marseille","lat":43.29615,"lon":5.3714,"is_reserved":false,"is_disabled":false,"rental_uris":{"android":"levelo://app?vid=ccec8baf-8de3-4f76-b969-55b0b35b8975","ios":"levelo://app?vid=ccec8baf-8de3-4f76-b969-55b0b35b8975"},"vehicle_type_id":"4","last_reported":1767107519,"current_range_meters":12000,"station_id":"ce4bgnh2rcd13ifvqc0g","pricing_plan_id":"cebpf4jnsgd1na2vs0mg"},{"bike_id":"dacc1bc0-eec9-4219-9225-c37f13cfc222","system_id":"levelo_inurba_marseille","lat":43.285304,"lon":5.441052,"is_reserved":false,"is_disabled":false,"rental_uris":{"android":"levelo://app?vid=dacc1bc0-eec9-4219-9225-c37f13cfc222","ios":"levelo://app?vid=dacc1bc0-eec9-4219-9225-c37f13cfc222"},"vehicle_type_id":"4","last_reported":1767107519,"current_range_meters":12000,"station_id":"st_d3j3df2ikq2c7380ej80","pricing_plan_id":"cebpf4jnsgd1na2vs0mg"},{"bike_id":"0035a49f-c924-43b0-93d3-43f42dc9e160","system_id":"levelo_inurba_marseille","lat":43.28479,"lon":5.38419,"is_reserved":false,"is_disabled":false,"rental_uris":{"android":"levelo://app?vid=0035a49f-c924-43b0-93d3-43f42dc9e160","ios":"levelo://app?vid=0035a49f-c924-43b0-93d3-43f42dc9e160"},"vehicle_type_id":"4","last_reported":1767107519,"current_range_meters":12400,"station_id":"ce4bh512rcd13ifvqe3g","pricing_plan_id":"cebpf4jnsgd1na2vs0mg"},{"bike_id":"adc5f50f-b7fd-48bc-9448-8a0ae42695d6","system_id":"levelo_inurba_marseille","lat":43.2792,"lon":5.39575,"is_reserved":false,"is_disabled":false,"rental_uris":{"android":"levelo://app?vid=adc5f50f-b7fd-48bc-9448-8a0ae42695d6","ios":"levelo://app?vid=adc5f50f-b7fd-48bc-9448-8a0ae42695d6"},"vehicle_type_id":"4","last_reported":1767107519,"current_range_meters":12400,"station_id":"ce4bhf92rcd13ifvqf40","pricing_plan_id":"cebpf4jnsgd1na2vs0mg"},{"bike_id":"2dff8587-48e0-4416-89ff-81e5782bfef7","system_id":"levelo_inurba_marseille","lat":43.23062,"lon":5.35491,"is_reserved":false,"is_disabled":false,"rental_uris":{"android":"levelo://app?vid=2dff8587-48e0-4416-89ff-81e5782bfef7","ios":"levelo://app?vid=2dff8587-48e0-4416-89ff-81e5782bfef7"},"vehicle_type_id":"4","last_reported":1767107519,"current_range_meters":12400,"station_id":"cpo3342slgdg3j2ifvpg","pricing_plan_id":"cebpf4jnsgd1na2vs0mg"},{"bike_id":"ec5fae6d-47b5-4030-bf64-4af050af9ecb","system_id":"levelo_inurba_marseille","lat":43.30962,"lon":5.37791,"is_reserved":false,"is_disabled":false,"rental_uris":{"android":"levelo://app?vid=ec5fae6d-47b5-4030-bf64-4af050af9ecb","ios":"levelo://app?vid=ec5fae6d-47b5-4030-bf64-4af050af9ecb"},"vehicle_type_id":"4","last_reported":1767107519,"current_range_meters":12400,"station_id":"","pricing_plan_id":"cebpf4jnsgd1na2vs0mg"},{"bike_id":"26aaa4c3-ca27-43bc-a11f-345371d00b8a","system_id":"levelo_inurba_marseille","lat":43.28715,"lon":5.37377,"is_reserved":false,"is_disabled":true,"rental_uris":{"android":"levelo://app?vid=26aaa4c3-ca27-43bc-a11f-345371d00b8a","ios":"levelo://app?vid=26aaa4c3-ca27-43bc-a11f-345371d00b8a"},"vehicle_type_id":"4","last_reported":1767107519,"current_range_meters":12400,"station_id":"ce4bh3p2rcd13ifvqdq0","pricing_plan_id":"cebpf4jnsgd1na2vs0mg"},{"bike_id":"7b25e2fa-8d38-4290-b465-6167e32e63ae","system_id":"levelo_inurba_marseille","lat":43.30544,"lon":5.38519,"is_reserved":false,"is_disabled":false,"rental_uris":{"android":"levelo://app?vid=7b25e2fa-8d38-4290-b465-6167e32e63ae","ios":"levelo://app?vid=7b25e2fa-8d38-4290-b465-6167e32e63ae"},"vehicle_type_id":"4","last_reported":1767107519,"current_range_meters":12400,"station_id":"","pricing_plan_id":"cebpf4jnsgd1na2vs0mg"},{"bike_id":"ca012f14-82a3-4060-8da0-098244b0df8d","system_id":"levelo_inurba_marseille","lat":43.3002,"lon":5.38879,"is_reserved":false,"is_disabled":false,"rental_uris":{"android":"levelo://app?vid=ca012f14-82a3-4060-8da0-098244b0df8d","ios":"levelo://app?vid=ca012f14-82a3-4060-8da0-098244b0df8d"},"vehicle_type_id":"4","last_reported":1767107519,"current_range_meters":12400,"station_id":"","pricing_plan_id":"cebpf4jnsgd1na2vs0mg"},{"bike_id":"e9238d50-28e4-459e-b248-dc46bccd3e6d","system_id":"levelo_inurba_marseille","lat":43.312172,"lon":5.368755,"is_reserved":false,"is_disabled":false,"rental_uris":{"android":"levelo://app?vid=e9238d50-28e4-459e-b248-dc46bccd3e6d","ios":"levelo://app?vid=e9238d50-28e4-459e-b248-dc46bccd3e6d"},"vehicle_type_id":"4","last_reported":1767107519,"current_range_meters":12800,"station_id":"ce4bgl92rcd13ifvqbq0","pricing_plan_id":"cebpf4jnsgd1na2vs0mg"},{"bike_id":"7c20e148-2a07-439c-8007-95ff3dd732b8","system_id":"levelo_inurba_marseille","lat":43.21193,"lon":5.35075,"is_reserved":false,"is_disabled":false,"rental_uris":{"android":"levelo://app?vid=7c20e148-2a07-439c-8007-95ff3dd732b8","ios":"levelo://app?vid=7c20e148-2a07-439c-8007-95ff3dd732b8"},"vehicle_type_id":"4","last_reported":1767107519,"current_range_meters":12800,"station_id":"st_cvj6sg6p6f1abm77japg","pricing_plan_id":"cebpf4jnsgd1na2vs0mg"},{"bike_id":"1403cd45-b8d2-4abf-88dc-4d188dbcc30c","system_id":"levelo_inurba_marseille","lat":43.33028,"lon":5.39041,"is_reserved":false,"is_disabled":false,"rental_uris":{"android":"levelo://app?vid=1403cd45-b8d2-4abf-88dc-4d188dbcc30c","ios":"levelo://app?vid=1403cd45-b8d2-4abf-88dc-4d188dbcc30c"},"vehicle_type_id":"4","last_reported":1767107519,"current_range_meters":12800,"station_id":"ce4bhr92rcd13ifvqhrg","pricing_plan_id":"cebpf4jnsgd1na2vs0mg"},{"bike_id":"b6bb0504-7fba-4e3c-b400-2a1d155bf674","system_id":"levelo_inurba_marseille","lat":43.24174,"lon":5.36388,"is_reserved":false,"is_disabled":false,"rental_uris":{"android":"levelo://app?vid=b6bb0504-7fba-4e3c-b400-2a1d155bf674","ios":"levelo://app?vid=b6bb0504-7fba-4e3c-b400-2a1d155bf674"},"vehicle_type_id":"4","last_reported":1767107519,"current_range_meters":12800,"station_id":"cpo36qri1sfpv3e86is0","pricing_plan_id":"cebpf4jnsgd1na2vs0mg"},{"bike_id":"b443bfe2-42bc-4782-acee-86cdc3e0756c","system_id":"levelo_inurba_marseille","lat":43.231924,"lon":5.355532,"is_reserved":false,"is_disabled":false,"rental_uris":{"android":"levelo://app?vid=b443bfe2-42bc-4782-acee-86cdc3e0756c","ios":"levelo://app?vid=b443bfe2-42bc-4782-acee-86cdc3e0756c"},"vehicle_type_id":"4","last_reported":1767107519,"current_range_meters":12800,"station_id":"ce4bhu92rcd13ifvqi70","pricing_plan_id":"cebpf4jnsgd1na2vs0mg"},{"bike_id":"5408588f-d4fc-4d62-a635-9d0edfd602ca","system_id":"levelo_inurba_marseille","lat":43.295172,"lon":5.42498,"is_reserved":false,"is_disabled":false,"rental_uris":{"android":"levelo://app?vid=5408588f-d4fc-4d62-a635-9d0edfd602ca","ios":"levelo://app?vid=5408588f-d4fc-4d62-a635-9d0edfd602ca"},"vehicle_type_id":"4","last_reported":1767107519,"current_range_meters":12800,"station_id":"","pricing_plan_id":"cebpf4jnsgd1na2vs0mg"},{"bike_id":"a007567c-b86d-4405-aa1e-740a8b66fad8","system_id":"levelo_inurba_marseille","lat":43.296289,"lon":5.372252,"is_reserved":false,"is_disabled":false,"rental_uris":{"android":"levelo://app?vid=a007567c-b86d-4405-aa1e-740a8b66fad8","ios":"levelo://app?vid=a007567c-b86d-4405-aa1e-740a8b66fad8"},"vehicle_type_id":"4","last_reported":1767107519,"current_range_meters":12800,"station_id":"ce4bgnh2rcd13ifvqc0g","pricing_plan_id":"cebpf4jnsgd1na2vs0mg"},{"bike_id":"9a2077a2-cebc-468c-82f9-fecda68a9ec3","system_id":"levelo_inurba_marseille","lat":43.29465,"lon":5.40875,"is_reserved":false,"is_disabled":false,"rental_uris":{"android":"levelo://app?vid=9a2077a2-cebc-468c-82f9-fecda68a9ec3","ios":"levelo://app?vid=9a2077a2-cebc-468c-82f9-fecda68a9ec3"},"vehicle_type_id":"4","last_reported":1767107519,"current_range_meters":12800,"station_id":"","pricing_plan_id":"cebpf4jnsgd1na2vs0mg"},{"bike_id":"f9defe05-4ff2-4d1f-b650-c0894d9ee537","system_id":"levelo_inurba_marseille","lat":43.28529,"lon":5.44109,"is_reserved":false,"is_disabled":false,"rental_uris":{"android":"levelo://app?vid=f9defe05-4ff2-4d1f-b650-c0894d9ee537","ios":"levelo://app?vid=f9defe05-4ff2-4d1f-b650-c0894d9ee537"},"vehicle_type_id":"4","last_reported":1767107519,"current_range_meters":13600,"station_id":"st_d3j3df2ikq2c7380ej80","pricing_plan_id":"cebpf4jnsgd1na2vs0mg"},{"bike_id":"2da7c090-6334-4a5f-b1c8-4c11e508b448","system_id":"levelo_inurba_marseille","lat":43.29534,"lon":5.38554,"is_reserved":false,"is_disabled":true,"rental_uris":{"android":"levelo://app?vid=2da7c090-6334-4a5f-b1c8-4c11e508b448","ios":"levelo://app?vid=2da7c090-6334-4a5f-b1c8-4c11e508b448"},"vehicle_type_id":"4","last_reported":1767107519,"current_range_meters":13600,"station_id":"ce4bgih2rcd13ifvqba0","pricing_plan_id":"cebpf4jnsgd1na2vs0mg"},{"bike_id":"6d55a0a6-80f5-48da-b777-39d28a0ee642","system_id":"levelo_inurba_marseille","lat":43.29606,"lon":5.37722,"is_reserved":false,"is_disabled":false,"rental_uris":{"android":"levelo://app?vid=6d55a0a6-80f5-48da-b777-39d28a0ee642","ios":"levelo://app?vid=6d55a0a6-80f5-48da-b777-39d28a0ee642"},"vehicle_type_id":"4","last_reported":1767107519,"current_range_meters":13600,"station_id":"ce4bgi92rcd13ifvqb90","pricing_plan_id":"cebpf4jnsgd1na2vs0mg"},{"bike_id":"fc01654f-2593-4295-8309-447493a7010a","system_id":"levelo_inurba_marseille","lat":43.27181,"lon":5.390489,"is_reserved":false,"is_disabled":false,"rental_uris":{"android":"levelo://app?vid=fc01654f-2593-4295-8309-447493a7010a","ios":"levelo://app?vid=fc01654f-2593-4295-8309-447493a7010a"},"vehicle_type_id":"4","last_reported":1767107519,"current_range_meters":13600,"station_id":"","pricing_plan_id":"cebpf4jnsgd1na2vs0mg"},{"bike_id":"f79561d9-a9e3-4480-bd30-e533c5f19aef","system_id":"levelo_inurba_marseille","lat":43.30806,"lon":5.37662,"is_reserved":false,"is_disabled":false,"rental_uris":{"android":"levelo://app?vid=f79561d9-a9e3-4480-bd30-e533c5f19aef","ios":"levelo://app?vid=f79561d9-a9e3-4480-bd30-e533c5f19aef"},"vehicle_type_id":"4","last_reported":1767107519,"current_range_meters":13600,"station_id":"ce4bgv92rcd13ifvqcq0","pricing_plan_id":"cebpf4jnsgd1na2vs0mg"},{"bike_id":"a9ca0334-3198-48d6-b1ea-de3a6c9cf163","system_id":"levelo_inurba_marseille","lat":43.24543,"lon":5.39525,"is_reserved":false,"is_disabled":false,"rental_uris":{"android":"levelo://app?vid=a9ca0334-3198-48d6-b1ea-de3a6c9cf163","ios":"levelo://app?vid=a9ca0334-3198-48d6-b1ea-de3a6c9cf163"},"vehicle_type_id":"4","last_reported":1767107519,"current_range_meters":13600,"station_id":"ce4bhlp2rcd13ifvqgjg","pricing_plan_id":"cebpf4jnsgd1na2vs0mg"},{"bike_id":"5c658922-e193-4901-ac1b-e1fbca757d20","system_id":"levelo_inurba_marseille","lat":43.30805,"lon":5.39221,"is_reserved":false,"is_disabled":false,"rental_uris":{"android":"levelo://app?vid=5c658922-e193-4901-ac1b-e1fbca757d20","ios":"levelo://app?vid=5c658922-e193-4901-ac1b-e1fbca757d20"},"vehicle_type_id":"4","last_reported":1767107519,"current_range_meters":13600,"station_id":"","pricing_plan_id":"cebpf4jnsgd1na2vs0mg"},{"bike_id":"0fa76090-b264-4d7f-a0bc-7de1e50f19da","system_id":"levelo_inurba_marseille","lat":43.27986,"lon":5.40365,"is_reserved":false,"is_disabled":false,"rental_uris":{"android":"levelo://app?vid=0fa76090-b264-4d7f-a0bc-7de1e50f19da","ios":"levelo://app?vid=0fa76090-b264-4d7f-a0bc-7de1e50f19da"},"vehicle_type_id":"4","last_reported":1767107519,"current_range_meters":13600,"station_id":"","pricing_plan_id":"cebpf4jnsgd1na2vs0mg"},{"bike_id":"ff2a9260-98fd-4327-a921-2b433595e5d8","system_id":"levelo_inurba_marseille","lat":43.26941,"lon":5.40256,"is_reserved":false,"is_disabled":false,"rental_uris":{"android":"levelo://app?vid=ff2a9260-98fd-4327-a921-2b433595e5d8","ios":"levelo://app?vid=ff2a9260-98fd-4327-a921-2b433595e5d8"},"vehicle_type_id":"4","last_reported":1767107519,"current_range_meters":13600,"station_id":"cjm6bp8fraef2m0cb0m0","pricing_plan_id":"cebpf4jnsgd1na2vs0mg"},{"bike_id":"f8454e07-5b19-4a16-bdb5-ba46f59bdc3d","system_id":"levelo_inurba_marseille","lat":43.26037,"lon":5.37558,"is_reserved":false,"is_disabled":false,"rental_uris":{"android":"levelo://app?vid=f8454e07-5b19-4a16-bdb5-ba46f59bdc3d","ios":"levelo://app?vid=f8454e07-5b19-4a16-bdb5-ba46f59bdc3d"},"vehicle_type_id":"4","last_reported":1767107519,"current_range_meters":13600,"station_id":"ce4bhgh2rcd13ifvqfa0","pricing_plan_id":"cebpf4jnsgd1na2vs0mg"},{"bike_id":"6d9f2e83-01ff-41aa-863f-0778a381d3b9","system_id":"levelo_inurba_marseille","lat":43.21196,"lon":5.35076,"is_reserved":false,"is_disabled":false,"rental_uris":{"android":"levelo://app?vid=6d9f2e83-01ff-41aa-863f-0778a381d3b9","ios":"levelo://app?vid=6d9f2e83-01ff-41aa-863f-0778a381d3b9"},"vehicle_type_id":"4","last_reported":1767107519,"current_range_meters":13600,"station_id":"st_cvj6sg6p6f1abm77japg","pricing_plan_id":"cebpf4jnsgd1na2vs0mg"},{"bike_id":"970f6c1d-f464-4249-baad-9d8636c41627","system_id":"levelo_inurba_marseille","lat":43.29194,"lon":5.37543,"is_reserved":false,"is_disabled":false,"rental_uris":{"android":"levelo://app?vid=970f6c1d-f464-4249-baad-9d8636c41627","ios":"levelo://app?vid=970f6c1d-f464-4249-baad-9d8636c41627"},"vehicle_type_id":"4","last_reported":1767107519,"current_range_meters":14000,"station_id":"","pricing_plan_id":"cebpf4jnsgd1na2vs0mg"},{"bike_id":"b3b8c28f-a4a2-4a54-a0d7-bca6b407c06b","system_id":"levelo_inurba_marseille","lat":43.28479,"lon":5.38433,"is_reserved":false,"is_disabled":false,"rental_uris":{"android":"levelo://app?vid=b3b8c28f-a4a2-4a54-a0d7-bca6b407c06b","ios":"levelo://app?vid=b3b8c28f-a4a2-4a54-a0d7-bca6b407c06b"},"vehicle_type_id":"4","last_reported":1767107519,"current_range_meters":14000,"station_id":"ce4bh512rcd13ifvqe3g","pricing_plan_id":"cebpf4jnsgd1na2vs0mg"},{"bike_id":"78ed77cb-47f0-4c82-bf8a-f958576ec953","system_id":"levelo_inurba_marseille","lat":43.28153,"lon":5.42637,"is_reserved":false,"is_disabled":false,"rental_uris":{"android":"levelo://app?vid=78ed77cb-47f0-4c82-bf8a-f958576ec953","ios":"levelo://app?vid=78ed77cb-47f0-4c82-bf8a-f958576ec953"},"vehicle_type_id":"4","last_reported":1767107519,"current_range_meters":14000,"station_id":"ce4bhnh2rcd13ifvqgug","pricing_plan_id":"cebpf4jnsgd1na2vs0mg"},{"bike_id":"062a0235-2d89-4fc1-b10d-ee79c97b2c64","system_id":"levelo_inurba_marseille","lat":43.318096,"lon":5.368876,"is_reserved":false,"is_disabled":false,"rental_uris":{"android":"levelo://app?vid=062a0235-2d89-4fc1-b10d-ee79c97b2c64","ios":"levelo://app?vid=062a0235-2d89-4fc1-b10d-ee79c97b2c64"},"vehicle_type_id":"4","last_reported":1767107519,"current_range_meters":14000,"station_id":"","pricing_plan_id":"cebpf4jnsgd1na2vs0mg"},{"bike_id":"3486b79f-5d37-4ced-ac26-f2e90a6034f3","system_id":"levelo_inurba_marseille","lat":43.23207,"lon":5.35552,"is_reserved":false,"is_disabled":false,"rental_uris":{"android":"levelo://app?vid=3486b79f-5d37-4ced-ac26-f2e90a6034f3","ios":"levelo://app?vid=3486b79f-5d37-4ced-ac26-f2e90a6034f3"},"vehicle_type_id":"4","last_reported":1767107519,"current_range_meters":14000,"station_id":"ce4bhu92rcd13ifvqi70","pricing_plan_id":"cebpf4jnsgd1na2vs0mg"},{"bike_id":"149a94e7-8065-4440-a1ab-1ba416a8f181","system_id":"levelo_inurba_marseille","lat":43.28492,"lon":5.48392,"is_reserved":false,"is_disabled":false,"rental_uris":{"android":"levelo://app?vid=149a94e7-8065-4440-a1ab-1ba416a8f181","ios":"levelo://app?vid=149a94e7-8065-4440-a1ab-1ba416a8f181"},"vehicle_type_id":"4","last_reported":1767107519,"current_range_meters":14000,"station_id":"","pricing_plan_id":"cebpf4jnsgd1na2vs0mg"},{"bike_id":"e69e7c2d-26dc-48ff-b19c-545021986b22","system_id":"levelo_inurba_marseille","lat":43.29614,"lon":5.37715,"is_reserved":false,"is_disabled":false,"rental_uris":{"android":"levelo://app?vid=e69e7c2d-26dc-48ff-b19c-545021986b22","ios":"levelo://app?vid=e69e7c2d-26dc-48ff-b19c-545021986b22"},"vehicle_type_id":"4","last_reported":1767107519,"current_range_meters":14000,"station_id":"ce4bgi92rcd13ifvqb90","pricing_plan_id":"cebpf4jnsgd1na2vs0mg"},{"bike_id":"1908b1b0-93c0-408f-ab78-f300578c3013","system_id":"levelo_inurba_marseille","lat":43.2991,"lon":5.3656,"is_reserved":false,"is_disabled":false,"rental_uris":{"android":"levelo://app?vid=1908b1b0-93c0-408f-ab78-f300578c3013","ios":"levelo://app?vid=1908b1b0-93c0-408f-ab78-f300578c3013"},"vehicle_type_id":"4","last_reported":1767107519,"current_range_meters":14000,"station_id":"ce4bgm92rcd13ifvqbr0","pricing_plan_id":"cebpf4jnsgd1na2vs0mg"},{"bike_id":"b30c6014-a175-4bb9-ad78-49f058f742ef","system_id":"levelo_inurba_marseille","lat":43.26489,"lon":5.39543,"is_reserved":false,"is_disabled":false,"rental_uris":{"android":"levelo://app?vid=b30c6014-a175-4bb9-ad78-49f058f742ef","ios":"levelo://app?vid=b30c6014-a175-4bb9-ad78-49f058f742ef"},"vehicle_type_id":"4","last_reported":1767107519,"current_range_meters":14000,"station_id":"ce4bhi12rcd13ifvqfq0","pricing_plan_id":"cebpf4jnsgd1na2vs0mg"},{"bike_id":"8712769a-d68f-4cf6-be92-d000ec02a2a4","system_id":"levelo_inurba_marseille","lat":43.297159,"lon":5.366083,"is_reserved":false,"is_disabled":false,"rental_uris":{"android":"levelo://app?vid=8712769a-d68f-4cf6-be92-d000ec02a2a4","ios":"levelo://app?vid=8712769a-d68f-4cf6-be92-d000ec02a2a4"},"vehicle_type_id":"4","last_reported":1767107519,"current_range_meters":14000,"station_id":"ce4bgn12rcd13ifvqbt0","pricing_plan_id":"cebpf4jnsgd1na2vs0mg"},{"bike_id":"22eef0a3-17fe-44b8-b64f-6f944c8af2a7","system_id":"levelo_inurba_marseille","lat":43.24694,"lon":5.38939,"is_reserved":false,"is_disabled":false,"rental_uris":{"android":"levelo://app?vid=22eef0a3-17fe-44b8-b64f-6f944c8af2a7","ios":"levelo://app?vid=22eef0a3-17fe-44b8-b64f-6f944c8af2a7"},"vehicle_type_id":"4","last_reported":1767107519,"current_range_meters":14000,"station_id":"","pricing_plan_id":"cebpf4jnsgd1na2vs0mg"},{"bike_id":"dff60c80-82b7-4729-acef-c465d4a7836a","system_id":"levelo_inurba_marseille","lat":43.28278,"lon":5.35062,"is_reserved":false,"is_disabled":false,"rental_uris":{"android":"levelo://app?vid=dff60c80-82b7-4729-acef-c465d4a7836a","ios":"levelo://app?vid=dff60c80-82b7-4729-acef-c465d4a7836a"},"vehicle_type_id":"4","last_reported":1767107519,"current_range_meters":14000,"station_id":"ce4bhbp2rcd13ifvqerg","pricing_plan_id":"cebpf4jnsgd1na2vs0mg"},{"bike_id":"65c428da-aa4d-4e58-9fe9-0c9796e9f37c","system_id":"levelo_inurba_marseille","lat":43.27382,"lon":5.36251,"is_reserved":false,"is_disabled":false,"rental_uris":{"android":"levelo://app?vid=65c428da-aa4d-4e58-9fe9-0c9796e9f37c","ios":"levelo://app?vid=65c428da-aa4d-4e58-9fe9-0c9796e9f37c"},"vehicle_type_id":"4","last_reported":1767107519,"current_range_meters":14000,"station_id":"ce4bhbh2rcd13ifvqeo0","pricing_plan_id":"cebpf4jnsgd1na2vs0mg"},{"bike_id":"194d4740-ee11-4b24-9935-6e7c0ab6e0ab","system_id":"levelo_inurba_marseille","lat":43.2317,"lon":5.39993,"is_reserved":false,"is_disabled":false,"rental_uris":{"android":"levelo://app?vid=194d4740-ee11-4b24-9935-6e7c0ab6e0ab","ios":"levelo://app?vid=194d4740-ee11-4b24-9935-6e7c0ab6e0ab"},"vehicle_type_id":"4","last_reported":1767107519,"current_range_meters":14000,"station_id":"ce4bhn12rcd13ifvqgqg","pricing_plan_id":"cebpf4jnsgd1na2vs0mg"},{"bike_id":"eb87c023-366e-46cf-9b32-bbf4676ca280","system_id":"levelo_inurba_marseille","lat":43.2848,"lon":5.38423,"is_reserved":false,"is_disabled":false,"rental_uris":{"android":"levelo://app?vid=eb87c023-366e-46cf-9b32-bbf4676ca280","ios":"levelo://app?vid=eb87c023-366e-46cf-9b32-bbf4676ca280"},"vehicle_type_id":"4","last_reported":1767107519,"current_range_meters":14400,"station_id":"ce4bh512rcd13ifvqe3g","pricing_plan_id":"cebpf4jnsgd1na2vs0mg"},{"bike_id":"01a97e62-3cdf-4259-a586-bc6a21f2db36","system_id":"levelo_inurba_marseille","lat":43.24814,"lon":5.37454,"is_reserved":false,"is_disabled":false,"rental_uris":{"android":"levelo://app?vid=01a97e62-3cdf-4259-a586-bc6a21f2db36","ios":"levelo://app?vid=01a97e62-3cdf-4259-a586-bc6a21f2db36"},"vehicle_type_id":"4","last_reported":1767107519,"current_range_meters":14400,"station_id":"ce4bhgh2rcd13ifvqfb0","pricing_plan_id":"cebpf4jnsgd1na2vs0mg"},{"bike_id":"9a27aafd-9de4-405a-acf2-d1a226630e53","system_id":"levelo_inurba_marseille","lat":43.22557,"lon":5.41621,"is_reserved":false,"is_disabled":false,"rental_uris":{"android":"levelo://app?vid=9a27aafd-9de4-405a-acf2-d1a226630e53","ios":"levelo://app?vid=9a27aafd-9de4-405a-acf2-d1a226630e53"},"vehicle_type_id":"4","last_reported":1767107519,"current_range_meters":14400,"station_id":"st_d2o4gvlbi1j2169b742g","pricing_plan_id":"cebpf4jnsgd1na2vs0mg"},{"bike_id":"e925a0dc-e1d9-4cea-afb3-e1809cd17c3c","system_id":"levelo_inurba_marseille","lat":43.28753,"lon":5.36111,"is_reserved":false,"is_disabled":false,"rental_uris":{"android":"levelo://app?vid=e925a0dc-e1d9-4cea-afb3-e1809cd17c3c","ios":"levelo://app?vid=e925a0dc-e1d9-4cea-afb3-e1809cd17c3c"},"vehicle_type_id":"4","last_reported":1767107519,"current_range_meters":14400,"station_id":"cki0cbj6b192h4jlfktg","pricing_plan_id":"cebpf4jnsgd1na2vs0mg"},{"bike_id":"2736b34b-98dd-4ca9-b701-f4278e5f6e64","system_id":"levelo_inurba_marseille","lat":43.32358,"lon":5.36746,"is_reserved":false,"is_disabled":false,"rental_uris":{"android":"levelo://app?vid=2736b34b-98dd-4ca9-b701-f4278e5f6e64","ios":"levelo://app?vid=2736b34b-98dd-4ca9-b701-f4278e5f6e64"},"vehicle_type_id":"4","last_reported":1767107519,"current_range_meters":14400,"station_id":"ce4bhsh2rcd13ifvqi2g","pricing_plan_id":"cebpf4jnsgd1na2vs0mg"},{"bike_id":"49026400-b914-402c-899a-647ac874e6fd","system_id":"levelo_inurba_marseille","lat":43.30603,"lon":5.372321,"is_reserved":false,"is_disabled":false,"rental_uris":{"android":"levelo://app?vid=49026400-b914-402c-899a-647ac874e6fd","ios":"levelo://app?vid=49026400-b914-402c-899a-647ac874e6fd"},"vehicle_type_id":"4","last_reported":1767107519,"current_range_meters":14400,"station_id":"ce4bgqh2rcd13ifvqc4g","pricing_plan_id":"cebpf4jnsgd1na2vs0mg"},{"bike_id":"c6990927-f112-43dc-993b-cc97e862332f","system_id":"levelo_inurba_marseille","lat":43.275714,"lon":5.384313,"is_reserved":false,"is_disabled":false,"rental_uris":{"android":"levelo://app?vid=c6990927-f112-43dc-993b-cc97e862332f","ios":"levelo://app?vid=c6990927-f112-43dc-993b-cc97e862332f"},"vehicle_type_id":"4","last_reported":1767107519,"current_range_meters":14400,"station_id":"ce4bhh92rcd13ifvqfi0","pricing_plan_id":"cebpf4jnsgd1na2vs0mg"},{"bike_id":"a7df6d51-aeb4-4f6e-a38b-46dae1f38f36","system_id":"levelo_inurba_marseille","lat":43.217438,"lon":5.346037,"is_reserved":false,"is_disabled":false,"rental_uris":{"android":"levelo://app?vid=a7df6d51-aeb4-4f6e-a38b-46dae1f38f36","ios":"levelo://app?vid=a7df6d51-aeb4-4f6e-a38b-46dae1f38f36"},"vehicle_type_id":"4","last_reported":1767107519,"current_range_meters":14400,"station_id":"","pricing_plan_id":"cebpf4jnsgd1na2vs0mg"},{"bike_id":"88de2873-265f-4a7c-a388-458eec79854f","system_id":"levelo_inurba_marseille","lat":43.25929,"lon":5.408971,"is_reserved":false,"is_disabled":false,"rental_uris":{"android":"levelo://app?vid=88de2873-265f-4a7c-a388-458eec79854f","ios":"levelo://app?vid=88de2873-265f-4a7c-a388-458eec79854f"},"vehicle_type_id":"4","last_reported":1767107519,"current_range_meters":14400,"station_id":"ce4bhm92rcd13ifvqglg","pricing_plan_id":"cebpf4jnsgd1na2vs0mg"},{"bike_id":"f0b2c508-397d-4f28-be22-ee2cb2f9d342","system_id":"levelo_inurba_marseille","lat":43.30176,"lon":5.37428,"is_reserved":false,"is_disabled":false,"rental_uris":{"android":"levelo://app?vid=f0b2c508-397d-4f28-be22-ee2cb2f9d342","ios":"levelo://app?vid=f0b2c508-397d-4f28-be22-ee2cb2f9d342"},"vehicle_type_id":"4","last_reported":1767107519,"current_range_meters":14800,"station_id":"ce4bgs92rcd13ifvqcc0","pricing_plan_id":"cebpf4jnsgd1na2vs0mg"},{"bike_id":"5265762e-9468-4f8e-963d-e1d647f4d72d","system_id":"levelo_inurba_marseille","lat":43.337444,"lon":5.374475,"is_reserved":false,"is_disabled":false,"rental_uris":{"android":"levelo://app?vid=5265762e-9468-4f8e-963d-e1d647f4d72d","ios":"levelo://app?vid=5265762e-9468-4f8e-963d-e1d647f4d72d"},"vehicle_type_id":"4","last_reported":1767107519,"current_range_meters":14800,"station_id":"","pricing_plan_id":"cebpf4jnsgd1na2vs0mg"},{"bike_id":"d250a799-5d35-48b4-8052-313c992efcb5","system_id":"levelo_inurba_marseille","lat":43.28566,"lon":5.39501,"is_reserved":false,"is_disabled":false,"rental_uris":{"android":"levelo://app?vid=d250a799-5d35-48b4-8052-313c992efcb5","ios":"levelo://app?vid=d250a799-5d35-48b4-8052-313c992efcb5"},"vehicle_type_id":"4","last_reported":1767107519,"current_range_meters":14800,"station_id":"ce4bh292rcd13ifvqdg0","pricing_plan_id":"cebpf4jnsgd1na2vs0mg"},{"bike_id":"581a6ab3-180f-44bd-a4a1-a92ae04d5d4e","system_id":"levelo_inurba_marseille","lat":43.21761,"lon":5.34619,"is_reserved":false,"is_disabled":false,"rental_uris":{"android":"levelo://app?vid=581a6ab3-180f-44bd-a4a1-a92ae04d5d4e","ios":"levelo://app?vid=581a6ab3-180f-44bd-a4a1-a92ae04d5d4e"},"vehicle_type_id":"4","last_reported":1767107519,"current_range_meters":14800,"station_id":"st_cvj6r9ubvosntc0bgbag","pricing_plan_id":"cebpf4jnsgd1na2vs0mg"},{"bike_id":"e93c83d5-bafc-41ab-b80f-422d8d8d6d2a","system_id":"levelo_inurba_marseille","lat":43.26848,"lon":5.40078,"is_reserved":false,"is_disabled":false,"rental_uris":{"android":"levelo://app?vid=e93c83d5-bafc-41ab-b80f-422d8d8d6d2a","ios":"levelo://app?vid=e93c83d5-bafc-41ab-b80f-422d8d8d6d2a"},"vehicle_type_id":"4","last_reported":1767107519,"current_range_meters":14800,"station_id":"","pricing_plan_id":"cebpf4jnsgd1na2vs0mg"},{"bike_id":"4cf8c2c1-78ee-47e7-9637-07180f58b843","system_id":"levelo_inurba_marseille","lat":43.305942,"lon":5.372267,"is_reserved":false,"is_disabled":false,"rental_uris":{"android":"levelo://app?vid=4cf8c2c1-78ee-47e7-9637-07180f58b843","ios":"levelo://app?vid=4cf8c2c1-78ee-47e7-9637-07180f58b843"},"vehicle_type_id":"4","last_reported":1767107519,"current_range_meters":14800,"station_id":"ce4bgqh2rcd13ifvqc4g","pricing_plan_id":"cebpf4jnsgd1na2vs0mg"},{"bike_id":"ef4d8662-1154-4710-8bf5-ed7e73ba85b1","system_id":"levelo_inurba_marseille","lat":43.279479,"lon":5.410505,"is_reserved":false,"is_disabled":false,"rental_uris":{"android":"levelo://app?vid=ef4d8662-1154-4710-8bf5-ed7e73ba85b1","ios":"levelo://app?vid=ef4d8662-1154-4710-8bf5-ed7e73ba85b1"},"vehicle_type_id":"4","last_reported":1767107519,"current_range_meters":14800,"station_id":"ce4bhnp2rcd13ifvqh0g","pricing_plan_id":"cebpf4jnsgd1na2vs0mg"},{"bike_id":"9cb5ae99-5884-40a4-9c3b-7a9c989d5f03","system_id":"levelo_inurba_marseille","lat":43.28511,"lon":5.38413,"is_reserved":false,"is_disabled":false,"rental_uris":{"android":"levelo://app?vid=9cb5ae99-5884-40a4-9c3b-7a9c989d5f03","ios":"levelo://app?vid=9cb5ae99-5884-40a4-9c3b-7a9c989d5f03"},"vehicle_type_id":"4","last_reported":1767107519,"current_range_meters":14800,"station_id":"ce4bh512rcd13ifvqe3g","pricing_plan_id":"cebpf4jnsgd1na2vs0mg"},{"bike_id":"7be19a66-044f-4223-8a5e-aa464921726b","system_id":"levelo_inurba_marseille","lat":43.23976,"lon":5.36616,"is_reserved":false,"is_disabled":false,"rental_uris":{"android":"levelo://app?vid=7be19a66-044f-4223-8a5e-aa464921726b","ios":"levelo://app?vid=7be19a66-044f-4223-8a5e-aa464921726b"},"vehicle_type_id":"4","last_reported":1767107519,"current_range_meters":14800,"station_id":"ce4bhi12rcd13ifvqfp0","pricing_plan_id":"cebpf4jnsgd1na2vs0mg"},{"bike_id":"7cd9d7b6-2c4b-484a-92df-676b04b13e27","system_id":"levelo_inurba_marseille","lat":43.311945,"lon":5.396122,"is_reserved":false,"is_disabled":false,"rental_uris":{"android":"levelo://app?vid=7cd9d7b6-2c4b-484a-92df-676b04b13e27","ios":"levelo://app?vid=7cd9d7b6-2c4b-484a-92df-676b04b13e27"},"vehicle_type_id":"4","last_reported":1767107519,"current_range_meters":14800,"station_id":"ce4bgvp2rcd13ifvqcu0","pricing_plan_id":"cebpf4jnsgd1na2vs0mg"},{"bike_id":"79fda2c3-d85a-402b-9c3b-0dceb91a8171","system_id":"levelo_inurba_marseille","lat":43.29778,"lon":5.37102,"is_reserved":false,"is_disabled":false,"rental_uris":{"android":"levelo://app?vid=79fda2c3-d85a-402b-9c3b-0dceb91a8171","ios":"levelo://app?vid=79fda2c3-d85a-402b-9c3b-0dceb91a8171"},"vehicle_type_id":"4","last_reported":1767107519,"current_range_meters":14800,"station_id":"","pricing_plan_id":"cebpf4jnsgd1na2vs0mg"},{"bike_id":"9f6044aa-9e0a-4415-9278-85df5233b201","system_id":"levelo_inurba_marseille","lat":43.28426,"lon":5.34977,"is_reserved":false,"is_disabled":false,"rental_uris":{"android":"levelo://app?vid=9f6044aa-9e0a-4415-9278-85df5233b201","ios":"levelo://app?vid=9f6044aa-9e0a-4415-9278-85df5233b201"},"vehicle_type_id":"4","last_reported":1767107519,"current_range_meters":14800,"station_id":"ce4bhbh2rcd13ifvqepg","pricing_plan_id":"cebpf4jnsgd1na2vs0mg"},{"bike_id":"5b7b9627-7763-4fa8-83b2-cad94b4f3bda","system_id":"levelo_inurba_marseille","lat":43.29574,"lon":5.37489,"is_reserved":false,"is_disabled":false,"rental_uris":{"android":"levelo://app?vid=5b7b9627-7763-4fa8-83b2-cad94b4f3bda","ios":"levelo://app?vid=5b7b9627-7763-4fa8-83b2-cad94b4f3bda"},"vehicle_type_id":"4","last_reported":1767107519,"current_range_meters":14800,"station_id":"ce4bgh92rcd13ifvqb50","pricing_plan_id":"cebpf4jnsgd1na2vs0mg"},{"bike_id":"d35a0a07-7b46-4a3c-b11f-a8140d2ba22d","system_id":"levelo_inurba_marseille","lat":43.29813,"lon":5.4406,"is_reserved":false,"is_disabled":false,"rental_uris":{"android":"levelo://app?vid=d35a0a07-7b46-4a3c-b11f-a8140d2ba22d","ios":"levelo://app?vid=d35a0a07-7b46-4a3c-b11f-a8140d2ba22d"},"vehicle_type_id":"4","last_reported":1767107519,"current_range_meters":14800,"station_id":"st_d3jp68qikq2c7381ktn0","pricing_plan_id":"cebpf4jnsgd1na2vs0mg"},{"bike_id":"717a549e-c78e-422d-9d33-485cdccf29f9","system_id":"levelo_inurba_marseille","lat":43.31258,"lon":5.36871,"is_reserved":false,"is_disabled":false,"rental_uris":{"android":"levelo://app?vid=717a549e-c78e-422d-9d33-485cdccf29f9","ios":"levelo://app?vid=717a549e-c78e-422d-9d33-485cdccf29f9"},"vehicle_type_id":"4","last_reported":1767107519,"current_range_meters":14800,"station_id":"ce4bgl92rcd13ifvqbq0","pricing_plan_id":"cebpf4jnsgd1na2vs0mg"},{"bike_id":"5d9bc044-e5c1-413e-a0df-3bf7d2473c7c","system_id":"levelo_inurba_marseille","lat":43.30534,"lon":5.36499,"is_reserved":false,"is_disabled":false,"rental_uris":{"android":"levelo://app?vid=5d9bc044-e5c1-413e-a0df-3bf7d2473c7c","ios":"levelo://app?vid=5d9bc044-e5c1-413e-a0df-3bf7d2473c7c"},"vehicle_type_id":"4","last_reported":1767107519,"current_range_meters":14800,"station_id":"ce4bgs12rcd13ifvqcag","pricing_plan_id":"cebpf4jnsgd1na2vs0mg"},{"bike_id":"abc02e33-2bf7-4382-83a0-6cf1a6e2a3cf","system_id":"levelo_inurba_marseille","lat":43.27373,"lon":5.36241,"is_reserved":false,"is_disabled":false,"rental_uris":{"android":"levelo://app?vid=abc02e33-2bf7-4382-83a0-6cf1a6e2a3cf","ios":"levelo://app?vid=abc02e33-2bf7-4382-83a0-6cf1a6e2a3cf"},"vehicle_type_id":"4","last_reported":1767107519,"current_range_meters":15200,"station_id":"ce4bhbh2rcd13ifvqeo0","pricing_plan_id":"cebpf4jnsgd1na2vs0mg"},{"bike_id":"c78b7752-9cb7-4b06-a8ef-1f65d9ce20cf","system_id":"levelo_inurba_marseille","lat":43.31648,"lon":5.38813,"is_reserved":false,"is_disabled":false,"rental_uris":{"android":"levelo://app?vid=c78b7752-9cb7-4b06-a8ef-1f65d9ce20cf","ios":"levelo://app?vid=c78b7752-9cb7-4b06-a8ef-1f65d9ce20cf"},"vehicle_type_id":"4","last_reported":1767107519,"current_range_meters":15200,"station_id":"","pricing_plan_id":"cebpf4jnsgd1na2vs0mg"},{"bike_id":"77dca550-67fc-4203-a974-587d13a97b91","system_id":"levelo_inurba_marseille","lat":43.29932,"lon":5.36538,"is_reserved":false,"is_disabled":false,"rental_uris":{"android":"levelo://app?vid=77dca550-67fc-4203-a974-587d13a97b91","ios":"levelo://app?vid=77dca550-67fc-4203-a974-587d13a97b91"},"vehicle_type_id":"4","last_reported":1767107519,"current_range_meters":15200,"station_id":"ce4bgm92rcd13ifvqbr0","pricing_plan_id":"cebpf4jnsgd1na2vs0mg"},{"bike_id":"518272f7-3e73-4db3-92cd-481d148d7361","system_id":"levelo_inurba_marseille","lat":43.24165,"lon":5.36429,"is_reserved":false,"is_disabled":false,"rental_uris":{"android":"levelo://app?vid=518272f7-3e73-4db3-92cd-481d148d7361","ios":"levelo://app?vid=518272f7-3e73-4db3-92cd-481d148d7361"},"vehicle_type_id":"4","last_reported":1767107519,"current_range_meters":15200,"station_id":"cpo36qri1sfpv3e86is0","pricing_plan_id":"cebpf4jnsgd1na2vs0mg"},{"bike_id":"fa419d40-02db-4ed5-a194-1a3bfde5b56d","system_id":"levelo_inurba_marseille","lat":43.21742,"lon":5.34609,"is_reserved":false,"is_disabled":false,"rental_uris":{"android":"levelo://app?vid=fa419d40-02db-4ed5-a194-1a3bfde5b56d","ios":"levelo://app?vid=fa419d40-02db-4ed5-a194-1a3bfde5b56d"},"vehicle_type_id":"4","last_reported":1767107519,"current_range_meters":15200,"station_id":"st_cvj6r9ubvosntc0bgbag","pricing_plan_id":"cebpf4jnsgd1na2vs0mg"},{"bike_id":"7f14dbf8-fbbc-4f22-a8da-577d465937c5","system_id":"levelo_inurba_marseille","lat":43.29598,"lon":5.37715,"is_reserved":false,"is_disabled":false,"rental_uris":{"android":"levelo://app?vid=7f14dbf8-fbbc-4f22-a8da-577d465937c5","ios":"levelo://app?vid=7f14dbf8-fbbc-4f22-a8da-577d465937c5"},"vehicle_type_id":"4","last_reported":1767107519,"current_range_meters":15200,"station_id":"ce4bgi92rcd13ifvqb90","pricing_plan_id":"cebpf4jnsgd1na2vs0mg"},{"bike_id":"327d4f41-6547-4f60-817f-dce8f7739b45","system_id":"levelo_inurba_marseille","lat":43.24406,"lon":5.37042,"is_reserved":false,"is_disabled":false,"rental_uris":{"android":"levelo://app?vid=327d4f41-6547-4f60-817f-dce8f7739b45","ios":"levelo://app?vid=327d4f41-6547-4f60-817f-dce8f7739b45"},"vehicle_type_id":"4","last_reported":1767107519,"current_range_meters":15200,"station_id":"ce4bhhh2rcd13ifvqfk0","pricing_plan_id":"cebpf4jnsgd1na2vs0mg"},{"bike_id":"949d0250-f694-40d7-b468-c88d9163bf6e","system_id":"levelo_inurba_marseille","lat":43.29942,"lon":5.36528,"is_reserved":false,"is_disabled":false,"rental_uris":{"android":"levelo://app?vid=949d0250-f694-40d7-b468-c88d9163bf6e","ios":"levelo://app?vid=949d0250-f694-40d7-b468-c88d9163bf6e"},"vehicle_type_id":"4","last_reported":1767107519,"current_range_meters":15200,"station_id":"ce4bgm92rcd13ifvqbr0","pricing_plan_id":"cebpf4jnsgd1na2vs0mg"},{"bike_id":"332c58eb-eed1-487e-afe2-b65da9208ee9","system_id":"levelo_inurba_marseille","lat":43.23207,"lon":5.35548,"is_reserved":false,"is_disabled":false,"rental_uris":{"android":"levelo://app?vid=332c58eb-eed1-487e-afe2-b65da9208ee9","ios":"levelo://app?vid=332c58eb-eed1-487e-afe2-b65da9208ee9"},"vehicle_type_id":"4","last_reported":1767107519,"current_range_meters":16000,"station_id":"ce4bhu92rcd13ifvqi70","pricing_plan_id":"cebpf4jnsgd1na2vs0mg"},{"bike_id":"efd33062-2cef-445f-af98-648f578e9c2a","system_id":"levelo_inurba_marseille","lat":43.32004,"lon":5.41564,"is_reserved":false,"is_disabled":false,"rental_uris":{"android":"levelo://app?vid=efd33062-2cef-445f-af98-648f578e9c2a","ios":"levelo://app?vid=efd33062-2cef-445f-af98-648f578e9c2a"},"vehicle_type_id":"4","last_reported":1767107519,"current_range_meters":16000,"station_id":"ce4bhq92rcd13ifvqhkg","pricing_plan_id":"cebpf4jnsgd1na2vs0mg"},{"bike_id":"4bc57557-a1ff-4445-8883-a2ab5098f534","system_id":"levelo_inurba_marseille","lat":43.32868,"lon":5.36706,"is_reserved":false,"is_disabled":false,"rental_uris":{"android":"levelo://app?vid=4bc57557-a1ff-4445-8883-a2ab5098f534","ios":"levelo://app?vid=4bc57557-a1ff-4445-8883-a2ab5098f534"},"vehicle_type_id":"4","last_reported":1767107519,"current_range_meters":16000,"station_id":"","pricing_plan_id":"cebpf4jnsgd1na2vs0mg"},{"bike_id":"6dbff7aa-4317-43a7-8a35-7178c092bc64","system_id":"levelo_inurba_marseille","lat":43.217431,"lon":5.346049,"is_reserved":false,"is_disabled":false,"rental_uris":{"android":"levelo://app?vid=6dbff7aa-4317-43a7-8a35-7178c092bc64","ios":"levelo://app?vid=6dbff7aa-4317-43a7-8a35-7178c092bc64"},"vehicle_type_id":"4","last_reported":1767107519,"current_range_meters":16000,"station_id":"","pricing_plan_id":"cebpf4jnsgd1na2vs0mg"},{"bike_id":"80adb258-f649-49a8-8a18-d47a703e3f00","system_id":"levelo_inurba_marseille","lat":43.33058,"lon":5.37838,"is_reserved":false,"is_disabled":false,"rental_uris":{"android":"levelo://app?vid=80adb258-f649-49a8-8a18-d47a703e3f00","ios":"levelo://app?vid=80adb258-f649-49a8-8a18-d47a703e3f00"},"vehicle_type_id":"4","last_reported":1767107519,"current_range_meters":16000,"station_id":"","pricing_plan_id":"cebpf4jnsgd1na2vs0mg"},{"bike_id":"faa4d9a6-b5f6-48ec-a430-f7e8d22d619e","system_id":"levelo_inurba_marseille","lat":43.27369,"lon":5.36205,"is_reserved":false,"is_disabled":false,"rental_uris":{"android":"levelo://app?vid=faa4d9a6-b5f6-48ec-a430-f7e8d22d619e","ios":"levelo://app?vid=faa4d9a6-b5f6-48ec-a430-f7e8d22d619e"},"vehicle_type_id":"4","last_reported":1767107519,"current_range_meters":16000,"station_id":"ce4bhbh2rcd13ifvqeo0","pricing_plan_id":"cebpf4jnsgd1na2vs0mg"},{"bike_id":"97ff4056-c02b-487e-a92e-e65288becb53","system_id":"levelo_inurba_marseille","lat":43.29622,"lon":5.37708,"is_reserved":false,"is_disabled":false,"rental_uris":{"android":"levelo://app?vid=97ff4056-c02b-487e-a92e-e65288becb53","ios":"levelo://app?vid=97ff4056-c02b-487e-a92e-e65288becb53"},"vehicle_type_id":"4","last_reported":1767107519,"current_range_meters":16000,"station_id":"ce4bgi92rcd13ifvqb90","pricing_plan_id":"cebpf4jnsgd1na2vs0mg"},{"bike_id":"a4200858-da27-4c7d-8088-f9021985e4b9","system_id":"levelo_inurba_marseille","lat":43.26804,"lon":5.40271,"is_reserved":false,"is_disabled":false,"rental_uris":{"android":"levelo://app?vid=a4200858-da27-4c7d-8088-f9021985e4b9","ios":"levelo://app?vid=a4200858-da27-4c7d-8088-f9021985e4b9"},"vehicle_type_id":"4","last_reported":1767107519,"current_range_meters":16000,"station_id":"ce501612rcd8frsf0b60","pricing_plan_id":"cebpf4jnsgd1na2vs0mg"},{"bike_id":"6b144ba1-b338-4534-8e6b-b544b21a5420","system_id":"levelo_inurba_marseille","lat":43.298945,"lon":5.436689,"is_reserved":false,"is_disabled":false,"rental_uris":{"android":"levelo://app?vid=6b144ba1-b338-4534-8e6b-b544b21a5420","ios":"levelo://app?vid=6b144ba1-b338-4534-8e6b-b544b21a5420"},"vehicle_type_id":"4","last_reported":1767107519,"current_range_meters":16000,"station_id":"ce4bhpp2rcd13ifvqhfg","pricing_plan_id":"cebpf4jnsgd1na2vs0mg"},{"bike_id":"8c27f8dd-49de-48cb-b4c0-2c146ce86148","system_id":"levelo_inurba_marseille","lat":43.298782,"lon":5.38113,"is_reserved":false,"is_disabled":false,"rental_uris":{"android":"levelo://app?vid=8c27f8dd-49de-48cb-b4c0-2c146ce86148","ios":"levelo://app?vid=8c27f8dd-49de-48cb-b4c0-2c146ce86148"},"vehicle_type_id":"4","last_reported":1767107519,"current_range_meters":16000,"station_id":"ce4bgj12rcd13ifvqbc0","pricing_plan_id":"cebpf4jnsgd1na2vs0mg"},{"bike_id":"4e6fb213-9124-4b2c-bc72-0f2f931004c8","system_id":"levelo_inurba_marseille","lat":43.32336,"lon":5.3671,"is_reserved":false,"is_disabled":true,"rental_uris":{"android":"levelo://app?vid=4e6fb213-9124-4b2c-bc72-0f2f931004c8","ios":"levelo://app?vid=4e6fb213-9124-4b2c-bc72-0f2f931004c8"},"vehicle_type_id":"4","last_reported":1767107519,"current_range_meters":16000,"station_id":"ce4bhsh2rcd13ifvqi2g","pricing_plan_id":"cebpf4jnsgd1na2vs0mg"},{"bike_id":"d49fd2c9-dca5-4864-87e0-359520dd27b8","system_id":"levelo_inurba_marseille","lat":43.26118,"lon":5.39739,"is_reserved":false,"is_disabled":false,"rental_uris":{"android":"levelo://app?vid=d49fd2c9-dca5-4864-87e0-359520dd27b8","ios":"levelo://app?vid=d49fd2c9-dca5-4864-87e0-359520dd27b8"},"vehicle_type_id":"4","last_reported":1767107519,"current_range_meters":16000,"station_id":"","pricing_plan_id":"cebpf4jnsgd1na2vs0mg"},{"bike_id":"98cfcb6c-38cd-4083-bfae-b9c6a54fbe45","system_id":"levelo_inurba_marseille","lat":43.30624,"lon":5.37195,"is_reserved":false,"is_disabled":false,"rental_uris":{"android":"levelo://app?vid=98cfcb6c-38cd-4083-bfae-b9c6a54fbe45","ios":"levelo://app?vid=98cfcb6c-38cd-4083-bfae-b9c6a54fbe45"},"vehicle_type_id":"4","last_reported":1767107519,"current_range_meters":16000,"station_id":"ce4bgqh2rcd13ifvqc4g","pricing_plan_id":"cebpf4jnsgd1na2vs0mg"},{"bike_id":"d9a508f8-3915-445b-8ef3-5dfbb8f351ee","system_id":"levelo_inurba_marseille","lat":43.30553,"lon":5.36529,"is_reserved":false,"is_disabled":false,"rental_uris":{"android":"levelo://app?vid=d9a508f8-3915-445b-8ef3-5dfbb8f351ee","ios":"levelo://app?vid=d9a508f8-3915-445b-8ef3-5dfbb8f351ee"},"vehicle_type_id":"4","last_reported":1767107519,"current_range_meters":16000,"station_id":"ce4bgs12rcd13ifvqcag","pricing_plan_id":"cebpf4jnsgd1na2vs0mg"},{"bike_id":"090a2147-0e93-4991-bcb3-0fabd8441d1e","system_id":"levelo_inurba_marseille","lat":43.255822,"lon":5.382252,"is_reserved":false,"is_disabled":false,"rental_uris":{"android":"levelo://app?vid=090a2147-0e93-4991-bcb3-0fabd8441d1e","ios":"levelo://app?vid=090a2147-0e93-4991-bcb3-0fabd8441d1e"},"vehicle_type_id":"4","last_reported":1767107519,"current_range_meters":16400,"station_id":"ce4bhih2rcd13ifvqfs0","pricing_plan_id":"cebpf4jnsgd1na2vs0mg"},{"bike_id":"90dac6f2-4e58-4623-b929-4f8d06ec1c31","system_id":"levelo_inurba_marseille","lat":43.28502,"lon":5.425386,"is_reserved":false,"is_disabled":false,"rental_uris":{"android":"levelo://app?vid=90dac6f2-4e58-4623-b929-4f8d06ec1c31","ios":"levelo://app?vid=90dac6f2-4e58-4623-b929-4f8d06ec1c31"},"vehicle_type_id":"4","last_reported":1767107519,"current_range_meters":16400,"station_id":"","pricing_plan_id":"cebpf4jnsgd1na2vs0mg"},{"bike_id":"a01eadb7-a5ba-4743-8b3c-be0d9e85fba7","system_id":"levelo_inurba_marseille","lat":43.24074,"lon":5.37761,"is_reserved":false,"is_disabled":false,"rental_uris":{"android":"levelo://app?vid=a01eadb7-a5ba-4743-8b3c-be0d9e85fba7","ios":"levelo://app?vid=a01eadb7-a5ba-4743-8b3c-be0d9e85fba7"},"vehicle_type_id":"4","last_reported":1767107519,"current_range_meters":16400,"station_id":"ce4bhnp2rcd13ifvqgvg","pricing_plan_id":"cebpf4jnsgd1na2vs0mg"},{"bike_id":"10590227-3134-42ff-a7cd-7942821336b8","system_id":"levelo_inurba_marseille","lat":43.2994,"lon":5.3656,"is_reserved":false,"is_disabled":false,"rental_uris":{"android":"levelo://app?vid=10590227-3134-42ff-a7cd-7942821336b8","ios":"levelo://app?vid=10590227-3134-42ff-a7cd-7942821336b8"},"vehicle_type_id":"4","last_reported":1767107519,"current_range_meters":16400,"station_id":"ce4bgm92rcd13ifvqbr0","pricing_plan_id":"cebpf4jnsgd1na2vs0mg"},{"bike_id":"090deb3c-b463-4496-9a6a-019b5e498763","system_id":"levelo_inurba_marseille","lat":43.3237,"lon":5.36704,"is_reserved":false,"is_disabled":false,"rental_uris":{"android":"levelo://app?vid=090deb3c-b463-4496-9a6a-019b5e498763","ios":"levelo://app?vid=090deb3c-b463-4496-9a6a-019b5e498763"},"vehicle_type_id":"4","last_reported":1767107519,"current_range_meters":16400,"station_id":"","pricing_plan_id":"cebpf4jnsgd1na2vs0mg"},{"bike_id":"789d72be-8f05-408e-a2a3-cd5269a54261","system_id":"levelo_inurba_marseille","lat":43.23782,"lon":5.36637,"is_reserved":false,"is_disabled":false,"rental_uris":{"android":"levelo://app?vid=789d72be-8f05-408e-a2a3-cd5269a54261","ios":"levelo://app?vid=789d72be-8f05-408e-a2a3-cd5269a54261"},"vehicle_type_id":"4","last_reported":1767107519,"current_range_meters":16400,"station_id":"st_d3nk18o9ro0c73en2l3g","pricing_plan_id":"cebpf4jnsgd1na2vs0mg"},{"bike_id":"31ed08a7-84ff-478c-8516-74d4fb6dc660","system_id":"levelo_inurba_marseille","lat":43.301,"lon":5.39075,"is_reserved":false,"is_disabled":false,"rental_uris":{"android":"levelo://app?vid=31ed08a7-84ff-478c-8516-74d4fb6dc660","ios":"levelo://app?vid=31ed08a7-84ff-478c-8516-74d4fb6dc660"},"vehicle_type_id":"4","last_reported":1767107519,"current_range_meters":16400,"station_id":"ce4bh192rcd13ifvqdb0","pricing_plan_id":"cebpf4jnsgd1na2vs0mg"},{"bike_id":"f1c6d68f-f9d3-4e50-9c33-50830b5803db","system_id":"levelo_inurba_marseille","lat":43.29687,"lon":5.37277,"is_reserved":false,"is_disabled":false,"rental_uris":{"android":"levelo://app?vid=f1c6d68f-f9d3-4e50-9c33-50830b5803db","ios":"levelo://app?vid=f1c6d68f-f9d3-4e50-9c33-50830b5803db"},"vehicle_type_id":"4","last_reported":1767107519,"current_range_meters":16400,"station_id":"ce4bgk12rcd13ifvqbj0","pricing_plan_id":"cebpf4jnsgd1na2vs0mg"},{"bike_id":"2479f115-92a1-498b-904b-2d2325756718","system_id":"levelo_inurba_marseille","lat":43.29814,"lon":5.44035,"is_reserved":false,"is_disabled":false,"rental_uris":{"android":"levelo://app?vid=2479f115-92a1-498b-904b-2d2325756718","ios":"levelo://app?vid=2479f115-92a1-498b-904b-2d2325756718"},"vehicle_type_id":"4","last_reported":1767107519,"current_range_meters":16400,"station_id":"st_d3jp68qikq2c7381ktn0","pricing_plan_id":"cebpf4jnsgd1na2vs0mg"},{"bike_id":"d59e7b95-06d1-490f-ae32-f5d5c93174f7","system_id":"levelo_inurba_marseille","lat":43.217535,"lon":5.34602,"is_reserved":false,"is_disabled":false,"rental_uris":{"android":"levelo://app?vid=d59e7b95-06d1-490f-ae32-f5d5c93174f7","ios":"levelo://app?vid=d59e7b95-06d1-490f-ae32-f5d5c93174f7"},"vehicle_type_id":"4","last_reported":1767107519,"current_range_meters":16400,"station_id":"","pricing_plan_id":"cebpf4jnsgd1na2vs0mg"},{"bike_id":"15782232-0dc5-4be5-bd24-78b64979f685","system_id":"levelo_inurba_marseille","lat":43.23796,"lon":5.36611,"is_reserved":false,"is_disabled":false,"rental_uris":{"android":"levelo://app?vid=15782232-0dc5-4be5-bd24-78b64979f685","ios":"levelo://app?vid=15782232-0dc5-4be5-bd24-78b64979f685"},"vehicle_type_id":"4","last_reported":1767107519,"current_range_meters":16400,"station_id":"st_d3nk18o9ro0c73en2l3g","pricing_plan_id":"cebpf4jnsgd1na2vs0mg"},{"bike_id":"96657df9-7d68-4cd8-9f06-a5e501866c49","system_id":"levelo_inurba_marseille","lat":43.29287,"lon":5.37518,"is_reserved":false,"is_disabled":false,"rental_uris":{"android":"levelo://app?vid=96657df9-7d68-4cd8-9f06-a5e501866c49","ios":"levelo://app?vid=96657df9-7d68-4cd8-9f06-a5e501866c49"},"vehicle_type_id":"4","last_reported":1767107519,"current_range_meters":16400,"station_id":"","pricing_plan_id":"cebpf4jnsgd1na2vs0mg"},{"bike_id":"cf61d156-dac6-4f0e-b382-70446db78ff3","system_id":"levelo_inurba_marseille","lat":43.32356,"lon":5.36741,"is_reserved":false,"is_disabled":false,"rental_uris":{"android":"levelo://app?vid=cf61d156-dac6-4f0e-b382-70446db78ff3","ios":"levelo://app?vid=cf61d156-dac6-4f0e-b382-70446db78ff3"},"vehicle_type_id":"4","last_reported":1767107519,"current_range_meters":16400,"station_id":"ce4bhsh2rcd13ifvqi2g","pricing_plan_id":"cebpf4jnsgd1na2vs0mg"},{"bike_id":"eb33853a-99e6-4a64-b402-a98a4eae2241","system_id":"levelo_inurba_marseille","lat":43.29663,"lon":5.38038,"is_reserved":false,"is_disabled":false,"rental_uris":{"android":"levelo://app?vid=eb33853a-99e6-4a64-b402-a98a4eae2241","ios":"levelo://app?vid=eb33853a-99e6-4a64-b402-a98a4eae2241"},"vehicle_type_id":"4","last_reported":1767107519,"current_range_meters":16400,"station_id":"","pricing_plan_id":"cebpf4jnsgd1na2vs0mg"},{"bike_id":"17b1101e-e68f-4d8f-a772-39bb18a0d2bc","system_id":"levelo_inurba_marseille","lat":43.29888,"lon":5.37662,"is_reserved":false,"is_disabled":false,"rental_uris":{"android":"levelo://app?vid=17b1101e-e68f-4d8f-a772-39bb18a0d2bc","ios":"levelo://app?vid=17b1101e-e68f-4d8f-a772-39bb18a0d2bc"},"vehicle_type_id":"4","last_reported":1767107519,"current_range_meters":16400,"station_id":"","pricing_plan_id":"cebpf4jnsgd1na2vs0mg"},{"bike_id":"bffb8c0f-38b0-4fc8-b34a-26d9d3345043","system_id":"levelo_inurba_marseille","lat":43.2635,"lon":5.41057,"is_reserved":false,"is_disabled":false,"rental_uris":{"android":"levelo://app?vid=bffb8c0f-38b0-4fc8-b34a-26d9d3345043","ios":"levelo://app?vid=bffb8c0f-38b0-4fc8-b34a-26d9d3345043"},"vehicle_type_id":"4","last_reported":1767107519,"current_range_meters":16400,"station_id":"st_d4e5ca6na9uc73bfl5fg","pricing_plan_id":"cebpf4jnsgd1na2vs0mg"},{"bike_id":"45ef38d2-fdfa-44bd-9034-07597b84a142","system_id":"levelo_inurba_marseille","lat":43.33551,"lon":5.37461,"is_reserved":false,"is_disabled":false,"rental_uris":{"android":"levelo://app?vid=45ef38d2-fdfa-44bd-9034-07597b84a142","ios":"levelo://app?vid=45ef38d2-fdfa-44bd-9034-07597b84a142"},"vehicle_type_id":"4","last_reported":1767107519,"current_range_meters":16400,"station_id":"st_d46tts09ee8s73dlu43g","pricing_plan_id":"cebpf4jnsgd1na2vs0mg"},{"bike_id":"92fbef9b-856d-4af1-a778-aa8d14a88f71","system_id":"levelo_inurba_marseille","lat":43.28278,"lon":5.35076,"is_reserved":false,"is_disabled":false,"rental_uris":{"android":"levelo://app?vid=92fbef9b-856d-4af1-a778-aa8d14a88f71","ios":"levelo://app?vid=92fbef9b-856d-4af1-a778-aa8d14a88f71"},"vehicle_type_id":"4","last_reported":1767107519,"current_range_meters":16400,"station_id":"ce4bhbp2rcd13ifvqerg","pricing_plan_id":"cebpf4jnsgd1na2vs0mg"},{"bike_id":"b7f64a09-e08d-43c0-8d6c-41a911e26a35","system_id":"levelo_inurba_marseille","lat":43.26702,"lon":5.38251,"is_reserved":false,"is_disabled":false,"rental_uris":{"android":"levelo://app?vid=b7f64a09-e08d-43c0-8d6c-41a911e26a35","ios":"levelo://app?vid=b7f64a09-e08d-43c0-8d6c-41a911e26a35"},"vehicle_type_id":"4","last_reported":1767107519,"current_range_meters":16400,"station_id":"ce4bhg92rcd13ifvqf90","pricing_plan_id":"cebpf4jnsgd1na2vs0mg"},{"bike_id":"b9f5bb9a-d9aa-4714-a9ae-ceaed3ab533e","system_id":"levelo_inurba_marseille","lat":43.29632,"lon":5.38117,"is_reserved":false,"is_disabled":false,"rental_uris":{"android":"levelo://app?vid=b9f5bb9a-d9aa-4714-a9ae-ceaed3ab533e","ios":"levelo://app?vid=b9f5bb9a-d9aa-4714-a9ae-ceaed3ab533e"},"vehicle_type_id":"4","last_reported":1767107519,"current_range_meters":16400,"station_id":"ce4bgl12rcd13ifvqbo0","pricing_plan_id":"cebpf4jnsgd1na2vs0mg"},{"bike_id":"3d5ba894-003e-479c-87c5-e5669cf7f138","system_id":"levelo_inurba_marseille","lat":43.289734,"lon":5.378417,"is_reserved":false,"is_disabled":false,"rental_uris":{"android":"levelo://app?vid=3d5ba894-003e-479c-87c5-e5669cf7f138","ios":"levelo://app?vid=3d5ba894-003e-479c-87c5-e5669cf7f138"},"vehicle_type_id":"4","last_reported":1767107519,"current_range_meters":16400,"station_id":"ce4bh9p2rcd13ifvqed0","pricing_plan_id":"cebpf4jnsgd1na2vs0mg"},{"bike_id":"6480445f-2a8e-470c-b5e6-d7f2ba82bc78","system_id":"levelo_inurba_marseille","lat":43.296884,"lon":5.373041,"is_reserved":false,"is_disabled":false,"rental_uris":{"android":"levelo://app?vid=6480445f-2a8e-470c-b5e6-d7f2ba82bc78","ios":"levelo://app?vid=6480445f-2a8e-470c-b5e6-d7f2ba82bc78"},"vehicle_type_id":"4","last_reported":1767107519,"current_range_meters":16400,"station_id":"","pricing_plan_id":"cebpf4jnsgd1na2vs0mg"},{"bike_id":"d8196cf8-2f9e-4fc6-a13e-9853e843aed7","system_id":"levelo_inurba_marseille","lat":43.2864,"lon":5.37076,"is_reserved":false,"is_disabled":false,"rental_uris":{"android":"levelo://app?vid=d8196cf8-2f9e-4fc6-a13e-9853e843aed7","ios":"levelo://app?vid=d8196cf8-2f9e-4fc6-a13e-9853e843aed7"},"vehicle_type_id":"4","last_reported":1767107519,"current_range_meters":16400,"station_id":"ce4bht12rcd13ifvqi60","pricing_plan_id":"cebpf4jnsgd1na2vs0mg"},{"bike_id":"77b2e10d-5f41-46d4-8af3-dc3c16ba2c51","system_id":"levelo_inurba_marseille","lat":43.28618,"lon":5.35134,"is_reserved":false,"is_disabled":false,"rental_uris":{"android":"levelo://app?vid=77b2e10d-5f41-46d4-8af3-dc3c16ba2c51","ios":"levelo://app?vid=77b2e10d-5f41-46d4-8af3-dc3c16ba2c51"},"vehicle_type_id":"4","last_reported":1767107519,"current_range_meters":16400,"station_id":"ce4bhch2rcd13ifvqeug","pricing_plan_id":"cebpf4jnsgd1na2vs0mg"},{"bike_id":"5401de85-2150-40d3-a790-950b4a025395","system_id":"levelo_inurba_marseille","lat":43.33546,"lon":5.37451,"is_reserved":false,"is_disabled":false,"rental_uris":{"android":"levelo://app?vid=5401de85-2150-40d3-a790-950b4a025395","ios":"levelo://app?vid=5401de85-2150-40d3-a790-950b4a025395"},"vehicle_type_id":"4","last_reported":1767107519,"current_range_meters":16800,"station_id":"st_d46tts09ee8s73dlu43g","pricing_plan_id":"cebpf4jnsgd1na2vs0mg"},{"bike_id":"13cae616-0f70-485f-9e4f-e60d969786a0","system_id":"levelo_inurba_marseille","lat":43.29287,"lon":5.37438,"is_reserved":false,"is_disabled":false,"rental_uris":{"android":"levelo://app?vid=13cae616-0f70-485f-9e4f-e60d969786a0","ios":"levelo://app?vid=13cae616-0f70-485f-9e4f-e60d969786a0"},"vehicle_type_id":"4","last_reported":1767107519,"current_range_meters":16800,"station_id":"","pricing_plan_id":"cebpf4jnsgd1na2vs0mg"},{"bike_id":"e51dd7bb-b0f2-48d0-ba6f-95a4bc60d5f4","system_id":"levelo_inurba_marseille","lat":43.27065,"lon":5.38299,"is_reserved":false,"is_disabled":false,"rental_uris":{"android":"levelo://app?vid=e51dd7bb-b0f2-48d0-ba6f-95a4bc60d5f4","ios":"levelo://app?vid=e51dd7bb-b0f2-48d0-ba6f-95a4bc60d5f4"},"vehicle_type_id":"4","last_reported":1767107519,"current_range_meters":16800,"station_id":"st_d3n2fo6cfp8s73cte1j0","pricing_plan_id":"cebpf4jnsgd1na2vs0mg"},