{"last_updated":1703247171,"ttl":30,"version":"2.2","data":{"bikes":[{"bike_id":"61ea5a5d-9237-4652-afe7-eef3dd69c4f1","system_id":"levelo_inurba_marseille","lat":43.31341,"lon":5.367098,"is_reserved":false,"is_disabled":false,"rental_uris":{"android":"levelo://app?vid=61ea5a5d-9237-4652-afe7-eef3dd69c4f1","ios":"levelo://app?vid=61ea5a5d-9237-4652-afe7-eef3dd69c4f1"},"vehicle_type_id":"4","last_reported":1703247171,"current_range_meters":28800,"station_id":"ce4bgr92rcd13ifvqc6g","pricing_plan_id":"free"},{"bike_id":"fa5948ab-141d-43da-8a7b-070662ff9bc3","system_id":"levelo_inurba_marseille","lat":43.312239,"lon":5.368562,"is_reserved":false,"is_disabled":false,"rental_uris":{"android":"levelo://app?vid=fa5948ab-141d-43da-8a7b-070662ff9bc3","ios":"levelo://app?vid=fa5948ab-141d-43da-8a7b-070662ff9bc3"},"vehicle_type_id":"4","last_reported":1703247171,"current_range_meters":32000,"station_id":"ce4bgl92rcd13ifvqbq0","pricing_plan_id":"free"},{"bike_id":"27bda559-c3af-49a7-9edc-bd87c1f5cc4b","system_id":"levelo_inurba_marseille","lat":43.312239,"lon":5.368562,"is_reserved":false,"is_disabled":false,"rental_uris":{"android":"levelo://app?vid=27bda559-c3af-49a7-9edc-bd87c1f5cc4b","ios":"levelo://app?vid=27bda559-c3af-49a7-9edc-bd87c1f5cc4b"},"vehicle_type_id":"4","last_reported":1703247171,"current_range_meters":0,"station_id":"ce4bgl92rcd13ifvqbq0","pricing_plan_id":"free"},{"bike_id":"aa0789ac-8076-426c-ac5c-4a8a9e8240ed","system_id":"levelo_inurba_marseille","lat":43.312239,"lon":5.368562,"is_reserved":false,"is_disabled":false,"rental_uris":{"android":"levelo://app?vid=aa0789ac-8076-426c-ac5c-4a8a9e8240ed","ios":"levelo://app?vid=aa0789ac-8076-426c-ac5c-4a8a9e8240ed"},"vehicle_type_id":"4","last_reported":1703247171,"current_range_meters":13600,"station_id":"ce4bgl92rcd13ifvqbq0","pricing_plan_id":"free"},{"bike_id":"a6d8aaf5-05dd-43b4-9695-3814a2bffc02","system_id":"levelo_inurba_marseille","lat":43.309076,"lon":5.368465,"is_reserved":false,"is_disabled":false,"rental_uris":{"android":"levelo://app?vid=a6d8aaf5-05dd-43b4-9695-3814a2bffc02","ios":"levelo://app?vid=a6d8aaf5-05dd-43b4-9695-3814a2bffc02"},"vehicle_type_id":"4","last_reported":1703247171,"current_range_meters":27200,"station_id":"ce4bgn92rcd13ifvqbvg","pricing_plan_id":"free"},{"bike_id":"005b616b-e817-4c63-8e37-c457555addce","system_id":"levelo_inurba_marseille","lat":43.309076,"lon":5.368465,"is_reserved":false,"is_disabled":false,"rental_uris":{"android":"levelo://app?vid=005b616b-e817-4c63-8e37-c457555addce","ios":"levelo://app?vid=005b616b-e817-4c63-8e37-c457555addce"},"vehicle_type_id":"4","last_reported":1703247171,"current_range_meters":0,"station_id":"ce4bgn92rcd13ifvqbvg","pricing_plan_id":"free"},{"bike_id":"d48610f4-7c11-406d-b779-a2dc58f8203e","system_id":"levelo_inurba_marseille","lat":43.309076,"lon":5.368465,"is_reserved":false,"is_disabled":false,"rental_uris":{"android":"levelo://app?vid=d48610f4-7c11-406d-b779-a2dc58f8203e","ios":"levelo://app?vid=d48610f4-7c11-406d-b779-a2dc58f8203e"},"vehicle_type_id":"4","last_reported":1703247171,"current_range_meters":30400,"station_id":"ce4bgn92rcd13ifvqbvg","pricing_plan_id":"free"},{"bike_id":"f8e293f4-994b-404c-ad5e-a9c1fe44f873","system_id":"levelo_inurba_marseille","lat":43.31387,"lon":5.374183,"is_reserved":false,"is_disabled":false,"rental_uris":{"android":"levelo://app?vid=f8e293f4-994b-404c-ad5e-a9c1fe44f873","ios":"levelo://app?vid=f8e293f4-994b-404c-ad5e-a9c1fe44f873"},"vehicle_type_id":"4","last_reported":1703247171,"current_range_meters":0,"station_id":"","pricing_plan_id":"free"},{"bike_id":"84448744-ff41-4abb-9bff-91dfee749337","system_id":"levelo_inurba_marseille","lat":43.305712,"lon":5.365641,"is_reserved":false,"is_disabled":false,"rental_uris":{"android":"levelo://app?vid=84448744-ff41-4abb-9bff-91dfee749337","ios":"levelo://app?vid=84448744-ff41-4abb-9bff-91dfee749337"},"vehicle_type_id":"4","last_reported":1703247171,"current_range_meters":0,"station_id":"ce4bgs12rcd13ifvqcag","pricing_plan_id":"free"},{"bike_id":"1d2cd5c4-5d45-4193-aa56-5afa521d8619","system_id":"levelo_inurba_marseille","lat":43.305712,"lon":5.365641,"is_reserved":false,"is_disabled":false,"rental_uris":{"android":"levelo://app?vid=1d2cd5c4-5d45-4193-aa56-5afa521d8619","ios":"levelo://app?vid=1d2cd5c4-5d45-4193-aa56-5afa521d8619"},"vehicle_type_id":"4","last_reported":1703247171,"current_range_meters":24000,"station_id":"ce4bgs12rcd13ifvqcag","pricing_plan_id":"free"},{"bike_id":"7d27b1ec-7145-4c49-a6a2-3a78d19f7fa3","system_id":"levelo_inurba_marseille","lat":43.305368,"lon":5.367343,"is_reserved":false,"is_disabled":false,"rental_uris":{"android":"levelo://app?vid=7d27b1ec-7145-4c49-a6a2-3a78d19f7fa3","ios":"levelo://app?vid=7d27b1ec-7145-4c49-a6a2-3a78d19f7fa3"},"vehicle_type_id":"4","last_reported":1703247171,"current_range_meters":16000,"station_id":"ce4bgrp2rcd13ifvqc9g","pricing_plan_id":"free"},{"bike_id":"5cbff7ea-9629-41b8-af34-411d8f23d87f","system_id":"levelo_inurba_marseille","lat":43.305714,"lon":5.365633,"is_reserved":false,"is_disabled":false,"rental_uris":{"android":"levelo://app?vid=5cbff7ea-9629-41b8-af34-411d8f23d87f","ios":"levelo://app?vid=5cbff7ea-9629-41b8-af34-411d8f23d87f"},"vehicle_type_id":"4","last_reported":1703247171,"current_range_meters":18800,"station_id":"ce4bgs12rcd13ifvqcag","pricing_plan_id":"free"},{"bike_id":"ec910eeb-fc03-4a03-9fd1-55d811603d77","system_id":"levelo_inurba_marseille","lat":43.3054,"lon":5.36531,"is_reserved":false,"is_disabled":false,"rental_uris":{"android":"levelo://app?vid=ec910eeb-fc03-4a03-9fd1-55d811603d77","ios":"levelo://app?vid=ec910eeb-fc03-4a03-9fd1-55d811603d77"},"vehicle_type_id":"4","last_reported":1703247171,"current_range_meters":17200,"station_id":"ce4bgs12rcd13ifvqcag","pricing_plan_id":"free"},{"bike_id":"c763e495-ea42-44d8-8b10-b86911f11c41","system_id":"levelo_inurba_marseille","lat":43.305368,"lon":5.367343,"is_reserved":false,"is_disabled":false,"rental_uris":{"android":"levelo://app?vid=c763e495-ea42-44d8-8b10-b86911f11c41","ios":"levelo://app?vid=c763e495-ea42-44d8-8b10-b86911f11c41"},"vehicle_type_id":"4","last_reported":1703247171,"current_range_meters":12000,"station_id":"ce4bgrp2rcd13ifvqc9g","pricing_plan_id":"free"},{"bike_id":"24795ba9-15e6-400a-bb03-38187a2b0bfc","system_id":"levelo_inurba_marseille","lat":43.305264,"lon":5.365355,"is_reserved":false,"is_disabled":false,"rental_uris":{"android":"levelo://app?vid=24795ba9-15e6-400a-bb03-38187a2b0bfc","ios":"levelo://app?vid=24795ba9-15e6-400a-bb03-38187a2b0bfc"},"vehicle_type_id":"4","last_reported":1703247171,"current_range_meters":31200,"station_id":"ce4bgs12rcd13ifvqcag","pricing_plan_id":"free"},{"bike_id":"c5ea481b-b082-4b82-b5a2-dadbfec54eda","system_id":"levelo_inurba_marseille","lat":43.305989,"lon":5.37225,"is_reserved":false,"is_disabled":false,"rental_uris":{"android":"levelo://app?vid=c5ea481b-b082-4b82-b5a2-dadbfec54eda","ios":"levelo://app?vid=c5ea481b-b082-4b82-b5a2-dadbfec54eda"},"vehicle_type_id":"4","last_reported":1703247171,"current_range_meters":0,"station_id":"ce4bgqh2rcd13ifvqc4g","pricing_plan_id":"free"},{"bike_id":"fea770ea-26f6-460d-b2dd-6cabd49283db","system_id":"levelo_inurba_marseille","lat":43.305989,"lon":5.37225,"is_reserved":false,"is_disabled":false,"rental_uris":{"android":"levelo://app?vid=fea770ea-26f6-460d-b2dd-6cabd49283db","ios":"levelo://app?vid=fea770ea-26f6-460d-b2dd-6cabd49283db"},"vehicle_type_id":"4","last_reported":1703247171,"current_range_meters":31600,"station_id":"ce4bgqh2rcd13ifvqc4g","pricing_plan_id":"free"},{"bike_id":"4cebcad3-0d79-4ad7-8296-d6f3bc1734f2","system_id":"levelo_inurba_marseille","lat":43.311125,"lon":5.377624,"is_reserved":false,"is_disabled":false,"rental_uris":{"android":"levelo://app?vid=4cebcad3-0d79-4ad7-8296-d6f3bc1734f2","ios":"levelo://app?vid=4cebcad3-0d79-4ad7-8296-d6f3bc1734f2"},"vehicle_type_id":"4","last_reported":1703247171,"current_range_meters":9600,"station_id":"ce4bgt92rcd13ifvqcg0","pricing_plan_id":"free"},{"bike_id":"e621f788-e0b8-4fda-933f-4b10808ea0de","system_id":"levelo_inurba_marseille","lat":43.307945,"lon":5.376487,"is_reserved":false,"is_disabled":false,"rental_uris":{"android":"levelo://app?vid=e621f788-e0b8-4fda-933f-4b10808ea0de","ios":"levelo://app?vid=e621f788-e0b8-4fda-933f-4b10808ea0de"},"vehicle_type_id":"4","last_reported":1703247171,"current_range_meters":26800,"station_id":"ce4bgv92rcd13ifvqcq0","pricing_plan_id":"free"},{"bike_id":"e3d412e6-d75e-499f-9b12-871b89eb61ea","system_id":"levelo_inurba_marseille","lat":43.307945,"lon":5.376487,"is_reserved":false,"is_disabled":false,"rental_uris":{"android":"levelo://app?vid=e3d412e6-d75e-499f-9b12-871b89eb61ea","ios":"levelo://app?vid=e3d412e6-d75e-499f-9b12-871b89eb61ea"},"vehicle_type_id":"4","last_reported":1703247171,"current_range_meters":26000,"station_id":"ce4bgv92rcd13ifvqcq0","pricing_plan_id":"free"},{"bike_id":"87f611a7-cff2-4b3e-ba04-2f994d12f6b5","system_id":"levelo_inurba_marseille","lat":43.31698,"lon":5.37736,"is_reserved":false,"is_disabled":false,"rental_uris":{"android":"levelo://app?vid=87f611a7-cff2-4b3e-ba04-2f994d12f6b5","ios":"levelo://app?vid=87f611a7-cff2-4b3e-ba04-2f994d12f6b5"},"vehicle_type_id":"4","last_reported":1703247171,"current_range_meters":20000,"station_id":"ce4bgth2rcd13ifvqch0","pricing_plan_id":"free"},{"bike_id":"bf21e8be-3e41-4872-8aeb-97e285f448f4","system_id":"levelo_inurba_marseille","lat":43.316875,"lon":5.377502,"is_reserved":false,"is_disabled":false,"rental_uris":{"android":"levelo://app?vid=bf21e8be-3e41-4872-8aeb-97e285f448f4","ios":"levelo://app?vid=bf21e8be-3e41-4872-8aeb-97e285f448f4"},"vehicle_type_id":"4","last_reported":1703247171,"current_range_meters":12400,"station_id":"ce4bgth2rcd13ifvqch0","pricing_plan_id":"free"},{"bike_id":"cf23fcc8-d18b-4284-a77c-6b92ec7b59dd","system_id":"levelo_inurba_marseille","lat":43.303046,"lon":5.368981,"is_reserved":false,"is_disabled":false,"rental_uris":{"android":"levelo://app?vid=cf23fcc8-d18b-4284-a77c-6b92ec7b59dd","ios":"levelo://app?vid=cf23fcc8-d18b-4284-a77c-6b92ec7b59dd"},"vehicle_type_id":"4","last_reported":1703247171,"current_range_meters":17200,"station_id":"ce4bgqh2rcd13ifvqc5g","pricing_plan_id":"free"},{"bike_id":"08ed6cbc-2de0-4442-9160-cdb9a2864cb8","system_id":"levelo_inurba_marseille","lat":43.301939,"lon":5.366286,"is_reserved":false,"is_disabled":false,"rental_uris":{"android":"levelo://app?vid=08ed6cbc-2de0-4442-9160-cdb9a2864cb8","ios":"levelo://app?vid=08ed6cbc-2de0-4442-9160-cdb9a2864cb8"},"vehicle_type_id":"4","last_reported":1703247171,"current_range_meters":21600,"station_id":"ce4bgrh2rcd13ifvqc8g","pricing_plan_id":"free"},{"bike_id":"15973805-0110-4b9c-8030-e89b6783aed8","system_id":"levelo_inurba_marseille","lat":43.308012,"lon":5.381511,"is_reserved":false,"is_disabled":false,"rental_uris":{"android":"levelo://app?vid=15973805-0110-4b9c-8030-e89b6783aed8","ios":"levelo://app?vid=15973805-0110-4b9c-8030-e89b6783aed8"},"vehicle_type_id":"4","last_reported":1703247171,"current_range_meters":11600,"station_id":"ce4bgt12rcd13ifvqce0","pricing_plan_id":"free"},{"bike_id":"25531028-1f45-4370-8d4d-8054c0f779b3","system_id":"levelo_inurba_marseille","lat":43.305712,"lon":5.365641,"is_reserved":false,"is_disabled":false,"rental_uris":{"android":"levelo://app?vid=25531028-1f45-4370-8d4d-8054c0f779b3","ios":"levelo://app?vid=25531028-1f45-4370-8d4d-8054c0f779b3"},"vehicle_type_id":"4","last_reported":1703247171,"current_range_meters":26000,"station_id":"ce4bgs12rcd13ifvqcag","pricing_plan_id":"free"},{"bike_id":"015da911-5c3d-4528-b12e-b1fca154be68","system_id":"levelo_inurba_marseille","lat":43.308012,"lon":5.381511,"is_reserved":false,"is_disabled":false,"rental_uris":{"android":"levelo://app?vid=015da911-5c3d-4528-b12e-b1fca154be68","ios":"levelo://app?vid=015da911-5c3d-4528-b12e-b1fca154be68"},"vehicle_type_id":"4","last_reported":1703247171,"current_range_meters":13200,"station_id":"ce4bgt12rcd13ifvqce0","pricing_plan_id":"free"},{"bike_id":"cdbe4d2b-0f40-4f97-be47-19ef580022f0","system_id":"levelo_inurba_marseille","lat":43.308012,"lon":5.381511,"is_reserved":false,"is_disabled":false,"rental_uris":{"android":"levelo://app?vid=cdbe4d2b-0f40-4f97-be47-19ef580022f0","ios":"levelo://app?vid=cdbe4d2b-0f40-4f97-be47-19ef580022f0"},"vehicle_type_id":"4","last_reported":1703247171,"current_range_meters":4000,"station_id":"ce4bgt12rcd13ifvqce0","pricing_plan_id":"free"},{"bike_id":"ea63f5ff-ed2a-4a1c-a64b-fef4232b63de","system_id":"levelo_inurba_marseille","lat":43.324771,"lon":5.36557,"is_reserved":false,"is_disabled":false,"rental_uris":{"android":"levelo://app?vid=ea63f5ff-ed2a-4a1c-a64b-fef4232b63de","ios":"levelo://app?vid=ea63f5ff-ed2a-4a1c-a64b-fef4232b63de"},"vehicle_type_id":"4","last_reported":1703247171,"current_range_meters":30800,"station_id":"ce4bhs12rcd13ifvqhvg","pricing_plan_id":"free"},{"bike_id":"0effb7f6-23e5-4f02-a1eb-80bdf14a191a","system_id":"levelo_inurba_marseille","lat":43.31991,"lon":5.38146,"is_reserved":false,"is_disabled":false,"rental_uris":{"android":"levelo://app?vid=0effb7f6-23e5-4f02-a1eb-80bdf14a191a","ios":"levelo://app?vid=0effb7f6-23e5-4f02-a1eb-80bdf14a191a"},"vehicle_type_id":"4","last_reported":1703247171,"current_range_meters":29200,"station_id":"ce4bhr12rcd13ifvqhpg","pricing_plan_id":"free"},{"bike_id":"dc0f6af5-c02c-4610-baea-e5c6ca16f530","system_id":"levelo_inurba_marseille","lat":43.3199,"lon":5.38149,"is_reserved":false,"is_disabled":false,"rental_uris":{"android":"levelo://app?vid=dc0f6af5-c02c-4610-baea-e5c6ca16f530","ios":"levelo://app?vid=dc0f6af5-c02c-4610-baea-e5c6ca16f530"},"vehicle_type_id":"4","last_reported":1703247171,"current_range_meters":29200,"station_id":"ce4bhr12rcd13ifvqhpg","pricing_plan_id":"free"},{"bike_id":"51360f23-00df-4b8c-b369-faeb35be788d","system_id":"levelo_inurba_marseille","lat":43.31998,"lon":5.38152,"is_reserved":false,"is_disabled":false,"rental_uris":{"android":"levelo://app?vid=51360f23-00df-4b8c-b369-faeb35be788d","ios":"levelo://app?vid=51360f23-00df-4b8c-b369-faeb35be788d"},"vehicle_type_id":"4","last_reported":1703247171,"current_range_meters":27200,"station_id":"ce4bhr12rcd13ifvqhpg","pricing_plan_id":"free"},{"bike_id":"af0ab532-e26f-41d4-b9ce-17ae08ae4cee","system_id":"levelo_inurba_marseille","lat":43.320005,"lon":5.381601,"is_reserved":false,"is_disabled":false,"rental_uris":{"android":"levelo://app?vid=af0ab532-e26f-41d4-b9ce-17ae08ae4cee","ios":"levelo://app?vid=af0ab532-e26f-41d4-b9ce-17ae08ae4cee"},"vehicle_type_id":"4","last_reported":1703247171,"current_range_meters":6800,"station_id":"ce4bhr12rcd13ifvqhpg","pricing_plan_id":"free"},{"bike_id":"07ac9375-19d0-4626-a7c6-d62791dc1075","system_id":"levelo_inurba_marseille","lat":43.299222,"lon":5.365554,"is_reserved":false,"is_disabled":false,"rental_uris":{"android":"levelo://app?vid=07ac9375-19d0-4626-a7c6-d62791dc1075","ios":"levelo://app?vid=07ac9375-19d0-4626-a7c6-d62791dc1075"},"vehicle_type_id":"4","last_reported":1703247171,"current_range_meters":12000,"station_id":"ce4bgm92rcd13ifvqbr0","pricing_plan_id":"free"},{"bike_id":"d2acf4e4-204b-4add-a3f0-b65d309c0805","system_id":"levelo_inurba_marseille","lat":43.299243,"lon":5.37481,"is_reserved":false,"is_disabled":false,"rental_uris":{"android":"levelo://app?vid=d2acf4e4-204b-4add-a3f0-b65d309c0805","ios":"levelo://app?vid=d2acf4e4-204b-4add-a3f0-b65d309c0805"},"vehicle_type_id":"4","last_reported":1703247171,"current_range_meters":20000,"station_id":"ce4bgjh2rcd13ifvqbg0","pricing_plan_id":"free"},{"bike_id":"7a3bbe3a-998e-44ae-87c6-dd227d3231d8","system_id":"levelo_inurba_marseille","lat":43.2985,"lon":5.36285,"is_reserved":false,"is_disabled":false,"rental_uris":{"android":"levelo://app?vid=7a3bbe3a-998e-44ae-87c6-dd227d3231d8","ios":"levelo://app?vid=7a3bbe3a-998e-44ae-87c6-dd227d3231d8"},"vehicle_type_id":"4","last_reported":1703247171,"current_range_meters":26800,"station_id":"ce4bgpp2rcd13ifvqc3g","pricing_plan_id":"free"},{"bike_id":"97561c64-1771-466e-a7b1-d7914393bc53","system_id":"levelo_inurba_marseille","lat":43.299243,"lon":5.37481,"is_reserved":false,"is_disabled":false,"rental_uris":{"android":"levelo://app?vid=97561c64-1771-466e-a7b1-d7914393bc53","ios":"levelo://app?vid=97561c64-1771-466e-a7b1-d7914393bc53"},"vehicle_type_id":"4","last_reported":1703247171,"current_range_meters":29600,"station_id":"ce4bgjh2rcd13ifvqbg0","pricing_plan_id":"free"},{"bike_id":"a4170d26-fe94-4121-a8e7-728173f260e9","system_id":"levelo_inurba_marseille","lat":43.298433,"lon":5.362774,"is_reserved":false,"is_disabled":false,"rental_uris":{"android":"levelo://app?vid=a4170d26-fe94-4121-a8e7-728173f260e9","ios":"levelo://app?vid=a4170d26-fe94-4121-a8e7-728173f260e9"},"vehicle_type_id":"4","last_reported":1703247171,"current_range_meters":29600,"station_id":"ce4bgpp2rcd13ifvqc3g","pricing_plan_id":"free"},{"bike_id":"448e9246-7d9c-42ad-8ba5-43bd16729a06","system_id":"levelo_inurba_marseille","lat":43.299243,"lon":5.374807,"is_reserved":false,"is_disabled":false,"rental_uris":{"android":"levelo://app?vid=448e9246-7d9c-42ad-8ba5-43bd16729a06","ios":"levelo://app?vid=448e9246-7d9c-42ad-8ba5-43bd16729a06"},"vehicle_type_id":"4","last_reported":1703247171,"current_range_meters":18400,"station_id":"ce4bgjh2rcd13ifvqbg0","pricing_plan_id":"free"},{"bike_id":"224c455b-b43c-4eae-a9d2-f41e67d5d380","system_id":"levelo_inurba_marseille","lat":43.299243,"lon":5.37481,"is_reserved":false,"is_disabled":false,"rental_uris":{"android":"levelo://app?vid=224c455b-b43c-4eae-a9d2-f41e67d5d380","ios":"levelo://app?vid=224c455b-b43c-4eae-a9d2-f41e67d5d380"},"vehicle_type_id":"4","last_reported":1703247171,"current_range_meters":6000,"station_id":"ce4bgjh2rcd13ifvqbg0","pricing_plan_id":"free"},{"bike_id":"160cd746-5f2e-4ae4-8992-4209d99b45f1","system_id":"levelo_inurba_marseille","lat":43.299243,"lon":5.374807,"is_reserved":false,"is_disabled":false,"rental_uris":{"android":"levelo://app?vid=160cd746-5f2e-4ae4-8992-4209d99b45f1","ios":"levelo://app?vid=160cd746-5f2e-4ae4-8992-4209d99b45f1"},"vehicle_type_id":"4","last_reported":1703247171,"current_range_meters":30400,"station_id":"ce4bgjh2rcd13ifvqbg0","pricing_plan_id":"free"},{"bike_id":"cd107481-53cd-48ec-85e0-8b833d500d7a","system_id":"levelo_inurba_marseille","lat":43.299243,"lon":5.37481,"is_reserved":false,"is_disabled":false,"rental_uris":{"android":"levelo://app?vid=cd107481-53cd-48ec-85e0-8b833d500d7a","ios":"levelo://app?vid=cd107481-53cd-48ec-85e0-8b833d500d7a"},"vehicle_type_id":"4","last_reported":1703247171,"current_range_meters":15600,"station_id":"ce4bgjh2rcd13ifvqbg0","pricing_plan_id":"free"},{"bike_id":"fad64dd6-9ec4-4bde-aa3a-ff6030426711","system_id":"levelo_inurba_marseille","lat":43.297774,"lon":5.370875,"is_reserved":false,"is_disabled":false,"rental_uris":{"android":"levelo://app?vid=fad64dd6-9ec4-4bde-aa3a-ff6030426711","ios":"levelo://app?vid=fad64dd6-9ec4-4bde-aa3a-ff6030426711"},"vehicle_type_id":"4","last_reported":1703247171,"current_range_meters":27600,"station_id":"ce4bgop2rcd13ifvqc1g","pricing_plan_id":"free"},{"bike_id":"0e18aacc-a0a4-43f4-b14e-a9e7be78440e","system_id":"levelo_inurba_marseille","lat":43.328371,"lon":5.366909,"is_reserved":false,"is_disabled":false,"rental_uris":{"android":"levelo://app?vid=0e18aacc-a0a4-43f4-b14e-a9e7be78440e","ios":"levelo://app?vid=0e18aacc-a0a4-43f4-b14e-a9e7be78440e"},"vehicle_type_id":"4","last_reported":1703247171,"current_range_meters":28800,"station_id":"ce4bhs92rcd13ifvqi0g","pricing_plan_id":"free"},{"bike_id":"e299beb3-acc1-46fa-9fec-22d2fe5e6b13","system_id":"levelo_inurba_marseille","lat":43.328371,"lon":5.366909,"is_reserved":false,"is_disabled":false,"rental_uris":{"android":"levelo://app?vid=e299beb3-acc1-46fa-9fec-22d2fe5e6b13","ios":"levelo://app?vid=e299beb3-acc1-46fa-9fec-22d2fe5e6b13"},"vehicle_type_id":"4","last_reported":1703247171,"current_range_meters":18000,"station_id":"ce4bhs92rcd13ifvqi0g","pricing_plan_id":"free"},{"bike_id":"8bf0395d-c27d-407d-bf00-1fe14b7d1f01","system_id":"levelo_inurba_marseille","lat":43.328371,"lon":5.366909,"is_reserved":false,"is_disabled":false,"rental_uris":{"android":"levelo://app?vid=8bf0395d-c27d-407d-bf00-1fe14b7d1f01","ios":"levelo://app?vid=8bf0395d-c27d-407d-bf00-1fe14b7d1f01"},"vehicle_type_id":"4","last_reported":1703247171,"current_range_meters":5600,"station_id":"ce4bhs92rcd13ifvqi0g","pricing_plan_id":"free"},{"bike_id":"525f6ec1-c089-48ad-8216-d8e073aa768d","system_id":"levelo_inurba_marseille","lat":43.32829,"lon":5.36675,"is_reserved":false,"is_disabled":false,"rental_uris":{"android":"levelo://app?vid=525f6ec1-c089-48ad-8216-d8e073aa768d","ios":"levelo://app?vid=525f6ec1-c089-48ad-8216-d8e073aa768d"},"vehicle_type_id":"4","last_reported":1703247171,"current_range_meters":8000,"station_id":"ce4bhs92rcd13ifvqi0g","pricing_plan_id":"free"},{"bike_id":"b93b01f5-604a-4a62-8b31-422a7e058281","system_id":"levelo_inurba_marseille","lat":43.3283,"lon":5.36678,"is_reserved":false,"is_disabled":false,"rental_uris":{"android":"levelo://app?vid=b93b01f5-604a-4a62-8b31-422a7e058281","ios":"levelo://app?vid=b93b01f5-604a-4a62-8b31-422a7e058281"},"vehicle_type_id":"4","last_reported":1703247171,"current_range_meters":5600,"station_id":"ce4bhs92rcd13ifvqi0g","pricing_plan_id":"free"},{"bike_id":"0c61e5bc-f901-4d08-bb9d-5ad9dd6497f2","system_id":"levelo_inurba_marseille","lat":43.297163,"lon":5.365866,"is_reserved":false,"is_disabled":false,"rental_uris":{"android":"levelo://app?vid=0c61e5bc-f901-4d08-bb9d-5ad9dd6497f2","ios":"levelo://app?vid=0c61e5bc-f901-4d08-bb9d-5ad9dd6497f2"},"vehicle_type_id":"4","last_reported":1703247171,"current_range_meters":22400,"station_id":"ce4bgn12rcd13ifvqbt0","pricing_plan_id":"free"},{"bike_id":"11914dde-91de-4fdf-ab24-de472b689ba3","system_id":"levelo_inurba_marseille","lat":43.32835,"lon":5.36677,"is_reserved":false,"is_disabled":false,"rental_uris":{"android":"levelo://app?vid=11914dde-91de-4fdf-ab24-de472b689ba3","ios":"levelo://app?vid=11914dde-91de-4fdf-ab24-de472b689ba3"},"vehicle_type_id":"4","last_reported":1703247171,"current_range_meters":0,"station_id":"ce4bhs92rcd13ifvqi0g","pricing_plan_id":"free"},{"bike_id":"1ca5ba56-1c12-44ba-a7be-f0db60804dd8","system_id":"levelo_inurba_marseille","lat":43.29585,"lon":5.36734,"is_reserved":false,"is_disabled":false,"rental_uris":{"android":"levelo://app?vid=1ca5ba56-1c12-44ba-a7be-f0db60804dd8","ios":"levelo://app?vid=1ca5ba56-1c12-44ba-a7be-f0db60804dd8"},"vehicle_type_id":"4","last_reported":1703247171,"current_range_meters":29600,"station_id":"ce4bgph2rcd13ifvqc2g","pricing_plan_id":"free"},{"bike_id":"117fb11a-4928-41fe-91e1-e322676c8bba","system_id":"levelo_inurba_marseille","lat":43.29583,"lon":5.36733,"is_reserved":false,"is_disabled":false,"rental_uris":{"android":"levelo://app?vid=117fb11a-4928-41fe-91e1-e322676c8bba","ios":"levelo://app?vid=117fb11a-4928-41fe-91e1-e322676c8bba"},"vehicle_type_id":"4","last_reported":1703247171,"current_range_meters":27600,"station_id":"ce4bgph2rcd13ifvqc2g","pricing_plan_id":"free"},{"bike_id":"5730d61f-901a-4e90-9902-812c9dadaf12","system_id":"levelo_inurba_marseille","lat":43.29573,"lon":5.367355,"is_reserved":false,"is_disabled":false,"rental_uris":{"android":"levelo://app?vid=5730d61f-901a-4e90-9902-812c9dadaf12","ios":"levelo://app?vid=5730d61f-901a-4e90-9902-812c9dadaf12"},"vehicle_type_id":"4","last_reported":1703247171,"current_range_meters":31200,"station_id":"ce4bgph2rcd13ifvqc2g","pricing_plan_id":"free"},{"bike_id":"7eada8fb-8c59-41ea-ae15-1164bd9fc1af","system_id":"levelo_inurba_marseille","lat":43.317557,"lon":5.390173,"is_reserved":false,"is_disabled":false,"rental_uris":{"android":"levelo://app?vid=7eada8fb-8c59-41ea-ae15-1164bd9fc1af","ios":"levelo://app?vid=7eada8fb-8c59-41ea-ae15-1164bd9fc1af"},"vehicle_type_id":"4","last_reported":1703247171,"current_range_meters":29200,"station_id":"ce4bhqp2rcd13ifvqhng","pricing_plan_id":"free"},{"bike_id":"3a1f228d-06ce-4355-b331-b83130b7013a","system_id":"levelo_inurba_marseille","lat":43.317557,"lon":5.390173,"is_reserved":false,"is_disabled":false,"rental_uris":{"android":"levelo://app?vid=3a1f228d-06ce-4355-b331-b83130b7013a","ios":"levelo://app?vid=3a1f228d-06ce-4355-b331-b83130b7013a"},"vehicle_type_id":"4","last_reported":1703247171,"current_range_meters":10800,"station_id":"ce4bhqp2rcd13ifvqhng","pricing_plan_id":"free"},{"bike_id":"d0f589bd-9285-4190-a498-61feccd1ab92","system_id":"levelo_inurba_marseille","lat":43.317557,"lon":5.390173,"is_reserved":false,"is_disabled":false,"rental_uris":{"android":"levelo://app?vid=d0f589bd-9285-4190-a498-61feccd1ab92","ios":"levelo://app?vid=d0f589bd-9285-4190-a498-61feccd1ab92"},"vehicle_type_id":"4","last_reported":1703247171,"current_range_meters":30400,"station_id":"ce4bhqp2rcd13ifvqhng","pricing_plan_id":"free"},{"bike_id":"8b47e4b2-6306-4f05-8229-19ce24e70eeb","system_id":"levelo_inurba_marseille","lat":43.317557,"lon":5.390173,"is_reserved":false,"is_disabled":false,"rental_uris":{"android":"levelo://app?vid=8b47e4b2-6306-4f05-8229-19ce24e70eeb","ios":"levelo://app?vid=8b47e4b2-6306-4f05-8229-19ce24e70eeb"},"vehicle_type_id":"4","last_reported":1703247171,"current_range_meters":8800,"station_id":"ce4bhqp2rcd13ifvqhng","pricing_plan_id":"free"},{"bike_id":"53d02047-2fc2-4d30-88b2-583fd58923ab","system_id":"levelo_inurba_marseille","lat":43.317557,"lon":5.390173,"is_reserved":false,"is_disabled":false,"rental_uris":{"android":"levelo://app?vid=53d02047-2fc2-4d30-88b2-583fd58923ab","ios":"levelo://app?vid=53d02047-2fc2-4d30-88b2-583fd58923ab"},"vehicle_type_id":"4","last_reported":1703247171,"current_range_meters":30400,"station_id":"ce4bhqp2rcd13ifvqhng","pricing_plan_id":"free"},{"bike_id":"b7cda562-a3b5-47b0-9300-c8123f15c454","system_id":"levelo_inurba_marseille","lat":43.29813,"lon":5.38086,"is_reserved":false,"is_disabled":false,"rental_uris":{"android":"levelo://app?vid=b7cda562-a3b5-47b0-9300-c8123f15c454","ios":"levelo://app?vid=b7cda562-a3b5-47b0-9300-c8123f15c454"},"vehicle_type_id":"4","last_reported":1703247171,"current_range_meters":0,"station_id":"ce4bgip2rcd13ifvqbb0","pricing_plan_id":"free"},{"bike_id":"cdbb3913-a868-41ee-9e2b-04003e812124","system_id":"levelo_inurba_marseille","lat":43.29581,"lon":5.37518,"is_reserved":false,"is_disabled":false,"rental_uris":{"android":"levelo://app?vid=cdbb3913-a868-41ee-9e2b-04003e812124","ios":"levelo://app?vid=cdbb3913-a868-41ee-9e2b-04003e812124"},"vehicle_type_id":"4","last_reported":1703247171,"current_range_meters":0,"station_id":"ce4bgh92rcd13ifvqb50","pricing_plan_id":"free"},{"bike_id":"b8027a12-a5e1-466e-a26e-311c864f356c","system_id":"levelo_inurba_marseille","lat":43.298037,"lon":5.381066,"is_reserved":false,"is_disabled":false,"rental_uris":{"android":"levelo://app?vid=b8027a12-a5e1-466e-a26e-311c864f356c","ios":"levelo://app?vid=b8027a12-a5e1-466e-a26e-311c864f356c"},"vehicle_type_id":"4","last_reported":1703247171,"current_range_meters":15600,"station_id":"ce4bgip2rcd13ifvqbb0","pricing_plan_id":"free"},{"bike_id":"1ee7ef13-341d-4bb9-81d5-e362e3e71e74","system_id":"levelo_inurba_marseille","lat":43.298037,"lon":5.381066,"is_reserved":false,"is_disabled":false,"rental_uris":{"android":"levelo://app?vid=1ee7ef13-341d-4bb9-81d5-e362e3e71e74","ios":"levelo://app?vid=1ee7ef13-341d-4bb9-81d5-e362e3e71e74"},"vehicle_type_id":"4","last_reported":1703247171,"current_range_meters":24800,"station_id":"ce4bgip2rcd13ifvqbb0","pricing_plan_id":"free"},{"bike_id":"25cf425b-0c09-4a76-bfeb-7abdefe572d9","system_id":"levelo_inurba_marseille","lat":43.298037,"lon":5.381066,"is_reserved":false,"is_disabled":false,"rental_uris":{"android":"levelo://app?vid=25cf425b-0c09-4a76-bfeb-7abdefe572d9","ios":"levelo://app?vid=25cf425b-0c09-4a76-bfeb-7abdefe572d9"},"vehicle_type_id":"4","last_reported":1703247171,"current_range_meters":24400,"station_id":"ce4bgip2rcd13ifvqbb0","pricing_plan_id":"free"},{"bike_id":"4dda2225-221d-4882-ad34-2c52ef96da8f","system_id":"levelo_inurba_marseille","lat":43.304278,"lon":5.388868,"is_reserved":false,"is_disabled":false,"rental_uris":{"android":"levelo://app?vid=4dda2225-221d-4882-ad34-2c52ef96da8f","ios":"levelo://app?vid=4dda2225-221d-4882-ad34-2c52ef96da8f"},"vehicle_type_id":"4","last_reported":1703247171,"current_range_meters":27200,"station_id":"ce4bgk12rcd13ifvqbi0","pricing_plan_id":"free"},{"bike_id":"252b654f-f979-40b2-a07d-f7df63b42d01","system_id":"levelo_inurba_marseille","lat":43.296263,"lon":5.377094,"is_reserved":false,"is_disabled":false,"rental_uris":{"android":"levelo://app?vid=252b654f-f979-40b2-a07d-f7df63b42d01","ios":"levelo://app?vid=252b654f-f979-40b2-a07d-f7df63b42d01"},"vehicle_type_id":"4","last_reported":1703247171,"current_range_meters":31200,"station_id":"ce4bgi92rcd13ifvqb90","pricing_plan_id":"free"},{"bike_id":"d0866860-5331-4933-a283-d87fafb6e8c7","system_id":"levelo_inurba_marseille","lat":43.296263,"lon":5.377094,"is_reserved":false,"is_disabled":false,"rental_uris":{"android":"levelo://app?vid=d0866860-5331-4933-a283-d87fafb6e8c7","ios":"levelo://app?vid=d0866860-5331-4933-a283-d87fafb6e8c7"},"vehicle_type_id":"4","last_reported":1703247171,"current_range_meters":12800,"station_id":"ce4bgi92rcd13ifvqb90","pricing_plan_id":"free"},{"bike_id":"1378810b-812d-44e5-847a-1b7aeb90e4c4","system_id":"levelo_inurba_marseille","lat":43.299,"lon":5.38357,"is_reserved":false,"is_disabled":false,"rental_uris":{"android":"levelo://app?vid=1378810b-812d-44e5-847a-1b7aeb90e4c4","ios":"levelo://app?vid=1378810b-812d-44e5-847a-1b7aeb90e4c4"},"vehicle_type_id":"4","last_reported":1703247171,"current_range_meters":5200,"station_id":"","pricing_plan_id":"free"},{"bike_id":"34631314-0962-47d3-827c-d4a39d061fc3","system_id":"levelo_inurba_marseille","lat":43.295279,"lon":5.375048,"is_reserved":false,"is_disabled":false,"rental_uris":{"android":"levelo://app?vid=34631314-0962-47d3-827c-d4a39d061fc3","ios":"levelo://app?vid=34631314-0962-47d3-827c-d4a39d061fc3"},"vehicle_type_id":"4","last_reported":1703247171,"current_range_meters":0,"station_id":"ce4bgkp2rcd13ifvqbmg","pricing_plan_id":"free"},{"bike_id":"7919eadd-c520-4cda-9196-5dc5695e55f6","system_id":"levelo_inurba_marseille","lat":43.29821,"lon":5.38272,"is_reserved":false,"is_disabled":false,"rental_uris":{"android":"levelo://app?vid=7919eadd-c520-4cda-9196-5dc5695e55f6","ios":"levelo://app?vid=7919eadd-c520-4cda-9196-5dc5695e55f6"},"vehicle_type_id":"4","last_reported":1703247171,"current_range_meters":6000,"station_id":"","pricing_plan_id":"free"},{"bike_id":"7948a0de-d4af-43d8-935b-8784b45e91b1","system_id":"levelo_inurba_marseille","lat":43.299724,"lon":5.384848,"is_reserved":false,"is_disabled":false,"rental_uris":{"android":"levelo://app?vid=7948a0de-d4af-43d8-935b-8784b45e91b1","ios":"levelo://app?vid=7948a0de-d4af-43d8-935b-8784b45e91b1"},"vehicle_type_id":"4","last_reported":1703247171,"current_range_meters":18800,"station_id":"ce4bgj92rcd13ifvqbd0","pricing_plan_id":"free"},{"bike_id":"687269d2-e082-4930-b7b6-db76459f0cad","system_id":"levelo_inurba_marseille","lat":43.3236,"lon":5.38878,"is_reserved":false,"is_disabled":false,"rental_uris":{"android":"levelo://app?vid=687269d2-e082-4930-b7b6-db76459f0cad","ios":"levelo://app?vid=687269d2-e082-4930-b7b6-db76459f0cad"},"vehicle_type_id":"4","last_reported":1703247171,"current_range_meters":6400,"station_id":"","pricing_plan_id":"free"},{"bike_id":"b0372c6a-c813-462d-a36d-a7ad4a4d9810","system_id":"levelo_inurba_marseille","lat":43.32367,"lon":5.388836,"is_reserved":false,"is_disabled":false,"rental_uris":{"android":"levelo://app?vid=b0372c6a-c813-462d-a36d-a7ad4a4d9810","ios":"levelo://app?vid=b0372c6a-c813-462d-a36d-a7ad4a4d9810"},"vehicle_type_id":"4","last_reported":1703247171,"current_range_meters":5600,"station_id":"ce4bhqp2rcd13ifvqhog","pricing_plan_id":"free"},{"bike_id":"8c03e2ea-0f35-42b2-a4e7-55cc13576059","system_id":"levelo_inurba_marseille","lat":43.32363,"lon":5.38879,"is_reserved":false,"is_disabled":false,"rental_uris":{"android":"levelo://app?vid=8c03e2ea-0f35-42b2-a4e7-55cc13576059","ios":"levelo://app?vid=8c03e2ea-0f35-42b2-a4e7-55cc13576059"},"vehicle_type_id":"4","last_reported":1703247171,"current_range_meters":6400,"station_id":"ce4bhqp2rcd13ifvqhog","pricing_plan_id":"free"},{"bike_id":"7825f2e2-5dc0-48bf-9610-bf0be308ff43","system_id":"levelo_inurba_marseille","lat":43.32359,"lon":5.38884,"is_reserved":false,"is_disabled":false,"rental_uris":{"android":"levelo://app?vid=7825f2e2-5dc0-48bf-9610-bf0be308ff43","ios":"levelo://app?vid=7825f2e2-5dc0-48bf-9610-bf0be308ff43"},"vehicle_type_id":"4","last_reported":1703247171,"current_range_meters":0,"station_id":"","pricing_plan_id":"free"},{"bike_id":"dfdadb00-295f-4147-bb7b-992e830130a9","system_id":"levelo_inurba_marseille","lat":43.323639,"lon":5.38882,"is_reserved":false,"is_disabled":false,"rental_uris":{"android":"levelo://app?vid=dfdadb00-295f-4147-bb7b-992e830130a9","ios":"levelo://app?vid=dfdadb00-295f-4147-bb7b-992e830130a9"},"vehicle_type_id":"4","last_reported":1703247171,"current_range_meters":31600,"station_id":"ce4bhqp2rcd13ifvqhog","pricing_plan_id":"free"},{"bike_id":"aa1bea3e-ff5f-4c49-a630-426ec3e7598d","system_id":"levelo_inurba_marseille","lat":43.32362,"lon":5.38885,"is_reserved":false,"is_disabled":false,"rental_uris":{"android":"levelo://app?vid=aa1bea3e-ff5f-4c49-a630-426ec3e7598d","ios":"levelo://app?vid=aa1bea3e-ff5f-4c49-a630-426ec3e7598d"},"vehicle_type_id":"4","last_reported":1703247171,"current_range_meters":30800,"station_id":"","pricing_plan_id":"free"},{"bike_id":"8721f978-1d93-4f2e-be89-befc63c007a5","system_id":"levelo_inurba_marseille","lat":43.29601,"lon":5.381084,"is_reserved":false,"is_disabled":false,"rental_uris":{"android":"levelo://app?vid=8721f978-1d93-4f2e-be89-befc63c007a5","ios":"levelo://app?vid=8721f978-1d93-4f2e-be89-befc63c007a5"},"vehicle_type_id":"4","last_reported":1703247171,"current_range_meters":30400,"station_id":"ce4bgl12rcd13ifvqbo0","pricing_plan_id":"free"},{"bike_id":"c2ec2338-779a-4f4e-86c6-8b124603ef46","system_id":"levelo_inurba_marseille","lat":43.293259,"lon":5.371586,"is_reserved":false,"is_disabled":false,"rental_uris":{"android":"levelo://app?vid=c2ec2338-779a-4f4e-86c6-8b124603ef46","ios":"levelo://app?vid=c2ec2338-779a-4f4e-86c6-8b124603ef46"},"vehicle_type_id":"4","last_reported":1703247171,"current_range_meters":26000,"station_id":"ce4bgh92rcd13ifvqb40","pricing_plan_id":"free"},{"bike_id":"1a57189c-959b-48df-8d77-b9562aef9df1","system_id":"levelo_inurba_marseille","lat":43.293002,"lon":5.37456,"is_reserved":false,"is_disabled":false,"rental_uris":{"android":"levelo://app?vid=1a57189c-959b-48df-8d77-b9562aef9df1","ios":"levelo://app?vid=1a57189c-959b-48df-8d77-b9562aef9df1"},"vehicle_type_id":"4","last_reported":1703247171,"current_range_meters":5200,"station_id":"ce4bgi12rcd13ifvqb70","pricing_plan_id":"free"},{"bike_id":"5588f852-9371-44ea-8e8f-45ea39252914","system_id":"levelo_inurba_marseille","lat":43.293009,"lon":5.374584,"is_reserved":false,"is_disabled":false,"rental_uris":{"android":"levelo://app?vid=5588f852-9371-44ea-8e8f-45ea39252914","ios":"levelo://app?vid=5588f852-9371-44ea-8e8f-45ea39252914"},"vehicle_type_id":"4","last_reported":1703247171,"current_range_meters":24400,"station_id":"ce4bgi12rcd13ifvqb70","pricing_plan_id":"free"},{"bike_id":"9e1adc52-c0cb-4ea4-879c-734e24dacebf","system_id":"levelo_inurba_marseille","lat":43.305994,"lon":5.393687,"is_reserved":false,"is_disabled":false,"rental_uris":{"android":"levelo://app?vid=9e1adc52-c0cb-4ea4-879c-734e24dacebf","ios":"levelo://app?vid=9e1adc52-c0cb-4ea4-879c-734e24dacebf"},"vehicle_type_id":"4","last_reported":1703247171,"current_range_meters":22000,"station_id":"ce4bh0p2rcd13ifvqd80","pricing_plan_id":"free"},{"bike_id":"e8ff1a99-5cb3-47d9-b2c8-9dacc3fdd96a","system_id":"levelo_inurba_marseille","lat":43.305994,"lon":5.393687,"is_reserved":false,"is_disabled":false,"rental_uris":{"android":"levelo://app?vid=e8ff1a99-5cb3-47d9-b2c8-9dacc3fdd96a","ios":"levelo://app?vid=e8ff1a99-5cb3-47d9-b2c8-9dacc3fdd96a"},"vehicle_type_id":"4","last_reported":1703247171,"current_range_meters":19200,"station_id":"ce4bh0p2rcd13ifvqd80","pricing_plan_id":"free"},{"bike_id":"71e71a18-2d9a-4e49-b8c4-72ed2548ddb0","system_id":"levelo_inurba_marseille","lat":43.305994,"lon":5.393687,"is_reserved":false,"is_disabled":false,"rental_uris":{"android":"levelo://app?vid=71e71a18-2d9a-4e49-b8c4-72ed2548ddb0","ios":"levelo://app?vid=71e71a18-2d9a-4e49-b8c4-72ed2548ddb0"},"vehicle_type_id":"4","last_reported":1703247171,"current_range_meters":20400,"station_id":"ce4bh0p2rcd13ifvqd80","pricing_plan_id":"free"},{"bike_id":"4a47fb71-f85a-4778-97b1-f66750a321a9","system_id":"levelo_inurba_marseille","lat":43.305994,"lon":5.393687,"is_reserved":false,"is_disabled":false,"rental_uris":{"android":"levelo://app?vid=4a47fb71-f85a-4778-97b1-f66750a321a9","ios":"levelo://app?vid=4a47fb71-f85a-4778-97b1-f66750a321a9"},"vehicle_type_id":"4","last_reported":1703247171,"current_range_meters":13600,"station_id":"ce4bh0p2rcd13ifvqd80","pricing_plan_id":"free"},{"bike_id":"08672454-4bbc-437d-9295-b0b15688b6a1","system_id":"levelo_inurba_marseille","lat":43.305994,"lon":5.393687,"is_reserved":false,"is_disabled":false,"rental_uris":{"android":"levelo://app?vid=08672454-4bbc-437d-9295-b0b15688b6a1","ios":"levelo://app?vid=08672454-4bbc-437d-9295-b0b15688b6a1"},"vehicle_type_id":"4","last_reported":1703247171,"current_range_meters":26000,"station_id":"ce4bh0p2rcd13ifvqd80","pricing_plan_id":"free"},{"bike_id":"d43f5993-4bd4-4b7c-af93-79af754bf11f","system_id":"levelo_inurba_marseille","lat":43.305994,"lon":5.393687,"is_reserved":false,"is_disabled":false,"rental_uris":{"android":"levelo://app?vid=d43f5993-4bd4-4b7c-af93-79af754bf11f","ios":"levelo://app?vid=d43f5993-4bd4-4b7c-af93-79af754bf11f"},"vehicle_type_id":"4","last_reported":1703247171,"current_range_meters":5600,"station_id":"ce4bh0p2rcd13ifvqd80","pricing_plan_id":"free"},{"bike_id":"49d4c656-212d-4ea8-8d41-275072787af5","system_id":"levelo_inurba_marseille","lat":43.305994,"lon":5.393687,"is_reserved":false,"is_disabled":false,"rental_uris":{"android":"levelo://app?vid=49d4c656-212d-4ea8-8d41-275072787af5","ios":"levelo://app?vid=49d4c656-212d-4ea8-8d41-275072787af5"},"vehicle_type_id":"4","last_reported":1703247171,"current_range_meters":9600,"station_id":"ce4bh0p2rcd13ifvqd80","pricing_plan_id":"free"},{"bike_id":"3dcd3a9d-fe1b-4339-b76c-c742025199c8","system_id":"levelo_inurba_marseille","lat":43.305994,"lon":5.393687,"is_reserved":false,"is_disabled":false,"rental_uris":{"android":"levelo://app?vid=3dcd3a9d-fe1b-4339-b76c-c742025199c8","ios":"levelo://app?vid=3dcd3a9d-fe1b-4339-b76c-c742025199c8"},"vehicle_type_id":"4","last_reported":1703247171,"current_range_meters":1200,"station_id":"ce4bh0p2rcd13ifvqd80","pricing_plan_id":"free"},{"bike_id":"b9a9e3b0-74ce-45ab-92d4-eab96378f795","system_id":"levelo_inurba_marseille","lat":43.305994,"lon":5.393687,"is_reserved":false,"is_disabled":false,"rental_uris":{"android":"levelo://app?vid=b9a9e3b0-74ce-45ab-92d4-eab96378f795","ios":"levelo://app?vid=b9a9e3b0-74ce-45ab-92d4-eab96378f795"},"vehicle_type_id":"4","last_reported":1703247171,"current_range_meters":1600,"station_id":"ce4bh0p2rcd13ifvqd80","pricing_plan_id":"free"},{"bike_id":"731c1cf0-d2dc-46ff-b827-2a1a15cc0936","system_id":"levelo_inurba_marseille","lat":43.3059,"lon":5.39362,"is_reserved":false,"is_disabled":false,"rental_uris":{"android":"levelo://app?vid=731c1cf0-d2dc-46ff-b827-2a1a15cc0936","ios":"levelo://app?vid=731c1cf0-d2dc-46ff-b827-2a1a15cc0936"},"vehicle_type_id":"4","last_reported":1703247171,"current_range_meters":21200,"station_id":"ce4bh0p2rcd13ifvqd80","pricing_plan_id":"free"},{"bike_id":"f867fe75-abaf-4266-9b59-dc6dcfdf66d1","system_id":"levelo_inurba_marseille","lat":43.305994,"lon":5.393687,"is_reserved":false,"is_disabled":false,"rental_uris":{"android":"levelo://app?vid=f867fe75-abaf-4266-9b59-dc6dcfdf66d1","ios":"levelo://app?vid=f867fe75-abaf-4266-9b59-dc6dcfdf66d1"},"vehicle_type_id":"4","last_reported":1703247171,"current_range_meters":22800,"station_id":"ce4bh0p2rcd13ifvqd80","pricing_plan_id":"free"},{"bike_id":"7ac1fb6c-9029-4dec-ab95-f70a5f600266","system_id":"levelo_inurba_marseille","lat":43.293009,"lon":5.374584,"is_reserved":false,"is_disabled":false,"rental_uris":{"android":"levelo://app?vid=7ac1fb6c-9029-4dec-ab95-f70a5f600266","ios":"levelo://app?vid=7ac1fb6c-9029-4dec-ab95-f70a5f600266"},"vehicle_type_id":"4","last_reported":1703247171,"current_range_meters":11600,"station_id":"ce4bgi12rcd13ifvqb70","pricing_plan_id":"free"},{"bike_id":"a5ace9b7-fc9c-40a4-81c6-7a3d8daedae3","system_id":"levelo_inurba_marseille","lat":43.293009,"lon":5.374584,"is_reserved":false,"is_disabled":false,"rental_uris":{"android":"levelo://app?vid=a5ace9b7-fc9c-40a4-81c6-7a3d8daedae3","ios":"levelo://app?vid=a5ace9b7-fc9c-40a4-81c6-7a3d8daedae3"},"vehicle_type_id":"4","last_reported":1703247171,"current_range_meters":26000,"station_id":"ce4bgi12rcd13ifvqb70","pricing_plan_id":"free"},{"bike_id":"494b866d-4561-4949-8b12-fb023dcddc1a","system_id":"levelo_inurba_marseille","lat":43.2936,"lon":5.37835,"is_reserved":false,"is_disabled":false,"rental_uris":{"android":"levelo://app?vid=494b866d-4561-4949-8b12-fb023dcddc1a","ios":"levelo://app?vid=494b866d-4561-4949-8b12-fb023dcddc1a"},"vehicle_type_id":"4","last_reported":1703247171,"current_range_meters":6800,"station_id":"ce4bgjh2rcd13ifvqbf0","pricing_plan_id":"free"},{"bike_id":"fe11581e-ff0f-485b-aa9a-37d6d7c76381","system_id":"levelo_inurba_marseille","lat":43.302992,"lon":5.392136,"is_reserved":false,"is_disabled":false,"rental_uris":{"android":"levelo://app?vid=fe11581e-ff0f-485b-aa9a-37d6d7c76381","ios":"levelo://app?vid=fe11581e-ff0f-485b-aa9a-37d6d7c76381"},"vehicle_type_id":"4","last_reported":1703247171,"current_range_meters":14800,"station_id":"ce4bgkh2rcd13ifvqbk0","pricing_plan_id":"free"},{"bike_id":"a159c360-4467-47d0-9e0b-bff849b50509","system_id":"levelo_inurba_marseille","lat":43.2936,"lon":5.37835,"is_reserved":false,"is_disabled":false,"rental_uris":{"android":"levelo://app?vid=a159c360-4467-47d0-9e0b-bff849b50509","ios":"levelo://app?vid=a159c360-4467-47d0-9e0b-bff849b50509"},"vehicle_type_id":"4","last_reported":1703247171,"current_range_meters":1600,"station_id":"ce4bgjh2rcd13ifvqbf0","pricing_plan_id":"free"},{"bike_id":"dc77922e-cd6e-4230-b8fe-b7145dad2b57","system_id":"levelo_inurba_marseille","lat":43.293249,"lon":5.371578,"is_reserved":false,"is_disabled":false,"rental_uris":{"android":"levelo://app?vid=dc77922e-cd6e-4230-b8fe-b7145dad2b57","ios":"levelo://app?vid=dc77922e-cd6e-4230-b8fe-b7145dad2b57"},"vehicle_type_id":"4","last_reported":1703247171,"current_range_meters":16400,"station_id":"ce4bgh92rcd13ifvqb40","pricing_plan_id":"free"},{"bike_id":"f913160e-560d-4201-96c7-0e5c6291b113","system_id":"levelo_inurba_marseille","lat":43.293009,"lon":5.374584,"is_reserved":false,"is_disabled":false,"rental_uris":{"android":"levelo://app?vid=f913160e-560d-4201-96c7-0e5c6291b113","ios":"levelo://app?vid=f913160e-560d-4201-96c7-0e5c6291b113"},"vehicle_type_id":"4","last_reported":1703247171,"current_range_meters":18000,"station_id":"ce4bgi12rcd13ifvqb70","pricing_plan_id":"free"},{"bike_id":"93ef2c9e-7b2c-431c-8aef-74ec69e5d019","system_id":"levelo_inurba_marseille","lat":43.291671,"lon":5.371575,"is_reserved":false,"is_disabled":false,"rental_uris":{"android":"levelo://app?vid=93ef2c9e-7b2c-431c-8aef-74ec69e5d019","ios":"levelo://app?vid=93ef2c9e-7b2c-431c-8aef-74ec69e5d019"},"vehicle_type_id":"4","last_reported":1703247171,"current_range_meters":10400,"station_id":"ce4bha92rcd13ifvqeh0","pricing_plan_id":"free"},{"bike_id":"65c3534d-7694-4760-9396-1f7dcbf0c85f","system_id":"levelo_inurba_marseille","lat":43.291675,"lon":5.371583,"is_reserved":false,"is_disabled":false,"rental_uris":{"android":"levelo://app?vid=65c3534d-7694-4760-9396-1f7dcbf0c85f","ios":"levelo://app?vid=65c3534d-7694-4760-9396-1f7dcbf0c85f"},"vehicle_type_id":"4","last_reported":1703247171,"current_range_meters":29200,"station_id":"ce4bha92rcd13ifvqeh0","pricing_plan_id":"free"},{"bike_id":"bc793574-c711-4898-9868-0ee1fdbc4f67","system_id":"levelo_inurba_marseille","lat":43.2984,"lon":5.38908,"is_reserved":false,"is_disabled":false,"rental_uris":{"android":"levelo://app?vid=bc793574-c711-4898-9868-0ee1fdbc4f67","ios":"levelo://app?vid=bc793574-c711-4898-9868-0ee1fdbc4f67"},"vehicle_type_id":"4","last_reported":1703247171,"current_range_meters":21200,"station_id":"","pricing_plan_id":"free"},{"bike_id":"83f940f4-450e-4ae3-8dce-4539787a25d3","system_id":"levelo_inurba_marseille","lat":43.313291,"lon":5.396838,"is_reserved":false,"is_disabled":false,"rental_uris":{"android":"levelo://app?vid=83f940f4-450e-4ae3-8dce-4539787a25d3","ios":"levelo://app?vid=83f940f4-450e-4ae3-8dce-4539787a25d3"},"vehicle_type_id":"4","last_reported":1703247171,"current_range_meters":17600,"station_id":"ce4bgvp2rcd13ifvqcu0","pricing_plan_id":"free"},{"bike_id":"02e2bda3-cff2-4e2e-a09c-2414381e418b","system_id":"levelo_inurba_marseille","lat":43.313291,"lon":5.396838,"is_reserved":false,"is_disabled":false,"rental_uris":{"android":"levelo://app?vid=02e2bda3-cff2-4e2e-a09c-2414381e418b","ios":"levelo://app?vid=02e2bda3-cff2-4e2e-a09c-2414381e418b"},"vehicle_type_id":"4","last_reported":1703247171,"current_range_meters":8800,"station_id":"ce4bgvp2rcd13ifvqcu0","pricing_plan_id":"free"},{"bike_id":"73fa7f42-8e3e-49a0-b6f9-c711161ecae7","system_id":"levelo_inurba_marseille","lat":43.31316,"lon":5.39699,"is_reserved":false,"is_disabled":false,"rental_uris":{"android":"levelo://app?vid=73fa7f42-8e3e-49a0-b6f9-c711161ecae7","ios":"levelo://app?vid=73fa7f42-8e3e-49a0-b6f9-c711161ecae7"},"vehicle_type_id":"4","last_reported":1703247171,"current_range_meters":23600,"station_id":"ce4bgvp2rcd13ifvqcu0","pricing_plan_id":"free"},{"bike_id":"c7b3c9ab-7d46-41ed-9a65-8a337335708f","system_id":"levelo_inurba_marseille","lat":43.309038,"lon":5.396546,"is_reserved":false,"is_disabled":false,"rental_uris":{"android":"levelo://app?vid=c7b3c9ab-7d46-41ed-9a65-8a337335708f","ios":"levelo://app?vid=c7b3c9ab-7d46-41ed-9a65-8a337335708f"},"vehicle_type_id":"4","last_reported":1703247171,"current_range_meters":6000,"station_id":"ce4bh012rcd13ifvqcv0","pricing_plan_id":"free"},{"bike_id":"e3646373-8666-40ad-a694-fbcf9cca1160","system_id":"levelo_inurba_marseille","lat":43.29529,"lon":5.385581,"is_reserved":false,"is_disabled":false,"rental_uris":{"android":"levelo://app?vid=e3646373-8666-40ad-a694-fbcf9cca1160","ios":"levelo://app?vid=e3646373-8666-40ad-a694-fbcf9cca1160"},"vehicle_type_id":"4","last_reported":1703247171,"current_range_meters":14000,"station_id":"ce4bgih2rcd13ifvqba0","pricing_plan_id":"free"},{"bike_id":"c0b292ff-6bce-4f61-888e-04949848ebc1","system_id":"levelo_inurba_marseille","lat":43.302008,"lon":5.394694,"is_reserved":false,"is_disabled":false,"rental_uris":{"android":"levelo://app?vid=c0b292ff-6bce-4f61-888e-04949848ebc1","ios":"levelo://app?vid=c0b292ff-6bce-4f61-888e-04949848ebc1"},"vehicle_type_id":"4","last_reported":1703247171,"current_range_meters":4000,"station_id":"ce4bh0p2rcd13ifvqd70","pricing_plan_id":"free"},{"bike_id":"838a5443-0e4f-4635-bfd7-d8d6fa0571df","system_id":"levelo_inurba_marseille","lat":43.290631,"lon":5.359244,"is_reserved":false,"is_disabled":false,"rental_uris":{"android":"levelo://app?vid=838a5443-0e4f-4635-bfd7-d8d6fa0571df","ios":"levelo://app?vid=838a5443-0e4f-4635-bfd7-d8d6fa0571df"},"vehicle_type_id":"4","last_reported":1703247171,"current_range_meters":3200,"station_id":"ce4bha92rcd13ifvqeg0","pricing_plan_id":"free"},{"bike_id":"5cd30ae9-92b9-4c99-a77a-0aac115f715a","system_id":"levelo_inurba_marseille","lat":43.294162,"lon":5.386292,"is_reserved":false,"is_disabled":false,"rental_uris":{"android":"levelo://app?vid=5cd30ae9-92b9-4c99-a77a-0aac115f715a","ios":"levelo://app?vid=5cd30ae9-92b9-4c99-a77a-0aac115f715a"},"vehicle_type_id":"4","last_reported":1703247171,"current_range_meters":18800,"station_id":"ce4bh2h2rcd13ifvqdh0","pricing_plan_id":"free"},{"bike_id":"c52457ed-3dbd-4f7c-9be1-0fb6217450b2","system_id":"levelo_inurba_marseille","lat":43.289184,"lon":5.366408,"is_reserved":false,"is_disabled":false,"rental_uris":{"android":"levelo://app?vid=c52457ed-3dbd-4f7c-9be1-0fb6217450b2","ios":"levelo://app?vid=c52457ed-3dbd-4f7c-9be1-0fb6217450b2"},"vehicle_type_id":"4","last_reported":1703247171,"current_range_meters":24400,"station_id":"ce4bhap2rcd13ifvqek0","pricing_plan_id":"free"},{"bike_id":"83228095-32af-4186-aa6c-3f67ad90c36b","system_id":"levelo_inurba_marseille","lat":43.289184,"lon":5.366408,"is_reserved":false,"is_disabled":false,"rental_uris":{"android":"levelo://app?vid=83228095-32af-4186-aa6c-3f67ad90c36b","ios":"levelo://app?vid=83228095-32af-4186-aa6c-3f67ad90c36b"},"vehicle_type_id":"4","last_reported":1703247171,"current_range_meters":23600,"station_id":"ce4bhap2rcd13ifvqek0","pricing_plan_id":"free"},{"bike_id":"6ff7c704-34a3-4dcd-b142-004b278b842a","system_id":"levelo_inurba_marseille","lat":43.292642,"lon":5.384254,"is_reserved":false,"is_disabled":false,"rental_uris":{"android":"levelo://app?vid=6ff7c704-34a3-4dcd-b142-004b278b842a","ios":"levelo://app?vid=6ff7c704-34a3-4dcd-b142-004b278b842a"},"vehicle_type_id":"4","last_reported":1703247171,"current_range_meters":0,"station_id":"ce4bh692rcd13ifvqea0","pricing_plan_id":"free"},{"bike_id":"1dcc9a85-a926-409e-8f66-35babf55854a","system_id":"levelo_inurba_marseille","lat":43.290103,"lon":5.356114,"is_reserved":false,"is_disabled":false,"rental_uris":{"android":"levelo://app?vid=1dcc9a85-a926-409e-8f66-35babf55854a","ios":"levelo://app?vid=1dcc9a85-a926-409e-8f66-35babf55854a"},"vehicle_type_id":"4","last_reported":1703247171,"current_range_meters":1200,"station_id":"ce4bhb92rcd13ifvqen0","pricing_plan_id":"free"},{"bike_id":"cace0171-150d-4b32-888d-3853e31d412e","system_id":"levelo_inurba_marseille","lat":43.28967,"lon":5.37828,"is_reserved":false,"is_disabled":false,"rental_uris":{"android":"levelo://app?vid=cace0171-150d-4b32-888d-3853e31d412e","ios":"levelo://app?vid=cace0171-150d-4b32-888d-3853e31d412e"},"vehicle_type_id":"4","last_reported":1703247171,"current_range_meters":12000,"station_id":"ce4bh9p2rcd13ifvqed0","pricing_plan_id":"free"},{"bike_id":"a6c1ae13-75bd-445a-9fd4-ebfd9ff415fa","system_id":"levelo_inurba_marseille","lat":43.295169,"lon":5.390426,"is_reserved":false,"is_disabled":false,"rental_uris":{"android":"levelo://app?vid=a6c1ae13-75bd-445a-9fd4-ebfd9ff415fa","ios":"levelo://app?vid=a6c1ae13-75bd-445a-9fd4-ebfd9ff415fa"},"vehicle_type_id":"4","last_reported":1703247171,"current_range_meters":24400,"station_id":"ce4bh3p2rcd13ifvqdp0","pricing_plan_id":"free"},{"bike_id":"3900fef2-6416-476e-a46b-c1203a21d343","system_id":"levelo_inurba_marseille","lat":43.295169,"lon":5.390426,"is_reserved":false,"is_disabled":false,"rental_uris":{"android":"levelo://app?vid=3900fef2-6416-476e-a46b-c1203a21d343","ios":"levelo://app?vid=3900fef2-6416-476e-a46b-c1203a21d343"},"vehicle_type_id":"4","last_reported":1703247171,"current_range_meters":21200,"station_id":"ce4bh3p2rcd13ifvqdp0","pricing_plan_id":"free"},{"bike_id":"f0f88afe-675b-4b7a-8539-0cd1ccea9e36","system_id":"levelo_inurba_marseille","lat":43.295169,"lon":5.390426,"is_reserved":false,"is_disabled":false,"rental_uris":{"android":"levelo://app?vid=f0f88afe-675b-4b7a-8539-0cd1ccea9e36","ios":"levelo://app?vid=f0f88afe-675b-4b7a-8539-0cd1ccea9e36"},"vehicle_type_id":"4","last_reported":1703247171,"current_range_meters":25600,"station_id":"ce4bh3p2rcd13ifvqdp0","pricing_plan_id":"free"},{"bike_id":"5da57ff2-3990-4f7d-9231-120b6c47ba71","system_id":"levelo_inurba_marseille","lat":43.303002,"lon":5.392142,"is_reserved":false,"is_disabled":false,"rental_uris":{"android":"levelo://app?vid=5da57ff2-3990-4f7d-9231-120b6c47ba71","ios":"levelo://app?vid=5da57ff2-3990-4f7d-9231-120b6c47ba71"},"vehicle_type_id":"4","last_reported":1703247171,"current_range_meters":9200,"station_id":"ce4bgkh2rcd13ifvqbk0","pricing_plan_id":"free"},{"bike_id":"de457fa0-cfbd-4239-ab67-1bdc56e46358","system_id":"levelo_inurba_marseille","lat":43.337524,"lon":5.374303,"is_reserved":false,"is_disabled":false,"rental_uris":{"android":"levelo://app?vid=de457fa0-cfbd-4239-ab67-1bdc56e46358","ios":"levelo://app?vid=de457fa0-cfbd-4239-ab67-1bdc56e46358"},"vehicle_type_id":"4","last_reported":1703247171,"current_range_meters":13600,"station_id":"","pricing_plan_id":"free"},{"bike_id":"635c4ba1-b029-4989-a083-e0f3ecd95e33","system_id":"levelo_inurba_marseille","lat":43.337527,"lon":5.37444,"is_reserved":false,"is_disabled":false,"rental_uris":{"android":"levelo://app?vid=635c4ba1-b029-4989-a083-e0f3ecd95e33","ios":"levelo://app?vid=635c4ba1-b029-4989-a083-e0f3ecd95e33"},"vehicle_type_id":"4","last_reported":1703247171,"current_range_meters":16800,"station_id":"","pricing_plan_id":"free"},{"bike_id":"3729cdc4-afc8-4d58-82a6-b477a42a282e","system_id":"levelo_inurba_marseille","lat":43.33759,"lon":5.37437,"is_reserved":false,"is_disabled":false,"rental_uris":{"android":"levelo://app?vid=3729cdc4-afc8-4d58-82a6-b477a42a282e","ios":"levelo://app?vid=3729cdc4-afc8-4d58-82a6-b477a42a282e"},"vehicle_type_id":"4","last_reported":1703247171,"current_range_meters":20000,"station_id":"","pricing_plan_id":"free"},{"bike_id":"b699c1ca-f17c-40c3-9145-fdc9be807de0","system_id":"levelo_inurba_marseille","lat":43.337608,"lon":5.374292,"is_reserved":false,"is_disabled":false,"rental_uris":{"android":"levelo://app?vid=b699c1ca-f17c-40c3-9145-fdc9be807de0","ios":"levelo://app?vid=b699c1ca-f17c-40c3-9145-fdc9be807de0"},"vehicle_type_id":"4","last_reported":1703247171,"current_range_meters":26800,"station_id":"","pricing_plan_id":"free"},{"bike_id":"eb7219f6-a2e6-4c49-b991-9775b87a196b","system_id":"levelo_inurba_marseille","lat":43.33761,"lon":5.37433,"is_reserved":false,"is_disabled":false,"rental_uris":{"android":"levelo://app?vid=eb7219f6-a2e6-4c49-b991-9775b87a196b","ios":"levelo://app?vid=eb7219f6-a2e6-4c49-b991-9775b87a196b"},"vehicle_type_id":"4","last_reported":1703247171,"current_range_meters":13600,"station_id":"","pricing_plan_id":"free"},{"bike_id":"440ea123-efc2-4a4d-9886-aab944a36f02","system_id":"levelo_inurba_marseille","lat":43.33764,"lon":5.37439,"is_reserved":false,"is_disabled":false,"rental_uris":{"android":"levelo://app?vid=440ea123-efc2-4a4d-9886-aab944a36f02","ios":"levelo://app?vid=440ea123-efc2-4a4d-9886-aab944a36f02"},"vehicle_type_id":"4","last_reported":1703247171,"current_range_meters":21600,"station_id":"","pricing_plan_id":"free"},{"bike_id":"6b7fc17e-c295-411e-8ffd-79e16e9c3965","system_id":"levelo_inurba_marseille","lat":43.337654,"lon":5.374394,"is_reserved":false,"is_disabled":false,"rental_uris":{"android":"levelo://app?vid=6b7fc17e-c295-411e-8ffd-79e16e9c3965","ios":"levelo://app?vid=6b7fc17e-c295-411e-8ffd-79e16e9c3965"},"vehicle_type_id":"4","last_reported":1703247171,"current_range_meters":16400,"station_id":"","pricing_plan_id":"free"},{"bike_id":"de32b265-5c7c-49e0-ae2d-27af019f782c","system_id":"levelo_inurba_marseille","lat":43.33773,"lon":5.37429,"is_reserved":false,"is_disabled":false,"rental_uris":{"android":"levelo://app?vid=de32b265-5c7c-49e0-ae2d-27af019f782c","ios":"levelo://app?vid=de32b265-5c7c-49e0-ae2d-27af019f782c"},"vehicle_type_id":"4","last_reported":1703247171,"current_range_meters":13600,"station_id":"","pricing_plan_id":"free"},{"bike_id":"41c046a6-7cba-49c2-8c7a-f269d8a6e461","system_id":"levelo_inurba_marseille","lat":43.337748,"lon":5.374393,"is_reserved":false,"is_disabled":false,"rental_uris":{"android":"levelo://app?vid=41c046a6-7cba-49c2-8c7a-f269d8a6e461","ios":"levelo://app?vid=41c046a6-7cba-49c2-8c7a-f269d8a6e461"},"vehicle_type_id":"4","last_reported":1703247171,"current_range_meters":21200,"station_id":"ce4rr2p2rcd13i802rgg","pricing_plan_id":"free"},{"bike_id":"aa1e3189-87c6-45e9-94ac-b7a40230e32f","system_id":"levelo_inurba_marseille","lat":43.33782,"lon":5.37437,"is_reserved":false,"is_disabled":false,"rental_uris":{"android":"levelo://app?vid=aa1e3189-87c6-45e9-94ac-b7a40230e32f","ios":"levelo://app?vid=aa1e3189-87c6-45e9-94ac-b7a40230e32f"},"vehicle_type_id":"4","last_reported":1703247171,"current_range_meters":20400,"station_id":"","pricing_plan_id":"free"},{"bike_id":"4dd7bd14-79d6-48b2-a340-0f7242588237","system_id":"levelo_inurba_marseille","lat":43.301117,"lon":5.398795,"is_reserved":false,"is_disabled":false,"rental_uris":{"android":"levelo://app?vid=4dd7bd14-79d6-48b2-a340-0f7242588237","ios":"levelo://app?vid=4dd7bd14-79d6-48b2-a340-0f7242588237"},"vehicle_type_id":"4","last_reported":1703247171,"current_range_meters":17200,"station_id":"ce4bh0h2rcd13ifvqd40","pricing_plan_id":"free"},{"bike_id":"3c763100-3bf8-4d4f-adef-11f2d6ca8409","system_id":"levelo_inurba_marseille","lat":43.298681,"lon":5.397225,"is_reserved":false,"is_disabled":false,"rental_uris":{"android":"levelo://app?vid=3c763100-3bf8-4d4f-adef-11f2d6ca8409","ios":"levelo://app?vid=3c763100-3bf8-4d4f-adef-11f2d6ca8409"},"vehicle_type_id":"4","last_reported":1703247171,"current_range_meters":29200,"station_id":"ce4bh0h2rcd13ifvqd50","pricing_plan_id":"free"},{"bike_id":"bd162836-08c7-4ac1-9ba8-b94005c1b9f5","system_id":"levelo_inurba_marseille","lat":43.298681,"lon":5.397225,"is_reserved":false,"is_disabled":false,"rental_uris":{"android":"levelo://app?vid=bd162836-08c7-4ac1-9ba8-b94005c1b9f5","ios":"levelo://app?vid=bd162836-08c7-4ac1-9ba8-b94005c1b9f5"},"vehicle_type_id":"4","last_reported":1703247171,"current_range_meters":8400,"station_id":"ce4bh0h2rcd13ifvqd50","pricing_plan_id":"free"},{"bike_id":"ad6f2c3a-2668-4481-b5e7-a31a819d41d3","system_id":"levelo_inurba_marseille","lat":43.298681,"lon":5.397225,"is_reserved":false,"is_disabled":false,"rental_uris":{"android":"levelo://app?vid=ad6f2c3a-2668-4481-b5e7-a31a819d41d3","ios":"levelo://app?vid=ad6f2c3a-2668-4481-b5e7-a31a819d41d3"},"vehicle_type_id":"4","last_reported":1703247171,"current_range_meters":0,"station_id":"ce4bh0h2rcd13ifvqd50","pricing_plan_id":"free"},{"bike_id":"da2edeee-6596-4f18-bbd1-9a61c49fd497","system_id":"levelo_inurba_marseille","lat":43.28701,"lon":5.37396,"is_reserved":false,"is_disabled":false,"rental_uris":{"android":"levelo://app?vid=da2edeee-6596-4f18-bbd1-9a61c49fd497","ios":"levelo://app?vid=da2edeee-6596-4f18-bbd1-9a61c49fd497"},"vehicle_type_id":"4","last_reported":1703247171,"current_range_meters":19600,"station_id":"ce4bh3p2rcd13ifvqdq0","pricing_plan_id":"free"},{"bike_id":"05e2eb45-55b2-476e-93df-e5be2b273417","system_id":"levelo_inurba_marseille","lat":43.28697,"lon":5.374004,"is_reserved":false,"is_disabled":false,"rental_uris":{"android":"levelo://app?vid=05e2eb45-55b2-476e-93df-e5be2b273417","ios":"levelo://app?vid=05e2eb45-55b2-476e-93df-e5be2b273417"},"vehicle_type_id":"4","last_reported":1703247171,"current_range_meters":0,"station_id":"ce4bh3p2rcd13ifvqdq0","pricing_plan_id":"free"},{"bike_id":"6a9adb04-dd2d-46ec-9cdf-b7b485ac8928","system_id":"levelo_inurba_marseille","lat":43.290345,"lon":5.38646,"is_reserved":false,"is_disabled":false,"rental_uris":{"android":"levelo://app?vid=6a9adb04-dd2d-46ec-9cdf-b7b485ac8928","ios":"levelo://app?vid=6a9adb04-dd2d-46ec-9cdf-b7b485ac8928"},"vehicle_type_id":"4","last_reported":1703247171,"current_range_meters":15600,"station_id":"ce4bh4p2rcd13ifvqe0g","pricing_plan_id":"free"},{"bike_id":"32ca74b6-9a0a-44fb-b208-ef4bb0e29d2c","system_id":"levelo_inurba_marseille","lat":43.302759,"lon":5.400793,"is_reserved":false,"is_disabled":false,"rental_uris":{"android":"levelo://app?vid=32ca74b6-9a0a-44fb-b208-ef4bb0e29d2c","ios":"levelo://app?vid=32ca74b6-9a0a-44fb-b208-ef4bb0e29d2c"},"vehicle_type_id":"4","last_reported":1703247171,"current_range_meters":22800,"station_id":"ce4bgvh2rcd13ifvqcs0","pricing_plan_id":"free"},{"bike_id":"4ee9276d-8926-4210-b649-6a1eba5f5b13","system_id":"levelo_inurba_marseille","lat":43.286039,"lon":5.370679,"is_reserved":false,"is_disabled":false,"rental_uris":{"android":"levelo://app?vid=4ee9276d-8926-4210-b649-6a1eba5f5b13","ios":"levelo://app?vid=4ee9276d-8926-4210-b649-6a1eba5f5b13"},"vehicle_type_id":"4","last_reported":1703247171,"current_range_meters":21600,"station_id":"ce4bht12rcd13ifvqi60","pricing_plan_id":"free"},{"bike_id":"8185934f-de34-4614-996e-dba6159076e6","system_id":"levelo_inurba_marseille","lat":43.31689,"lon":5.4047,"is_reserved":false,"is_disabled":false,"rental_uris":{"android":"levelo://app?vid=8185934f-de34-4614-996e-dba6159076e6","ios":"levelo://app?vid=8185934f-de34-4614-996e-dba6159076e6"},"vehicle_type_id":"4","last_reported":1703247171,"current_range_meters":12400,"station_id":"ce4bh012rcd13ifvqd00","pricing_plan_id":"free"},{"bike_id":"47b1f509-e35c-4a73-9f80-fd9c49015ea9","system_id":"levelo_inurba_marseille","lat":43.316821,"lon":5.404737,"is_reserved":false,"is_disabled":false,"rental_uris":{"android":"levelo://app?vid=47b1f509-e35c-4a73-9f80-fd9c49015ea9","ios":"levelo://app?vid=47b1f509-e35c-4a73-9f80-fd9c49015ea9"},"vehicle_type_id":"4","last_reported":1703247171,"current_range_meters":15200,"station_id":"ce4bh012rcd13ifvqd00","pricing_plan_id":"free"},{"bike_id":"8c8dcb77-e053-4e4d-a2e2-a71e3b95111a","system_id":"levelo_inurba_marseille","lat":43.291994,"lon":5.392907,"is_reserved":false,"is_disabled":false,"rental_uris":{"android":"levelo://app?vid=8c8dcb77-e053-4e4d-a2e2-a71e3b95111a","ios":"levelo://app?vid=8c8dcb77-e053-4e4d-a2e2-a71e3b95111a"},"vehicle_type_id":"4","last_reported":1703247171,"current_range_meters":18400,"station_id":"ce4bh192rcd13ifvqdd0","pricing_plan_id":"free"},{"bike_id":"e2adfa7c-882e-48a1-9ee4-b36e6186ebbf","system_id":"levelo_inurba_marseille","lat":43.330912,"lon":5.396935,"is_reserved":false,"is_disabled":false,"rental_uris":{"android":"levelo://app?vid=e2adfa7c-882e-48a1-9ee4-b36e6186ebbf","ios":"levelo://app?vid=e2adfa7c-882e-48a1-9ee4-b36e6186ebbf"},"vehicle_type_id":"4","last_reported":1703247171,"current_range_meters":18400,"station_id":"","pricing_plan_id":"free"},{"bike_id":"fd3c548c-bc4c-4ffd-b3d4-9305c0af79eb","system_id":"levelo_inurba_marseille","lat":43.284538,"lon":5.358657,"is_reserved":false,"is_disabled":false,"rental_uris":{"android":"levelo://app?vid=fd3c548c-bc4c-4ffd-b3d4-9305c0af79eb","ios":"levelo://app?vid=fd3c548c-bc4c-4ffd-b3d4-9305c0af79eb"},"vehicle_type_id":"4","last_reported":1703247171,"current_range_meters":13200,"station_id":"ce4bhah2rcd13ifvqei0","pricing_plan_id":"free"},{"bike_id":"7448fad2-a713-4e56-9b54-422eae9e96ee","system_id":"levelo_inurba_marseille","lat":43.284534,"lon":5.358662,"is_reserved":false,"is_disabled":false,"rental_uris":{"android":"levelo://app?vid=7448fad2-a713-4e56-9b54-422eae9e96ee","ios":"levelo://app?vid=7448fad2-a713-4e56-9b54-422eae9e96ee"},"vehicle_type_id":"4","last_reported":1703247171,"current_range_meters":4800,"station_id":"ce4bhah2rcd13ifvqei0","pricing_plan_id":"free"},{"bike_id":"41856217-8f89-44c4-800f-9e8fc6ae3172","system_id":"levelo_inurba_marseille","lat":43.284534,"lon":5.358662,"is_reserved":false,"is_disabled":false,"rental_uris":{"android":"levelo://app?vid=41856217-8f89-44c4-800f-9e8fc6ae3172","ios":"levelo://app?vid=41856217-8f89-44c4-800f-9e8fc6ae3172"},"vehicle_type_id":"4","last_reported":1703247171,"current_range_meters":10400,"station_id":"ce4bhah2rcd13ifvqei0","pricing_plan_id":"free"},{"bike_id":"c2cb04c9-52d5-4a9b-9b2c-5c08696c851d","system_id":"levelo_inurba_marseille","lat":43.284538,"lon":5.358657,"is_reserved":false,"is_disabled":false,"rental_uris":{"android":"levelo://app?vid=c2cb04c9-52d5-4a9b-9b2c-5c08696c851d","ios":"levelo://app?vid=c2cb04c9-52d5-4a9b-9b2c-5c08696c851d"},"vehicle_type_id":"4","last_reported":1703247171,"current_range_meters":26800,"station_id":"ce4bhah2rcd13ifvqei0","pricing_plan_id":"free"},{"bike_id":"6681f091-8cae-40db-82be-2afedc79afec","system_id":"levelo_inurba_marseille","lat":43.297902,"lon":5.401068,"is_reserved":false,"is_disabled":false,"rental_uris":{"android":"levelo://app?vid=6681f091-8cae-40db-82be-2afedc79afec","ios":"levelo://app?vid=6681f091-8cae-40db-82be-2afedc79afec"},"vehicle_type_id":"4","last_reported":1703247171,"current_range_meters":6400,"station_id":"","pricing_plan_id":"free"},{"bike_id":"90fa4dd3-d1d5-49af-aed2-153e1686cce3","system_id":"levelo_inurba_marseille","lat":43.283998,"lon":5.375062,"is_reserved":false,"is_disabled":false,"rental_uris":{"android":"levelo://app?vid=90fa4dd3-d1d5-49af-aed2-153e1686cce3","ios":"levelo://app?vid=90fa4dd3-d1d5-49af-aed2-153e1686cce3"},"vehicle_type_id":"4","last_reported":1703247171,"current_range_meters":23200,"station_id":"ce4bh412rcd13ifvqds0","pricing_plan_id":"free"},{"bike_id":"987d35bc-3c13-41cf-8d30-e04683ae900e","system_id":"levelo_inurba_marseille","lat":43.283998,"lon":5.375062,"is_reserved":false,"is_disabled":false,"rental_uris":{"android":"levelo://app?vid=987d35bc-3c13-41cf-8d30-e04683ae900e","ios":"levelo://app?vid=987d35bc-3c13-41cf-8d30-e04683ae900e"},"vehicle_type_id":"4","last_reported":1703247171,"current_range_meters":20400,"station_id":"ce4bh412rcd13ifvqds0","pricing_plan_id":"free"},{"bike_id":"adee6e4d-4d4a-4ac4-8160-bf1fb224777a","system_id":"levelo_inurba_marseille","lat":43.283998,"lon":5.375062,"is_reserved":false,"is_disabled":false,"rental_uris":{"android":"levelo://app?vid=adee6e4d-4d4a-4ac4-8160-bf1fb224777a","ios":"levelo://app?vid=adee6e4d-4d4a-4ac4-8160-bf1fb224777a"},"vehicle_type_id":"4","last_reported":1703247171,"current_range_meters":26400,"station_id":"ce4bh412rcd13ifvqds0","pricing_plan_id":"free"},{"bike_id":"29f11437-d655-4333-ac96-10f48b1230c4","system_id":"levelo_inurba_marseille","lat":43.283998,"lon":5.375062,"is_reserved":false,"is_disabled":false,"rental_uris":{"android":"levelo://app?vid=29f11437-d655-4333-ac96-10f48b1230c4","ios":"levelo://app?vid=29f11437-d655-4333-ac96-10f48b1230c4"},"vehicle_type_id":"4","last_reported":1703247171,"current_range_meters":4000,"station_id":"ce4bh412rcd13ifvqds0","pricing_plan_id":"free"},{"bike_id":"8715d5c7-cda1-43a6-a1dd-ae7082616388","system_id":"levelo_inurba_marseille","lat":43.28689,"lon":5.38672,"is_reserved":false,"is_disabled":false,"rental_uris":{"android":"levelo://app?vid=8715d5c7-cda1-43a6-a1dd-ae7082616388","ios":"levelo://app?vid=8715d5c7-cda1-43a6-a1dd-ae7082616388"},"vehicle_type_id":"4","last_reported":1703247171,"current_range_meters":0,"station_id":"ce4bh492rcd13ifvqdug","pricing_plan_id":"free"},{"bike_id":"a156425d-5156-4dfc-8601-4f9cb3da8aa4","system_id":"levelo_inurba_marseille","lat":43.286595,"lon":5.386795,"is_reserved":false,"is_disabled":false,"rental_uris":{"android":"levelo://app?vid=a156425d-5156-4dfc-8601-4f9cb3da8aa4","ios":"levelo://app?vid=a156425d-5156-4dfc-8601-4f9cb3da8aa4"},"vehicle_type_id":"4","last_reported":1703247171,"current_range_meters":26400,"station_id":"ce4bh492rcd13ifvqdug","pricing_plan_id":"free"},{"bike_id":"a396a5d3-3428-4c7d-bbce-d046d97fc93c","system_id":"levelo_inurba_marseille","lat":43.337168,"lon":5.391825,"is_reserved":false,"is_disabled":false,"rental_uris":{"android":"levelo://app?vid=a396a5d3-3428-4c7d-bbce-d046d97fc93c","ios":"levelo://app?vid=a396a5d3-3428-4c7d-bbce-d046d97fc93c"},"vehicle_type_id":"4","last_reported":1703247171,"current_range_meters":28400,"station_id":"ce4bhr92rcd13ifvqhsg","pricing_plan_id":"free"},{"bike_id":"2c2ab740-bc83-4a7b-9811-0b5c482f1f6f","system_id":"levelo_inurba_marseille","lat":43.284793,"lon":5.384113,"is_reserved":false,"is_disabled":false,"rental_uris":{"android":"levelo://app?vid=2c2ab740-bc83-4a7b-9811-0b5c482f1f6f","ios":"levelo://app?vid=2c2ab740-bc83-4a7b-9811-0b5c482f1f6f"},"vehicle_type_id":"4","last_reported":1703247171,"current_range_meters":24400,"station_id":"ce4bh512rcd13ifvqe3g","pricing_plan_id":"free"},{"bike_id":"b5a3dda9-4714-40df-92db-edd4d245515b","system_id":"levelo_inurba_marseille","lat":43.284787,"lon":5.384116,"is_reserved":false,"is_disabled":false,"rental_uris":{"android":"levelo://app?vid=b5a3dda9-4714-40df-92db-edd4d245515b","ios":"levelo://app?vid=b5a3dda9-4714-40df-92db-edd4d245515b"},"vehicle_type_id":"4","last_reported":1703247171,"current_range_meters":10800,"station_id":"ce4bh512rcd13ifvqe3g","pricing_plan_id":"free"},{"bike_id":"c275e025-2162-4a4c-b02b-c6c5ba2af3fa","system_id":"levelo_inurba_marseille","lat":43.2847,"lon":5.38415,"is_reserved":false,"is_disabled":false,"rental_uris":{"android":"levelo://app?vid=c275e025-2162-4a4c-b02b-c6c5ba2af3fa","ios":"levelo://app?vid=c275e025-2162-4a4c-b02b-c6c5ba2af3fa"},"vehicle_type_id":"4","last_reported":1703247171,"current_range_meters":19600,"station_id":"ce4bh512rcd13ifvqe3g","pricing_plan_id":"free"},{"bike_id":"ee3c724d-2243-4a62-8791-1b60b0c4a20c","system_id":"levelo_inurba_marseille","lat":43.284793,"lon":5.384119,"is_reserved":false,"is_disabled":false,"rental_uris":{"android":"levelo://app?vid=ee3c724d-2243-4a62-8791-1b60b0c4a20c","ios":"levelo://app?vid=ee3c724d-2243-4a62-8791-1b60b0c4a20c"},"vehicle_type_id":"4","last_reported":1703247171,"current_range_meters":19600,"station_id":"ce4bh512rcd13ifvqe3g","pricing_plan_id":"free"},{"bike_id":"123cd627-3199-44e3-8af4-8878d1a1f6dc","system_id":"levelo_inurba_marseille","lat":43.284793,"lon":5.384119,"is_reserved":false,"is_disabled":false,"rental_uris":{"android":"levelo://app?vid=123cd627-3199-44e3-8af4-8878d1a1f6dc","ios":"levelo://app?vid=123cd627-3199-44e3-8af4-8878d1a1f6dc"},"vehicle_type_id":"4","last_reported":1703247171,"current_range_meters":8000,"station_id":"ce4bh512rcd13ifvqe3g","pricing_plan_id":"free"},{"bike_id":"7f57ed7b-dbd9-4571-ac20-dd8222686f0f","system_id":"levelo_inurba_marseille","lat":43.288557,"lon":5.393257,"is_reserved":false,"is_disabled":false,"rental_uris":{"android":"levelo://app?vid=7f57ed7b-dbd9-4571-ac20-dd8222686f0f","ios":"levelo://app?vid=7f57ed7b-dbd9-4571-ac20-dd8222686f0f"},"vehicle_type_id":"4","last_reported":1703247171,"current_range_meters":0,"station_id":"ce4bh2p2rcd13ifvqdi0","pricing_plan_id":"free"},{"bike_id":"c9c5b3ed-5fd4-4069-8e1a-93caba94c45d","system_id":"levelo_inurba_marseille","lat":43.283498,"lon":5.380948,"is_reserved":false,"is_disabled":false,"rental_uris":{"android":"levelo://app?vid=c9c5b3ed-5fd4-4069-8e1a-93caba94c45d","ios":"levelo://app?vid=c9c5b3ed-5fd4-4069-8e1a-93caba94c45d"},"vehicle_type_id":"4","last_reported":1703247171,"current_range_meters":27600,"station_id":"ce4bh412rcd13ifvqdr0","pricing_plan_id":"free"},{"bike_id":"9941eac9-498d-4f59-9d96-3da7a2cbf3f1","system_id":"levelo_inurba_marseille","lat":43.283502,"lon":5.386471,"is_reserved":false,"is_disabled":false,"rental_uris":{"android":"levelo://app?vid=9941eac9-498d-4f59-9d96-3da7a2cbf3f1","ios":"levelo://app?vid=9941eac9-498d-4f59-9d96-3da7a2cbf3f1"},"vehicle_type_id":"4","last_reported":1703247171,"current_range_meters":18800,"station_id":"ce4bh492rcd13ifvqdvg","pricing_plan_id":"free"},{"bike_id":"9a743c1a-348b-49ef-ad87-0be1ba951765","system_id":"levelo_inurba_marseille","lat":43.29041,"lon":5.399634,"is_reserved":false,"is_disabled":false,"rental_uris":{"android":"levelo://app?vid=9a743c1a-348b-49ef-ad87-0be1ba951765","ios":"levelo://app?vid=9a743c1a-348b-49ef-ad87-0be1ba951765"},"vehicle_type_id":"4","last_reported":1703247171,"current_range_meters":24400,"station_id":"ce4bh392rcd13ifvqdm0","pricing_plan_id":"free"},{"bike_id":"a877ea70-d82a-4a19-8393-dc444aff20f9","system_id":"levelo_inurba_marseille","lat":43.284462,"lon":5.392121,"is_reserved":false,"is_disabled":false,"rental_uris":{"android":"levelo://app?vid=a877ea70-d82a-4a19-8393-dc444aff20f9","ios":"levelo://app?vid=a877ea70-d82a-4a19-8393-dc444aff20f9"},"vehicle_type_id":"4","last_reported":1703247171,"current_range_meters":4400,"station_id":"ce4bhoh2rcd13ifvqh5g","pricing_plan_id":"free"},{"bike_id":"88831c0f-cd9f-4e14-9e3c-6266d26ec5d5","system_id":"levelo_inurba_marseille","lat":43.284462,"lon":5.392121,"is_reserved":false,"is_disabled":false,"rental_uris":{"android":"levelo://app?vid=88831c0f-cd9f-4e14-9e3c-6266d26ec5d5","ios":"levelo://app?vid=88831c0f-cd9f-4e14-9e3c-6266d26ec5d5"},"vehicle_type_id":"4","last_reported":1703247171,"current_range_meters":18400,"station_id":"ce4bhoh2rcd13ifvqh5g","pricing_plan_id":"free"},{"bike_id":"2dce41b4-f1e9-4565-979b-d206af37124f","system_id":"levelo_inurba_marseille","lat":43.326605,"lon":5.409903,"is_reserved":false,"is_disabled":false,"rental_uris":{"android":"levelo://app?vid=2dce41b4-f1e9-4565-979b-d206af37124f","ios":"levelo://app?vid=2dce41b4-f1e9-4565-979b-d206af37124f"},"vehicle_type_id":"4","last_reported":1703247171,"current_range_meters":26800,"station_id":"ce4bhpp2rcd13ifvqhgg","pricing_plan_id":"free"},{"bike_id":"c0a962d7-3481-4d53-8c17-c6eb037a1e73","system_id":"levelo_inurba_marseille","lat":43.279087,"lon":5.380114,"is_reserved":false,"is_disabled":false,"rental_uris":{"android":"levelo://app?vid=c0a962d7-3481-4d53-8c17-c6eb037a1e73","ios":"levelo://app?vid=c0a962d7-3481-4d53-8c17-c6eb037a1e73"},"vehicle_type_id":"4","last_reported":1703247171,"current_range_meters":30000,"station_id":"ce4bhf92rcd13ifvqf50","pricing_plan_id":"free"},{"bike_id":"ef6a78b9-2a42-46d0-8b94-b582bee3b963","system_id":"levelo_inurba_marseille","lat":43.28701,"lon":5.39985,"is_reserved":false,"is_disabled":false,"rental_uris":{"android":"levelo://app?vid=ef6a78b9-2a42-46d0-8b94-b582bee3b963","ios":"levelo://app?vid=ef6a78b9-2a42-46d0-8b94-b582bee3b963"},"vehicle_type_id":"4","last_reported":1703247171,"current_range_meters":21600,"station_id":"ce4bho92rcd13ifvqh3g","pricing_plan_id":"free"},{"bike_id":"b6c4ebb4-aba7-44d2-b3e3-64539ec74aeb","system_id":"levelo_inurba_marseille","lat":43.287154,"lon":5.399979,"is_reserved":false,"is_disabled":false,"rental_uris":{"android":"levelo://app?vid=b6c4ebb4-aba7-44d2-b3e3-64539ec74aeb","ios":"levelo://app?vid=b6c4ebb4-aba7-44d2-b3e3-64539ec74aeb"},"vehicle_type_id":"4","last_reported":1703247171,"current_range_meters":2000,"station_id":"ce4bho92rcd13ifvqh3g","pricing_plan_id":"free"},{"bike_id":"3f306382-c132-4c9f-90a5-d66822dd9c51","system_id":"levelo_inurba_marseille","lat":43.28701,"lon":5.39986,"is_reserved":false,"is_disabled":false,"rental_uris":{"android":"levelo://app?vid=3f306382-c132-4c9f-90a5-d66822dd9c51","ios":"levelo://app?vid=3f306382-c132-4c9f-90a5-d66822dd9c51"},"vehicle_type_id":"4","last_reported":1703247171,"current_range_meters":12800,"station_id":"ce4bho92rcd13ifvqh3g","pricing_plan_id":"free"},{"bike_id":"d0c90e01-9d38-41fe-be3f-5e43260be265","system_id":"levelo_inurba_marseille","lat":43.287154,"lon":5.399979,"is_reserved":false,"is_disabled":false,"rental_uris":{"android":"levelo://app?vid=d0c90e01-9d38-41fe-be3f-5e43260be265","ios":"levelo://app?vid=d0c90e01-9d38-41fe-be3f-5e43260be265"},"vehicle_type_id":"4","last_reported":1703247171,"current_range_meters":0,"station_id":"ce4bho92rcd13ifvqh3g","pricing_plan_id":"free"},{"bike_id":"370e0914-36a0-44de-92de-e181b6bea5ea","system_id":"levelo_inurba_marseille","lat":43.320045,"lon":5.415046,"is_reserved":false,"is_disabled":false,"rental_uris":{"android":"levelo://app?vid=370e0914-36a0-44de-92de-e181b6bea5ea","ios":"levelo://app?vid=370e0914-36a0-44de-92de-e181b6bea5ea"},"vehicle_type_id":"4","last_reported":1703247171,"current_range_meters":21200,"station_id":"ce4bhq92rcd13ifvqhkg","pricing_plan_id":"free"},{"bike_id":"8f2c7483-9230-4dee-912c-ad8e4df686ee","system_id":"levelo_inurba_marseille","lat":43.299579,"lon":5.413255,"is_reserved":false,"is_disabled":false,"rental_uris":{"android":"levelo://app?vid=8f2c7483-9230-4dee-912c-ad8e4df686ee","ios":"levelo://app?vid=8f2c7483-9230-4dee-912c-ad8e4df686ee"},"vehicle_type_id":"4","last_reported":1703247171,"current_range_meters":29200,"station_id":"ce4bhp12rcd13ifvqh9g","pricing_plan_id":"free"},{"bike_id":"7822c4c2-f2d5-4556-9ca6-9251aa7a0aff","system_id":"levelo_inurba_marseille","lat":43.279742,"lon":5.38744,"is_reserved":false,"is_disabled":false,"rental_uris":{"android":"levelo://app?vid=7822c4c2-f2d5-4556-9ca6-9251aa7a0aff","ios":"levelo://app?vid=7822c4c2-f2d5-4556-9ca6-9251aa7a0aff"},"vehicle_type_id":"4","last_reported":1703247171,"current_range_meters":15200,"station_id":"ce4bhg12rcd13ifvqf80","pricing_plan_id":"free"},{"bike_id":"e36ff604-6183-4c28-91a5-665e0e4a1892","system_id":"levelo_inurba_marseille","lat":43.279742,"lon":5.38744,"is_reserved":false,"is_disabled":false,"rental_uris":{"android":"levelo://app?vid=e36ff604-6183-4c28-91a5-665e0e4a1892","ios":"levelo://app?vid=e36ff604-6183-4c28-91a5-665e0e4a1892"},"vehicle_type_id":"4","last_reported":1703247171,"current_range_meters":15600,"station_id":"ce4bhg12rcd13ifvqf80","pricing_plan_id":"free"},{"bike_id":"20c46f69-f024-4956-ac3e-909674096591","system_id":"levelo_inurba_marseille","lat":43.279742,"lon":5.38744,"is_reserved":false,"is_disabled":false,"rental_uris":{"android":"levelo://app?vid=20c46f69-f024-4956-ac3e-909674096591","ios":"levelo://app?vid=20c46f69-f024-4956-ac3e-909674096591"},"vehicle_type_id":"4","last_reported":1703247171,"current_range_meters":23200,"station_id":"ce4bhg12rcd13ifvqf80","pricing_plan_id":"free"},{"bike_id":"86e5a36c-bdd7-4979-86f2-dd1c76418fac","system_id":"levelo_inurba_marseille","lat":43.325233,"lon":5.414318,"is_reserved":false,"is_disabled":false,"rental_uris":{"android":"levelo://app?vid=86e5a36c-bdd7-4979-86f2-dd1c76418fac","ios":"levelo://app?vid=86e5a36c-bdd7-4979-86f2-dd1c76418fac"},"vehicle_type_id":"4","last_reported":1703247171,"current_range_meters":21600,"station_id":"ce4bhq12rcd13ifvqhhg","pricing_plan_id":"free"},{"bike_id":"a58a07e7-1ea4-4f7d-b573-122cbd42f819","system_id":"levelo_inurba_marseille","lat":43.280784,"lon":5.396622,"is_reserved":false,"is_disabled":false,"rental_uris":{"android":"levelo://app?vid=a58a07e7-1ea4-4f7d-b573-122cbd42f819","ios":"levelo://app?vid=a58a07e7-1ea4-4f7d-b573-122cbd42f819"},"vehicle_type_id":"4","last_reported":1703247171,"current_range_meters":7200,"station_id":"ce4bho12rcd13ifvqh2g","pricing_plan_id":"free"},{"bike_id":"6626fddb-6a11-4855-99e4-38e49a54a391","system_id":"levelo_inurba_marseille","lat":43.280784,"lon":5.396622,"is_reserved":false,"is_disabled":false,"rental_uris":{"android":"levelo://app?vid=6626fddb-6a11-4855-99e4-38e49a54a391","ios":"levelo://app?vid=6626fddb-6a11-4855-99e4-38e49a54a391"},"vehicle_type_id":"4","last_reported":1703247171,"current_range_meters":26000,"station_id":"ce4bho12rcd13ifvqh2g","pricing_plan_id":"free"},{"bike_id":"435b3374-d981-4e1a-b9ae-b123982b71bd","system_id":"levelo_inurba_marseille","lat":43.303837,"lon":5.418724,"is_reserved":false,"is_disabled":false,"rental_uris":{"android":"levelo://app?vid=435b3374-d981-4e1a-b9ae-b123982b71bd","ios":"levelo://app?vid=435b3374-d981-4e1a-b9ae-b123982b71bd"},"vehicle_type_id":"4","last_reported":1703247171,"current_range_meters":26400,"station_id":"ce4bhop2rcd13ifvqh7g","pricing_plan_id":"free"},{"bike_id":"fb665de3-95e6-4f61-835e-c583de590c12","system_id":"levelo_inurba_marseille","lat":43.278399,"lon":5.392139,"is_reserved":false,"is_disabled":false,"rental_uris":{"android":"levelo://app?vid=fb665de3-95e6-4f61-835e-c583de590c12","ios":"levelo://app?vid=fb665de3-95e6-4f61-835e-c583de590c12"},"vehicle_type_id":"4","last_reported":1703247171,"current_range_meters":5200,"station_id":"ce4bhjp2rcd13ifvqga0","pricing_plan_id":"free"},{"bike_id":"c29be4e1-ff89-4923-931d-96db4822debc","system_id":"levelo_inurba_marseille","lat":43.278399,"lon":5.392139,"is_reserved":false,"is_disabled":false,"rental_uris":{"android":"levelo://app?vid=c29be4e1-ff89-4923-931d-96db4822debc","ios":"levelo://app?vid=c29be4e1-ff89-4923-931d-96db4822debc"},"vehicle_type_id":"4","last_reported":1703247171,"current_range_meters":13600,"station_id":"ce4bhjp2rcd13ifvqga0","pricing_plan_id":"free"},{"bike_id":"58342157-bb14-4f0c-b2ec-152ed2e5df3d","system_id":"levelo_inurba_marseille","lat":43.27831,"lon":5.39209,"is_reserved":false,"is_disabled":false,"rental_uris":{"android":"levelo://app?vid=58342157-bb14-4f0c-b2ec-152ed2e5df3d","ios":"levelo://app?vid=58342157-bb14-4f0c-b2ec-152ed2e5df3d"},"vehicle_type_id":"4","last_reported":1703247171,"current_range_meters":24800,"station_id":"ce4bhjp2rcd13ifvqga0","pricing_plan_id":"free"},{"bike_id":"0c83652d-ad4f-4e6c-ba64-a277f1baa235","system_id":"levelo_inurba_marseille","lat":43.27832,"lon":5.39217,"is_reserved":false,"is_disabled":false,"rental_uris":{"android":"levelo://app?vid=0c83652d-ad4f-4e6c-ba64-a277f1baa235","ios":"levelo://app?vid=0c83652d-ad4f-4e6c-ba64-a277f1baa235"},"vehicle_type_id":"4","last_reported":1703247171,"current_range_meters":21600,"station_id":"ce4bhjp2rcd13ifvqga0","pricing_plan_id":"free"},{"bike_id":"85eaabaa-f839-4d16-ac67-b63f5f5a2b1c","system_id":"levelo_inurba_marseille","lat":43.27826,"lon":5.39204,"is_reserved":false,"is_disabled":false,"rental_uris":{"android":"levelo://app?vid=85eaabaa-f839-4d16-ac67-b63f5f5a2b1c","ios":"levelo://app?vid=85eaabaa-f839-4d16-ac67-b63f5f5a2b1c"},"vehicle_type_id":"4","last_reported":1703247171,"current_range_meters":24000,"station_id":"ce4bhjp2rcd13ifvqga0","pricing_plan_id":"free"},{"bike_id":"8a6b3b36-f24e-45de-b4cf-a7279d74a188","system_id":"levelo_inurba_marseille","lat":43.278286,"lon":5.392147,"is_reserved":false,"is_disabled":false,"rental_uris":{"android":"levelo://app?vid=8a6b3b36-f24e-45de-b4cf-a7279d74a188","ios":"levelo://app?vid=8a6b3b36-f24e-45de-b4cf-a7279d74a188"},"vehicle_type_id":"4","last_reported":1703247171,"current_range_meters":26000,"station_id":"ce4bhjp2rcd13ifvqga0","pricing_plan_id":"free"},{"bike_id":"aa02f2a7-22d4-48dc-9935-5ba90daf5769","system_id":"levelo_inurba_marseille","lat":43.278399,"lon":5.392139,"is_reserved":false,"is_disabled":false,"rental_uris":{"android":"levelo://app?vid=aa02f2a7-22d4-48dc-9935-5ba90daf5769","ios":"levelo://app?vid=aa02f2a7-22d4-48dc-9935-5ba90daf5769"},"vehicle_type_id":"4","last_reported":1703247171,"current_range_meters":16000,"station_id":"ce4bhjp2rcd13ifvqga0","pricing_plan_id":"free"},{"bike_id":"fa6b1700-890f-4539-9d7b-e8b8a4e0b4f0","system_id":"levelo_inurba_marseille","lat":43.275625,"lon":5.384392,"is_reserved":false,"is_disabled":false,"rental_uris":{"android":"levelo://app?vid=fa6b1700-890f-4539-9d7b-e8b8a4e0b4f0","ios":"levelo://app?vid=fa6b1700-890f-4539-9d7b-e8b8a4e0b4f0"},"vehicle_type_id":"4","last_reported":1703247171,"current_range_meters":31200,"station_id":"ce4bhh92rcd13ifvqfi0","pricing_plan_id":"free"},{"bike_id":"140413ec-d284-430c-9162-9aa9f63916ac","system_id":"levelo_inurba_marseille","lat":43.336134,"lon":5.410341,"is_reserved":false,"is_disabled":false,"rental_uris":{"android":"levelo://app?vid=140413ec-d284-430c-9162-9aa9f63916ac","ios":"levelo://app?vid=140413ec-d284-430c-9162-9aa9f63916ac"},"vehicle_type_id":"4","last_reported":1703247171,"current_range_meters":2400,"station_id":"ce4bhqh2rcd13ifvqhmg","pricing_plan_id":"free"},{"bike_id":"67c95ba1-3b1b-4724-b685-672be7a82fce","system_id":"levelo_inurba_marseille","lat":43.317185,"lon":5.423967,"is_reserved":false,"is_disabled":false,"rental_uris":{"android":"levelo://app?vid=67c95ba1-3b1b-4724-b685-672be7a82fce","ios":"levelo://app?vid=67c95ba1-3b1b-4724-b685-672be7a82fce"},"vehicle_type_id":"4","last_reported":1703247171,"current_range_meters":2000,"station_id":"ce4bhp92rcd13ifvqhbg","pricing_plan_id":"free"},{"bike_id":"6bd28996-027b-45a1-a598-6a9f9a9f724b","system_id":"levelo_inurba_marseille","lat":43.310785,"lon":5.424305,"is_reserved":false,"is_disabled":false,"rental_uris":{"android":"levelo://app?vid=6bd28996-027b-45a1-a598-6a9f9a9f724b","ios":"levelo://app?vid=6bd28996-027b-45a1-a598-6a9f9a9f724b"},"vehicle_type_id":"4","last_reported":1703247171,"current_range_meters":18400,"station_id":"ce4bhp92rcd13ifvqhag","pricing_plan_id":"free"},{"bike_id":"dbd6e596-aa0c-4268-b3af-55cf278acf46","system_id":"levelo_inurba_marseille","lat":43.340804,"lon":5.410219,"is_reserved":false,"is_disabled":false,"rental_uris":{"android":"levelo://app?vid=dbd6e596-aa0c-4268-b3af-55cf278acf46","ios":"levelo://app?vid=dbd6e596-aa0c-4268-b3af-55cf278acf46"},"vehicle_type_id":"4","last_reported":1703247171,"current_range_meters":13200,"station_id":"ce4bhqh2rcd13ifvqhlg","pricing_plan_id":"free"},{"bike_id":"f88f4adf-129f-481a-8b54-da1f73dd37cf","system_id":"levelo_inurba_marseille","lat":43.273125,"lon":5.390731,"is_reserved":false,"is_disabled":false,"rental_uris":{"android":"levelo://app?vid=f88f4adf-129f-481a-8b54-da1f73dd37cf","ios":"levelo://app?vid=f88f4adf-129f-481a-8b54-da1f73dd37cf"},"vehicle_type_id":"4","last_reported":1703247171,"current_range_meters":17600,"station_id":"ce4bhgp2rcd13ifvqfe0","pricing_plan_id":"free"},{"bike_id":"39206dc9-dff3-4c11-a722-c4de63a01df1","system_id":"levelo_inurba_marseille","lat":43.274099,"lon":5.394019,"is_reserved":false,"is_disabled":false,"rental_uris":{"android":"levelo://app?vid=39206dc9-dff3-4c11-a722-c4de63a01df1","ios":"levelo://app?vid=39206dc9-dff3-4c11-a722-c4de63a01df1"},"vehicle_type_id":"4","last_reported":1703247171,"current_range_meters":20800,"station_id":"ce4bhdp2rcd13ifvqf20","pricing_plan_id":"free"},{"bike_id":"fba58fd1-c732-400a-9bf7-600eb6d55a64","system_id":"levelo_inurba_marseille","lat":43.304096,"lon":5.425385,"is_reserved":false,"is_disabled":false,"rental_uris":{"android":"levelo://app?vid=fba58fd1-c732-400a-9bf7-600eb6d55a64","ios":"levelo://app?vid=fba58fd1-c732-400a-9bf7-600eb6d55a64"},"vehicle_type_id":"4","last_reported":1703247171,"current_range_meters":24800,"station_id":"ce4bhoh2rcd13ifvqh6g","pricing_plan_id":"free"},{"bike_id":"c5e4e6a1-7e85-4f7e-afcc-b6395f032ea1","system_id":"levelo_inurba_marseille","lat":43.31963,"lon":5.42672,"is_reserved":false,"is_disabled":false,"rental_uris":{"android":"levelo://app?vid=c5e4e6a1-7e85-4f7e-afcc-b6395f032ea1","ios":"levelo://app?vid=c5e4e6a1-7e85-4f7e-afcc-b6395f032ea1"},"vehicle_type_id":"4","last_reported":1703247171,"current_range_meters":24000,"station_id":"ce4bgj92rcd13ifvqbd0","pricing_plan_id":"free"},{"bike_id":"a80c78b0-54bd-4c06-a456-7ff9cb5fb92c","system_id":"levelo_inurba_marseille","lat":43.295523,"lon":5.422926,"is_reserved":false,"is_disabled":false,"rental_uris":{"android":"levelo://app?vid=a80c78b0-54bd-4c06-a456-7ff9cb5fb92c","ios":"levelo://app?vid=a80c78b0-54bd-4c06-a456-7ff9cb5fb92c"},"vehicle_type_id":"4","last_reported":1703247171,"current_range_meters":18800,"station_id":"ce4bhph2rcd13ifvqhdg","pricing_plan_id":"free"},{"bike_id":"7d800ac1-1b26-47dd-97c6-49cd89d9ab11","system_id":"levelo_inurba_marseille","lat":43.295511,"lon":5.422926,"is_reserved":false,"is_disabled":false,"rental_uris":{"android":"levelo://app?vid=7d800ac1-1b26-47dd-97c6-49cd89d9ab11","ios":"levelo://app?vid=7d800ac1-1b26-47dd-97c6-49cd89d9ab11"},"vehicle_type_id":"4","last_reported":1703247171,"current_range_meters":12000,"station_id":"ce4bhph2rcd13ifvqhdg","pricing_plan_id":"free"},{"bike_id":"23d13786-8601-4dce-a424-5d4a35dea444","system_id":"levelo_inurba_marseille","lat":43.295511,"lon":5.422926,"is_reserved":false,"is_disabled":false,"rental_uris":{"android":"levelo://app?vid=23d13786-8601-4dce-a424-5d4a35dea444","ios":"levelo://app?vid=23d13786-8601-4dce-a424-5d4a35dea444"},"vehicle_type_id":"4","last_reported":1703247171,"current_range_meters":14800,"station_id":"ce4bhph2rcd13ifvqhdg","pricing_plan_id":"free"},{"bike_id":"b55db1a0-b820-479b-9929-7610c21584c5","system_id":"levelo_inurba_marseille","lat":43.295511,"lon":5.422926,"is_reserved":false,"is_disabled":false,"rental_uris":{"android":"levelo://app?vid=b55db1a0-b820-479b-9929-7610c21584c5","ios":"levelo://app?vid=b55db1a0-b820-479b-9929-7610c21584c5"},"vehicle_type_id":"4","last_reported":1703247171,"current_range_meters":25600,"station_id":"ce4bhph2rcd13ifvqhdg","pricing_plan_id":"free"},{"bike_id":"d3cea1e8-7f39-4fcc-ad32-91ac9a408d93","system_id":"levelo_inurba_marseille","lat":43.295511,"lon":5.422926,"is_reserved":false,"is_disabled":false,"rental_uris":{"android":"levelo://app?vid=d3cea1e8-7f39-4fcc-ad32-91ac9a408d93","ios":"levelo://app?vid=d3cea1e8-7f39-4fcc-ad32-91ac9a408d93"},"vehicle_type_id":"4","last_reported":1703247171,"current_range_meters":18800,"station_id":"ce4bhph2rcd13ifvqhdg","pricing_plan_id":"free"},{"bike_id":"53e42213-33af-45b0-b935-d194c0b82548","system_id":"levelo_inurba_marseille","lat":43.272124,"lon":5.391768,"is_reserved":false,"is_disabled":false,"rental_uris":{"android":"levelo://app?vid=53e42213-33af-45b0-b935-d194c0b82548","ios":"levelo://app?vid=53e42213-33af-45b0-b935-d194c0b82548"},"vehicle_type_id":"4","last_reported":1703247171,"current_range_meters":6000,"station_id":"ce4bhhp2rcd13ifvqfm0","pricing_plan_id":"free"},{"bike_id":"d820745b-11cc-4252-975f-466bcba5a204","system_id":"levelo_inurba_marseille","lat":43.278128,"lon":5.407195,"is_reserved":false,"is_disabled":false,"rental_uris":{"android":"levelo://app?vid=d820745b-11cc-4252-975f-466bcba5a204","ios":"levelo://app?vid=d820745b-11cc-4252-975f-466bcba5a204"},"vehicle_type_id":"4","last_reported":1703247171,"current_range_meters":26800,"station_id":"ce4bhnh2rcd13ifvqgtg","pricing_plan_id":"free"},{"bike_id":"5c334ab5-4fed-4a94-8a3b-70711f788a32","system_id":"levelo_inurba_marseille","lat":43.278128,"lon":5.407195,"is_reserved":false,"is_disabled":false,"rental_uris":{"android":"levelo://app?vid=5c334ab5-4fed-4a94-8a3b-70711f788a32","ios":"levelo://app?vid=5c334ab5-4fed-4a94-8a3b-70711f788a32"},"vehicle_type_id":"4","last_reported":1703247171,"current_range_meters":14400,"station_id":"ce4bhnh2rcd13ifvqgtg","pricing_plan_id":"free"},{"bike_id":"83a19552-d3ff-445d-8d91-73371b142cdf","system_id":"levelo_inurba_marseille","lat":43.278128,"lon":5.407195,"is_reserved":false,"is_disabled":false,"rental_uris":{"android":"levelo://app?vid=83a19552-d3ff-445d-8d91-73371b142cdf","ios":"levelo://app?vid=83a19552-d3ff-445d-8d91-73371b142cdf"},"vehicle_type_id":"4","last_reported":1703247171,"current_range_meters":20400,"station_id":"ce4bhnh2rcd13ifvqgtg","pricing_plan_id":"free"},{"bike_id":"2385a3dc-ecc5-4c8e-b554-c8e4b25ef268","system_id":"levelo_inurba_marseille","lat":43.278128,"lon":5.407195,"is_reserved":false,"is_disabled":false,"rental_uris":{"android":"levelo://app?vid=2385a3dc-ecc5-4c8e-b554-c8e4b25ef268","ios":"levelo://app?vid=2385a3dc-ecc5-4c8e-b554-c8e4b25ef268"},"vehicle_type_id":"4","last_reported":1703247171,"current_range_meters":22000,"station_id":"ce4bhnh2rcd13ifvqgtg","pricing_plan_id":"free"},{"bike_id":"16195106-7fc7-4a03-b9d1-976d68597761","system_id":"levelo_inurba_marseille","lat":43.278128,"lon":5.407195,"is_reserved":false,"is_disabled":false,"rental_uris":{"android":"levelo://app?vid=16195106-7fc7-4a03-b9d1-976d68597761","ios":"levelo://app?vid=16195106-7fc7-4a03-b9d1-976d68597761"},"vehicle_type_id":"4","last_reported":1703247171,"current_range_meters":26800,"station_id":"ce4bhnh2rcd13ifvqgtg","pricing_plan_id":"free"},{"bike_id":"8118aac1-61df-48ac-a463-314a0b0328c4","system_id":"levelo_inurba_marseille","lat":43.278128,"lon":5.407195,"is_reserved":false,"is_disabled":false,"rental_uris":{"android":"levelo://app?vid=8118aac1-61df-48ac-a463-314a0b0328c4","ios":"levelo://app?vid=8118aac1-61df-48ac-a463-314a0b0328c4"},"vehicle_type_id":"4","last_reported":1703247171,"current_range_meters":15200,"station_id":"ce4bhnh2rcd13ifvqgtg","pricing_plan_id":"free"},{"bike_id":"a0f0678b-a79a-4501-be58-a17326f43245","system_id":"levelo_inurba_marseille","lat":43.278128,"lon":5.407195,"is_reserved":false,"is_disabled":false,"rental_uris":{"android":"levelo://app?vid=a0f0678b-a79a-4501-be58-a17326f43245","ios":"levelo://app?vid=a0f0678b-a79a-4501-be58-a17326f43245"},"vehicle_type_id":"4","last_reported":1703247171,"current_range_meters":20000,"station_id":"ce4bhnh2rcd13ifvqgtg","pricing_plan_id":"free"},{"bike_id":"c60aeed3-cec1-42ea-a07d-3e7e8c582964","system_id":"levelo_inurba_marseille","lat":43.278128,"lon":5.407195,"is_reserved":false,"is_disabled":false,"rental_uris":{"android":"levelo://app?vid=c60aeed3-cec1-42ea-a07d-3e7e8c582964","ios":"levelo://app?vid=c60aeed3-cec1-42ea-a07d-3e7e8c582964"},"vehicle_type_id":"4","last_reported":1703247171,"current_range_meters":20400,"station_id":"ce4bhnh2rcd13ifvqgtg","pricing_plan_id":"free"},{"bike_id":"b4601efd-44a0-4cb0-b51a-55933c9c824f","system_id":"levelo_inurba_marseille","lat":43.278128,"lon":5.407195,"is_reserved":false,"is_disabled":false,"rental_uris":{"android":"levelo://app?vid=b4601efd-44a0-4cb0-b51a-55933c9c824f","ios":"levelo://app?vid=b4601efd-44a0-4cb0-b51a-55933c9c824f"},"vehicle_type_id":"4","last_reported":1703247171,"current_range_meters":0,"station_id":"ce4bhnh2rcd13ifvqgtg","pricing_plan_id":"free"},{"bike_id":"0f1f280b-791e-48d8-a96a-92b2e86c8c8f","system_id":"levelo_inurba_marseille","lat":43.269467,"lon":5.386439,"is_reserved":false,"is_disabled":false,"rental_uris":{"android":"levelo://app?vid=0f1f280b-791e-48d8-a96a-92b2e86c8c8f","ios":"levelo://app?vid=0f1f280b-791e-48d8-a96a-92b2e86c8c8f"},"vehicle_type_id":"4","last_reported":1703247171,"current_range_meters":10800,"station_id":"ce4bhh92rcd13ifvqfh0","pricing_plan_id":"free"},{"bike_id":"61550aad-2bdf-4d69-a4fa-2735b97e3ff1","system_id":"levelo_inurba_marseille","lat":43.269467,"lon":5.386439,"is_reserved":false,"is_disabled":false,"rental_uris":{"android":"levelo://app?vid=61550aad-2bdf-4d69-a4fa-2735b97e3ff1","ios":"levelo://app?vid=61550aad-2bdf-4d69-a4fa-2735b97e3ff1"},"vehicle_type_id":"4","last_reported":1703247171,"current_range_meters":31600,"station_id":"ce4bhh92rcd13ifvqfh0","pricing_plan_id":"free"},{"bike_id":"703fbf0d-84a1-4e14-8329-0bcba99db863","system_id":"levelo_inurba_marseille","lat":43.279465,"lon":5.410561,"is_reserved":false,"is_disabled":false,"rental_uris":{"android":"levelo://app?vid=703fbf0d-84a1-4e14-8329-0bcba99db863","ios":"levelo://app?vid=703fbf0d-84a1-4e14-8329-0bcba99db863"},"vehicle_type_id":"4","last_reported":1703247171,"current_range_meters":12000,"station_id":"ce4bhnp2rcd13ifvqh0g","pricing_plan_id":"free"},{"bike_id":"6a973ce5-26cf-452d-917e-863f93232546","system_id":"levelo_inurba_marseille","lat":43.279465,"lon":5.410561,"is_reserved":false,"is_disabled":false,"rental_uris":{"android":"levelo://app?vid=6a973ce5-26cf-452d-917e-863f93232546","ios":"levelo://app?vid=6a973ce5-26cf-452d-917e-863f93232546"},"vehicle_type_id":"4","last_reported":1703247171,"current_range_meters":26000,"station_id":"ce4bhnp2rcd13ifvqh0g","pricing_plan_id":"free"},{"bike_id":"cb1a088b-ce6f-4f62-9499-954cdfd01851","system_id":"levelo_inurba_marseille","lat":43.279465,"lon":5.410561,"is_reserved":false,"is_disabled":false,"rental_uris":{"android":"levelo://app?vid=cb1a088b-ce6f-4f62-9499-954cdfd01851","ios":"levelo://app?vid=cb1a088b-ce6f-4f62-9499-954cdfd01851"},"vehicle_type_id":"4","last_reported":1703247171,"current_range_meters":30000,"station_id":"ce4bhnp2rcd13ifvqh0g","pricing_plan_id":"free"},{"bike_id":"de206db2-dca3-4ba7-a290-f38d42cda59f","system_id":"levelo_inurba_marseille","lat":43.269319,"lon":5.389397,"is_reserved":false,"is_disabled":false,"rental_uris":{"android":"levelo://app?vid=de206db2-dca3-4ba7-a290-f38d42cda59f","ios":"levelo://app?vid=de206db2-dca3-4ba7-a290-f38d42cda59f"},"vehicle_type_id":"4","last_reported":1703247171,"current_range_meters":0,"station_id":"ce4bhhh2rcd13ifvqfl0","pricing_plan_id":"free"},{"bike_id":"90632e78-2c91-41c4-bf3f-597cfab35a37","system_id":"levelo_inurba_marseille","lat":43.27996,"lon":5.416624,"is_reserved":false,"is_disabled":false,"rental_uris":{"android":"levelo://app?vid=90632e78-2c91-41c4-bf3f-597cfab35a37","ios":"levelo://app?vid=90632e78-2c91-41c4-bf3f-597cfab35a37"},"vehicle_type_id":"4","last_reported":1703247171,"current_range_meters":25200,"station_id":"ce4bho12rcd13ifvqh1g","pricing_plan_id":"free"},{"bike_id":"e9368fef-1a94-4889-94e3-414dcae8d6af","system_id":"levelo_inurba_marseille","lat":43.267966,"lon":5.393976,"is_reserved":false,"is_disabled":false,"rental_uris":{"android":"levelo://app?vid=e9368fef-1a94-4889-94e3-414dcae8d6af","ios":"levelo://app?vid=e9368fef-1a94-4889-94e3-414dcae8d6af"},"vehicle_type_id":"4","last_reported":1703247171,"current_range_meters":22000,"station_id":"ce4bhh12rcd13ifvqfg0","pricing_plan_id":"free"},{"bike_id":"5351b231-4b3a-4c3e-a924-dd60f7b26d6c","system_id":"levelo_inurba_marseille","lat":43.265571,"lon":5.390032,"is_reserved":false,"is_disabled":false,"rental_uris":{"android":"levelo://app?vid=5351b231-4b3a-4c3e-a924-dd60f7b26d6c","ios":"levelo://app?vid=5351b231-4b3a-4c3e-a924-dd60f7b26d6c"},"vehicle_type_id":"4","last_reported":1703247171,"current_range_meters":14800,"station_id":"ce4bhe12rcd13ifvqf30","pricing_plan_id":"free"},{"bike_id":"5a3bbb7c-e796-4fa2-ab10-13a8e11cb32f","system_id":"levelo_inurba_marseille","lat":43.26932,"lon":5.40257,"is_reserved":false,"is_disabled":false,"rental_uris":{"android":"levelo://app?vid=5a3bbb7c-e796-4fa2-ab10-13a8e11cb32f","ios":"levelo://app?vid=5a3bbb7c-e796-4fa2-ab10-13a8e11cb32f"},"vehicle_type_id":"4","last_reported":1703247171,"current_range_meters":0,"station_id":"cjm6bp8fraef2m0cb0m0","pricing_plan_id":"free"},{"bike_id":"36790cb8-1930-420b-8175-437f158c4960","system_id":"levelo_inurba_marseille","lat":43.278128,"lon":5.407195,"is_reserved":false,"is_disabled":false,"rental_uris":{"android":"levelo://app?vid=36790cb8-1930-420b-8175-437f158c4960","ios":"levelo://app?vid=36790cb8-1930-420b-8175-437f158c4960"},"vehicle_type_id":"4","last_reported":1703247171,"current_range_meters":9600,"station_id":"ce4bhnh2rcd13ifvqgtg","pricing_plan_id":"free"},{"bike_id":"eb9c0446-e6aa-43d9-91be-89942caa57b1","system_id":"levelo_inurba_marseille","lat":43.261782,"lon":5.374515,"is_reserved":false,"is_disabled":false,"rental_uris":{"android":"levelo://app?vid=eb9c0446-e6aa-43d9-91be-89942caa57b1","ios":"levelo://app?vid=eb9c0446-e6aa-43d9-91be-89942caa57b1"},"vehicle_type_id":"4","last_reported":1703247171,"current_range_meters":0,"station_id":"ce4bhgp2rcd13ifvqfc0","pricing_plan_id":"free"},{"bike_id":"8b262065-41c1-40b3-9968-c1b1aeb6cb91","system_id":"levelo_inurba_marseille","lat":43.261782,"lon":5.374515,"is_reserved":false,"is_disabled":false,"rental_uris":{"android":"levelo://app?vid=8b262065-41c1-40b3-9968-c1b1aeb6cb91","ios":"levelo://app?vid=8b262065-41c1-40b3-9968-c1b1aeb6cb91"},"vehicle_type_id":"4","last_reported":1703247171,"current_range_meters":16000,"station_id":"ce4bhgp2rcd13ifvqfc0","pricing_plan_id":"free"},{"bike_id":"2d6427c7-a10a-4b24-b0a5-95d867c65295","system_id":"levelo_inurba_marseille","lat":43.31709,"lon":5.4371,"is_reserved":false,"is_disabled":false,"rental_uris":{"android":"levelo://app?vid=2d6427c7-a10a-4b24-b0a5-95d867c65295","ios":"levelo://app?vid=2d6427c7-a10a-4b24-b0a5-95d867c65295"},"vehicle_type_id":"4","last_reported":1703247171,"current_range_meters":22000,"station_id":"ce4bhp92rcd13ifvqhcg","pricing_plan_id":"free"},{"bike_id":"af855eb1-025b-44d3-9e9c-bb854613b686","system_id":"levelo_inurba_marseille","lat":43.31712,"lon":5.43715,"is_reserved":false,"is_disabled":false,"rental_uris":{"android":"levelo://app?vid=af855eb1-025b-44d3-9e9c-bb854613b686","ios":"levelo://app?vid=af855eb1-025b-44d3-9e9c-bb854613b686"},"vehicle_type_id":"4","last_reported":1703247171,"current_range_meters":6800,"station_id":"ce4bhp92rcd13ifvqhcg","pricing_plan_id":"free"},{"bike_id":"9bc11cf7-d766-47fb-a2ac-1ffa731b216c","system_id":"levelo_inurba_marseille","lat":43.298768,"lon":5.43643,"is_reserved":false,"is_disabled":false,"rental_uris":{"android":"levelo://app?vid=9bc11cf7-d766-47fb-a2ac-1ffa731b216c","ios":"levelo://app?vid=9bc11cf7-d766-47fb-a2ac-1ffa731b216c"},"vehicle_type_id":"4","last_reported":1703247171,"current_range_meters":30800,"station_id":"ce4bhpp2rcd13ifvqhfg","pricing_plan_id":"free"},{"bike_id":"3263ee96-de9a-42be-b4cc-360124d8e6a3","system_id":"levelo_inurba_marseille","lat":43.281548,"lon":5.42643,"is_reserved":false,"is_disabled":false,"rental_uris":{"android":"levelo://app?vid=3263ee96-de9a-42be-b4cc-360124d8e6a3","ios":"levelo://app?vid=3263ee96-de9a-42be-b4cc-360124d8e6a3"},