{"last_updated":1745432084,"ttl":60,"version":"2.2","data":{"bikes":[{"bike_id":"439c7aee-857b-4f1c-beba-c1f7db3937ec","system_id":"levelo_inurba_marseille","lat":43.29852,"lon":5.36287,"is_reserved":false,"is_disabled":false,"rental_uris":{"android":"levelo://app?vid=439c7aee-857b-4f1c-beba-c1f7db3937ec","ios":"levelo://app?vid=439c7aee-857b-4f1c-beba-c1f7db3937ec"},"vehicle_type_id":"4","last_reported":1745432084,"current_range_meters":2800,"station_id":"ce4bgpp2rcd13ifvqc3g","pricing_plan_id":"cebpf4jnsgd1na2vs0mg"},{"bike_id":"0c580a93-4b4c-461e-a49f-cceeb75be49f","system_id":"levelo_inurba_marseille","lat":43.26952,"lon":5.38632,"is_reserved":false,"is_disabled":false,"rental_uris":{"android":"levelo://app?vid=0c580a93-4b4c-461e-a49f-cceeb75be49f","ios":"levelo://app?vid=0c580a93-4b4c-461e-a49f-cceeb75be49f"},"vehicle_type_id":"4","last_reported":1745432084,"current_range_meters":2800,"station_id":"ce4bhh92rcd13ifvqfh0","pricing_plan_id":"cebpf4jnsgd1na2vs0mg"},{"bike_id":"fd329d73-d91a-41c7-89cf-ed671cee0a8f","system_id":"levelo_inurba_marseille","lat":43.2558,"lon":5.3825,"is_reserved":false,"is_disabled":true,"rental_uris":{"android":"levelo://app?vid=fd329d73-d91a-41c7-89cf-ed671cee0a8f","ios":"levelo://app?vid=fd329d73-d91a-41c7-89cf-ed671cee0a8f"},"vehicle_type_id":"4","last_reported":1745432084,"current_range_meters":2800,"station_id":"ce4bhih2rcd13ifvqfs0","pricing_plan_id":"cebpf4jnsgd1na2vs0mg"},{"bike_id":"d1685157-edd5-40a9-80a5-c3d370f60280","system_id":"levelo_inurba_marseille","lat":43.30463,"lon":5.37897,"is_reserved":false,"is_disabled":false,"rental_uris":{"android":"levelo://app?vid=d1685157-edd5-40a9-80a5-c3d370f60280","ios":"levelo://app?vid=d1685157-edd5-40a9-80a5-c3d370f60280"},"vehicle_type_id":"4","last_reported":1745432084,"current_range_meters":2800,"station_id":"ce4bgup2rcd13ifvqcn0","pricing_plan_id":"cebpf4jnsgd1na2vs0mg"},{"bike_id":"5bb1b9d6-d6f0-486b-b632-4f3182235a3f","system_id":"levelo_inurba_marseille","lat":43.32115,"lon":5.36793,"is_reserved":false,"is_disabled":false,"rental_uris":{"android":"levelo://app?vid=5bb1b9d6-d6f0-486b-b632-4f3182235a3f","ios":"levelo://app?vid=5bb1b9d6-d6f0-486b-b632-4f3182235a3f"},"vehicle_type_id":"4","last_reported":1745432084,"current_range_meters":2800,"station_id":"ce4bhrh2rcd13ifvqhug","pricing_plan_id":"cebpf4jnsgd1na2vs0mg"},{"bike_id":"18ca96d6-6181-414d-a886-e147d28597e0","system_id":"levelo_inurba_marseille","lat":43.2961,"lon":5.38092,"is_reserved":false,"is_disabled":false,"rental_uris":{"android":"levelo://app?vid=18ca96d6-6181-414d-a886-e147d28597e0","ios":"levelo://app?vid=18ca96d6-6181-414d-a886-e147d28597e0"},"vehicle_type_id":"4","last_reported":1745432084,"current_range_meters":2800,"station_id":"ce4bgl12rcd13ifvqbo0","pricing_plan_id":"cebpf4jnsgd1na2vs0mg"},{"bike_id":"d684d189-f792-49a5-acc4-d682aeeb9c6d","system_id":"levelo_inurba_marseille","lat":43.29485,"lon":5.39009,"is_reserved":false,"is_disabled":false,"rental_uris":{"android":"levelo://app?vid=d684d189-f792-49a5-acc4-d682aeeb9c6d","ios":"levelo://app?vid=d684d189-f792-49a5-acc4-d682aeeb9c6d"},"vehicle_type_id":"4","last_reported":1745432084,"current_range_meters":2800,"station_id":"ce4bh3p2rcd13ifvqdp0","pricing_plan_id":"cebpf4jnsgd1na2vs0mg"},{"bike_id":"dcf58aac-e3d1-4cf5-a315-de10123d3a12","system_id":"levelo_inurba_marseille","lat":43.29046,"lon":5.37576,"is_reserved":false,"is_disabled":false,"rental_uris":{"android":"levelo://app?vid=dcf58aac-e3d1-4cf5-a315-de10123d3a12","ios":"levelo://app?vid=dcf58aac-e3d1-4cf5-a315-de10123d3a12"},"vehicle_type_id":"4","last_reported":1745432084,"current_range_meters":2800,"station_id":"ce4bh692rcd13ifvqe90","pricing_plan_id":"cebpf4jnsgd1na2vs0mg"},{"bike_id":"7bd00d87-2782-420d-a15c-1eadd7ee7e4f","system_id":"levelo_inurba_marseille","lat":43.24956,"lon":5.39093,"is_reserved":false,"is_disabled":false,"rental_uris":{"android":"levelo://app?vid=7bd00d87-2782-420d-a15c-1eadd7ee7e4f","ios":"levelo://app?vid=7bd00d87-2782-420d-a15c-1eadd7ee7e4f"},"vehicle_type_id":"4","last_reported":1745432084,"current_range_meters":2800,"station_id":"","pricing_plan_id":"cebpf4jnsgd1na2vs0mg"},{"bike_id":"1a51ffb1-9a79-4bec-9ba5-e3a8a916919c","system_id":"levelo_inurba_marseille","lat":43.283478,"lon":5.381011,"is_reserved":false,"is_disabled":true,"rental_uris":{"android":"levelo://app?vid=1a51ffb1-9a79-4bec-9ba5-e3a8a916919c","ios":"levelo://app?vid=1a51ffb1-9a79-4bec-9ba5-e3a8a916919c"},"vehicle_type_id":"4","last_reported":1745432084,"current_range_meters":3200,"station_id":"ce4bh512rcd13ifvqe3g","pricing_plan_id":"cebpf4jnsgd1na2vs0mg"},{"bike_id":"9cd79f43-b936-4e18-bb8b-d920e63e27b1","system_id":"levelo_inurba_marseille","lat":43.31173,"lon":5.38729,"is_reserved":false,"is_disabled":false,"rental_uris":{"android":"levelo://app?vid=9cd79f43-b936-4e18-bb8b-d920e63e27b1","ios":"levelo://app?vid=9cd79f43-b936-4e18-bb8b-d920e63e27b1"},"vehicle_type_id":"4","last_reported":1745432084,"current_range_meters":3200,"station_id":"ce4bgv12rcd13ifvqcp0","pricing_plan_id":"cebpf4jnsgd1na2vs0mg"},{"bike_id":"001be0b9-cdf3-450d-9359-9771e014728d","system_id":"levelo_inurba_marseille","lat":43.29892,"lon":5.38885,"is_reserved":false,"is_disabled":false,"rental_uris":{"android":"levelo://app?vid=001be0b9-cdf3-450d-9359-9771e014728d","ios":"levelo://app?vid=001be0b9-cdf3-450d-9359-9771e014728d"},"vehicle_type_id":"4","last_reported":1745432084,"current_range_meters":4400,"station_id":"ce4bh392rcd13ifvqdl0","pricing_plan_id":"cebpf4jnsgd1na2vs0mg"},{"bike_id":"a8313e07-fc7d-46da-a852-e2be5019fefd","system_id":"levelo_inurba_marseille","lat":43.28921,"lon":5.38395,"is_reserved":false,"is_disabled":true,"rental_uris":{"android":"levelo://app?vid=a8313e07-fc7d-46da-a852-e2be5019fefd","ios":"levelo://app?vid=a8313e07-fc7d-46da-a852-e2be5019fefd"},"vehicle_type_id":"4","last_reported":1745432084,"current_range_meters":3600,"station_id":"ce4bh612rcd13ifvqe6g","pricing_plan_id":"cebpf4jnsgd1na2vs0mg"},{"bike_id":"cc2384ec-18ce-4d35-8f1c-f524e807ea21","system_id":"levelo_inurba_marseille","lat":43.29169,"lon":5.37163,"is_reserved":false,"is_disabled":false,"rental_uris":{"android":"levelo://app?vid=cc2384ec-18ce-4d35-8f1c-f524e807ea21","ios":"levelo://app?vid=cc2384ec-18ce-4d35-8f1c-f524e807ea21"},"vehicle_type_id":"4","last_reported":1745432084,"current_range_meters":3600,"station_id":"ce4bha92rcd13ifvqeh0","pricing_plan_id":"cebpf4jnsgd1na2vs0mg"},{"bike_id":"3798ef7a-14dc-4c36-b287-33e93ba3f27e","system_id":"levelo_inurba_marseille","lat":43.29415,"lon":5.38622,"is_reserved":false,"is_disabled":true,"rental_uris":{"android":"levelo://app?vid=3798ef7a-14dc-4c36-b287-33e93ba3f27e","ios":"levelo://app?vid=3798ef7a-14dc-4c36-b287-33e93ba3f27e"},"vehicle_type_id":"4","last_reported":1745432084,"current_range_meters":3600,"station_id":"ce4bh2h2rcd13ifvqdh0","pricing_plan_id":"cebpf4jnsgd1na2vs0mg"},{"bike_id":"bd588f9b-b4f6-4d38-970f-547b8c95937e","system_id":"levelo_inurba_marseille","lat":43.29082,"lon":5.37167,"is_reserved":false,"is_disabled":false,"rental_uris":{"android":"levelo://app?vid=bd588f9b-b4f6-4d38-970f-547b8c95937e","ios":"levelo://app?vid=bd588f9b-b4f6-4d38-970f-547b8c95937e"},"vehicle_type_id":"4","last_reported":1745432084,"current_range_meters":3600,"station_id":"ce4bh5p2rcd13ifvqe4g","pricing_plan_id":"cebpf4jnsgd1na2vs0mg"},{"bike_id":"ae6dd9ab-2e30-4181-993e-6d14ad986f48","system_id":"levelo_inurba_marseille","lat":43.28422,"lon":5.34999,"is_reserved":false,"is_disabled":true,"rental_uris":{"android":"levelo://app?vid=ae6dd9ab-2e30-4181-993e-6d14ad986f48","ios":"levelo://app?vid=ae6dd9ab-2e30-4181-993e-6d14ad986f48"},"vehicle_type_id":"4","last_reported":1745432084,"current_range_meters":3600,"station_id":"ce4bhbh2rcd13ifvqepg","pricing_plan_id":"cebpf4jnsgd1na2vs0mg"},{"bike_id":"9f41c846-b6dc-4615-9602-25afdfbc10e8","system_id":"levelo_inurba_marseille","lat":43.33026,"lon":5.39047,"is_reserved":false,"is_disabled":false,"rental_uris":{"android":"levelo://app?vid=9f41c846-b6dc-4615-9602-25afdfbc10e8","ios":"levelo://app?vid=9f41c846-b6dc-4615-9602-25afdfbc10e8"},"vehicle_type_id":"4","last_reported":1745432084,"current_range_meters":4000,"station_id":"ce4bhr92rcd13ifvqhrg","pricing_plan_id":"cebpf4jnsgd1na2vs0mg"},{"bike_id":"2bd024a9-6984-4b0a-b0f1-bff61b00cce7","system_id":"levelo_inurba_marseille","lat":43.30645,"lon":5.40105,"is_reserved":false,"is_disabled":false,"rental_uris":{"android":"levelo://app?vid=2bd024a9-6984-4b0a-b0f1-bff61b00cce7","ios":"levelo://app?vid=2bd024a9-6984-4b0a-b0f1-bff61b00cce7"},"vehicle_type_id":"4","last_reported":1745432084,"current_range_meters":4400,"station_id":"ce4bh112rcd13ifvqda0","pricing_plan_id":"cebpf4jnsgd1na2vs0mg"},{"bike_id":"b1d16a29-0a9b-4903-8391-2319e3d16109","system_id":"levelo_inurba_marseille","lat":43.30306,"lon":5.39212,"is_reserved":false,"is_disabled":false,"rental_uris":{"android":"levelo://app?vid=b1d16a29-0a9b-4903-8391-2319e3d16109","ios":"levelo://app?vid=b1d16a29-0a9b-4903-8391-2319e3d16109"},"vehicle_type_id":"4","last_reported":1745432084,"current_range_meters":4400,"station_id":"ce4bgkh2rcd13ifvqbk0","pricing_plan_id":"cebpf4jnsgd1na2vs0mg"},{"bike_id":"de68d7cd-6285-408d-814c-91024ce0e96d","system_id":"levelo_inurba_marseille","lat":43.273196,"lon":5.390676,"is_reserved":false,"is_disabled":false,"rental_uris":{"android":"levelo://app?vid=de68d7cd-6285-408d-814c-91024ce0e96d","ios":"levelo://app?vid=de68d7cd-6285-408d-814c-91024ce0e96d"},"vehicle_type_id":"4","last_reported":1745432084,"current_range_meters":4400,"station_id":"ce4bhgp2rcd13ifvqfe0","pricing_plan_id":"cebpf4jnsgd1na2vs0mg"},{"bike_id":"6b3b3e35-f2ec-49a4-8cfd-843a59857573","system_id":"levelo_inurba_marseille","lat":43.25111,"lon":5.40326,"is_reserved":false,"is_disabled":false,"rental_uris":{"android":"levelo://app?vid=6b3b3e35-f2ec-49a4-8cfd-843a59857573","ios":"levelo://app?vid=6b3b3e35-f2ec-49a4-8cfd-843a59857573"},"vehicle_type_id":"4","last_reported":1745432084,"current_range_meters":4400,"station_id":"ce4bhlh2rcd13ifvqgig","pricing_plan_id":"cebpf4jnsgd1na2vs0mg"},{"bike_id":"7a106420-931d-4d8e-a84c-83a5e91aab19","system_id":"levelo_inurba_marseille","lat":43.287,"lon":5.37386,"is_reserved":false,"is_disabled":false,"rental_uris":{"android":"levelo://app?vid=7a106420-931d-4d8e-a84c-83a5e91aab19","ios":"levelo://app?vid=7a106420-931d-4d8e-a84c-83a5e91aab19"},"vehicle_type_id":"4","last_reported":1745432084,"current_range_meters":4800,"station_id":"ce4bh3p2rcd13ifvqdq0","pricing_plan_id":"cebpf4jnsgd1na2vs0mg"},{"bike_id":"0f36c06d-b34a-4b6a-9c76-b87640418fc7","system_id":"levelo_inurba_marseille","lat":43.23066,"lon":5.3549,"is_reserved":false,"is_disabled":false,"rental_uris":{"android":"levelo://app?vid=0f36c06d-b34a-4b6a-9c76-b87640418fc7","ios":"levelo://app?vid=0f36c06d-b34a-4b6a-9c76-b87640418fc7"},"vehicle_type_id":"4","last_reported":1745432084,"current_range_meters":4800,"station_id":"cpo3342slgdg3j2ifvpg","pricing_plan_id":"cebpf4jnsgd1na2vs0mg"},{"bike_id":"6342f17e-bfc4-4add-9883-f8307126526d","system_id":"levelo_inurba_marseille","lat":43.27941,"lon":5.4104,"is_reserved":false,"is_disabled":false,"rental_uris":{"android":"levelo://app?vid=6342f17e-bfc4-4add-9883-f8307126526d","ios":"levelo://app?vid=6342f17e-bfc4-4add-9883-f8307126526d"},"vehicle_type_id":"4","last_reported":1745432084,"current_range_meters":4800,"station_id":"ce4bhnp2rcd13ifvqh0g","pricing_plan_id":"cebpf4jnsgd1na2vs0mg"},{"bike_id":"301ad9ce-5a04-4253-8ef7-ab22a722dd2a","system_id":"levelo_inurba_marseille","lat":43.2994,"lon":5.36549,"is_reserved":false,"is_disabled":false,"rental_uris":{"android":"levelo://app?vid=301ad9ce-5a04-4253-8ef7-ab22a722dd2a","ios":"levelo://app?vid=301ad9ce-5a04-4253-8ef7-ab22a722dd2a"},"vehicle_type_id":"4","last_reported":1745432084,"current_range_meters":4800,"station_id":"ce4bgm92rcd13ifvqbr0","pricing_plan_id":"cebpf4jnsgd1na2vs0mg"},{"bike_id":"df5d5ce9-c0be-424c-b910-f356aac703ad","system_id":"levelo_inurba_marseille","lat":43.28573,"lon":5.39499,"is_reserved":false,"is_disabled":false,"rental_uris":{"android":"levelo://app?vid=df5d5ce9-c0be-424c-b910-f356aac703ad","ios":"levelo://app?vid=df5d5ce9-c0be-424c-b910-f356aac703ad"},"vehicle_type_id":"4","last_reported":1745432084,"current_range_meters":4400,"station_id":"ce4bh292rcd13ifvqdg0","pricing_plan_id":"cebpf4jnsgd1na2vs0mg"},{"bike_id":"9c515721-f5f2-4646-9bfd-591c58991abb","system_id":"levelo_inurba_marseille","lat":43.292684,"lon":5.384457,"is_reserved":false,"is_disabled":false,"rental_uris":{"android":"levelo://app?vid=9c515721-f5f2-4646-9bfd-591c58991abb","ios":"levelo://app?vid=9c515721-f5f2-4646-9bfd-591c58991abb"},"vehicle_type_id":"4","last_reported":1745432084,"current_range_meters":5600,"station_id":"ce4bh692rcd13ifvqea0","pricing_plan_id":"cebpf4jnsgd1na2vs0mg"},{"bike_id":"71aa824b-7924-499b-ac49-06ff64db876f","system_id":"levelo_inurba_marseille","lat":43.29296,"lon":5.37464,"is_reserved":false,"is_disabled":false,"rental_uris":{"android":"levelo://app?vid=71aa824b-7924-499b-ac49-06ff64db876f","ios":"levelo://app?vid=71aa824b-7924-499b-ac49-06ff64db876f"},"vehicle_type_id":"4","last_reported":1745432084,"current_range_meters":4000,"station_id":"ce4bgi12rcd13ifvqb70","pricing_plan_id":"cebpf4jnsgd1na2vs0mg"},{"bike_id":"6ab8fff9-e820-418a-bdbb-01e31c3e083a","system_id":"levelo_inurba_marseille","lat":43.28723,"lon":5.37945,"is_reserved":false,"is_disabled":false,"rental_uris":{"android":"levelo://app?vid=6ab8fff9-e820-418a-bdbb-01e31c3e083a","ios":"levelo://app?vid=6ab8fff9-e820-418a-bdbb-01e31c3e083a"},"vehicle_type_id":"4","last_reported":1745432084,"current_range_meters":5600,"station_id":"ce4bh9p2rcd13ifvqec0","pricing_plan_id":"cebpf4jnsgd1na2vs0mg"},{"bike_id":"896ba6df-ef46-410a-b9bd-c8259e6843b5","system_id":"levelo_inurba_marseille","lat":43.29556,"lon":5.42278,"is_reserved":false,"is_disabled":false,"rental_uris":{"android":"levelo://app?vid=896ba6df-ef46-410a-b9bd-c8259e6843b5","ios":"levelo://app?vid=896ba6df-ef46-410a-b9bd-c8259e6843b5"},"vehicle_type_id":"4","last_reported":1745432084,"current_range_meters":5600,"station_id":"ce4bhph2rcd13ifvqhdg","pricing_plan_id":"cebpf4jnsgd1na2vs0mg"},{"bike_id":"53e76e69-542e-498c-be3c-54ee74e28889","system_id":"levelo_inurba_marseille","lat":43.29719,"lon":5.36625,"is_reserved":false,"is_disabled":true,"rental_uris":{"android":"levelo://app?vid=53e76e69-542e-498c-be3c-54ee74e28889","ios":"levelo://app?vid=53e76e69-542e-498c-be3c-54ee74e28889"},"vehicle_type_id":"4","last_reported":1745432084,"current_range_meters":5600,"station_id":"ce4bgn12rcd13ifvqbt0","pricing_plan_id":"cebpf4jnsgd1na2vs0mg"},{"bike_id":"1d450744-a2fd-4dd7-9d57-94454ef85ce1","system_id":"levelo_inurba_marseille","lat":43.30306,"lon":5.39206,"is_reserved":false,"is_disabled":false,"rental_uris":{"android":"levelo://app?vid=1d450744-a2fd-4dd7-9d57-94454ef85ce1","ios":"levelo://app?vid=1d450744-a2fd-4dd7-9d57-94454ef85ce1"},"vehicle_type_id":"4","last_reported":1745432084,"current_range_meters":6000,"station_id":"ce4bgkh2rcd13ifvqbk0","pricing_plan_id":"cebpf4jnsgd1na2vs0mg"},{"bike_id":"28005a84-0f49-4b82-b764-3c74ac6ae649","system_id":"levelo_inurba_marseille","lat":43.29844,"lon":5.36283,"is_reserved":false,"is_disabled":false,"rental_uris":{"android":"levelo://app?vid=28005a84-0f49-4b82-b764-3c74ac6ae649","ios":"levelo://app?vid=28005a84-0f49-4b82-b764-3c74ac6ae649"},"vehicle_type_id":"4","last_reported":1745432084,"current_range_meters":6000,"station_id":"ce4bgpp2rcd13ifvqc3g","pricing_plan_id":"cebpf4jnsgd1na2vs0mg"},{"bike_id":"a1eb6eed-62cd-4679-a5f9-76b30358c282","system_id":"levelo_inurba_marseille","lat":43.28709,"lon":5.39982,"is_reserved":false,"is_disabled":false,"rental_uris":{"android":"levelo://app?vid=a1eb6eed-62cd-4679-a5f9-76b30358c282","ios":"levelo://app?vid=a1eb6eed-62cd-4679-a5f9-76b30358c282"},"vehicle_type_id":"4","last_reported":1745432084,"current_range_meters":6000,"station_id":"ce4bho92rcd13ifvqh3g","pricing_plan_id":"cebpf4jnsgd1na2vs0mg"},{"bike_id":"4c379f54-cb85-4936-8113-59b1636ce1d0","system_id":"levelo_inurba_marseille","lat":43.305331,"lon":5.365569,"is_reserved":false,"is_disabled":false,"rental_uris":{"android":"levelo://app?vid=4c379f54-cb85-4936-8113-59b1636ce1d0","ios":"levelo://app?vid=4c379f54-cb85-4936-8113-59b1636ce1d0"},"vehicle_type_id":"4","last_reported":1745432084,"current_range_meters":6000,"station_id":"ce4bgs12rcd13ifvqcag","pricing_plan_id":"cebpf4jnsgd1na2vs0mg"},{"bike_id":"81943042-5e0e-4373-b1a5-52c65cde995d","system_id":"levelo_inurba_marseille","lat":43.30542,"lon":5.3656,"is_reserved":false,"is_disabled":false,"rental_uris":{"android":"levelo://app?vid=81943042-5e0e-4373-b1a5-52c65cde995d","ios":"levelo://app?vid=81943042-5e0e-4373-b1a5-52c65cde995d"},"vehicle_type_id":"4","last_reported":1745432084,"current_range_meters":8000,"station_id":"ce4bgs12rcd13ifvqcag","pricing_plan_id":"cebpf4jnsgd1na2vs0mg"},{"bike_id":"fd2fa44d-3591-465a-928d-207193f1bbe0","system_id":"levelo_inurba_marseille","lat":43.29308,"lon":5.37181,"is_reserved":false,"is_disabled":false,"rental_uris":{"android":"levelo://app?vid=fd2fa44d-3591-465a-928d-207193f1bbe0","ios":"levelo://app?vid=fd2fa44d-3591-465a-928d-207193f1bbe0"},"vehicle_type_id":"4","last_reported":1745432084,"current_range_meters":6000,"station_id":"ce4bgh92rcd13ifvqb40","pricing_plan_id":"cebpf4jnsgd1na2vs0mg"},{"bike_id":"8c7b1d89-2d9e-49f6-9b86-c688f9843ed1","system_id":"levelo_inurba_marseille","lat":43.29278,"lon":5.36846,"is_reserved":false,"is_disabled":false,"rental_uris":{"android":"levelo://app?vid=8c7b1d89-2d9e-49f6-9b86-c688f9843ed1","ios":"levelo://app?vid=8c7b1d89-2d9e-49f6-9b86-c688f9843ed1"},"vehicle_type_id":"4","last_reported":1745432084,"current_range_meters":6000,"station_id":"ce4bhbp2rcd13ifvqesg","pricing_plan_id":"cebpf4jnsgd1na2vs0mg"},{"bike_id":"6a125dea-8547-40b7-85b6-fe98a26139f7","system_id":"levelo_inurba_marseille","lat":43.28707,"lon":5.37386,"is_reserved":false,"is_disabled":false,"rental_uris":{"android":"levelo://app?vid=6a125dea-8547-40b7-85b6-fe98a26139f7","ios":"levelo://app?vid=6a125dea-8547-40b7-85b6-fe98a26139f7"},"vehicle_type_id":"4","last_reported":1745432084,"current_range_meters":6400,"station_id":"ce4bh3p2rcd13ifvqdq0","pricing_plan_id":"cebpf4jnsgd1na2vs0mg"},{"bike_id":"fb410e5a-aadb-41e8-a7dc-cb03995fe1ac","system_id":"levelo_inurba_marseille","lat":43.27609,"lon":5.36125,"is_reserved":false,"is_disabled":false,"rental_uris":{"android":"levelo://app?vid=fb410e5a-aadb-41e8-a7dc-cb03995fe1ac","ios":"levelo://app?vid=fb410e5a-aadb-41e8-a7dc-cb03995fe1ac"},"vehicle_type_id":"4","last_reported":1745432084,"current_range_meters":6400,"station_id":"ce4bgj92rcd13ifvqbe0","pricing_plan_id":"cebpf4jnsgd1na2vs0mg"},{"bike_id":"62603431-7ffe-4763-a417-ccc1e93f51e0","system_id":"levelo_inurba_marseille","lat":43.26565,"lon":5.39004,"is_reserved":false,"is_disabled":false,"rental_uris":{"android":"levelo://app?vid=62603431-7ffe-4763-a417-ccc1e93f51e0","ios":"levelo://app?vid=62603431-7ffe-4763-a417-ccc1e93f51e0"},"vehicle_type_id":"4","last_reported":1745432084,"current_range_meters":6400,"station_id":"ce4bhe12rcd13ifvqf30","pricing_plan_id":"cebpf4jnsgd1na2vs0mg"},{"bike_id":"4097e7f9-f416-4c0d-bbb3-28486db56493","system_id":"levelo_inurba_marseille","lat":43.28943,"lon":5.36637,"is_reserved":false,"is_disabled":false,"rental_uris":{"android":"levelo://app?vid=4097e7f9-f416-4c0d-bbb3-28486db56493","ios":"levelo://app?vid=4097e7f9-f416-4c0d-bbb3-28486db56493"},"vehicle_type_id":"4","last_reported":1745432084,"current_range_meters":6400,"station_id":"ce4bhap2rcd13ifvqek0","pricing_plan_id":"cebpf4jnsgd1na2vs0mg"},{"bike_id":"05da41b0-da78-4169-8968-c8b5ca09a846","system_id":"levelo_inurba_marseille","lat":43.260597,"lon":5.393988,"is_reserved":false,"is_disabled":false,"rental_uris":{"android":"levelo://app?vid=05da41b0-da78-4169-8968-c8b5ca09a846","ios":"levelo://app?vid=05da41b0-da78-4169-8968-c8b5ca09a846"},"vehicle_type_id":"4","last_reported":1745432084,"current_range_meters":7200,"station_id":"ce4bh612rcd13ifvqe6g","pricing_plan_id":"cebpf4jnsgd1na2vs0mg"},{"bike_id":"a2ae0a8b-3105-418d-87c2-0d37a1fcfac1","system_id":"levelo_inurba_marseille","lat":43.30145,"lon":5.37414,"is_reserved":false,"is_disabled":false,"rental_uris":{"android":"levelo://app?vid=a2ae0a8b-3105-418d-87c2-0d37a1fcfac1","ios":"levelo://app?vid=a2ae0a8b-3105-418d-87c2-0d37a1fcfac1"},"vehicle_type_id":"4","last_reported":1745432084,"current_range_meters":6400,"station_id":"ce4bgs92rcd13ifvqcc0","pricing_plan_id":"cebpf4jnsgd1na2vs0mg"},{"bike_id":"8d2789be-d356-436f-bee5-111c80e6604e","system_id":"levelo_inurba_marseille","lat":43.24164,"lon":5.36393,"is_reserved":false,"is_disabled":false,"rental_uris":{"android":"levelo://app?vid=8d2789be-d356-436f-bee5-111c80e6604e","ios":"levelo://app?vid=8d2789be-d356-436f-bee5-111c80e6604e"},"vehicle_type_id":"4","last_reported":1745432084,"current_range_meters":6400,"station_id":"cpo36qri1sfpv3e86is0","pricing_plan_id":"cebpf4jnsgd1na2vs0mg"},{"bike_id":"ef905253-30ff-4763-99e6-f04b0777790a","system_id":"levelo_inurba_marseille","lat":43.23191,"lon":5.3555,"is_reserved":false,"is_disabled":false,"rental_uris":{"android":"levelo://app?vid=ef905253-30ff-4763-99e6-f04b0777790a","ios":"levelo://app?vid=ef905253-30ff-4763-99e6-f04b0777790a"},"vehicle_type_id":"4","last_reported":1745432084,"current_range_meters":6400,"station_id":"ce4bhu92rcd13ifvqi70","pricing_plan_id":"cebpf4jnsgd1na2vs0mg"},{"bike_id":"6f7364bf-5e72-4538-af67-06aa1648c525","system_id":"levelo_inurba_marseille","lat":43.30212,"lon":5.39469,"is_reserved":false,"is_disabled":false,"rental_uris":{"android":"levelo://app?vid=6f7364bf-5e72-4538-af67-06aa1648c525","ios":"levelo://app?vid=6f7364bf-5e72-4538-af67-06aa1648c525"},"vehicle_type_id":"4","last_reported":1745432084,"current_range_meters":6400,"station_id":"ce4bh0p2rcd13ifvqd70","pricing_plan_id":"cebpf4jnsgd1na2vs0mg"},{"bike_id":"d181dbe9-0c3f-4e10-b2b6-0493f0fb98e1","system_id":"levelo_inurba_marseille","lat":43.29538,"lon":5.38549,"is_reserved":false,"is_disabled":false,"rental_uris":{"android":"levelo://app?vid=d181dbe9-0c3f-4e10-b2b6-0493f0fb98e1","ios":"levelo://app?vid=d181dbe9-0c3f-4e10-b2b6-0493f0fb98e1"},"vehicle_type_id":"4","last_reported":1745432084,"current_range_meters":6400,"station_id":"ce4bgih2rcd13ifvqba0","pricing_plan_id":"cebpf4jnsgd1na2vs0mg"},{"bike_id":"6b7c067c-e4ae-46d3-8703-213f5b8b7cee","system_id":"levelo_inurba_marseille","lat":43.29705,"lon":5.36584,"is_reserved":false,"is_disabled":false,"rental_uris":{"android":"levelo://app?vid=6b7c067c-e4ae-46d3-8703-213f5b8b7cee","ios":"levelo://app?vid=6b7c067c-e4ae-46d3-8703-213f5b8b7cee"},"vehicle_type_id":"4","last_reported":1745432084,"current_range_meters":6800,"station_id":"ce4bgn12rcd13ifvqbt0","pricing_plan_id":"cebpf4jnsgd1na2vs0mg"},{"bike_id":"c94e26c1-7575-4802-86ec-0bd6f82482cc","system_id":"levelo_inurba_marseille","lat":43.28613,"lon":5.37061,"is_reserved":false,"is_disabled":false,"rental_uris":{"android":"levelo://app?vid=c94e26c1-7575-4802-86ec-0bd6f82482cc","ios":"levelo://app?vid=c94e26c1-7575-4802-86ec-0bd6f82482cc"},"vehicle_type_id":"4","last_reported":1745432084,"current_range_meters":6800,"station_id":"ce4bht12rcd13ifvqi60","pricing_plan_id":"cebpf4jnsgd1na2vs0mg"},{"bike_id":"d3e43848-7bee-4eb6-813a-004774c3f7b5","system_id":"levelo_inurba_marseille","lat":43.29845,"lon":5.3627,"is_reserved":false,"is_disabled":false,"rental_uris":{"android":"levelo://app?vid=d3e43848-7bee-4eb6-813a-004774c3f7b5","ios":"levelo://app?vid=d3e43848-7bee-4eb6-813a-004774c3f7b5"},"vehicle_type_id":"4","last_reported":1745432084,"current_range_meters":6800,"station_id":"ce4bgpp2rcd13ifvqc3g","pricing_plan_id":"cebpf4jnsgd1na2vs0mg"},{"bike_id":"e88ac0aa-172e-418f-9134-2e3c247b5863","system_id":"levelo_inurba_marseille","lat":43.23969,"lon":5.36629,"is_reserved":false,"is_disabled":false,"rental_uris":{"android":"levelo://app?vid=e88ac0aa-172e-418f-9134-2e3c247b5863","ios":"levelo://app?vid=e88ac0aa-172e-418f-9134-2e3c247b5863"},"vehicle_type_id":"4","last_reported":1745432084,"current_range_meters":6800,"station_id":"ce4bhi12rcd13ifvqfp0","pricing_plan_id":"cebpf4jnsgd1na2vs0mg"},{"bike_id":"7035c2f1-acc5-45ef-81f0-fc5f393ef111","system_id":"levelo_inurba_marseille","lat":43.29265,"lon":5.38431,"is_reserved":false,"is_disabled":false,"rental_uris":{"android":"levelo://app?vid=7035c2f1-acc5-45ef-81f0-fc5f393ef111","ios":"levelo://app?vid=7035c2f1-acc5-45ef-81f0-fc5f393ef111"},"vehicle_type_id":"4","last_reported":1745432084,"current_range_meters":6800,"station_id":"ce4bh692rcd13ifvqea0","pricing_plan_id":"cebpf4jnsgd1na2vs0mg"},{"bike_id":"db056252-8124-434f-9af5-0f1f48aad5e4","system_id":"levelo_inurba_marseille","lat":43.29169,"lon":5.37152,"is_reserved":false,"is_disabled":false,"rental_uris":{"android":"levelo://app?vid=db056252-8124-434f-9af5-0f1f48aad5e4","ios":"levelo://app?vid=db056252-8124-434f-9af5-0f1f48aad5e4"},"vehicle_type_id":"4","last_reported":1745432084,"current_range_meters":6800,"station_id":"ce4bha92rcd13ifvqeh0","pricing_plan_id":"cebpf4jnsgd1na2vs0mg"},{"bike_id":"20723134-cc09-4719-a9ba-d961a25cd299","system_id":"levelo_inurba_marseille","lat":43.3041,"lon":5.41298,"is_reserved":false,"is_disabled":false,"rental_uris":{"android":"levelo://app?vid=20723134-cc09-4719-a9ba-d961a25cd299","ios":"levelo://app?vid=20723134-cc09-4719-a9ba-d961a25cd299"},"vehicle_type_id":"4","last_reported":1745432084,"current_range_meters":6800,"station_id":"ce4bhop2rcd13ifvqh8g","pricing_plan_id":"cebpf4jnsgd1na2vs0mg"},{"bike_id":"10293d5d-76ca-4fcb-ae3b-9e4ed57ce341","system_id":"levelo_inurba_marseille","lat":43.29261,"lon":5.4091,"is_reserved":false,"is_disabled":false,"rental_uris":{"android":"levelo://app?vid=10293d5d-76ca-4fcb-ae3b-9e4ed57ce341","ios":"levelo://app?vid=10293d5d-76ca-4fcb-ae3b-9e4ed57ce341"},"vehicle_type_id":"4","last_reported":1745432084,"current_range_meters":8400,"station_id":"ce4bh192rcd13ifvqdc0","pricing_plan_id":"cebpf4jnsgd1na2vs0mg"},{"bike_id":"abc0b4f6-6aaa-4af0-849f-9628fbaeeb23","system_id":"levelo_inurba_marseille","lat":43.29177,"lon":5.37156,"is_reserved":false,"is_disabled":false,"rental_uris":{"android":"levelo://app?vid=abc0b4f6-6aaa-4af0-849f-9628fbaeeb23","ios":"levelo://app?vid=abc0b4f6-6aaa-4af0-849f-9628fbaeeb23"},"vehicle_type_id":"4","last_reported":1745432084,"current_range_meters":6800,"station_id":"ce4bha92rcd13ifvqeh0","pricing_plan_id":"cebpf4jnsgd1na2vs0mg"},{"bike_id":"6ac611be-fa2e-4c81-a0a1-f825b8d54730","system_id":"levelo_inurba_marseille","lat":43.23079,"lon":5.35522,"is_reserved":false,"is_disabled":false,"rental_uris":{"android":"levelo://app?vid=6ac611be-fa2e-4c81-a0a1-f825b8d54730","ios":"levelo://app?vid=6ac611be-fa2e-4c81-a0a1-f825b8d54730"},"vehicle_type_id":"4","last_reported":1745432084,"current_range_meters":6800,"station_id":"cpo3342slgdg3j2ifvpg","pricing_plan_id":"cebpf4jnsgd1na2vs0mg"},{"bike_id":"2ce381c9-ef35-43cd-9678-6b3ced8fe9b9","system_id":"levelo_inurba_marseille","lat":43.27615,"lon":5.3611,"is_reserved":false,"is_disabled":false,"rental_uris":{"android":"levelo://app?vid=2ce381c9-ef35-43cd-9678-6b3ced8fe9b9","ios":"levelo://app?vid=2ce381c9-ef35-43cd-9678-6b3ced8fe9b9"},"vehicle_type_id":"4","last_reported":1745432084,"current_range_meters":7200,"station_id":"ce4bgj92rcd13ifvqbe0","pricing_plan_id":"cebpf4jnsgd1na2vs0mg"},{"bike_id":"f7889748-d9da-4a0d-a4b5-6ffb90fef077","system_id":"levelo_inurba_marseille","lat":43.31767,"lon":5.39022,"is_reserved":false,"is_disabled":false,"rental_uris":{"android":"levelo://app?vid=f7889748-d9da-4a0d-a4b5-6ffb90fef077","ios":"levelo://app?vid=f7889748-d9da-4a0d-a4b5-6ffb90fef077"},"vehicle_type_id":"4","last_reported":1745432084,"current_range_meters":7200,"station_id":"ce4bhqp2rcd13ifvqhng","pricing_plan_id":"cebpf4jnsgd1na2vs0mg"},{"bike_id":"a12b52b7-e73a-423e-b1d3-18fe4acc42b9","system_id":"levelo_inurba_marseille","lat":43.29938,"lon":5.36552,"is_reserved":false,"is_disabled":false,"rental_uris":{"android":"levelo://app?vid=a12b52b7-e73a-423e-b1d3-18fe4acc42b9","ios":"levelo://app?vid=a12b52b7-e73a-423e-b1d3-18fe4acc42b9"},"vehicle_type_id":"4","last_reported":1745432084,"current_range_meters":7200,"station_id":"ce4bgm92rcd13ifvqbr0","pricing_plan_id":"cebpf4jnsgd1na2vs0mg"},{"bike_id":"17297706-6698-40ab-beab-b35ddd7000aa","system_id":"levelo_inurba_marseille","lat":43.31231,"lon":5.36884,"is_reserved":false,"is_disabled":false,"rental_uris":{"android":"levelo://app?vid=17297706-6698-40ab-beab-b35ddd7000aa","ios":"levelo://app?vid=17297706-6698-40ab-beab-b35ddd7000aa"},"vehicle_type_id":"4","last_reported":1745432084,"current_range_meters":8000,"station_id":"ce4bgl92rcd13ifvqbq0","pricing_plan_id":"cebpf4jnsgd1na2vs0mg"},{"bike_id":"a4b0f6e2-bbbc-412d-a87d-5843d18bf2e7","system_id":"levelo_inurba_marseille","lat":43.28664,"lon":5.36356,"is_reserved":false,"is_disabled":false,"rental_uris":{"android":"levelo://app?vid=a4b0f6e2-bbbc-412d-a87d-5843d18bf2e7","ios":"levelo://app?vid=a4b0f6e2-bbbc-412d-a87d-5843d18bf2e7"},"vehicle_type_id":"4","last_reported":1745432084,"current_range_meters":8000,"station_id":"ce4bhah2rcd13ifvqej0","pricing_plan_id":"cebpf4jnsgd1na2vs0mg"},{"bike_id":"032e6eee-a7a3-418a-8322-d8e2ab0f9b46","system_id":"levelo_inurba_marseille","lat":43.3141,"lon":5.40313,"is_reserved":false,"is_disabled":false,"rental_uris":{"android":"levelo://app?vid=032e6eee-a7a3-418a-8322-d8e2ab0f9b46","ios":"levelo://app?vid=032e6eee-a7a3-418a-8322-d8e2ab0f9b46"},"vehicle_type_id":"4","last_reported":1745432084,"current_range_meters":8000,"station_id":"","pricing_plan_id":"cebpf4jnsgd1na2vs0mg"},{"bike_id":"e37792a6-f349-4512-8625-113ccd6f5c99","system_id":"levelo_inurba_marseille","lat":43.27981,"lon":5.40023,"is_reserved":false,"is_disabled":true,"rental_uris":{"android":"levelo://app?vid=e37792a6-f349-4512-8625-113ccd6f5c99","ios":"levelo://app?vid=e37792a6-f349-4512-8625-113ccd6f5c99"},"vehicle_type_id":"4","last_reported":1745432084,"current_range_meters":8000,"station_id":"ce4bho92rcd13ifvqh4g","pricing_plan_id":"cebpf4jnsgd1na2vs0mg"},{"bike_id":"62899a7d-552d-4a71-9ea4-0909fabb748f","system_id":"levelo_inurba_marseille","lat":43.299027,"lon":5.436589,"is_reserved":false,"is_disabled":false,"rental_uris":{"android":"levelo://app?vid=62899a7d-552d-4a71-9ea4-0909fabb748f","ios":"levelo://app?vid=62899a7d-552d-4a71-9ea4-0909fabb748f"},"vehicle_type_id":"4","last_reported":1745432084,"current_range_meters":8000,"station_id":"ce4bhpp2rcd13ifvqhfg","pricing_plan_id":"cebpf4jnsgd1na2vs0mg"},{"bike_id":"fca73693-d273-4d6d-8183-a102bf6389e4","system_id":"levelo_inurba_marseille","lat":43.27942,"lon":5.41038,"is_reserved":false,"is_disabled":false,"rental_uris":{"android":"levelo://app?vid=fca73693-d273-4d6d-8183-a102bf6389e4","ios":"levelo://app?vid=fca73693-d273-4d6d-8183-a102bf6389e4"},"vehicle_type_id":"4","last_reported":1745432084,"current_range_meters":8000,"station_id":"ce4bhnp2rcd13ifvqh0g","pricing_plan_id":"cebpf4jnsgd1na2vs0mg"},{"bike_id":"c89e565a-c187-4426-b787-89aeff16884e","system_id":"levelo_inurba_marseille","lat":43.3003,"lon":5.36381,"is_reserved":false,"is_disabled":false,"rental_uris":{"android":"levelo://app?vid=c89e565a-c187-4426-b787-89aeff16884e","ios":"levelo://app?vid=c89e565a-c187-4426-b787-89aeff16884e"},"vehicle_type_id":"4","last_reported":1745432084,"current_range_meters":8400,"station_id":"","pricing_plan_id":"cebpf4jnsgd1na2vs0mg"},{"bike_id":"6cdf78e5-d312-42f7-a4ef-e64d6f3149ee","system_id":"levelo_inurba_marseille","lat":43.32338,"lon":5.40614,"is_reserved":false,"is_disabled":false,"rental_uris":{"android":"levelo://app?vid=6cdf78e5-d312-42f7-a4ef-e64d6f3149ee","ios":"levelo://app?vid=6cdf78e5-d312-42f7-a4ef-e64d6f3149ee"},"vehicle_type_id":"4","last_reported":1745432084,"current_range_meters":8000,"station_id":"ce4bhq92rcd13ifvqhjg","pricing_plan_id":"cebpf4jnsgd1na2vs0mg"},{"bike_id":"3dd50929-80e8-4861-abf3-0cc06f516279","system_id":"levelo_inurba_marseille","lat":43.24071,"lon":5.37743,"is_reserved":false,"is_disabled":false,"rental_uris":{"android":"levelo://app?vid=3dd50929-80e8-4861-abf3-0cc06f516279","ios":"levelo://app?vid=3dd50929-80e8-4861-abf3-0cc06f516279"},"vehicle_type_id":"4","last_reported":1745432084,"current_range_meters":8000,"station_id":"ce4bhnp2rcd13ifvqgvg","pricing_plan_id":"cebpf4jnsgd1na2vs0mg"},{"bike_id":"75463012-86a0-4e93-8a54-c18360d53346","system_id":"levelo_inurba_marseille","lat":43.29281,"lon":5.36838,"is_reserved":false,"is_disabled":false,"rental_uris":{"android":"levelo://app?vid=75463012-86a0-4e93-8a54-c18360d53346","ios":"levelo://app?vid=75463012-86a0-4e93-8a54-c18360d53346"},"vehicle_type_id":"4","last_reported":1745432084,"current_range_meters":8400,"station_id":"ce4bhbp2rcd13ifvqesg","pricing_plan_id":"cebpf4jnsgd1na2vs0mg"},{"bike_id":"10ec1089-7c4d-4f6e-aec1-08d0498c7617","system_id":"levelo_inurba_marseille","lat":43.28933,"lon":5.38413,"is_reserved":false,"is_disabled":false,"rental_uris":{"android":"levelo://app?vid=10ec1089-7c4d-4f6e-aec1-08d0498c7617","ios":"levelo://app?vid=10ec1089-7c4d-4f6e-aec1-08d0498c7617"},"vehicle_type_id":"4","last_reported":1745432084,"current_range_meters":9600,"station_id":"ce4bh612rcd13ifvqe6g","pricing_plan_id":"cebpf4jnsgd1na2vs0mg"},{"bike_id":"49585b25-e466-40ed-bd59-243dcc5af892","system_id":"levelo_inurba_marseille","lat":43.29262,"lon":5.40907,"is_reserved":false,"is_disabled":false,"rental_uris":{"android":"levelo://app?vid=49585b25-e466-40ed-bd59-243dcc5af892","ios":"levelo://app?vid=49585b25-e466-40ed-bd59-243dcc5af892"},"vehicle_type_id":"4","last_reported":1745432084,"current_range_meters":13600,"station_id":"ce4bh192rcd13ifvqdc0","pricing_plan_id":"cebpf4jnsgd1na2vs0mg"},{"bike_id":"730d9ab3-6c62-47f1-9154-2a5d0a14b512","system_id":"levelo_inurba_marseille","lat":43.286156,"lon":5.350999,"is_reserved":false,"is_disabled":false,"rental_uris":{"android":"levelo://app?vid=730d9ab3-6c62-47f1-9154-2a5d0a14b512","ios":"levelo://app?vid=730d9ab3-6c62-47f1-9154-2a5d0a14b512"},"vehicle_type_id":"4","last_reported":1745432084,"current_range_meters":8400,"station_id":"ce4bhch2rcd13ifvqeug","pricing_plan_id":"cebpf4jnsgd1na2vs0mg"},{"bike_id":"ed918322-bd51-40f7-a80b-b864ebd2b151","system_id":"levelo_inurba_marseille","lat":43.29033,"lon":5.38643,"is_reserved":false,"is_disabled":false,"rental_uris":{"android":"levelo://app?vid=ed918322-bd51-40f7-a80b-b864ebd2b151","ios":"levelo://app?vid=ed918322-bd51-40f7-a80b-b864ebd2b151"},"vehicle_type_id":"4","last_reported":1745432084,"current_range_meters":8400,"station_id":"ce4bh4p2rcd13ifvqe0g","pricing_plan_id":"cebpf4jnsgd1na2vs0mg"},{"bike_id":"935cd94a-50ec-408d-8793-33a2fa4bc7b2","system_id":"levelo_inurba_marseille","lat":43.2993,"lon":5.36422,"is_reserved":false,"is_disabled":false,"rental_uris":{"android":"levelo://app?vid=935cd94a-50ec-408d-8793-33a2fa4bc7b2","ios":"levelo://app?vid=935cd94a-50ec-408d-8793-33a2fa4bc7b2"},"vehicle_type_id":"4","last_reported":1745432084,"current_range_meters":8400,"station_id":"ce4bgm92rcd13ifvqbr0","pricing_plan_id":"cebpf4jnsgd1na2vs0mg"},{"bike_id":"f7137d19-c4ad-415a-8b13-950a508b9c07","system_id":"levelo_inurba_marseille","lat":43.29942,"lon":5.36553,"is_reserved":false,"is_disabled":false,"rental_uris":{"android":"levelo://app?vid=f7137d19-c4ad-415a-8b13-950a508b9c07","ios":"levelo://app?vid=f7137d19-c4ad-415a-8b13-950a508b9c07"},"vehicle_type_id":"4","last_reported":1745432084,"current_range_meters":8400,"station_id":"ce4bgm92rcd13ifvqbr0","pricing_plan_id":"cebpf4jnsgd1na2vs0mg"},{"bike_id":"ccc14468-9ce7-4b0b-b1e7-7ea10476a55e","system_id":"levelo_inurba_marseille","lat":43.31123,"lon":5.37765,"is_reserved":false,"is_disabled":false,"rental_uris":{"android":"levelo://app?vid=ccc14468-9ce7-4b0b-b1e7-7ea10476a55e","ios":"levelo://app?vid=ccc14468-9ce7-4b0b-b1e7-7ea10476a55e"},"vehicle_type_id":"4","last_reported":1745432084,"current_range_meters":8400,"station_id":"ce4bgt92rcd13ifvqcg0","pricing_plan_id":"cebpf4jnsgd1na2vs0mg"},{"bike_id":"afc693f4-1b6d-4993-aa3c-caa03c24b451","system_id":"levelo_inurba_marseille","lat":43.28934,"lon":5.36636,"is_reserved":false,"is_disabled":false,"rental_uris":{"android":"levelo://app?vid=afc693f4-1b6d-4993-aa3c-caa03c24b451","ios":"levelo://app?vid=afc693f4-1b6d-4993-aa3c-caa03c24b451"},"vehicle_type_id":"4","last_reported":1745432084,"current_range_meters":8400,"station_id":"ce4bhap2rcd13ifvqek0","pricing_plan_id":"cebpf4jnsgd1na2vs0mg"},{"bike_id":"49c0f902-eac7-4a79-adf0-d142aff51e11","system_id":"levelo_inurba_marseille","lat":43.24189,"lon":5.36419,"is_reserved":false,"is_disabled":false,"rental_uris":{"android":"levelo://app?vid=49c0f902-eac7-4a79-adf0-d142aff51e11","ios":"levelo://app?vid=49c0f902-eac7-4a79-adf0-d142aff51e11"},"vehicle_type_id":"4","last_reported":1745432084,"current_range_meters":8400,"station_id":"cpo36qri1sfpv3e86is0","pricing_plan_id":"cebpf4jnsgd1na2vs0mg"},{"bike_id":"b725497f-4c5e-4bae-bf41-1bc7018505fc","system_id":"levelo_inurba_marseille","lat":43.298695,"lon":5.39726,"is_reserved":false,"is_disabled":false,"rental_uris":{"android":"levelo://app?vid=b725497f-4c5e-4bae-bf41-1bc7018505fc","ios":"levelo://app?vid=b725497f-4c5e-4bae-bf41-1bc7018505fc"},"vehicle_type_id":"4","last_reported":1745432084,"current_range_meters":8800,"station_id":"ce4bh0h2rcd13ifvqd50","pricing_plan_id":"cebpf4jnsgd1na2vs0mg"},{"bike_id":"93dcb0c2-3d8d-42dd-8355-d01251b8dd6b","system_id":"levelo_inurba_marseille","lat":43.26568,"lon":5.39017,"is_reserved":false,"is_disabled":false,"rental_uris":{"android":"levelo://app?vid=93dcb0c2-3d8d-42dd-8355-d01251b8dd6b","ios":"levelo://app?vid=93dcb0c2-3d8d-42dd-8355-d01251b8dd6b"},"vehicle_type_id":"4","last_reported":1745432084,"current_range_meters":8800,"station_id":"ce4bhe12rcd13ifvqf30","pricing_plan_id":"cebpf4jnsgd1na2vs0mg"},{"bike_id":"61034bff-863b-4f17-b306-04653b14a109","system_id":"levelo_inurba_marseille","lat":43.30925,"lon":5.40137,"is_reserved":false,"is_disabled":true,"rental_uris":{"android":"levelo://app?vid=61034bff-863b-4f17-b306-04653b14a109","ios":"levelo://app?vid=61034bff-863b-4f17-b306-04653b14a109"},"vehicle_type_id":"4","last_reported":1745432084,"current_range_meters":8800,"station_id":"ce4bgvp2rcd13ifvqct0","pricing_plan_id":"cebpf4jnsgd1na2vs0mg"},{"bike_id":"9e413059-7cf1-4bcb-94d0-d441a1bc78ba","system_id":"levelo_inurba_marseille","lat":43.28693,"lon":5.37398,"is_reserved":false,"is_disabled":false,"rental_uris":{"android":"levelo://app?vid=9e413059-7cf1-4bcb-94d0-d441a1bc78ba","ios":"levelo://app?vid=9e413059-7cf1-4bcb-94d0-d441a1bc78ba"},"vehicle_type_id":"4","last_reported":1745432084,"current_range_meters":8800,"station_id":"ce4bh3p2rcd13ifvqdq0","pricing_plan_id":"cebpf4jnsgd1na2vs0mg"},{"bike_id":"edf27326-4623-45a0-9690-75bd042b577f","system_id":"levelo_inurba_marseille","lat":43.26486,"lon":5.39546,"is_reserved":false,"is_disabled":false,"rental_uris":{"android":"levelo://app?vid=edf27326-4623-45a0-9690-75bd042b577f","ios":"levelo://app?vid=edf27326-4623-45a0-9690-75bd042b577f"},"vehicle_type_id":"4","last_reported":1745432084,"current_range_meters":8800,"station_id":"ce4bhi12rcd13ifvqfq0","pricing_plan_id":"cebpf4jnsgd1na2vs0mg"},{"bike_id":"d1e6ff2d-97bf-43d3-90d5-f33292519bf2","system_id":"levelo_inurba_marseille","lat":43.28359,"lon":5.38097,"is_reserved":false,"is_disabled":false,"rental_uris":{"android":"levelo://app?vid=d1e6ff2d-97bf-43d3-90d5-f33292519bf2","ios":"levelo://app?vid=d1e6ff2d-97bf-43d3-90d5-f33292519bf2"},"vehicle_type_id":"4","last_reported":1745432084,"current_range_meters":8800,"station_id":"ce4bh412rcd13ifvqdr0","pricing_plan_id":"cebpf4jnsgd1na2vs0mg"},{"bike_id":"1559534a-da05-4bb5-96a9-e043803bd24f","system_id":"levelo_inurba_marseille","lat":43.30735,"lon":5.42431,"is_reserved":false,"is_disabled":false,"rental_uris":{"android":"levelo://app?vid=1559534a-da05-4bb5-96a9-e043803bd24f","ios":"levelo://app?vid=1559534a-da05-4bb5-96a9-e043803bd24f"},"vehicle_type_id":"4","last_reported":1745432084,"current_range_meters":9200,"station_id":"st_cvj6ca6bvosntc0bfgr0","pricing_plan_id":"cebpf4jnsgd1na2vs0mg"},{"bike_id":"4dd84dcf-3d35-49ba-9d29-031080006303","system_id":"levelo_inurba_marseille","lat":43.29315,"lon":5.37173,"is_reserved":false,"is_disabled":false,"rental_uris":{"android":"levelo://app?vid=4dd84dcf-3d35-49ba-9d29-031080006303","ios":"levelo://app?vid=4dd84dcf-3d35-49ba-9d29-031080006303"},"vehicle_type_id":"4","last_reported":1745432084,"current_range_meters":9200,"station_id":"ce4bgh92rcd13ifvqb40","pricing_plan_id":"cebpf4jnsgd1na2vs0mg"},{"bike_id":"2444db48-73b9-4f67-9dc6-6e8bcceff093","system_id":"levelo_inurba_marseille","lat":43.29825,"lon":5.38145,"is_reserved":false,"is_disabled":true,"rental_uris":{"android":"levelo://app?vid=2444db48-73b9-4f67-9dc6-6e8bcceff093","ios":"levelo://app?vid=2444db48-73b9-4f67-9dc6-6e8bcceff093"},"vehicle_type_id":"4","last_reported":1745432084,"current_range_meters":9200,"station_id":"ce4bgip2rcd13ifvqbb0","pricing_plan_id":"cebpf4jnsgd1na2vs0mg"},{"bike_id":"7affd995-e96b-402e-86ac-a786554a4a0f","system_id":"levelo_inurba_marseille","lat":43.30792,"lon":5.37647,"is_reserved":false,"is_disabled":false,"rental_uris":{"android":"levelo://app?vid=7affd995-e96b-402e-86ac-a786554a4a0f","ios":"levelo://app?vid=7affd995-e96b-402e-86ac-a786554a4a0f"},"vehicle_type_id":"4","last_reported":1745432084,"current_range_meters":9200,"station_id":"ce4bgv92rcd13ifvqcq0","pricing_plan_id":"cebpf4jnsgd1na2vs0mg"},{"bike_id":"452dd2ad-06aa-48d3-a4a0-0126a9e765e8","system_id":"levelo_inurba_marseille","lat":43.2396,"lon":5.36631,"is_reserved":false,"is_disabled":false,"rental_uris":{"android":"levelo://app?vid=452dd2ad-06aa-48d3-a4a0-0126a9e765e8","ios":"levelo://app?vid=452dd2ad-06aa-48d3-a4a0-0126a9e765e8"},"vehicle_type_id":"4","last_reported":1745432084,"current_range_meters":9200,"station_id":"ce4bhi12rcd13ifvqfp0","pricing_plan_id":"cebpf4jnsgd1na2vs0mg"},{"bike_id":"c11b8e6c-53f6-4b89-8bb3-db13714c5b10","system_id":"levelo_inurba_marseille","lat":43.28937,"lon":5.36635,"is_reserved":false,"is_disabled":false,"rental_uris":{"android":"levelo://app?vid=c11b8e6c-53f6-4b89-8bb3-db13714c5b10","ios":"levelo://app?vid=c11b8e6c-53f6-4b89-8bb3-db13714c5b10"},"vehicle_type_id":"4","last_reported":1745432084,"current_range_meters":9200,"station_id":"ce4bhap2rcd13ifvqek0","pricing_plan_id":"cebpf4jnsgd1na2vs0mg"},{"bike_id":"f37a8733-d200-458a-93af-5fadf3832090","system_id":"levelo_inurba_marseille","lat":43.29573,"lon":5.3999,"is_reserved":false,"is_disabled":false,"rental_uris":{"android":"levelo://app?vid=f37a8733-d200-458a-93af-5fadf3832090","ios":"levelo://app?vid=f37a8733-d200-458a-93af-5fadf3832090"},"vehicle_type_id":"4","last_reported":1745432084,"current_range_meters":9200,"station_id":"ce4bh312rcd13ifvqdj0","pricing_plan_id":"cebpf4jnsgd1na2vs0mg"},{"bike_id":"fbb6be43-75ac-4697-af84-df6581464ee0","system_id":"levelo_inurba_marseille","lat":43.23967,"lon":5.36626,"is_reserved":false,"is_disabled":false,"rental_uris":{"android":"levelo://app?vid=fbb6be43-75ac-4697-af84-df6581464ee0","ios":"levelo://app?vid=fbb6be43-75ac-4697-af84-df6581464ee0"},"vehicle_type_id":"4","last_reported":1745432084,"current_range_meters":9200,"station_id":"ce4bhi12rcd13ifvqfp0","pricing_plan_id":"cebpf4jnsgd1na2vs0mg"},{"bike_id":"820eb236-6393-4ec0-8e9e-320db2f22fca","system_id":"levelo_inurba_marseille","lat":43.24806,"lon":5.3746,"is_reserved":false,"is_disabled":false,"rental_uris":{"android":"levelo://app?vid=820eb236-6393-4ec0-8e9e-320db2f22fca","ios":"levelo://app?vid=820eb236-6393-4ec0-8e9e-320db2f22fca"},"vehicle_type_id":"4","last_reported":1745432084,"current_range_meters":9200,"station_id":"ce4bhgh2rcd13ifvqfb0","pricing_plan_id":"cebpf4jnsgd1na2vs0mg"},{"bike_id":"1780b1fd-113e-4b95-a483-e0cb2074c4c6","system_id":"levelo_inurba_marseille","lat":43.29851,"lon":5.36279,"is_reserved":false,"is_disabled":false,"rental_uris":{"android":"levelo://app?vid=1780b1fd-113e-4b95-a483-e0cb2074c4c6","ios":"levelo://app?vid=1780b1fd-113e-4b95-a483-e0cb2074c4c6"},"vehicle_type_id":"4","last_reported":1745432084,"current_range_meters":9200,"station_id":"ce4bgpp2rcd13ifvqc3g","pricing_plan_id":"cebpf4jnsgd1na2vs0mg"},{"bike_id":"c52f77ae-077c-414b-9907-e819fbb6cccb","system_id":"levelo_inurba_marseille","lat":43.28932,"lon":5.36631,"is_reserved":false,"is_disabled":false,"rental_uris":{"android":"levelo://app?vid=c52f77ae-077c-414b-9907-e819fbb6cccb","ios":"levelo://app?vid=c52f77ae-077c-414b-9907-e819fbb6cccb"},"vehicle_type_id":"4","last_reported":1745432084,"current_range_meters":9600,"station_id":"ce4bhap2rcd13ifvqek0","pricing_plan_id":"cebpf4jnsgd1na2vs0mg"},{"bike_id":"22d01123-49c8-4009-8009-ebb5bbc995be","system_id":"levelo_inurba_marseille","lat":43.32596,"lon":5.40352,"is_reserved":false,"is_disabled":false,"rental_uris":{"android":"levelo://app?vid=22d01123-49c8-4009-8009-ebb5bbc995be","ios":"levelo://app?vid=22d01123-49c8-4009-8009-ebb5bbc995be"},"vehicle_type_id":"4","last_reported":1745432084,"current_range_meters":9600,"station_id":"","pricing_plan_id":"cebpf4jnsgd1na2vs0mg"},{"bike_id":"4b5ad419-2a9e-4292-b343-3486796c2a93","system_id":"levelo_inurba_marseille","lat":43.287,"lon":5.37401,"is_reserved":false,"is_disabled":false,"rental_uris":{"android":"levelo://app?vid=4b5ad419-2a9e-4292-b343-3486796c2a93","ios":"levelo://app?vid=4b5ad419-2a9e-4292-b343-3486796c2a93"},"vehicle_type_id":"4","last_reported":1745432084,"current_range_meters":9600,"station_id":"ce4bh3p2rcd13ifvqdq0","pricing_plan_id":"cebpf4jnsgd1na2vs0mg"},{"bike_id":"baf16995-e7d6-40d5-afca-58467ccd3dd8","system_id":"levelo_inurba_marseille","lat":43.27992,"lon":5.40024,"is_reserved":false,"is_disabled":false,"rental_uris":{"android":"levelo://app?vid=baf16995-e7d6-40d5-afca-58467ccd3dd8","ios":"levelo://app?vid=baf16995-e7d6-40d5-afca-58467ccd3dd8"},"vehicle_type_id":"4","last_reported":1745432084,"current_range_meters":9600,"station_id":"ce4bho92rcd13ifvqh4g","pricing_plan_id":"cebpf4jnsgd1na2vs0mg"},{"bike_id":"59cfdfec-e344-4c7d-9435-b11ee44ab980","system_id":"levelo_inurba_marseille","lat":43.28674,"lon":5.36345,"is_reserved":false,"is_disabled":false,"rental_uris":{"android":"levelo://app?vid=59cfdfec-e344-4c7d-9435-b11ee44ab980","ios":"levelo://app?vid=59cfdfec-e344-4c7d-9435-b11ee44ab980"},"vehicle_type_id":"4","last_reported":1745432084,"current_range_meters":9600,"station_id":"ce4bhah2rcd13ifvqej0","pricing_plan_id":"cebpf4jnsgd1na2vs0mg"},{"bike_id":"cc7fdea4-f0db-4efe-9b42-be8ba65c641e","system_id":"levelo_inurba_marseille","lat":43.29581,"lon":5.36738,"is_reserved":false,"is_disabled":false,"rental_uris":{"android":"levelo://app?vid=cc7fdea4-f0db-4efe-9b42-be8ba65c641e","ios":"levelo://app?vid=cc7fdea4-f0db-4efe-9b42-be8ba65c641e"},"vehicle_type_id":"4","last_reported":1745432084,"current_range_meters":6400,"station_id":"","pricing_plan_id":"cebpf4jnsgd1na2vs0mg"},{"bike_id":"d5880970-5dc6-476c-992a-0e1efd7a0879","system_id":"levelo_inurba_marseille","lat":43.27566,"lon":5.38416,"is_reserved":false,"is_disabled":false,"rental_uris":{"android":"levelo://app?vid=d5880970-5dc6-476c-992a-0e1efd7a0879","ios":"levelo://app?vid=d5880970-5dc6-476c-992a-0e1efd7a0879"},"vehicle_type_id":"4","last_reported":1745432084,"current_range_meters":9600,"station_id":"ce4bhh92rcd13ifvqfi0","pricing_plan_id":"cebpf4jnsgd1na2vs0mg"},{"bike_id":"ee6fe346-129a-4352-b7c7-aefa1e451c7a","system_id":"levelo_inurba_marseille","lat":43.306618,"lon":5.40084,"is_reserved":false,"is_disabled":true,"rental_uris":{"android":"levelo://app?vid=ee6fe346-129a-4352-b7c7-aefa1e451c7a","ios":"levelo://app?vid=ee6fe346-129a-4352-b7c7-aefa1e451c7a"},"vehicle_type_id":"4","last_reported":1745432084,"current_range_meters":10000,"station_id":"ce4bh112rcd13ifvqda0","pricing_plan_id":"cebpf4jnsgd1na2vs0mg"},{"bike_id":"24030641-4667-4ec2-ad70-759ed3f8e74c","system_id":"levelo_inurba_marseille","lat":43.30638,"lon":5.40095,"is_reserved":false,"is_disabled":false,"rental_uris":{"android":"levelo://app?vid=24030641-4667-4ec2-ad70-759ed3f8e74c","ios":"levelo://app?vid=24030641-4667-4ec2-ad70-759ed3f8e74c"},"vehicle_type_id":"4","last_reported":1745432084,"current_range_meters":10000,"station_id":"ce4bh112rcd13ifvqda0","pricing_plan_id":"cebpf4jnsgd1na2vs0mg"},{"bike_id":"25970a8d-2362-441e-acd9-9e86ac0b9dfd","system_id":"levelo_inurba_marseille","lat":43.2707,"lon":5.42278,"is_reserved":false,"is_disabled":false,"rental_uris":{"android":"levelo://app?vid=25970a8d-2362-441e-acd9-9e86ac0b9dfd","ios":"levelo://app?vid=25970a8d-2362-441e-acd9-9e86ac0b9dfd"},"vehicle_type_id":"4","last_reported":1745432084,"current_range_meters":10000,"station_id":"ce4bhk92rcd13ifvqgb0","pricing_plan_id":"cebpf4jnsgd1na2vs0mg"},{"bike_id":"72e575d3-cf5b-4ba1-93c3-882a42c2f686","system_id":"levelo_inurba_marseille","lat":43.29972,"lon":5.38495,"is_reserved":false,"is_disabled":false,"rental_uris":{"android":"levelo://app?vid=72e575d3-cf5b-4ba1-93c3-882a42c2f686","ios":"levelo://app?vid=72e575d3-cf5b-4ba1-93c3-882a42c2f686"},"vehicle_type_id":"4","last_reported":1745432084,"current_range_meters":14400,"station_id":"ce4bgj92rcd13ifvqbd0","pricing_plan_id":"cebpf4jnsgd1na2vs0mg"},{"bike_id":"77374b59-f4e9-4395-a4c3-96c9dc70fb21","system_id":"levelo_inurba_marseille","lat":43.295166,"lon":5.375063,"is_reserved":false,"is_disabled":false,"rental_uris":{"android":"levelo://app?vid=77374b59-f4e9-4395-a4c3-96c9dc70fb21","ios":"levelo://app?vid=77374b59-f4e9-4395-a4c3-96c9dc70fb21"},"vehicle_type_id":"4","last_reported":1745432084,"current_range_meters":10000,"station_id":"ce4bgkp2rcd13ifvqbmg","pricing_plan_id":"cebpf4jnsgd1na2vs0mg"},{"bike_id":"d3bbffe6-a258-4e37-a9d1-245cb3d839ae","system_id":"levelo_inurba_marseille","lat":43.28153,"lon":5.42639,"is_reserved":false,"is_disabled":false,"rental_uris":{"android":"levelo://app?vid=d3bbffe6-a258-4e37-a9d1-245cb3d839ae","ios":"levelo://app?vid=d3bbffe6-a258-4e37-a9d1-245cb3d839ae"},"vehicle_type_id":"4","last_reported":1745432084,"current_range_meters":10000,"station_id":"ce4bhnh2rcd13ifvqgug","pricing_plan_id":"cebpf4jnsgd1na2vs0mg"},{"bike_id":"8f52b16b-7a47-4c37-b57d-02a16e3bdc0f","system_id":"levelo_inurba_marseille","lat":43.31327,"lon":5.39688,"is_reserved":false,"is_disabled":false,"rental_uris":{"android":"levelo://app?vid=8f52b16b-7a47-4c37-b57d-02a16e3bdc0f","ios":"levelo://app?vid=8f52b16b-7a47-4c37-b57d-02a16e3bdc0f"},"vehicle_type_id":"4","last_reported":1745432084,"current_range_meters":10000,"station_id":"ce4bgvp2rcd13ifvqcu0","pricing_plan_id":"cebpf4jnsgd1na2vs0mg"},{"bike_id":"ec350b30-9b32-4c5f-aa22-3a10fc683fe2","system_id":"levelo_inurba_marseille","lat":43.29327,"lon":5.4346,"is_reserved":false,"is_disabled":false,"rental_uris":{"android":"levelo://app?vid=ec350b30-9b32-4c5f-aa22-3a10fc683fe2","ios":"levelo://app?vid=ec350b30-9b32-4c5f-aa22-3a10fc683fe2"},"vehicle_type_id":"4","last_reported":1745432084,"current_range_meters":10000,"station_id":"","pricing_plan_id":"cebpf4jnsgd1na2vs0mg"},{"bike_id":"92c3b340-d069-4f1c-b55b-44c52f19597b","system_id":"levelo_inurba_marseille","lat":43.28264,"lon":5.37793,"is_reserved":false,"is_disabled":false,"rental_uris":{"android":"levelo://app?vid=92c3b340-d069-4f1c-b55b-44c52f19597b","ios":"levelo://app?vid=92c3b340-d069-4f1c-b55b-44c52f19597b"},"vehicle_type_id":"4","last_reported":1745432084,"current_range_meters":10800,"station_id":"","pricing_plan_id":"cebpf4jnsgd1na2vs0mg"},{"bike_id":"26c14258-29b9-4911-abf7-e671a4679b77","system_id":"levelo_inurba_marseille","lat":43.29849,"lon":5.36293,"is_reserved":false,"is_disabled":false,"rental_uris":{"android":"levelo://app?vid=26c14258-29b9-4911-abf7-e671a4679b77","ios":"levelo://app?vid=26c14258-29b9-4911-abf7-e671a4679b77"},"vehicle_type_id":"4","last_reported":1745432084,"current_range_meters":10800,"station_id":"ce4bgpp2rcd13ifvqc3g","pricing_plan_id":"cebpf4jnsgd1na2vs0mg"},{"bike_id":"d37e8132-0ded-47cf-9ccf-9ef4de6c7cf3","system_id":"levelo_inurba_marseille","lat":43.30135,"lon":5.39895,"is_reserved":false,"is_disabled":false,"rental_uris":{"android":"levelo://app?vid=d37e8132-0ded-47cf-9ccf-9ef4de6c7cf3","ios":"levelo://app?vid=d37e8132-0ded-47cf-9ccf-9ef4de6c7cf3"},"vehicle_type_id":"4","last_reported":1745432084,"current_range_meters":10800,"station_id":"ce4bh0h2rcd13ifvqd40","pricing_plan_id":"cebpf4jnsgd1na2vs0mg"},{"bike_id":"3bbf7a31-6ecf-4a97-a11f-774fad3ddd22","system_id":"levelo_inurba_marseille","lat":43.29558,"lon":5.42293,"is_reserved":false,"is_disabled":false,"rental_uris":{"android":"levelo://app?vid=3bbf7a31-6ecf-4a97-a11f-774fad3ddd22","ios":"levelo://app?vid=3bbf7a31-6ecf-4a97-a11f-774fad3ddd22"},"vehicle_type_id":"4","last_reported":1745432084,"current_range_meters":10800,"station_id":"ce4bhph2rcd13ifvqhdg","pricing_plan_id":"cebpf4jnsgd1na2vs0mg"},{"bike_id":"9c325fd4-f154-4a48-857e-569f4cc367f9","system_id":"levelo_inurba_marseille","lat":43.22942,"lon":5.35366,"is_reserved":false,"is_disabled":false,"rental_uris":{"android":"levelo://app?vid=9c325fd4-f154-4a48-857e-569f4cc367f9","ios":"levelo://app?vid=9c325fd4-f154-4a48-857e-569f4cc367f9"},"vehicle_type_id":"4","last_reported":1745432084,"current_range_meters":10800,"station_id":"cpo3532slgdg3j2ikp40","pricing_plan_id":"cebpf4jnsgd1na2vs0mg"},{"bike_id":"1b758a11-e07a-43ca-8cfc-ba7b541a16fe","system_id":"levelo_inurba_marseille","lat":43.28847,"lon":5.393,"is_reserved":false,"is_disabled":false,"rental_uris":{"android":"levelo://app?vid=1b758a11-e07a-43ca-8cfc-ba7b541a16fe","ios":"levelo://app?vid=1b758a11-e07a-43ca-8cfc-ba7b541a16fe"},"vehicle_type_id":"4","last_reported":1745432084,"current_range_meters":10800,"station_id":"ce4bh2p2rcd13ifvqdi0","pricing_plan_id":"cebpf4jnsgd1na2vs0mg"},{"bike_id":"32381c22-dc9c-452f-9bb0-9f6dfd3c0a18","system_id":"levelo_inurba_marseille","lat":43.27217,"lon":5.40952,"is_reserved":false,"is_disabled":false,"rental_uris":{"android":"levelo://app?vid=32381c22-dc9c-452f-9bb0-9f6dfd3c0a18","ios":"levelo://app?vid=32381c22-dc9c-452f-9bb0-9f6dfd3c0a18"},"vehicle_type_id":"4","last_reported":1745432084,"current_range_meters":10800,"station_id":"ce4bhl12rcd13ifvqgf0","pricing_plan_id":"cebpf4jnsgd1na2vs0mg"},{"bike_id":"c862c0ff-3353-4978-b105-550791f83c5b","system_id":"levelo_inurba_marseille","lat":43.28666,"lon":5.38659,"is_reserved":false,"is_disabled":false,"rental_uris":{"android":"levelo://app?vid=c862c0ff-3353-4978-b105-550791f83c5b","ios":"levelo://app?vid=c862c0ff-3353-4978-b105-550791f83c5b"},"vehicle_type_id":"4","last_reported":1745432084,"current_range_meters":11200,"station_id":"ce4bh492rcd13ifvqdug","pricing_plan_id":"cebpf4jnsgd1na2vs0mg"},{"bike_id":"b96d48d5-fc65-423b-9a30-5d2c864e8939","system_id":"levelo_inurba_marseille","lat":43.22523,"lon":5.34784,"is_reserved":false,"is_disabled":false,"rental_uris":{"android":"levelo://app?vid=b96d48d5-fc65-423b-9a30-5d2c864e8939","ios":"levelo://app?vid=b96d48d5-fc65-423b-9a30-5d2c864e8939"},"vehicle_type_id":"4","last_reported":1745432084,"current_range_meters":11200,"station_id":"st_cvj5dfep6f1abm77gieg","pricing_plan_id":"cebpf4jnsgd1na2vs0mg"},{"bike_id":"03bbc5db-7780-4675-a80f-8f0f510ae625","system_id":"levelo_inurba_marseille","lat":43.27993,"lon":5.40011,"is_reserved":false,"is_disabled":false,"rental_uris":{"android":"levelo://app?vid=03bbc5db-7780-4675-a80f-8f0f510ae625","ios":"levelo://app?vid=03bbc5db-7780-4675-a80f-8f0f510ae625"},"vehicle_type_id":"4","last_reported":1745432084,"current_range_meters":11200,"station_id":"ce4bho92rcd13ifvqh4g","pricing_plan_id":"cebpf4jnsgd1na2vs0mg"},{"bike_id":"d6a00241-8f25-44db-ac6d-8e84872db2a8","system_id":"levelo_inurba_marseille","lat":43.33685,"lon":5.39125,"is_reserved":false,"is_disabled":false,"rental_uris":{"android":"levelo://app?vid=d6a00241-8f25-44db-ac6d-8e84872db2a8","ios":"levelo://app?vid=d6a00241-8f25-44db-ac6d-8e84872db2a8"},"vehicle_type_id":"4","last_reported":1745432084,"current_range_meters":11200,"station_id":"","pricing_plan_id":"cebpf4jnsgd1na2vs0mg"},{"bike_id":"fbdaa96c-385f-4b5e-b89a-c476285a0225","system_id":"levelo_inurba_marseille","lat":43.26511,"lon":5.39546,"is_reserved":false,"is_disabled":false,"rental_uris":{"android":"levelo://app?vid=fbdaa96c-385f-4b5e-b89a-c476285a0225","ios":"levelo://app?vid=fbdaa96c-385f-4b5e-b89a-c476285a0225"},"vehicle_type_id":"4","last_reported":1745432084,"current_range_meters":11200,"station_id":"ce4bhi12rcd13ifvqfq0","pricing_plan_id":"cebpf4jnsgd1na2vs0mg"},{"bike_id":"420db772-d16c-4135-bd19-abf9c8a32f78","system_id":"levelo_inurba_marseille","lat":43.29532,"lon":5.38551,"is_reserved":false,"is_disabled":false,"rental_uris":{"android":"levelo://app?vid=420db772-d16c-4135-bd19-abf9c8a32f78","ios":"levelo://app?vid=420db772-d16c-4135-bd19-abf9c8a32f78"},"vehicle_type_id":"4","last_reported":1745432084,"current_range_meters":11600,"station_id":"ce4bgih2rcd13ifvqba0","pricing_plan_id":"cebpf4jnsgd1na2vs0mg"},{"bike_id":"abd226a8-d003-4133-b9d2-b7c952b7ead1","system_id":"levelo_inurba_marseille","lat":43.23078,"lon":5.35477,"is_reserved":false,"is_disabled":false,"rental_uris":{"android":"levelo://app?vid=abd226a8-d003-4133-b9d2-b7c952b7ead1","ios":"levelo://app?vid=abd226a8-d003-4133-b9d2-b7c952b7ead1"},"vehicle_type_id":"4","last_reported":1745432084,"current_range_meters":11600,"station_id":"cpo3342slgdg3j2ifvpg","pricing_plan_id":"cebpf4jnsgd1na2vs0mg"},{"bike_id":"7e9d26b8-b748-4e10-b3e2-977d9fd05087","system_id":"levelo_inurba_marseille","lat":43.32368,"lon":5.36758,"is_reserved":false,"is_disabled":false,"rental_uris":{"android":"levelo://app?vid=7e9d26b8-b748-4e10-b3e2-977d9fd05087","ios":"levelo://app?vid=7e9d26b8-b748-4e10-b3e2-977d9fd05087"},"vehicle_type_id":"4","last_reported":1745432084,"current_range_meters":11600,"station_id":"ce4bhsh2rcd13ifvqi2g","pricing_plan_id":"cebpf4jnsgd1na2vs0mg"},{"bike_id":"fe472499-f80f-449e-8def-f27623953aa8","system_id":"levelo_inurba_marseille","lat":43.30541,"lon":5.36566,"is_reserved":false,"is_disabled":false,"rental_uris":{"android":"levelo://app?vid=fe472499-f80f-449e-8def-f27623953aa8","ios":"levelo://app?vid=fe472499-f80f-449e-8def-f27623953aa8"},"vehicle_type_id":"4","last_reported":1745432084,"current_range_meters":11600,"station_id":"ce4bgs12rcd13ifvqcag","pricing_plan_id":"cebpf4jnsgd1na2vs0mg"},{"bike_id":"d22ea4f2-8f98-44d3-90ff-4f9c723e6d2a","system_id":"levelo_inurba_marseille","lat":43.23957,"lon":5.36642,"is_reserved":false,"is_disabled":false,"rental_uris":{"android":"levelo://app?vid=d22ea4f2-8f98-44d3-90ff-4f9c723e6d2a","ios":"levelo://app?vid=d22ea4f2-8f98-44d3-90ff-4f9c723e6d2a"},"vehicle_type_id":"4","last_reported":1745432084,"current_range_meters":11600,"station_id":"ce4bhi12rcd13ifvqfp0","pricing_plan_id":"cebpf4jnsgd1na2vs0mg"},{"bike_id":"4f3bdbf0-438c-4aff-990e-29c7aed66363","system_id":"levelo_inurba_marseille","lat":43.29848,"lon":5.36278,"is_reserved":false,"is_disabled":false,"rental_uris":{"android":"levelo://app?vid=4f3bdbf0-438c-4aff-990e-29c7aed66363","ios":"levelo://app?vid=4f3bdbf0-438c-4aff-990e-29c7aed66363"},"vehicle_type_id":"4","last_reported":1745432084,"current_range_meters":12000,"station_id":"ce4bgpp2rcd13ifvqc3g","pricing_plan_id":"cebpf4jnsgd1na2vs0mg"},{"bike_id":"730c7476-95c4-4e18-a1b3-3a935e74be04","system_id":"levelo_inurba_marseille","lat":43.29023,"lon":5.37549,"is_reserved":false,"is_disabled":true,"rental_uris":{"android":"levelo://app?vid=730c7476-95c4-4e18-a1b3-3a935e74be04","ios":"levelo://app?vid=730c7476-95c4-4e18-a1b3-3a935e74be04"},"vehicle_type_id":"4","last_reported":1745432084,"current_range_meters":12000,"station_id":"ce4bh692rcd13ifvqe90","pricing_plan_id":"cebpf4jnsgd1na2vs0mg"},{"bike_id":"235f2bae-0a04-4484-8459-9c3ece0a1b2c","system_id":"levelo_inurba_marseille","lat":43.30729,"lon":5.42452,"is_reserved":false,"is_disabled":false,"rental_uris":{"android":"levelo://app?vid=235f2bae-0a04-4484-8459-9c3ece0a1b2c","ios":"levelo://app?vid=235f2bae-0a04-4484-8459-9c3ece0a1b2c"},"vehicle_type_id":"4","last_reported":1745432084,"current_range_meters":12000,"station_id":"st_cvj6ca6bvosntc0bfgr0","pricing_plan_id":"cebpf4jnsgd1na2vs0mg"},{"bike_id":"8fb44261-49c3-4680-b8bd-36f293c27199","system_id":"levelo_inurba_marseille","lat":43.24082,"lon":5.37756,"is_reserved":false,"is_disabled":false,"rental_uris":{"android":"levelo://app?vid=8fb44261-49c3-4680-b8bd-36f293c27199","ios":"levelo://app?vid=8fb44261-49c3-4680-b8bd-36f293c27199"},"vehicle_type_id":"4","last_reported":1745432084,"current_range_meters":12000,"station_id":"ce4bhnp2rcd13ifvqgvg","pricing_plan_id":"cebpf4jnsgd1na2vs0mg"},{"bike_id":"d189aa01-f401-4b2c-9cd5-f08fb0c17d10","system_id":"levelo_inurba_marseille","lat":43.29846,"lon":5.36295,"is_reserved":false,"is_disabled":false,"rental_uris":{"android":"levelo://app?vid=d189aa01-f401-4b2c-9cd5-f08fb0c17d10","ios":"levelo://app?vid=d189aa01-f401-4b2c-9cd5-f08fb0c17d10"},"vehicle_type_id":"4","last_reported":1745432084,"current_range_meters":12000,"station_id":"ce4bgpp2rcd13ifvqc3g","pricing_plan_id":"cebpf4jnsgd1na2vs0mg"},{"bike_id":"22fa0925-bfa2-4e16-bd9a-1ac7ecfe32ed","system_id":"levelo_inurba_marseille","lat":43.2396,"lon":5.36636,"is_reserved":false,"is_disabled":false,"rental_uris":{"android":"levelo://app?vid=22fa0925-bfa2-4e16-bd9a-1ac7ecfe32ed","ios":"levelo://app?vid=22fa0925-bfa2-4e16-bd9a-1ac7ecfe32ed"},"vehicle_type_id":"4","last_reported":1745432084,"current_range_meters":12000,"station_id":"ce4bhi12rcd13ifvqfp0","pricing_plan_id":"cebpf4jnsgd1na2vs0mg"},{"bike_id":"01ce9d70-042a-4ee7-8596-e5ac9749f583","system_id":"levelo_inurba_marseille","lat":43.29278,"lon":5.36843,"is_reserved":false,"is_disabled":false,"rental_uris":{"android":"levelo://app?vid=01ce9d70-042a-4ee7-8596-e5ac9749f583","ios":"levelo://app?vid=01ce9d70-042a-4ee7-8596-e5ac9749f583"},"vehicle_type_id":"4","last_reported":1745432084,"current_range_meters":12000,"station_id":"ce4bhbp2rcd13ifvqesg","pricing_plan_id":"cebpf4jnsgd1na2vs0mg"},{"bike_id":"1b8b7145-49a7-4fe1-96a2-72a1d6e84a54","system_id":"levelo_inurba_marseille","lat":43.23059,"lon":5.35491,"is_reserved":false,"is_disabled":false,"rental_uris":{"android":"levelo://app?vid=1b8b7145-49a7-4fe1-96a2-72a1d6e84a54","ios":"levelo://app?vid=1b8b7145-49a7-4fe1-96a2-72a1d6e84a54"},"vehicle_type_id":"4","last_reported":1745432084,"current_range_meters":12000,"station_id":"cpo3342slgdg3j2ifvpg","pricing_plan_id":"cebpf4jnsgd1na2vs0mg"},{"bike_id":"418da7ec-ccc5-4679-acb4-0e215af1d7b0","system_id":"levelo_inurba_marseille","lat":43.24389,"lon":5.37064,"is_reserved":false,"is_disabled":false,"rental_uris":{"android":"levelo://app?vid=418da7ec-ccc5-4679-acb4-0e215af1d7b0","ios":"levelo://app?vid=418da7ec-ccc5-4679-acb4-0e215af1d7b0"},"vehicle_type_id":"4","last_reported":1745432084,"current_range_meters":12400,"station_id":"ce4bhhh2rcd13ifvqfk0","pricing_plan_id":"cebpf4jnsgd1na2vs0mg"},{"bike_id":"8efdabe6-24b0-4d55-be96-fac80e212272","system_id":"levelo_inurba_marseille","lat":43.27559,"lon":5.38422,"is_reserved":false,"is_disabled":false,"rental_uris":{"android":"levelo://app?vid=8efdabe6-24b0-4d55-be96-fac80e212272","ios":"levelo://app?vid=8efdabe6-24b0-4d55-be96-fac80e212272"},"vehicle_type_id":"4","last_reported":1745432084,"current_range_meters":12400,"station_id":"ce4bhh92rcd13ifvqfi0","pricing_plan_id":"cebpf4jnsgd1na2vs0mg"},{"bike_id":"f74134c9-fbd7-4c33-bcd9-20ec07469f58","system_id":"levelo_inurba_marseille","lat":43.2957,"lon":5.42286,"is_reserved":false,"is_disabled":false,"rental_uris":{"android":"levelo://app?vid=f74134c9-fbd7-4c33-bcd9-20ec07469f58","ios":"levelo://app?vid=f74134c9-fbd7-4c33-bcd9-20ec07469f58"},"vehicle_type_id":"4","last_reported":1745432084,"current_range_meters":12400,"station_id":"ce4bhph2rcd13ifvqhdg","pricing_plan_id":"cebpf4jnsgd1na2vs0mg"},{"bike_id":"33e040e0-30df-455b-8b4d-d96f6cf4bc70","system_id":"levelo_inurba_marseille","lat":43.31715,"lon":5.37786,"is_reserved":false,"is_disabled":false,"rental_uris":{"android":"levelo://app?vid=33e040e0-30df-455b-8b4d-d96f6cf4bc70","ios":"levelo://app?vid=33e040e0-30df-455b-8b4d-d96f6cf4bc70"},"vehicle_type_id":"4","last_reported":1745432084,"current_range_meters":12800,"station_id":"ce4bgth2rcd13ifvqch0","pricing_plan_id":"cebpf4jnsgd1na2vs0mg"},{"bike_id":"c62d1d8f-f2ee-4224-8078-db78d7908fba","system_id":"levelo_inurba_marseille","lat":43.28665,"lon":5.38661,"is_reserved":false,"is_disabled":false,"rental_uris":{"android":"levelo://app?vid=c62d1d8f-f2ee-4224-8078-db78d7908fba","ios":"levelo://app?vid=c62d1d8f-f2ee-4224-8078-db78d7908fba"},"vehicle_type_id":"4","last_reported":1745432084,"current_range_meters":12800,"station_id":"ce4bh492rcd13ifvqdug","pricing_plan_id":"cebpf4jnsgd1na2vs0mg"},{"bike_id":"527ab9af-1602-4e3b-a3d5-77f5acec1ebf","system_id":"levelo_inurba_marseille","lat":43.26215,"lon":5.37486,"is_reserved":false,"is_disabled":true,"rental_uris":{"android":"levelo://app?vid=527ab9af-1602-4e3b-a3d5-77f5acec1ebf","ios":"levelo://app?vid=527ab9af-1602-4e3b-a3d5-77f5acec1ebf"},"vehicle_type_id":"4","last_reported":1745432084,"current_range_meters":12800,"station_id":"ce4bhgp2rcd13ifvqfc0","pricing_plan_id":"cebpf4jnsgd1na2vs0mg"},{"bike_id":"8612cdad-ef06-42ff-8d8d-c70fbc843eda","system_id":"levelo_inurba_marseille","lat":43.30306,"lon":5.36887,"is_reserved":false,"is_disabled":false,"rental_uris":{"android":"levelo://app?vid=8612cdad-ef06-42ff-8d8d-c70fbc843eda","ios":"levelo://app?vid=8612cdad-ef06-42ff-8d8d-c70fbc843eda"},"vehicle_type_id":"4","last_reported":1745432084,"current_range_meters":12800,"station_id":"ce4bgqh2rcd13ifvqc5g","pricing_plan_id":"cebpf4jnsgd1na2vs0mg"},{"bike_id":"319b3d5d-edbe-4719-a975-d5caecb18fcf","system_id":"levelo_inurba_marseille","lat":43.25722,"lon":5.41123,"is_reserved":false,"is_disabled":false,"rental_uris":{"android":"levelo://app?vid=319b3d5d-edbe-4719-a975-d5caecb18fcf","ios":"levelo://app?vid=319b3d5d-edbe-4719-a975-d5caecb18fcf"},"vehicle_type_id":"4","last_reported":1745432084,"current_range_meters":12800,"station_id":"ce4bhkp2rcd13ifvqgd0","pricing_plan_id":"cebpf4jnsgd1na2vs0mg"},{"bike_id":"3450836b-f744-49d5-8239-48bf963cb60f","system_id":"levelo_inurba_marseille","lat":43.283736,"lon":5.386347,"is_reserved":false,"is_disabled":false,"rental_uris":{"android":"levelo://app?vid=3450836b-f744-49d5-8239-48bf963cb60f","ios":"levelo://app?vid=3450836b-f744-49d5-8239-48bf963cb60f"},"vehicle_type_id":"4","last_reported":1745432084,"current_range_meters":12400,"station_id":"ce4bhh92rcd13ifvqfi0","pricing_plan_id":"cebpf4jnsgd1na2vs0mg"},{"bike_id":"469d074b-8234-4326-be23-2db90492d9d2","system_id":"levelo_inurba_marseille","lat":43.28609,"lon":5.35108,"is_reserved":false,"is_disabled":false,"rental_uris":{"android":"levelo://app?vid=469d074b-8234-4326-be23-2db90492d9d2","ios":"levelo://app?vid=469d074b-8234-4326-be23-2db90492d9d2"},"vehicle_type_id":"4","last_reported":1745432084,"current_range_meters":13600,"station_id":"ce4bhch2rcd13ifvqeug","pricing_plan_id":"cebpf4jnsgd1na2vs0mg"},{"bike_id":"66d3f2a2-5910-443a-9c4a-b4c3a7c14e40","system_id":"levelo_inurba_marseille","lat":43.3003,"lon":5.40947,"is_reserved":false,"is_disabled":false,"rental_uris":{"android":"levelo://app?vid=66d3f2a2-5910-443a-9c4a-b4c3a7c14e40","ios":"levelo://app?vid=66d3f2a2-5910-443a-9c4a-b4c3a7c14e40"},"vehicle_type_id":"4","last_reported":1745432084,"current_range_meters":13600,"station_id":"","pricing_plan_id":"cebpf4jnsgd1na2vs0mg"},{"bike_id":"e12cd487-d26d-4e94-8daf-223b807f16cd","system_id":"levelo_inurba_marseille","lat":43.29942,"lon":5.3654,"is_reserved":false,"is_disabled":false,"rental_uris":{"android":"levelo://app?vid=e12cd487-d26d-4e94-8daf-223b807f16cd","ios":"levelo://app?vid=e12cd487-d26d-4e94-8daf-223b807f16cd"},"vehicle_type_id":"4","last_reported":1745432084,"current_range_meters":13600,"station_id":"ce4bgm92rcd13ifvqbr0","pricing_plan_id":"cebpf4jnsgd1na2vs0mg"},{"bike_id":"ff1a863c-e148-42fe-b87d-ed31f8967c78","system_id":"levelo_inurba_marseille","lat":43.29932,"lon":5.36546,"is_reserved":false,"is_disabled":false,"rental_uris":{"android":"levelo://app?vid=ff1a863c-e148-42fe-b87d-ed31f8967c78","ios":"levelo://app?vid=ff1a863c-e148-42fe-b87d-ed31f8967c78"},"vehicle_type_id":"4","last_reported":1745432084,"current_range_meters":13600,"station_id":"ce4bgm92rcd13ifvqbr0","pricing_plan_id":"cebpf4jnsgd1na2vs0mg"},{"bike_id":"9075d5c3-03b9-4e07-bb93-66a47b72939e","system_id":"levelo_inurba_marseille","lat":43.28698,"lon":5.39984,"is_reserved":false,"is_disabled":false,"rental_uris":{"android":"levelo://app?vid=9075d5c3-03b9-4e07-bb93-66a47b72939e","ios":"levelo://app?vid=9075d5c3-03b9-4e07-bb93-66a47b72939e"},"vehicle_type_id":"4","last_reported":1745432084,"current_range_meters":14000,"station_id":"ce4bho92rcd13ifvqh3g","pricing_plan_id":"cebpf4jnsgd1na2vs0mg"},{"bike_id":"97615783-719f-47b5-a321-7323b6f44d71","system_id":"levelo_inurba_marseille","lat":43.29034,"lon":5.38671,"is_reserved":false,"is_disabled":false,"rental_uris":{"android":"levelo://app?vid=97615783-719f-47b5-a321-7323b6f44d71","ios":"levelo://app?vid=97615783-719f-47b5-a321-7323b6f44d71"},"vehicle_type_id":"4","last_reported":1745432084,"current_range_meters":14000,"station_id":"ce4bh4p2rcd13ifvqe0g","pricing_plan_id":"cebpf4jnsgd1na2vs0mg"},{"bike_id":"616870c3-4b8e-410f-8de5-eb6776366d33","system_id":"levelo_inurba_marseille","lat":43.30533,"lon":5.365586,"is_reserved":false,"is_disabled":false,"rental_uris":{"android":"levelo://app?vid=616870c3-4b8e-410f-8de5-eb6776366d33","ios":"levelo://app?vid=616870c3-4b8e-410f-8de5-eb6776366d33"},"vehicle_type_id":"4","last_reported":1745432084,"current_range_meters":12800,"station_id":"ce4bgs12rcd13ifvqcag","pricing_plan_id":"cebpf4jnsgd1na2vs0mg"},{"bike_id":"32df70d9-7554-4acc-9ff0-06bf454eb951","system_id":"levelo_inurba_marseille","lat":43.301465,"lon":5.381048,"is_reserved":false,"is_disabled":false,"rental_uris":{"android":"levelo://app?vid=32df70d9-7554-4acc-9ff0-06bf454eb951","ios":"levelo://app?vid=32df70d9-7554-4acc-9ff0-06bf454eb951"},"vehicle_type_id":"4","last_reported":1745432084,"current_range_meters":16000,"station_id":"ce4bgjp2rcd13ifvqbh0","pricing_plan_id":"cebpf4jnsgd1na2vs0mg"},{"bike_id":"582a994c-200c-42f4-b2a0-a95b051b8992","system_id":"levelo_inurba_marseille","lat":43.29922,"lon":5.37457,"is_reserved":false,"is_disabled":false,"rental_uris":{"android":"levelo://app?vid=582a994c-200c-42f4-b2a0-a95b051b8992","ios":"levelo://app?vid=582a994c-200c-42f4-b2a0-a95b051b8992"},"vehicle_type_id":"4","last_reported":1745432084,"current_range_meters":14000,"station_id":"ce4bgjh2rcd13ifvqbg0","pricing_plan_id":"cebpf4jnsgd1na2vs0mg"},{"bike_id":"47d502b2-4ccf-49d1-8731-1781249b8372","system_id":"levelo_inurba_marseille","lat":43.292634,"lon":5.384352,"is_reserved":false,"is_disabled":false,"rental_uris":{"android":"levelo://app?vid=47d502b2-4ccf-49d1-8731-1781249b8372","ios":"levelo://app?vid=47d502b2-4ccf-49d1-8731-1781249b8372"},"vehicle_type_id":"4","last_reported":1745432084,"current_range_meters":14000,"station_id":"ce4bh692rcd13ifvqea0","pricing_plan_id":"cebpf4jnsgd1na2vs0mg"},{"bike_id":"e8279fb8-cfdc-4505-ad15-c57f838cd70d","system_id":"levelo_inurba_marseille","lat":43.26803,"lon":5.40271,"is_reserved":false,"is_disabled":false,"rental_uris":{"android":"levelo://app?vid=e8279fb8-cfdc-4505-ad15-c57f838cd70d","ios":"levelo://app?vid=e8279fb8-cfdc-4505-ad15-c57f838cd70d"},"vehicle_type_id":"4","last_reported":1745432084,"current_range_meters":14000,"station_id":"ce501612rcd8frsf0b60","pricing_plan_id":"cebpf4jnsgd1na2vs0mg"},{"bike_id":"5546f93c-c7eb-4a36-b1e9-022b7fc99074","system_id":"levelo_inurba_marseille","lat":43.23192,"lon":5.35554,"is_reserved":false,"is_disabled":false,"rental_uris":{"android":"levelo://app?vid=5546f93c-c7eb-4a36-b1e9-022b7fc99074","ios":"levelo://app?vid=5546f93c-c7eb-4a36-b1e9-022b7fc99074"},"vehicle_type_id":"4","last_reported":1745432084,"current_range_meters":14400,"station_id":"ce4bhu92rcd13ifvqi70","pricing_plan_id":"cebpf4jnsgd1na2vs0mg"},{"bike_id":"2c03e4e5-1c49-4d4e-9e9f-2d74dba6d491","system_id":"levelo_inurba_marseille","lat":43.28001,"lon":5.41664,"is_reserved":false,"is_disabled":false,"rental_uris":{"android":"levelo://app?vid=2c03e4e5-1c49-4d4e-9e9f-2d74dba6d491","ios":"levelo://app?vid=2c03e4e5-1c49-4d4e-9e9f-2d74dba6d491"},"vehicle_type_id":"4","last_reported":1745432084,"current_range_meters":14400,"station_id":"ce4bho12rcd13ifvqh1g","pricing_plan_id":"cebpf4jnsgd1na2vs0mg"},{"bike_id":"aebfb5ae-bf07-4ae3-9b08-2434047d6949","system_id":"levelo_inurba_marseille","lat":43.29812,"lon":5.37709,"is_reserved":false,"is_disabled":false,"rental_uris":{"android":"levelo://app?vid=aebfb5ae-bf07-4ae3-9b08-2434047d6949","ios":"levelo://app?vid=aebfb5ae-bf07-4ae3-9b08-2434047d6949"},"vehicle_type_id":"4","last_reported":1745432084,"current_range_meters":14400,"station_id":"","pricing_plan_id":"cebpf4jnsgd1na2vs0mg"},{"bike_id":"15b38580-369d-410a-9bd4-5cf46c679971","system_id":"levelo_inurba_marseille","lat":43.280021,"lon":5.400127,"is_reserved":false,"is_disabled":false,"rental_uris":{"android":"levelo://app?vid=15b38580-369d-410a-9bd4-5cf46c679971","ios":"levelo://app?vid=15b38580-369d-410a-9bd4-5cf46c679971"},"vehicle_type_id":"4","last_reported":1745432084,"current_range_meters":14400,"station_id":"ce4bho92rcd13ifvqh4g","pricing_plan_id":"cebpf4jnsgd1na2vs0mg"},{"bike_id":"52d5af6f-0463-4216-9140-be150d56d492","system_id":"levelo_inurba_marseille","lat":43.30636,"lon":5.4007,"is_reserved":false,"is_disabled":false,"rental_uris":{"android":"levelo://app?vid=52d5af6f-0463-4216-9140-be150d56d492","ios":"levelo://app?vid=52d5af6f-0463-4216-9140-be150d56d492"},"vehicle_type_id":"4","last_reported":1745432084,"current_range_meters":14400,"station_id":"ce4bh112rcd13ifvqda0","pricing_plan_id":"cebpf4jnsgd1na2vs0mg"},{"bike_id":"37d23316-e530-4790-ba00-fca33161d4b9","system_id":"levelo_inurba_marseille","lat":43.30176,"lon":5.36618,"is_reserved":false,"is_disabled":false,"rental_uris":{"android":"levelo://app?vid=37d23316-e530-4790-ba00-fca33161d4b9","ios":"levelo://app?vid=37d23316-e530-4790-ba00-fca33161d4b9"},"vehicle_type_id":"4","last_reported":1745432084,"current_range_meters":14400,"station_id":"ce4bgrh2rcd13ifvqc8g","pricing_plan_id":"cebpf4jnsgd1na2vs0mg"},{"bike_id":"a92e41fe-6c3a-4791-9ade-679105edaf4a","system_id":"levelo_inurba_marseille","lat":43.31031,"lon":5.38366,"is_reserved":false,"is_disabled":false,"rental_uris":{"android":"levelo://app?vid=a92e41fe-6c3a-4791-9ade-679105edaf4a","ios":"levelo://app?vid=a92e41fe-6c3a-4791-9ade-679105edaf4a"},"vehicle_type_id":"4","last_reported":1745432084,"current_range_meters":14400,"station_id":"","pricing_plan_id":"cebpf4jnsgd1na2vs0mg"},{"bike_id":"7c35859d-4b98-4b33-b6bd-ffc4ce80d3e3","system_id":"levelo_inurba_marseille","lat":43.32363,"lon":5.40591,"is_reserved":false,"is_disabled":false,"rental_uris":{"android":"levelo://app?vid=7c35859d-4b98-4b33-b6bd-ffc4ce80d3e3","ios":"levelo://app?vid=7c35859d-4b98-4b33-b6bd-ffc4ce80d3e3"},"vehicle_type_id":"4","last_reported":1745432084,"current_range_meters":14400,"station_id":"ce4bhq92rcd13ifvqhjg","pricing_plan_id":"cebpf4jnsgd1na2vs0mg"},{"bike_id":"39b2c162-40db-4714-a229-015a16e87ce8","system_id":"levelo_inurba_marseille","lat":43.29934,"lon":5.365553,"is_reserved":false,"is_disabled":false,"rental_uris":{"android":"levelo://app?vid=39b2c162-40db-4714-a229-015a16e87ce8","ios":"levelo://app?vid=39b2c162-40db-4714-a229-015a16e87ce8"},"vehicle_type_id":"4","last_reported":1745432084,"current_range_meters":14800,"station_id":"","pricing_plan_id":"cebpf4jnsgd1na2vs0mg"},{"bike_id":"5a97bcc0-3140-43fe-9928-28bb74cc1c05","system_id":"levelo_inurba_marseille","lat":43.28157,"lon":5.4264,"is_reserved":false,"is_disabled":false,"rental_uris":{"android":"levelo://app?vid=5a97bcc0-3140-43fe-9928-28bb74cc1c05","ios":"levelo://app?vid=5a97bcc0-3140-43fe-9928-28bb74cc1c05"},"vehicle_type_id":"4","last_reported":1745432084,"current_range_meters":14800,"station_id":"ce4bhnh2rcd13ifvqgug","pricing_plan_id":"cebpf4jnsgd1na2vs0mg"},{"bike_id":"2ab71029-4372-473d-8075-00a420af322c","system_id":"levelo_inurba_marseille","lat":43.28363,"lon":5.38638,"is_reserved":false,"is_disabled":false,"rental_uris":{"android":"levelo://app?vid=2ab71029-4372-473d-8075-00a420af322c","ios":"levelo://app?vid=2ab71029-4372-473d-8075-00a420af322c"},"vehicle_type_id":"4","last_reported":1745432084,"current_range_meters":14400,"station_id":"ce4bh492rcd13ifvqdvg","pricing_plan_id":"cebpf4jnsgd1na2vs0mg"},{"bike_id":"46374c49-3adc-4c5a-8966-e00f056c0d57","system_id":"levelo_inurba_marseille","lat":43.27846,"lon":5.35442,"is_reserved":false,"is_disabled":false,"rental_uris":{"android":"levelo://app?vid=46374c49-3adc-4c5a-8966-e00f056c0d57","ios":"levelo://app?vid=46374c49-3adc-4c5a-8966-e00f056c0d57"},"vehicle_type_id":"4","last_reported":1745432084,"current_range_meters":15200,"station_id":"","pricing_plan_id":"cebpf4jnsgd1na2vs0mg"},{"bike_id":"b6c88897-14c2-4c56-b0c3-ae124836bb1c","system_id":"levelo_inurba_marseille","lat":43.25502,"lon":5.376478,"is_reserved":false,"is_disabled":false,"rental_uris":{"android":"levelo://app?vid=b6c88897-14c2-4c56-b0c3-ae124836bb1c","ios":"levelo://app?vid=b6c88897-14c2-4c56-b0c3-ae124836bb1c"},"vehicle_type_id":"4","last_reported":1745432084,"current_range_meters":15200,"station_id":"ce4bhh12rcd13ifvqff0","pricing_plan_id":"cebpf4jnsgd1na2vs0mg"},{"bike_id":"8a68e572-b500-4fd3-a177-770466ef2a82","system_id":"levelo_inurba_marseille","lat":43.31454,"lon":5.386147,"is_reserved":false,"is_disabled":false,"rental_uris":{"android":"levelo://app?vid=8a68e572-b500-4fd3-a177-770466ef2a82","ios":"levelo://app?vid=8a68e572-b500-4fd3-a177-770466ef2a82"},"vehicle_type_id":"4","last_reported":1745432084,"current_range_meters":15200,"station_id":"","pricing_plan_id":"cebpf4jnsgd1na2vs0mg"},{"bike_id":"11ce02ec-5de1-4d28-b35b-b9d2498a4135","system_id":"levelo_inurba_marseille","lat":43.23087,"lon":5.35478,"is_reserved":false,"is_disabled":false,"rental_uris":{"android":"levelo://app?vid=11ce02ec-5de1-4d28-b35b-b9d2498a4135","ios":"levelo://app?vid=11ce02ec-5de1-4d28-b35b-b9d2498a4135"},"vehicle_type_id":"4","last_reported":1745432084,"current_range_meters":15200,"station_id":"cpo3342slgdg3j2ifvpg","pricing_plan_id":"cebpf4jnsgd1na2vs0mg"},{"bike_id":"042f562f-2e93-4929-b977-810c39e0fd42","system_id":"levelo_inurba_marseille","lat":43.28026,"lon":5.36955,"is_reserved":false,"is_disabled":false,"rental_uris":{"android":"levelo://app?vid=042f562f-2e93-4929-b977-810c39e0fd42","ios":"levelo://app?vid=042f562f-2e93-4929-b977-810c39e0fd42"},"vehicle_type_id":"4","last_reported":1745432084,"current_range_meters":15200,"station_id":"ce4bha12rcd13ifvqef0","pricing_plan_id":"cebpf4jnsgd1na2vs0mg"},{"bike_id":"1e27e77e-8708-4435-a55b-9e2803758be2","system_id":"levelo_inurba_marseille","lat":43.2439,"lon":5.37065,"is_reserved":false,"is_disabled":false,"rental_uris":{"android":"levelo://app?vid=1e27e77e-8708-4435-a55b-9e2803758be2","ios":"levelo://app?vid=1e27e77e-8708-4435-a55b-9e2803758be2"},"vehicle_type_id":"4","last_reported":1745432084,"current_range_meters":15200,"station_id":"ce4bhhh2rcd13ifvqfk0","pricing_plan_id":"cebpf4jnsgd1na2vs0mg"},{"bike_id":"30e08c8c-a2b6-45d6-9704-9460af4f4d07","system_id":"levelo_inurba_marseille","lat":43.31085,"lon":5.42432,"is_reserved":false,"is_disabled":false,"rental_uris":{"android":"levelo://app?vid=30e08c8c-a2b6-45d6-9704-9460af4f4d07","ios":"levelo://app?vid=30e08c8c-a2b6-45d6-9704-9460af4f4d07"},"vehicle_type_id":"4","last_reported":1745432084,"current_range_meters":15200,"station_id":"ce4bhp92rcd13ifvqhag","pricing_plan_id":"cebpf4jnsgd1na2vs0mg"},{"bike_id":"e1361521-459f-48c7-8627-406bb9c646da","system_id":"levelo_inurba_marseille","lat":43.23962,"lon":5.36628,"is_reserved":false,"is_disabled":false,"rental_uris":{"android":"levelo://app?vid=e1361521-459f-48c7-8627-406bb9c646da","ios":"levelo://app?vid=e1361521-459f-48c7-8627-406bb9c646da"},"vehicle_type_id":"4","last_reported":1745432084,"current_range_meters":15200,"station_id":"ce4bhi12rcd13ifvqfp0","pricing_plan_id":"cebpf4jnsgd1na2vs0mg"},{"bike_id":"75f3cf33-bb0b-4685-941a-263dcd25eaf6","system_id":"levelo_inurba_marseille","lat":43.30888,"lon":5.37195,"is_reserved":false,"is_disabled":false,"rental_uris":{"android":"levelo://app?vid=75f3cf33-bb0b-4685-941a-263dcd25eaf6","ios":"levelo://app?vid=75f3cf33-bb0b-4685-941a-263dcd25eaf6"},"vehicle_type_id":"4","last_reported":1745432084,"current_range_meters":16000,"station_id":"ce4bguh2rcd13ifvqckg","pricing_plan_id":"cebpf4jnsgd1na2vs0mg"},{"bike_id":"f31bee90-1c13-4189-9679-0326782d9854","system_id":"levelo_inurba_marseille","lat":43.31772,"lon":5.39012,"is_reserved":false,"is_disabled":false,"rental_uris":{"android":"levelo://app?vid=f31bee90-1c13-4189-9679-0326782d9854","ios":"levelo://app?vid=f31bee90-1c13-4189-9679-0326782d9854"},"vehicle_type_id":"4","last_reported":1745432084,"current_range_meters":16000,"station_id":"ce4bhqp2rcd13ifvqhng","pricing_plan_id":"cebpf4jnsgd1na2vs0mg"},{"bike_id":"162104c9-c9c3-41e8-9022-0f16a6a968c6","system_id":"levelo_inurba_marseille","lat":43.330286,"lon":5.390525,"is_reserved":false,"is_disabled":false,"rental_uris":{"android":"levelo://app?vid=162104c9-c9c3-41e8-9022-0f16a6a968c6","ios":"levelo://app?vid=162104c9-c9c3-41e8-9022-0f16a6a968c6"},"vehicle_type_id":"4","last_reported":1745432084,"current_range_meters":16000,"station_id":"ce4bhr92rcd13ifvqhrg","pricing_plan_id":"cebpf4jnsgd1na2vs0mg"},{"bike_id":"7df5385a-7b49-49c3-a6fe-2215aaf42fe5","system_id":"levelo_inurba_marseille","lat":43.286163,"lon":5.350992,"is_reserved":false,"is_disabled":false,"rental_uris":{"android":"levelo://app?vid=7df5385a-7b49-49c3-a6fe-2215aaf42fe5","ios":"levelo://app?vid=7df5385a-7b49-49c3-a6fe-2215aaf42fe5"},"vehicle_type_id":"4","last_reported":1745432084,"current_range_meters":16400,"station_id":"ce4bgh92rcd13ifvqb40","pricing_plan_id":"cebpf4jnsgd1na2vs0mg"},{"bike_id":"4e5bf7ee-9d3a-48d5-8a7d-7fd1a7dcd7f0","system_id":"levelo_inurba_marseille","lat":43.30895,"lon":5.37205,"is_reserved":false,"is_disabled":false,"rental_uris":{"android":"levelo://app?vid=4e5bf7ee-9d3a-48d5-8a7d-7fd1a7dcd7f0","ios":"levelo://app?vid=4e5bf7ee-9d3a-48d5-8a7d-7fd1a7dcd7f0"},"vehicle_type_id":"4","last_reported":1745432084,"current_range_meters":16000,"station_id":"ce4bguh2rcd13ifvqckg","pricing_plan_id":"cebpf4jnsgd1na2vs0mg"},{"bike_id":"29c27f6c-b172-4d99-add3-c74bdfc6be20","system_id":"levelo_inurba_marseille","lat":43.33057,"lon":5.39019,"is_reserved":false,"is_disabled":false,"rental_uris":{"android":"levelo://app?vid=29c27f6c-b172-4d99-add3-c74bdfc6be20","ios":"levelo://app?vid=29c27f6c-b172-4d99-add3-c74bdfc6be20"},"vehicle_type_id":"4","last_reported":1745432084,"current_range_meters":16400,"station_id":"ce4bhr92rcd13ifvqhrg","pricing_plan_id":"cebpf4jnsgd1na2vs0mg"},{"bike_id":"755abc1a-f797-479c-8e88-5f59f436c9d9","system_id":"levelo_inurba_marseille","lat":43.23961,"lon":5.36625,"is_reserved":false,"is_disabled":true,"rental_uris":{"android":"levelo://app?vid=755abc1a-f797-479c-8e88-5f59f436c9d9","ios":"levelo://app?vid=755abc1a-f797-479c-8e88-5f59f436c9d9"},"vehicle_type_id":"4","last_reported":1745432084,"current_range_meters":16400,"station_id":"ce4bhi12rcd13ifvqfp0","pricing_plan_id":"cebpf4jnsgd1na2vs0mg"},{"bike_id":"eaedb804-0e7c-4c63-a1b3-fcbc9ec36df3","system_id":"levelo_inurba_marseille","lat":43.286931,"lon":5.373944,"is_reserved":false,"is_disabled":false,"rental_uris":{"android":"levelo://app?vid=eaedb804-0e7c-4c63-a1b3-fcbc9ec36df3","ios":"levelo://app?vid=eaedb804-0e7c-4c63-a1b3-fcbc9ec36df3"},"vehicle_type_id":"4","last_reported":1745432084,"current_range_meters":16400,"station_id":"ce4bh3p2rcd13ifvqdq0","pricing_plan_id":"cebpf4jnsgd1na2vs0mg"},{"bike_id":"d823259f-1a70-4fe2-92f2-054153f77224","system_id":"levelo_inurba_marseille","lat":43.30651,"lon":5.40067,"is_reserved":false,"is_disabled":false,"rental_uris":{"android":"levelo://app?vid=d823259f-1a70-4fe2-92f2-054153f77224","ios":"levelo://app?vid=d823259f-1a70-4fe2-92f2-054153f77224"},"vehicle_type_id":"4","last_reported":1745432084,"current_range_meters":16400,"station_id":"ce4bh112rcd13ifvqda0","pricing_plan_id":"cebpf4jnsgd1na2vs0mg"},{"bike_id":"b9ccf06b-a6bd-4e47-90ff-977d382c5364","system_id":"levelo_inurba_marseille","lat":43.29849,"lon":5.36278,"is_reserved":false,"is_disabled":false,"rental_uris":{"android":"levelo://app?vid=b9ccf06b-a6bd-4e47-90ff-977d382c5364","ios":"levelo://app?vid=b9ccf06b-a6bd-4e47-90ff-977d382c5364"},"vehicle_type_id":"4","last_reported":1745432084,"current_range_meters":16400,"station_id":"ce4bgpp2rcd13ifvqc3g","pricing_plan_id":"cebpf4jnsgd1na2vs0mg"},{"bike_id":"0cc64a17-6499-4c13-9af4-3f227b287cec","system_id":"levelo_inurba_marseille","lat":43.31118,"lon":5.37758,"is_reserved":false,"is_disabled":false,"rental_uris":{"android":"levelo://app?vid=0cc64a17-6499-4c13-9af4-3f227b287cec","ios":"levelo://app?vid=0cc64a17-6499-4c13-9af4-3f227b287cec"},"vehicle_type_id":"4","last_reported":1745432084,"current_range_meters":16400,"station_id":"ce4bgt92rcd13ifvqcg0","pricing_plan_id":"cebpf4jnsgd1na2vs0mg"},{"bike_id":"7d2633a5-2cb0-46eb-8c00-357bd5fadfef","system_id":"levelo_inurba_marseille","lat":43.25494,"lon":5.37664,"is_reserved":false,"is_disabled":true,"rental_uris":{"android":"levelo://app?vid=7d2633a5-2cb0-46eb-8c00-357bd5fadfef","ios":"levelo://app?vid=7d2633a5-2cb0-46eb-8c00-357bd5fadfef"},"vehicle_type_id":"4","last_reported":1745432084,"current_range_meters":16800,"station_id":"ce4bhh12rcd13ifvqff0","pricing_plan_id":"cebpf4jnsgd1na2vs0mg"},{"bike_id":"415b2609-c0ae-472a-aa20-d8c246fb2a5e","system_id":"levelo_inurba_marseille","lat":43.31703,"lon":5.37841,"is_reserved":false,"is_disabled":false,"rental_uris":{"android":"levelo://app?vid=415b2609-c0ae-472a-aa20-d8c246fb2a5e","ios":"levelo://app?vid=415b2609-c0ae-472a-aa20-d8c246fb2a5e"},"vehicle_type_id":"4","last_reported":1745432084,"current_range_meters":16800,"station_id":"ce4bgth2rcd13ifvqch0","pricing_plan_id":"cebpf4jnsgd1na2vs0mg"},{"bike_id":"7489a429-3def-4314-b2fd-69eb5685941d","system_id":"levelo_inurba_marseille","lat":43.29875,"lon":5.36859,"is_reserved":false,"is_disabled":false,"rental_uris":{"android":"levelo://app?vid=7489a429-3def-4314-b2fd-69eb5685941d","ios":"levelo://app?vid=7489a429-3def-4314-b2fd-69eb5685941d"},"vehicle_type_id":"4","last_reported":1745432084,"current_range_meters":16800,"station_id":"","pricing_plan_id":"cebpf4jnsgd1na2vs0mg"},{"bike_id":"b8b11a5c-bec1-4aed-8827-e34b56d02bcf","system_id":"levelo_inurba_marseille","lat":43.30137,"lon":5.39886,"is_reserved":false,"is_disabled":false,"rental_uris":{"android":"levelo://app?vid=b8b11a5c-bec1-4aed-8827-e34b56d02bcf","ios":"levelo://app?vid=b8b11a5c-bec1-4aed-8827-e34b56d02bcf"},"vehicle_type_id":"4","last_reported":1745432084,"current_range_meters":16800,"station_id":"ce4bh0h2rcd13ifvqd40","pricing_plan_id":"cebpf4jnsgd1na2vs0mg"},{"bike_id":"8ebc3498-9af8-40f3-b5ca-a1437568ca7b","system_id":"levelo_inurba_marseille","lat":43.27569,"lon":5.38428,"is_reserved":false,"is_disabled":false,"rental_uris":{"android":"levelo://app?vid=8ebc3498-9af8-40f3-b5ca-a1437568ca7b","ios":"levelo://app?vid=8ebc3498-9af8-40f3-b5ca-a1437568ca7b"},"vehicle_type_id":"4","last_reported":1745432084,"current_range_meters":16800,"station_id":"ce4bhh92rcd13ifvqfi0","pricing_plan_id":"cebpf4jnsgd1na2vs0mg"},{"bike_id":"162bfebb-0293-48c1-a39b-2f43435f25a3","system_id":"levelo_inurba_marseille","lat":43.29171,"lon":5.37145,"is_reserved":false,"is_disabled":false,"rental_uris":{"android":"levelo://app?vid=162bfebb-0293-48c1-a39b-2f43435f25a3","ios":"levelo://app?vid=162bfebb-0293-48c1-a39b-2f43435f25a3"},"vehicle_type_id":"4","last_reported":1745432084,"current_range_meters":16400,"station_id":"ce4bha92rcd13ifvqeh0","pricing_plan_id":"cebpf4jnsgd1na2vs0mg"},{"bike_id":"dfd69b24-961c-414b-a74c-3d3f365a3276","system_id":"levelo_inurba_marseille","lat":43.25821,"lon":5.39421,"is_reserved":false,"is_disabled":false,"rental_uris":{"android":"levelo://app?vid=dfd69b24-961c-414b-a74c-3d3f365a3276","ios":"levelo://app?vid=dfd69b24-961c-414b-a74c-3d3f365a3276"},"vehicle_type_id":"4","last_reported":1745432084,"current_range_meters":17200,"station_id":"ce4bhip2rcd13ifvqft0","pricing_plan_id":"cebpf4jnsgd1na2vs0mg"},{"bike_id":"ff073aaa-f05d-4c16-bae1-d1b0baf4e883","system_id":"levelo_inurba_marseille","lat":43.28451,"lon":5.39204,"is_reserved":false,"is_disabled":false,"rental_uris":{"android":"levelo://app?vid=ff073aaa-f05d-4c16-bae1-d1b0baf4e883","ios":"levelo://app?vid=ff073aaa-f05d-4c16-bae1-d1b0baf4e883"},"vehicle_type_id":"4","last_reported":1745432084,"current_range_meters":16400,"station_id":"ce4bhoh2rcd13ifvqh5g","pricing_plan_id":"cebpf4jnsgd1na2vs0mg"},{"bike_id":"094e7cad-3c45-4db5-84d9-10a74c782100","system_id":"levelo_inurba_marseille","lat":43.3236,"lon":5.37623,"is_reserved":false,"is_disabled":false,"rental_uris":{"android":"levelo://app?vid=094e7cad-3c45-4db5-84d9-10a74c782100","ios":"levelo://app?vid=094e7cad-3c45-4db5-84d9-10a74c782100"},"vehicle_type_id":"4","last_reported":1745432084,"current_range_meters":17200,"station_id":"","pricing_plan_id":"cebpf4jnsgd1na2vs0mg"},{"bike_id":"ee354981-1331-4223-a45e-4b1b7261b1e3","system_id":"levelo_inurba_marseille","lat":43.3342,"lon":5.40079,"is_reserved":false,"is_disabled":false,"rental_uris":{"android":"levelo://app?vid=ee354981-1331-4223-a45e-4b1b7261b1e3","ios":"levelo://app?vid=ee354981-1331-4223-a45e-4b1b7261b1e3"},"vehicle_type_id":"4","last_reported":1745432084,"current_range_meters":17200,"station_id":"","pricing_plan_id":"cebpf4jnsgd1na2vs0mg"},{"bike_id":"8ab2ed8d-364c-4252-a36f-2dad9a4f2a15","system_id":"levelo_inurba_marseille","lat":43.2396,"lon":5.36616,"is_reserved":false,"is_disabled":false,"rental_uris":{"android":"levelo://app?vid=8ab2ed8d-364c-4252-a36f-2dad9a4f2a15","ios":"levelo://app?vid=8ab2ed8d-364c-4252-a36f-2dad9a4f2a15"},"vehicle_type_id":"4","last_reported":1745432084,"current_range_meters":17200,"station_id":"ce4bhi12rcd13ifvqfp0","pricing_plan_id":"cebpf4jnsgd1na2vs0mg"},{"bike_id":"d2f9ab38-d77b-417d-8e17-1403be698e41","system_id":"levelo_inurba_marseille","lat":43.24071,"lon":5.37763,"is_reserved":false,"is_disabled":false,"rental_uris":{"android":"levelo://app?vid=d2f9ab38-d77b-417d-8e17-1403be698e41","ios":"levelo://app?vid=d2f9ab38-d77b-417d-8e17-1403be698e41"},"vehicle_type_id":"4","last_reported":1745432084,"current_range_meters":17200,"station_id":"ce4bhnp2rcd13ifvqgvg","pricing_plan_id":"cebpf4jnsgd1na2vs0mg"},{"bike_id":"8dff3327-c704-4870-8401-73b9c1029785","system_id":"levelo_inurba_marseille","lat":43.25865,"lon":5.39903,"is_reserved":false,"is_disabled":true,"rental_uris":{"android":"levelo://app?vid=8dff3327-c704-4870-8401-73b9c1029785","ios":"levelo://app?vid=8dff3327-c704-4870-8401-73b9c1029785"},"vehicle_type_id":"4","last_reported":1745432084,"current_range_meters":17600,"station_id":"ce4bhl92rcd13ifvqghg","pricing_plan_id":"cebpf4jnsgd1na2vs0mg"},{"bike_id":"d14bbe39-3680-4a1c-a115-359332b42826","system_id":"levelo_inurba_marseille","lat":43.29023,"lon":5.38648,"is_reserved":false,"is_disabled":false,"rental_uris":{"android":"levelo://app?vid=d14bbe39-3680-4a1c-a115-359332b42826","ios":"levelo://app?vid=d14bbe39-3680-4a1c-a115-359332b42826"},"vehicle_type_id":"4","last_reported":1745432084,"current_range_meters":17600,"station_id":"ce4bh4p2rcd13ifvqe0g","pricing_plan_id":"cebpf4jnsgd1na2vs0mg"},{"bike_id":"f5c95656-430b-430a-adc7-5a38f40674ae","system_id":"levelo_inurba_marseille","lat":43.291657,"lon":5.37143,"is_reserved":false,"is_disabled":false,"rental_uris":{"android":"levelo://app?vid=f5c95656-430b-430a-adc7-5a38f40674ae","ios":"levelo://app?vid=f5c95656-430b-430a-adc7-5a38f40674ae"},"vehicle_type_id":"4","last_reported":1745432084,"current_range_meters":17600,"station_id":"ce4bha92rcd13ifvqeh0","pricing_plan_id":"cebpf4jnsgd1na2vs0mg"},{"bike_id":"84a36156-6f4f-41c0-a207-0b7099d9435f","system_id":"levelo_inurba_marseille","lat":43.27548,"lon":5.38432,"is_reserved":false,"is_disabled":false,"rental_uris":{"android":"levelo://app?vid=84a36156-6f4f-41c0-a207-0b7099d9435f","ios":"levelo://app?vid=84a36156-6f4f-41c0-a207-0b7099d9435f"},"vehicle_type_id":"4","last_reported":1745432084,"current_range_meters":17600,"station_id":"ce4bhh92rcd13ifvqfi0","pricing_plan_id":"cebpf4jnsgd1na2vs0mg"},{"bike_id":"a0514dd9-0742-48dc-be62-c9142a513bf8","system_id":"levelo_inurba_marseille","lat":43.29557,"lon":5.42289,"is_reserved":false,"is_disabled":false,"rental_uris":{"android":"levelo://app?vid=a0514dd9-0742-48dc-be62-c9142a513bf8","ios":"levelo://app?vid=a0514dd9-0742-48dc-be62-c9142a513bf8"},"vehicle_type_id":"4","last_reported":1745432084,"current_range_meters":17600,"station_id":"ce4bhph2rcd13ifvqhdg","pricing_plan_id":"cebpf4jnsgd1na2vs0mg"},{"bike_id":"2ddb7626-06dc-4abf-976e-19ce121be91c","system_id":"levelo_inurba_marseille","lat":43.3171,"lon":5.37824,"is_reserved":false,"is_disabled":false,"rental_uris":{"android":"levelo://app?vid=2ddb7626-06dc-4abf-976e-19ce121be91c","ios":"levelo://app?vid=2ddb7626-06dc-4abf-976e-19ce121be91c"},"vehicle_type_id":"4","last_reported":1745432084,"current_range_meters":17600,"station_id":"ce4bgth2rcd13ifvqch0","pricing_plan_id":"cebpf4jnsgd1na2vs0mg"},{"bike_id":"cc8cd6c1-fc86-43c6-b9fa-88ecc643a862","system_id":"levelo_inurba_marseille","lat":43.27947,"lon":5.41038,"is_reserved":false,"is_disabled":false,"rental_uris":{"android":"levelo://app?vid=cc8cd6c1-fc86-43c6-b9fa-88ecc643a862","ios":"levelo://app?vid=cc8cd6c1-fc86-43c6-b9fa-88ecc643a862"},"vehicle_type_id":"4","last_reported":1745432084,"current_range_meters":17600,"station_id":"ce4bhnp2rcd13ifvqh0g","pricing_plan_id":"cebpf4jnsgd1na2vs0mg"},{"bike_id":"01eac4eb-d0e7-46f9-9de6-492aba9ced8d","system_id":"levelo_inurba_marseille","lat":43.29265,"lon":5.38426,"is_reserved":false,"is_disabled":false,"rental_uris":{"android":"levelo://app?vid=01eac4eb-d0e7-46f9-9de6-492aba9ced8d","ios":"levelo://app?vid=01eac4eb-d0e7-46f9-9de6-492aba9ced8d"},"vehicle_type_id":"4","last_reported":1745432084,"current_range_meters":17600,"station_id":"ce4bh692rcd13ifvqea0","pricing_plan_id":"cebpf4jnsgd1na2vs0mg"},{"bike_id":"b217c7a4-92b6-4872-91fa-f2c2827250cc","system_id":"levelo_inurba_marseille","lat":43.2884,"lon":5.39215,"is_reserved":false,"is_disabled":false,"rental_uris":{"android":"levelo://app?vid=b217c7a4-92b6-4872-91fa-f2c2827250cc","ios":"levelo://app?vid=b217c7a4-92b6-4872-91fa-f2c2827250cc"},"vehicle_type_id":"4","last_reported":1745432084,"current_range_meters":17600,"station_id":"","pricing_plan_id":"cebpf4jnsgd1na2vs0mg"},{"bike_id":"fa8a552a-d2d3-4e8d-8d8e-02bdba037836","system_id":"levelo_inurba_marseille","lat":43.23063,"lon":5.35496,"is_reserved":false,"is_disabled":false,"rental_uris":{"android":"levelo://app?vid=fa8a552a-d2d3-4e8d-8d8e-02bdba037836","ios":"levelo://app?vid=fa8a552a-d2d3-4e8d-8d8e-02bdba037836"},"vehicle_type_id":"4","last_reported":1745432084,"current_range_meters":17600,"station_id":"cpo3342slgdg3j2ifvpg","pricing_plan_id":"cebpf4jnsgd1na2vs0mg"},{"bike_id":"8f6644e0-2b2b-4dd8-bfe9-b1a9b5eaaed5","system_id":"levelo_inurba_marseille","lat":43.2861,"lon":5.37065,"is_reserved":false,"is_disabled":false,"rental_uris":{"android":"levelo://app?vid=8f6644e0-2b2b-4dd8-bfe9-b1a9b5eaaed5","ios":"levelo://app?vid=8f6644e0-2b2b-4dd8-bfe9-b1a9b5eaaed5"},"vehicle_type_id":"4","last_reported":1745432084,"current_range_meters":17600,"station_id":"ce4bht12rcd13ifvqi60","pricing_plan_id":"cebpf4jnsgd1na2vs0mg"},{"bike_id":"d5d98e2b-2349-429d-8c14-e57e428aacd5","system_id":"levelo_inurba_marseille","lat":43.305396,"lon":5.36563,"is_reserved":false,"is_disabled":false,"rental_uris":{"android":"levelo://app?vid=d5d98e2b-2349-429d-8c14-e57e428aacd5","ios":"levelo://app?vid=d5d98e2b-2349-429d-8c14-e57e428aacd5"},"vehicle_type_id":"4","last_reported":1745432084,"current_range_meters":16800,"station_id":"ce4bgv12rcd13ifvqcp0","pricing_plan_id":"cebpf4jnsgd1na2vs0mg"},{"bike_id":"23845792-8cd7-4997-9d75-aad840b9e2bd","system_id":"levelo_inurba_marseille","lat":43.27967,"lon":5.38749,"is_reserved":false,"is_disabled":false,"rental_uris":{"android":"levelo://app?vid=23845792-8cd7-4997-9d75-aad840b9e2bd","ios":"levelo://app?vid=23845792-8cd7-4997-9d75-aad840b9e2bd"},"vehicle_type_id":"4","last_reported":1745432084,"current_range_meters":17600,"station_id":"ce4bhg12rcd13ifvqf80","pricing_plan_id":"cebpf4jnsgd1na2vs0mg"},{"bike_id":"e761027d-86ee-4b7b-bd52-e9f535f31915","system_id":"levelo_inurba_marseille","lat":43.27175,"lon":5.40998,"is_reserved":false,"is_disabled":false,"rental_uris":{"android":"levelo://app?vid=e761027d-86ee-4b7b-bd52-e9f535f31915","ios":"levelo://app?vid=e761027d-86ee-4b7b-bd52-e9f535f31915"},"vehicle_type_id":"4","last_reported":1745432084,"current_range_meters":18000,"station_id":"ce4bhl12rcd13ifvqgf0","pricing_plan_id":"cebpf4jnsgd1na2vs0mg"},{"bike_id":"87873093-27f5-49a2-8c34-ddd2205add84","system_id":"levelo_inurba_marseille","lat":43.28471,"lon":5.38435,"is_reserved":false,"is_disabled":true,"rental_uris":{"android":"levelo://app?vid=87873093-27f5-49a2-8c34-ddd2205add84","ios":"levelo://app?vid=87873093-27f5-49a2-8c34-ddd2205add84"},"vehicle_type_id":"4","last_reported":1745432084,"current_range_meters":18000,"station_id":"ce4bh512rcd13ifvqe3g","pricing_plan_id":"cebpf4jnsgd1na2vs0mg"},{"bike_id":"98202da0-7d47-42c5-9d9c-1df593f61f4e","system_id":"levelo_inurba_marseille","lat":43.29258,"lon":5.38428,"is_reserved":false,"is_disabled":false,"rental_uris":{"android":"levelo://app?vid=98202da0-7d47-42c5-9d9c-1df593f61f4e","ios":"levelo://app?vid=98202da0-7d47-42c5-9d9c-1df593f61f4e"},"vehicle_type_id":"4","last_reported":1745432084,"current_range_meters":18000,"station_id":"ce4bh692rcd13ifvqea0","pricing_plan_id":"cebpf4jnsgd1na2vs0mg"},{"bike_id":"573a4df4-67c3-44e6-bfea-f88edf1d06a3","system_id":"levelo_inurba_marseille","lat":43.30801,"lon":5.37656,"is_reserved":false,"is_disabled":false,"rental_uris":{"android":"levelo://app?vid=573a4df4-67c3-44e6-bfea-f88edf1d06a3","ios":"levelo://app?vid=573a4df4-67c3-44e6-bfea-f88edf1d06a3"},"vehicle_type_id":"4","last_reported":1745432084,"current_range_meters":20400,"station_id":"ce4bgv92rcd13ifvqcq0","pricing_plan_id":"cebpf4jnsgd1na2vs0mg"},{"bike_id":"c7ca143d-cb3b-4e82-ac31-918bb2d57ea8","system_id":"levelo_inurba_marseille","lat":43.28461,"lon":5.35881,"is_reserved":false,"is_disabled":false,"rental_uris":{"android":"levelo://app?vid=c7ca143d-cb3b-4e82-ac31-918bb2d57ea8","ios":"levelo://app?vid=c7ca143d-cb3b-4e82-ac31-918bb2d57ea8"},"vehicle_type_id":"4","last_reported":1745432084,"current_range_meters":18800,"station_id":"ce4bhah2rcd13ifvqei0","pricing_plan_id":"cebpf4jnsgd1na2vs0mg"},{"bike_id":"0b141701-87df-48f4-b482-e0973e5fc711","system_id":"levelo_inurba_marseille","lat":43.24649,"lon":5.38896,"is_reserved":false,"is_disabled":false,"rental_uris":{"android":"levelo://app?vid=0b141701-87df-48f4-b482-e0973e5fc711","ios":"levelo://app?vid=0b141701-87df-48f4-b482-e0973e5fc711"},"vehicle_type_id":"4","last_reported":1745432084,"current_range_meters":18800,"station_id":"ce4bhg12rcd13ifvqf60","pricing_plan_id":"cebpf4jnsgd1na2vs0mg"},{"bike_id":"334c6f92-13fa-4dea-9481-687f7c46de84","system_id":"levelo_inurba_marseille","lat":43.3267,"lon":5.36692,"is_reserved":false,"is_disabled":false,"rental_uris":{"android":"levelo://app?vid=334c6f92-13fa-4dea-9481-687f7c46de84","ios":"levelo://app?vid=334c6f92-13fa-4dea-9481-687f7c46de84"},"vehicle_type_id":"4","last_reported":1745432084,"current_range_meters":18800,"station_id":"","pricing_plan_id":"cebpf4jnsgd1na2vs0mg"},{"bike_id":"b9ab971b-48e9-415a-bfac-c8c4c0adc9e9","system_id":"levelo_inurba_marseille","lat":43.24804,"lon":5.37453,"is_reserved":false,"is_disabled":false,"rental_uris":{"android":"levelo://app?vid=b9ab971b-48e9-415a-bfac-c8c4c0adc9e9","ios":"levelo://app?vid=b9ab971b-48e9-415a-bfac-c8c4c0adc9e9"},