{"last_updated":1740568085,"ttl":60,"version":"2.2","data":{"bikes":[{"bike_id":"a83cfb45-cb98-415d-b70b-3ae2147c447c","system_id":"levelo_inurba_marseille","lat":43.29341,"lon":5.40209,"is_reserved":false,"is_disabled":false,"rental_uris":{"android":"levelo://app?vid=a83cfb45-cb98-415d-b70b-3ae2147c447c","ios":"levelo://app?vid=a83cfb45-cb98-415d-b70b-3ae2147c447c"},"vehicle_type_id":"4","last_reported":1740568085,"current_range_meters":800,"station_id":"","pricing_plan_id":"cebpf4jnsgd1na2vs0mg"},{"bike_id":"0b61823e-8134-42d3-86ff-2358640a8d3d","system_id":"levelo_inurba_marseille","lat":43.30071,"lon":5.39088,"is_reserved":false,"is_disabled":false,"rental_uris":{"android":"levelo://app?vid=0b61823e-8134-42d3-86ff-2358640a8d3d","ios":"levelo://app?vid=0b61823e-8134-42d3-86ff-2358640a8d3d"},"vehicle_type_id":"4","last_reported":1740568085,"current_range_meters":2800,"station_id":"ce4bh192rcd13ifvqdb0","pricing_plan_id":"cebpf4jnsgd1na2vs0mg"},{"bike_id":"804779d0-a157-4e45-9050-569afed6821e","system_id":"levelo_inurba_marseille","lat":43.29039,"lon":5.37565,"is_reserved":false,"is_disabled":false,"rental_uris":{"android":"levelo://app?vid=804779d0-a157-4e45-9050-569afed6821e","ios":"levelo://app?vid=804779d0-a157-4e45-9050-569afed6821e"},"vehicle_type_id":"4","last_reported":1740568085,"current_range_meters":4400,"station_id":"ce4bh692rcd13ifvqe90","pricing_plan_id":"cebpf4jnsgd1na2vs0mg"},{"bike_id":"318c1677-2748-4289-a0f9-8679eef21daa","system_id":"levelo_inurba_marseille","lat":43.29847,"lon":5.36285,"is_reserved":false,"is_disabled":false,"rental_uris":{"android":"levelo://app?vid=318c1677-2748-4289-a0f9-8679eef21daa","ios":"levelo://app?vid=318c1677-2748-4289-a0f9-8679eef21daa"},"vehicle_type_id":"4","last_reported":1740568085,"current_range_meters":4400,"station_id":"ce4bgpp2rcd13ifvqc3g","pricing_plan_id":"cebpf4jnsgd1na2vs0mg"},{"bike_id":"a36a2279-b74a-452a-a112-15239a0b7b61","system_id":"levelo_inurba_marseille","lat":43.281708,"lon":5.425075,"is_reserved":false,"is_disabled":false,"rental_uris":{"android":"levelo://app?vid=a36a2279-b74a-452a-a112-15239a0b7b61","ios":"levelo://app?vid=a36a2279-b74a-452a-a112-15239a0b7b61"},"vehicle_type_id":"4","last_reported":1740568085,"current_range_meters":4400,"station_id":"ce4bho92rcd13ifvqh4g","pricing_plan_id":"cebpf4jnsgd1na2vs0mg"},{"bike_id":"79b70c59-4bf7-4063-880a-6c296a7f87e7","system_id":"levelo_inurba_marseille","lat":43.29019,"lon":5.38636,"is_reserved":false,"is_disabled":false,"rental_uris":{"android":"levelo://app?vid=79b70c59-4bf7-4063-880a-6c296a7f87e7","ios":"levelo://app?vid=79b70c59-4bf7-4063-880a-6c296a7f87e7"},"vehicle_type_id":"4","last_reported":1740568085,"current_range_meters":5600,"station_id":"ce4bh4p2rcd13ifvqe0g","pricing_plan_id":"cebpf4jnsgd1na2vs0mg"},{"bike_id":"ce23f07b-ce5b-45f8-a749-276ceab9ac38","system_id":"levelo_inurba_marseille","lat":43.2816,"lon":5.42641,"is_reserved":false,"is_disabled":false,"rental_uris":{"android":"levelo://app?vid=ce23f07b-ce5b-45f8-a749-276ceab9ac38","ios":"levelo://app?vid=ce23f07b-ce5b-45f8-a749-276ceab9ac38"},"vehicle_type_id":"4","last_reported":1740568085,"current_range_meters":4000,"station_id":"ce4bhnh2rcd13ifvqgug","pricing_plan_id":"cebpf4jnsgd1na2vs0mg"},{"bike_id":"416122ca-c79a-496b-baf4-e72ba614b7da","system_id":"levelo_inurba_marseille","lat":43.30131,"lon":5.37441,"is_reserved":false,"is_disabled":false,"rental_uris":{"android":"levelo://app?vid=416122ca-c79a-496b-baf4-e72ba614b7da","ios":"levelo://app?vid=416122ca-c79a-496b-baf4-e72ba614b7da"},"vehicle_type_id":"4","last_reported":1740568085,"current_range_meters":5600,"station_id":"ce4bgs92rcd13ifvqcc0","pricing_plan_id":"cebpf4jnsgd1na2vs0mg"},{"bike_id":"af459d88-ae1b-4cbd-84e7-c0011a757de5","system_id":"levelo_inurba_marseille","lat":43.23197,"lon":5.35546,"is_reserved":false,"is_disabled":false,"rental_uris":{"android":"levelo://app?vid=af459d88-ae1b-4cbd-84e7-c0011a757de5","ios":"levelo://app?vid=af459d88-ae1b-4cbd-84e7-c0011a757de5"},"vehicle_type_id":"4","last_reported":1740568085,"current_range_meters":6000,"station_id":"ce4bhu92rcd13ifvqi70","pricing_plan_id":"cebpf4jnsgd1na2vs0mg"},{"bike_id":"556a753c-4866-4b18-82b2-6e427fdb0098","system_id":"levelo_inurba_marseille","lat":43.26571,"lon":5.39023,"is_reserved":false,"is_disabled":false,"rental_uris":{"android":"levelo://app?vid=556a753c-4866-4b18-82b2-6e427fdb0098","ios":"levelo://app?vid=556a753c-4866-4b18-82b2-6e427fdb0098"},"vehicle_type_id":"4","last_reported":1740568085,"current_range_meters":6000,"station_id":"ce4bhe12rcd13ifvqf30","pricing_plan_id":"cebpf4jnsgd1na2vs0mg"},{"bike_id":"e07c4d3e-b317-4b10-b919-c6146de26647","system_id":"levelo_inurba_marseille","lat":43.32554,"lon":5.41464,"is_reserved":false,"is_disabled":false,"rental_uris":{"android":"levelo://app?vid=e07c4d3e-b317-4b10-b919-c6146de26647","ios":"levelo://app?vid=e07c4d3e-b317-4b10-b919-c6146de26647"},"vehicle_type_id":"4","last_reported":1740568085,"current_range_meters":6000,"station_id":"ce4bhq12rcd13ifvqhhg","pricing_plan_id":"cebpf4jnsgd1na2vs0mg"},{"bike_id":"b6eb1e76-a88a-437e-98c4-9a612de71195","system_id":"levelo_inurba_marseille","lat":43.23141,"lon":5.43713,"is_reserved":false,"is_disabled":false,"rental_uris":{"android":"levelo://app?vid=b6eb1e76-a88a-437e-98c4-9a612de71195","ios":"levelo://app?vid=b6eb1e76-a88a-437e-98c4-9a612de71195"},"vehicle_type_id":"4","last_reported":1740568085,"current_range_meters":6000,"station_id":"ce4bhmp2rcd13ifvqgog","pricing_plan_id":"cebpf4jnsgd1na2vs0mg"},{"bike_id":"3ecb5c1e-fdcd-4620-8ea5-a393e4f4cf28","system_id":"levelo_inurba_marseille","lat":43.2593,"lon":5.40896,"is_reserved":false,"is_disabled":false,"rental_uris":{"android":"levelo://app?vid=3ecb5c1e-fdcd-4620-8ea5-a393e4f4cf28","ios":"levelo://app?vid=3ecb5c1e-fdcd-4620-8ea5-a393e4f4cf28"},"vehicle_type_id":"4","last_reported":1740568085,"current_range_meters":6000,"station_id":"ce4bhm92rcd13ifvqglg","pricing_plan_id":"cebpf4jnsgd1na2vs0mg"},{"bike_id":"80408fe0-99ce-40a3-8fa9-0756f37db563","system_id":"levelo_inurba_marseille","lat":43.30305,"lon":5.39219,"is_reserved":false,"is_disabled":false,"rental_uris":{"android":"levelo://app?vid=80408fe0-99ce-40a3-8fa9-0756f37db563","ios":"levelo://app?vid=80408fe0-99ce-40a3-8fa9-0756f37db563"},"vehicle_type_id":"4","last_reported":1740568085,"current_range_meters":0,"station_id":"ce4bgkh2rcd13ifvqbk0","pricing_plan_id":"cebpf4jnsgd1na2vs0mg"},{"bike_id":"1fb0e46b-bdba-4a0b-8c63-b6e48236eaf3","system_id":"levelo_inurba_marseille","lat":43.31327,"lon":5.36731,"is_reserved":false,"is_disabled":false,"rental_uris":{"android":"levelo://app?vid=1fb0e46b-bdba-4a0b-8c63-b6e48236eaf3","ios":"levelo://app?vid=1fb0e46b-bdba-4a0b-8c63-b6e48236eaf3"},"vehicle_type_id":"4","last_reported":1740568085,"current_range_meters":6400,"station_id":"ce4bgr92rcd13ifvqc6g","pricing_plan_id":"cebpf4jnsgd1na2vs0mg"},{"bike_id":"58c6e842-50d3-44a9-9c2d-a4232cc4ff2b","system_id":"levelo_inurba_marseille","lat":43.30467,"lon":5.379,"is_reserved":false,"is_disabled":false,"rental_uris":{"android":"levelo://app?vid=58c6e842-50d3-44a9-9c2d-a4232cc4ff2b","ios":"levelo://app?vid=58c6e842-50d3-44a9-9c2d-a4232cc4ff2b"},"vehicle_type_id":"4","last_reported":1740568085,"current_range_meters":6800,"station_id":"ce4bgup2rcd13ifvqcn0","pricing_plan_id":"cebpf4jnsgd1na2vs0mg"},{"bike_id":"41a82718-5578-41f7-be7c-4a36792814f7","system_id":"levelo_inurba_marseille","lat":43.25001,"lon":5.38923,"is_reserved":false,"is_disabled":false,"rental_uris":{"android":"levelo://app?vid=41a82718-5578-41f7-be7c-4a36792814f7","ios":"levelo://app?vid=41a82718-5578-41f7-be7c-4a36792814f7"},"vehicle_type_id":"4","last_reported":1740568085,"current_range_meters":6800,"station_id":"ce4bhgp2rcd13ifvqfd0","pricing_plan_id":"cebpf4jnsgd1na2vs0mg"},{"bike_id":"e4cd531c-53f6-497b-b684-69896df31ea1","system_id":"levelo_inurba_marseille","lat":43.24184,"lon":5.3973,"is_reserved":false,"is_disabled":false,"rental_uris":{"android":"levelo://app?vid=e4cd531c-53f6-497b-b684-69896df31ea1","ios":"levelo://app?vid=e4cd531c-53f6-497b-b684-69896df31ea1"},"vehicle_type_id":"4","last_reported":1740568085,"current_range_meters":6800,"station_id":"ce4bhn12rcd13ifvqgpg","pricing_plan_id":"cebpf4jnsgd1na2vs0mg"},{"bike_id":"87f55f6d-0457-4002-a98c-243af8229daa","system_id":"levelo_inurba_marseille","lat":43.28002,"lon":5.40011,"is_reserved":false,"is_disabled":false,"rental_uris":{"android":"levelo://app?vid=87f55f6d-0457-4002-a98c-243af8229daa","ios":"levelo://app?vid=87f55f6d-0457-4002-a98c-243af8229daa"},"vehicle_type_id":"4","last_reported":1740568085,"current_range_meters":6800,"station_id":"ce4bho92rcd13ifvqh4g","pricing_plan_id":"cebpf4jnsgd1na2vs0mg"},{"bike_id":"2b8c9d5d-3a7d-4165-86bb-409a08d4b434","system_id":"levelo_inurba_marseille","lat":43.30162,"lon":5.3733,"is_reserved":false,"is_disabled":false,"rental_uris":{"android":"levelo://app?vid=2b8c9d5d-3a7d-4165-86bb-409a08d4b434","ios":"levelo://app?vid=2b8c9d5d-3a7d-4165-86bb-409a08d4b434"},"vehicle_type_id":"4","last_reported":1740568085,"current_range_meters":6800,"station_id":"","pricing_plan_id":"cebpf4jnsgd1na2vs0mg"},{"bike_id":"7af1ab52-65de-4b2f-ad37-6777d80b4ed1","system_id":"levelo_inurba_marseille","lat":43.2931,"lon":5.37164,"is_reserved":false,"is_disabled":false,"rental_uris":{"android":"levelo://app?vid=7af1ab52-65de-4b2f-ad37-6777d80b4ed1","ios":"levelo://app?vid=7af1ab52-65de-4b2f-ad37-6777d80b4ed1"},"vehicle_type_id":"4","last_reported":1740568085,"current_range_meters":6800,"station_id":"ce4bgh92rcd13ifvqb40","pricing_plan_id":"cebpf4jnsgd1na2vs0mg"},{"bike_id":"fd989f9b-c206-42e1-9b73-4174141497be","system_id":"levelo_inurba_marseille","lat":43.30881,"lon":5.396437,"is_reserved":false,"is_disabled":false,"rental_uris":{"android":"levelo://app?vid=fd989f9b-c206-42e1-9b73-4174141497be","ios":"levelo://app?vid=fd989f9b-c206-42e1-9b73-4174141497be"},"vehicle_type_id":"4","last_reported":1740568085,"current_range_meters":7200,"station_id":"ce4bh012rcd13ifvqcv0","pricing_plan_id":"cebpf4jnsgd1na2vs0mg"},{"bike_id":"45ac4e55-c7aa-4a65-99c8-81935b8b8498","system_id":"levelo_inurba_marseille","lat":43.24807,"lon":5.37456,"is_reserved":false,"is_disabled":false,"rental_uris":{"android":"levelo://app?vid=45ac4e55-c7aa-4a65-99c8-81935b8b8498","ios":"levelo://app?vid=45ac4e55-c7aa-4a65-99c8-81935b8b8498"},"vehicle_type_id":"4","last_reported":1740568085,"current_range_meters":6800,"station_id":"ce4bhgh2rcd13ifvqfb0","pricing_plan_id":"cebpf4jnsgd1na2vs0mg"},{"bike_id":"70656a71-7b5b-49e4-a2ca-c422d39a1205","system_id":"levelo_inurba_marseille","lat":43.27066,"lon":5.4228,"is_reserved":false,"is_disabled":false,"rental_uris":{"android":"levelo://app?vid=70656a71-7b5b-49e4-a2ca-c422d39a1205","ios":"levelo://app?vid=70656a71-7b5b-49e4-a2ca-c422d39a1205"},"vehicle_type_id":"4","last_reported":1740568085,"current_range_meters":7200,"station_id":"ce4bhk92rcd13ifvqgb0","pricing_plan_id":"cebpf4jnsgd1na2vs0mg"},{"bike_id":"6e7dc168-d384-462a-9e48-e7eb22ec3d79","system_id":"levelo_inurba_marseille","lat":43.28287,"lon":5.35074,"is_reserved":false,"is_disabled":true,"rental_uris":{"android":"levelo://app?vid=6e7dc168-d384-462a-9e48-e7eb22ec3d79","ios":"levelo://app?vid=6e7dc168-d384-462a-9e48-e7eb22ec3d79"},"vehicle_type_id":"4","last_reported":1740568085,"current_range_meters":7200,"station_id":"ce4bhbp2rcd13ifvqerg","pricing_plan_id":"cebpf4jnsgd1na2vs0mg"},{"bike_id":"8da35fa5-5d74-4990-8675-9e285d91062b","system_id":"levelo_inurba_marseille","lat":43.25578,"lon":5.38253,"is_reserved":false,"is_disabled":false,"rental_uris":{"android":"levelo://app?vid=8da35fa5-5d74-4990-8675-9e285d91062b","ios":"levelo://app?vid=8da35fa5-5d74-4990-8675-9e285d91062b"},"vehicle_type_id":"4","last_reported":1740568085,"current_range_meters":7200,"station_id":"ce4bhih2rcd13ifvqfs0","pricing_plan_id":"cebpf4jnsgd1na2vs0mg"},{"bike_id":"e5c275a2-a964-47d8-9489-ed1126cf4cef","system_id":"levelo_inurba_marseille","lat":43.296138,"lon":5.379072,"is_reserved":false,"is_disabled":false,"rental_uris":{"android":"levelo://app?vid=e5c275a2-a964-47d8-9489-ed1126cf4cef","ios":"levelo://app?vid=e5c275a2-a964-47d8-9489-ed1126cf4cef"},"vehicle_type_id":"4","last_reported":1740568085,"current_range_meters":7200,"station_id":"","pricing_plan_id":"cebpf4jnsgd1na2vs0mg"},{"bike_id":"33b33ca6-95b4-4166-b354-fc149c0fc8ab","system_id":"levelo_inurba_marseille","lat":43.31228,"lon":5.36848,"is_reserved":false,"is_disabled":false,"rental_uris":{"android":"levelo://app?vid=33b33ca6-95b4-4166-b354-fc149c0fc8ab","ios":"levelo://app?vid=33b33ca6-95b4-4166-b354-fc149c0fc8ab"},"vehicle_type_id":"4","last_reported":1740568085,"current_range_meters":7200,"station_id":"ce4bgl92rcd13ifvqbq0","pricing_plan_id":"cebpf4jnsgd1na2vs0mg"},{"bike_id":"e7b815cc-df06-4225-b4a6-c7bfd0557c54","system_id":"levelo_inurba_marseille","lat":43.25938,"lon":5.40898,"is_reserved":false,"is_disabled":false,"rental_uris":{"android":"levelo://app?vid=e7b815cc-df06-4225-b4a6-c7bfd0557c54","ios":"levelo://app?vid=e7b815cc-df06-4225-b4a6-c7bfd0557c54"},"vehicle_type_id":"4","last_reported":1740568085,"current_range_meters":7200,"station_id":"ce4bhm92rcd13ifvqglg","pricing_plan_id":"cebpf4jnsgd1na2vs0mg"},{"bike_id":"c7d47453-8ff3-4d96-8463-71e1a5e80589","system_id":"levelo_inurba_marseille","lat":43.29969,"lon":5.41306,"is_reserved":false,"is_disabled":false,"rental_uris":{"android":"levelo://app?vid=c7d47453-8ff3-4d96-8463-71e1a5e80589","ios":"levelo://app?vid=c7d47453-8ff3-4d96-8463-71e1a5e80589"},"vehicle_type_id":"4","last_reported":1740568085,"current_range_meters":7200,"station_id":"ce4bhp12rcd13ifvqh9g","pricing_plan_id":"cebpf4jnsgd1na2vs0mg"},{"bike_id":"7c45866a-bd99-4c12-9747-66203f12a96e","system_id":"levelo_inurba_marseille","lat":43.23132,"lon":5.35517,"is_reserved":false,"is_disabled":false,"rental_uris":{"android":"levelo://app?vid=7c45866a-bd99-4c12-9747-66203f12a96e","ios":"levelo://app?vid=7c45866a-bd99-4c12-9747-66203f12a96e"},"vehicle_type_id":"4","last_reported":1740568085,"current_range_meters":7200,"station_id":"","pricing_plan_id":"cebpf4jnsgd1na2vs0mg"},{"bike_id":"340864f3-cf98-48d7-94d4-f7219bf6b77d","system_id":"levelo_inurba_marseille","lat":43.29419,"lon":5.38622,"is_reserved":false,"is_disabled":false,"rental_uris":{"android":"levelo://app?vid=340864f3-cf98-48d7-94d4-f7219bf6b77d","ios":"levelo://app?vid=340864f3-cf98-48d7-94d4-f7219bf6b77d"},"vehicle_type_id":"4","last_reported":1740568085,"current_range_meters":7200,"station_id":"ce4bh2h2rcd13ifvqdh0","pricing_plan_id":"cebpf4jnsgd1na2vs0mg"},{"bike_id":"e3d71cbc-c200-4cf4-bd3c-8db524813567","system_id":"levelo_inurba_marseille","lat":43.28333,"lon":5.38089,"is_reserved":false,"is_disabled":false,"rental_uris":{"android":"levelo://app?vid=e3d71cbc-c200-4cf4-bd3c-8db524813567","ios":"levelo://app?vid=e3d71cbc-c200-4cf4-bd3c-8db524813567"},"vehicle_type_id":"4","last_reported":1740568085,"current_range_meters":7200,"station_id":"ce4bh412rcd13ifvqdr0","pricing_plan_id":"cebpf4jnsgd1na2vs0mg"},{"bike_id":"d195c036-1441-4910-bcb8-60d709890867","system_id":"levelo_inurba_marseille","lat":43.2416,"lon":5.36397,"is_reserved":false,"is_disabled":false,"rental_uris":{"android":"levelo://app?vid=d195c036-1441-4910-bcb8-60d709890867","ios":"levelo://app?vid=d195c036-1441-4910-bcb8-60d709890867"},"vehicle_type_id":"4","last_reported":1740568085,"current_range_meters":8000,"station_id":"cpo36qri1sfpv3e86is0","pricing_plan_id":"cebpf4jnsgd1na2vs0mg"},{"bike_id":"64604e48-7463-4eb1-9c72-a67b9c58cd25","system_id":"levelo_inurba_marseille","lat":43.31385,"lon":5.36714,"is_reserved":false,"is_disabled":false,"rental_uris":{"android":"levelo://app?vid=64604e48-7463-4eb1-9c72-a67b9c58cd25","ios":"levelo://app?vid=64604e48-7463-4eb1-9c72-a67b9c58cd25"},"vehicle_type_id":"4","last_reported":1740568085,"current_range_meters":8000,"station_id":"","pricing_plan_id":"cebpf4jnsgd1na2vs0mg"},{"bike_id":"7ef602eb-495c-4ab9-81c4-cbf3285eb28d","system_id":"levelo_inurba_marseille","lat":43.31707,"lon":5.40479,"is_reserved":false,"is_disabled":false,"rental_uris":{"android":"levelo://app?vid=7ef602eb-495c-4ab9-81c4-cbf3285eb28d","ios":"levelo://app?vid=7ef602eb-495c-4ab9-81c4-cbf3285eb28d"},"vehicle_type_id":"4","last_reported":1740568085,"current_range_meters":7200,"station_id":"ce4bh012rcd13ifvqd00","pricing_plan_id":"cebpf4jnsgd1na2vs0mg"},{"bike_id":"482c4a99-25f9-4e33-a861-073a9c9cb4e2","system_id":"levelo_inurba_marseille","lat":43.27311,"lon":5.39095,"is_reserved":false,"is_disabled":false,"rental_uris":{"android":"levelo://app?vid=482c4a99-25f9-4e33-a861-073a9c9cb4e2","ios":"levelo://app?vid=482c4a99-25f9-4e33-a861-073a9c9cb4e2"},"vehicle_type_id":"4","last_reported":1740568085,"current_range_meters":8000,"station_id":"ce4bhgp2rcd13ifvqfe0","pricing_plan_id":"cebpf4jnsgd1na2vs0mg"},{"bike_id":"c405406a-0919-45e3-83f8-567ea8622701","system_id":"levelo_inurba_marseille","lat":43.24178,"lon":5.39748,"is_reserved":false,"is_disabled":false,"rental_uris":{"android":"levelo://app?vid=c405406a-0919-45e3-83f8-567ea8622701","ios":"levelo://app?vid=c405406a-0919-45e3-83f8-567ea8622701"},"vehicle_type_id":"4","last_reported":1740568085,"current_range_meters":8000,"station_id":"ce4bhn12rcd13ifvqgpg","pricing_plan_id":"cebpf4jnsgd1na2vs0mg"},{"bike_id":"8a347558-4d24-4798-bc0f-3e92792b691e","system_id":"levelo_inurba_marseille","lat":43.31221,"lon":5.36855,"is_reserved":false,"is_disabled":false,"rental_uris":{"android":"levelo://app?vid=8a347558-4d24-4798-bc0f-3e92792b691e","ios":"levelo://app?vid=8a347558-4d24-4798-bc0f-3e92792b691e"},"vehicle_type_id":"4","last_reported":1740568085,"current_range_meters":8000,"station_id":"ce4bgl92rcd13ifvqbq0","pricing_plan_id":"cebpf4jnsgd1na2vs0mg"},{"bike_id":"ad15a503-e243-4704-8cbb-77d92c75e1d9","system_id":"levelo_inurba_marseille","lat":43.28428,"lon":5.392,"is_reserved":false,"is_disabled":true,"rental_uris":{"android":"levelo://app?vid=ad15a503-e243-4704-8cbb-77d92c75e1d9","ios":"levelo://app?vid=ad15a503-e243-4704-8cbb-77d92c75e1d9"},"vehicle_type_id":"4","last_reported":1740568085,"current_range_meters":8000,"station_id":"ce4bhoh2rcd13ifvqh5g","pricing_plan_id":"cebpf4jnsgd1na2vs0mg"},{"bike_id":"dc1bac09-f013-4b79-af70-382a644a6cf8","system_id":"levelo_inurba_marseille","lat":43.28605,"lon":5.37064,"is_reserved":false,"is_disabled":false,"rental_uris":{"android":"levelo://app?vid=dc1bac09-f013-4b79-af70-382a644a6cf8","ios":"levelo://app?vid=dc1bac09-f013-4b79-af70-382a644a6cf8"},"vehicle_type_id":"4","last_reported":1740568085,"current_range_meters":8000,"station_id":"ce4bht12rcd13ifvqi60","pricing_plan_id":"cebpf4jnsgd1na2vs0mg"},{"bike_id":"4669b121-6e06-4449-9c5c-294e3531f7ce","system_id":"levelo_inurba_marseille","lat":43.31333,"lon":5.36719,"is_reserved":false,"is_disabled":false,"rental_uris":{"android":"levelo://app?vid=4669b121-6e06-4449-9c5c-294e3531f7ce","ios":"levelo://app?vid=4669b121-6e06-4449-9c5c-294e3531f7ce"},"vehicle_type_id":"4","last_reported":1740568085,"current_range_meters":8400,"station_id":"ce4bgr92rcd13ifvqc6g","pricing_plan_id":"cebpf4jnsgd1na2vs0mg"},{"bike_id":"05f51bd6-bf8c-4b6c-ba2f-d7bf7cec3006","system_id":"levelo_inurba_marseille","lat":43.23187,"lon":5.35573,"is_reserved":false,"is_disabled":false,"rental_uris":{"android":"levelo://app?vid=05f51bd6-bf8c-4b6c-ba2f-d7bf7cec3006","ios":"levelo://app?vid=05f51bd6-bf8c-4b6c-ba2f-d7bf7cec3006"},"vehicle_type_id":"4","last_reported":1740568085,"current_range_meters":8400,"station_id":"ce4bhu92rcd13ifvqi70","pricing_plan_id":"cebpf4jnsgd1na2vs0mg"},{"bike_id":"5af30630-744f-4e98-9dc6-872889967a41","system_id":"levelo_inurba_marseille","lat":43.28399,"lon":5.34985,"is_reserved":false,"is_disabled":false,"rental_uris":{"android":"levelo://app?vid=5af30630-744f-4e98-9dc6-872889967a41","ios":"levelo://app?vid=5af30630-744f-4e98-9dc6-872889967a41"},"vehicle_type_id":"4","last_reported":1740568085,"current_range_meters":7200,"station_id":"ce4bhbh2rcd13ifvqepg","pricing_plan_id":"cebpf4jnsgd1na2vs0mg"},{"bike_id":"a1ca3ad0-4f52-4569-bb87-4293f6934d8b","system_id":"levelo_inurba_marseille","lat":43.23195,"lon":5.35549,"is_reserved":false,"is_disabled":false,"rental_uris":{"android":"levelo://app?vid=a1ca3ad0-4f52-4569-bb87-4293f6934d8b","ios":"levelo://app?vid=a1ca3ad0-4f52-4569-bb87-4293f6934d8b"},"vehicle_type_id":"4","last_reported":1740568085,"current_range_meters":8400,"station_id":"ce4bhu92rcd13ifvqi70","pricing_plan_id":"cebpf4jnsgd1na2vs0mg"},{"bike_id":"f471da5a-caed-49c4-b8ea-dbdd456d8c3b","system_id":"levelo_inurba_marseille","lat":43.29094,"lon":5.38138,"is_reserved":false,"is_disabled":false,"rental_uris":{"android":"levelo://app?vid=f471da5a-caed-49c4-b8ea-dbdd456d8c3b","ios":"levelo://app?vid=f471da5a-caed-49c4-b8ea-dbdd456d8c3b"},"vehicle_type_id":"4","last_reported":1740568085,"current_range_meters":8000,"station_id":"ce4bh512rcd13ifvqe2g","pricing_plan_id":"cebpf4jnsgd1na2vs0mg"},{"bike_id":"f5232ca0-a0ea-4b65-9be9-c58c9ab586fb","system_id":"levelo_inurba_marseille","lat":43.28153,"lon":5.42639,"is_reserved":false,"is_disabled":false,"rental_uris":{"android":"levelo://app?vid=f5232ca0-a0ea-4b65-9be9-c58c9ab586fb","ios":"levelo://app?vid=f5232ca0-a0ea-4b65-9be9-c58c9ab586fb"},"vehicle_type_id":"4","last_reported":1740568085,"current_range_meters":8800,"station_id":"ce4bhnh2rcd13ifvqgug","pricing_plan_id":"cebpf4jnsgd1na2vs0mg"},{"bike_id":"db80fd38-4399-4663-82ac-e789c4a04bea","system_id":"levelo_inurba_marseille","lat":43.27814,"lon":5.40703,"is_reserved":false,"is_disabled":false,"rental_uris":{"android":"levelo://app?vid=db80fd38-4399-4663-82ac-e789c4a04bea","ios":"levelo://app?vid=db80fd38-4399-4663-82ac-e789c4a04bea"},"vehicle_type_id":"4","last_reported":1740568085,"current_range_meters":8800,"station_id":"ce4bhnh2rcd13ifvqgtg","pricing_plan_id":"cebpf4jnsgd1na2vs0mg"},{"bike_id":"9f6b1a57-8b18-4910-92c4-7c3c71b26e15","system_id":"levelo_inurba_marseille","lat":43.23328,"lon":5.36014,"is_reserved":false,"is_disabled":false,"rental_uris":{"android":"levelo://app?vid=9f6b1a57-8b18-4910-92c4-7c3c71b26e15","ios":"levelo://app?vid=9f6b1a57-8b18-4910-92c4-7c3c71b26e15"},"vehicle_type_id":"4","last_reported":1740568085,"current_range_meters":8800,"station_id":"","pricing_plan_id":"cebpf4jnsgd1na2vs0mg"},{"bike_id":"ceb091b6-164e-414b-9d42-d42f9a4b15fb","system_id":"levelo_inurba_marseille","lat":43.30953,"lon":5.39045,"is_reserved":false,"is_disabled":false,"rental_uris":{"android":"levelo://app?vid=ceb091b6-164e-414b-9d42-d42f9a4b15fb","ios":"levelo://app?vid=ceb091b6-164e-414b-9d42-d42f9a4b15fb"},"vehicle_type_id":"4","last_reported":1740568085,"current_range_meters":8800,"station_id":"ce4bgup2rcd13ifvqco0","pricing_plan_id":"cebpf4jnsgd1na2vs0mg"},{"bike_id":"8ace0b31-7ac4-4d4d-abe2-ce80d1634949","system_id":"levelo_inurba_marseille","lat":43.29256,"lon":5.37623,"is_reserved":false,"is_disabled":false,"rental_uris":{"android":"levelo://app?vid=8ace0b31-7ac4-4d4d-abe2-ce80d1634949","ios":"levelo://app?vid=8ace0b31-7ac4-4d4d-abe2-ce80d1634949"},"vehicle_type_id":"4","last_reported":1740568085,"current_range_meters":8800,"station_id":"ce4bgi12rcd13ifvqb80","pricing_plan_id":"cebpf4jnsgd1na2vs0mg"},{"bike_id":"53d5ec87-e6ba-4f62-b996-318e78dadae9","system_id":"levelo_inurba_marseille","lat":43.33606,"lon":5.41037,"is_reserved":false,"is_disabled":false,"rental_uris":{"android":"levelo://app?vid=53d5ec87-e6ba-4f62-b996-318e78dadae9","ios":"levelo://app?vid=53d5ec87-e6ba-4f62-b996-318e78dadae9"},"vehicle_type_id":"4","last_reported":1740568085,"current_range_meters":8800,"station_id":"ce4bhqh2rcd13ifvqhmg","pricing_plan_id":"cebpf4jnsgd1na2vs0mg"},{"bike_id":"ed03659e-e93b-4b39-8092-18f793f1fc65","system_id":"levelo_inurba_marseille","lat":43.29907,"lon":5.37483,"is_reserved":false,"is_disabled":false,"rental_uris":{"android":"levelo://app?vid=ed03659e-e93b-4b39-8092-18f793f1fc65","ios":"levelo://app?vid=ed03659e-e93b-4b39-8092-18f793f1fc65"},"vehicle_type_id":"4","last_reported":1740568085,"current_range_meters":8800,"station_id":"ce4bgjh2rcd13ifvqbg0","pricing_plan_id":"cebpf4jnsgd1na2vs0mg"},{"bike_id":"dcdfafc4-ad04-4f03-b713-a44cb5c77c53","system_id":"levelo_inurba_marseille","lat":43.295597,"lon":5.399613,"is_reserved":false,"is_disabled":true,"rental_uris":{"android":"levelo://app?vid=dcdfafc4-ad04-4f03-b713-a44cb5c77c53","ios":"levelo://app?vid=dcdfafc4-ad04-4f03-b713-a44cb5c77c53"},"vehicle_type_id":"4","last_reported":1740568085,"current_range_meters":8800,"station_id":"ce4bh312rcd13ifvqdj0","pricing_plan_id":"cebpf4jnsgd1na2vs0mg"},{"bike_id":"79e16d4b-e84f-45d9-b980-40832126fd03","system_id":"levelo_inurba_marseille","lat":43.2315,"lon":5.43712,"is_reserved":false,"is_disabled":false,"rental_uris":{"android":"levelo://app?vid=79e16d4b-e84f-45d9-b980-40832126fd03","ios":"levelo://app?vid=79e16d4b-e84f-45d9-b980-40832126fd03"},"vehicle_type_id":"4","last_reported":1740568085,"current_range_meters":8800,"station_id":"ce4bhmp2rcd13ifvqgog","pricing_plan_id":"cebpf4jnsgd1na2vs0mg"},{"bike_id":"89e44665-812f-48fa-aa8d-ed00c6be9914","system_id":"levelo_inurba_marseille","lat":43.25821,"lon":5.3944,"is_reserved":false,"is_disabled":false,"rental_uris":{"android":"levelo://app?vid=89e44665-812f-48fa-aa8d-ed00c6be9914","ios":"levelo://app?vid=89e44665-812f-48fa-aa8d-ed00c6be9914"},"vehicle_type_id":"4","last_reported":1740568085,"current_range_meters":9600,"station_id":"ce4bhip2rcd13ifvqft0","pricing_plan_id":"cebpf4jnsgd1na2vs0mg"},{"bike_id":"16b6e611-78de-4cc7-aa68-c5691c52154d","system_id":"levelo_inurba_marseille","lat":43.27808,"lon":5.4072,"is_reserved":false,"is_disabled":false,"rental_uris":{"android":"levelo://app?vid=16b6e611-78de-4cc7-aa68-c5691c52154d","ios":"levelo://app?vid=16b6e611-78de-4cc7-aa68-c5691c52154d"},"vehicle_type_id":"4","last_reported":1740568085,"current_range_meters":5600,"station_id":"ce4bhnh2rcd13ifvqgtg","pricing_plan_id":"cebpf4jnsgd1na2vs0mg"},{"bike_id":"13301daf-0444-439c-90f5-309514bd90a4","system_id":"levelo_inurba_marseille","lat":43.31533,"lon":5.38026,"is_reserved":false,"is_disabled":false,"rental_uris":{"android":"levelo://app?vid=13301daf-0444-439c-90f5-309514bd90a4","ios":"levelo://app?vid=13301daf-0444-439c-90f5-309514bd90a4"},"vehicle_type_id":"4","last_reported":1740568085,"current_range_meters":9200,"station_id":"ce4bhsp2rcd13ifvqi50","pricing_plan_id":"cebpf4jnsgd1na2vs0mg"},{"bike_id":"2b65b819-3691-4ee6-aa24-c09379fb6674","system_id":"levelo_inurba_marseille","lat":43.29356,"lon":5.37847,"is_reserved":false,"is_disabled":false,"rental_uris":{"android":"levelo://app?vid=2b65b819-3691-4ee6-aa24-c09379fb6674","ios":"levelo://app?vid=2b65b819-3691-4ee6-aa24-c09379fb6674"},"vehicle_type_id":"4","last_reported":1740568085,"current_range_meters":12000,"station_id":"ce4bgjh2rcd13ifvqbf0","pricing_plan_id":"cebpf4jnsgd1na2vs0mg"},{"bike_id":"6bde17a0-6e11-4413-bf1b-d6751ce7e53e","system_id":"levelo_inurba_marseille","lat":43.25498,"lon":5.37648,"is_reserved":false,"is_disabled":false,"rental_uris":{"android":"levelo://app?vid=6bde17a0-6e11-4413-bf1b-d6751ce7e53e","ios":"levelo://app?vid=6bde17a0-6e11-4413-bf1b-d6751ce7e53e"},"vehicle_type_id":"4","last_reported":1740568085,"current_range_meters":9200,"station_id":"ce4bhh12rcd13ifvqff0","pricing_plan_id":"cebpf4jnsgd1na2vs0mg"},{"bike_id":"37a0d04f-277b-4325-8e41-371ae2138725","system_id":"levelo_inurba_marseille","lat":43.27832,"lon":5.39216,"is_reserved":false,"is_disabled":false,"rental_uris":{"android":"levelo://app?vid=37a0d04f-277b-4325-8e41-371ae2138725","ios":"levelo://app?vid=37a0d04f-277b-4325-8e41-371ae2138725"},"vehicle_type_id":"4","last_reported":1740568085,"current_range_meters":8800,"station_id":"ce4bhjp2rcd13ifvqga0","pricing_plan_id":"cebpf4jnsgd1na2vs0mg"},{"bike_id":"b7e76cce-cd59-41fc-bddd-abd519a7d294","system_id":"levelo_inurba_marseille","lat":43.33747,"lon":5.37461,"is_reserved":false,"is_disabled":false,"rental_uris":{"android":"levelo://app?vid=b7e76cce-cd59-41fc-bddd-abd519a7d294","ios":"levelo://app?vid=b7e76cce-cd59-41fc-bddd-abd519a7d294"},"vehicle_type_id":"4","last_reported":1740568085,"current_range_meters":9200,"station_id":"","pricing_plan_id":"cebpf4jnsgd1na2vs0mg"},{"bike_id":"34c4c817-ef7d-48f7-949e-4dfe87e89717","system_id":"levelo_inurba_marseille","lat":43.29252,"lon":5.38443,"is_reserved":false,"is_disabled":false,"rental_uris":{"android":"levelo://app?vid=34c4c817-ef7d-48f7-949e-4dfe87e89717","ios":"levelo://app?vid=34c4c817-ef7d-48f7-949e-4dfe87e89717"},"vehicle_type_id":"4","last_reported":1740568085,"current_range_meters":9600,"station_id":"ce4bh692rcd13ifvqea0","pricing_plan_id":"cebpf4jnsgd1na2vs0mg"},{"bike_id":"8a623b90-eb2d-4333-ab8f-7972cbfda133","system_id":"levelo_inurba_marseille","lat":43.260545,"lon":5.394012,"is_reserved":false,"is_disabled":false,"rental_uris":{"android":"levelo://app?vid=8a623b90-eb2d-4333-ab8f-7972cbfda133","ios":"levelo://app?vid=8a623b90-eb2d-4333-ab8f-7972cbfda133"},"vehicle_type_id":"4","last_reported":1740568085,"current_range_meters":9200,"station_id":"ce4bhh92rcd13ifvqfj0","pricing_plan_id":"cebpf4jnsgd1na2vs0mg"},{"bike_id":"cf085623-032b-4b31-a58c-8b73fff53b5d","system_id":"levelo_inurba_marseille","lat":43.29935,"lon":5.36539,"is_reserved":false,"is_disabled":false,"rental_uris":{"android":"levelo://app?vid=cf085623-032b-4b31-a58c-8b73fff53b5d","ios":"levelo://app?vid=cf085623-032b-4b31-a58c-8b73fff53b5d"},"vehicle_type_id":"4","last_reported":1740568085,"current_range_meters":11200,"station_id":"ce4bgm92rcd13ifvqbr0","pricing_plan_id":"cebpf4jnsgd1na2vs0mg"},{"bike_id":"7c8aaa9b-e43a-43de-8b4f-a531a44d3724","system_id":"levelo_inurba_marseille","lat":43.27931,"lon":5.41056,"is_reserved":false,"is_disabled":false,"rental_uris":{"android":"levelo://app?vid=7c8aaa9b-e43a-43de-8b4f-a531a44d3724","ios":"levelo://app?vid=7c8aaa9b-e43a-43de-8b4f-a531a44d3724"},"vehicle_type_id":"4","last_reported":1740568085,"current_range_meters":10000,"station_id":"ce4bhnp2rcd13ifvqh0g","pricing_plan_id":"cebpf4jnsgd1na2vs0mg"},{"bike_id":"009cdcb2-4b54-438b-a5c4-f7ef8e65d688","system_id":"levelo_inurba_marseille","lat":43.27328,"lon":5.39122,"is_reserved":false,"is_disabled":false,"rental_uris":{"android":"levelo://app?vid=009cdcb2-4b54-438b-a5c4-f7ef8e65d688","ios":"levelo://app?vid=009cdcb2-4b54-438b-a5c4-f7ef8e65d688"},"vehicle_type_id":"4","last_reported":1740568085,"current_range_meters":9600,"station_id":"ce4bhgp2rcd13ifvqfe0","pricing_plan_id":"cebpf4jnsgd1na2vs0mg"},{"bike_id":"d0801915-0de0-4f9d-9726-750b42c06614","system_id":"levelo_inurba_marseille","lat":43.32108,"lon":5.36775,"is_reserved":false,"is_disabled":false,"rental_uris":{"android":"levelo://app?vid=d0801915-0de0-4f9d-9726-750b42c06614","ios":"levelo://app?vid=d0801915-0de0-4f9d-9726-750b42c06614"},"vehicle_type_id":"4","last_reported":1740568085,"current_range_meters":9600,"station_id":"ce4bhrh2rcd13ifvqhug","pricing_plan_id":"cebpf4jnsgd1na2vs0mg"},{"bike_id":"c52acbad-9974-48d6-b92b-1d6c12a1b66d","system_id":"levelo_inurba_marseille","lat":43.25927,"lon":5.40886,"is_reserved":false,"is_disabled":false,"rental_uris":{"android":"levelo://app?vid=c52acbad-9974-48d6-b92b-1d6c12a1b66d","ios":"levelo://app?vid=c52acbad-9974-48d6-b92b-1d6c12a1b66d"},"vehicle_type_id":"4","last_reported":1740568085,"current_range_meters":10000,"station_id":"ce4bhm92rcd13ifvqglg","pricing_plan_id":"cebpf4jnsgd1na2vs0mg"},{"bike_id":"a776f6f7-f93d-44d0-acc5-0c069f214c2b","system_id":"levelo_inurba_marseille","lat":43.26564,"lon":5.39015,"is_reserved":false,"is_disabled":false,"rental_uris":{"android":"levelo://app?vid=a776f6f7-f93d-44d0-acc5-0c069f214c2b","ios":"levelo://app?vid=a776f6f7-f93d-44d0-acc5-0c069f214c2b"},"vehicle_type_id":"4","last_reported":1740568085,"current_range_meters":10000,"station_id":"ce4bhe12rcd13ifvqf30","pricing_plan_id":"cebpf4jnsgd1na2vs0mg"},{"bike_id":"c1e1cfc9-4e56-4f7a-94a9-2d01d9bb2a93","system_id":"levelo_inurba_marseille","lat":43.24803,"lon":5.37455,"is_reserved":false,"is_disabled":false,"rental_uris":{"android":"levelo://app?vid=c1e1cfc9-4e56-4f7a-94a9-2d01d9bb2a93","ios":"levelo://app?vid=c1e1cfc9-4e56-4f7a-94a9-2d01d9bb2a93"},"vehicle_type_id":"4","last_reported":1740568085,"current_range_meters":10000,"station_id":"ce4bhgh2rcd13ifvqfb0","pricing_plan_id":"cebpf4jnsgd1na2vs0mg"},{"bike_id":"1031ca96-2243-454f-b9df-49ccbf51496a","system_id":"levelo_inurba_marseille","lat":43.27067,"lon":5.42278,"is_reserved":false,"is_disabled":false,"rental_uris":{"android":"levelo://app?vid=1031ca96-2243-454f-b9df-49ccbf51496a","ios":"levelo://app?vid=1031ca96-2243-454f-b9df-49ccbf51496a"},"vehicle_type_id":"4","last_reported":1740568085,"current_range_meters":10000,"station_id":"ce4bhk92rcd13ifvqgb0","pricing_plan_id":"cebpf4jnsgd1na2vs0mg"},{"bike_id":"6b286004-f086-4023-9675-02a95f8e917b","system_id":"levelo_inurba_marseille","lat":43.30958,"lon":5.39033,"is_reserved":false,"is_disabled":true,"rental_uris":{"android":"levelo://app?vid=6b286004-f086-4023-9675-02a95f8e917b","ios":"levelo://app?vid=6b286004-f086-4023-9675-02a95f8e917b"},"vehicle_type_id":"4","last_reported":1740568085,"current_range_meters":10000,"station_id":"ce4bgup2rcd13ifvqco0","pricing_plan_id":"cebpf4jnsgd1na2vs0mg"},{"bike_id":"b007f058-4163-4bbe-ba13-50835769bd43","system_id":"levelo_inurba_marseille","lat":43.31708,"lon":5.43708,"is_reserved":false,"is_disabled":false,"rental_uris":{"android":"levelo://app?vid=b007f058-4163-4bbe-ba13-50835769bd43","ios":"levelo://app?vid=b007f058-4163-4bbe-ba13-50835769bd43"},"vehicle_type_id":"4","last_reported":1740568085,"current_range_meters":10000,"station_id":"ce4bhp92rcd13ifvqhcg","pricing_plan_id":"cebpf4jnsgd1na2vs0mg"},{"bike_id":"799474af-679e-4d15-8578-dabcfec339b3","system_id":"levelo_inurba_marseille","lat":43.28456,"lon":5.35888,"is_reserved":false,"is_disabled":false,"rental_uris":{"android":"levelo://app?vid=799474af-679e-4d15-8578-dabcfec339b3","ios":"levelo://app?vid=799474af-679e-4d15-8578-dabcfec339b3"},"vehicle_type_id":"4","last_reported":1740568085,"current_range_meters":10000,"station_id":"ce4bhah2rcd13ifvqei0","pricing_plan_id":"cebpf4jnsgd1na2vs0mg"},{"bike_id":"5f1c0580-25d4-4ca1-baa3-15817d8a2160","system_id":"levelo_inurba_marseille","lat":43.305481,"lon":5.365291,"is_reserved":false,"is_disabled":false,"rental_uris":{"android":"levelo://app?vid=5f1c0580-25d4-4ca1-baa3-15817d8a2160","ios":"levelo://app?vid=5f1c0580-25d4-4ca1-baa3-15817d8a2160"},"vehicle_type_id":"4","last_reported":1740568085,"current_range_meters":10800,"station_id":"ce4bgs12rcd13ifvqcag","pricing_plan_id":"cebpf4jnsgd1na2vs0mg"},{"bike_id":"06f66f75-c84f-4aed-9792-8d1609f95dd5","system_id":"levelo_inurba_marseille","lat":43.30935,"lon":5.39032,"is_reserved":false,"is_disabled":false,"rental_uris":{"android":"levelo://app?vid=06f66f75-c84f-4aed-9792-8d1609f95dd5","ios":"levelo://app?vid=06f66f75-c84f-4aed-9792-8d1609f95dd5"},"vehicle_type_id":"4","last_reported":1740568085,"current_range_meters":10800,"station_id":"ce4bgup2rcd13ifvqco0","pricing_plan_id":"cebpf4jnsgd1na2vs0mg"},{"bike_id":"6f79503b-9c36-49c2-a132-6fd612d437ad","system_id":"levelo_inurba_marseille","lat":43.29846,"lon":5.39743,"is_reserved":false,"is_disabled":false,"rental_uris":{"android":"levelo://app?vid=6f79503b-9c36-49c2-a132-6fd612d437ad","ios":"levelo://app?vid=6f79503b-9c36-49c2-a132-6fd612d437ad"},"vehicle_type_id":"4","last_reported":1740568085,"current_range_meters":10800,"station_id":"ce4bh0h2rcd13ifvqd50","pricing_plan_id":"cebpf4jnsgd1na2vs0mg"},{"bike_id":"3b813646-2f34-401c-a684-d6f0dbc0aa61","system_id":"levelo_inurba_marseille","lat":43.25496,"lon":5.37653,"is_reserved":false,"is_disabled":false,"rental_uris":{"android":"levelo://app?vid=3b813646-2f34-401c-a684-d6f0dbc0aa61","ios":"levelo://app?vid=3b813646-2f34-401c-a684-d6f0dbc0aa61"},"vehicle_type_id":"4","last_reported":1740568085,"current_range_meters":11600,"station_id":"ce4bhh12rcd13ifvqff0","pricing_plan_id":"cebpf4jnsgd1na2vs0mg"},{"bike_id":"507cc0ef-334e-41d1-8083-ab2cc3f7c562","system_id":"levelo_inurba_marseille","lat":43.25012,"lon":5.38931,"is_reserved":false,"is_disabled":false,"rental_uris":{"android":"levelo://app?vid=507cc0ef-334e-41d1-8083-ab2cc3f7c562","ios":"levelo://app?vid=507cc0ef-334e-41d1-8083-ab2cc3f7c562"},"vehicle_type_id":"4","last_reported":1740568085,"current_range_meters":15200,"station_id":"ce4bhgp2rcd13ifvqfd0","pricing_plan_id":"cebpf4jnsgd1na2vs0mg"},{"bike_id":"01783c60-cdd4-4925-b30f-2f3020328abe","system_id":"levelo_inurba_marseille","lat":43.25499,"lon":5.37658,"is_reserved":false,"is_disabled":false,"rental_uris":{"android":"levelo://app?vid=01783c60-cdd4-4925-b30f-2f3020328abe","ios":"levelo://app?vid=01783c60-cdd4-4925-b30f-2f3020328abe"},"vehicle_type_id":"4","last_reported":1740568085,"current_range_meters":11600,"station_id":"ce4bhh12rcd13ifvqff0","pricing_plan_id":"cebpf4jnsgd1na2vs0mg"},{"bike_id":"67ee95a1-160f-49c1-b11e-b3640680cd0d","system_id":"levelo_inurba_marseille","lat":43.32101,"lon":5.36782,"is_reserved":false,"is_disabled":false,"rental_uris":{"android":"levelo://app?vid=67ee95a1-160f-49c1-b11e-b3640680cd0d","ios":"levelo://app?vid=67ee95a1-160f-49c1-b11e-b3640680cd0d"},"vehicle_type_id":"4","last_reported":1740568085,"current_range_meters":11200,"station_id":"ce4bhrh2rcd13ifvqhug","pricing_plan_id":"cebpf4jnsgd1na2vs0mg"},{"bike_id":"1d8d2b2e-c3d0-4c5a-8528-f72969669e89","system_id":"levelo_inurba_marseille","lat":43.25505,"lon":5.37645,"is_reserved":false,"is_disabled":false,"rental_uris":{"android":"levelo://app?vid=1d8d2b2e-c3d0-4c5a-8528-f72969669e89","ios":"levelo://app?vid=1d8d2b2e-c3d0-4c5a-8528-f72969669e89"},"vehicle_type_id":"4","last_reported":1740568085,"current_range_meters":10800,"station_id":"ce4bhh12rcd13ifvqff0","pricing_plan_id":"cebpf4jnsgd1na2vs0mg"},{"bike_id":"36d95222-3102-4bb0-8ebe-df2c5b35233b","system_id":"levelo_inurba_marseille","lat":43.30084,"lon":5.39085,"is_reserved":false,"is_disabled":false,"rental_uris":{"android":"levelo://app?vid=36d95222-3102-4bb0-8ebe-df2c5b35233b","ios":"levelo://app?vid=36d95222-3102-4bb0-8ebe-df2c5b35233b"},"vehicle_type_id":"4","last_reported":1740568085,"current_range_meters":11600,"station_id":"ce4bh192rcd13ifvqdb0","pricing_plan_id":"cebpf4jnsgd1na2vs0mg"},{"bike_id":"ecae38a3-92fd-4ecc-8423-6f11d9f7d18f","system_id":"levelo_inurba_marseille","lat":43.29605,"lon":5.37731,"is_reserved":false,"is_disabled":false,"rental_uris":{"android":"levelo://app?vid=ecae38a3-92fd-4ecc-8423-6f11d9f7d18f","ios":"levelo://app?vid=ecae38a3-92fd-4ecc-8423-6f11d9f7d18f"},"vehicle_type_id":"4","last_reported":1740568085,"current_range_meters":11600,"station_id":"ce4bgi92rcd13ifvqb90","pricing_plan_id":"cebpf4jnsgd1na2vs0mg"},{"bike_id":"1b7f899c-5638-446e-a0d0-9bda7020ae72","system_id":"levelo_inurba_marseille","lat":43.24173,"lon":5.39727,"is_reserved":false,"is_disabled":false,"rental_uris":{"android":"levelo://app?vid=1b7f899c-5638-446e-a0d0-9bda7020ae72","ios":"levelo://app?vid=1b7f899c-5638-446e-a0d0-9bda7020ae72"},"vehicle_type_id":"4","last_reported":1740568085,"current_range_meters":11600,"station_id":"ce4bhn12rcd13ifvqgpg","pricing_plan_id":"cebpf4jnsgd1na2vs0mg"},{"bike_id":"56c90c05-21dd-4258-af01-641c62e92e64","system_id":"levelo_inurba_marseille","lat":43.2862,"lon":5.35102,"is_reserved":false,"is_disabled":false,"rental_uris":{"android":"levelo://app?vid=56c90c05-21dd-4258-af01-641c62e92e64","ios":"levelo://app?vid=56c90c05-21dd-4258-af01-641c62e92e64"},"vehicle_type_id":"4","last_reported":1740568085,"current_range_meters":12000,"station_id":"ce4bhch2rcd13ifvqeug","pricing_plan_id":"cebpf4jnsgd1na2vs0mg"},{"bike_id":"ddf53e78-1c41-4025-ad73-724f5d1ed9a8","system_id":"levelo_inurba_marseille","lat":43.30137,"lon":5.37418,"is_reserved":false,"is_disabled":false,"rental_uris":{"android":"levelo://app?vid=ddf53e78-1c41-4025-ad73-724f5d1ed9a8","ios":"levelo://app?vid=ddf53e78-1c41-4025-ad73-724f5d1ed9a8"},"vehicle_type_id":"4","last_reported":1740568085,"current_range_meters":12000,"station_id":"ce4bgs92rcd13ifvqcc0","pricing_plan_id":"cebpf4jnsgd1na2vs0mg"},{"bike_id":"df2b6808-8c0d-4f30-9be3-8afa5e31f82f","system_id":"levelo_inurba_marseille","lat":43.30898,"lon":5.3964,"is_reserved":false,"is_disabled":false,"rental_uris":{"android":"levelo://app?vid=df2b6808-8c0d-4f30-9be3-8afa5e31f82f","ios":"levelo://app?vid=df2b6808-8c0d-4f30-9be3-8afa5e31f82f"},"vehicle_type_id":"4","last_reported":1740568085,"current_range_meters":12000,"station_id":"ce4bh012rcd13ifvqcv0","pricing_plan_id":"cebpf4jnsgd1na2vs0mg"},{"bike_id":"d04c9b3f-5ec1-4f13-a1ce-ae00665d62df","system_id":"levelo_inurba_marseille","lat":43.29044,"lon":5.39964,"is_reserved":false,"is_disabled":false,"rental_uris":{"android":"levelo://app?vid=d04c9b3f-5ec1-4f13-a1ce-ae00665d62df","ios":"levelo://app?vid=d04c9b3f-5ec1-4f13-a1ce-ae00665d62df"},"vehicle_type_id":"4","last_reported":1740568085,"current_range_meters":10800,"station_id":"ce4bh392rcd13ifvqdm0","pricing_plan_id":"cebpf4jnsgd1na2vs0mg"},{"bike_id":"91df6e5d-afa9-43b9-9d78-5051ed581821","system_id":"levelo_inurba_marseille","lat":43.298957,"lon":5.397391,"is_reserved":false,"is_disabled":false,"rental_uris":{"android":"levelo://app?vid=91df6e5d-afa9-43b9-9d78-5051ed581821","ios":"levelo://app?vid=91df6e5d-afa9-43b9-9d78-5051ed581821"},"vehicle_type_id":"4","last_reported":1740568085,"current_range_meters":12400,"station_id":"ce4bh0h2rcd13ifvqd50","pricing_plan_id":"cebpf4jnsgd1na2vs0mg"},{"bike_id":"0b2f5009-1e4e-4593-8abd-b74dc1937c26","system_id":"levelo_inurba_marseille","lat":43.23204,"lon":5.39996,"is_reserved":false,"is_disabled":false,"rental_uris":{"android":"levelo://app?vid=0b2f5009-1e4e-4593-8abd-b74dc1937c26","ios":"levelo://app?vid=0b2f5009-1e4e-4593-8abd-b74dc1937c26"},"vehicle_type_id":"4","last_reported":1740568085,"current_range_meters":12400,"station_id":"ce4bhn12rcd13ifvqgqg","pricing_plan_id":"cebpf4jnsgd1na2vs0mg"},{"bike_id":"4781fb11-d9db-4cd8-974c-942517d7cf68","system_id":"levelo_inurba_marseille","lat":43.27059,"lon":5.40271,"is_reserved":false,"is_disabled":false,"rental_uris":{"android":"levelo://app?vid=4781fb11-d9db-4cd8-974c-942517d7cf68","ios":"levelo://app?vid=4781fb11-d9db-4cd8-974c-942517d7cf68"},"vehicle_type_id":"4","last_reported":1740568085,"current_range_meters":12400,"station_id":"ce4bhk92rcd13ifvqgc0","pricing_plan_id":"cebpf4jnsgd1na2vs0mg"},{"bike_id":"e9cbaf7e-8129-45c3-8fb1-2dae7b381072","system_id":"levelo_inurba_marseille","lat":43.30121,"lon":5.39079,"is_reserved":false,"is_disabled":false,"rental_uris":{"android":"levelo://app?vid=e9cbaf7e-8129-45c3-8fb1-2dae7b381072","ios":"levelo://app?vid=e9cbaf7e-8129-45c3-8fb1-2dae7b381072"},"vehicle_type_id":"4","last_reported":1740568085,"current_range_meters":12000,"station_id":"ce4bh192rcd13ifvqdb0","pricing_plan_id":"cebpf4jnsgd1na2vs0mg"},{"bike_id":"b349b9a2-bed4-40b7-839b-efb7b0722ffd","system_id":"levelo_inurba_marseille","lat":43.29135,"lon":5.38066,"is_reserved":false,"is_disabled":false,"rental_uris":{"android":"levelo://app?vid=b349b9a2-bed4-40b7-839b-efb7b0722ffd","ios":"levelo://app?vid=b349b9a2-bed4-40b7-839b-efb7b0722ffd"},"vehicle_type_id":"4","last_reported":1740568085,"current_range_meters":12800,"station_id":"ce4bh512rcd13ifvqe2g","pricing_plan_id":"cebpf4jnsgd1na2vs0mg"},{"bike_id":"2a5926e3-b395-441c-9f98-50dfef09bc0a","system_id":"levelo_inurba_marseille","lat":43.286346,"lon":5.385636,"is_reserved":false,"is_disabled":false,"rental_uris":{"android":"levelo://app?vid=2a5926e3-b395-441c-9f98-50dfef09bc0a","ios":"levelo://app?vid=2a5926e3-b395-441c-9f98-50dfef09bc0a"},"vehicle_type_id":"4","last_reported":1740568085,"current_range_meters":13600,"station_id":"ce4bh492rcd13ifvqdug","pricing_plan_id":"cebpf4jnsgd1na2vs0mg"},{"bike_id":"18004232-cebf-4879-af2d-2205373a32d6","system_id":"levelo_inurba_marseille","lat":43.288719,"lon":5.382649,"is_reserved":false,"is_disabled":false,"rental_uris":{"android":"levelo://app?vid=18004232-cebf-4879-af2d-2205373a32d6","ios":"levelo://app?vid=18004232-cebf-4879-af2d-2205373a32d6"},"vehicle_type_id":"4","last_reported":1740568085,"current_range_meters":12800,"station_id":"ce4bhlh2rcd13ifvqgig","pricing_plan_id":"cebpf4jnsgd1na2vs0mg"},{"bike_id":"bc07e9a7-50af-4660-b0f1-01d1486f91be","system_id":"levelo_inurba_marseille","lat":43.30458,"lon":5.37902,"is_reserved":false,"is_disabled":true,"rental_uris":{"android":"levelo://app?vid=bc07e9a7-50af-4660-b0f1-01d1486f91be","ios":"levelo://app?vid=bc07e9a7-50af-4660-b0f1-01d1486f91be"},"vehicle_type_id":"4","last_reported":1740568085,"current_range_meters":13600,"station_id":"ce4bgup2rcd13ifvqcn0","pricing_plan_id":"cebpf4jnsgd1na2vs0mg"},{"bike_id":"9d8fd715-6506-497f-b998-3f021ad2c404","system_id":"levelo_inurba_marseille","lat":43.259283,"lon":5.409047,"is_reserved":false,"is_disabled":false,"rental_uris":{"android":"levelo://app?vid=9d8fd715-6506-497f-b998-3f021ad2c404","ios":"levelo://app?vid=9d8fd715-6506-497f-b998-3f021ad2c404"},"vehicle_type_id":"4","last_reported":1740568085,"current_range_meters":14000,"station_id":"ce4bhm92rcd13ifvqglg","pricing_plan_id":"cebpf4jnsgd1na2vs0mg"},{"bike_id":"6daa8fda-286c-415b-8b93-2e321188519b","system_id":"levelo_inurba_marseille","lat":43.3089,"lon":5.37192,"is_reserved":false,"is_disabled":false,"rental_uris":{"android":"levelo://app?vid=6daa8fda-286c-415b-8b93-2e321188519b","ios":"levelo://app?vid=6daa8fda-286c-415b-8b93-2e321188519b"},"vehicle_type_id":"4","last_reported":1740568085,"current_range_meters":15200,"station_id":"ce4bguh2rcd13ifvqckg","pricing_plan_id":"cebpf4jnsgd1na2vs0mg"},{"bike_id":"89be2b48-0a1f-4294-aa42-5f3eb290236e","system_id":"levelo_inurba_marseille","lat":43.28108,"lon":5.37845,"is_reserved":false,"is_disabled":false,"rental_uris":{"android":"levelo://app?vid=89be2b48-0a1f-4294-aa42-5f3eb290236e","ios":"levelo://app?vid=89be2b48-0a1f-4294-aa42-5f3eb290236e"},"vehicle_type_id":"4","last_reported":1740568085,"current_range_meters":12800,"station_id":"ce4bha12rcd13ifvqee0","pricing_plan_id":"cebpf4jnsgd1na2vs0mg"},{"bike_id":"4fffecd4-cb5a-40ee-b6c1-944c95636433","system_id":"levelo_inurba_marseille","lat":43.2916,"lon":5.37159,"is_reserved":false,"is_disabled":false,"rental_uris":{"android":"levelo://app?vid=4fffecd4-cb5a-40ee-b6c1-944c95636433","ios":"levelo://app?vid=4fffecd4-cb5a-40ee-b6c1-944c95636433"},"vehicle_type_id":"4","last_reported":1740568085,"current_range_meters":14000,"station_id":"ce4bha92rcd13ifvqeh0","pricing_plan_id":"cebpf4jnsgd1na2vs0mg"},{"bike_id":"d5ef1571-c6b9-4f13-96ed-bfaef3f9a56f","system_id":"levelo_inurba_marseille","lat":43.28926,"lon":5.36404,"is_reserved":false,"is_disabled":true,"rental_uris":{"android":"levelo://app?vid=d5ef1571-c6b9-4f13-96ed-bfaef3f9a56f","ios":"levelo://app?vid=d5ef1571-c6b9-4f13-96ed-bfaef3f9a56f"},"vehicle_type_id":"4","last_reported":1740568085,"current_range_meters":14000,"station_id":"ce4bhc92rcd13ifvqetg","pricing_plan_id":"cebpf4jnsgd1na2vs0mg"},{"bike_id":"b8779f08-75d5-4e01-9cda-7c898988967c","system_id":"levelo_inurba_marseille","lat":43.25934,"lon":5.40882,"is_reserved":false,"is_disabled":false,"rental_uris":{"android":"levelo://app?vid=b8779f08-75d5-4e01-9cda-7c898988967c","ios":"levelo://app?vid=b8779f08-75d5-4e01-9cda-7c898988967c"},"vehicle_type_id":"4","last_reported":1740568085,"current_range_meters":14000,"station_id":"ce4bhm92rcd13ifvqglg","pricing_plan_id":"cebpf4jnsgd1na2vs0mg"},{"bike_id":"22e2139e-d2b1-4756-8ae1-242e3764eba0","system_id":"levelo_inurba_marseille","lat":43.27911,"lon":5.3958,"is_reserved":false,"is_disabled":false,"rental_uris":{"android":"levelo://app?vid=22e2139e-d2b1-4756-8ae1-242e3764eba0","ios":"levelo://app?vid=22e2139e-d2b1-4756-8ae1-242e3764eba0"},"vehicle_type_id":"4","last_reported":1740568085,"current_range_meters":14000,"station_id":"ce4bhf92rcd13ifvqf40","pricing_plan_id":"cebpf4jnsgd1na2vs0mg"},{"bike_id":"ad9571bc-5194-4f71-90ef-f1cb0835f36e","system_id":"levelo_inurba_marseille","lat":43.25508,"lon":5.37646,"is_reserved":false,"is_disabled":false,"rental_uris":{"android":"levelo://app?vid=ad9571bc-5194-4f71-90ef-f1cb0835f36e","ios":"levelo://app?vid=ad9571bc-5194-4f71-90ef-f1cb0835f36e"},"vehicle_type_id":"4","last_reported":1740568085,"current_range_meters":14400,"station_id":"ce4bhh12rcd13ifvqff0","pricing_plan_id":"cebpf4jnsgd1na2vs0mg"},{"bike_id":"a9e66179-1fd4-4218-8201-f65b2c964649","system_id":"levelo_inurba_marseille","lat":43.23194,"lon":5.35552,"is_reserved":false,"is_disabled":false,"rental_uris":{"android":"levelo://app?vid=a9e66179-1fd4-4218-8201-f65b2c964649","ios":"levelo://app?vid=a9e66179-1fd4-4218-8201-f65b2c964649"},"vehicle_type_id":"4","last_reported":1740568085,"current_range_meters":12800,"station_id":"ce4bhu92rcd13ifvqi70","pricing_plan_id":"cebpf4jnsgd1na2vs0mg"},{"bike_id":"ae22bd30-ab33-4463-8cd4-1fd39b5d41bc","system_id":"levelo_inurba_marseille","lat":43.30524,"lon":5.36521,"is_reserved":false,"is_disabled":false,"rental_uris":{"android":"levelo://app?vid=ae22bd30-ab33-4463-8cd4-1fd39b5d41bc","ios":"levelo://app?vid=ae22bd30-ab33-4463-8cd4-1fd39b5d41bc"},"vehicle_type_id":"4","last_reported":1740568085,"current_range_meters":14400,"station_id":"ce4bgs12rcd13ifvqcag","pricing_plan_id":"cebpf4jnsgd1na2vs0mg"},{"bike_id":"f9eed1e4-1895-44e2-8624-cc9551693ed5","system_id":"levelo_inurba_marseille","lat":43.29858,"lon":5.36286,"is_reserved":false,"is_disabled":false,"rental_uris":{"android":"levelo://app?vid=f9eed1e4-1895-44e2-8624-cc9551693ed5","ios":"levelo://app?vid=f9eed1e4-1895-44e2-8624-cc9551693ed5"},"vehicle_type_id":"4","last_reported":1740568085,"current_range_meters":14400,"station_id":"ce4bgpp2rcd13ifvqc3g","pricing_plan_id":"cebpf4jnsgd1na2vs0mg"},{"bike_id":"4a17589c-288a-4fe3-bcca-b67dceeddf97","system_id":"levelo_inurba_marseille","lat":43.25929,"lon":5.40881,"is_reserved":false,"is_disabled":false,"rental_uris":{"android":"levelo://app?vid=4a17589c-288a-4fe3-bcca-b67dceeddf97","ios":"levelo://app?vid=4a17589c-288a-4fe3-bcca-b67dceeddf97"},"vehicle_type_id":"4","last_reported":1740568085,"current_range_meters":14800,"station_id":"ce4bhm92rcd13ifvqglg","pricing_plan_id":"cebpf4jnsgd1na2vs0mg"},{"bike_id":"02028f5d-7181-4e7f-80ba-abb06cf96801","system_id":"levelo_inurba_marseille","lat":43.28417,"lon":5.34989,"is_reserved":false,"is_disabled":false,"rental_uris":{"android":"levelo://app?vid=02028f5d-7181-4e7f-80ba-abb06cf96801","ios":"levelo://app?vid=02028f5d-7181-4e7f-80ba-abb06cf96801"},"vehicle_type_id":"4","last_reported":1740568085,"current_range_meters":14400,"station_id":"ce4bhbh2rcd13ifvqepg","pricing_plan_id":"cebpf4jnsgd1na2vs0mg"},{"bike_id":"63c8ba0d-ce67-4c29-9128-c215b6418dd4","system_id":"levelo_inurba_marseille","lat":43.2784,"lon":5.39217,"is_reserved":false,"is_disabled":false,"rental_uris":{"android":"levelo://app?vid=63c8ba0d-ce67-4c29-9128-c215b6418dd4","ios":"levelo://app?vid=63c8ba0d-ce67-4c29-9128-c215b6418dd4"},"vehicle_type_id":"4","last_reported":1740568085,"current_range_meters":14800,"station_id":"ce4bhjp2rcd13ifvqga0","pricing_plan_id":"cebpf4jnsgd1na2vs0mg"},{"bike_id":"72000b6c-0ef4-4759-8320-7a98812ea5ae","system_id":"levelo_inurba_marseille","lat":43.2857,"lon":5.37095,"is_reserved":false,"is_disabled":false,"rental_uris":{"android":"levelo://app?vid=72000b6c-0ef4-4759-8320-7a98812ea5ae","ios":"levelo://app?vid=72000b6c-0ef4-4759-8320-7a98812ea5ae"},"vehicle_type_id":"4","last_reported":1740568085,"current_range_meters":14800,"station_id":"ce4bht12rcd13ifvqi60","pricing_plan_id":"cebpf4jnsgd1na2vs0mg"},{"bike_id":"1ca5b1d5-5a53-46dd-b1b2-e83fd71df428","system_id":"levelo_inurba_marseille","lat":43.27958,"lon":5.41048,"is_reserved":false,"is_disabled":false,"rental_uris":{"android":"levelo://app?vid=1ca5b1d5-5a53-46dd-b1b2-e83fd71df428","ios":"levelo://app?vid=1ca5b1d5-5a53-46dd-b1b2-e83fd71df428"},"vehicle_type_id":"4","last_reported":1740568085,"current_range_meters":14800,"station_id":"ce4bhnp2rcd13ifvqh0g","pricing_plan_id":"cebpf4jnsgd1na2vs0mg"},{"bike_id":"b3b7c115-575b-4239-8c18-44054db2acb7","system_id":"levelo_inurba_marseille","lat":43.29302,"lon":5.37417,"is_reserved":false,"is_disabled":false,"rental_uris":{"android":"levelo://app?vid=b3b7c115-575b-4239-8c18-44054db2acb7","ios":"levelo://app?vid=b3b7c115-575b-4239-8c18-44054db2acb7"},"vehicle_type_id":"4","last_reported":1740568085,"current_range_meters":14800,"station_id":"ce4bgi12rcd13ifvqb70","pricing_plan_id":"cebpf4jnsgd1na2vs0mg"},{"bike_id":"ae82497d-81ac-4736-9e10-5c3a21213471","system_id":"levelo_inurba_marseille","lat":43.29312,"lon":5.3717,"is_reserved":false,"is_disabled":false,"rental_uris":{"android":"levelo://app?vid=ae82497d-81ac-4736-9e10-5c3a21213471","ios":"levelo://app?vid=ae82497d-81ac-4736-9e10-5c3a21213471"},"vehicle_type_id":"4","last_reported":1740568085,"current_range_meters":14000,"station_id":"ce4bgh92rcd13ifvqb40","pricing_plan_id":"cebpf4jnsgd1na2vs0mg"},{"bike_id":"f66913d8-adc8-4497-b81a-8613461ae8a9","system_id":"levelo_inurba_marseille","lat":43.28434,"lon":5.34995,"is_reserved":false,"is_disabled":false,"rental_uris":{"android":"levelo://app?vid=f66913d8-adc8-4497-b81a-8613461ae8a9","ios":"levelo://app?vid=f66913d8-adc8-4497-b81a-8613461ae8a9"},"vehicle_type_id":"4","last_reported":1740568085,"current_range_meters":14800,"station_id":"ce4bhbh2rcd13ifvqepg","pricing_plan_id":"cebpf4jnsgd1na2vs0mg"},{"bike_id":"620faf8f-9860-4e84-b6cd-4559a0b9a89c","system_id":"levelo_inurba_marseille","lat":43.32478,"lon":5.365453,"is_reserved":false,"is_disabled":false,"rental_uris":{"android":"levelo://app?vid=620faf8f-9860-4e84-b6cd-4559a0b9a89c","ios":"levelo://app?vid=620faf8f-9860-4e84-b6cd-4559a0b9a89c"},"vehicle_type_id":"4","last_reported":1740568085,"current_range_meters":14800,"station_id":"ce4bhs12rcd13ifvqhvg","pricing_plan_id":"cebpf4jnsgd1na2vs0mg"},{"bike_id":"0247b4bf-51a2-40e6-bc99-d2621e006172","system_id":"levelo_inurba_marseille","lat":43.27909,"lon":5.39579,"is_reserved":false,"is_disabled":false,"rental_uris":{"android":"levelo://app?vid=0247b4bf-51a2-40e6-bc99-d2621e006172","ios":"levelo://app?vid=0247b4bf-51a2-40e6-bc99-d2621e006172"},"vehicle_type_id":"4","last_reported":1740568085,"current_range_meters":14800,"station_id":"ce4bhf92rcd13ifvqf40","pricing_plan_id":"cebpf4jnsgd1na2vs0mg"},{"bike_id":"0161aece-6eb8-4ca1-be3c-9f2fcb2dc5fe","system_id":"levelo_inurba_marseille","lat":43.30311,"lon":5.36897,"is_reserved":false,"is_disabled":false,"rental_uris":{"android":"levelo://app?vid=0161aece-6eb8-4ca1-be3c-9f2fcb2dc5fe","ios":"levelo://app?vid=0161aece-6eb8-4ca1-be3c-9f2fcb2dc5fe"},"vehicle_type_id":"4","last_reported":1740568085,"current_range_meters":15200,"station_id":"ce4bgqh2rcd13ifvqc5g","pricing_plan_id":"cebpf4jnsgd1na2vs0mg"},{"bike_id":"dd9fe220-7a39-4ae0-83c8-f0c6a3675568","system_id":"levelo_inurba_marseille","lat":43.29368,"lon":5.378356,"is_reserved":false,"is_disabled":false,"rental_uris":{"android":"levelo://app?vid=dd9fe220-7a39-4ae0-83c8-f0c6a3675568","ios":"levelo://app?vid=dd9fe220-7a39-4ae0-83c8-f0c6a3675568"},"vehicle_type_id":"4","last_reported":1740568085,"current_range_meters":15200,"station_id":"ce4bgh92rcd13ifvqb50","pricing_plan_id":"cebpf4jnsgd1na2vs0mg"},{"bike_id":"89b1eb9a-bf92-4582-a1f6-a976f7501c41","system_id":"levelo_inurba_marseille","lat":43.29594,"lon":5.37721,"is_reserved":false,"is_disabled":false,"rental_uris":{"android":"levelo://app?vid=89b1eb9a-bf92-4582-a1f6-a976f7501c41","ios":"levelo://app?vid=89b1eb9a-bf92-4582-a1f6-a976f7501c41"},"vehicle_type_id":"4","last_reported":1740568085,"current_range_meters":15200,"station_id":"ce4bgi92rcd13ifvqb90","pricing_plan_id":"cebpf4jnsgd1na2vs0mg"},{"bike_id":"474cdf3b-0dd6-4cec-bf41-6146ab957ab7","system_id":"levelo_inurba_marseille","lat":43.337444,"lon":5.374475,"is_reserved":false,"is_disabled":false,"rental_uris":{"android":"levelo://app?vid=474cdf3b-0dd6-4cec-bf41-6146ab957ab7","ios":"levelo://app?vid=474cdf3b-0dd6-4cec-bf41-6146ab957ab7"},"vehicle_type_id":"4","last_reported":1740568085,"current_range_meters":15200,"station_id":"ce4bh0h2rcd13ifvqd50","pricing_plan_id":"cebpf4jnsgd1na2vs0mg"},{"bike_id":"0561577e-2525-455e-92b8-6da786fc4574","system_id":"levelo_inurba_marseille","lat":43.28149,"lon":5.42563,"is_reserved":false,"is_disabled":false,"rental_uris":{"android":"levelo://app?vid=0561577e-2525-455e-92b8-6da786fc4574","ios":"levelo://app?vid=0561577e-2525-455e-92b8-6da786fc4574"},"vehicle_type_id":"4","last_reported":1740568085,"current_range_meters":16000,"station_id":"","pricing_plan_id":"cebpf4jnsgd1na2vs0mg"},{"bike_id":"19e4983d-b74d-4524-9c14-80fb6905f947","system_id":"levelo_inurba_marseille","lat":43.32123,"lon":5.36784,"is_reserved":false,"is_disabled":false,"rental_uris":{"android":"levelo://app?vid=19e4983d-b74d-4524-9c14-80fb6905f947","ios":"levelo://app?vid=19e4983d-b74d-4524-9c14-80fb6905f947"},"vehicle_type_id":"4","last_reported":1740568085,"current_range_meters":16000,"station_id":"ce4bhrh2rcd13ifvqhug","pricing_plan_id":"cebpf4jnsgd1na2vs0mg"},{"bike_id":"40bd775e-5ce3-4948-be2f-acfa8e48e7a0","system_id":"levelo_inurba_marseille","lat":43.28625,"lon":5.35112,"is_reserved":false,"is_disabled":false,"rental_uris":{"android":"levelo://app?vid=40bd775e-5ce3-4948-be2f-acfa8e48e7a0","ios":"levelo://app?vid=40bd775e-5ce3-4948-be2f-acfa8e48e7a0"},"vehicle_type_id":"4","last_reported":1740568085,"current_range_meters":15200,"station_id":"ce4bhch2rcd13ifvqeug","pricing_plan_id":"cebpf4jnsgd1na2vs0mg"},{"bike_id":"3a90bf09-603f-48d0-885b-626d902772d5","system_id":"levelo_inurba_marseille","lat":43.2993,"lon":5.36543,"is_reserved":false,"is_disabled":false,"rental_uris":{"android":"levelo://app?vid=3a90bf09-603f-48d0-885b-626d902772d5","ios":"levelo://app?vid=3a90bf09-603f-48d0-885b-626d902772d5"},"vehicle_type_id":"4","last_reported":1740568085,"current_range_meters":16000,"station_id":"ce4bgm92rcd13ifvqbr0","pricing_plan_id":"cebpf4jnsgd1na2vs0mg"},{"bike_id":"dde4bb75-96fa-4181-9445-cd7388922872","system_id":"levelo_inurba_marseille","lat":43.30541,"lon":5.36704,"is_reserved":false,"is_disabled":false,"rental_uris":{"android":"levelo://app?vid=dde4bb75-96fa-4181-9445-cd7388922872","ios":"levelo://app?vid=dde4bb75-96fa-4181-9445-cd7388922872"},"vehicle_type_id":"4","last_reported":1740568085,"current_range_meters":16000,"station_id":"ce4bgrp2rcd13ifvqc9g","pricing_plan_id":"cebpf4jnsgd1na2vs0mg"},{"bike_id":"9dc7e2d5-119c-4c57-96cd-7fcca21c9c6c","system_id":"levelo_inurba_marseille","lat":43.32471,"lon":5.3658,"is_reserved":false,"is_disabled":false,"rental_uris":{"android":"levelo://app?vid=9dc7e2d5-119c-4c57-96cd-7fcca21c9c6c","ios":"levelo://app?vid=9dc7e2d5-119c-4c57-96cd-7fcca21c9c6c"},"vehicle_type_id":"4","last_reported":1740568085,"current_range_meters":16000,"station_id":"ce4bhs12rcd13ifvqhvg","pricing_plan_id":"cebpf4jnsgd1na2vs0mg"},{"bike_id":"3fefd632-ceb6-4e6f-ac3b-6af1be92e2b5","system_id":"levelo_inurba_marseille","lat":43.2318,"lon":5.399907,"is_reserved":false,"is_disabled":false,"rental_uris":{"android":"levelo://app?vid=3fefd632-ceb6-4e6f-ac3b-6af1be92e2b5","ios":"levelo://app?vid=3fefd632-ceb6-4e6f-ac3b-6af1be92e2b5"},"vehicle_type_id":"4","last_reported":1740568085,"current_range_meters":16000,"station_id":"ce4bhn12rcd13ifvqgqg","pricing_plan_id":"cebpf4jnsgd1na2vs0mg"},{"bike_id":"7111f83d-0417-4c1c-bfdf-a886949b1eaa","system_id":"levelo_inurba_marseille","lat":43.32322,"lon":5.38964,"is_reserved":false,"is_disabled":false,"rental_uris":{"android":"levelo://app?vid=7111f83d-0417-4c1c-bfdf-a886949b1eaa","ios":"levelo://app?vid=7111f83d-0417-4c1c-bfdf-a886949b1eaa"},"vehicle_type_id":"4","last_reported":1740568085,"current_range_meters":16000,"station_id":"","pricing_plan_id":"cebpf4jnsgd1na2vs0mg"},{"bike_id":"aada47c6-4b3a-41ce-97dd-a63194114a19","system_id":"levelo_inurba_marseille","lat":43.31272,"lon":5.40169,"is_reserved":false,"is_disabled":true,"rental_uris":{"android":"levelo://app?vid=aada47c6-4b3a-41ce-97dd-a63194114a19","ios":"levelo://app?vid=aada47c6-4b3a-41ce-97dd-a63194114a19"},"vehicle_type_id":"4","last_reported":1740568085,"current_range_meters":16000,"station_id":"ce4bh092rcd13ifvqd30","pricing_plan_id":"cebpf4jnsgd1na2vs0mg"},{"bike_id":"253556b6-1d1a-4c30-abed-a92a4ec9f963","system_id":"levelo_inurba_marseille","lat":43.27375,"lon":5.36256,"is_reserved":false,"is_disabled":false,"rental_uris":{"android":"levelo://app?vid=253556b6-1d1a-4c30-abed-a92a4ec9f963","ios":"levelo://app?vid=253556b6-1d1a-4c30-abed-a92a4ec9f963"},"vehicle_type_id":"4","last_reported":1740568085,"current_range_meters":16000,"station_id":"ce4bhbh2rcd13ifvqeo0","pricing_plan_id":"cebpf4jnsgd1na2vs0mg"},{"bike_id":"17973595-0627-4cbe-be09-6d52168568c1","system_id":"levelo_inurba_marseille","lat":43.27822,"lon":5.40705,"is_reserved":false,"is_disabled":false,"rental_uris":{"android":"levelo://app?vid=17973595-0627-4cbe-be09-6d52168568c1","ios":"levelo://app?vid=17973595-0627-4cbe-be09-6d52168568c1"},"vehicle_type_id":"4","last_reported":1740568085,"current_range_meters":16000,"station_id":"ce4bhnh2rcd13ifvqgtg","pricing_plan_id":"cebpf4jnsgd1na2vs0mg"},{"bike_id":"d79740e8-2b58-4dab-9092-7c075618d6db","system_id":"levelo_inurba_marseille","lat":43.23185,"lon":5.40006,"is_reserved":false,"is_disabled":false,"rental_uris":{"android":"levelo://app?vid=d79740e8-2b58-4dab-9092-7c075618d6db","ios":"levelo://app?vid=d79740e8-2b58-4dab-9092-7c075618d6db"},"vehicle_type_id":"4","last_reported":1740568085,"current_range_meters":16000,"station_id":"ce4bhn12rcd13ifvqgqg","pricing_plan_id":"cebpf4jnsgd1na2vs0mg"},{"bike_id":"41bcbd39-dc6c-4708-80c1-49116771c9e4","system_id":"levelo_inurba_marseille","lat":43.289427,"lon":5.366433,"is_reserved":false,"is_disabled":false,"rental_uris":{"android":"levelo://app?vid=41bcbd39-dc6c-4708-80c1-49116771c9e4","ios":"levelo://app?vid=41bcbd39-dc6c-4708-80c1-49116771c9e4"},"vehicle_type_id":"4","last_reported":1740568085,"current_range_meters":16000,"station_id":"ce4bhap2rcd13ifvqek0","pricing_plan_id":"cebpf4jnsgd1na2vs0mg"},{"bike_id":"3de3e986-c455-4d98-9263-5c53e913e249","system_id":"levelo_inurba_marseille","lat":43.30177,"lon":5.37549,"is_reserved":false,"is_disabled":false,"rental_uris":{"android":"levelo://app?vid=3de3e986-c455-4d98-9263-5c53e913e249","ios":"levelo://app?vid=3de3e986-c455-4d98-9263-5c53e913e249"},"vehicle_type_id":"4","last_reported":1740568085,"current_range_meters":14800,"station_id":"ce4bguh2rcd13ifvqcj0","pricing_plan_id":"cebpf4jnsgd1na2vs0mg"},{"bike_id":"f3c1842a-b552-4e04-b90a-c61f62f8a561","system_id":"levelo_inurba_marseille","lat":43.26226,"lon":5.37436,"is_reserved":false,"is_disabled":false,"rental_uris":{"android":"levelo://app?vid=f3c1842a-b552-4e04-b90a-c61f62f8a561","ios":"levelo://app?vid=f3c1842a-b552-4e04-b90a-c61f62f8a561"},"vehicle_type_id":"4","last_reported":1740568085,"current_range_meters":16400,"station_id":"ce4bhgp2rcd13ifvqfc0","pricing_plan_id":"cebpf4jnsgd1na2vs0mg"},{"bike_id":"c653bffd-d711-4c0b-9be3-ba0ded1a55f8","system_id":"levelo_inurba_marseille","lat":43.27936,"lon":5.41033,"is_reserved":false,"is_disabled":false,"rental_uris":{"android":"levelo://app?vid=c653bffd-d711-4c0b-9be3-ba0ded1a55f8","ios":"levelo://app?vid=c653bffd-d711-4c0b-9be3-ba0ded1a55f8"},"vehicle_type_id":"4","last_reported":1740568085,"current_range_meters":16800,"station_id":"ce4bhnp2rcd13ifvqh0g","pricing_plan_id":"cebpf4jnsgd1na2vs0mg"},{"bike_id":"8f78c34b-f56e-480b-98c4-79394adb6849","system_id":"levelo_inurba_marseille","lat":43.27994,"lon":5.40006,"is_reserved":false,"is_disabled":false,"rental_uris":{"android":"levelo://app?vid=8f78c34b-f56e-480b-98c4-79394adb6849","ios":"levelo://app?vid=8f78c34b-f56e-480b-98c4-79394adb6849"},"vehicle_type_id":"4","last_reported":1740568085,"current_range_meters":16400,"station_id":"ce4bho92rcd13ifvqh4g","pricing_plan_id":"cebpf4jnsgd1na2vs0mg"},{"bike_id":"ec93b1ef-29a7-4f33-9814-2d676efe237f","system_id":"levelo_inurba_marseille","lat":43.27062,"lon":5.40265,"is_reserved":false,"is_disabled":false,"rental_uris":{"android":"levelo://app?vid=ec93b1ef-29a7-4f33-9814-2d676efe237f","ios":"levelo://app?vid=ec93b1ef-29a7-4f33-9814-2d676efe237f"},"vehicle_type_id":"4","last_reported":1740568085,"current_range_meters":16400,"station_id":"ce4bhk92rcd13ifvqgc0","pricing_plan_id":"cebpf4jnsgd1na2vs0mg"},{"bike_id":"d0eed576-967a-4a22-90f0-1b8c0372f57a","system_id":"levelo_inurba_marseille","lat":43.2495,"lon":5.3894,"is_reserved":false,"is_disabled":false,"rental_uris":{"android":"levelo://app?vid=d0eed576-967a-4a22-90f0-1b8c0372f57a","ios":"levelo://app?vid=d0eed576-967a-4a22-90f0-1b8c0372f57a"},"vehicle_type_id":"4","last_reported":1740568085,"current_range_meters":16800,"station_id":"ce4bhgp2rcd13ifvqfd0","pricing_plan_id":"cebpf4jnsgd1na2vs0mg"},{"bike_id":"f830330f-1c0d-48cd-83d5-9a84e7387174","system_id":"levelo_inurba_marseille","lat":43.28403,"lon":5.37511,"is_reserved":false,"is_disabled":false,"rental_uris":{"android":"levelo://app?vid=f830330f-1c0d-48cd-83d5-9a84e7387174","ios":"levelo://app?vid=f830330f-1c0d-48cd-83d5-9a84e7387174"},"vehicle_type_id":"4","last_reported":1740568085,"current_range_meters":16800,"station_id":"ce4bh412rcd13ifvqds0","pricing_plan_id":"cebpf4jnsgd1na2vs0mg"},{"bike_id":"7f5dbe42-da8b-47f5-9beb-ac4cf767c9c8","system_id":"levelo_inurba_marseille","lat":43.31219,"lon":5.3683,"is_reserved":false,"is_disabled":false,"rental_uris":{"android":"levelo://app?vid=7f5dbe42-da8b-47f5-9beb-ac4cf767c9c8","ios":"levelo://app?vid=7f5dbe42-da8b-47f5-9beb-ac4cf767c9c8"},"vehicle_type_id":"4","last_reported":1740568085,"current_range_meters":16800,"station_id":"ce4bgl92rcd13ifvqbq0","pricing_plan_id":"cebpf4jnsgd1na2vs0mg"},{"bike_id":"f35d6126-178c-4c08-8343-6bcc4ce94aad","system_id":"levelo_inurba_marseille","lat":43.24192,"lon":5.39721,"is_reserved":false,"is_disabled":false,"rental_uris":{"android":"levelo://app?vid=f35d6126-178c-4c08-8343-6bcc4ce94aad","ios":"levelo://app?vid=f35d6126-178c-4c08-8343-6bcc4ce94aad"},"vehicle_type_id":"4","last_reported":1740568085,"current_range_meters":17200,"station_id":"ce4bhn12rcd13ifvqgpg","pricing_plan_id":"cebpf4jnsgd1na2vs0mg"},{"bike_id":"c1f5384a-71a2-4dad-80de-d395c09980f5","system_id":"levelo_inurba_marseille","lat":43.31371,"lon":5.36697,"is_reserved":false,"is_disabled":false,"rental_uris":{"android":"levelo://app?vid=c1f5384a-71a2-4dad-80de-d395c09980f5","ios":"levelo://app?vid=c1f5384a-71a2-4dad-80de-d395c09980f5"},"vehicle_type_id":"4","last_reported":1740568085,"current_range_meters":16800,"station_id":"ce4bgr92rcd13ifvqc6g","pricing_plan_id":"cebpf4jnsgd1na2vs0mg"},{"bike_id":"10f5d0c6-cb88-4c92-a25e-ea127da3caf6","system_id":"levelo_inurba_marseille","lat":43.23063,"lon":5.35491,"is_reserved":false,"is_disabled":false,"rental_uris":{"android":"levelo://app?vid=10f5d0c6-cb88-4c92-a25e-ea127da3caf6","ios":"levelo://app?vid=10f5d0c6-cb88-4c92-a25e-ea127da3caf6"},"vehicle_type_id":"4","last_reported":1740568085,"current_range_meters":16800,"station_id":"cpo3342slgdg3j2ifvpg","pricing_plan_id":"cebpf4jnsgd1na2vs0mg"},{"bike_id":"6578fd60-843d-47ee-9c6d-63ad8e946af2","system_id":"levelo_inurba_marseille","lat":43.30901,"lon":5.37168,"is_reserved":false,"is_disabled":false,"rental_uris":{"android":"levelo://app?vid=6578fd60-843d-47ee-9c6d-63ad8e946af2","ios":"levelo://app?vid=6578fd60-843d-47ee-9c6d-63ad8e946af2"},"vehicle_type_id":"4","last_reported":1740568085,"current_range_meters":16800,"station_id":"ce4bguh2rcd13ifvqckg","pricing_plan_id":"cebpf4jnsgd1na2vs0mg"},{"bike_id":"323eaf4c-5f93-49ac-8c47-a44e54e85524","system_id":"levelo_inurba_marseille","lat":43.28698,"lon":5.39991,"is_reserved":false,"is_disabled":false,"rental_uris":{"android":"levelo://app?vid=323eaf4c-5f93-49ac-8c47-a44e54e85524","ios":"levelo://app?vid=323eaf4c-5f93-49ac-8c47-a44e54e85524"},"vehicle_type_id":"4","last_reported":1740568085,"current_range_meters":16800,"station_id":"ce4bho92rcd13ifvqh3g","pricing_plan_id":"cebpf4jnsgd1na2vs0mg"},{"bike_id":"9eb63fb4-7dd1-4ed8-8c98-37f9165028cf","system_id":"levelo_inurba_marseille","lat":43.31761,"lon":5.39009,"is_reserved":false,"is_disabled":false,"rental_uris":{"android":"levelo://app?vid=9eb63fb4-7dd1-4ed8-8c98-37f9165028cf","ios":"levelo://app?vid=9eb63fb4-7dd1-4ed8-8c98-37f9165028cf"},"vehicle_type_id":"4","last_reported":1740568085,"current_range_meters":17200,"station_id":"ce4bhqp2rcd13ifvqhng","pricing_plan_id":"cebpf4jnsgd1na2vs0mg"},{"bike_id":"072059ca-b533-4201-a9d8-cc256662ae7d","system_id":"levelo_inurba_marseille","lat":43.23144,"lon":5.43708,"is_reserved":false,"is_disabled":false,"rental_uris":{"android":"levelo://app?vid=072059ca-b533-4201-a9d8-cc256662ae7d","ios":"levelo://app?vid=072059ca-b533-4201-a9d8-cc256662ae7d"},"vehicle_type_id":"4","last_reported":1740568085,"current_range_meters":17200,"station_id":"ce4bhmp2rcd13ifvqgog","pricing_plan_id":"cebpf4jnsgd1na2vs0mg"},{"bike_id":"141eca31-2aaa-475f-aa0c-0ad037dc7734","system_id":"levelo_inurba_marseille","lat":43.27055,"lon":5.40253,"is_reserved":false,"is_disabled":false,"rental_uris":{"android":"levelo://app?vid=141eca31-2aaa-475f-aa0c-0ad037dc7734","ios":"levelo://app?vid=141eca31-2aaa-475f-aa0c-0ad037dc7734"},"vehicle_type_id":"4","last_reported":1740568085,"current_range_meters":17600,"station_id":"ce4bhk92rcd13ifvqgc0","pricing_plan_id":"cebpf4jnsgd1na2vs0mg"},{"bike_id":"f1de0992-68c7-4ed1-bdd1-630b39d23f3a","system_id":"levelo_inurba_marseille","lat":43.29283,"lon":5.3742,"is_reserved":false,"is_disabled":false,"rental_uris":{"android":"levelo://app?vid=f1de0992-68c7-4ed1-bdd1-630b39d23f3a","ios":"levelo://app?vid=f1de0992-68c7-4ed1-bdd1-630b39d23f3a"},"vehicle_type_id":"4","last_reported":1740568085,"current_range_meters":17200,"station_id":"ce4bgi12rcd13ifvqb70","pricing_plan_id":"cebpf4jnsgd1na2vs0mg"},{"bike_id":"d52621a7-0a55-4e5b-8a76-da13389902cc","system_id":"levelo_inurba_marseille","lat":43.25364,"lon":5.42611,"is_reserved":false,"is_disabled":false,"rental_uris":{"android":"levelo://app?vid=d52621a7-0a55-4e5b-8a76-da13389902cc","ios":"levelo://app?vid=d52621a7-0a55-4e5b-8a76-da13389902cc"},"vehicle_type_id":"4","last_reported":1740568085,"current_range_meters":17200,"station_id":"","pricing_plan_id":"cebpf4jnsgd1na2vs0mg"},{"bike_id":"c960a6fc-b546-4c93-a520-c1731c5fec94","system_id":"levelo_inurba_marseille","lat":43.28419,"lon":5.34986,"is_reserved":false,"is_disabled":false,"rental_uris":{"android":"levelo://app?vid=c960a6fc-b546-4c93-a520-c1731c5fec94","ios":"levelo://app?vid=c960a6fc-b546-4c93-a520-c1731c5fec94"},"vehicle_type_id":"4","last_reported":1740568085,"current_range_meters":17600,"station_id":"ce4bhbh2rcd13ifvqepg","pricing_plan_id":"cebpf4jnsgd1na2vs0mg"},{"bike_id":"77f321bc-ad57-48ab-99f2-dd0491f873a5","system_id":"levelo_inurba_marseille","lat":43.27918,"lon":5.39578,"is_reserved":false,"is_disabled":false,"rental_uris":{"android":"levelo://app?vid=77f321bc-ad57-48ab-99f2-dd0491f873a5","ios":"levelo://app?vid=77f321bc-ad57-48ab-99f2-dd0491f873a5"},"vehicle_type_id":"4","last_reported":1740568085,"current_range_meters":17200,"station_id":"ce4bhf92rcd13ifvqf40","pricing_plan_id":"cebpf4jnsgd1na2vs0mg"},{"bike_id":"6b609c9a-c965-4526-aac1-b7b3847f259e","system_id":"levelo_inurba_marseille","lat":43.24798,"lon":5.37457,"is_reserved":false,"is_disabled":false,"rental_uris":{"android":"levelo://app?vid=6b609c9a-c965-4526-aac1-b7b3847f259e","ios":"levelo://app?vid=6b609c9a-c965-4526-aac1-b7b3847f259e"},"vehicle_type_id":"4","last_reported":1740568085,"current_range_meters":17200,"station_id":"ce4bhgh2rcd13ifvqfb0","pricing_plan_id":"cebpf4jnsgd1na2vs0mg"},{"bike_id":"7d99f3d8-234e-4d01-b370-daaf67258659","system_id":"levelo_inurba_marseille","lat":43.27057,"lon":5.40267,"is_reserved":false,"is_disabled":false,"rental_uris":{"android":"levelo://app?vid=7d99f3d8-234e-4d01-b370-daaf67258659","ios":"levelo://app?vid=7d99f3d8-234e-4d01-b370-daaf67258659"},"vehicle_type_id":"4","last_reported":1740568085,"current_range_meters":18000,"station_id":"ce4bhk92rcd13ifvqgc0","pricing_plan_id":"cebpf4jnsgd1na2vs0mg"},{"bike_id":"32022f30-217e-4459-b186-dd7b6ca601cd","system_id":"levelo_inurba_marseille","lat":43.27808,"lon":5.40705,"is_reserved":false,"is_disabled":false,"rental_uris":{"android":"levelo://app?vid=32022f30-217e-4459-b186-dd7b6ca601cd","ios":"levelo://app?vid=32022f30-217e-4459-b186-dd7b6ca601cd"},"vehicle_type_id":"4","last_reported":1740568085,"current_range_meters":17600,"station_id":"ce4bhnh2rcd13ifvqgtg","pricing_plan_id":"cebpf4jnsgd1na2vs0mg"},{"bike_id":"a567e915-6ada-49d9-8a11-d1ea39f71022","system_id":"levelo_inurba_marseille","lat":43.30576,"lon":5.3669,"is_reserved":false,"is_disabled":false,"rental_uris":{"android":"levelo://app?vid=a567e915-6ada-49d9-8a11-d1ea39f71022","ios":"levelo://app?vid=a567e915-6ada-49d9-8a11-d1ea39f71022"},"vehicle_type_id":"4","last_reported":1740568085,"current_range_meters":17600,"station_id":"ce4bgrp2rcd13ifvqc9g","pricing_plan_id":"cebpf4jnsgd1na2vs0mg"},{"bike_id":"ee7498ac-afae-4101-a827-ddb2ec43033c","system_id":"levelo_inurba_marseille","lat":43.23178,"lon":5.40003,"is_reserved":false,"is_disabled":false,"rental_uris":{"android":"levelo://app?vid=ee7498ac-afae-4101-a827-ddb2ec43033c","ios":"levelo://app?vid=ee7498ac-afae-4101-a827-ddb2ec43033c"},"vehicle_type_id":"4","last_reported":1740568085,"current_range_meters":17600,"station_id":"ce4bhn12rcd13ifvqgqg","pricing_plan_id":"cebpf4jnsgd1na2vs0mg"},{"bike_id":"c72b354a-7ac8-4b70-a688-e6c0ed969746","system_id":"levelo_inurba_marseille","lat":43.29303,"lon":5.37173,"is_reserved":false,"is_disabled":true,"rental_uris":{"android":"levelo://app?vid=c72b354a-7ac8-4b70-a688-e6c0ed969746","ios":"levelo://app?vid=c72b354a-7ac8-4b70-a688-e6c0ed969746"},"vehicle_type_id":"4","last_reported":1740568085,"current_range_meters":17600,"station_id":"ce4bgh92rcd13ifvqb40","pricing_plan_id":"cebpf4jnsgd1na2vs0mg"},{"bike_id":"5ddfb0eb-6550-4ea6-9042-f8488447ba9b","system_id":"levelo_inurba_marseille","lat":43.27427,"lon":5.39418,"is_reserved":false,"is_disabled":false,"rental_uris":{"android":"levelo://app?vid=5ddfb0eb-6550-4ea6-9042-f8488447ba9b","ios":"levelo://app?vid=5ddfb0eb-6550-4ea6-9042-f8488447ba9b"},"vehicle_type_id":"4","last_reported":1740568085,"current_range_meters":17200,"station_id":"ce4bhdp2rcd13ifvqf20","pricing_plan_id":"cebpf4jnsgd1na2vs0mg"},{"bike_id":"429ee922-7fea-4f5e-928b-246afb71ce72","system_id":"levelo_inurba_marseille","lat":43.24657,"lon":5.38158,"is_reserved":false,"is_disabled":false,"rental_uris":{"android":"levelo://app?vid=429ee922-7fea-4f5e-928b-246afb71ce72","ios":"levelo://app?vid=429ee922-7fea-4f5e-928b-246afb71ce72"},"vehicle_type_id":"4","last_reported":1740568085,"current_range_meters":18000,"station_id":"ce4bhih2rcd13ifvqfr0","pricing_plan_id":"cebpf4jnsgd1na2vs0mg"},{"bike_id":"04967103-1ea7-4f7a-be85-126c298c8066","system_id":"levelo_inurba_marseille","lat":43.27065,"lon":5.40264,"is_reserved":false,"is_disabled":false,"rental_uris":{"android":"levelo://app?vid=04967103-1ea7-4f7a-be85-126c298c8066","ios":"levelo://app?vid=04967103-1ea7-4f7a-be85-126c298c8066"},"vehicle_type_id":"4","last_reported":1740568085,"current_range_meters":18000,"station_id":"ce4bhk92rcd13ifvqgc0","pricing_plan_id":"cebpf4jnsgd1na2vs0mg"},{"bike_id":"be3ca2a8-03f9-4a56-9da4-e36c8c0166a0","system_id":"levelo_inurba_marseille","lat":43.28276,"lon":5.3507,"is_reserved":false,"is_disabled":true,"rental_uris":{"android":"levelo://app?vid=be3ca2a8-03f9-4a56-9da4-e36c8c0166a0","ios":"levelo://app?vid=be3ca2a8-03f9-4a56-9da4-e36c8c0166a0"},"vehicle_type_id":"4","last_reported":1740568085,"current_range_meters":18800,"station_id":"ce4bhbp2rcd13ifvqerg","pricing_plan_id":"cebpf4jnsgd1na2vs0mg"},{"bike_id":"f9960b39-a005-483a-9711-897b2b03b323","system_id":"levelo_inurba_marseille","lat":43.28354,"lon":5.3861,"is_reserved":false,"is_disabled":true,"rental_uris":{"android":"levelo://app?vid=f9960b39-a005-483a-9711-897b2b03b323","ios":"levelo://app?vid=f9960b39-a005-483a-9711-897b2b03b323"},"vehicle_type_id":"4","last_reported":1740568085,"current_range_meters":18800,"station_id":"ce4bh492rcd13ifvqdvg","pricing_plan_id":"cebpf4jnsgd1na2vs0mg"},{"bike_id":"d5a8f176-d76d-4fc9-bde3-28a87d06bace","system_id":"levelo_inurba_marseille","lat":43.30086,"lon":5.3775,"is_reserved":false,"is_disabled":false,"rental_uris":{"android":"levelo://app?vid=d5a8f176-d76d-4fc9-bde3-28a87d06bace","ios":"levelo://app?vid=d5a8f176-d76d-4fc9-bde3-28a87d06bace"},"vehicle_type_id":"4","last_reported":1740568085,"current_range_meters":19200,"station_id":"","pricing_plan_id":"cebpf4jnsgd1na2vs0mg"},{"bike_id":"5825a8e4-3167-4f2f-9395-adcae6742bfd","system_id":"levelo_inurba_marseille","lat":43.29302,"lon":5.38534,"is_reserved":false,"is_disabled":false,"rental_uris":{"android":"levelo://app?vid=5825a8e4-3167-4f2f-9395-adcae6742bfd","ios":"levelo://app?vid=5825a8e4-3167-4f2f-9395-adcae6742bfd"},"vehicle_type_id":"4","last_reported":1740568085,"current_range_meters":18800,"station_id":"ce4bh692rcd13ifvqea0","pricing_plan_id":"cebpf4jnsgd1na2vs0mg"},{"bike_id":"d7e0b409-01a8-411c-82b7-803a96f92a49","system_id":"levelo_inurba_marseille","lat":43.31759,"lon":5.39014,"is_reserved":false,"is_disabled":false,"rental_uris":{"android":"levelo://app?vid=d7e0b409-01a8-411c-82b7-803a96f92a49","ios":"levelo://app?vid=d7e0b409-01a8-411c-82b7-803a96f92a49"},"vehicle_type_id":"4","last_reported":1740568085,"current_range_meters":18800,"station_id":"ce4bhqp2rcd13ifvqhng","pricing_plan_id":"cebpf4jnsgd1na2vs0mg"},{"bike_id":"f5900fd7-5ebc-4e9b-ae58-1b8e740df4a2","system_id":"levelo_inurba_marseille","lat":43.27831,"lon":5.4072,"is_reserved":false,"is_disabled":false,"rental_uris":{"android":"levelo://app?vid=f5900fd7-5ebc-4e9b-ae58-1b8e740df4a2","ios":"levelo://app?vid=f5900fd7-5ebc-4e9b-ae58-1b8e740df4a2"},"vehicle_type_id":"4","last_reported":1740568085,"current_range_meters":18800,"station_id":"ce4bhnh2rcd13ifvqgtg","pricing_plan_id":"cebpf4jnsgd1na2vs0mg"},{"bike_id":"74edbbca-361e-4908-9052-c391ebb2fb2e","system_id":"levelo_inurba_marseille","lat":43.2704,"lon":5.40273,"is_reserved":false,"is_disabled":false,"rental_uris":{"android":"levelo://app?vid=74edbbca-361e-4908-9052-c391ebb2fb2e","ios":"levelo://app?vid=74edbbca-361e-4908-9052-c391ebb2fb2e"},"vehicle_type_id":"4","last_reported":1740568085,"current_range_meters":18800,"station_id":"ce4bhk92rcd13ifvqgc0","pricing_plan_id":"cebpf4jnsgd1na2vs0mg"},{"bike_id":"073fd89f-a8da-43ac-848c-066e8930144c","system_id":"levelo_inurba_marseille","lat":43.286661,"lon":5.363434,"is_reserved":false,"is_disabled":false,"rental_uris":{"android":"levelo://app?vid=073fd89f-a8da-43ac-848c-066e8930144c","ios":"levelo://app?vid=073fd89f-a8da-43ac-848c-066e8930144c"},"vehicle_type_id":"4","last_reported":1740568085,"current_range_meters":18800,"station_id":"ce4bhah2rcd13ifvqei0","pricing_plan_id":"cebpf4jnsgd1na2vs0mg"},{"bike_id":"93e93066-e769-4d3a-99b8-d15bc7582c7e","system_id":"levelo_inurba_marseille","lat":43.24998,"lon":5.38932,"is_reserved":false,"is_disabled":false,"rental_uris":{"android":"levelo://app?vid=93e93066-e769-4d3a-99b8-d15bc7582c7e","ios":"levelo://app?vid=93e93066-e769-4d3a-99b8-d15bc7582c7e"},"vehicle_type_id":"4","last_reported":1740568085,"current_range_meters":17600,"station_id":"ce4bhgp2rcd13ifvqfd0","pricing_plan_id":"cebpf4jnsgd1na2vs0mg"},{"bike_id":"c347de43-65e2-490b-b05e-188aa167e6ac","system_id":"levelo_inurba_marseille","lat":43.27931,"lon":5.41059,"is_reserved":false,"is_disabled":false,"rental_uris":{"android":"levelo://app?vid=c347de43-65e2-490b-b05e-188aa167e6ac","ios":"levelo://app?vid=c347de43-65e2-490b-b05e-188aa167e6ac"},"vehicle_type_id":"4","last_reported":1740568085,"current_range_meters":18800,"station_id":"ce4bhnp2rcd13ifvqh0g","pricing_plan_id":"cebpf4jnsgd1na2vs0mg"},{"bike_id":"e1f7705e-556a-40f8-84de-becbe6858444","system_id":"levelo_inurba_marseille","lat":43.28453,"lon":5.3589,"is_reserved":false,"is_disabled":false,"rental_uris":{"android":"levelo://app?vid=e1f7705e-556a-40f8-84de-becbe6858444","ios":"levelo://app?vid=e1f7705e-556a-40f8-84de-becbe6858444"},"vehicle_type_id":"4","last_reported":1740568085,"current_range_meters":19200,"station_id":"ce4bhah2rcd13ifvqei0","pricing_plan_id":"cebpf4jnsgd1na2vs0mg"},{"bike_id":"16990322-ab37-4674-a8cd-aff7030b9b87","system_id":"levelo_inurba_marseille","lat":43.26572,"lon":5.39017,"is_reserved":false,"is_disabled":false,"rental_uris":{"android":"levelo://app?vid=16990322-ab37-4674-a8cd-aff7030b9b87","ios":"levelo://app?vid=16990322-ab37-4674-a8cd-aff7030b9b87"},"vehicle_type_id":"4","last_reported":1740568085,"current_range_meters":19200,"station_id":"ce4bhe12rcd13ifvqf30","pricing_plan_id":"cebpf4jnsgd1na2vs0mg"},{"bike_id":"e68b130a-b793-4ad1-a2a7-407699b0db50","system_id":"levelo_inurba_marseille","lat":43.27988,"lon":5.41657,"is_reserved":false,"is_disabled":false,"rental_uris":{"android":"levelo://app?vid=e68b130a-b793-4ad1-a2a7-407699b0db50","ios":"levelo://app?vid=e68b130a-b793-4ad1-a2a7-407699b0db50"},"vehicle_type_id":"4","last_reported":1740568085,"current_range_meters":19200,"station_id":"ce4bho12rcd13ifvqh1g","pricing_plan_id":"cebpf4jnsgd1na2vs0mg"},{"bike_id":"cf47d281-4047-4764-9616-c51387820c8e","system_id":"levelo_inurba_marseille","lat":43.25503,"lon":5.37649,"is_reserved":false,"is_disabled":false,"rental_uris":{"android":"levelo://app?vid=cf47d281-4047-4764-9616-c51387820c8e","ios":"levelo://app?vid=cf47d281-4047-4764-9616-c51387820c8e"},"vehicle_type_id":"4","last_reported":1740568085,"current_range_meters":18800,"station_id":"ce4bhh12rcd13ifvqff0","pricing_plan_id":"cebpf4jnsgd1na2vs0mg"},{"bike_id":"b597206e-3344-4293-895e-fd9a2b396685","system_id":"levelo_inurba_marseille","lat":43.30414,"lon":5.41283,"is_reserved":false,"is_disabled":false,"rental_uris":{"android":"levelo://app?vid=b597206e-3344-4293-895e-fd9a2b396685","ios":"levelo://app?vid=b597206e-3344-4293-895e-fd9a2b396685"},"vehicle_type_id":"4","last_reported":1740568085,"current_range_meters":19200,"station_id":"ce4bhop2rcd13ifvqh8g","pricing_plan_id":"cebpf4jnsgd1na2vs0mg"},{"bike_id":"ad3dce2a-2da9-4f06-ba15-8e3c8476a01f","system_id":"levelo_inurba_marseille","lat":43.28472,"lon":5.38416,"is_reserved":false,"is_disabled":false,"rental_uris":{"android":"levelo://app?vid=ad3dce2a-2da9-4f06-ba15-8e3c8476a01f","ios":"levelo://app?vid=ad3dce2a-2da9-4f06-ba15-8e3c8476a01f"},"vehicle_type_id":"4","last_reported":1740568085,"current_range_meters":18800,"station_id":"ce4bh512rcd13ifvqe3g","pricing_plan_id":"cebpf4jnsgd1na2vs0mg"},{"bike_id":"3de9aeda-1f9a-4bbc-8b90-e02a49e56ca9","system_id":"levelo_inurba_marseille","lat":43.23187,"lon":5.35559,"is_reserved":false,"is_disabled":false,"rental_uris":{"android":"levelo://app?vid=3de9aeda-1f9a-4bbc-8b90-e02a49e56ca9","ios":"levelo://app?vid=3de9aeda-1f9a-4bbc-8b90-e02a49e56ca9"},"vehicle_type_id":"4","last_reported":1740568085,"current_range_meters":19200,"station_id":"ce4bhu92rcd13ifvqi70","pricing_plan_id":"cebpf4jnsgd1na2vs0mg"},{"bike_id":"913fc09d-bddf-44d2-bba3-47ceefbc4155","system_id":"levelo_inurba_marseille","lat":43.29562,"lon":5.39972,"is_reserved":false,"is_disabled":false,"rental_uris":{"android":"levelo://app?vid=913fc09d-bddf-44d2-bba3-47ceefbc4155","ios":"levelo://app?vid=913fc09d-bddf-44d2-bba3-47ceefbc4155"},"vehicle_type_id":"4","last_reported":1740568085,"current_range_meters":19200,"station_id":"ce4bh312rcd13ifvqdj0","pricing_plan_id":"cebpf4jnsgd1na2vs0mg"},{"bike_id":"2e49ef0c-587a-419e-8a43-6543560732af","system_id":"levelo_inurba_marseille","lat":43.29304,"lon":5.3744,"is_reserved":false,"is_disabled":false,"rental_uris":{"android":"levelo://app?vid=2e49ef0c-587a-419e-8a43-6543560732af","ios":"levelo://app?vid=2e49ef0c-587a-419e-8a43-6543560732af"},"vehicle_type_id":"4","last_reported":1740568085,"current_range_meters":19200,"station_id":"ce4bgi12rcd13ifvqb70","pricing_plan_id":"cebpf4jnsgd1na2vs0mg"},{"bike_id":"22093035-f134-4c2f-b11f-29b8fd35c2f5","system_id":"levelo_inurba_marseille","lat":43.30878,"lon":5.39628,"is_reserved":false,"is_disabled":false,"rental_uris":{"android":"levelo://app?vid=22093035-f134-4c2f-b11f-29b8fd35c2f5","ios":"levelo://app?vid=22093035-f134-4c2f-b11f-29b8fd35c2f5"},"vehicle_type_id":"4","last_reported":1740568085,"current_range_meters":18000,"station_id":"ce4bh012rcd13ifvqcv0","pricing_plan_id":"cebpf4jnsgd1na2vs0mg"},{"bike_id":"201b43e1-9166-4b93-9ecb-211bb1985890","system_id":"levelo_inurba_marseille","lat":43.32361,"lon":5.36767,"is_reserved":false,"is_disabled":false,"rental_uris":{"android":"levelo://app?vid=201b43e1-9166-4b93-9ecb-211bb1985890","ios":"levelo://app?vid=201b43e1-9166-4b93-9ecb-211bb1985890"},"vehicle_type_id":"4","last_reported":1740568085,"current_range_meters":19600,"station_id":"ce4bhsh2rcd13ifvqi2g","pricing_plan_id":"cebpf4jnsgd1na2vs0mg"},{"bike_id":"245c9ee4-a552-4737-8cda-71747db953a0","system_id":"levelo_inurba_marseille","lat":43.24999,"lon":5.38931,"is_reserved":false,"is_disabled":false,"rental_uris":{"android":"levelo://app?vid=245c9ee4-a552-4737-8cda-71747db953a0","ios":"levelo://app?vid=245c9ee4-a552-4737-8cda-71747db953a0"},"vehicle_type_id":"4","last_reported":1740568085,"current_range_meters":19200,"station_id":"ce4bhgp2rcd13ifvqfd0","pricing_plan_id":"cebpf4jnsgd1na2vs0mg"},{"bike_id":"5e8fa036-daa9-487b-a154-3693a3d1f474","system_id":"levelo_inurba_marseille","lat":43.30224,"lon":5.36637,"is_reserved":false,"is_disabled":false,"rental_uris":{"android":"levelo://app?vid=5e8fa036-daa9-487b-a154-3693a3d1f474","ios":"levelo://app?vid=5e8fa036-daa9-487b-a154-3693a3d1f474"},"vehicle_type_id":"4","last_reported":1740568085,"current_range_meters":19600,"station_id":"ce4bgrh2rcd13ifvqc8g","pricing_plan_id":"cebpf4jnsgd1na2vs0mg"},{"bike_id":"34fb50dd-9dd3-46a2-85e5-57947db9240d","system_id":"levelo_inurba_marseille","lat":43.30458,"lon":5.37914,"is_reserved":false,"is_disabled":false,"rental_uris":{"android":"levelo://app?vid=34fb50dd-9dd3-46a2-85e5-57947db9240d","ios":"levelo://app?vid=34fb50dd-9dd3-46a2-85e5-57947db9240d"},"vehicle_type_id":"4","last_reported":1740568085,"current_range_meters":19600,"station_id":"ce4bgup2rcd13ifvqcn0","pricing_plan_id":"cebpf4jnsgd1na2vs0mg"},{"bike_id":"40e25f70-02b5-4811-add6-6e8dbc26a035","system_id":"levelo_inurba_marseille","lat":43.28443,"lon":5.34976,"is_reserved":false,"is_disabled":false,"rental_uris":{"android":"levelo://app?vid=40e25f70-02b5-4811-add6-6e8dbc26a035","ios":"levelo://app?vid=40e25f70-02b5-4811-add6-6e8dbc26a035"},"vehicle_type_id":"4","last_reported":1740568085,"current_range_meters":20000,"station_id":"ce4bhbh2rcd13ifvqepg","pricing_plan_id":"cebpf4jnsgd1na2vs0mg"},{"bike_id":"24be9919-05b1-4ae5-bf47-0d107e0fc8a8","system_id":"levelo_inurba_marseille","lat":43.29276,"lon":5.36094,"is_reserved":false,"is_disabled":false,"rental_uris":{"android":"levelo://app?vid=24be9919-05b1-4ae5-bf47-0d107e0fc8a8","ios":"levelo://app?vid=24be9919-05b1-4ae5-bf47-0d107e0fc8a8"},"vehicle_type_id":"4","last_reported":1740568085,"current_range_meters":20000,"station_id":"ce4bhbh2rcd13ifvqeqg","pricing_plan_id":"cebpf4jnsgd1na2vs0mg"},{"bike_id":"ca2319ce-15bc-419c-bc45-b8d45416be95","system_id":"levelo_inurba_marseille","lat":43.25489,"lon":5.37658,"is_reserved":false,"is_disabled":false,"rental_uris":{"android":"levelo://app?vid=ca2319ce-15bc-419c-bc45-b8d45416be95","ios":"levelo://app?vid=ca2319ce-15bc-419c-bc45-b8d45416be95"},"vehicle_type_id":"4","last_reported":1740568085,"current_range_meters":20000,"station_id":"ce4bhh12rcd13ifvqff0","pricing_plan_id":"cebpf4jnsgd1na2vs0mg"},{"bike_id":"d337cc62-b29d-4e4a-bd4f-e767bd643d41","system_id":"levelo_inurba_marseille","lat":43.32113,"lon":5.36783,"is_reserved":false,"is_disabled":false,"rental_uris":{"android":"levelo://app?vid=d337cc62-b29d-4e4a-bd4f-e767bd643d41","ios":"levelo://app?vid=d337cc62-b29d-4e4a-bd4f-e767bd643d41"},"vehicle_type_id":"4","last_reported":1740568085,"current_range_meters":20400,"station_id":"ce4bhrh2rcd13ifvqhug","pricing_plan_id":"cebpf4jnsgd1na2vs0mg"},{"bike_id":"9873fa29-c61e-4942-a3c4-475ad96e9f60","system_id":"levelo_inurba_marseille","lat":43.30481,"lon":5.37911,"is_reserved":false,"is_disabled":false,"rental_uris":{"android":"levelo://app?vid=9873fa29-c61e-4942-a3c4-475ad96e9f60","ios":"levelo://app?vid=9873fa29-c61e-4942-a3c4-475ad96e9f60"},"vehicle_type_id":"4","last_reported":1740568085,"current_range_meters":20000,"station_id":"ce4bgup2rcd13ifvqcn0","pricing_plan_id":"cebpf4jnsgd1na2vs0mg"},{"bike_id":"d4d2079b-6fb6-429d-9474-3bc23391be3f","system_id":"levelo_inurba_marseille","lat":43.28107,"lon":5.37846,"is_reserved":false,"is_disabled":false,"rental_uris":{"android":"levelo://app?vid=d4d2079b-6fb6-429d-9474-3bc23391be3f","ios":"levelo://app?vid=d4d2079b-6fb6-429d-9474-3bc23391be3f"},"vehicle_type_id":"4","last_reported":1740568085,"current_range_meters":20000,"station_id":"ce4bha12rcd13ifvqee0","pricing_plan_id":"cebpf4jnsgd1na2vs0mg"},{"bike_id":"8ce6cc87-e2b9-4cd8-b74b-7c57db02793e","system_id":"levelo_inurba_marseille","lat":43.28156,"lon":5.42638,"is_reserved":false,"is_disabled":false,"rental_uris":{"android":"levelo://app?vid=8ce6cc87-e2b9-4cd8-b74b-7c57db02793e","ios":"levelo://app?vid=8ce6cc87-e2b9-4cd8-b74b-7c57db02793e"},"vehicle_type_id":"4","last_reported":1740568085,"current_range_meters":19200,"station_id":"ce4bhnh2rcd13ifvqgug","pricing_plan_id":"cebpf4jnsgd1na2vs0mg"},{"bike_id":"8d08655a-2fad-4c70-baa3-1cbda2042e8a","system_id":"levelo_inurba_marseille","lat":43.28151,"lon":5.42639,"is_reserved":false,"is_disabled":true,"rental_uris":{"android":"levelo://app?vid=8d08655a-2fad-4c70-baa3-1cbda2042e8a","ios":"levelo://app?vid=8d08655a-2fad-4c70-baa3-1cbda2042e8a"},"vehicle_type_id":"4","last_reported":1740568085,"current_range_meters":20800,"station_id":"ce4bhnh2rcd13ifvqgug","pricing_plan_id":"cebpf4jnsgd1na2vs0mg"},{"bike_id":"9b318538-8472-4ebc-85c3-755a56e8969c","system_id":"levelo_inurba_marseille","lat":43.30936,"lon":5.40156,"is_reserved":false,"is_disabled":false,"rental_uris":{"android":"levelo://app?vid=9b318538-8472-4ebc-85c3-755a56e8969c","ios":"levelo://app?vid=9b318538-8472-4ebc-85c3-755a56e8969c"},"vehicle_type_id":"4","last_reported":1740568085,"current_range_meters":20400,"station_id":"ce4bhpp2rcd13ifvqhgg","pricing_plan_id":"cebpf4jnsgd1na2vs0mg"},{"bike_id":"34f29c44-ea1c-4983-afc0-f0832d6cc9b9","system_id":"levelo_inurba_marseille","lat":43.30944,"lon":5.40162,"is_reserved":false,"is_disabled":false,"rental_uris":{"android":"levelo://app?vid=34f29c44-ea1c-4983-afc0-f0832d6cc9b9","ios":"levelo://app?vid=34f29c44-ea1c-4983-afc0-f0832d6cc9b9"},"vehicle_type_id":"4","last_reported":1740568085,"current_range_meters":20400,"station_id":"ce4bgvp2rcd13ifvqct0","pricing_plan_id":"cebpf4jnsgd1na2vs0mg"},{"bike_id":"f2015908-cf90-4b61-be70-15492132dbcd","system_id":"levelo_inurba_marseille","lat":43.25938,"lon":5.40903,"is_reserved":false,"is_disabled":false,"rental_uris":{"android":"levelo://app?vid=f2015908-cf90-4b61-be70-15492132dbcd","ios":"levelo://app?vid=f2015908-cf90-4b61-be70-15492132dbcd"},"vehicle_type_id":"4","last_reported":1740568085,"current_range_meters":20400,"station_id":"ce4bhm92rcd13ifvqglg","pricing_plan_id":"cebpf4jnsgd1na2vs0mg"},{"bike_id":"4a6e4dab-77e7-4727-9943-ddb1faa90067","system_id":"levelo_inurba_marseille","lat":43.29908,"lon":5.43665,"is_reserved":false,"is_disabled":false,"rental_uris":{"android":"levelo://app?vid=4a6e4dab-77e7-4727-9943-ddb1faa90067","ios":"levelo://app?vid=4a6e4dab-77e7-4727-9943-ddb1faa90067"},"vehicle_type_id":"4","last_reported":1740568085,"current_range_meters":20400,"station_id":"ce4bhpp2rcd13ifvqhfg","pricing_plan_id":"cebpf4jnsgd1na2vs0mg"},{"bike_id":"bf5870bb-06d2-41d1-9092-3396a3c7bf83","system_id":"levelo_inurba_marseille","lat":43.26033,"lon":5.37547,"is_reserved":false,"is_disabled":false,"rental_uris":{"android":"levelo://app?vid=bf5870bb-06d2-41d1-9092-3396a3c7bf83","ios":"levelo://app?vid=bf5870bb-06d2-41d1-9092-3396a3c7bf83"},"vehicle_type_id":"4","last_reported":1740568085,"current_range_meters":20400,"station_id":"ce4bhgh2rcd13ifvqfa0","pricing_plan_id":"cebpf4jnsgd1na2vs0mg"},{"bike_id":"4b7b4521-98ad-4e82-b266-fa2dab8da286","system_id":"levelo_inurba_marseille","lat":43.29783,"lon":5.39351,"is_reserved":false,"is_disabled":false,"rental_uris":{"android":"levelo://app?vid=4b7b4521-98ad-4e82-b266-fa2dab8da286","ios":"levelo://app?vid=4b7b4521-98ad-4e82-b266-fa2dab8da286"},"vehicle_type_id":"4","last_reported":1740568085,"current_range_meters":20400,"station_id":"chh1huq6cuj3fo74tm60","pricing_plan_id":"cebpf4jnsgd1na2vs0mg"},{"bike_id":"a634cfa0-f5f7-4c52-92fe-16d0c7a6c97d","system_id":"levelo_inurba_marseille","lat":43.27989,"lon":5.3876,"is_reserved":false,"is_disabled":false,"rental_uris":{"android":"levelo://app?vid=a634cfa0-f5f7-4c52-92fe-16d0c7a6c97d","ios":"levelo://app?vid=a634cfa0-f5f7-4c52-92fe-16d0c7a6c97d"},"vehicle_type_id":"4","last_reported":1740568085,"current_range_meters":20400,"station_id":"ce4bhg12rcd13ifvqf80","pricing_plan_id":"cebpf4jnsgd1na2vs0mg"},{"bike_id":"504ecfe8-fa9b-4636-9619-b03f323b8793","system_id":"levelo_inurba_marseille","lat":43.29669,"lon":5.37708,"is_reserved":false,"is_disabled":false,"rental_uris":{"android":"levelo://app?vid=504ecfe8-fa9b-4636-9619-b03f323b8793","ios":"levelo://app?vid=504ecfe8-fa9b-4636-9619-b03f323b8793"},"vehicle_type_id":"4","last_reported":1740568085,"current_range_meters":20800,"station_id":"ce4bgi92rcd13ifvqb90","pricing_plan_id":"cebpf4jnsgd1na2vs0mg"},{"bike_id":"6bc5422a-b131-44b5-8bea-f5edeefefee5","system_id":"levelo_inurba_marseille","lat":43.28612,"lon":5.35107,"is_reserved":false,"is_disabled":false,"rental_uris":{"android":"levelo://app?vid=6bc5422a-b131-44b5-8bea-f5edeefefee5","ios":"levelo://app?vid=6bc5422a-b131-44b5-8bea-f5edeefefee5"},"vehicle_type_id":"4","last_reported":1740568085,"current_range_meters":20800,"station_id":"ce4bhch2rcd13ifvqeug","pricing_plan_id":"cebpf4jnsgd1na2vs0mg"},{"bike_id":"0caa0780-265a-421c-acf9-830c8069e4b6","system_id":"levelo_inurba_marseille","lat":43.30572,"lon":5.36445,"is_reserved":false,"is_disabled":false,"rental_uris":{"android":"levelo://app?vid=0caa0780-265a-421c-acf9-830c8069e4b6","ios":"levelo://app?vid=0caa0780-265a-421c-acf9-830c8069e4b6"},"vehicle_type_id":"4","last_reported":1740568085,"current_range_meters":20800,"station_id":"ce4bgs12rcd13ifvqcag","pricing_plan_id":"cebpf4jnsgd1na2vs0mg"},{"bike_id":"49c5a1e2-26ff-411f-bed9-92224003338c","system_id":"levelo_inurba_marseille","lat":43.29297,"lon":5.37436,"is_reserved":false,"is_disabled":false,"rental_uris":{"android":"levelo://app?vid=49c5a1e2-26ff-411f-bed9-92224003338c","ios":"levelo://app?vid=49c5a1e2-26ff-411f-bed9-92224003338c"},"vehicle_type_id":"4","last_reported":1740568085,"current_range_meters":20800,"station_id":"ce4bgi12rcd13ifvqb70","pricing_plan_id":"cebpf4jnsgd1na2vs0mg"},{"bike_id":"12e53ac0-8ffb-41ca-903c-8b4940733481","system_id":"levelo_inurba_marseille","lat":43.248183,"lon":5.374507,"is_reserved":false,"is_disabled":false,"rental_uris":{"android":"levelo://app?vid=12e53ac0-8ffb-41ca-903c-8b4940733481","ios":"levelo://app?vid=12e53ac0-8ffb-41ca-903c-8b4940733481"},"vehicle_type_id":"4","last_reported":1740568085,"current_range_meters":20800,"station_id":"ce4bhgh2rcd13ifvqfb0","pricing_plan_id":"cebpf4jnsgd1na2vs0mg"},{"bike_id":"9ecb6094-0fb3-4ce3-a80d-f0bc17ae1185","system_id":"levelo_inurba_marseille","lat":43.32473,"lon":5.36569,"is_reserved":false,"is_disabled":false,"rental_uris":{"android":"levelo://app?vid=9ecb6094-0fb3-4ce3-a80d-f0bc17ae1185","ios":"levelo://app?vid=9ecb6094-0fb3-4ce3-a80d-f0bc17ae1185"},"vehicle_type_id":"4","last_reported":1740568085,"current_range_meters":20800,"station_id":"ce4bhs12rcd13ifvqhvg","pricing_plan_id":"cebpf4jnsgd1na2vs0mg"},{"bike_id":"d48c2778-637b-4636-a104-b372cf895d4e","system_id":"levelo_inurba_marseille","lat":43.27053,"lon":5.40262,"is_reserved":false,"is_disabled":false,"rental_uris":{"android":"levelo://app?vid=d48c2778-637b-4636-a104-b372cf895d4e","ios":"levelo://app?vid=d48c2778-637b-4636-a104-b372cf895d4e"},"vehicle_type_id":"4","last_reported":1740568085,"current_range_meters":20800,"station_id":"ce4bhk92rcd13ifvqgc0","pricing_plan_id":"cebpf4jnsgd1na2vs0mg"},{"bike_id":"0630098c-85fb-4d64-a7f9-530f892a715e","system_id":"levelo_inurba_marseille","lat":43.30947,"lon":5.39035,"is_reserved":false,"is_disabled":false,"rental_uris":{"android":"levelo://app?vid=0630098c-85fb-4d64-a7f9-530f892a715e","ios":"levelo://app?vid=0630098c-85fb-4d64-a7f9-530f892a715e"},"vehicle_type_id":"4","last_reported":1740568085,"current_range_meters":20800,"station_id":"ce4bgup2rcd13ifvqco0","pricing_plan_id":"cebpf4jnsgd1na2vs0mg"},{"bike_id":"a1eae3e3-554e-4dfe-b456-e8fdc8ea0074","system_id":"levelo_inurba_marseille","lat":43.31379,"lon":5.38505,"is_reserved":false,"is_disabled":false,"rental_uris":{"android":"levelo://app?vid=a1eae3e3-554e-4dfe-b456-e8fdc8ea0074","ios":"levelo://app?vid=a1eae3e3-554e-4dfe-b456-e8fdc8ea0074"},"vehicle_type_id":"4","last_reported":1740568085,"current_range_meters":20000,"station_id":"ce4bgt92rcd13ifvqcf0","pricing_plan_id":"cebpf4jnsgd1na2vs0mg"},{"bike_id":"f8a034d8-347d-4b88-8313-cb881a135e12","system_id":"levelo_inurba_marseille","lat":43.31363,"lon":5.38495,"is_reserved":false,"is_disabled":false,"rental_uris":{"android":"levelo://app?vid=f8a034d8-347d-4b88-8313-cb881a135e12","ios":"levelo://app?vid=f8a034d8-347d-4b88-8313-cb881a135e12"},"vehicle_type_id":"4","last_reported":1740568085,"current_range_meters":21600,"station_id":"ce4bgt92rcd13ifvqcf0","pricing_plan_id":"cebpf4jnsgd1na2vs0mg"},{"bike_id":"d210fd19-5a9c-44f3-bd7f-18a4cc04840f","system_id":"levelo_inurba_marseille","lat":43.28653,"lon":5.386006,"is_reserved":false,"is_disabled":false,"rental_uris":{"android":"levelo://app?vid=d210fd19-5a9c-44f3-bd7f-18a4cc04840f","ios":"levelo://app?vid=d210fd19-5a9c-44f3-bd7f-18a4cc04840f"},"vehicle_type_id":"4","last_reported":1740568085,"current_range_meters":20800,"station_id":"ce4bhpp2rcd13ifvqhfg","pricing_plan_id":"cebpf4jnsgd1na2vs0mg"},{"bike_id":"f1f1bcb5-cbfc-4e46-99de-5e4a9fd50765","system_id":"levelo_inurba_marseille","lat":43.29778,"lon":5.39497,"is_reserved":false,"is_disabled":false,"rental_uris":{"android":"levelo://app?vid=f1f1bcb5-cbfc-4e46-99de-5e4a9fd50765","ios":"levelo://app?vid=f1f1bcb5-cbfc-4e46-99de-5e4a9fd50765"},"vehicle_type_id":"4","last_reported":1740568085,"current_range_meters":21600,"station_id":"chh1huq6cuj3fo74tm60","pricing_plan_id":"cebpf4jnsgd1na2vs0mg"},{"bike_id":"403496d6-5604-4dd9-8c15-89240b52605f","system_id":"levelo_inurba_marseille","lat":43.27052,"lon":5.40263,"is_reserved":false,"is_disabled":false,"rental_uris":{"android":"levelo://app?vid=403496d6-5604-4dd9-8c15-89240b52605f","ios":"levelo://app?vid=403496d6-5604-4dd9-8c15-89240b52605f"},"vehicle_type_id":"4","last_reported":1740568085,"current_range_meters":16800,"station_id":"ce4bhk92rcd13ifvqgc0","pricing_plan_id":"cebpf4jnsgd1na2vs0mg"},{"bike_id":"8d5fa0a6-0c84-4bdd-b546-fbcb08a3da62","system_id":"levelo_inurba_marseille","lat":43.27853,"lon":5.40717,"is_reserved":false,"is_disabled":false,"rental_uris":{"android":"levelo://app?vid=8d5fa0a6-0c84-4bdd-b546-fbcb08a3da62","ios":"levelo://app?vid=8d5fa0a6-0c84-4bdd-b546-fbcb08a3da62"},"vehicle_type_id":"4","last_reported":1740568085,"current_range_meters":21600,"station_id":"ce4bhnh2rcd13ifvqgtg","pricing_plan_id":"cebpf4jnsgd1na2vs0mg"},{"bike_id":"2acdcfce-93ff-42ea-9981-a633722cff05","system_id":"levelo_inurba_marseille","lat":43.25485,"lon":5.3765,"is_reserved":false,"is_disabled":false,"rental_uris":{"android":"levelo://app?vid=2acdcfce-93ff-42ea-9981-a633722cff05","ios":"levelo://app?vid=2acdcfce-93ff-42ea-9981-a633722cff05"},"vehicle_type_id":"4","last_reported":1740568085,"current_range_meters":20800,"station_id":"ce4bhh12rcd13ifvqff0","pricing_plan_id":"cebpf4jnsgd1na2vs0mg"},