{"last_updated":1708585625,"ttl":30,"version":"2.2","data":{"bikes":[{"bike_id":"cf8fddb1-ba97-4427-a79a-fe07de2249a4","system_id":"levelo_inurba_marseille","lat":43.31341,"lon":5.367098,"is_reserved":false,"is_disabled":false,"rental_uris":{"android":"levelo://app?vid=cf8fddb1-ba97-4427-a79a-fe07de2249a4","ios":"levelo://app?vid=cf8fddb1-ba97-4427-a79a-fe07de2249a4"},"vehicle_type_id":"4","last_reported":1708585625,"current_range_meters":27200,"station_id":"ce4bgr92rcd13ifvqc6g","pricing_plan_id":"cebpf4jnsgd1na2vs0mg"},{"bike_id":"931cafff-dda4-405c-9616-d0551729ad0c","system_id":"levelo_inurba_marseille","lat":43.31341,"lon":5.367098,"is_reserved":false,"is_disabled":false,"rental_uris":{"android":"levelo://app?vid=931cafff-dda4-405c-9616-d0551729ad0c","ios":"levelo://app?vid=931cafff-dda4-405c-9616-d0551729ad0c"},"vehicle_type_id":"4","last_reported":1708585625,"current_range_meters":0,"station_id":"ce4bgr92rcd13ifvqc6g","pricing_plan_id":"cebpf4jnsgd1na2vs0mg"},{"bike_id":"db9fea21-0818-4389-9d63-d4267e9a3e30","system_id":"levelo_inurba_marseille","lat":43.31341,"lon":5.367098,"is_reserved":false,"is_disabled":false,"rental_uris":{"android":"levelo://app?vid=db9fea21-0818-4389-9d63-d4267e9a3e30","ios":"levelo://app?vid=db9fea21-0818-4389-9d63-d4267e9a3e30"},"vehicle_type_id":"4","last_reported":1708585625,"current_range_meters":15600,"station_id":"ce4bgr92rcd13ifvqc6g","pricing_plan_id":"cebpf4jnsgd1na2vs0mg"},{"bike_id":"3b85be33-c043-4d09-8633-b625f686daa9","system_id":"levelo_inurba_marseille","lat":43.31341,"lon":5.367098,"is_reserved":false,"is_disabled":false,"rental_uris":{"android":"levelo://app?vid=3b85be33-c043-4d09-8633-b625f686daa9","ios":"levelo://app?vid=3b85be33-c043-4d09-8633-b625f686daa9"},"vehicle_type_id":"4","last_reported":1708585625,"current_range_meters":27200,"station_id":"ce4bgr92rcd13ifvqc6g","pricing_plan_id":"cebpf4jnsgd1na2vs0mg"},{"bike_id":"2f902365-a821-43ce-8eef-fa0b1a8097db","system_id":"levelo_inurba_marseille","lat":43.31353,"lon":5.36719,"is_reserved":false,"is_disabled":false,"rental_uris":{"android":"levelo://app?vid=2f902365-a821-43ce-8eef-fa0b1a8097db","ios":"levelo://app?vid=2f902365-a821-43ce-8eef-fa0b1a8097db"},"vehicle_type_id":"4","last_reported":1708585625,"current_range_meters":2400,"station_id":"ce4bgr92rcd13ifvqc6g","pricing_plan_id":"cebpf4jnsgd1na2vs0mg"},{"bike_id":"a9bb622d-a332-474a-bf81-60ca5b5872f8","system_id":"levelo_inurba_marseille","lat":43.312239,"lon":5.368562,"is_reserved":false,"is_disabled":false,"rental_uris":{"android":"levelo://app?vid=a9bb622d-a332-474a-bf81-60ca5b5872f8","ios":"levelo://app?vid=a9bb622d-a332-474a-bf81-60ca5b5872f8"},"vehicle_type_id":"4","last_reported":1708585625,"current_range_meters":26400,"station_id":"ce4bgl92rcd13ifvqbq0","pricing_plan_id":"cebpf4jnsgd1na2vs0mg"},{"bike_id":"fea177a7-2ba2-4dc3-a5e8-4f63938991ef","system_id":"levelo_inurba_marseille","lat":43.312239,"lon":5.368562,"is_reserved":false,"is_disabled":false,"rental_uris":{"android":"levelo://app?vid=fea177a7-2ba2-4dc3-a5e8-4f63938991ef","ios":"levelo://app?vid=fea177a7-2ba2-4dc3-a5e8-4f63938991ef"},"vehicle_type_id":"4","last_reported":1708585625,"current_range_meters":31600,"station_id":"ce4bgl92rcd13ifvqbq0","pricing_plan_id":"cebpf4jnsgd1na2vs0mg"},{"bike_id":"d2f193df-3eaf-4b27-ada7-176ef686310d","system_id":"levelo_inurba_marseille","lat":43.309076,"lon":5.368465,"is_reserved":false,"is_disabled":false,"rental_uris":{"android":"levelo://app?vid=d2f193df-3eaf-4b27-ada7-176ef686310d","ios":"levelo://app?vid=d2f193df-3eaf-4b27-ada7-176ef686310d"},"vehicle_type_id":"4","last_reported":1708585625,"current_range_meters":25200,"station_id":"ce4bgn92rcd13ifvqbvg","pricing_plan_id":"cebpf4jnsgd1na2vs0mg"},{"bike_id":"30ecef3b-ec04-4210-9bcd-0667285ea2a6","system_id":"levelo_inurba_marseille","lat":43.309076,"lon":5.368465,"is_reserved":false,"is_disabled":false,"rental_uris":{"android":"levelo://app?vid=30ecef3b-ec04-4210-9bcd-0667285ea2a6","ios":"levelo://app?vid=30ecef3b-ec04-4210-9bcd-0667285ea2a6"},"vehicle_type_id":"4","last_reported":1708585625,"current_range_meters":23600,"station_id":"ce4bgn92rcd13ifvqbvg","pricing_plan_id":"cebpf4jnsgd1na2vs0mg"},{"bike_id":"bc658163-aa9f-4f06-bfbd-bed6555cd174","system_id":"levelo_inurba_marseille","lat":43.309076,"lon":5.368465,"is_reserved":false,"is_disabled":false,"rental_uris":{"android":"levelo://app?vid=bc658163-aa9f-4f06-bfbd-bed6555cd174","ios":"levelo://app?vid=bc658163-aa9f-4f06-bfbd-bed6555cd174"},"vehicle_type_id":"4","last_reported":1708585625,"current_range_meters":17600,"station_id":"ce4bgn92rcd13ifvqbvg","pricing_plan_id":"cebpf4jnsgd1na2vs0mg"},{"bike_id":"108de9dd-b3eb-42c4-91cf-8f55ca10bc35","system_id":"levelo_inurba_marseille","lat":43.314811,"lon":5.373103,"is_reserved":false,"is_disabled":false,"rental_uris":{"android":"levelo://app?vid=108de9dd-b3eb-42c4-91cf-8f55ca10bc35","ios":"levelo://app?vid=108de9dd-b3eb-42c4-91cf-8f55ca10bc35"},"vehicle_type_id":"4","last_reported":1708585625,"current_range_meters":12000,"station_id":"ce4bgt12rcd13ifvqcd0","pricing_plan_id":"cebpf4jnsgd1na2vs0mg"},{"bike_id":"0e36f53c-10dc-4d42-9b19-56609be3b4a2","system_id":"levelo_inurba_marseille","lat":43.314811,"lon":5.373103,"is_reserved":false,"is_disabled":false,"rental_uris":{"android":"levelo://app?vid=0e36f53c-10dc-4d42-9b19-56609be3b4a2","ios":"levelo://app?vid=0e36f53c-10dc-4d42-9b19-56609be3b4a2"},"vehicle_type_id":"4","last_reported":1708585625,"current_range_meters":22400,"station_id":"ce4bgt12rcd13ifvqcd0","pricing_plan_id":"cebpf4jnsgd1na2vs0mg"},{"bike_id":"9242d2ef-c973-4390-840a-bb02dac4916d","system_id":"levelo_inurba_marseille","lat":43.314811,"lon":5.373104,"is_reserved":false,"is_disabled":false,"rental_uris":{"android":"levelo://app?vid=9242d2ef-c973-4390-840a-bb02dac4916d","ios":"levelo://app?vid=9242d2ef-c973-4390-840a-bb02dac4916d"},"vehicle_type_id":"4","last_reported":1708585625,"current_range_meters":31600,"station_id":"ce4bgt12rcd13ifvqcd0","pricing_plan_id":"cebpf4jnsgd1na2vs0mg"},{"bike_id":"5801b675-ea3c-473f-8252-ffbab53b72b2","system_id":"levelo_inurba_marseille","lat":43.314811,"lon":5.373104,"is_reserved":false,"is_disabled":false,"rental_uris":{"android":"levelo://app?vid=5801b675-ea3c-473f-8252-ffbab53b72b2","ios":"levelo://app?vid=5801b675-ea3c-473f-8252-ffbab53b72b2"},"vehicle_type_id":"4","last_reported":1708585625,"current_range_meters":25600,"station_id":"ce4bgt12rcd13ifvqcd0","pricing_plan_id":"cebpf4jnsgd1na2vs0mg"},{"bike_id":"e93cfb81-67e1-4ee3-9f96-bb0a6cbd4bed","system_id":"levelo_inurba_marseille","lat":43.290779,"lon":5.371482,"is_reserved":false,"is_disabled":false,"rental_uris":{"android":"levelo://app?vid=e93cfb81-67e1-4ee3-9f96-bb0a6cbd4bed","ios":"levelo://app?vid=e93cfb81-67e1-4ee3-9f96-bb0a6cbd4bed"},"vehicle_type_id":"4","last_reported":1708585625,"current_range_meters":23200,"station_id":"ce4bh5p2rcd13ifvqe4g","pricing_plan_id":"cebpf4jnsgd1na2vs0mg"},{"bike_id":"0aafd9b6-99f6-49c5-b8e9-18758cccb1ed","system_id":"levelo_inurba_marseille","lat":43.314811,"lon":5.373103,"is_reserved":false,"is_disabled":false,"rental_uris":{"android":"levelo://app?vid=0aafd9b6-99f6-49c5-b8e9-18758cccb1ed","ios":"levelo://app?vid=0aafd9b6-99f6-49c5-b8e9-18758cccb1ed"},"vehicle_type_id":"4","last_reported":1708585625,"current_range_meters":31600,"station_id":"ce4bgt12rcd13ifvqcd0","pricing_plan_id":"cebpf4jnsgd1na2vs0mg"},{"bike_id":"e85f12fa-f9a6-4100-afe2-92d3d0ac5386","system_id":"levelo_inurba_marseille","lat":43.314811,"lon":5.373104,"is_reserved":false,"is_disabled":false,"rental_uris":{"android":"levelo://app?vid=e85f12fa-f9a6-4100-afe2-92d3d0ac5386","ios":"levelo://app?vid=e85f12fa-f9a6-4100-afe2-92d3d0ac5386"},"vehicle_type_id":"4","last_reported":1708585625,"current_range_meters":10800,"station_id":"ce4bgt12rcd13ifvqcd0","pricing_plan_id":"cebpf4jnsgd1na2vs0mg"},{"bike_id":"bf6936e0-c956-47cd-a00a-33952ee081d2","system_id":"levelo_inurba_marseille","lat":43.314811,"lon":5.373104,"is_reserved":false,"is_disabled":false,"rental_uris":{"android":"levelo://app?vid=bf6936e0-c956-47cd-a00a-33952ee081d2","ios":"levelo://app?vid=bf6936e0-c956-47cd-a00a-33952ee081d2"},"vehicle_type_id":"4","last_reported":1708585625,"current_range_meters":20400,"station_id":"ce4bgt12rcd13ifvqcd0","pricing_plan_id":"cebpf4jnsgd1na2vs0mg"},{"bike_id":"62eda3da-0f55-4bcd-bb89-f20d28202287","system_id":"levelo_inurba_marseille","lat":43.309039,"lon":5.371797,"is_reserved":false,"is_disabled":false,"rental_uris":{"android":"levelo://app?vid=62eda3da-0f55-4bcd-bb89-f20d28202287","ios":"levelo://app?vid=62eda3da-0f55-4bcd-bb89-f20d28202287"},"vehicle_type_id":"4","last_reported":1708585625,"current_range_meters":28000,"station_id":"ce4bguh2rcd13ifvqckg","pricing_plan_id":"cebpf4jnsgd1na2vs0mg"},{"bike_id":"26535d23-4810-4970-a7ff-053897d77fe0","system_id":"levelo_inurba_marseille","lat":43.309034,"lon":5.371783,"is_reserved":false,"is_disabled":false,"rental_uris":{"android":"levelo://app?vid=26535d23-4810-4970-a7ff-053897d77fe0","ios":"levelo://app?vid=26535d23-4810-4970-a7ff-053897d77fe0"},"vehicle_type_id":"4","last_reported":1708585625,"current_range_meters":26800,"station_id":"ce4bguh2rcd13ifvqckg","pricing_plan_id":"cebpf4jnsgd1na2vs0mg"},{"bike_id":"af2b070f-8cf1-48a9-b156-747b3a5a1317","system_id":"levelo_inurba_marseille","lat":43.30537,"lon":5.367345,"is_reserved":false,"is_disabled":false,"rental_uris":{"android":"levelo://app?vid=af2b070f-8cf1-48a9-b156-747b3a5a1317","ios":"levelo://app?vid=af2b070f-8cf1-48a9-b156-747b3a5a1317"},"vehicle_type_id":"4","last_reported":1708585625,"current_range_meters":26000,"station_id":"ce4bgrp2rcd13ifvqc9g","pricing_plan_id":"cebpf4jnsgd1na2vs0mg"},{"bike_id":"5707c24a-c537-4d13-bc97-1b4f9bea8683","system_id":"levelo_inurba_marseille","lat":43.30537,"lon":5.367345,"is_reserved":false,"is_disabled":false,"rental_uris":{"android":"levelo://app?vid=5707c24a-c537-4d13-bc97-1b4f9bea8683","ios":"levelo://app?vid=5707c24a-c537-4d13-bc97-1b4f9bea8683"},"vehicle_type_id":"4","last_reported":1708585625,"current_range_meters":2000,"station_id":"ce4bgrp2rcd13ifvqc9g","pricing_plan_id":"cebpf4jnsgd1na2vs0mg"},{"bike_id":"524bbe37-4e44-41e3-9a4a-44b7d4d687ff","system_id":"levelo_inurba_marseille","lat":43.30537,"lon":5.367345,"is_reserved":false,"is_disabled":false,"rental_uris":{"android":"levelo://app?vid=524bbe37-4e44-41e3-9a4a-44b7d4d687ff","ios":"levelo://app?vid=524bbe37-4e44-41e3-9a4a-44b7d4d687ff"},"vehicle_type_id":"4","last_reported":1708585625,"current_range_meters":24000,"station_id":"ce4bgrp2rcd13ifvqc9g","pricing_plan_id":"cebpf4jnsgd1na2vs0mg"},{"bike_id":"ad4f8ef6-0428-4e27-a308-5480190db99d","system_id":"levelo_inurba_marseille","lat":43.305714,"lon":5.365633,"is_reserved":false,"is_disabled":false,"rental_uris":{"android":"levelo://app?vid=ad4f8ef6-0428-4e27-a308-5480190db99d","ios":"levelo://app?vid=ad4f8ef6-0428-4e27-a308-5480190db99d"},"vehicle_type_id":"4","last_reported":1708585625,"current_range_meters":10800,"station_id":"ce4bgs12rcd13ifvqcag","pricing_plan_id":"cebpf4jnsgd1na2vs0mg"},{"bike_id":"e1fa5b51-f18d-4adc-8fa2-33578608e684","system_id":"levelo_inurba_marseille","lat":43.305706,"lon":5.365654,"is_reserved":false,"is_disabled":false,"rental_uris":{"android":"levelo://app?vid=e1fa5b51-f18d-4adc-8fa2-33578608e684","ios":"levelo://app?vid=e1fa5b51-f18d-4adc-8fa2-33578608e684"},"vehicle_type_id":"4","last_reported":1708585625,"current_range_meters":28400,"station_id":"ce4bgs12rcd13ifvqcag","pricing_plan_id":"cebpf4jnsgd1na2vs0mg"},{"bike_id":"b9b71fa4-e6c8-453d-8fed-0c6b01a74911","system_id":"levelo_inurba_marseille","lat":43.30537,"lon":5.367345,"is_reserved":false,"is_disabled":false,"rental_uris":{"android":"levelo://app?vid=b9b71fa4-e6c8-453d-8fed-0c6b01a74911","ios":"levelo://app?vid=b9b71fa4-e6c8-453d-8fed-0c6b01a74911"},"vehicle_type_id":"4","last_reported":1708585625,"current_range_meters":26400,"station_id":"ce4bgrp2rcd13ifvqc9g","pricing_plan_id":"cebpf4jnsgd1na2vs0mg"},{"bike_id":"58928f21-45d1-4422-bbbf-1bd51d9fb538","system_id":"levelo_inurba_marseille","lat":43.305706,"lon":5.365654,"is_reserved":false,"is_disabled":false,"rental_uris":{"android":"levelo://app?vid=58928f21-45d1-4422-bbbf-1bd51d9fb538","ios":"levelo://app?vid=58928f21-45d1-4422-bbbf-1bd51d9fb538"},"vehicle_type_id":"4","last_reported":1708585625,"current_range_meters":14800,"station_id":"ce4bgs12rcd13ifvqcag","pricing_plan_id":"cebpf4jnsgd1na2vs0mg"},{"bike_id":"4316fe3a-8e40-421e-8a8e-fdaa752c6768","system_id":"levelo_inurba_marseille","lat":43.305714,"lon":5.365633,"is_reserved":false,"is_disabled":false,"rental_uris":{"android":"levelo://app?vid=4316fe3a-8e40-421e-8a8e-fdaa752c6768","ios":"levelo://app?vid=4316fe3a-8e40-421e-8a8e-fdaa752c6768"},"vehicle_type_id":"4","last_reported":1708585625,"current_range_meters":27600,"station_id":"ce4bgs12rcd13ifvqcag","pricing_plan_id":"cebpf4jnsgd1na2vs0mg"},{"bike_id":"99cfeb89-bcd7-4ab3-bcae-4fcb43c7238d","system_id":"levelo_inurba_marseille","lat":43.305989,"lon":5.37225,"is_reserved":false,"is_disabled":false,"rental_uris":{"android":"levelo://app?vid=99cfeb89-bcd7-4ab3-bcae-4fcb43c7238d","ios":"levelo://app?vid=99cfeb89-bcd7-4ab3-bcae-4fcb43c7238d"},"vehicle_type_id":"4","last_reported":1708585625,"current_range_meters":25600,"station_id":"ce4bgqh2rcd13ifvqc4g","pricing_plan_id":"cebpf4jnsgd1na2vs0mg"},{"bike_id":"fdbee48e-e73d-4dc5-bf89-99ff94c47cbf","system_id":"levelo_inurba_marseille","lat":43.311125,"lon":5.377624,"is_reserved":false,"is_disabled":false,"rental_uris":{"android":"levelo://app?vid=fdbee48e-e73d-4dc5-bf89-99ff94c47cbf","ios":"levelo://app?vid=fdbee48e-e73d-4dc5-bf89-99ff94c47cbf"},"vehicle_type_id":"4","last_reported":1708585625,"current_range_meters":30800,"station_id":"ce4bgt92rcd13ifvqcg0","pricing_plan_id":"cebpf4jnsgd1na2vs0mg"},{"bike_id":"d99f5e5f-b763-41a3-9300-b1b434e296d4","system_id":"levelo_inurba_marseille","lat":43.311125,"lon":5.377624,"is_reserved":false,"is_disabled":false,"rental_uris":{"android":"levelo://app?vid=d99f5e5f-b763-41a3-9300-b1b434e296d4","ios":"levelo://app?vid=d99f5e5f-b763-41a3-9300-b1b434e296d4"},"vehicle_type_id":"4","last_reported":1708585625,"current_range_meters":28400,"station_id":"ce4bgt92rcd13ifvqcg0","pricing_plan_id":"cebpf4jnsgd1na2vs0mg"},{"bike_id":"f3c1a207-8448-4ead-b928-4b99b6ca3566","system_id":"levelo_inurba_marseille","lat":43.311125,"lon":5.377624,"is_reserved":false,"is_disabled":false,"rental_uris":{"android":"levelo://app?vid=f3c1a207-8448-4ead-b928-4b99b6ca3566","ios":"levelo://app?vid=f3c1a207-8448-4ead-b928-4b99b6ca3566"},"vehicle_type_id":"4","last_reported":1708585625,"current_range_meters":16800,"station_id":"ce4bgt92rcd13ifvqcg0","pricing_plan_id":"cebpf4jnsgd1na2vs0mg"},{"bike_id":"dc22c28f-522a-4fb4-b7ab-c6251b90de82","system_id":"levelo_inurba_marseille","lat":43.31654,"lon":5.37675,"is_reserved":false,"is_disabled":false,"rental_uris":{"android":"levelo://app?vid=dc22c28f-522a-4fb4-b7ab-c6251b90de82","ios":"levelo://app?vid=dc22c28f-522a-4fb4-b7ab-c6251b90de82"},"vehicle_type_id":"4","last_reported":1708585625,"current_range_meters":24800,"station_id":"","pricing_plan_id":"cebpf4jnsgd1na2vs0mg"},{"bike_id":"6356d138-f96c-4ece-b202-d8da273c62ab","system_id":"levelo_inurba_marseille","lat":43.316582,"lon":5.376807,"is_reserved":false,"is_disabled":false,"rental_uris":{"android":"levelo://app?vid=6356d138-f96c-4ece-b202-d8da273c62ab","ios":"levelo://app?vid=6356d138-f96c-4ece-b202-d8da273c62ab"},"vehicle_type_id":"4","last_reported":1708585625,"current_range_meters":9200,"station_id":"","pricing_plan_id":"cebpf4jnsgd1na2vs0mg"},{"bike_id":"bd8c9308-6558-4606-8489-0b28e60148f6","system_id":"levelo_inurba_marseille","lat":43.307945,"lon":5.376487,"is_reserved":false,"is_disabled":false,"rental_uris":{"android":"levelo://app?vid=bd8c9308-6558-4606-8489-0b28e60148f6","ios":"levelo://app?vid=bd8c9308-6558-4606-8489-0b28e60148f6"},"vehicle_type_id":"4","last_reported":1708585625,"current_range_meters":3200,"station_id":"ce4bgv92rcd13ifvqcq0","pricing_plan_id":"cebpf4jnsgd1na2vs0mg"},{"bike_id":"017e20a3-9bef-415a-9098-ad4219762367","system_id":"levelo_inurba_marseille","lat":43.307945,"lon":5.376487,"is_reserved":false,"is_disabled":false,"rental_uris":{"android":"levelo://app?vid=017e20a3-9bef-415a-9098-ad4219762367","ios":"levelo://app?vid=017e20a3-9bef-415a-9098-ad4219762367"},"vehicle_type_id":"4","last_reported":1708585625,"current_range_meters":27200,"station_id":"ce4bgv92rcd13ifvqcq0","pricing_plan_id":"cebpf4jnsgd1na2vs0mg"},{"bike_id":"e683024e-cbcd-4fc2-9950-c20c0c07dd32","system_id":"levelo_inurba_marseille","lat":43.307945,"lon":5.376487,"is_reserved":false,"is_disabled":false,"rental_uris":{"android":"levelo://app?vid=e683024e-cbcd-4fc2-9950-c20c0c07dd32","ios":"levelo://app?vid=e683024e-cbcd-4fc2-9950-c20c0c07dd32"},"vehicle_type_id":"4","last_reported":1708585625,"current_range_meters":14400,"station_id":"ce4bgv92rcd13ifvqcq0","pricing_plan_id":"cebpf4jnsgd1na2vs0mg"},{"bike_id":"e940a45f-5fab-4976-94e4-0f9151471b8b","system_id":"levelo_inurba_marseille","lat":43.307945,"lon":5.376487,"is_reserved":false,"is_disabled":false,"rental_uris":{"android":"levelo://app?vid=e940a45f-5fab-4976-94e4-0f9151471b8b","ios":"levelo://app?vid=e940a45f-5fab-4976-94e4-0f9151471b8b"},"vehicle_type_id":"4","last_reported":1708585625,"current_range_meters":16000,"station_id":"ce4bgv92rcd13ifvqcq0","pricing_plan_id":"cebpf4jnsgd1na2vs0mg"},{"bike_id":"82927855-1e2e-411a-a6fb-a7723427e057","system_id":"levelo_inurba_marseille","lat":43.307945,"lon":5.376487,"is_reserved":false,"is_disabled":false,"rental_uris":{"android":"levelo://app?vid=82927855-1e2e-411a-a6fb-a7723427e057","ios":"levelo://app?vid=82927855-1e2e-411a-a6fb-a7723427e057"},"vehicle_type_id":"4","last_reported":1708585625,"current_range_meters":31600,"station_id":"ce4bgv92rcd13ifvqcq0","pricing_plan_id":"cebpf4jnsgd1na2vs0mg"},{"bike_id":"a1ae05d7-73f2-46bf-9c7f-d805a78fd7e8","system_id":"levelo_inurba_marseille","lat":43.307945,"lon":5.376487,"is_reserved":false,"is_disabled":false,"rental_uris":{"android":"levelo://app?vid=a1ae05d7-73f2-46bf-9c7f-d805a78fd7e8","ios":"levelo://app?vid=a1ae05d7-73f2-46bf-9c7f-d805a78fd7e8"},"vehicle_type_id":"4","last_reported":1708585625,"current_range_meters":5600,"station_id":"ce4bgv92rcd13ifvqcq0","pricing_plan_id":"cebpf4jnsgd1na2vs0mg"},{"bike_id":"5c1959d9-3fe4-41c1-869b-1e418b33f8aa","system_id":"levelo_inurba_marseille","lat":43.307945,"lon":5.376487,"is_reserved":false,"is_disabled":false,"rental_uris":{"android":"levelo://app?vid=5c1959d9-3fe4-41c1-869b-1e418b33f8aa","ios":"levelo://app?vid=5c1959d9-3fe4-41c1-869b-1e418b33f8aa"},"vehicle_type_id":"4","last_reported":1708585625,"current_range_meters":26800,"station_id":"ce4bgv92rcd13ifvqcq0","pricing_plan_id":"cebpf4jnsgd1na2vs0mg"},{"bike_id":"8acc267a-b18a-42c6-80fd-4f862e84038f","system_id":"levelo_inurba_marseille","lat":43.307945,"lon":5.376487,"is_reserved":false,"is_disabled":false,"rental_uris":{"android":"levelo://app?vid=8acc267a-b18a-42c6-80fd-4f862e84038f","ios":"levelo://app?vid=8acc267a-b18a-42c6-80fd-4f862e84038f"},"vehicle_type_id":"4","last_reported":1708585625,"current_range_meters":27200,"station_id":"ce4bgv92rcd13ifvqcq0","pricing_plan_id":"cebpf4jnsgd1na2vs0mg"},{"bike_id":"8335b374-9ed7-4ebb-ab34-949d0718f352","system_id":"levelo_inurba_marseille","lat":43.307945,"lon":5.376487,"is_reserved":false,"is_disabled":false,"rental_uris":{"android":"levelo://app?vid=8335b374-9ed7-4ebb-ab34-949d0718f352","ios":"levelo://app?vid=8335b374-9ed7-4ebb-ab34-949d0718f352"},"vehicle_type_id":"4","last_reported":1708585625,"current_range_meters":20800,"station_id":"ce4bgv92rcd13ifvqcq0","pricing_plan_id":"cebpf4jnsgd1na2vs0mg"},{"bike_id":"e9ca0df7-9d12-4d6a-95d0-ceeb7d710869","system_id":"levelo_inurba_marseille","lat":43.307945,"lon":5.376487,"is_reserved":false,"is_disabled":false,"rental_uris":{"android":"levelo://app?vid=e9ca0df7-9d12-4d6a-95d0-ceeb7d710869","ios":"levelo://app?vid=e9ca0df7-9d12-4d6a-95d0-ceeb7d710869"},"vehicle_type_id":"4","last_reported":1708585625,"current_range_meters":31600,"station_id":"ce4bgv92rcd13ifvqcq0","pricing_plan_id":"cebpf4jnsgd1na2vs0mg"},{"bike_id":"b9b43757-2604-4d44-b7fe-8af614a65b5d","system_id":"levelo_inurba_marseille","lat":43.30783,"lon":5.37658,"is_reserved":false,"is_disabled":false,"rental_uris":{"android":"levelo://app?vid=b9b43757-2604-4d44-b7fe-8af614a65b5d","ios":"levelo://app?vid=b9b43757-2604-4d44-b7fe-8af614a65b5d"},"vehicle_type_id":"4","last_reported":1708585625,"current_range_meters":30000,"station_id":"","pricing_plan_id":"cebpf4jnsgd1na2vs0mg"},{"bike_id":"e122d3cf-2dbb-4f60-b27b-ff2308d999db","system_id":"levelo_inurba_marseille","lat":43.307945,"lon":5.376487,"is_reserved":false,"is_disabled":false,"rental_uris":{"android":"levelo://app?vid=e122d3cf-2dbb-4f60-b27b-ff2308d999db","ios":"levelo://app?vid=e122d3cf-2dbb-4f60-b27b-ff2308d999db"},"vehicle_type_id":"4","last_reported":1708585625,"current_range_meters":30000,"station_id":"ce4bgv92rcd13ifvqcq0","pricing_plan_id":"cebpf4jnsgd1na2vs0mg"},{"bike_id":"0b86f9b1-96d0-455b-b36b-7a741e53997a","system_id":"levelo_inurba_marseille","lat":43.317075,"lon":5.377367,"is_reserved":false,"is_disabled":false,"rental_uris":{"android":"levelo://app?vid=0b86f9b1-96d0-455b-b36b-7a741e53997a","ios":"levelo://app?vid=0b86f9b1-96d0-455b-b36b-7a741e53997a"},"vehicle_type_id":"4","last_reported":1708585625,"current_range_meters":3600,"station_id":"ce4bgth2rcd13ifvqch0","pricing_plan_id":"cebpf4jnsgd1na2vs0mg"},{"bike_id":"c640a8c1-4269-45c5-af59-6df7e4f3324e","system_id":"levelo_inurba_marseille","lat":43.317075,"lon":5.377367,"is_reserved":false,"is_disabled":false,"rental_uris":{"android":"levelo://app?vid=c640a8c1-4269-45c5-af59-6df7e4f3324e","ios":"levelo://app?vid=c640a8c1-4269-45c5-af59-6df7e4f3324e"},"vehicle_type_id":"4","last_reported":1708585625,"current_range_meters":19200,"station_id":"ce4bgth2rcd13ifvqch0","pricing_plan_id":"cebpf4jnsgd1na2vs0mg"},{"bike_id":"9471953b-bdf2-4116-9dc1-47f2e571a337","system_id":"levelo_inurba_marseille","lat":43.317075,"lon":5.377367,"is_reserved":false,"is_disabled":false,"rental_uris":{"android":"levelo://app?vid=9471953b-bdf2-4116-9dc1-47f2e571a337","ios":"levelo://app?vid=9471953b-bdf2-4116-9dc1-47f2e571a337"},"vehicle_type_id":"4","last_reported":1708585625,"current_range_meters":3600,"station_id":"ce4bgth2rcd13ifvqch0","pricing_plan_id":"cebpf4jnsgd1na2vs0mg"},{"bike_id":"2091d652-b602-4295-80f9-745a2541b03a","system_id":"levelo_inurba_marseille","lat":43.317075,"lon":5.377367,"is_reserved":false,"is_disabled":false,"rental_uris":{"android":"levelo://app?vid=2091d652-b602-4295-80f9-745a2541b03a","ios":"levelo://app?vid=2091d652-b602-4295-80f9-745a2541b03a"},"vehicle_type_id":"4","last_reported":1708585625,"current_range_meters":6400,"station_id":"ce4bgth2rcd13ifvqch0","pricing_plan_id":"cebpf4jnsgd1na2vs0mg"},{"bike_id":"2fdee98a-f697-45bc-8de9-c6509a38d890","system_id":"levelo_inurba_marseille","lat":43.317094,"lon":5.377534,"is_reserved":false,"is_disabled":false,"rental_uris":{"android":"levelo://app?vid=2fdee98a-f697-45bc-8de9-c6509a38d890","ios":"levelo://app?vid=2fdee98a-f697-45bc-8de9-c6509a38d890"},"vehicle_type_id":"4","last_reported":1708585625,"current_range_meters":4400,"station_id":"ce4bgth2rcd13ifvqch0","pricing_plan_id":"cebpf4jnsgd1na2vs0mg"},{"bike_id":"a9107724-bf94-4625-9505-de67816d6f9c","system_id":"levelo_inurba_marseille","lat":43.317075,"lon":5.377367,"is_reserved":false,"is_disabled":false,"rental_uris":{"android":"levelo://app?vid=a9107724-bf94-4625-9505-de67816d6f9c","ios":"levelo://app?vid=a9107724-bf94-4625-9505-de67816d6f9c"},"vehicle_type_id":"4","last_reported":1708585625,"current_range_meters":31600,"station_id":"ce4bgth2rcd13ifvqch0","pricing_plan_id":"cebpf4jnsgd1na2vs0mg"},{"bike_id":"8f9827ff-6989-411e-adf7-8b41c4896bc1","system_id":"levelo_inurba_marseille","lat":43.315293,"lon":5.380349,"is_reserved":false,"is_disabled":false,"rental_uris":{"android":"levelo://app?vid=8f9827ff-6989-411e-adf7-8b41c4896bc1","ios":"levelo://app?vid=8f9827ff-6989-411e-adf7-8b41c4896bc1"},"vehicle_type_id":"4","last_reported":1708585625,"current_range_meters":26000,"station_id":"ce4bhsp2rcd13ifvqi50","pricing_plan_id":"cebpf4jnsgd1na2vs0mg"},{"bike_id":"f213e5f9-cafa-4f62-8f85-b5b0e85d3fff","system_id":"levelo_inurba_marseille","lat":43.301939,"lon":5.366286,"is_reserved":false,"is_disabled":false,"rental_uris":{"android":"levelo://app?vid=f213e5f9-cafa-4f62-8f85-b5b0e85d3fff","ios":"levelo://app?vid=f213e5f9-cafa-4f62-8f85-b5b0e85d3fff"},"vehicle_type_id":"4","last_reported":1708585625,"current_range_meters":15600,"station_id":"ce4bgrh2rcd13ifvqc8g","pricing_plan_id":"cebpf4jnsgd1na2vs0mg"},{"bike_id":"c462dcb3-50c7-496e-8f22-7dfee4c95902","system_id":"levelo_inurba_marseille","lat":43.301939,"lon":5.366286,"is_reserved":false,"is_disabled":false,"rental_uris":{"android":"levelo://app?vid=c462dcb3-50c7-496e-8f22-7dfee4c95902","ios":"levelo://app?vid=c462dcb3-50c7-496e-8f22-7dfee4c95902"},"vehicle_type_id":"4","last_reported":1708585625,"current_range_meters":26800,"station_id":"ce4bgrh2rcd13ifvqc8g","pricing_plan_id":"cebpf4jnsgd1na2vs0mg"},{"bike_id":"309d9912-1565-45e2-8a5b-ff82a907d507","system_id":"levelo_inurba_marseille","lat":43.308012,"lon":5.381511,"is_reserved":false,"is_disabled":false,"rental_uris":{"android":"levelo://app?vid=309d9912-1565-45e2-8a5b-ff82a907d507","ios":"levelo://app?vid=309d9912-1565-45e2-8a5b-ff82a907d507"},"vehicle_type_id":"4","last_reported":1708585625,"current_range_meters":14800,"station_id":"ce4bgt12rcd13ifvqce0","pricing_plan_id":"cebpf4jnsgd1na2vs0mg"},{"bike_id":"6972eac9-31c7-44db-a929-e95491f49a14","system_id":"levelo_inurba_marseille","lat":43.30808,"lon":5.38147,"is_reserved":false,"is_disabled":false,"rental_uris":{"android":"levelo://app?vid=6972eac9-31c7-44db-a929-e95491f49a14","ios":"levelo://app?vid=6972eac9-31c7-44db-a929-e95491f49a14"},"vehicle_type_id":"4","last_reported":1708585625,"current_range_meters":24800,"station_id":"ce4bgt12rcd13ifvqce0","pricing_plan_id":"cebpf4jnsgd1na2vs0mg"},{"bike_id":"44bc7686-779a-4dd4-a245-abf0a84d5cd5","system_id":"levelo_inurba_marseille","lat":43.308012,"lon":5.381511,"is_reserved":false,"is_disabled":false,"rental_uris":{"android":"levelo://app?vid=44bc7686-779a-4dd4-a245-abf0a84d5cd5","ios":"levelo://app?vid=44bc7686-779a-4dd4-a245-abf0a84d5cd5"},"vehicle_type_id":"4","last_reported":1708585625,"current_range_meters":22000,"station_id":"ce4bgt12rcd13ifvqce0","pricing_plan_id":"cebpf4jnsgd1na2vs0mg"},{"bike_id":"5ed0c6df-0b2f-4a73-a681-d84d18bc71f9","system_id":"levelo_inurba_marseille","lat":43.30797,"lon":5.38146,"is_reserved":false,"is_disabled":false,"rental_uris":{"android":"levelo://app?vid=5ed0c6df-0b2f-4a73-a681-d84d18bc71f9","ios":"levelo://app?vid=5ed0c6df-0b2f-4a73-a681-d84d18bc71f9"},"vehicle_type_id":"4","last_reported":1708585625,"current_range_meters":31200,"station_id":"ce4bgt12rcd13ifvqce0","pricing_plan_id":"cebpf4jnsgd1na2vs0mg"},{"bike_id":"7b80c7c9-dbf5-4741-a86e-e2dfd0e34366","system_id":"levelo_inurba_marseille","lat":43.308012,"lon":5.381511,"is_reserved":false,"is_disabled":false,"rental_uris":{"android":"levelo://app?vid=7b80c7c9-dbf5-4741-a86e-e2dfd0e34366","ios":"levelo://app?vid=7b80c7c9-dbf5-4741-a86e-e2dfd0e34366"},"vehicle_type_id":"4","last_reported":1708585625,"current_range_meters":22400,"station_id":"ce4bgt12rcd13ifvqce0","pricing_plan_id":"cebpf4jnsgd1na2vs0mg"},{"bike_id":"0de503bd-6958-4a4a-b22a-514282751f91","system_id":"levelo_inurba_marseille","lat":43.308012,"lon":5.381511,"is_reserved":false,"is_disabled":false,"rental_uris":{"android":"levelo://app?vid=0de503bd-6958-4a4a-b22a-514282751f91","ios":"levelo://app?vid=0de503bd-6958-4a4a-b22a-514282751f91"},"vehicle_type_id":"4","last_reported":1708585625,"current_range_meters":20800,"station_id":"ce4bgt12rcd13ifvqce0","pricing_plan_id":"cebpf4jnsgd1na2vs0mg"},{"bike_id":"1de9ce08-688d-4f72-9da9-27b1a92dfd23","system_id":"levelo_inurba_marseille","lat":43.308,"lon":5.38153,"is_reserved":false,"is_disabled":false,"rental_uris":{"android":"levelo://app?vid=1de9ce08-688d-4f72-9da9-27b1a92dfd23","ios":"levelo://app?vid=1de9ce08-688d-4f72-9da9-27b1a92dfd23"},"vehicle_type_id":"4","last_reported":1708585625,"current_range_meters":30000,"station_id":"ce4bgt12rcd13ifvqce0","pricing_plan_id":"cebpf4jnsgd1na2vs0mg"},{"bike_id":"be3bd6ab-5d20-45e7-9711-6bad131af93a","system_id":"levelo_inurba_marseille","lat":43.30806,"lon":5.38158,"is_reserved":false,"is_disabled":false,"rental_uris":{"android":"levelo://app?vid=be3bd6ab-5d20-45e7-9711-6bad131af93a","ios":"levelo://app?vid=be3bd6ab-5d20-45e7-9711-6bad131af93a"},"vehicle_type_id":"4","last_reported":1708585625,"current_range_meters":13200,"station_id":"ce4bgt12rcd13ifvqce0","pricing_plan_id":"cebpf4jnsgd1na2vs0mg"},{"bike_id":"950c3951-e8fd-42aa-918f-a31e0999f50f","system_id":"levelo_inurba_marseille","lat":43.30797,"lon":5.38154,"is_reserved":false,"is_disabled":false,"rental_uris":{"android":"levelo://app?vid=950c3951-e8fd-42aa-918f-a31e0999f50f","ios":"levelo://app?vid=950c3951-e8fd-42aa-918f-a31e0999f50f"},"vehicle_type_id":"4","last_reported":1708585625,"current_range_meters":23200,"station_id":"ce4bgt12rcd13ifvqce0","pricing_plan_id":"cebpf4jnsgd1na2vs0mg"},{"bike_id":"5a22acdc-68a0-4d33-84c4-142c1c94bc9d","system_id":"levelo_inurba_marseille","lat":43.308008,"lon":5.381597,"is_reserved":false,"is_disabled":false,"rental_uris":{"android":"levelo://app?vid=5a22acdc-68a0-4d33-84c4-142c1c94bc9d","ios":"levelo://app?vid=5a22acdc-68a0-4d33-84c4-142c1c94bc9d"},"vehicle_type_id":"4","last_reported":1708585625,"current_range_meters":24800,"station_id":"ce4bgt12rcd13ifvqce0","pricing_plan_id":"cebpf4jnsgd1na2vs0mg"},{"bike_id":"ff10a5f2-1c15-4a4f-a3b8-ffdb1c32f02a","system_id":"levelo_inurba_marseille","lat":43.304606,"lon":5.379026,"is_reserved":false,"is_disabled":false,"rental_uris":{"android":"levelo://app?vid=ff10a5f2-1c15-4a4f-a3b8-ffdb1c32f02a","ios":"levelo://app?vid=ff10a5f2-1c15-4a4f-a3b8-ffdb1c32f02a"},"vehicle_type_id":"4","last_reported":1708585625,"current_range_meters":5200,"station_id":"ce4bgup2rcd13ifvqcn0","pricing_plan_id":"cebpf4jnsgd1na2vs0mg"},{"bike_id":"ea600c04-317c-4adc-a6d9-5d0b431142c6","system_id":"levelo_inurba_marseille","lat":43.304606,"lon":5.379026,"is_reserved":false,"is_disabled":false,"rental_uris":{"android":"levelo://app?vid=ea600c04-317c-4adc-a6d9-5d0b431142c6","ios":"levelo://app?vid=ea600c04-317c-4adc-a6d9-5d0b431142c6"},"vehicle_type_id":"4","last_reported":1708585625,"current_range_meters":25200,"station_id":"ce4bgup2rcd13ifvqcn0","pricing_plan_id":"cebpf4jnsgd1na2vs0mg"},{"bike_id":"f89a6a7b-d8fc-4a47-bbc7-ca4769492f61","system_id":"levelo_inurba_marseille","lat":43.304833,"lon":5.379133,"is_reserved":false,"is_disabled":false,"rental_uris":{"android":"levelo://app?vid=f89a6a7b-d8fc-4a47-bbc7-ca4769492f61","ios":"levelo://app?vid=f89a6a7b-d8fc-4a47-bbc7-ca4769492f61"},"vehicle_type_id":"4","last_reported":1708585625,"current_range_meters":25200,"station_id":"ce4bgup2rcd13ifvqcn0","pricing_plan_id":"cebpf4jnsgd1na2vs0mg"},{"bike_id":"224f8e77-e1da-4498-83e8-ca7095974341","system_id":"levelo_inurba_marseille","lat":43.304606,"lon":5.379026,"is_reserved":false,"is_disabled":false,"rental_uris":{"android":"levelo://app?vid=224f8e77-e1da-4498-83e8-ca7095974341","ios":"levelo://app?vid=224f8e77-e1da-4498-83e8-ca7095974341"},"vehicle_type_id":"4","last_reported":1708585625,"current_range_meters":24800,"station_id":"ce4bgup2rcd13ifvqcn0","pricing_plan_id":"cebpf4jnsgd1na2vs0mg"},{"bike_id":"3077fb88-a054-4ecb-8204-443f05c173cb","system_id":"levelo_inurba_marseille","lat":43.304606,"lon":5.379026,"is_reserved":false,"is_disabled":false,"rental_uris":{"android":"levelo://app?vid=3077fb88-a054-4ecb-8204-443f05c173cb","ios":"levelo://app?vid=3077fb88-a054-4ecb-8204-443f05c173cb"},"vehicle_type_id":"4","last_reported":1708585625,"current_range_meters":31600,"station_id":"ce4bgup2rcd13ifvqcn0","pricing_plan_id":"cebpf4jnsgd1na2vs0mg"},{"bike_id":"4e523bbd-6d34-49b3-8948-538e869fb33d","system_id":"levelo_inurba_marseille","lat":43.304606,"lon":5.379026,"is_reserved":false,"is_disabled":false,"rental_uris":{"android":"levelo://app?vid=4e523bbd-6d34-49b3-8948-538e869fb33d","ios":"levelo://app?vid=4e523bbd-6d34-49b3-8948-538e869fb33d"},"vehicle_type_id":"4","last_reported":1708585625,"current_range_meters":9600,"station_id":"ce4bgup2rcd13ifvqcn0","pricing_plan_id":"cebpf4jnsgd1na2vs0mg"},{"bike_id":"259deb4e-9ab0-416d-830b-cdadcbad382c","system_id":"levelo_inurba_marseille","lat":43.304606,"lon":5.379026,"is_reserved":false,"is_disabled":false,"rental_uris":{"android":"levelo://app?vid=259deb4e-9ab0-416d-830b-cdadcbad382c","ios":"levelo://app?vid=259deb4e-9ab0-416d-830b-cdadcbad382c"},"vehicle_type_id":"4","last_reported":1708585625,"current_range_meters":3600,"station_id":"ce4bgup2rcd13ifvqcn0","pricing_plan_id":"cebpf4jnsgd1na2vs0mg"},{"bike_id":"39343002-7e43-45e1-865c-5e22b67031ed","system_id":"levelo_inurba_marseille","lat":43.304606,"lon":5.379026,"is_reserved":false,"is_disabled":false,"rental_uris":{"android":"levelo://app?vid=39343002-7e43-45e1-865c-5e22b67031ed","ios":"levelo://app?vid=39343002-7e43-45e1-865c-5e22b67031ed"},"vehicle_type_id":"4","last_reported":1708585625,"current_range_meters":23200,"station_id":"ce4bgup2rcd13ifvqcn0","pricing_plan_id":"cebpf4jnsgd1na2vs0mg"},{"bike_id":"e1cbcdee-9d30-49fb-bfd5-cde72f3cbbb1","system_id":"levelo_inurba_marseille","lat":43.304606,"lon":5.379026,"is_reserved":false,"is_disabled":false,"rental_uris":{"android":"levelo://app?vid=e1cbcdee-9d30-49fb-bfd5-cde72f3cbbb1","ios":"levelo://app?vid=e1cbcdee-9d30-49fb-bfd5-cde72f3cbbb1"},"vehicle_type_id":"4","last_reported":1708585625,"current_range_meters":31200,"station_id":"ce4bgup2rcd13ifvqcn0","pricing_plan_id":"cebpf4jnsgd1na2vs0mg"},{"bike_id":"d3bf2df2-5fc6-4d7f-b8fb-62f2b830f175","system_id":"levelo_inurba_marseille","lat":43.304606,"lon":5.379026,"is_reserved":false,"is_disabled":false,"rental_uris":{"android":"levelo://app?vid=d3bf2df2-5fc6-4d7f-b8fb-62f2b830f175","ios":"levelo://app?vid=d3bf2df2-5fc6-4d7f-b8fb-62f2b830f175"},"vehicle_type_id":"4","last_reported":1708585625,"current_range_meters":12400,"station_id":"ce4bgup2rcd13ifvqcn0","pricing_plan_id":"cebpf4jnsgd1na2vs0mg"},{"bike_id":"90731d3a-88e8-4add-8b86-15cbf3a6f261","system_id":"levelo_inurba_marseille","lat":43.304606,"lon":5.379026,"is_reserved":false,"is_disabled":false,"rental_uris":{"android":"levelo://app?vid=90731d3a-88e8-4add-8b86-15cbf3a6f261","ios":"levelo://app?vid=90731d3a-88e8-4add-8b86-15cbf3a6f261"},"vehicle_type_id":"4","last_reported":1708585625,"current_range_meters":7200,"station_id":"ce4bgup2rcd13ifvqcn0","pricing_plan_id":"cebpf4jnsgd1na2vs0mg"},{"bike_id":"c571984b-48e4-4879-b609-8418f1ce246c","system_id":"levelo_inurba_marseille","lat":43.304606,"lon":5.379026,"is_reserved":false,"is_disabled":false,"rental_uris":{"android":"levelo://app?vid=c571984b-48e4-4879-b609-8418f1ce246c","ios":"levelo://app?vid=c571984b-48e4-4879-b609-8418f1ce246c"},"vehicle_type_id":"4","last_reported":1708585625,"current_range_meters":6800,"station_id":"ce4bgup2rcd13ifvqcn0","pricing_plan_id":"cebpf4jnsgd1na2vs0mg"},{"bike_id":"f481dcc3-29c3-4ffc-bc06-3bc0a93ccca6","system_id":"levelo_inurba_marseille","lat":43.304606,"lon":5.379026,"is_reserved":false,"is_disabled":false,"rental_uris":{"android":"levelo://app?vid=f481dcc3-29c3-4ffc-bc06-3bc0a93ccca6","ios":"levelo://app?vid=f481dcc3-29c3-4ffc-bc06-3bc0a93ccca6"},"vehicle_type_id":"4","last_reported":1708585625,"current_range_meters":18000,"station_id":"ce4bgup2rcd13ifvqcn0","pricing_plan_id":"cebpf4jnsgd1na2vs0mg"},{"bike_id":"3bee8e0d-3769-4b4c-a83c-93b17a0003ef","system_id":"levelo_inurba_marseille","lat":43.30478,"lon":5.37922,"is_reserved":false,"is_disabled":false,"rental_uris":{"android":"levelo://app?vid=3bee8e0d-3769-4b4c-a83c-93b17a0003ef","ios":"levelo://app?vid=3bee8e0d-3769-4b4c-a83c-93b17a0003ef"},"vehicle_type_id":"4","last_reported":1708585625,"current_range_meters":24400,"station_id":"ce4bgup2rcd13ifvqcn0","pricing_plan_id":"cebpf4jnsgd1na2vs0mg"},{"bike_id":"0f1a4f87-cc99-4d46-821c-57ac45ffa512","system_id":"levelo_inurba_marseille","lat":43.304606,"lon":5.379026,"is_reserved":false,"is_disabled":false,"rental_uris":{"android":"levelo://app?vid=0f1a4f87-cc99-4d46-821c-57ac45ffa512","ios":"levelo://app?vid=0f1a4f87-cc99-4d46-821c-57ac45ffa512"},"vehicle_type_id":"4","last_reported":1708585625,"current_range_meters":16800,"station_id":"ce4bgup2rcd13ifvqcn0","pricing_plan_id":"cebpf4jnsgd1na2vs0mg"},{"bike_id":"04580ba8-0554-4c38-8fd3-63e2aa84f233","system_id":"levelo_inurba_marseille","lat":43.304606,"lon":5.379026,"is_reserved":false,"is_disabled":false,"rental_uris":{"android":"levelo://app?vid=04580ba8-0554-4c38-8fd3-63e2aa84f233","ios":"levelo://app?vid=04580ba8-0554-4c38-8fd3-63e2aa84f233"},"vehicle_type_id":"4","last_reported":1708585625,"current_range_meters":7600,"station_id":"ce4bgup2rcd13ifvqcn0","pricing_plan_id":"cebpf4jnsgd1na2vs0mg"},{"bike_id":"d0c9c26e-4b47-4e79-94c9-1b191ec7723d","system_id":"levelo_inurba_marseille","lat":43.304606,"lon":5.379026,"is_reserved":false,"is_disabled":false,"rental_uris":{"android":"levelo://app?vid=d0c9c26e-4b47-4e79-94c9-1b191ec7723d","ios":"levelo://app?vid=d0c9c26e-4b47-4e79-94c9-1b191ec7723d"},"vehicle_type_id":"4","last_reported":1708585625,"current_range_meters":15600,"station_id":"ce4bgup2rcd13ifvqcn0","pricing_plan_id":"cebpf4jnsgd1na2vs0mg"},{"bike_id":"32b5991f-b5c0-4479-8fd4-16f2946d9e9a","system_id":"levelo_inurba_marseille","lat":43.304606,"lon":5.379026,"is_reserved":false,"is_disabled":false,"rental_uris":{"android":"levelo://app?vid=32b5991f-b5c0-4479-8fd4-16f2946d9e9a","ios":"levelo://app?vid=32b5991f-b5c0-4479-8fd4-16f2946d9e9a"},"vehicle_type_id":"4","last_reported":1708585625,"current_range_meters":6000,"station_id":"ce4bgup2rcd13ifvqcn0","pricing_plan_id":"cebpf4jnsgd1na2vs0mg"},{"bike_id":"f05676cf-f902-408a-bfdf-44e2eb89e7cf","system_id":"levelo_inurba_marseille","lat":43.304606,"lon":5.379026,"is_reserved":false,"is_disabled":false,"rental_uris":{"android":"levelo://app?vid=f05676cf-f902-408a-bfdf-44e2eb89e7cf","ios":"levelo://app?vid=f05676cf-f902-408a-bfdf-44e2eb89e7cf"},"vehicle_type_id":"4","last_reported":1708585625,"current_range_meters":14400,"station_id":"ce4bgup2rcd13ifvqcn0","pricing_plan_id":"cebpf4jnsgd1na2vs0mg"},{"bike_id":"c758cf62-fe96-4404-aab0-1f494f15c226","system_id":"levelo_inurba_marseille","lat":43.304606,"lon":5.379026,"is_reserved":false,"is_disabled":false,"rental_uris":{"android":"levelo://app?vid=c758cf62-fe96-4404-aab0-1f494f15c226","ios":"levelo://app?vid=c758cf62-fe96-4404-aab0-1f494f15c226"},"vehicle_type_id":"4","last_reported":1708585625,"current_range_meters":22400,"station_id":"ce4bgup2rcd13ifvqcn0","pricing_plan_id":"cebpf4jnsgd1na2vs0mg"},{"bike_id":"6b957086-a331-4887-beb9-fe51d5e08d7b","system_id":"levelo_inurba_marseille","lat":43.304606,"lon":5.379026,"is_reserved":false,"is_disabled":false,"rental_uris":{"android":"levelo://app?vid=6b957086-a331-4887-beb9-fe51d5e08d7b","ios":"levelo://app?vid=6b957086-a331-4887-beb9-fe51d5e08d7b"},"vehicle_type_id":"4","last_reported":1708585625,"current_range_meters":20800,"station_id":"ce4bgup2rcd13ifvqcn0","pricing_plan_id":"cebpf4jnsgd1na2vs0mg"},{"bike_id":"4aa35de8-39f0-480d-99ea-ae9b04f53d7d","system_id":"levelo_inurba_marseille","lat":43.304606,"lon":5.379026,"is_reserved":false,"is_disabled":false,"rental_uris":{"android":"levelo://app?vid=4aa35de8-39f0-480d-99ea-ae9b04f53d7d","ios":"levelo://app?vid=4aa35de8-39f0-480d-99ea-ae9b04f53d7d"},"vehicle_type_id":"4","last_reported":1708585625,"current_range_meters":4400,"station_id":"ce4bgup2rcd13ifvqcn0","pricing_plan_id":"cebpf4jnsgd1na2vs0mg"},{"bike_id":"318a96e8-979d-442c-8cc6-7773f57351ee","system_id":"levelo_inurba_marseille","lat":43.304606,"lon":5.379026,"is_reserved":false,"is_disabled":false,"rental_uris":{"android":"levelo://app?vid=318a96e8-979d-442c-8cc6-7773f57351ee","ios":"levelo://app?vid=318a96e8-979d-442c-8cc6-7773f57351ee"},"vehicle_type_id":"4","last_reported":1708585625,"current_range_meters":1600,"station_id":"ce4bgup2rcd13ifvqcn0","pricing_plan_id":"cebpf4jnsgd1na2vs0mg"},{"bike_id":"1cd52e85-33cf-4baa-a50d-1603aa73b898","system_id":"levelo_inurba_marseille","lat":43.304606,"lon":5.379026,"is_reserved":false,"is_disabled":false,"rental_uris":{"android":"levelo://app?vid=1cd52e85-33cf-4baa-a50d-1603aa73b898","ios":"levelo://app?vid=1cd52e85-33cf-4baa-a50d-1603aa73b898"},"vehicle_type_id":"4","last_reported":1708585625,"current_range_meters":22800,"station_id":"ce4bgup2rcd13ifvqcn0","pricing_plan_id":"cebpf4jnsgd1na2vs0mg"},{"bike_id":"d65ac957-beb5-4b23-8772-757ecb1671b8","system_id":"levelo_inurba_marseille","lat":43.304606,"lon":5.379026,"is_reserved":false,"is_disabled":false,"rental_uris":{"android":"levelo://app?vid=d65ac957-beb5-4b23-8772-757ecb1671b8","ios":"levelo://app?vid=d65ac957-beb5-4b23-8772-757ecb1671b8"},"vehicle_type_id":"4","last_reported":1708585625,"current_range_meters":22000,"station_id":"ce4bgup2rcd13ifvqcn0","pricing_plan_id":"cebpf4jnsgd1na2vs0mg"},{"bike_id":"80971760-5f76-4d53-9377-cc7e9b4eec66","system_id":"levelo_inurba_marseille","lat":43.304606,"lon":5.379026,"is_reserved":false,"is_disabled":false,"rental_uris":{"android":"levelo://app?vid=80971760-5f76-4d53-9377-cc7e9b4eec66","ios":"levelo://app?vid=80971760-5f76-4d53-9377-cc7e9b4eec66"},"vehicle_type_id":"4","last_reported":1708585625,"current_range_meters":24800,"station_id":"ce4bgup2rcd13ifvqcn0","pricing_plan_id":"cebpf4jnsgd1na2vs0mg"},{"bike_id":"aecf47ae-2bd9-4028-8015-55859ce96306","system_id":"levelo_inurba_marseille","lat":43.304606,"lon":5.379026,"is_reserved":false,"is_disabled":false,"rental_uris":{"android":"levelo://app?vid=aecf47ae-2bd9-4028-8015-55859ce96306","ios":"levelo://app?vid=aecf47ae-2bd9-4028-8015-55859ce96306"},"vehicle_type_id":"4","last_reported":1708585625,"current_range_meters":12400,"station_id":"ce4bgup2rcd13ifvqcn0","pricing_plan_id":"cebpf4jnsgd1na2vs0mg"},{"bike_id":"98c7095f-f498-4823-be78-96b2912a8978","system_id":"levelo_inurba_marseille","lat":43.324771,"lon":5.36557,"is_reserved":false,"is_disabled":false,"rental_uris":{"android":"levelo://app?vid=98c7095f-f498-4823-be78-96b2912a8978","ios":"levelo://app?vid=98c7095f-f498-4823-be78-96b2912a8978"},"vehicle_type_id":"4","last_reported":1708585625,"current_range_meters":18400,"station_id":"ce4bhs12rcd13ifvqhvg","pricing_plan_id":"cebpf4jnsgd1na2vs0mg"},{"bike_id":"d99879a7-c888-4201-ba51-15dfacecdc02","system_id":"levelo_inurba_marseille","lat":43.304606,"lon":5.379026,"is_reserved":false,"is_disabled":false,"rental_uris":{"android":"levelo://app?vid=d99879a7-c888-4201-ba51-15dfacecdc02","ios":"levelo://app?vid=d99879a7-c888-4201-ba51-15dfacecdc02"},"vehicle_type_id":"4","last_reported":1708585625,"current_range_meters":30400,"station_id":"ce4bgup2rcd13ifvqcn0","pricing_plan_id":"cebpf4jnsgd1na2vs0mg"},{"bike_id":"0d4fc775-20dd-4e87-b658-a68a1582acf4","system_id":"levelo_inurba_marseille","lat":43.30468,"lon":5.37918,"is_reserved":false,"is_disabled":false,"rental_uris":{"android":"levelo://app?vid=0d4fc775-20dd-4e87-b658-a68a1582acf4","ios":"levelo://app?vid=0d4fc775-20dd-4e87-b658-a68a1582acf4"},"vehicle_type_id":"4","last_reported":1708585625,"current_range_meters":6000,"station_id":"ce4bgup2rcd13ifvqcn0","pricing_plan_id":"cebpf4jnsgd1na2vs0mg"},{"bike_id":"f1dc8f79-b36d-4989-8ba0-99dca5f2be5e","system_id":"levelo_inurba_marseille","lat":43.30466,"lon":5.37916,"is_reserved":false,"is_disabled":false,"rental_uris":{"android":"levelo://app?vid=f1dc8f79-b36d-4989-8ba0-99dca5f2be5e","ios":"levelo://app?vid=f1dc8f79-b36d-4989-8ba0-99dca5f2be5e"},"vehicle_type_id":"4","last_reported":1708585625,"current_range_meters":2800,"station_id":"ce4bgup2rcd13ifvqcn0","pricing_plan_id":"cebpf4jnsgd1na2vs0mg"},{"bike_id":"4cd60cd3-101b-4a05-9703-76840434a255","system_id":"levelo_inurba_marseille","lat":43.324771,"lon":5.36557,"is_reserved":false,"is_disabled":false,"rental_uris":{"android":"levelo://app?vid=4cd60cd3-101b-4a05-9703-76840434a255","ios":"levelo://app?vid=4cd60cd3-101b-4a05-9703-76840434a255"},"vehicle_type_id":"4","last_reported":1708585625,"current_range_meters":16800,"station_id":"ce4bhs12rcd13ifvqhvg","pricing_plan_id":"cebpf4jnsgd1na2vs0mg"},{"bike_id":"1bac4c8a-cd75-4e6e-8f7e-d90d2252ca76","system_id":"levelo_inurba_marseille","lat":43.324771,"lon":5.36557,"is_reserved":false,"is_disabled":false,"rental_uris":{"android":"levelo://app?vid=1bac4c8a-cd75-4e6e-8f7e-d90d2252ca76","ios":"levelo://app?vid=1bac4c8a-cd75-4e6e-8f7e-d90d2252ca76"},"vehicle_type_id":"4","last_reported":1708585625,"current_range_meters":0,"station_id":"ce4bhs12rcd13ifvqhvg","pricing_plan_id":"cebpf4jnsgd1na2vs0mg"},{"bike_id":"56abbead-0b88-426d-ac11-df8210e7e28a","system_id":"levelo_inurba_marseille","lat":43.324771,"lon":5.36557,"is_reserved":false,"is_disabled":false,"rental_uris":{"android":"levelo://app?vid=56abbead-0b88-426d-ac11-df8210e7e28a","ios":"levelo://app?vid=56abbead-0b88-426d-ac11-df8210e7e28a"},"vehicle_type_id":"4","last_reported":1708585625,"current_range_meters":11200,"station_id":"ce4bhs12rcd13ifvqhvg","pricing_plan_id":"cebpf4jnsgd1na2vs0mg"},{"bike_id":"caaf26f8-fbed-445b-be7b-3ecf625cc521","system_id":"levelo_inurba_marseille","lat":43.324771,"lon":5.36557,"is_reserved":false,"is_disabled":false,"rental_uris":{"android":"levelo://app?vid=caaf26f8-fbed-445b-be7b-3ecf625cc521","ios":"levelo://app?vid=caaf26f8-fbed-445b-be7b-3ecf625cc521"},"vehicle_type_id":"4","last_reported":1708585625,"current_range_meters":22800,"station_id":"ce4bhs12rcd13ifvqhvg","pricing_plan_id":"cebpf4jnsgd1na2vs0mg"},{"bike_id":"f2cff5d1-a87e-43e1-8ace-015f611533e5","system_id":"levelo_inurba_marseille","lat":43.324771,"lon":5.36557,"is_reserved":false,"is_disabled":false,"rental_uris":{"android":"levelo://app?vid=f2cff5d1-a87e-43e1-8ace-015f611533e5","ios":"levelo://app?vid=f2cff5d1-a87e-43e1-8ace-015f611533e5"},"vehicle_type_id":"4","last_reported":1708585625,"current_range_meters":6800,"station_id":"ce4bhs12rcd13ifvqhvg","pricing_plan_id":"cebpf4jnsgd1na2vs0mg"},{"bike_id":"6c581da6-d340-44bb-8dcf-2d6491d8b2b7","system_id":"levelo_inurba_marseille","lat":43.324771,"lon":5.36557,"is_reserved":false,"is_disabled":false,"rental_uris":{"android":"levelo://app?vid=6c581da6-d340-44bb-8dcf-2d6491d8b2b7","ios":"levelo://app?vid=6c581da6-d340-44bb-8dcf-2d6491d8b2b7"},"vehicle_type_id":"4","last_reported":1708585625,"current_range_meters":20000,"station_id":"ce4bhs12rcd13ifvqhvg","pricing_plan_id":"cebpf4jnsgd1na2vs0mg"},{"bike_id":"22b73e16-38da-4530-8d8a-3453426d23df","system_id":"levelo_inurba_marseille","lat":43.324771,"lon":5.36557,"is_reserved":false,"is_disabled":false,"rental_uris":{"android":"levelo://app?vid=22b73e16-38da-4530-8d8a-3453426d23df","ios":"levelo://app?vid=22b73e16-38da-4530-8d8a-3453426d23df"},"vehicle_type_id":"4","last_reported":1708585625,"current_range_meters":21200,"station_id":"ce4bhs12rcd13ifvqhvg","pricing_plan_id":"cebpf4jnsgd1na2vs0mg"},{"bike_id":"ec5c5936-1a53-4737-a699-b0348ce89032","system_id":"levelo_inurba_marseille","lat":43.324771,"lon":5.36557,"is_reserved":false,"is_disabled":false,"rental_uris":{"android":"levelo://app?vid=ec5c5936-1a53-4737-a699-b0348ce89032","ios":"levelo://app?vid=ec5c5936-1a53-4737-a699-b0348ce89032"},"vehicle_type_id":"4","last_reported":1708585625,"current_range_meters":2800,"station_id":"ce4bhs12rcd13ifvqhvg","pricing_plan_id":"cebpf4jnsgd1na2vs0mg"},{"bike_id":"7fc8d78d-9bb1-46c1-8698-a297edd8ecd1","system_id":"levelo_inurba_marseille","lat":43.304606,"lon":5.379026,"is_reserved":false,"is_disabled":false,"rental_uris":{"android":"levelo://app?vid=7fc8d78d-9bb1-46c1-8698-a297edd8ecd1","ios":"levelo://app?vid=7fc8d78d-9bb1-46c1-8698-a297edd8ecd1"},"vehicle_type_id":"4","last_reported":1708585625,"current_range_meters":21600,"station_id":"ce4bgup2rcd13ifvqcn0","pricing_plan_id":"cebpf4jnsgd1na2vs0mg"},{"bike_id":"b55de403-1a78-4076-9bfc-2bcb1169923e","system_id":"levelo_inurba_marseille","lat":43.302779,"lon":5.377001,"is_reserved":false,"is_disabled":false,"rental_uris":{"android":"levelo://app?vid=b55de403-1a78-4076-9bfc-2bcb1169923e","ios":"levelo://app?vid=b55de403-1a78-4076-9bfc-2bcb1169923e"},"vehicle_type_id":"4","last_reported":1708585625,"current_range_meters":19600,"station_id":"ce4bguh2rcd13ifvqcj0","pricing_plan_id":"cebpf4jnsgd1na2vs0mg"},{"bike_id":"98ad723b-df33-4b48-9331-9bfc328d7701","system_id":"levelo_inurba_marseille","lat":43.30143,"lon":5.37413,"is_reserved":false,"is_disabled":false,"rental_uris":{"android":"levelo://app?vid=98ad723b-df33-4b48-9331-9bfc328d7701","ios":"levelo://app?vid=98ad723b-df33-4b48-9331-9bfc328d7701"},"vehicle_type_id":"4","last_reported":1708585625,"current_range_meters":16800,"station_id":"ce4bgs92rcd13ifvqcc0","pricing_plan_id":"cebpf4jnsgd1na2vs0mg"},{"bike_id":"349e26e5-fdb6-42ea-8a9e-1cd946954a61","system_id":"levelo_inurba_marseille","lat":43.30279,"lon":5.37709,"is_reserved":false,"is_disabled":false,"rental_uris":{"android":"levelo://app?vid=349e26e5-fdb6-42ea-8a9e-1cd946954a61","ios":"levelo://app?vid=349e26e5-fdb6-42ea-8a9e-1cd946954a61"},"vehicle_type_id":"4","last_reported":1708585625,"current_range_meters":26400,"station_id":"ce4bguh2rcd13ifvqcj0","pricing_plan_id":"cebpf4jnsgd1na2vs0mg"},{"bike_id":"d177e50f-a1eb-4598-8dcd-d21f9c6c7b25","system_id":"levelo_inurba_marseille","lat":43.30271,"lon":5.37715,"is_reserved":false,"is_disabled":false,"rental_uris":{"android":"levelo://app?vid=d177e50f-a1eb-4598-8dcd-d21f9c6c7b25","ios":"levelo://app?vid=d177e50f-a1eb-4598-8dcd-d21f9c6c7b25"},"vehicle_type_id":"4","last_reported":1708585625,"current_range_meters":13200,"station_id":"ce4bguh2rcd13ifvqcj0","pricing_plan_id":"cebpf4jnsgd1na2vs0mg"},{"bike_id":"76cb3c24-5e51-42a4-8fa3-c5cd762ab669","system_id":"levelo_inurba_marseille","lat":43.30651,"lon":5.38187,"is_reserved":false,"is_disabled":false,"rental_uris":{"android":"levelo://app?vid=76cb3c24-5e51-42a4-8fa3-c5cd762ab669","ios":"levelo://app?vid=76cb3c24-5e51-42a4-8fa3-c5cd762ab669"},"vehicle_type_id":"4","last_reported":1708585625,"current_range_meters":21600,"station_id":"","pricing_plan_id":"cebpf4jnsgd1na2vs0mg"},{"bike_id":"3f99f562-ba3a-437f-b6e2-1c9edc807df9","system_id":"levelo_inurba_marseille","lat":43.30143,"lon":5.37413,"is_reserved":false,"is_disabled":false,"rental_uris":{"android":"levelo://app?vid=3f99f562-ba3a-437f-b6e2-1c9edc807df9","ios":"levelo://app?vid=3f99f562-ba3a-437f-b6e2-1c9edc807df9"},"vehicle_type_id":"4","last_reported":1708585625,"current_range_meters":1600,"station_id":"ce4bgs92rcd13ifvqcc0","pricing_plan_id":"cebpf4jnsgd1na2vs0mg"},{"bike_id":"e15706f2-6fc7-4ca0-bab0-a31d2e139e6b","system_id":"levelo_inurba_marseille","lat":43.304606,"lon":5.379026,"is_reserved":false,"is_disabled":false,"rental_uris":{"android":"levelo://app?vid=e15706f2-6fc7-4ca0-bab0-a31d2e139e6b","ios":"levelo://app?vid=e15706f2-6fc7-4ca0-bab0-a31d2e139e6b"},"vehicle_type_id":"4","last_reported":1708585625,"current_range_meters":4000,"station_id":"ce4bgup2rcd13ifvqcn0","pricing_plan_id":"cebpf4jnsgd1na2vs0mg"},{"bike_id":"2dfb92cc-ea3b-4091-8c27-ecfa50d3effe","system_id":"levelo_inurba_marseille","lat":43.319916,"lon":5.381406,"is_reserved":false,"is_disabled":false,"rental_uris":{"android":"levelo://app?vid=2dfb92cc-ea3b-4091-8c27-ecfa50d3effe","ios":"levelo://app?vid=2dfb92cc-ea3b-4091-8c27-ecfa50d3effe"},"vehicle_type_id":"4","last_reported":1708585625,"current_range_meters":2000,"station_id":"ce4bhr12rcd13ifvqhpg","pricing_plan_id":"cebpf4jnsgd1na2vs0mg"},{"bike_id":"0268a593-05f3-40b2-809a-21f4c866fa88","system_id":"levelo_inurba_marseille","lat":43.31998,"lon":5.38142,"is_reserved":false,"is_disabled":false,"rental_uris":{"android":"levelo://app?vid=0268a593-05f3-40b2-809a-21f4c866fa88","ios":"levelo://app?vid=0268a593-05f3-40b2-809a-21f4c866fa88"},"vehicle_type_id":"4","last_reported":1708585625,"current_range_meters":0,"station_id":"ce4bhr12rcd13ifvqhpg","pricing_plan_id":"cebpf4jnsgd1na2vs0mg"},{"bike_id":"a88e631f-9ad3-4e3a-b1ce-d7828b6ae959","system_id":"levelo_inurba_marseille","lat":43.31995,"lon":5.38148,"is_reserved":false,"is_disabled":false,"rental_uris":{"android":"levelo://app?vid=a88e631f-9ad3-4e3a-b1ce-d7828b6ae959","ios":"levelo://app?vid=a88e631f-9ad3-4e3a-b1ce-d7828b6ae959"},"vehicle_type_id":"4","last_reported":1708585625,"current_range_meters":0,"station_id":"ce4bhr12rcd13ifvqhpg","pricing_plan_id":"cebpf4jnsgd1na2vs0mg"},{"bike_id":"52cf37a6-87fc-466a-b136-bbc44447dd9f","system_id":"levelo_inurba_marseille","lat":43.299222,"lon":5.365554,"is_reserved":false,"is_disabled":false,"rental_uris":{"android":"levelo://app?vid=52cf37a6-87fc-466a-b136-bbc44447dd9f","ios":"levelo://app?vid=52cf37a6-87fc-466a-b136-bbc44447dd9f"},"vehicle_type_id":"4","last_reported":1708585625,"current_range_meters":0,"station_id":"ce4bgm92rcd13ifvqbr0","pricing_plan_id":"cebpf4jnsgd1na2vs0mg"},{"bike_id":"0a85b555-6e5b-4375-8fa9-cc2c6e92c17b","system_id":"levelo_inurba_marseille","lat":43.299724,"lon":5.371829,"is_reserved":false,"is_disabled":false,"rental_uris":{"android":"levelo://app?vid=0a85b555-6e5b-4375-8fa9-cc2c6e92c17b","ios":"levelo://app?vid=0a85b555-6e5b-4375-8fa9-cc2c6e92c17b"},"vehicle_type_id":"4","last_reported":1708585625,"current_range_meters":18400,"station_id":"ce4bgr92rcd13ifvqc7g","pricing_plan_id":"cebpf4jnsgd1na2vs0mg"},{"bike_id":"ae2b547e-b9d1-47b7-9eab-02ede0550368","system_id":"levelo_inurba_marseille","lat":43.305364,"lon":5.384119,"is_reserved":false,"is_disabled":false,"rental_uris":{"android":"levelo://app?vid=ae2b547e-b9d1-47b7-9eab-02ede0550368","ios":"levelo://app?vid=ae2b547e-b9d1-47b7-9eab-02ede0550368"},"vehicle_type_id":"4","last_reported":1708585625,"current_range_meters":31200,"station_id":"ce4bgg92rcd13ifvqb30","pricing_plan_id":"cebpf4jnsgd1na2vs0mg"},{"bike_id":"1eedb118-b364-4e05-95df-028cae3ea05a","system_id":"levelo_inurba_marseille","lat":43.298433,"lon":5.362774,"is_reserved":false,"is_disabled":false,"rental_uris":{"android":"levelo://app?vid=1eedb118-b364-4e05-95df-028cae3ea05a","ios":"levelo://app?vid=1eedb118-b364-4e05-95df-028cae3ea05a"},"vehicle_type_id":"4","last_reported":1708585625,"current_range_meters":19200,"station_id":"ce4bgpp2rcd13ifvqc3g","pricing_plan_id":"cebpf4jnsgd1na2vs0mg"},{"bike_id":"53e9d59f-0524-479c-9873-aaa57caa1c01","system_id":"levelo_inurba_marseille","lat":43.305364,"lon":5.384119,"is_reserved":false,"is_disabled":false,"rental_uris":{"android":"levelo://app?vid=53e9d59f-0524-479c-9873-aaa57caa1c01","ios":"levelo://app?vid=53e9d59f-0524-479c-9873-aaa57caa1c01"},"vehicle_type_id":"4","last_reported":1708585625,"current_range_meters":30400,"station_id":"ce4bgg92rcd13ifvqb30","pricing_plan_id":"cebpf4jnsgd1na2vs0mg"},{"bike_id":"9c8cb46e-334d-478f-a3e3-382fc28e9e4a","system_id":"levelo_inurba_marseille","lat":43.299243,"lon":5.374807,"is_reserved":false,"is_disabled":false,"rental_uris":{"android":"levelo://app?vid=9c8cb46e-334d-478f-a3e3-382fc28e9e4a","ios":"levelo://app?vid=9c8cb46e-334d-478f-a3e3-382fc28e9e4a"},"vehicle_type_id":"4","last_reported":1708585625,"current_range_meters":28400,"station_id":"ce4bgjh2rcd13ifvqbg0","pricing_plan_id":"cebpf4jnsgd1na2vs0mg"},{"bike_id":"65d8cc0b-9ae6-4290-8091-641a868c1a98","system_id":"levelo_inurba_marseille","lat":43.299243,"lon":5.374807,"is_reserved":false,"is_disabled":false,"rental_uris":{"android":"levelo://app?vid=65d8cc0b-9ae6-4290-8091-641a868c1a98","ios":"levelo://app?vid=65d8cc0b-9ae6-4290-8091-641a868c1a98"},"vehicle_type_id":"4","last_reported":1708585625,"current_range_meters":15200,"station_id":"ce4bgjh2rcd13ifvqbg0","pricing_plan_id":"cebpf4jnsgd1na2vs0mg"},{"bike_id":"b261ca36-320e-4523-8326-5de7bb2e29e8","system_id":"levelo_inurba_marseille","lat":43.299243,"lon":5.374807,"is_reserved":false,"is_disabled":false,"rental_uris":{"android":"levelo://app?vid=b261ca36-320e-4523-8326-5de7bb2e29e8","ios":"levelo://app?vid=b261ca36-320e-4523-8326-5de7bb2e29e8"},"vehicle_type_id":"4","last_reported":1708585625,"current_range_meters":7600,"station_id":"ce4bgjh2rcd13ifvqbg0","pricing_plan_id":"cebpf4jnsgd1na2vs0mg"},{"bike_id":"315279a6-c766-4621-85fb-2d30497faa5f","system_id":"levelo_inurba_marseille","lat":43.301675,"lon":5.381614,"is_reserved":false,"is_disabled":false,"rental_uris":{"android":"levelo://app?vid=315279a6-c766-4621-85fb-2d30497faa5f","ios":"levelo://app?vid=315279a6-c766-4621-85fb-2d30497faa5f"},"vehicle_type_id":"4","last_reported":1708585625,"current_range_meters":17200,"station_id":"","pricing_plan_id":"cebpf4jnsgd1na2vs0mg"},{"bike_id":"1639ade9-948e-4f5a-85d2-21a89ea75e20","system_id":"levelo_inurba_marseille","lat":43.296131,"lon":5.370791,"is_reserved":false,"is_disabled":false,"rental_uris":{"android":"levelo://app?vid=1639ade9-948e-4f5a-85d2-21a89ea75e20","ios":"levelo://app?vid=1639ade9-948e-4f5a-85d2-21a89ea75e20"},"vehicle_type_id":"4","last_reported":1708585625,"current_range_meters":26000,"station_id":"ce4bgnh2rcd13ifvqc0g","pricing_plan_id":"cebpf4jnsgd1na2vs0mg"},{"bike_id":"b7951544-e2c2-4712-bbb6-20e22e99e7f2","system_id":"levelo_inurba_marseille","lat":43.305994,"lon":5.393687,"is_reserved":false,"is_disabled":false,"rental_uris":{"android":"levelo://app?vid=b7951544-e2c2-4712-bbb6-20e22e99e7f2","ios":"levelo://app?vid=b7951544-e2c2-4712-bbb6-20e22e99e7f2"},"vehicle_type_id":"4","last_reported":1708585625,"current_range_meters":26400,"station_id":"ce4bh0p2rcd13ifvqd80","pricing_plan_id":"cebpf4jnsgd1na2vs0mg"},{"bike_id":"685e8a5f-d2e2-4f99-a5b1-a27c0ae9e36b","system_id":"levelo_inurba_marseille","lat":43.296131,"lon":5.370773,"is_reserved":false,"is_disabled":false,"rental_uris":{"android":"levelo://app?vid=685e8a5f-d2e2-4f99-a5b1-a27c0ae9e36b","ios":"levelo://app?vid=685e8a5f-d2e2-4f99-a5b1-a27c0ae9e36b"},"vehicle_type_id":"4","last_reported":1708585625,"current_range_meters":21600,"station_id":"ce4bgnh2rcd13ifvqc0g","pricing_plan_id":"cebpf4jnsgd1na2vs0mg"},{"bike_id":"f7363668-02e6-4260-9280-0816a83b02f2","system_id":"levelo_inurba_marseille","lat":43.296921,"lon":5.376579,"is_reserved":false,"is_disabled":false,"rental_uris":{"android":"levelo://app?vid=f7363668-02e6-4260-9280-0816a83b02f2","ios":"levelo://app?vid=f7363668-02e6-4260-9280-0816a83b02f2"},"vehicle_type_id":"4","last_reported":1708585625,"current_range_meters":27200,"station_id":"ce4bgkh2rcd13ifvqbl0","pricing_plan_id":"cebpf4jnsgd1na2vs0mg"},{"bike_id":"c8a754da-a03f-4af9-9471-b504321ef0f0","system_id":"levelo_inurba_marseille","lat":43.314968,"lon":5.390352,"is_reserved":false,"is_disabled":false,"rental_uris":{"android":"levelo://app?vid=c8a754da-a03f-4af9-9471-b504321ef0f0","ios":"levelo://app?vid=c8a754da-a03f-4af9-9471-b504321ef0f0"},"vehicle_type_id":"4","last_reported":1708585625,"current_range_meters":31200,"station_id":"","pricing_plan_id":"cebpf4jnsgd1na2vs0mg"},{"bike_id":"c4eea628-8412-4da0-8993-64b792016ba4","system_id":"levelo_inurba_marseille","lat":43.31758,"lon":5.39015,"is_reserved":false,"is_disabled":false,"rental_uris":{"android":"levelo://app?vid=c4eea628-8412-4da0-8993-64b792016ba4","ios":"levelo://app?vid=c4eea628-8412-4da0-8993-64b792016ba4"},"vehicle_type_id":"4","last_reported":1708585625,"current_range_meters":4800,"station_id":"ce4bhqp2rcd13ifvqhng","pricing_plan_id":"cebpf4jnsgd1na2vs0mg"},{"bike_id":"4ca73dbe-6f7c-430f-9d1c-f9360aef9711","system_id":"levelo_inurba_marseille","lat":43.295401,"lon":5.362707,"is_reserved":false,"is_disabled":false,"rental_uris":{"android":"levelo://app?vid=4ca73dbe-6f7c-430f-9d1c-f9360aef9711","ios":"levelo://app?vid=4ca73dbe-6f7c-430f-9d1c-f9360aef9711"},"vehicle_type_id":"4","last_reported":1708585625,"current_range_meters":17600,"station_id":"","pricing_plan_id":"cebpf4jnsgd1na2vs0mg"},{"bike_id":"ad649f5f-ccb1-42ff-9b21-eaf5ef71291a","system_id":"levelo_inurba_marseille","lat":43.298037,"lon":5.381066,"is_reserved":false,"is_disabled":false,"rental_uris":{"android":"levelo://app?vid=ad649f5f-ccb1-42ff-9b21-eaf5ef71291a","ios":"levelo://app?vid=ad649f5f-ccb1-42ff-9b21-eaf5ef71291a"},"vehicle_type_id":"4","last_reported":1708585625,"current_range_meters":22000,"station_id":"ce4bgip2rcd13ifvqbb0","pricing_plan_id":"cebpf4jnsgd1na2vs0mg"},{"bike_id":"10c12965-0391-47bf-ab1f-de22fcc4006e","system_id":"levelo_inurba_marseille","lat":43.298037,"lon":5.381066,"is_reserved":false,"is_disabled":false,"rental_uris":{"android":"levelo://app?vid=10c12965-0391-47bf-ab1f-de22fcc4006e","ios":"levelo://app?vid=10c12965-0391-47bf-ab1f-de22fcc4006e"},"vehicle_type_id":"4","last_reported":1708585625,"current_range_meters":24400,"station_id":"ce4bgip2rcd13ifvqbb0","pricing_plan_id":"cebpf4jnsgd1na2vs0mg"},{"bike_id":"f8afbad2-4705-40fe-84c2-abfa94c177f4","system_id":"levelo_inurba_marseille","lat":43.30428,"lon":5.38878,"is_reserved":false,"is_disabled":false,"rental_uris":{"android":"levelo://app?vid=f8afbad2-4705-40fe-84c2-abfa94c177f4","ios":"levelo://app?vid=f8afbad2-4705-40fe-84c2-abfa94c177f4"},"vehicle_type_id":"4","last_reported":1708585625,"current_range_meters":20800,"station_id":"ce4bgk12rcd13ifvqbi0","pricing_plan_id":"cebpf4jnsgd1na2vs0mg"},{"bike_id":"03adbbda-23da-4814-afe1-318988bc93e9","system_id":"levelo_inurba_marseille","lat":43.30437,"lon":5.388872,"is_reserved":false,"is_disabled":false,"rental_uris":{"android":"levelo://app?vid=03adbbda-23da-4814-afe1-318988bc93e9","ios":"levelo://app?vid=03adbbda-23da-4814-afe1-318988bc93e9"},"vehicle_type_id":"4","last_reported":1708585625,"current_range_meters":16000,"station_id":"ce4bgk12rcd13ifvqbi0","pricing_plan_id":"cebpf4jnsgd1na2vs0mg"},{"bike_id":"d0b04147-7650-4a56-bfce-03f2ea473212","system_id":"levelo_inurba_marseille","lat":43.30444,"lon":5.38894,"is_reserved":false,"is_disabled":false,"rental_uris":{"android":"levelo://app?vid=d0b04147-7650-4a56-bfce-03f2ea473212","ios":"levelo://app?vid=d0b04147-7650-4a56-bfce-03f2ea473212"},"vehicle_type_id":"4","last_reported":1708585625,"current_range_meters":30400,"station_id":"ce4bgk12rcd13ifvqbi0","pricing_plan_id":"cebpf4jnsgd1na2vs0mg"},{"bike_id":"96d68c5e-82c6-45e7-a65e-d0733c5dd49b","system_id":"levelo_inurba_marseille","lat":43.30437,"lon":5.3889,"is_reserved":false,"is_disabled":false,"rental_uris":{"android":"levelo://app?vid=96d68c5e-82c6-45e7-a65e-d0733c5dd49b","ios":"levelo://app?vid=96d68c5e-82c6-45e7-a65e-d0733c5dd49b"},"vehicle_type_id":"4","last_reported":1708585625,"current_range_meters":19600,"station_id":"ce4bgk12rcd13ifvqbi0","pricing_plan_id":"cebpf4jnsgd1na2vs0mg"},{"bike_id":"89237188-73f9-4f9e-8244-e24c99b028ea","system_id":"levelo_inurba_marseille","lat":43.304274,"lon":5.388873,"is_reserved":false,"is_disabled":false,"rental_uris":{"android":"levelo://app?vid=89237188-73f9-4f9e-8244-e24c99b028ea","ios":"levelo://app?vid=89237188-73f9-4f9e-8244-e24c99b028ea"},"vehicle_type_id":"4","last_reported":1708585625,"current_range_meters":31600,"station_id":"ce4bgk12rcd13ifvqbi0","pricing_plan_id":"cebpf4jnsgd1na2vs0mg"},{"bike_id":"25f06b4b-2205-493a-bc31-3e09c42bc5e3","system_id":"levelo_inurba_marseille","lat":43.299028,"lon":5.381509,"is_reserved":false,"is_disabled":false,"rental_uris":{"android":"levelo://app?vid=25f06b4b-2205-493a-bc31-3e09c42bc5e3","ios":"levelo://app?vid=25f06b4b-2205-493a-bc31-3e09c42bc5e3"},"vehicle_type_id":"4","last_reported":1708585625,"current_range_meters":25200,"station_id":"ce4bgj12rcd13ifvqbc0","pricing_plan_id":"cebpf4jnsgd1na2vs0mg"},{"bike_id":"bf52bb54-fd7d-4463-ad6a-3e68bb0f911b","system_id":"levelo_inurba_marseille","lat":43.295748,"lon":5.37522,"is_reserved":false,"is_disabled":false,"rental_uris":{"android":"levelo://app?vid=bf52bb54-fd7d-4463-ad6a-3e68bb0f911b","ios":"levelo://app?vid=bf52bb54-fd7d-4463-ad6a-3e68bb0f911b"},"vehicle_type_id":"4","last_reported":1708585625,"current_range_meters":28000,"station_id":"ce4bgh92rcd13ifvqb50","pricing_plan_id":"cebpf4jnsgd1na2vs0mg"},{"bike_id":"23a46316-2333-4df8-a049-ecceac18598c","system_id":"levelo_inurba_marseille","lat":43.298037,"lon":5.381066,"is_reserved":false,"is_disabled":false,"rental_uris":{"android":"levelo://app?vid=23a46316-2333-4df8-a049-ecceac18598c","ios":"levelo://app?vid=23a46316-2333-4df8-a049-ecceac18598c"},"vehicle_type_id":"4","last_reported":1708585625,"current_range_meters":6800,"station_id":"ce4bgip2rcd13ifvqbb0","pricing_plan_id":"cebpf4jnsgd1na2vs0mg"},{"bike_id":"b916e67a-12ec-439d-9dae-f00184b11089","system_id":"levelo_inurba_marseille","lat":43.298037,"lon":5.381066,"is_reserved":false,"is_disabled":false,"rental_uris":{"android":"levelo://app?vid=b916e67a-12ec-439d-9dae-f00184b11089","ios":"levelo://app?vid=b916e67a-12ec-439d-9dae-f00184b11089"},"vehicle_type_id":"4","last_reported":1708585625,"current_range_meters":24000,"station_id":"ce4bgip2rcd13ifvqbb0","pricing_plan_id":"cebpf4jnsgd1na2vs0mg"},{"bike_id":"04b88410-c85b-4428-8029-efa199f6b3f4","system_id":"levelo_inurba_marseille","lat":43.295748,"lon":5.37522,"is_reserved":false,"is_disabled":false,"rental_uris":{"android":"levelo://app?vid=04b88410-c85b-4428-8029-efa199f6b3f4","ios":"levelo://app?vid=04b88410-c85b-4428-8029-efa199f6b3f4"},"vehicle_type_id":"4","last_reported":1708585625,"current_range_meters":24400,"station_id":"ce4bgh92rcd13ifvqb50","pricing_plan_id":"cebpf4jnsgd1na2vs0mg"},{"bike_id":"1db05b63-b14d-4c61-b8fd-688e27fa16cd","system_id":"levelo_inurba_marseille","lat":43.298037,"lon":5.381066,"is_reserved":false,"is_disabled":false,"rental_uris":{"android":"levelo://app?vid=1db05b63-b14d-4c61-b8fd-688e27fa16cd","ios":"levelo://app?vid=1db05b63-b14d-4c61-b8fd-688e27fa16cd"},"vehicle_type_id":"4","last_reported":1708585625,"current_range_meters":15200,"station_id":"ce4bgip2rcd13ifvqbb0","pricing_plan_id":"cebpf4jnsgd1na2vs0mg"},{"bike_id":"d438a63a-c138-4613-9ada-7fb8940c4708","system_id":"levelo_inurba_marseille","lat":43.295748,"lon":5.37522,"is_reserved":false,"is_disabled":false,"rental_uris":{"android":"levelo://app?vid=d438a63a-c138-4613-9ada-7fb8940c4708","ios":"levelo://app?vid=d438a63a-c138-4613-9ada-7fb8940c4708"},"vehicle_type_id":"4","last_reported":1708585625,"current_range_meters":31200,"station_id":"ce4bgh92rcd13ifvqb50","pricing_plan_id":"cebpf4jnsgd1na2vs0mg"},{"bike_id":"184bc612-d21c-43c6-a210-b545218f6b7e","system_id":"levelo_inurba_marseille","lat":43.296935,"lon":5.376544,"is_reserved":false,"is_disabled":false,"rental_uris":{"android":"levelo://app?vid=184bc612-d21c-43c6-a210-b545218f6b7e","ios":"levelo://app?vid=184bc612-d21c-43c6-a210-b545218f6b7e"},"vehicle_type_id":"4","last_reported":1708585625,"current_range_meters":13200,"station_id":"ce4bgkh2rcd13ifvqbl0","pricing_plan_id":"cebpf4jnsgd1na2vs0mg"},{"bike_id":"f4d7d572-4738-4b60-9c6b-e62afdd67d81","system_id":"levelo_inurba_marseille","lat":43.295279,"lon":5.375048,"is_reserved":false,"is_disabled":false,"rental_uris":{"android":"levelo://app?vid=f4d7d572-4738-4b60-9c6b-e62afdd67d81","ios":"levelo://app?vid=f4d7d572-4738-4b60-9c6b-e62afdd67d81"},"vehicle_type_id":"4","last_reported":1708585625,"current_range_meters":0,"station_id":"ce4bgkp2rcd13ifvqbmg","pricing_plan_id":"cebpf4jnsgd1na2vs0mg"},{"bike_id":"63ac7fbc-a531-41b9-b0b5-7d1d72a38486","system_id":"levelo_inurba_marseille","lat":43.295279,"lon":5.375048,"is_reserved":false,"is_disabled":false,"rental_uris":{"android":"levelo://app?vid=63ac7fbc-a531-41b9-b0b5-7d1d72a38486","ios":"levelo://app?vid=63ac7fbc-a531-41b9-b0b5-7d1d72a38486"},"vehicle_type_id":"4","last_reported":1708585625,"current_range_meters":27600,"station_id":"ce4bgkp2rcd13ifvqbmg","pricing_plan_id":"cebpf4jnsgd1na2vs0mg"},{"bike_id":"af33b7c7-fb72-4e2a-9d83-5f4f2eecf1d7","system_id":"levelo_inurba_marseille","lat":43.299717,"lon":5.384845,"is_reserved":false,"is_disabled":false,"rental_uris":{"android":"levelo://app?vid=af33b7c7-fb72-4e2a-9d83-5f4f2eecf1d7","ios":"levelo://app?vid=af33b7c7-fb72-4e2a-9d83-5f4f2eecf1d7"},"vehicle_type_id":"4","last_reported":1708585625,"current_range_meters":18400,"station_id":"ce4bgj92rcd13ifvqbd0","pricing_plan_id":"cebpf4jnsgd1na2vs0mg"},{"bike_id":"235cf193-61ae-44c7-a824-0fdab5666ccc","system_id":"levelo_inurba_marseille","lat":43.311061,"lon":5.393239,"is_reserved":false,"is_disabled":false,"rental_uris":{"android":"levelo://app?vid=235cf193-61ae-44c7-a824-0fdab5666ccc","ios":"levelo://app?vid=235cf193-61ae-44c7-a824-0fdab5666ccc"},"vehicle_type_id":"4","last_reported":1708585625,"current_range_meters":19600,"station_id":"","pricing_plan_id":"cebpf4jnsgd1na2vs0mg"},{"bike_id":"5e419ec8-e3e1-4756-ac2b-ffa1b2c8f48b","system_id":"levelo_inurba_marseille","lat":43.32367,"lon":5.388836,"is_reserved":false,"is_disabled":false,"rental_uris":{"android":"levelo://app?vid=5e419ec8-e3e1-4756-ac2b-ffa1b2c8f48b","ios":"levelo://app?vid=5e419ec8-e3e1-4756-ac2b-ffa1b2c8f48b"},"vehicle_type_id":"4","last_reported":1708585625,"current_range_meters":7600,"station_id":"ce4bhqp2rcd13ifvqhog","pricing_plan_id":"cebpf4jnsgd1na2vs0mg"},{"bike_id":"71255df0-7a97-4081-be41-5c0f53a7608c","system_id":"levelo_inurba_marseille","lat":43.32367,"lon":5.388836,"is_reserved":false,"is_disabled":false,"rental_uris":{"android":"levelo://app?vid=71255df0-7a97-4081-be41-5c0f53a7608c","ios":"levelo://app?vid=71255df0-7a97-4081-be41-5c0f53a7608c"},"vehicle_type_id":"4","last_reported":1708585625,"current_range_meters":14400,"station_id":"ce4bhqp2rcd13ifvqhog","pricing_plan_id":"cebpf4jnsgd1na2vs0mg"},{"bike_id":"9d15ebe4-820d-4e8f-84b6-9990718c34cf","system_id":"levelo_inurba_marseille","lat":43.29602,"lon":5.381084,"is_reserved":false,"is_disabled":false,"rental_uris":{"android":"levelo://app?vid=9d15ebe4-820d-4e8f-84b6-9990718c34cf","ios":"levelo://app?vid=9d15ebe4-820d-4e8f-84b6-9990718c34cf"},"vehicle_type_id":"4","last_reported":1708585625,"current_range_meters":4400,"station_id":"ce4bgl12rcd13ifvqbo0","pricing_plan_id":"cebpf4jnsgd1na2vs0mg"},{"bike_id":"41284e7e-aa9a-4665-aa0f-c5efe251a542","system_id":"levelo_inurba_marseille","lat":43.29602,"lon":5.381084,"is_reserved":false,"is_disabled":false,"rental_uris":{"android":"levelo://app?vid=41284e7e-aa9a-4665-aa0f-c5efe251a542","ios":"levelo://app?vid=41284e7e-aa9a-4665-aa0f-c5efe251a542"},"vehicle_type_id":"4","last_reported":1708585625,"current_range_meters":26800,"station_id":"ce4bgl12rcd13ifvqbo0","pricing_plan_id":"cebpf4jnsgd1na2vs0mg"},{"bike_id":"6f602d2e-6b75-40cf-ad5e-0139a9924830","system_id":"levelo_inurba_marseille","lat":43.29602,"lon":5.381084,"is_reserved":false,"is_disabled":false,"rental_uris":{"android":"levelo://app?vid=6f602d2e-6b75-40cf-ad5e-0139a9924830","ios":"levelo://app?vid=6f602d2e-6b75-40cf-ad5e-0139a9924830"},"vehicle_type_id":"4","last_reported":1708585625,"current_range_meters":20800,"station_id":"ce4bgl12rcd13ifvqbo0","pricing_plan_id":"cebpf4jnsgd1na2vs0mg"},{"bike_id":"6e64616b-fb45-45e7-84ab-89c5e5c149e8","system_id":"levelo_inurba_marseille","lat":43.278399,"lon":5.392139,"is_reserved":false,"is_disabled":false,"rental_uris":{"android":"levelo://app?vid=6e64616b-fb45-45e7-84ab-89c5e5c149e8","ios":"levelo://app?vid=6e64616b-fb45-45e7-84ab-89c5e5c149e8"},"vehicle_type_id":"4","last_reported":1708585625,"current_range_meters":26000,"station_id":"ce4bhjp2rcd13ifvqga0","pricing_plan_id":"cebpf4jnsgd1na2vs0mg"},{"bike_id":"7f9e98da-6961-4d59-ae3c-4ac6ea11fd5e","system_id":"levelo_inurba_marseille","lat":43.292749,"lon":5.368398,"is_reserved":false,"is_disabled":false,"rental_uris":{"android":"levelo://app?vid=7f9e98da-6961-4d59-ae3c-4ac6ea11fd5e","ios":"levelo://app?vid=7f9e98da-6961-4d59-ae3c-4ac6ea11fd5e"},"vehicle_type_id":"4","last_reported":1708585625,"current_range_meters":14800,"station_id":"ce4bhbp2rcd13ifvqesg","pricing_plan_id":"cebpf4jnsgd1na2vs0mg"},{"bike_id":"fa64dd61-98c0-47ce-ace9-a76957c697af","system_id":"levelo_inurba_marseille","lat":43.292749,"lon":5.368398,"is_reserved":false,"is_disabled":false,"rental_uris":{"android":"levelo://app?vid=fa64dd61-98c0-47ce-ace9-a76957c697af","ios":"levelo://app?vid=fa64dd61-98c0-47ce-ace9-a76957c697af"},"vehicle_type_id":"4","last_reported":1708585625,"current_range_meters":23600,"station_id":"ce4bhbp2rcd13ifvqesg","pricing_plan_id":"cebpf4jnsgd1na2vs0mg"},{"bike_id":"43541366-9f26-4e59-bacf-102de8aa4b79","system_id":"levelo_inurba_marseille","lat":43.305994,"lon":5.393687,"is_reserved":false,"is_disabled":false,"rental_uris":{"android":"levelo://app?vid=43541366-9f26-4e59-bacf-102de8aa4b79","ios":"levelo://app?vid=43541366-9f26-4e59-bacf-102de8aa4b79"},"vehicle_type_id":"4","last_reported":1708585625,"current_range_meters":19600,"station_id":"ce4bh0p2rcd13ifvqd80","pricing_plan_id":"cebpf4jnsgd1na2vs0mg"},{"bike_id":"07cd440b-79bd-40f1-b24d-5c04b4d9d8a8","system_id":"levelo_inurba_marseille","lat":43.299724,"lon":5.384848,"is_reserved":false,"is_disabled":false,"rental_uris":{"android":"levelo://app?vid=07cd440b-79bd-40f1-b24d-5c04b4d9d8a8","ios":"levelo://app?vid=07cd440b-79bd-40f1-b24d-5c04b4d9d8a8"},"vehicle_type_id":"4","last_reported":1708585625,"current_range_meters":7200,"station_id":"ce4bgj92rcd13ifvqbd0","pricing_plan_id":"cebpf4jnsgd1na2vs0mg"},{"bike_id":"53088378-04fb-43b3-be6d-484dbbd49a2f","system_id":"levelo_inurba_marseille","lat":43.293009,"lon":5.374584,"is_reserved":false,"is_disabled":false,"rental_uris":{"android":"levelo://app?vid=53088378-04fb-43b3-be6d-484dbbd49a2f","ios":"levelo://app?vid=53088378-04fb-43b3-be6d-484dbbd49a2f"},"vehicle_type_id":"4","last_reported":1708585625,"current_range_meters":26400,"station_id":"ce4bgi12rcd13ifvqb70","pricing_plan_id":"cebpf4jnsgd1na2vs0mg"},{"bike_id":"af1ee530-0a35-42c7-bfc2-1f7ab9001cfe","system_id":"levelo_inurba_marseille","lat":43.305994,"lon":5.393687,"is_reserved":false,"is_disabled":false,"rental_uris":{"android":"levelo://app?vid=af1ee530-0a35-42c7-bfc2-1f7ab9001cfe","ios":"levelo://app?vid=af1ee530-0a35-42c7-bfc2-1f7ab9001cfe"},"vehicle_type_id":"4","last_reported":1708585625,"current_range_meters":30400,"station_id":"ce4bh0p2rcd13ifvqd80","pricing_plan_id":"cebpf4jnsgd1na2vs0mg"},{"bike_id":"efb5ecd0-13f8-4409-9be9-53a51ebbef6c","system_id":"levelo_inurba_marseille","lat":43.305994,"lon":5.393687,"is_reserved":false,"is_disabled":false,"rental_uris":{"android":"levelo://app?vid=efb5ecd0-13f8-4409-9be9-53a51ebbef6c","ios":"levelo://app?vid=efb5ecd0-13f8-4409-9be9-53a51ebbef6c"},"vehicle_type_id":"4","last_reported":1708585625,"current_range_meters":23200,"station_id":"ce4bh0p2rcd13ifvqd80","pricing_plan_id":"cebpf4jnsgd1na2vs0mg"},{"bike_id":"6bffbf82-13d1-42e1-b2e6-5fe235832cf1","system_id":"levelo_inurba_marseille","lat":43.305994,"lon":5.393687,"is_reserved":false,"is_disabled":false,"rental_uris":{"android":"levelo://app?vid=6bffbf82-13d1-42e1-b2e6-5fe235832cf1","ios":"levelo://app?vid=6bffbf82-13d1-42e1-b2e6-5fe235832cf1"},"vehicle_type_id":"4","last_reported":1708585625,"current_range_meters":26000,"station_id":"ce4bh0p2rcd13ifvqd80","pricing_plan_id":"cebpf4jnsgd1na2vs0mg"},{"bike_id":"a206341b-1869-47f3-a1dc-1861d12f3e47","system_id":"levelo_inurba_marseille","lat":43.306,"lon":5.39355,"is_reserved":false,"is_disabled":false,"rental_uris":{"android":"levelo://app?vid=a206341b-1869-47f3-a1dc-1861d12f3e47","ios":"levelo://app?vid=a206341b-1869-47f3-a1dc-1861d12f3e47"},"vehicle_type_id":"4","last_reported":1708585625,"current_range_meters":18800,"station_id":"ce4bh0p2rcd13ifvqd80","pricing_plan_id":"cebpf4jnsgd1na2vs0mg"},{"bike_id":"b2d459ce-33aa-4906-a25c-214d512da644","system_id":"levelo_inurba_marseille","lat":43.305994,"lon":5.393687,"is_reserved":false,"is_disabled":false,"rental_uris":{"android":"levelo://app?vid=b2d459ce-33aa-4906-a25c-214d512da644","ios":"levelo://app?vid=b2d459ce-33aa-4906-a25c-214d512da644"},"vehicle_type_id":"4","last_reported":1708585625,"current_range_meters":15600,"station_id":"ce4bh0p2rcd13ifvqd80","pricing_plan_id":"cebpf4jnsgd1na2vs0mg"},{"bike_id":"52c76fd6-f670-47f7-b549-fc22b706e5b7","system_id":"levelo_inurba_marseille","lat":43.305994,"lon":5.393687,"is_reserved":false,"is_disabled":false,"rental_uris":{"android":"levelo://app?vid=52c76fd6-f670-47f7-b549-fc22b706e5b7","ios":"levelo://app?vid=52c76fd6-f670-47f7-b549-fc22b706e5b7"},"vehicle_type_id":"4","last_reported":1708585625,"current_range_meters":20800,"station_id":"ce4bh0p2rcd13ifvqd80","pricing_plan_id":"cebpf4jnsgd1na2vs0mg"},{"bike_id":"4fdd0888-2809-46b0-92d1-5fd919f01990","system_id":"levelo_inurba_marseille","lat":43.305994,"lon":5.393687,"is_reserved":false,"is_disabled":false,"rental_uris":{"android":"levelo://app?vid=4fdd0888-2809-46b0-92d1-5fd919f01990","ios":"levelo://app?vid=4fdd0888-2809-46b0-92d1-5fd919f01990"},"vehicle_type_id":"4","last_reported":1708585625,"current_range_meters":14400,"station_id":"ce4bh0p2rcd13ifvqd80","pricing_plan_id":"cebpf4jnsgd1na2vs0mg"},{"bike_id":"a452802c-4477-447c-8094-ac58ed9c62d7","system_id":"levelo_inurba_marseille","lat":43.305994,"lon":5.393687,"is_reserved":false,"is_disabled":false,"rental_uris":{"android":"levelo://app?vid=a452802c-4477-447c-8094-ac58ed9c62d7","ios":"levelo://app?vid=a452802c-4477-447c-8094-ac58ed9c62d7"},"vehicle_type_id":"4","last_reported":1708585625,"current_range_meters":26800,"station_id":"ce4bh0p2rcd13ifvqd80","pricing_plan_id":"cebpf4jnsgd1na2vs0mg"},{"bike_id":"39dcd6a7-4a89-46c3-8ce6-c36a73071f17","system_id":"levelo_inurba_marseille","lat":43.305994,"lon":5.393687,"is_reserved":false,"is_disabled":false,"rental_uris":{"android":"levelo://app?vid=39dcd6a7-4a89-46c3-8ce6-c36a73071f17","ios":"levelo://app?vid=39dcd6a7-4a89-46c3-8ce6-c36a73071f17"},"vehicle_type_id":"4","last_reported":1708585625,"current_range_meters":21200,"station_id":"ce4bh0p2rcd13ifvqd80","pricing_plan_id":"cebpf4jnsgd1na2vs0mg"},{"bike_id":"3e15d8f0-f972-42a9-a3d0-0f3bacd3eb1d","system_id":"levelo_inurba_marseille","lat":43.305994,"lon":5.393687,"is_reserved":false,"is_disabled":false,"rental_uris":{"android":"levelo://app?vid=3e15d8f0-f972-42a9-a3d0-0f3bacd3eb1d","ios":"levelo://app?vid=3e15d8f0-f972-42a9-a3d0-0f3bacd3eb1d"},"vehicle_type_id":"4","last_reported":1708585625,"current_range_meters":1200,"station_id":"ce4bh0p2rcd13ifvqd80","pricing_plan_id":"cebpf4jnsgd1na2vs0mg"},{"bike_id":"a01559b5-0098-418a-acc0-31c977bc2c8f","system_id":"levelo_inurba_marseille","lat":43.305994,"lon":5.393687,"is_reserved":false,"is_disabled":false,"rental_uris":{"android":"levelo://app?vid=a01559b5-0098-418a-acc0-31c977bc2c8f","ios":"levelo://app?vid=a01559b5-0098-418a-acc0-31c977bc2c8f"},"vehicle_type_id":"4","last_reported":1708585625,"current_range_meters":21200,"station_id":"ce4bh0p2rcd13ifvqd80","pricing_plan_id":"cebpf4jnsgd1na2vs0mg"},{"bike_id":"0b72bc82-4ae6-44ca-bfb1-c6fcbd1c5919","system_id":"levelo_inurba_marseille","lat":43.305994,"lon":5.393687,"is_reserved":false,"is_disabled":false,"rental_uris":{"android":"levelo://app?vid=0b72bc82-4ae6-44ca-bfb1-c6fcbd1c5919","ios":"levelo://app?vid=0b72bc82-4ae6-44ca-bfb1-c6fcbd1c5919"},"vehicle_type_id":"4","last_reported":1708585625,"current_range_meters":26800,"station_id":"ce4bh0p2rcd13ifvqd80","pricing_plan_id":"cebpf4jnsgd1na2vs0mg"},{"bike_id":"91e453db-96b1-482f-8665-34fe4ea38ede","system_id":"levelo_inurba_marseille","lat":43.305994,"lon":5.393687,"is_reserved":false,"is_disabled":false,"rental_uris":{"android":"levelo://app?vid=91e453db-96b1-482f-8665-34fe4ea38ede","ios":"levelo://app?vid=91e453db-96b1-482f-8665-34fe4ea38ede"},"vehicle_type_id":"4","last_reported":1708585625,"current_range_meters":19200,"station_id":"ce4bh0p2rcd13ifvqd80","pricing_plan_id":"cebpf4jnsgd1na2vs0mg"},{"bike_id":"7c779453-32c1-45d9-9252-72c7e2bc0106","system_id":"levelo_inurba_marseille","lat":43.305994,"lon":5.393687,"is_reserved":false,"is_disabled":false,"rental_uris":{"android":"levelo://app?vid=7c779453-32c1-45d9-9252-72c7e2bc0106","ios":"levelo://app?vid=7c779453-32c1-45d9-9252-72c7e2bc0106"},"vehicle_type_id":"4","last_reported":1708585625,"current_range_meters":8000,"station_id":"ce4bh0p2rcd13ifvqd80","pricing_plan_id":"cebpf4jnsgd1na2vs0mg"},{"bike_id":"9e182ab7-e5cd-4567-baaf-96453d8f64e9","system_id":"levelo_inurba_marseille","lat":43.303002,"lon":5.392142,"is_reserved":false,"is_disabled":false,"rental_uris":{"android":"levelo://app?vid=9e182ab7-e5cd-4567-baaf-96453d8f64e9","ios":"levelo://app?vid=9e182ab7-e5cd-4567-baaf-96453d8f64e9"},"vehicle_type_id":"4","last_reported":1708585625,"current_range_meters":20800,"station_id":"ce4bgkh2rcd13ifvqbk0","pricing_plan_id":"cebpf4jnsgd1na2vs0mg"},{"bike_id":"3c094111-edb0-4c98-b115-3931e86e7a20","system_id":"levelo_inurba_marseille","lat":43.302992,"lon":5.392136,"is_reserved":false,"is_disabled":false,"rental_uris":{"android":"levelo://app?vid=3c094111-edb0-4c98-b115-3931e86e7a20","ios":"levelo://app?vid=3c094111-edb0-4c98-b115-3931e86e7a20"},"vehicle_type_id":"4","last_reported":1708585625,"current_range_meters":13200,"station_id":"ce4bgkh2rcd13ifvqbk0","pricing_plan_id":"cebpf4jnsgd1na2vs0mg"},{"bike_id":"0d05e13c-f2cc-4ca2-bf01-854f667495d8","system_id":"levelo_inurba_marseille","lat":43.292311,"lon":5.360731,"is_reserved":false,"is_disabled":false,"rental_uris":{"android":"levelo://app?vid=0d05e13c-f2cc-4ca2-bf01-854f667495d8","ios":"levelo://app?vid=0d05e13c-f2cc-4ca2-bf01-854f667495d8"},"vehicle_type_id":"4","last_reported":1708585625,"current_range_meters":14800,"station_id":"ce4bhbh2rcd13ifvqeqg","pricing_plan_id":"cebpf4jnsgd1na2vs0mg"},{"bike_id":"6def3e69-3f1c-4788-830d-a3a345b9adb6","system_id":"levelo_inurba_marseille","lat":43.29226,"lon":5.36052,"is_reserved":false,"is_disabled":false,"rental_uris":{"android":"levelo://app?vid=6def3e69-3f1c-4788-830d-a3a345b9adb6","ios":"levelo://app?vid=6def3e69-3f1c-4788-830d-a3a345b9adb6"},"vehicle_type_id":"4","last_reported":1708585625,"current_range_meters":11600,"station_id":"ce4bhbh2rcd13ifvqeqg","pricing_plan_id":"cebpf4jnsgd1na2vs0mg"},{"bike_id":"9961486a-cc9c-4a4d-8fad-3b72637f61f1","system_id":"levelo_inurba_marseille","lat":43.300852,"lon":5.390859,"is_reserved":false,"is_disabled":false,"rental_uris":{"android":"levelo://app?vid=9961486a-cc9c-4a4d-8fad-3b72637f61f1","ios":"levelo://app?vid=9961486a-cc9c-4a4d-8fad-3b72637f61f1"},"vehicle_type_id":"4","last_reported":1708585625,"current_range_meters":4400,"station_id":"ce4bh192rcd13ifvqdb0","pricing_plan_id":"cebpf4jnsgd1na2vs0mg"},{"bike_id":"b4534676-9f7b-42c0-b8ad-b373ac2d9ce3","system_id":"levelo_inurba_marseille","lat":43.292311,"lon":5.360731,"is_reserved":false,"is_disabled":false,"rental_uris":{"android":"levelo://app?vid=b4534676-9f7b-42c0-b8ad-b373ac2d9ce3","ios":"levelo://app?vid=b4534676-9f7b-42c0-b8ad-b373ac2d9ce3"},"vehicle_type_id":"4","last_reported":1708585625,"current_range_meters":27600,"station_id":"ce4bhbh2rcd13ifvqeqg","pricing_plan_id":"cebpf4jnsgd1na2vs0mg"},{"bike_id":"48df24b0-1a3f-4d44-a65b-95b2c6faf8d8","system_id":"levelo_inurba_marseille","lat":43.29217,"lon":5.36047,"is_reserved":false,"is_disabled":false,"rental_uris":{"android":"levelo://app?vid=48df24b0-1a3f-4d44-a65b-95b2c6faf8d8","ios":"levelo://app?vid=48df24b0-1a3f-4d44-a65b-95b2c6faf8d8"},"vehicle_type_id":"4","last_reported":1708585625,"current_range_meters":26800,"station_id":"ce4bhbh2rcd13ifvqeqg","pricing_plan_id":"cebpf4jnsgd1na2vs0mg"},{"bike_id":"8726305d-e6dd-4dd2-b9cc-631ea9be41b8","system_id":"levelo_inurba_marseille","lat":43.29213,"lon":5.36044,"is_reserved":false,"is_disabled":false,"rental_uris":{"android":"levelo://app?vid=8726305d-e6dd-4dd2-b9cc-631ea9be41b8","ios":"levelo://app?vid=8726305d-e6dd-4dd2-b9cc-631ea9be41b8"},"vehicle_type_id":"4","last_reported":1708585625,"current_range_meters":30400,"station_id":"ce4bhbh2rcd13ifvqeqg","pricing_plan_id":"cebpf4jnsgd1na2vs0mg"},{"bike_id":"a8bd1a90-ec9f-4a49-86ba-4914d02ad6f1","system_id":"levelo_inurba_marseille","lat":43.298764,"lon":5.388973,"is_reserved":false,"is_disabled":false,"rental_uris":{"android":"levelo://app?vid=a8bd1a90-ec9f-4a49-86ba-4914d02ad6f1","ios":"levelo://app?vid=a8bd1a90-ec9f-4a49-86ba-4914d02ad6f1"},"vehicle_type_id":"4","last_reported":1708585625,"current_range_meters":7200,"station_id":"ce4bh392rcd13ifvqdl0","pricing_plan_id":"cebpf4jnsgd1na2vs0mg"},{"bike_id":"59b9f8d8-4e08-4f06-a9bc-51824400550a","system_id":"levelo_inurba_marseille","lat":43.291675,"lon":5.371583,"is_reserved":false,"is_disabled":false,"rental_uris":{"android":"levelo://app?vid=59b9f8d8-4e08-4f06-a9bc-51824400550a","ios":"levelo://app?vid=59b9f8d8-4e08-4f06-a9bc-51824400550a"},"vehicle_type_id":"4","last_reported":1708585625,"current_range_meters":10000,"station_id":"ce4bha92rcd13ifvqeh0","pricing_plan_id":"cebpf4jnsgd1na2vs0mg"},{"bike_id":"8edc9bad-95da-4a8c-99f4-39034fb031ad","system_id":"levelo_inurba_marseille","lat":43.308851,"lon":5.396183,"is_reserved":false,"is_disabled":false,"rental_uris":{"android":"levelo://app?vid=8edc9bad-95da-4a8c-99f4-39034fb031ad","ios":"levelo://app?vid=8edc9bad-95da-4a8c-99f4-39034fb031ad"},"vehicle_type_id":"4","last_reported":1708585625,"current_range_meters":16800,"station_id":"ce4bh012rcd13ifvqcv0","pricing_plan_id":"cebpf4jnsgd1na2vs0mg"},{"bike_id":"a6adbe1d-3c0c-4700-87a7-232caff1c784","system_id":"levelo_inurba_marseille","lat":43.30888,"lon":5.39622,"is_reserved":false,"is_disabled":false,"rental_uris":{"android":"levelo://app?vid=a6adbe1d-3c0c-4700-87a7-232caff1c784","ios":"levelo://app?vid=a6adbe1d-3c0c-4700-87a7-232caff1c784"},"vehicle_type_id":"4","last_reported":1708585625,"current_range_meters":17200,"station_id":"ce4bh012rcd13ifvqcv0","pricing_plan_id":"cebpf4jnsgd1na2vs0mg"},{"bike_id":"bf49e66f-0bfb-442d-a33b-2e4da996e4a3","system_id":"levelo_inurba_marseille","lat":43.30883,"lon":5.396233,"is_reserved":false,"is_disabled":false,"rental_uris":{"android":"levelo://app?vid=bf49e66f-0bfb-442d-a33b-2e4da996e4a3","ios":"levelo://app?vid=bf49e66f-0bfb-442d-a33b-2e4da996e4a3"},"vehicle_type_id":"4","last_reported":1708585625,"current_range_meters":12000,"station_id":"ce4bh012rcd13ifvqcv0","pricing_plan_id":"cebpf4jnsgd1na2vs0mg"},{"bike_id":"c2316938-e5ab-41c5-a015-9c669c8b584f","system_id":"levelo_inurba_marseille","lat":43.308849,"lon":5.39626,"is_reserved":false,"is_disabled":false,"rental_uris":{"android":"levelo://app?vid=c2316938-e5ab-41c5-a015-9c669c8b584f","ios":"levelo://app?vid=c2316938-e5ab-41c5-a015-9c669c8b584f"},"vehicle_type_id":"4","last_reported":1708585625,"current_range_meters":29200,"station_id":"ce4bh012rcd13ifvqcv0","pricing_plan_id":"cebpf4jnsgd1na2vs0mg"},{"bike_id":"a432ab9f-685c-4b66-9de6-9ca469252cba","system_id":"levelo_inurba_marseille","lat":43.309047,"lon":5.396551,"is_reserved":false,"is_disabled":false,"rental_uris":{"android":"levelo://app?vid=a432ab9f-685c-4b66-9de6-9ca469252cba","ios":"levelo://app?vid=a432ab9f-685c-4b66-9de6-9ca469252cba"},"vehicle_type_id":"4","last_reported":1708585625,"current_range_meters":28400,"station_id":"ce4bh012rcd13ifvqcv0","pricing_plan_id":"cebpf4jnsgd1na2vs0mg"},{"bike_id":"19a3750f-43f8-4888-b08c-08e19c1658d6","system_id":"levelo_inurba_marseille","lat":43.30885,"lon":5.396291,"is_reserved":false,"is_disabled":false,"rental_uris":{"android":"levelo://app?vid=19a3750f-43f8-4888-b08c-08e19c1658d6","ios":"levelo://app?vid=19a3750f-43f8-4888-b08c-08e19c1658d6"},"vehicle_type_id":"4","last_reported":1708585625,"current_range_meters":27200,"station_id":"ce4bh012rcd13ifvqcv0","pricing_plan_id":"cebpf4jnsgd1na2vs0mg"},{"bike_id":"a01f3ae9-7905-47de-b50e-302797093ab0","system_id":"levelo_inurba_marseille","lat":43.309038,"lon":5.396546,"is_reserved":false,"is_disabled":false,"rental_uris":{"android":"levelo://app?vid=a01f3ae9-7905-47de-b50e-302797093ab0","ios":"levelo://app?vid=a01f3ae9-7905-47de-b50e-302797093ab0"},"vehicle_type_id":"4","last_reported":1708585625,"current_range_meters":28800,"station_id":"ce4bh012rcd13ifvqcv0","pricing_plan_id":"cebpf4jnsgd1na2vs0mg"},{"bike_id":"894b1826-f42e-4407-ab09-a650a0b14f27","system_id":"levelo_inurba_marseille","lat":43.309038,"lon":5.396546,"is_reserved":false,"is_disabled":false,"rental_uris":{"android":"levelo://app?vid=894b1826-f42e-4407-ab09-a650a0b14f27","ios":"levelo://app?vid=894b1826-f42e-4407-ab09-a650a0b14f27"},"vehicle_type_id":"4","last_reported":1708585625,"current_range_meters":30800,"station_id":"ce4bh012rcd13ifvqcv0","pricing_plan_id":"cebpf4jnsgd1na2vs0mg"},{"bike_id":"05e7815b-6b2a-447b-b952-b70f7ea302cb","system_id":"levelo_inurba_marseille","lat":43.309038,"lon":5.396546,"is_reserved":false,"is_disabled":false,"rental_uris":{"android":"levelo://app?vid=05e7815b-6b2a-447b-b952-b70f7ea302cb","ios":"levelo://app?vid=05e7815b-6b2a-447b-b952-b70f7ea302cb"},"vehicle_type_id":"4","last_reported":1708585625,"current_range_meters":26000,"station_id":"ce4bh012rcd13ifvqcv0","pricing_plan_id":"cebpf4jnsgd1na2vs0mg"},{"bike_id":"39975749-bd00-43f8-ae9b-d9c405b8909e","system_id":"levelo_inurba_marseille","lat":43.308874,"lon":5.396366,"is_reserved":false,"is_disabled":false,"rental_uris":{"android":"levelo://app?vid=39975749-bd00-43f8-ae9b-d9c405b8909e","ios":"levelo://app?vid=39975749-bd00-43f8-ae9b-d9c405b8909e"},"vehicle_type_id":"4","last_reported":1708585625,"current_range_meters":27200,"station_id":"ce4bh012rcd13ifvqcv0","pricing_plan_id":"cebpf4jnsgd1na2vs0mg"},{"bike_id":"c91731f1-20f5-488c-9ca0-eba0498083e7","system_id":"levelo_inurba_marseille","lat":43.309038,"lon":5.396546,"is_reserved":false,"is_disabled":false,"rental_uris":{"android":"levelo://app?vid=c91731f1-20f5-488c-9ca0-eba0498083e7","ios":"levelo://app?vid=c91731f1-20f5-488c-9ca0-eba0498083e7"},"vehicle_type_id":"4","last_reported":1708585625,"current_range_meters":24800,"station_id":"ce4bh012rcd13ifvqcv0","pricing_plan_id":"cebpf4jnsgd1na2vs0mg"},{"bike_id":"4c79dbf3-648e-4b04-a815-6ea8b27e9798","system_id":"levelo_inurba_marseille","lat":43.313291,"lon":5.396838,"is_reserved":false,"is_disabled":false,"rental_uris":{"android":"levelo://app?vid=4c79dbf3-648e-4b04-a815-6ea8b27e9798","ios":"levelo://app?vid=4c79dbf3-648e-4b04-a815-6ea8b27e9798"},"vehicle_type_id":"4","last_reported":1708585625,"current_range_meters":31600,"station_id":"ce4bgvp2rcd13ifvqcu0","pricing_plan_id":"cebpf4jnsgd1na2vs0mg"},{"bike_id":"98a2f629-1365-4c4f-8707-b615126c80a6","system_id":"levelo_inurba_marseille","lat":43.313291,"lon":5.396838,"is_reserved":false,"is_disabled":false,"rental_uris":{"android":"levelo://app?vid=98a2f629-1365-4c4f-8707-b615126c80a6","ios":"levelo://app?vid=98a2f629-1365-4c4f-8707-b615126c80a6"},"vehicle_type_id":"4","last_reported":1708585625,"current_range_meters":31600,"station_id":"ce4bgvp2rcd13ifvqcu0","pricing_plan_id":"cebpf4jnsgd1na2vs0mg"},{"bike_id":"155f81e6-d6b4-406f-b2a5-ca6a2d321b6b","system_id":"levelo_inurba_marseille","lat":43.30875,"lon":5.39641,"is_reserved":false,"is_disabled":false,"rental_uris":{"android":"levelo://app?vid=155f81e6-d6b4-406f-b2a5-ca6a2d321b6b","ios":"levelo://app?vid=155f81e6-d6b4-406f-b2a5-ca6a2d321b6b"},"vehicle_type_id":"4","last_reported":1708585625,"current_range_meters":8400,"station_id":"ce4bh012rcd13ifvqcv0","pricing_plan_id":"cebpf4jnsgd1na2vs0mg"},{"bike_id":"1d4d7044-d4e2-443f-9247-dbdedc572d06","system_id":"levelo_inurba_marseille","lat":43.313291,"lon":5.396838,"is_reserved":false,"is_disabled":false,"rental_uris":{"android":"levelo://app?vid=1d4d7044-d4e2-443f-9247-dbdedc572d06","ios":"levelo://app?vid=1d4d7044-d4e2-443f-9247-dbdedc572d06"},"vehicle_type_id":"4","last_reported":1708585625,"current_range_meters":5200,"station_id":"ce4bgvp2rcd13ifvqcu0","pricing_plan_id":"cebpf4jnsgd1na2vs0mg"},{"bike_id":"fa5382d6-2dc0-4314-bb86-4ebe7a97c444","system_id":"levelo_inurba_marseille","lat":43.313291,"lon":5.396838,"is_reserved":false,"is_disabled":false,"rental_uris":{"android":"levelo://app?vid=fa5382d6-2dc0-4314-bb86-4ebe7a97c444","ios":"levelo://app?vid=fa5382d6-2dc0-4314-bb86-4ebe7a97c444"},"vehicle_type_id":"4","last_reported":1708585625,"current_range_meters":8400,"station_id":"ce4bgvp2rcd13ifvqcu0","pricing_plan_id":"cebpf4jnsgd1na2vs0mg"},{"bike_id":"49dff804-a797-4a6b-93c6-c6c1793a8503","system_id":"levelo_inurba_marseille","lat":43.31331,"lon":5.39692,"is_reserved":false,"is_disabled":false,"rental_uris":{"android":"levelo://app?vid=49dff804-a797-4a6b-93c6-c6c1793a8503","ios":"levelo://app?vid=49dff804-a797-4a6b-93c6-c6c1793a8503"},"vehicle_type_id":"4","last_reported":1708585625,"current_range_meters":9600,"station_id":"ce4bgvp2rcd13ifvqcu0","pricing_plan_id":"cebpf4jnsgd1na2vs0mg"},{"bike_id":"87c7ccfc-0369-440c-ad33-8ef5b9c5492c","system_id":"levelo_inurba_marseille","lat":43.313305,"lon":5.396921,"is_reserved":false,"is_disabled":false,"rental_uris":{"android":"levelo://app?vid=87c7ccfc-0369-440c-ad33-8ef5b9c5492c","ios":"levelo://app?vid=87c7ccfc-0369-440c-ad33-8ef5b9c5492c"},"vehicle_type_id":"4","last_reported":1708585625,"current_range_meters":5600,"station_id":"ce4bgvp2rcd13ifvqcu0","pricing_plan_id":"cebpf4jnsgd1na2vs0mg"},{"bike_id":"475a941b-68c3-41d1-965e-d969142a1536","system_id":"levelo_inurba_marseille","lat":43.313291,"lon":5.396838,"is_reserved":false,"is_disabled":false,"rental_uris":{"android":"levelo://app?vid=475a941b-68c3-41d1-965e-d969142a1536","ios":"levelo://app?vid=475a941b-68c3-41d1-965e-d969142a1536"},"vehicle_type_id":"4","last_reported":1708585625,"current_range_meters":5200,"station_id":"ce4bgvp2rcd13ifvqcu0","pricing_plan_id":"cebpf4jnsgd1na2vs0mg"},{"bike_id":"73005881-9095-40ff-8472-9854d95ec076","system_id":"levelo_inurba_marseille","lat":43.313291,"lon":5.396838,"is_reserved":false,"is_disabled":false,"rental_uris":{"android":"levelo://app?vid=73005881-9095-40ff-8472-9854d95ec076","ios":"levelo://app?vid=73005881-9095-40ff-8472-9854d95ec076"},"vehicle_type_id":"4","last_reported":1708585625,"current_range_meters":10800,"station_id":"ce4bgvp2rcd13ifvqcu0","pricing_plan_id":"cebpf4jnsgd1na2vs0mg"},{"bike_id":"6b5fd496-64db-48c4-9e09-126f35dc417a","system_id":"levelo_inurba_marseille","lat":43.313287,"lon":5.396955,"is_reserved":false,"is_disabled":false,"rental_uris":{"android":"levelo://app?vid=6b5fd496-64db-48c4-9e09-126f35dc417a","ios":"levelo://app?vid=6b5fd496-64db-48c4-9e09-126f35dc417a"},"vehicle_type_id":"4","last_reported":1708585625,"current_range_meters":28800,"station_id":"ce4bgvp2rcd13ifvqcu0","pricing_plan_id":"cebpf4jnsgd1na2vs0mg"},{"bike_id":"e7685a00-3b1e-4d0e-9988-a0d294cdb5dd","system_id":"levelo_inurba_marseille","lat":43.309038,"lon":5.396546,"is_reserved":false,"is_disabled":false,"rental_uris":{"android":"levelo://app?vid=e7685a00-3b1e-4d0e-9988-a0d294cdb5dd","ios":"levelo://app?vid=e7685a00-3b1e-4d0e-9988-a0d294cdb5dd"},"vehicle_type_id":"4","last_reported":1708585625,"current_range_meters":31200,"station_id":"ce4bh012rcd13ifvqcv0","pricing_plan_id":"cebpf4jnsgd1na2vs0mg"},{"bike_id":"8bcadd97-2cbf-46d1-952a-441b1b883d99","system_id":"levelo_inurba_marseille","lat":43.313291,"lon":5.396838,"is_reserved":false,"is_disabled":false,"rental_uris":{"android":"levelo://app?vid=8bcadd97-2cbf-46d1-952a-441b1b883d99","ios":"levelo://app?vid=8bcadd97-2cbf-46d1-952a-441b1b883d99"},"vehicle_type_id":"4","last_reported":1708585625,"current_range_meters":12400,"station_id":"ce4bgvp2rcd13ifvqcu0","pricing_plan_id":"cebpf4jnsgd1na2vs0mg"},{"bike_id":"da2b206d-86d3-417e-92d4-46c22c3e1bcd","system_id":"levelo_inurba_marseille","lat":43.313291,"lon":5.396838,"is_reserved":false,"is_disabled":false,"rental_uris":{"android":"levelo://app?vid=da2b206d-86d3-417e-92d4-46c22c3e1bcd","ios":"levelo://app?vid=da2b206d-86d3-417e-92d4-46c22c3e1bcd"},"vehicle_type_id":"4","last_reported":1708585625,"current_range_meters":21600,"station_id":"ce4bgvp2rcd13ifvqcu0","pricing_plan_id":"cebpf4jnsgd1na2vs0mg"},{"bike_id":"50cfe226-b270-4a8b-a2c2-c711cda37840","system_id":"levelo_inurba_marseille","lat":43.309038,"lon":5.396546,"is_reserved":false,"is_disabled":false,"rental_uris":{"android":"levelo://app?vid=50cfe226-b270-4a8b-a2c2-c711cda37840","ios":"levelo://app?vid=50cfe226-b270-4a8b-a2c2-c711cda37840"},"vehicle_type_id":"4","last_reported":1708585625,"current_range_meters":26000,"station_id":"ce4bh012rcd13ifvqcv0","pricing_plan_id":"cebpf4jnsgd1na2vs0mg"},{"bike_id":"23f5708d-fd6c-4c57-ac4d-225f9be30737","system_id":"levelo_inurba_marseille","lat":43.30875,"lon":5.39657,"is_reserved":false,"is_disabled":false,"rental_uris":{"android":"levelo://app?vid=23f5708d-fd6c-4c57-ac4d-225f9be30737","ios":"levelo://app?vid=23f5708d-fd6c-4c57-ac4d-225f9be30737"},"vehicle_type_id":"4","last_reported":1708585625,"current_range_meters":10400,"station_id":"ce4bh012rcd13ifvqcv0","pricing_plan_id":"cebpf4jnsgd1na2vs0mg"},{"bike_id":"dd7704a6-a9f1-42ef-93f9-e6aecc3361c3","system_id":"levelo_inurba_marseille","lat":43.2914,"lon":5.3589,"is_reserved":false,"is_disabled":false,"rental_uris":{"android":"levelo://app?vid=dd7704a6-a9f1-42ef-93f9-e6aecc3361c3","ios":"levelo://app?vid=dd7704a6-a9f1-42ef-93f9-e6aecc3361c3"},"vehicle_type_id":"4","last_reported":1708585625,"current_range_meters":3600,"station_id":"","pricing_plan_id":"cebpf4jnsgd1na2vs0mg"},{"bike_id":"3b7d35e9-6dea-475c-a0a2-2918658e237a","system_id":"levelo_inurba_marseille","lat":43.302008,"lon":5.394694,"is_reserved":false,"is_disabled":false,"rental_uris":{"android":"levelo://app?vid=3b7d35e9-6dea-475c-a0a2-2918658e237a","ios":"levelo://app?vid=3b7d35e9-6dea-475c-a0a2-2918658e237a"},"vehicle_type_id":"4","last_reported":1708585625,"current_range_meters":25200,"station_id":"ce4bh0p2rcd13ifvqd70","pricing_plan_id":"cebpf4jnsgd1na2vs0mg"},{"bike_id":"5cfc1aeb-eb8e-4716-9a91-cc6d34e682d9","system_id":"levelo_inurba_marseille","lat":43.302008,"lon":5.394694,"is_reserved":false,"is_disabled":false,"rental_uris":{"android":"levelo://app?vid=5cfc1aeb-eb8e-4716-9a91-cc6d34e682d9","ios":"levelo://app?vid=5cfc1aeb-eb8e-4716-9a91-cc6d34e682d9"},"vehicle_type_id":"4","last_reported":1708585625,"current_range_meters":6400,"station_id":"ce4bh0p2rcd13ifvqd70","pricing_plan_id":"cebpf4jnsgd1na2vs0mg"},{"bike_id":"df1f3b62-7c70-42d0-b277-babcd118077b","system_id":"levelo_inurba_marseille","lat":43.302008,"lon":5.394694,"is_reserved":false,"is_disabled":false,"rental_uris":{"android":"levelo://app?vid=df1f3b62-7c70-42d0-b277-babcd118077b","ios":"levelo://app?vid=df1f3b62-7c70-42d0-b277-babcd118077b"},"vehicle_type_id":"4","last_reported":1708585625,"current_range_meters":8800,"station_id":"ce4bh0p2rcd13ifvqd70","pricing_plan_id":"cebpf4jnsgd1na2vs0mg"},{"bike_id":"801a3870-7967-4c82-8f5b-88fdb190d5fd","system_id":"levelo_inurba_marseille","lat":43.302008,"lon":5.394694,"is_reserved":false,"is_disabled":false,"rental_uris":{"android":"levelo://app?vid=801a3870-7967-4c82-8f5b-88fdb190d5fd","ios":"levelo://app?vid=801a3870-7967-4c82-8f5b-88fdb190d5fd"},"vehicle_type_id":"4","last_reported":1708585625,"current_range_meters":10000,"station_id":"ce4bh0p2rcd13ifvqd70","pricing_plan_id":"cebpf4jnsgd1na2vs0mg"},{"bike_id":"86c1b45a-2c02-4f22-bea8-ca58340f66da","system_id":"levelo_inurba_marseille","lat":43.302008,"lon":5.394694,"is_reserved":false,"is_disabled":false,"rental_uris":{"android":"levelo://app?vid=86c1b45a-2c02-4f22-bea8-ca58340f66da","ios":"levelo://app?vid=86c1b45a-2c02-4f22-bea8-ca58340f66da"},"vehicle_type_id":"4","last_reported":1708585625,"current_range_meters":22000,"station_id":"ce4bh0p2rcd13ifvqd70","pricing_plan_id":"cebpf4jnsgd1na2vs0mg"},{"bike_id":"dd4e4c50-f93a-45fa-935f-d429a2e9e9a8","system_id":"levelo_inurba_marseille","lat":43.302008,"lon":5.394694,"is_reserved":false,"is_disabled":false,"rental_uris":{"android":"levelo://app?vid=dd4e4c50-f93a-45fa-935f-d429a2e9e9a8","ios":"levelo://app?vid=dd4e4c50-f93a-45fa-935f-d429a2e9e9a8"},"vehicle_type_id":"4","last_reported":1708585625,"current_range_meters":31600,"station_id":"ce4bh0p2rcd13ifvqd70","pricing_plan_id":"cebpf4jnsgd1na2vs0mg"},