{"last_updated":1746918528,"ttl":60,"version":"2.2","data":{"bikes":[{"bike_id":"4b8a934c-5ebe-4b17-b291-22ebfb566515","system_id":"levelo_inurba_marseille","lat":43.312653,"lon":5.401633,"is_reserved":false,"is_disabled":false,"rental_uris":{"android":"levelo://app?vid=4b8a934c-5ebe-4b17-b291-22ebfb566515","ios":"levelo://app?vid=4b8a934c-5ebe-4b17-b291-22ebfb566515"},"vehicle_type_id":"4","last_reported":1746918528,"current_range_meters":2800,"station_id":"ce4bh092rcd13ifvqd30","pricing_plan_id":"cebpf4jnsgd1na2vs0mg"},{"bike_id":"caf9033d-5f00-49c3-b1ee-1328b62008dc","system_id":"levelo_inurba_marseille","lat":43.33575,"lon":5.42826,"is_reserved":false,"is_disabled":false,"rental_uris":{"android":"levelo://app?vid=caf9033d-5f00-49c3-b1ee-1328b62008dc","ios":"levelo://app?vid=caf9033d-5f00-49c3-b1ee-1328b62008dc"},"vehicle_type_id":"4","last_reported":1746918528,"current_range_meters":2800,"station_id":"","pricing_plan_id":"cebpf4jnsgd1na2vs0mg"},{"bike_id":"38e6e700-7188-412e-81e4-6f2f48f97c93","system_id":"levelo_inurba_marseille","lat":43.28104,"lon":5.37832,"is_reserved":false,"is_disabled":false,"rental_uris":{"android":"levelo://app?vid=38e6e700-7188-412e-81e4-6f2f48f97c93","ios":"levelo://app?vid=38e6e700-7188-412e-81e4-6f2f48f97c93"},"vehicle_type_id":"4","last_reported":1746918528,"current_range_meters":3200,"station_id":"ce4bha12rcd13ifvqee0","pricing_plan_id":"cebpf4jnsgd1na2vs0mg"},{"bike_id":"0a3eb716-b49e-4c2e-9e24-f3c936f60596","system_id":"levelo_inurba_marseille","lat":43.26055,"lon":5.3938,"is_reserved":false,"is_disabled":false,"rental_uris":{"android":"levelo://app?vid=0a3eb716-b49e-4c2e-9e24-f3c936f60596","ios":"levelo://app?vid=0a3eb716-b49e-4c2e-9e24-f3c936f60596"},"vehicle_type_id":"4","last_reported":1746918528,"current_range_meters":3600,"station_id":"ce4bhh92rcd13ifvqfj0","pricing_plan_id":"cebpf4jnsgd1na2vs0mg"},{"bike_id":"91c8c4c4-070b-413f-8fa7-9ebcb247d9ac","system_id":"levelo_inurba_marseille","lat":43.297906,"lon":5.372976,"is_reserved":false,"is_disabled":false,"rental_uris":{"android":"levelo://app?vid=91c8c4c4-070b-413f-8fa7-9ebcb247d9ac","ios":"levelo://app?vid=91c8c4c4-070b-413f-8fa7-9ebcb247d9ac"},"vehicle_type_id":"4","last_reported":1746918528,"current_range_meters":3600,"station_id":"ce4bgr92rcd13ifvqc7g","pricing_plan_id":"cebpf4jnsgd1na2vs0mg"},{"bike_id":"bf760e5c-6c74-49bd-a8a1-1052c8166a57","system_id":"levelo_inurba_marseille","lat":43.26552,"lon":5.37296,"is_reserved":false,"is_disabled":false,"rental_uris":{"android":"levelo://app?vid=bf760e5c-6c74-49bd-a8a1-1052c8166a57","ios":"levelo://app?vid=bf760e5c-6c74-49bd-a8a1-1052c8166a57"},"vehicle_type_id":"4","last_reported":1746918528,"current_range_meters":3600,"station_id":"ce4bhg12rcd13ifvqf70","pricing_plan_id":"cebpf4jnsgd1na2vs0mg"},{"bike_id":"a1e806dc-0be2-422e-b652-1c359492f791","system_id":"levelo_inurba_marseille","lat":43.28443,"lon":5.39205,"is_reserved":false,"is_disabled":false,"rental_uris":{"android":"levelo://app?vid=a1e806dc-0be2-422e-b652-1c359492f791","ios":"levelo://app?vid=a1e806dc-0be2-422e-b652-1c359492f791"},"vehicle_type_id":"4","last_reported":1746918528,"current_range_meters":3600,"station_id":"ce4bhoh2rcd13ifvqh5g","pricing_plan_id":"cebpf4jnsgd1na2vs0mg"},{"bike_id":"a52974aa-e3ee-4017-bef0-bcbd7ff9546e","system_id":"levelo_inurba_marseille","lat":43.27933,"lon":5.4114,"is_reserved":false,"is_disabled":false,"rental_uris":{"android":"levelo://app?vid=a52974aa-e3ee-4017-bef0-bcbd7ff9546e","ios":"levelo://app?vid=a52974aa-e3ee-4017-bef0-bcbd7ff9546e"},"vehicle_type_id":"4","last_reported":1746918528,"current_range_meters":3600,"station_id":"","pricing_plan_id":"cebpf4jnsgd1na2vs0mg"},{"bike_id":"140f7d66-acdb-4de6-ac87-06726211d825","system_id":"levelo_inurba_marseille","lat":43.29249,"lon":5.40914,"is_reserved":false,"is_disabled":false,"rental_uris":{"android":"levelo://app?vid=140f7d66-acdb-4de6-ac87-06726211d825","ios":"levelo://app?vid=140f7d66-acdb-4de6-ac87-06726211d825"},"vehicle_type_id":"4","last_reported":1746918528,"current_range_meters":4000,"station_id":"ce4bh192rcd13ifvqdc0","pricing_plan_id":"cebpf4jnsgd1na2vs0mg"},{"bike_id":"c22b7cad-bbe3-40c7-8d71-b7e1a405d743","system_id":"levelo_inurba_marseille","lat":43.3133,"lon":5.39697,"is_reserved":false,"is_disabled":false,"rental_uris":{"android":"levelo://app?vid=c22b7cad-bbe3-40c7-8d71-b7e1a405d743","ios":"levelo://app?vid=c22b7cad-bbe3-40c7-8d71-b7e1a405d743"},"vehicle_type_id":"4","last_reported":1746918528,"current_range_meters":4000,"station_id":"ce4bgvp2rcd13ifvqcu0","pricing_plan_id":"cebpf4jnsgd1na2vs0mg"},{"bike_id":"e2444b79-8aa9-4e38-86a1-14e9a08368da","system_id":"levelo_inurba_marseille","lat":43.30587,"lon":5.39369,"is_reserved":false,"is_disabled":false,"rental_uris":{"android":"levelo://app?vid=e2444b79-8aa9-4e38-86a1-14e9a08368da","ios":"levelo://app?vid=e2444b79-8aa9-4e38-86a1-14e9a08368da"},"vehicle_type_id":"4","last_reported":1746918528,"current_range_meters":4000,"station_id":"ce4bh0p2rcd13ifvqd80","pricing_plan_id":"cebpf4jnsgd1na2vs0mg"},{"bike_id":"3d112367-c7f0-4d89-b152-ab865872c375","system_id":"levelo_inurba_marseille","lat":43.25139,"lon":5.37555,"is_reserved":false,"is_disabled":false,"rental_uris":{"android":"levelo://app?vid=3d112367-c7f0-4d89-b152-ab865872c375","ios":"levelo://app?vid=3d112367-c7f0-4d89-b152-ab865872c375"},"vehicle_type_id":"4","last_reported":1746918528,"current_range_meters":4400,"station_id":"","pricing_plan_id":"cebpf4jnsgd1na2vs0mg"},{"bike_id":"ffe9a368-2c65-4250-a238-531ae2978e23","system_id":"levelo_inurba_marseille","lat":43.29892,"lon":5.43668,"is_reserved":false,"is_disabled":false,"rental_uris":{"android":"levelo://app?vid=ffe9a368-2c65-4250-a238-531ae2978e23","ios":"levelo://app?vid=ffe9a368-2c65-4250-a238-531ae2978e23"},"vehicle_type_id":"4","last_reported":1746918528,"current_range_meters":4400,"station_id":"ce4bhpp2rcd13ifvqhfg","pricing_plan_id":"cebpf4jnsgd1na2vs0mg"},{"bike_id":"830148a0-6838-4985-a50a-f084c05698db","system_id":"levelo_inurba_marseille","lat":43.30457,"lon":5.37906,"is_reserved":false,"is_disabled":false,"rental_uris":{"android":"levelo://app?vid=830148a0-6838-4985-a50a-f084c05698db","ios":"levelo://app?vid=830148a0-6838-4985-a50a-f084c05698db"},"vehicle_type_id":"4","last_reported":1746918528,"current_range_meters":4800,"station_id":"ce4bgup2rcd13ifvqcn0","pricing_plan_id":"cebpf4jnsgd1na2vs0mg"},{"bike_id":"00ffc3b2-a5e1-4604-9194-448b49ebf978","system_id":"levelo_inurba_marseille","lat":43.245476,"lon":5.395248,"is_reserved":false,"is_disabled":false,"rental_uris":{"android":"levelo://app?vid=00ffc3b2-a5e1-4604-9194-448b49ebf978","ios":"levelo://app?vid=00ffc3b2-a5e1-4604-9194-448b49ebf978"},"vehicle_type_id":"4","last_reported":1746918528,"current_range_meters":4800,"station_id":"ce4bhlp2rcd13ifvqgjg","pricing_plan_id":"cebpf4jnsgd1na2vs0mg"},{"bike_id":"42d1b88a-f802-478f-bd97-438cb0ddd574","system_id":"levelo_inurba_marseille","lat":43.257228,"lon":5.41115,"is_reserved":false,"is_disabled":false,"rental_uris":{"android":"levelo://app?vid=42d1b88a-f802-478f-bd97-438cb0ddd574","ios":"levelo://app?vid=42d1b88a-f802-478f-bd97-438cb0ddd574"},"vehicle_type_id":"4","last_reported":1746918528,"current_range_meters":4800,"station_id":"ce4bhkp2rcd13ifvqgd0","pricing_plan_id":"cebpf4jnsgd1na2vs0mg"},{"bike_id":"4c7aa215-d008-4204-8e63-9a253c5d1ec8","system_id":"levelo_inurba_marseille","lat":43.28728,"lon":5.36098,"is_reserved":false,"is_disabled":false,"rental_uris":{"android":"levelo://app?vid=4c7aa215-d008-4204-8e63-9a253c5d1ec8","ios":"levelo://app?vid=4c7aa215-d008-4204-8e63-9a253c5d1ec8"},"vehicle_type_id":"4","last_reported":1746918528,"current_range_meters":4800,"station_id":"cki0cbj6b192h4jlfktg","pricing_plan_id":"cebpf4jnsgd1na2vs0mg"},{"bike_id":"229001d2-7627-43e0-aeea-2d75580fd339","system_id":"levelo_inurba_marseille","lat":43.28295,"lon":5.43227,"is_reserved":false,"is_disabled":false,"rental_uris":{"android":"levelo://app?vid=229001d2-7627-43e0-aeea-2d75580fd339","ios":"levelo://app?vid=229001d2-7627-43e0-aeea-2d75580fd339"},"vehicle_type_id":"4","last_reported":1746918528,"current_range_meters":4800,"station_id":"","pricing_plan_id":"cebpf4jnsgd1na2vs0mg"},{"bike_id":"620a9f7d-3e0b-4d2b-986a-8d82c8cc6f4d","system_id":"levelo_inurba_marseille","lat":43.31327,"lon":5.39699,"is_reserved":false,"is_disabled":false,"rental_uris":{"android":"levelo://app?vid=620a9f7d-3e0b-4d2b-986a-8d82c8cc6f4d","ios":"levelo://app?vid=620a9f7d-3e0b-4d2b-986a-8d82c8cc6f4d"},"vehicle_type_id":"4","last_reported":1746918528,"current_range_meters":5600,"station_id":"ce4bgvp2rcd13ifvqcu0","pricing_plan_id":"cebpf4jnsgd1na2vs0mg"},{"bike_id":"5fdc5419-afaf-4da2-8bd1-d0b526b1e6c5","system_id":"levelo_inurba_marseille","lat":43.28847,"lon":5.35855,"is_reserved":false,"is_disabled":false,"rental_uris":{"android":"levelo://app?vid=5fdc5419-afaf-4da2-8bd1-d0b526b1e6c5","ios":"levelo://app?vid=5fdc5419-afaf-4da2-8bd1-d0b526b1e6c5"},"vehicle_type_id":"4","last_reported":1746918528,"current_range_meters":5600,"station_id":"ce4bhb12rcd13ifvqem0","pricing_plan_id":"cebpf4jnsgd1na2vs0mg"},{"bike_id":"4982dac2-0513-4d70-becb-b9efc6775b5a","system_id":"levelo_inurba_marseille","lat":43.29261,"lon":5.409,"is_reserved":false,"is_disabled":false,"rental_uris":{"android":"levelo://app?vid=4982dac2-0513-4d70-becb-b9efc6775b5a","ios":"levelo://app?vid=4982dac2-0513-4d70-becb-b9efc6775b5a"},"vehicle_type_id":"4","last_reported":1746918528,"current_range_meters":5600,"station_id":"ce4bh192rcd13ifvqdc0","pricing_plan_id":"cebpf4jnsgd1na2vs0mg"},{"bike_id":"41dbe43e-54d4-4f61-b0a0-2607d897ad6e","system_id":"levelo_inurba_marseille","lat":43.28723,"lon":5.37929,"is_reserved":false,"is_disabled":false,"rental_uris":{"android":"levelo://app?vid=41dbe43e-54d4-4f61-b0a0-2607d897ad6e","ios":"levelo://app?vid=41dbe43e-54d4-4f61-b0a0-2607d897ad6e"},"vehicle_type_id":"4","last_reported":1746918528,"current_range_meters":6000,"station_id":"ce4bh9p2rcd13ifvqec0","pricing_plan_id":"cebpf4jnsgd1na2vs0mg"},{"bike_id":"9a8917b9-bb81-48fa-bed3-e6be41b1f14f","system_id":"levelo_inurba_marseille","lat":43.28465,"lon":5.35881,"is_reserved":false,"is_disabled":false,"rental_uris":{"android":"levelo://app?vid=9a8917b9-bb81-48fa-bed3-e6be41b1f14f","ios":"levelo://app?vid=9a8917b9-bb81-48fa-bed3-e6be41b1f14f"},"vehicle_type_id":"4","last_reported":1746918528,"current_range_meters":6000,"station_id":"ce4bhah2rcd13ifvqei0","pricing_plan_id":"cebpf4jnsgd1na2vs0mg"},{"bike_id":"7561ca81-18ff-4062-bd0d-4e3e5b796d0e","system_id":"levelo_inurba_marseille","lat":43.2777,"lon":5.43502,"is_reserved":false,"is_disabled":false,"rental_uris":{"android":"levelo://app?vid=7561ca81-18ff-4062-bd0d-4e3e5b796d0e","ios":"levelo://app?vid=7561ca81-18ff-4062-bd0d-4e3e5b796d0e"},"vehicle_type_id":"4","last_reported":1746918528,"current_range_meters":6000,"station_id":"","pricing_plan_id":"cebpf4jnsgd1na2vs0mg"},{"bike_id":"f48a5859-4f45-4ea4-914c-1a7c3be32d40","system_id":"levelo_inurba_marseille","lat":43.2954,"lon":5.39409,"is_reserved":false,"is_disabled":false,"rental_uris":{"android":"levelo://app?vid=f48a5859-4f45-4ea4-914c-1a7c3be32d40","ios":"levelo://app?vid=f48a5859-4f45-4ea4-914c-1a7c3be32d40"},"vehicle_type_id":"4","last_reported":1746918528,"current_range_meters":6000,"station_id":"ce4bh292rcd13ifvqdf0","pricing_plan_id":"cebpf4jnsgd1na2vs0mg"},{"bike_id":"5b4e9a9e-437f-42a7-b1c0-34640153bb0d","system_id":"levelo_inurba_marseille","lat":43.29258,"lon":5.40906,"is_reserved":false,"is_disabled":false,"rental_uris":{"android":"levelo://app?vid=5b4e9a9e-437f-42a7-b1c0-34640153bb0d","ios":"levelo://app?vid=5b4e9a9e-437f-42a7-b1c0-34640153bb0d"},"vehicle_type_id":"4","last_reported":1746918528,"current_range_meters":6400,"station_id":"ce4bh192rcd13ifvqdc0","pricing_plan_id":"cebpf4jnsgd1na2vs0mg"},{"bike_id":"83ea192d-0da0-4589-bae2-0ef6eec56066","system_id":"levelo_inurba_marseille","lat":43.28848,"lon":5.39304,"is_reserved":false,"is_disabled":false,"rental_uris":{"android":"levelo://app?vid=83ea192d-0da0-4589-bae2-0ef6eec56066","ios":"levelo://app?vid=83ea192d-0da0-4589-bae2-0ef6eec56066"},"vehicle_type_id":"4","last_reported":1746918528,"current_range_meters":6400,"station_id":"ce4bh2p2rcd13ifvqdi0","pricing_plan_id":"cebpf4jnsgd1na2vs0mg"},{"bike_id":"8721b0b2-aa5e-47f2-98b6-4fd22cf926b9","system_id":"levelo_inurba_marseille","lat":43.23161,"lon":5.43705,"is_reserved":false,"is_disabled":false,"rental_uris":{"android":"levelo://app?vid=8721b0b2-aa5e-47f2-98b6-4fd22cf926b9","ios":"levelo://app?vid=8721b0b2-aa5e-47f2-98b6-4fd22cf926b9"},"vehicle_type_id":"4","last_reported":1746918528,"current_range_meters":6400,"station_id":"ce4bhmp2rcd13ifvqgog","pricing_plan_id":"cebpf4jnsgd1na2vs0mg"},{"bike_id":"93b3c579-248b-412d-b464-87f9fb70e513","system_id":"levelo_inurba_marseille","lat":43.29238,"lon":5.38307,"is_reserved":false,"is_disabled":false,"rental_uris":{"android":"levelo://app?vid=93b3c579-248b-412d-b464-87f9fb70e513","ios":"levelo://app?vid=93b3c579-248b-412d-b464-87f9fb70e513"},"vehicle_type_id":"4","last_reported":1746918528,"current_range_meters":6800,"station_id":"","pricing_plan_id":"cebpf4jnsgd1na2vs0mg"},{"bike_id":"ec46d12d-6c4e-4d88-9b04-68388e10e57d","system_id":"levelo_inurba_marseille","lat":43.28722,"lon":5.37946,"is_reserved":false,"is_disabled":false,"rental_uris":{"android":"levelo://app?vid=ec46d12d-6c4e-4d88-9b04-68388e10e57d","ios":"levelo://app?vid=ec46d12d-6c4e-4d88-9b04-68388e10e57d"},"vehicle_type_id":"4","last_reported":1746918528,"current_range_meters":6800,"station_id":"ce4bh9p2rcd13ifvqec0","pricing_plan_id":"cebpf4jnsgd1na2vs0mg"},{"bike_id":"e3cd9e21-4fb9-4703-835d-0df1a1c46db6","system_id":"levelo_inurba_marseille","lat":43.29025,"lon":5.38647,"is_reserved":false,"is_disabled":false,"rental_uris":{"android":"levelo://app?vid=e3cd9e21-4fb9-4703-835d-0df1a1c46db6","ios":"levelo://app?vid=e3cd9e21-4fb9-4703-835d-0df1a1c46db6"},"vehicle_type_id":"4","last_reported":1746918528,"current_range_meters":6400,"station_id":"ce4bh4p2rcd13ifvqe0g","pricing_plan_id":"cebpf4jnsgd1na2vs0mg"},{"bike_id":"904c7fc2-540f-4043-a405-5f5658266117","system_id":"levelo_inurba_marseille","lat":43.27585,"lon":5.37758,"is_reserved":false,"is_disabled":false,"rental_uris":{"android":"levelo://app?vid=904c7fc2-540f-4043-a405-5f5658266117","ios":"levelo://app?vid=904c7fc2-540f-4043-a405-5f5658266117"},"vehicle_type_id":"4","last_reported":1746918528,"current_range_meters":6800,"station_id":"","pricing_plan_id":"cebpf4jnsgd1na2vs0mg"},{"bike_id":"20d62d3a-f9ce-444c-ad20-a24efcb0537e","system_id":"levelo_inurba_marseille","lat":43.320022,"lon":5.381522,"is_reserved":false,"is_disabled":true,"rental_uris":{"android":"levelo://app?vid=20d62d3a-f9ce-444c-ad20-a24efcb0537e","ios":"levelo://app?vid=20d62d3a-f9ce-444c-ad20-a24efcb0537e"},"vehicle_type_id":"4","last_reported":1746918528,"current_range_meters":6800,"station_id":"ce4bhr12rcd13ifvqhpg","pricing_plan_id":"cebpf4jnsgd1na2vs0mg"},{"bike_id":"8b52c7ec-24bd-4090-b8e5-6935af5a0410","system_id":"levelo_inurba_marseille","lat":43.269581,"lon":5.38634,"is_reserved":false,"is_disabled":false,"rental_uris":{"android":"levelo://app?vid=8b52c7ec-24bd-4090-b8e5-6935af5a0410","ios":"levelo://app?vid=8b52c7ec-24bd-4090-b8e5-6935af5a0410"},"vehicle_type_id":"4","last_reported":1746918528,"current_range_meters":7200,"station_id":"ce4bhh92rcd13ifvqfh0","pricing_plan_id":"cebpf4jnsgd1na2vs0mg"},{"bike_id":"6da010b9-e9df-470e-8814-e92ed4212b43","system_id":"levelo_inurba_marseille","lat":43.282347,"lon":5.350811,"is_reserved":false,"is_disabled":false,"rental_uris":{"android":"levelo://app?vid=6da010b9-e9df-470e-8814-e92ed4212b43","ios":"levelo://app?vid=6da010b9-e9df-470e-8814-e92ed4212b43"},"vehicle_type_id":"4","last_reported":1746918528,"current_range_meters":7200,"station_id":"ce4bhbp2rcd13ifvqerg","pricing_plan_id":"cebpf4jnsgd1na2vs0mg"},{"bike_id":"c9d8040d-92c1-425f-851b-37d264d46287","system_id":"levelo_inurba_marseille","lat":43.30325,"lon":5.40439,"is_reserved":false,"is_disabled":false,"rental_uris":{"android":"levelo://app?vid=c9d8040d-92c1-425f-851b-37d264d46287","ios":"levelo://app?vid=c9d8040d-92c1-425f-851b-37d264d46287"},"vehicle_type_id":"4","last_reported":1746918528,"current_range_meters":7200,"station_id":"ce4bh012rcd13ifvqd10","pricing_plan_id":"cebpf4jnsgd1na2vs0mg"},{"bike_id":"2c481870-9043-4c23-be70-1c506e56aa57","system_id":"levelo_inurba_marseille","lat":43.29975,"lon":5.37176,"is_reserved":false,"is_disabled":false,"rental_uris":{"android":"levelo://app?vid=2c481870-9043-4c23-be70-1c506e56aa57","ios":"levelo://app?vid=2c481870-9043-4c23-be70-1c506e56aa57"},"vehicle_type_id":"4","last_reported":1746918528,"current_range_meters":7200,"station_id":"","pricing_plan_id":"cebpf4jnsgd1na2vs0mg"},{"bike_id":"aaeabc86-52b2-4aae-91ca-bcb705dee498","system_id":"levelo_inurba_marseille","lat":43.30275,"lon":5.37723,"is_reserved":false,"is_disabled":false,"rental_uris":{"android":"levelo://app?vid=aaeabc86-52b2-4aae-91ca-bcb705dee498","ios":"levelo://app?vid=aaeabc86-52b2-4aae-91ca-bcb705dee498"},"vehicle_type_id":"4","last_reported":1746918528,"current_range_meters":6800,"station_id":"ce4bguh2rcd13ifvqcj0","pricing_plan_id":"cebpf4jnsgd1na2vs0mg"},{"bike_id":"d26470ec-c77f-4723-bf3b-b85ee2ae9447","system_id":"levelo_inurba_marseille","lat":43.306076,"lon":5.372371,"is_reserved":false,"is_disabled":false,"rental_uris":{"android":"levelo://app?vid=d26470ec-c77f-4723-bf3b-b85ee2ae9447","ios":"levelo://app?vid=d26470ec-c77f-4723-bf3b-b85ee2ae9447"},"vehicle_type_id":"4","last_reported":1746918528,"current_range_meters":7200,"station_id":"","pricing_plan_id":"cebpf4jnsgd1na2vs0mg"},{"bike_id":"91e7df32-b059-4b1b-b020-f59485bbc9aa","system_id":"levelo_inurba_marseille","lat":43.30326,"lon":5.40438,"is_reserved":false,"is_disabled":false,"rental_uris":{"android":"levelo://app?vid=91e7df32-b059-4b1b-b020-f59485bbc9aa","ios":"levelo://app?vid=91e7df32-b059-4b1b-b020-f59485bbc9aa"},"vehicle_type_id":"4","last_reported":1746918528,"current_range_meters":7200,"station_id":"ce4bh012rcd13ifvqd10","pricing_plan_id":"cebpf4jnsgd1na2vs0mg"},{"bike_id":"7154faff-ef39-40ed-858c-21257b465040","system_id":"levelo_inurba_marseille","lat":43.26976,"lon":5.4313,"is_reserved":false,"is_disabled":false,"rental_uris":{"android":"levelo://app?vid=7154faff-ef39-40ed-858c-21257b465040","ios":"levelo://app?vid=7154faff-ef39-40ed-858c-21257b465040"},"vehicle_type_id":"4","last_reported":1746918528,"current_range_meters":7200,"station_id":"","pricing_plan_id":"cebpf4jnsgd1na2vs0mg"},{"bike_id":"44b6822a-3f74-4531-bc1a-e9caf355563c","system_id":"levelo_inurba_marseille","lat":43.25489,"lon":5.37626,"is_reserved":false,"is_disabled":false,"rental_uris":{"android":"levelo://app?vid=44b6822a-3f74-4531-bc1a-e9caf355563c","ios":"levelo://app?vid=44b6822a-3f74-4531-bc1a-e9caf355563c"},"vehicle_type_id":"4","last_reported":1746918528,"current_range_meters":7200,"station_id":"ce4bhh12rcd13ifvqff0","pricing_plan_id":"cebpf4jnsgd1na2vs0mg"},{"bike_id":"fb40f469-983c-40ec-8931-4e54f380cb47","system_id":"levelo_inurba_marseille","lat":43.25106,"lon":5.40331,"is_reserved":false,"is_disabled":false,"rental_uris":{"android":"levelo://app?vid=fb40f469-983c-40ec-8931-4e54f380cb47","ios":"levelo://app?vid=fb40f469-983c-40ec-8931-4e54f380cb47"},"vehicle_type_id":"4","last_reported":1746918528,"current_range_meters":8000,"station_id":"ce4bhlh2rcd13ifvqgig","pricing_plan_id":"cebpf4jnsgd1na2vs0mg"},{"bike_id":"cfa88eae-5383-4734-b33d-e56a7c4eff65","system_id":"levelo_inurba_marseille","lat":43.27911,"lon":5.38013,"is_reserved":false,"is_disabled":false,"rental_uris":{"android":"levelo://app?vid=cfa88eae-5383-4734-b33d-e56a7c4eff65","ios":"levelo://app?vid=cfa88eae-5383-4734-b33d-e56a7c4eff65"},"vehicle_type_id":"4","last_reported":1746918528,"current_range_meters":8000,"station_id":"ce4bhf92rcd13ifvqf50","pricing_plan_id":"cebpf4jnsgd1na2vs0mg"},{"bike_id":"57f75006-26cb-495d-942e-ca522f620037","system_id":"levelo_inurba_marseille","lat":43.30538,"lon":5.36713,"is_reserved":false,"is_disabled":false,"rental_uris":{"android":"levelo://app?vid=57f75006-26cb-495d-942e-ca522f620037","ios":"levelo://app?vid=57f75006-26cb-495d-942e-ca522f620037"},"vehicle_type_id":"4","last_reported":1746918528,"current_range_meters":7200,"station_id":"ce4bgrp2rcd13ifvqc9g","pricing_plan_id":"cebpf4jnsgd1na2vs0mg"},{"bike_id":"b215f848-7b9d-4a41-b91f-77a59ec6ec33","system_id":"levelo_inurba_marseille","lat":43.311573,"lon":5.387198,"is_reserved":false,"is_disabled":false,"rental_uris":{"android":"levelo://app?vid=b215f848-7b9d-4a41-b91f-77a59ec6ec33","ios":"levelo://app?vid=b215f848-7b9d-4a41-b91f-77a59ec6ec33"},"vehicle_type_id":"4","last_reported":1746918528,"current_range_meters":8000,"station_id":"ce4bgv12rcd13ifvqcp0","pricing_plan_id":"cebpf4jnsgd1na2vs0mg"},{"bike_id":"f30700cd-2b15-4379-bae3-a617af060209","system_id":"levelo_inurba_marseille","lat":43.21722,"lon":5.34633,"is_reserved":false,"is_disabled":true,"rental_uris":{"android":"levelo://app?vid=f30700cd-2b15-4379-bae3-a617af060209","ios":"levelo://app?vid=f30700cd-2b15-4379-bae3-a617af060209"},"vehicle_type_id":"4","last_reported":1746918528,"current_range_meters":8000,"station_id":"st_cvj6r9ubvosntc0bgbag","pricing_plan_id":"cebpf4jnsgd1na2vs0mg"},{"bike_id":"195d4b83-6810-42f7-b0c9-2c0cf6e3b028","system_id":"levelo_inurba_marseille","lat":43.29279,"lon":5.40115,"is_reserved":false,"is_disabled":false,"rental_uris":{"android":"levelo://app?vid=195d4b83-6810-42f7-b0c9-2c0cf6e3b028","ios":"levelo://app?vid=195d4b83-6810-42f7-b0c9-2c0cf6e3b028"},"vehicle_type_id":"4","last_reported":1746918528,"current_range_meters":8000,"station_id":"ce4bh312rcd13ifvqdk0","pricing_plan_id":"cebpf4jnsgd1na2vs0mg"},{"bike_id":"cf176f96-8e13-4b60-9e16-5a279a322438","system_id":"levelo_inurba_marseille","lat":43.30096,"lon":5.39109,"is_reserved":false,"is_disabled":false,"rental_uris":{"android":"levelo://app?vid=cf176f96-8e13-4b60-9e16-5a279a322438","ios":"levelo://app?vid=cf176f96-8e13-4b60-9e16-5a279a322438"},"vehicle_type_id":"4","last_reported":1746918528,"current_range_meters":8000,"station_id":"ce4bh192rcd13ifvqdb0","pricing_plan_id":"cebpf4jnsgd1na2vs0mg"},{"bike_id":"c8871d60-de65-4dc9-8457-ca42730446e7","system_id":"levelo_inurba_marseille","lat":43.317545,"lon":5.387729,"is_reserved":false,"is_disabled":false,"rental_uris":{"android":"levelo://app?vid=c8871d60-de65-4dc9-8457-ca42730446e7","ios":"levelo://app?vid=c8871d60-de65-4dc9-8457-ca42730446e7"},"vehicle_type_id":"4","last_reported":1746918528,"current_range_meters":8000,"station_id":"","pricing_plan_id":"cebpf4jnsgd1na2vs0mg"},{"bike_id":"c13f6770-edfc-46b5-bb2d-9740a2cce6d4","system_id":"levelo_inurba_marseille","lat":43.2549,"lon":5.37649,"is_reserved":false,"is_disabled":true,"rental_uris":{"android":"levelo://app?vid=c13f6770-edfc-46b5-bb2d-9740a2cce6d4","ios":"levelo://app?vid=c13f6770-edfc-46b5-bb2d-9740a2cce6d4"},"vehicle_type_id":"4","last_reported":1746918528,"current_range_meters":8000,"station_id":"ce4bhh12rcd13ifvqff0","pricing_plan_id":"cebpf4jnsgd1na2vs0mg"},{"bike_id":"b072ea19-2f2d-4741-996c-fcc378bc3375","system_id":"levelo_inurba_marseille","lat":43.30544,"lon":5.38428,"is_reserved":false,"is_disabled":false,"rental_uris":{"android":"levelo://app?vid=b072ea19-2f2d-4741-996c-fcc378bc3375","ios":"levelo://app?vid=b072ea19-2f2d-4741-996c-fcc378bc3375"},"vehicle_type_id":"4","last_reported":1746918528,"current_range_meters":8400,"station_id":"ce4bgg92rcd13ifvqb30","pricing_plan_id":"cebpf4jnsgd1na2vs0mg"},{"bike_id":"f37fd579-ee4e-46a5-9128-3c50468ec629","system_id":"levelo_inurba_marseille","lat":43.26552,"lon":5.37291,"is_reserved":false,"is_disabled":true,"rental_uris":{"android":"levelo://app?vid=f37fd579-ee4e-46a5-9128-3c50468ec629","ios":"levelo://app?vid=f37fd579-ee4e-46a5-9128-3c50468ec629"},"vehicle_type_id":"4","last_reported":1746918528,"current_range_meters":8400,"station_id":"ce4bhg12rcd13ifvqf70","pricing_plan_id":"cebpf4jnsgd1na2vs0mg"},{"bike_id":"7d133824-1f9a-4c15-a32e-419ca57eeea8","system_id":"levelo_inurba_marseille","lat":43.29602,"lon":5.36753,"is_reserved":false,"is_disabled":true,"rental_uris":{"android":"levelo://app?vid=7d133824-1f9a-4c15-a32e-419ca57eeea8","ios":"levelo://app?vid=7d133824-1f9a-4c15-a32e-419ca57eeea8"},"vehicle_type_id":"4","last_reported":1746918528,"current_range_meters":8400,"station_id":"ce4bgph2rcd13ifvqc2g","pricing_plan_id":"cebpf4jnsgd1na2vs0mg"},{"bike_id":"0d337e49-1c21-41a4-bdac-86d7356f2732","system_id":"levelo_inurba_marseille","lat":43.27208,"lon":5.39184,"is_reserved":false,"is_disabled":false,"rental_uris":{"android":"levelo://app?vid=0d337e49-1c21-41a4-bdac-86d7356f2732","ios":"levelo://app?vid=0d337e49-1c21-41a4-bdac-86d7356f2732"},"vehicle_type_id":"4","last_reported":1746918528,"current_range_meters":8400,"station_id":"ce4bhhp2rcd13ifvqfm0","pricing_plan_id":"cebpf4jnsgd1na2vs0mg"},{"bike_id":"cbb84f45-3fb7-43f0-b1b9-596ef6971fc2","system_id":"levelo_inurba_marseille","lat":43.31357,"lon":5.38499,"is_reserved":false,"is_disabled":false,"rental_uris":{"android":"levelo://app?vid=cbb84f45-3fb7-43f0-b1b9-596ef6971fc2","ios":"levelo://app?vid=cbb84f45-3fb7-43f0-b1b9-596ef6971fc2"},"vehicle_type_id":"4","last_reported":1746918528,"current_range_meters":8400,"station_id":"ce4bgt92rcd13ifvqcf0","pricing_plan_id":"cebpf4jnsgd1na2vs0mg"},{"bike_id":"289d5288-cc51-451e-a6b9-a0b4bad52823","system_id":"levelo_inurba_marseille","lat":43.31276,"lon":5.40183,"is_reserved":false,"is_disabled":false,"rental_uris":{"android":"levelo://app?vid=289d5288-cc51-451e-a6b9-a0b4bad52823","ios":"levelo://app?vid=289d5288-cc51-451e-a6b9-a0b4bad52823"},"vehicle_type_id":"4","last_reported":1746918528,"current_range_meters":8000,"station_id":"ce4bh092rcd13ifvqd30","pricing_plan_id":"cebpf4jnsgd1na2vs0mg"},{"bike_id":"bc20ecd6-0637-4db5-ab7b-9ec5aeecf386","system_id":"levelo_inurba_marseille","lat":43.31167,"lon":5.38713,"is_reserved":false,"is_disabled":false,"rental_uris":{"android":"levelo://app?vid=bc20ecd6-0637-4db5-ab7b-9ec5aeecf386","ios":"levelo://app?vid=bc20ecd6-0637-4db5-ab7b-9ec5aeecf386"},"vehicle_type_id":"4","last_reported":1746918528,"current_range_meters":8800,"station_id":"ce4bgv12rcd13ifvqcp0","pricing_plan_id":"cebpf4jnsgd1na2vs0mg"},{"bike_id":"05ecc193-9e21-4abd-8561-07ea6c151287","system_id":"levelo_inurba_marseille","lat":43.30214,"lon":5.39479,"is_reserved":false,"is_disabled":false,"rental_uris":{"android":"levelo://app?vid=05ecc193-9e21-4abd-8561-07ea6c151287","ios":"levelo://app?vid=05ecc193-9e21-4abd-8561-07ea6c151287"},"vehicle_type_id":"4","last_reported":1746918528,"current_range_meters":8800,"station_id":"ce4bh0p2rcd13ifvqd70","pricing_plan_id":"cebpf4jnsgd1na2vs0mg"},{"bike_id":"aedac110-9a80-4055-b3bc-6fbbff4ed0bc","system_id":"levelo_inurba_marseille","lat":43.3176,"lon":5.37234,"is_reserved":false,"is_disabled":false,"rental_uris":{"android":"levelo://app?vid=aedac110-9a80-4055-b3bc-6fbbff4ed0bc","ios":"levelo://app?vid=aedac110-9a80-4055-b3bc-6fbbff4ed0bc"},"vehicle_type_id":"4","last_reported":1746918528,"current_range_meters":8800,"station_id":"","pricing_plan_id":"cebpf4jnsgd1na2vs0mg"},{"bike_id":"64ae0f8c-291d-44a4-afd5-c3c3bbfafeb7","system_id":"levelo_inurba_marseille","lat":43.24655,"lon":5.389,"is_reserved":false,"is_disabled":false,"rental_uris":{"android":"levelo://app?vid=64ae0f8c-291d-44a4-afd5-c3c3bbfafeb7","ios":"levelo://app?vid=64ae0f8c-291d-44a4-afd5-c3c3bbfafeb7"},"vehicle_type_id":"4","last_reported":1746918528,"current_range_meters":8400,"station_id":"ce4bhg12rcd13ifvqf60","pricing_plan_id":"cebpf4jnsgd1na2vs0mg"},{"bike_id":"814c300d-d261-4866-b022-44e7c5159380","system_id":"levelo_inurba_marseille","lat":43.24164,"lon":5.36405,"is_reserved":false,"is_disabled":true,"rental_uris":{"android":"levelo://app?vid=814c300d-d261-4866-b022-44e7c5159380","ios":"levelo://app?vid=814c300d-d261-4866-b022-44e7c5159380"},"vehicle_type_id":"4","last_reported":1746918528,"current_range_meters":8800,"station_id":"cpo36qri1sfpv3e86is0","pricing_plan_id":"cebpf4jnsgd1na2vs0mg"},{"bike_id":"86b478b2-1cf2-4e07-8a5c-76710e912a41","system_id":"levelo_inurba_marseille","lat":43.291262,"lon":5.36687,"is_reserved":false,"is_disabled":false,"rental_uris":{"android":"levelo://app?vid=86b478b2-1cf2-4e07-8a5c-76710e912a41","ios":"levelo://app?vid=86b478b2-1cf2-4e07-8a5c-76710e912a41"},"vehicle_type_id":"4","last_reported":1746918528,"current_range_meters":8800,"station_id":"","pricing_plan_id":"cebpf4jnsgd1na2vs0mg"},{"bike_id":"10ee2d0e-ca01-4e83-bbdf-6c08178a202f","system_id":"levelo_inurba_marseille","lat":43.28609,"lon":5.41305,"is_reserved":false,"is_disabled":false,"rental_uris":{"android":"levelo://app?vid=10ee2d0e-ca01-4e83-bbdf-6c08178a202f","ios":"levelo://app?vid=10ee2d0e-ca01-4e83-bbdf-6c08178a202f"},"vehicle_type_id":"4","last_reported":1746918528,"current_range_meters":8800,"station_id":"","pricing_plan_id":"cebpf4jnsgd1na2vs0mg"},{"bike_id":"84f98d2d-18e9-43f4-843a-30bb22d7aeb7","system_id":"levelo_inurba_marseille","lat":43.31173,"lon":5.38706,"is_reserved":false,"is_disabled":false,"rental_uris":{"android":"levelo://app?vid=84f98d2d-18e9-43f4-843a-30bb22d7aeb7","ios":"levelo://app?vid=84f98d2d-18e9-43f4-843a-30bb22d7aeb7"},"vehicle_type_id":"4","last_reported":1746918528,"current_range_meters":8800,"station_id":"ce4bgv12rcd13ifvqcp0","pricing_plan_id":"cebpf4jnsgd1na2vs0mg"},{"bike_id":"44e88eeb-5d69-44d1-ad07-bcaf5276d14e","system_id":"levelo_inurba_marseille","lat":43.26205,"lon":5.40424,"is_reserved":false,"is_disabled":false,"rental_uris":{"android":"levelo://app?vid=44e88eeb-5d69-44d1-ad07-bcaf5276d14e","ios":"levelo://app?vid=44e88eeb-5d69-44d1-ad07-bcaf5276d14e"},"vehicle_type_id":"4","last_reported":1746918528,"current_range_meters":8800,"station_id":"ce4bhmh2rcd13ifvqgmg","pricing_plan_id":"cebpf4jnsgd1na2vs0mg"},{"bike_id":"5abb52c1-ea1d-4638-8bf2-79bb89ed51f6","system_id":"levelo_inurba_marseille","lat":43.311717,"lon":5.38704,"is_reserved":false,"is_disabled":false,"rental_uris":{"android":"levelo://app?vid=5abb52c1-ea1d-4638-8bf2-79bb89ed51f6","ios":"levelo://app?vid=5abb52c1-ea1d-4638-8bf2-79bb89ed51f6"},"vehicle_type_id":"4","last_reported":1746918528,"current_range_meters":8800,"station_id":"ce4bgv12rcd13ifvqcp0","pricing_plan_id":"cebpf4jnsgd1na2vs0mg"},{"bike_id":"99fb9985-2088-4a48-ae83-62aca3ba1639","system_id":"levelo_inurba_marseille","lat":43.31495,"lon":5.3729,"is_reserved":false,"is_disabled":true,"rental_uris":{"android":"levelo://app?vid=99fb9985-2088-4a48-ae83-62aca3ba1639","ios":"levelo://app?vid=99fb9985-2088-4a48-ae83-62aca3ba1639"},"vehicle_type_id":"4","last_reported":1746918528,"current_range_meters":8800,"station_id":"ce4bgt12rcd13ifvqcd0","pricing_plan_id":"cebpf4jnsgd1na2vs0mg"},{"bike_id":"9d244e99-4c32-4d1b-be6e-10dfc03d5f69","system_id":"levelo_inurba_marseille","lat":43.30938,"lon":5.39042,"is_reserved":false,"is_disabled":false,"rental_uris":{"android":"levelo://app?vid=9d244e99-4c32-4d1b-be6e-10dfc03d5f69","ios":"levelo://app?vid=9d244e99-4c32-4d1b-be6e-10dfc03d5f69"},"vehicle_type_id":"4","last_reported":1746918528,"current_range_meters":8800,"station_id":"ce4bgup2rcd13ifvqco0","pricing_plan_id":"cebpf4jnsgd1na2vs0mg"},{"bike_id":"930ea334-03db-4a4b-bbad-3260d0628f88","system_id":"levelo_inurba_marseille","lat":43.31362,"lon":5.38478,"is_reserved":false,"is_disabled":false,"rental_uris":{"android":"levelo://app?vid=930ea334-03db-4a4b-bbad-3260d0628f88","ios":"levelo://app?vid=930ea334-03db-4a4b-bbad-3260d0628f88"},"vehicle_type_id":"4","last_reported":1746918528,"current_range_meters":8800,"station_id":"ce4bgt92rcd13ifvqcf0","pricing_plan_id":"cebpf4jnsgd1na2vs0mg"},{"bike_id":"cdf2c42d-2387-455c-b3aa-2e8698fb7237","system_id":"levelo_inurba_marseille","lat":43.31481,"lon":5.373075,"is_reserved":false,"is_disabled":false,"rental_uris":{"android":"levelo://app?vid=cdf2c42d-2387-455c-b3aa-2e8698fb7237","ios":"levelo://app?vid=cdf2c42d-2387-455c-b3aa-2e8698fb7237"},"vehicle_type_id":"4","last_reported":1746918528,"current_range_meters":9200,"station_id":"ce4bgt12rcd13ifvqcd0","pricing_plan_id":"cebpf4jnsgd1na2vs0mg"},{"bike_id":"d89f1741-5287-44c1-a217-3934c7e50dfb","system_id":"levelo_inurba_marseille","lat":43.30886,"lon":5.39639,"is_reserved":false,"is_disabled":false,"rental_uris":{"android":"levelo://app?vid=d89f1741-5287-44c1-a217-3934c7e50dfb","ios":"levelo://app?vid=d89f1741-5287-44c1-a217-3934c7e50dfb"},"vehicle_type_id":"4","last_reported":1746918528,"current_range_meters":9200,"station_id":"ce4bh012rcd13ifvqcv0","pricing_plan_id":"cebpf4jnsgd1na2vs0mg"},{"bike_id":"351ef218-24e5-4670-825d-fc1ac5cd3c19","system_id":"levelo_inurba_marseille","lat":43.318095,"lon":5.368148,"is_reserved":false,"is_disabled":false,"rental_uris":{"android":"levelo://app?vid=351ef218-24e5-4670-825d-fc1ac5cd3c19","ios":"levelo://app?vid=351ef218-24e5-4670-825d-fc1ac5cd3c19"},"vehicle_type_id":"4","last_reported":1746918528,"current_range_meters":9600,"station_id":"","pricing_plan_id":"cebpf4jnsgd1na2vs0mg"},{"bike_id":"a2514267-4fd8-409f-be6c-38268e63cec1","system_id":"levelo_inurba_marseille","lat":43.28349,"lon":5.38095,"is_reserved":false,"is_disabled":true,"rental_uris":{"android":"levelo://app?vid=a2514267-4fd8-409f-be6c-38268e63cec1","ios":"levelo://app?vid=a2514267-4fd8-409f-be6c-38268e63cec1"},"vehicle_type_id":"4","last_reported":1746918528,"current_range_meters":9600,"station_id":"ce4bh412rcd13ifvqdr0","pricing_plan_id":"cebpf4jnsgd1na2vs0mg"},{"bike_id":"c0bc0ea6-4473-4e07-9f41-bf52820844f7","system_id":"levelo_inurba_marseille","lat":43.251103,"lon":5.403218,"is_reserved":false,"is_disabled":false,"rental_uris":{"android":"levelo://app?vid=c0bc0ea6-4473-4e07-9f41-bf52820844f7","ios":"levelo://app?vid=c0bc0ea6-4473-4e07-9f41-bf52820844f7"},"vehicle_type_id":"4","last_reported":1746918528,"current_range_meters":9600,"station_id":"ce4bhlh2rcd13ifvqgig","pricing_plan_id":"cebpf4jnsgd1na2vs0mg"},{"bike_id":"e35ea722-65ea-4b1a-bb23-8655aeca13e8","system_id":"levelo_inurba_marseille","lat":43.29259,"lon":5.40902,"is_reserved":false,"is_disabled":false,"rental_uris":{"android":"levelo://app?vid=e35ea722-65ea-4b1a-bb23-8655aeca13e8","ios":"levelo://app?vid=e35ea722-65ea-4b1a-bb23-8655aeca13e8"},"vehicle_type_id":"4","last_reported":1746918528,"current_range_meters":10000,"station_id":"ce4bh192rcd13ifvqdc0","pricing_plan_id":"cebpf4jnsgd1na2vs0mg"},{"bike_id":"76eb38bb-f6fa-4460-ae23-f70420b766e9","system_id":"levelo_inurba_marseille","lat":43.25151,"lon":5.40316,"is_reserved":false,"is_disabled":false,"rental_uris":{"android":"levelo://app?vid=76eb38bb-f6fa-4460-ae23-f70420b766e9","ios":"levelo://app?vid=76eb38bb-f6fa-4460-ae23-f70420b766e9"},"vehicle_type_id":"4","last_reported":1746918528,"current_range_meters":10000,"station_id":"","pricing_plan_id":"cebpf4jnsgd1na2vs0mg"},{"bike_id":"ffaee035-c8e9-41b2-8a4f-10b8bd460729","system_id":"levelo_inurba_marseille","lat":43.31072,"lon":5.38335,"is_reserved":false,"is_disabled":false,"rental_uris":{"android":"levelo://app?vid=ffaee035-c8e9-41b2-8a4f-10b8bd460729","ios":"levelo://app?vid=ffaee035-c8e9-41b2-8a4f-10b8bd460729"},"vehicle_type_id":"4","last_reported":1746918528,"current_range_meters":10000,"station_id":"ce4bgv92rcd13ifvqcr0","pricing_plan_id":"cebpf4jnsgd1na2vs0mg"},{"bike_id":"eef07d64-116f-4531-8507-13c94ea02041","system_id":"levelo_inurba_marseille","lat":43.303256,"lon":5.404343,"is_reserved":false,"is_disabled":false,"rental_uris":{"android":"levelo://app?vid=eef07d64-116f-4531-8507-13c94ea02041","ios":"levelo://app?vid=eef07d64-116f-4531-8507-13c94ea02041"},"vehicle_type_id":"4","last_reported":1746918528,"current_range_meters":10000,"station_id":"ce4bh012rcd13ifvqd10","pricing_plan_id":"cebpf4jnsgd1na2vs0mg"},{"bike_id":"04c1226f-faa4-4a45-b805-4b9bcac57fa8","system_id":"levelo_inurba_marseille","lat":43.29263,"lon":5.39109,"is_reserved":false,"is_disabled":false,"rental_uris":{"android":"levelo://app?vid=04c1226f-faa4-4a45-b805-4b9bcac57fa8","ios":"levelo://app?vid=04c1226f-faa4-4a45-b805-4b9bcac57fa8"},"vehicle_type_id":"4","last_reported":1746918528,"current_range_meters":10000,"station_id":"","pricing_plan_id":"cebpf4jnsgd1na2vs0mg"},{"bike_id":"539bef19-6b4b-461b-89b9-34e8632ad823","system_id":"levelo_inurba_marseille","lat":43.29443,"lon":5.39745,"is_reserved":false,"is_disabled":false,"rental_uris":{"android":"levelo://app?vid=539bef19-6b4b-461b-89b9-34e8632ad823","ios":"levelo://app?vid=539bef19-6b4b-461b-89b9-34e8632ad823"},"vehicle_type_id":"4","last_reported":1746918528,"current_range_meters":9600,"station_id":"ce4bh3h2rcd13ifvqdo0","pricing_plan_id":"cebpf4jnsgd1na2vs0mg"},{"bike_id":"6adb323e-a9c5-4d14-9ab5-2cd0333e3b0a","system_id":"levelo_inurba_marseille","lat":43.304513,"lon":5.38858,"is_reserved":false,"is_disabled":false,"rental_uris":{"android":"levelo://app?vid=6adb323e-a9c5-4d14-9ab5-2cd0333e3b0a","ios":"levelo://app?vid=6adb323e-a9c5-4d14-9ab5-2cd0333e3b0a"},"vehicle_type_id":"4","last_reported":1746918528,"current_range_meters":10800,"station_id":"ce4bgk12rcd13ifvqbi0","pricing_plan_id":"cebpf4jnsgd1na2vs0mg"},{"bike_id":"0dc52e4a-27c8-46bc-ac74-d0914cdf2355","system_id":"levelo_inurba_marseille","lat":43.280427,"lon":5.369333,"is_reserved":false,"is_disabled":false,"rental_uris":{"android":"levelo://app?vid=0dc52e4a-27c8-46bc-ac74-d0914cdf2355","ios":"levelo://app?vid=0dc52e4a-27c8-46bc-ac74-d0914cdf2355"},"vehicle_type_id":"4","last_reported":1746918528,"current_range_meters":10800,"station_id":"ce4bha12rcd13ifvqef0","pricing_plan_id":"cebpf4jnsgd1na2vs0mg"},{"bike_id":"67a378e1-7e89-41ff-a0bc-e22ce5b10084","system_id":"levelo_inurba_marseille","lat":43.31361,"lon":5.38482,"is_reserved":false,"is_disabled":false,"rental_uris":{"android":"levelo://app?vid=67a378e1-7e89-41ff-a0bc-e22ce5b10084","ios":"levelo://app?vid=67a378e1-7e89-41ff-a0bc-e22ce5b10084"},"vehicle_type_id":"4","last_reported":1746918528,"current_range_meters":10800,"station_id":"ce4bgt92rcd13ifvqcf0","pricing_plan_id":"cebpf4jnsgd1na2vs0mg"},{"bike_id":"152c2828-b9d0-48d2-b81a-871b50262206","system_id":"levelo_inurba_marseille","lat":43.33603,"lon":5.41035,"is_reserved":false,"is_disabled":false,"rental_uris":{"android":"levelo://app?vid=152c2828-b9d0-48d2-b81a-871b50262206","ios":"levelo://app?vid=152c2828-b9d0-48d2-b81a-871b50262206"},"vehicle_type_id":"4","last_reported":1746918528,"current_range_meters":10800,"station_id":"ce4bhqh2rcd13ifvqhmg","pricing_plan_id":"cebpf4jnsgd1na2vs0mg"},{"bike_id":"07194d45-fb01-4082-a869-1669b949e023","system_id":"levelo_inurba_marseille","lat":43.32481,"lon":5.36563,"is_reserved":false,"is_disabled":false,"rental_uris":{"android":"levelo://app?vid=07194d45-fb01-4082-a869-1669b949e023","ios":"levelo://app?vid=07194d45-fb01-4082-a869-1669b949e023"},"vehicle_type_id":"4","last_reported":1746918528,"current_range_meters":10800,"station_id":"ce4bhs12rcd13ifvqhvg","pricing_plan_id":"cebpf4jnsgd1na2vs0mg"},{"bike_id":"7b1a19d4-5ed3-40d5-98f4-94cde2e26552","system_id":"levelo_inurba_marseille","lat":43.290209,"lon":5.386286,"is_reserved":false,"is_disabled":false,"rental_uris":{"android":"levelo://app?vid=7b1a19d4-5ed3-40d5-98f4-94cde2e26552","ios":"levelo://app?vid=7b1a19d4-5ed3-40d5-98f4-94cde2e26552"},"vehicle_type_id":"4","last_reported":1746918528,"current_range_meters":10800,"station_id":"ce4bh4p2rcd13ifvqe0g","pricing_plan_id":"cebpf4jnsgd1na2vs0mg"},{"bike_id":"db934911-44a6-4793-9c9a-b25ca32db974","system_id":"levelo_inurba_marseille","lat":43.28038,"lon":5.369465,"is_reserved":false,"is_disabled":false,"rental_uris":{"android":"levelo://app?vid=db934911-44a6-4793-9c9a-b25ca32db974","ios":"levelo://app?vid=db934911-44a6-4793-9c9a-b25ca32db974"},"vehicle_type_id":"4","last_reported":1746918528,"current_range_meters":11200,"station_id":"ce4bha12rcd13ifvqef0","pricing_plan_id":"cebpf4jnsgd1na2vs0mg"},{"bike_id":"c20f94fd-7f14-48bc-a66c-02bbaef8a59e","system_id":"levelo_inurba_marseille","lat":43.28476,"lon":5.38421,"is_reserved":false,"is_disabled":false,"rental_uris":{"android":"levelo://app?vid=c20f94fd-7f14-48bc-a66c-02bbaef8a59e","ios":"levelo://app?vid=c20f94fd-7f14-48bc-a66c-02bbaef8a59e"},"vehicle_type_id":"4","last_reported":1746918528,"current_range_meters":11200,"station_id":"ce4bh512rcd13ifvqe3g","pricing_plan_id":"cebpf4jnsgd1na2vs0mg"},{"bike_id":"f36dad74-085b-497b-9586-ffe254d839dc","system_id":"levelo_inurba_marseille","lat":43.305947,"lon":5.393614,"is_reserved":false,"is_disabled":false,"rental_uris":{"android":"levelo://app?vid=f36dad74-085b-497b-9586-ffe254d839dc","ios":"levelo://app?vid=f36dad74-085b-497b-9586-ffe254d839dc"},"vehicle_type_id":"4","last_reported":1746918528,"current_range_meters":11200,"station_id":"ce4bh0p2rcd13ifvqd80","pricing_plan_id":"cebpf4jnsgd1na2vs0mg"},{"bike_id":"1d83476a-9395-4e91-90b3-3098d854b2b3","system_id":"levelo_inurba_marseille","lat":43.29278,"lon":5.38429,"is_reserved":false,"is_disabled":true,"rental_uris":{"android":"levelo://app?vid=1d83476a-9395-4e91-90b3-3098d854b2b3","ios":"levelo://app?vid=1d83476a-9395-4e91-90b3-3098d854b2b3"},"vehicle_type_id":"4","last_reported":1746918528,"current_range_meters":11200,"station_id":"ce4bh692rcd13ifvqea0","pricing_plan_id":"cebpf4jnsgd1na2vs0mg"},{"bike_id":"fd07d2c5-711c-4e22-a940-e59866863040","system_id":"levelo_inurba_marseille","lat":43.31504,"lon":5.37317,"is_reserved":false,"is_disabled":false,"rental_uris":{"android":"levelo://app?vid=fd07d2c5-711c-4e22-a940-e59866863040","ios":"levelo://app?vid=fd07d2c5-711c-4e22-a940-e59866863040"},"vehicle_type_id":"4","last_reported":1746918528,"current_range_meters":11200,"station_id":"ce4bgt12rcd13ifvqcd0","pricing_plan_id":"cebpf4jnsgd1na2vs0mg"},{"bike_id":"79971d8e-56e5-4a5c-9ec4-52cec4818bab","system_id":"levelo_inurba_marseille","lat":43.29449,"lon":5.39757,"is_reserved":false,"is_disabled":false,"rental_uris":{"android":"levelo://app?vid=79971d8e-56e5-4a5c-9ec4-52cec4818bab","ios":"levelo://app?vid=79971d8e-56e5-4a5c-9ec4-52cec4818bab"},"vehicle_type_id":"4","last_reported":1746918528,"current_range_meters":11200,"station_id":"ce4bh3h2rcd13ifvqdo0","pricing_plan_id":"cebpf4jnsgd1na2vs0mg"},{"bike_id":"b8e0bffe-f75b-4f9c-8ad4-1aae519936a8","system_id":"levelo_inurba_marseille","lat":43.3043,"lon":5.3889,"is_reserved":false,"is_disabled":false,"rental_uris":{"android":"levelo://app?vid=b8e0bffe-f75b-4f9c-8ad4-1aae519936a8","ios":"levelo://app?vid=b8e0bffe-f75b-4f9c-8ad4-1aae519936a8"},"vehicle_type_id":"4","last_reported":1746918528,"current_range_meters":11600,"station_id":"ce4bgk12rcd13ifvqbi0","pricing_plan_id":"cebpf4jnsgd1na2vs0mg"},{"bike_id":"ee982aef-bd9c-4601-b8f3-7ca6190aa1fe","system_id":"levelo_inurba_marseille","lat":43.28424,"lon":5.35016,"is_reserved":false,"is_disabled":false,"rental_uris":{"android":"levelo://app?vid=ee982aef-bd9c-4601-b8f3-7ca6190aa1fe","ios":"levelo://app?vid=ee982aef-bd9c-4601-b8f3-7ca6190aa1fe"},"vehicle_type_id":"4","last_reported":1746918528,"current_range_meters":11600,"station_id":"ce4bhbh2rcd13ifvqepg","pricing_plan_id":"cebpf4jnsgd1na2vs0mg"},{"bike_id":"893c9e69-3e86-45b7-84a5-2cf51ce553a1","system_id":"levelo_inurba_marseille","lat":43.27176,"lon":5.40994,"is_reserved":false,"is_disabled":false,"rental_uris":{"android":"levelo://app?vid=893c9e69-3e86-45b7-84a5-2cf51ce553a1","ios":"levelo://app?vid=893c9e69-3e86-45b7-84a5-2cf51ce553a1"},"vehicle_type_id":"4","last_reported":1746918528,"current_range_meters":11600,"station_id":"ce4bhl12rcd13ifvqgf0","pricing_plan_id":"cebpf4jnsgd1na2vs0mg"},{"bike_id":"bddedd96-a011-4674-a78a-417c4c21b019","system_id":"levelo_inurba_marseille","lat":43.2995,"lon":5.37013,"is_reserved":false,"is_disabled":false,"rental_uris":{"android":"levelo://app?vid=bddedd96-a011-4674-a78a-417c4c21b019","ios":"levelo://app?vid=bddedd96-a011-4674-a78a-417c4c21b019"},"vehicle_type_id":"4","last_reported":1746918528,"current_range_meters":12000,"station_id":"","pricing_plan_id":"cebpf4jnsgd1na2vs0mg"},{"bike_id":"eade25b7-587b-4c06-85e5-b1b4a24f84c0","system_id":"levelo_inurba_marseille","lat":43.29569,"lon":5.39983,"is_reserved":false,"is_disabled":false,"rental_uris":{"android":"levelo://app?vid=eade25b7-587b-4c06-85e5-b1b4a24f84c0","ios":"levelo://app?vid=eade25b7-587b-4c06-85e5-b1b4a24f84c0"},"vehicle_type_id":"4","last_reported":1746918528,"current_range_meters":12000,"station_id":"ce4bh312rcd13ifvqdj0","pricing_plan_id":"cebpf4jnsgd1na2vs0mg"},{"bike_id":"f7d9e090-e670-4290-86c8-2b2da73010a1","system_id":"levelo_inurba_marseille","lat":43.304334,"lon":5.388729,"is_reserved":false,"is_disabled":false,"rental_uris":{"android":"levelo://app?vid=f7d9e090-e670-4290-86c8-2b2da73010a1","ios":"levelo://app?vid=f7d9e090-e670-4290-86c8-2b2da73010a1"},"vehicle_type_id":"4","last_reported":1746918528,"current_range_meters":12000,"station_id":"ce4bgk12rcd13ifvqbi0","pricing_plan_id":"cebpf4jnsgd1na2vs0mg"},{"bike_id":"091b2495-8506-43b4-b374-57e577b837c4","system_id":"levelo_inurba_marseille","lat":43.25117,"lon":5.40326,"is_reserved":false,"is_disabled":false,"rental_uris":{"android":"levelo://app?vid=091b2495-8506-43b4-b374-57e577b837c4","ios":"levelo://app?vid=091b2495-8506-43b4-b374-57e577b837c4"},"vehicle_type_id":"4","last_reported":1746918528,"current_range_meters":12000,"station_id":"ce4bhlh2rcd13ifvqgig","pricing_plan_id":"cebpf4jnsgd1na2vs0mg"},{"bike_id":"cf06a58c-6b90-4ee6-b7ff-5b33ec523703","system_id":"levelo_inurba_marseille","lat":43.28589,"lon":5.4129,"is_reserved":false,"is_disabled":false,"rental_uris":{"android":"levelo://app?vid=cf06a58c-6b90-4ee6-b7ff-5b33ec523703","ios":"levelo://app?vid=cf06a58c-6b90-4ee6-b7ff-5b33ec523703"},"vehicle_type_id":"4","last_reported":1746918528,"current_range_meters":12000,"station_id":"","pricing_plan_id":"cebpf4jnsgd1na2vs0mg"},{"bike_id":"6ef17d4a-3acf-4136-a3aa-30df54bf330a","system_id":"levelo_inurba_marseille","lat":43.30716,"lon":5.36745,"is_reserved":false,"is_disabled":false,"rental_uris":{"android":"levelo://app?vid=6ef17d4a-3acf-4136-a3aa-30df54bf330a","ios":"levelo://app?vid=6ef17d4a-3acf-4136-a3aa-30df54bf330a"},"vehicle_type_id":"4","last_reported":1746918528,"current_range_meters":12000,"station_id":"","pricing_plan_id":"cebpf4jnsgd1na2vs0mg"},{"bike_id":"9b90a6bf-7cf6-42cc-adb4-575b2641265a","system_id":"levelo_inurba_marseille","lat":43.27171,"lon":5.40995,"is_reserved":false,"is_disabled":false,"rental_uris":{"android":"levelo://app?vid=9b90a6bf-7cf6-42cc-adb4-575b2641265a","ios":"levelo://app?vid=9b90a6bf-7cf6-42cc-adb4-575b2641265a"},"vehicle_type_id":"4","last_reported":1746918528,"current_range_meters":12000,"station_id":"ce4bhl12rcd13ifvqgf0","pricing_plan_id":"cebpf4jnsgd1na2vs0mg"},{"bike_id":"530fd4a6-244f-4e38-a29b-1c870e1909cf","system_id":"levelo_inurba_marseille","lat":43.28708,"lon":5.37934,"is_reserved":false,"is_disabled":false,"rental_uris":{"android":"levelo://app?vid=530fd4a6-244f-4e38-a29b-1c870e1909cf","ios":"levelo://app?vid=530fd4a6-244f-4e38-a29b-1c870e1909cf"},"vehicle_type_id":"4","last_reported":1746918528,"current_range_meters":12400,"station_id":"ce4bh9p2rcd13ifvqec0","pricing_plan_id":"cebpf4jnsgd1na2vs0mg"},{"bike_id":"5276f6a9-74a0-4a14-91ea-e298411a2a4b","system_id":"levelo_inurba_marseille","lat":43.2871,"lon":5.39996,"is_reserved":false,"is_disabled":false,"rental_uris":{"android":"levelo://app?vid=5276f6a9-74a0-4a14-91ea-e298411a2a4b","ios":"levelo://app?vid=5276f6a9-74a0-4a14-91ea-e298411a2a4b"},"vehicle_type_id":"4","last_reported":1746918528,"current_range_meters":12400,"station_id":"ce4bho92rcd13ifvqh3g","pricing_plan_id":"cebpf4jnsgd1na2vs0mg"},{"bike_id":"8f00abd1-f2d0-4cef-aff5-307b811333f9","system_id":"levelo_inurba_marseille","lat":43.297807,"lon":5.37097,"is_reserved":false,"is_disabled":false,"rental_uris":{"android":"levelo://app?vid=8f00abd1-f2d0-4cef-aff5-307b811333f9","ios":"levelo://app?vid=8f00abd1-f2d0-4cef-aff5-307b811333f9"},"vehicle_type_id":"4","last_reported":1746918528,"current_range_meters":12400,"station_id":"ce4bgop2rcd13ifvqc1g","pricing_plan_id":"cebpf4jnsgd1na2vs0mg"},{"bike_id":"6d6fec1b-e98f-4ad6-8a89-223a917997b6","system_id":"levelo_inurba_marseille","lat":43.31319,"lon":5.39715,"is_reserved":false,"is_disabled":false,"rental_uris":{"android":"levelo://app?vid=6d6fec1b-e98f-4ad6-8a89-223a917997b6","ios":"levelo://app?vid=6d6fec1b-e98f-4ad6-8a89-223a917997b6"},"vehicle_type_id":"4","last_reported":1746918528,"current_range_meters":12800,"station_id":"ce4bgvp2rcd13ifvqcu0","pricing_plan_id":"cebpf4jnsgd1na2vs0mg"},{"bike_id":"fc2577e7-1497-425b-9d4f-ab8d7dc843c6","system_id":"levelo_inurba_marseille","lat":43.33771,"lon":5.37485,"is_reserved":false,"is_disabled":false,"rental_uris":{"android":"levelo://app?vid=fc2577e7-1497-425b-9d4f-ab8d7dc843c6","ios":"levelo://app?vid=fc2577e7-1497-425b-9d4f-ab8d7dc843c6"},"vehicle_type_id":"4","last_reported":1746918528,"current_range_meters":12800,"station_id":"","pricing_plan_id":"cebpf4jnsgd1na2vs0mg"},{"bike_id":"0205fa26-a9e4-4207-b789-760dc60a3ef4","system_id":"levelo_inurba_marseille","lat":43.26195,"lon":5.3745,"is_reserved":false,"is_disabled":false,"rental_uris":{"android":"levelo://app?vid=0205fa26-a9e4-4207-b789-760dc60a3ef4","ios":"levelo://app?vid=0205fa26-a9e4-4207-b789-760dc60a3ef4"},"vehicle_type_id":"4","last_reported":1746918528,"current_range_meters":12800,"station_id":"ce4bhgp2rcd13ifvqfc0","pricing_plan_id":"cebpf4jnsgd1na2vs0mg"},{"bike_id":"bd9d31f4-0533-4199-a041-cb8a6c279b9c","system_id":"levelo_inurba_marseille","lat":43.2407,"lon":5.37746,"is_reserved":false,"is_disabled":false,"rental_uris":{"android":"levelo://app?vid=bd9d31f4-0533-4199-a041-cb8a6c279b9c","ios":"levelo://app?vid=bd9d31f4-0533-4199-a041-cb8a6c279b9c"},"vehicle_type_id":"4","last_reported":1746918528,"current_range_meters":12400,"station_id":"ce4bhnp2rcd13ifvqgvg","pricing_plan_id":"cebpf4jnsgd1na2vs0mg"},{"bike_id":"801ae6f5-e650-4cd0-ab9a-1493d8be2007","system_id":"levelo_inurba_marseille","lat":43.309495,"lon":5.390318,"is_reserved":false,"is_disabled":false,"rental_uris":{"android":"levelo://app?vid=801ae6f5-e650-4cd0-ab9a-1493d8be2007","ios":"levelo://app?vid=801ae6f5-e650-4cd0-ab9a-1493d8be2007"},"vehicle_type_id":"4","last_reported":1746918528,"current_range_meters":12800,"station_id":"ce4bgup2rcd13ifvqco0","pricing_plan_id":"cebpf4jnsgd1na2vs0mg"},{"bike_id":"ec404f68-c205-4cad-bb82-d8a5e08af78b","system_id":"levelo_inurba_marseille","lat":43.25107,"lon":5.40321,"is_reserved":false,"is_disabled":false,"rental_uris":{"android":"levelo://app?vid=ec404f68-c205-4cad-bb82-d8a5e08af78b","ios":"levelo://app?vid=ec404f68-c205-4cad-bb82-d8a5e08af78b"},"vehicle_type_id":"4","last_reported":1746918528,"current_range_meters":12800,"station_id":"ce4bhlh2rcd13ifvqgig","pricing_plan_id":"cebpf4jnsgd1na2vs0mg"},{"bike_id":"b222ace3-ab88-460b-b1d6-41e908211cad","system_id":"levelo_inurba_marseille","lat":43.21754,"lon":5.34599,"is_reserved":false,"is_disabled":true,"rental_uris":{"android":"levelo://app?vid=b222ace3-ab88-460b-b1d6-41e908211cad","ios":"levelo://app?vid=b222ace3-ab88-460b-b1d6-41e908211cad"},"vehicle_type_id":"4","last_reported":1746918528,"current_range_meters":13600,"station_id":"st_cvj6r9ubvosntc0bgbag","pricing_plan_id":"cebpf4jnsgd1na2vs0mg"},{"bike_id":"7da56c48-6fd3-4a21-9e4c-216dc14c18ee","system_id":"levelo_inurba_marseille","lat":43.28454,"lon":5.35886,"is_reserved":false,"is_disabled":false,"rental_uris":{"android":"levelo://app?vid=7da56c48-6fd3-4a21-9e4c-216dc14c18ee","ios":"levelo://app?vid=7da56c48-6fd3-4a21-9e4c-216dc14c18ee"},"vehicle_type_id":"4","last_reported":1746918528,"current_range_meters":13600,"station_id":"ce4bhah2rcd13ifvqei0","pricing_plan_id":"cebpf4jnsgd1na2vs0mg"},{"bike_id":"af4abaca-80ed-4183-b98d-310e1f7c2a98","system_id":"levelo_inurba_marseille","lat":43.28452,"lon":5.35886,"is_reserved":false,"is_disabled":false,"rental_uris":{"android":"levelo://app?vid=af4abaca-80ed-4183-b98d-310e1f7c2a98","ios":"levelo://app?vid=af4abaca-80ed-4183-b98d-310e1f7c2a98"},"vehicle_type_id":"4","last_reported":1746918528,"current_range_meters":12800,"station_id":"ce4bhah2rcd13ifvqei0","pricing_plan_id":"cebpf4jnsgd1na2vs0mg"},{"bike_id":"cadf1b0e-7d8c-469c-b2bc-31da514714f9","system_id":"levelo_inurba_marseille","lat":43.27997,"lon":5.41665,"is_reserved":false,"is_disabled":false,"rental_uris":{"android":"levelo://app?vid=cadf1b0e-7d8c-469c-b2bc-31da514714f9","ios":"levelo://app?vid=cadf1b0e-7d8c-469c-b2bc-31da514714f9"},"vehicle_type_id":"4","last_reported":1746918528,"current_range_meters":13600,"station_id":"ce4bho12rcd13ifvqh1g","pricing_plan_id":"cebpf4jnsgd1na2vs0mg"},{"bike_id":"03701897-d407-4965-ba8f-acfc460959f5","system_id":"levelo_inurba_marseille","lat":43.2926,"lon":5.40904,"is_reserved":false,"is_disabled":false,"rental_uris":{"android":"levelo://app?vid=03701897-d407-4965-ba8f-acfc460959f5","ios":"levelo://app?vid=03701897-d407-4965-ba8f-acfc460959f5"},"vehicle_type_id":"4","last_reported":1746918528,"current_range_meters":14000,"station_id":"ce4bh192rcd13ifvqdc0","pricing_plan_id":"cebpf4jnsgd1na2vs0mg"},{"bike_id":"6d705489-d3d5-4e12-a28e-5d7bb8b109f3","system_id":"levelo_inurba_marseille","lat":43.26847,"lon":5.42756,"is_reserved":false,"is_disabled":false,"rental_uris":{"android":"levelo://app?vid=6d705489-d3d5-4e12-a28e-5d7bb8b109f3","ios":"levelo://app?vid=6d705489-d3d5-4e12-a28e-5d7bb8b109f3"},"vehicle_type_id":"4","last_reported":1746918528,"current_range_meters":14400,"station_id":"","pricing_plan_id":"cebpf4jnsgd1na2vs0mg"},{"bike_id":"50a5f453-7480-4c0c-a853-520dbe4eaaaf","system_id":"levelo_inurba_marseille","lat":43.303332,"lon":5.404367,"is_reserved":false,"is_disabled":false,"rental_uris":{"android":"levelo://app?vid=50a5f453-7480-4c0c-a853-520dbe4eaaaf","ios":"levelo://app?vid=50a5f453-7480-4c0c-a853-520dbe4eaaaf"},"vehicle_type_id":"4","last_reported":1746918528,"current_range_meters":14400,"station_id":"ce4bh012rcd13ifvqd10","pricing_plan_id":"cebpf4jnsgd1na2vs0mg"},{"bike_id":"a1121b36-b5cd-4dda-96ef-13a3dfaa55e1","system_id":"levelo_inurba_marseille","lat":43.301401,"lon":5.387791,"is_reserved":false,"is_disabled":false,"rental_uris":{"android":"levelo://app?vid=a1121b36-b5cd-4dda-96ef-13a3dfaa55e1","ios":"levelo://app?vid=a1121b36-b5cd-4dda-96ef-13a3dfaa55e1"},"vehicle_type_id":"4","last_reported":1746918528,"current_range_meters":14400,"station_id":"","pricing_plan_id":"cebpf4jnsgd1na2vs0mg"},{"bike_id":"d8144fad-7369-46c8-a557-5552579bc346","system_id":"levelo_inurba_marseille","lat":43.31271,"lon":5.40169,"is_reserved":false,"is_disabled":false,"rental_uris":{"android":"levelo://app?vid=d8144fad-7369-46c8-a557-5552579bc346","ios":"levelo://app?vid=d8144fad-7369-46c8-a557-5552579bc346"},"vehicle_type_id":"4","last_reported":1746918528,"current_range_meters":14400,"station_id":"ce4bh092rcd13ifvqd30","pricing_plan_id":"cebpf4jnsgd1na2vs0mg"},{"bike_id":"f5754198-774f-4b3b-aa3d-9a15da962701","system_id":"levelo_inurba_marseille","lat":43.31704,"lon":5.43718,"is_reserved":false,"is_disabled":false,"rental_uris":{"android":"levelo://app?vid=f5754198-774f-4b3b-aa3d-9a15da962701","ios":"levelo://app?vid=f5754198-774f-4b3b-aa3d-9a15da962701"},"vehicle_type_id":"4","last_reported":1746918528,"current_range_meters":14400,"station_id":"ce4bhp92rcd13ifvqhcg","pricing_plan_id":"cebpf4jnsgd1na2vs0mg"},{"bike_id":"89bcfb4f-069b-4772-88c9-127b3c9590f7","system_id":"levelo_inurba_marseille","lat":43.30305,"lon":5.36855,"is_reserved":false,"is_disabled":false,"rental_uris":{"android":"levelo://app?vid=89bcfb4f-069b-4772-88c9-127b3c9590f7","ios":"levelo://app?vid=89bcfb4f-069b-4772-88c9-127b3c9590f7"},"vehicle_type_id":"4","last_reported":1746918528,"current_range_meters":14400,"station_id":"ce4bgqh2rcd13ifvqc5g","pricing_plan_id":"cebpf4jnsgd1na2vs0mg"},{"bike_id":"5cc02ca3-c2ee-4d34-98da-835d09bcf67a","system_id":"levelo_inurba_marseille","lat":43.26057,"lon":5.394,"is_reserved":false,"is_disabled":false,"rental_uris":{"android":"levelo://app?vid=5cc02ca3-c2ee-4d34-98da-835d09bcf67a","ios":"levelo://app?vid=5cc02ca3-c2ee-4d34-98da-835d09bcf67a"},"vehicle_type_id":"4","last_reported":1746918528,"current_range_meters":14400,"station_id":"ce4bhh92rcd13ifvqfj0","pricing_plan_id":"cebpf4jnsgd1na2vs0mg"},{"bike_id":"21dec20f-b12c-44c9-a877-72848dc3842d","system_id":"levelo_inurba_marseille","lat":43.29647,"lon":5.40648,"is_reserved":false,"is_disabled":false,"rental_uris":{"android":"levelo://app?vid=21dec20f-b12c-44c9-a877-72848dc3842d","ios":"levelo://app?vid=21dec20f-b12c-44c9-a877-72848dc3842d"},"vehicle_type_id":"4","last_reported":1746918528,"current_range_meters":14000,"station_id":"ce4bh0h2rcd13ifvqd60","pricing_plan_id":"cebpf4jnsgd1na2vs0mg"},{"bike_id":"0ec459f2-35e2-423a-85d1-fdadc8bc5b37","system_id":"levelo_inurba_marseille","lat":43.31269,"lon":5.40171,"is_reserved":false,"is_disabled":false,"rental_uris":{"android":"levelo://app?vid=0ec459f2-35e2-423a-85d1-fdadc8bc5b37","ios":"levelo://app?vid=0ec459f2-35e2-423a-85d1-fdadc8bc5b37"},"vehicle_type_id":"4","last_reported":1746918528,"current_range_meters":14400,"station_id":"ce4bh092rcd13ifvqd30","pricing_plan_id":"cebpf4jnsgd1na2vs0mg"},{"bike_id":"38c1612a-33c2-4b34-80bc-f2b7ddcf154e","system_id":"levelo_inurba_marseille","lat":43.30534,"lon":5.38424,"is_reserved":false,"is_disabled":false,"rental_uris":{"android":"levelo://app?vid=38c1612a-33c2-4b34-80bc-f2b7ddcf154e","ios":"levelo://app?vid=38c1612a-33c2-4b34-80bc-f2b7ddcf154e"},"vehicle_type_id":"4","last_reported":1746918528,"current_range_meters":14400,"station_id":"ce4bgg92rcd13ifvqb30","pricing_plan_id":"cebpf4jnsgd1na2vs0mg"},{"bike_id":"6663a384-abed-48bd-861f-d563c5fcecd4","system_id":"levelo_inurba_marseille","lat":43.28421,"lon":5.34979,"is_reserved":false,"is_disabled":true,"rental_uris":{"android":"levelo://app?vid=6663a384-abed-48bd-861f-d563c5fcecd4","ios":"levelo://app?vid=6663a384-abed-48bd-861f-d563c5fcecd4"},"vehicle_type_id":"4","last_reported":1746918528,"current_range_meters":14800,"station_id":"ce4bhbh2rcd13ifvqepg","pricing_plan_id":"cebpf4jnsgd1na2vs0mg"},{"bike_id":"9717a2a0-7656-4db2-b44a-65fc1b9a4abe","system_id":"levelo_inurba_marseille","lat":43.283621,"lon":5.381038,"is_reserved":false,"is_disabled":false,"rental_uris":{"android":"levelo://app?vid=9717a2a0-7656-4db2-b44a-65fc1b9a4abe","ios":"levelo://app?vid=9717a2a0-7656-4db2-b44a-65fc1b9a4abe"},"vehicle_type_id":"4","last_reported":1746918528,"current_range_meters":14800,"station_id":"ce4bh412rcd13ifvqdr0","pricing_plan_id":"cebpf4jnsgd1na2vs0mg"},{"bike_id":"414912d1-c40b-4b57-8860-d1b418c7cd47","system_id":"levelo_inurba_marseille","lat":43.28927,"lon":5.38385,"is_reserved":false,"is_disabled":false,"rental_uris":{"android":"levelo://app?vid=414912d1-c40b-4b57-8860-d1b418c7cd47","ios":"levelo://app?vid=414912d1-c40b-4b57-8860-d1b418c7cd47"},"vehicle_type_id":"4","last_reported":1746918528,"current_range_meters":14800,"station_id":"ce4bh612rcd13ifvqe6g","pricing_plan_id":"cebpf4jnsgd1na2vs0mg"},{"bike_id":"d83b7170-8eed-47c1-b0ec-1140d3a45dea","system_id":"levelo_inurba_marseille","lat":43.307954,"lon":5.435234,"is_reserved":false,"is_disabled":false,"rental_uris":{"android":"levelo://app?vid=d83b7170-8eed-47c1-b0ec-1140d3a45dea","ios":"levelo://app?vid=d83b7170-8eed-47c1-b0ec-1140d3a45dea"},"vehicle_type_id":"4","last_reported":1746918528,"current_range_meters":14800,"station_id":"ce4bhph2rcd13ifvqheg","pricing_plan_id":"cebpf4jnsgd1na2vs0mg"},{"bike_id":"e2434f42-8ebb-4eed-a218-d21bf35b3735","system_id":"levelo_inurba_marseille","lat":43.29772,"lon":5.38105,"is_reserved":false,"is_disabled":true,"rental_uris":{"android":"levelo://app?vid=e2434f42-8ebb-4eed-a218-d21bf35b3735","ios":"levelo://app?vid=e2434f42-8ebb-4eed-a218-d21bf35b3735"},"vehicle_type_id":"4","last_reported":1746918528,"current_range_meters":15200,"station_id":"ce4bgip2rcd13ifvqbb0","pricing_plan_id":"cebpf4jnsgd1na2vs0mg"},{"bike_id":"970bc10a-f261-4f80-97b1-a399d2624e56","system_id":"levelo_inurba_marseille","lat":43.30322,"lon":5.40435,"is_reserved":false,"is_disabled":false,"rental_uris":{"android":"levelo://app?vid=970bc10a-f261-4f80-97b1-a399d2624e56","ios":"levelo://app?vid=970bc10a-f261-4f80-97b1-a399d2624e56"},"vehicle_type_id":"4","last_reported":1746918528,"current_range_meters":15200,"station_id":"ce4bh012rcd13ifvqd10","pricing_plan_id":"cebpf4jnsgd1na2vs0mg"},{"bike_id":"cc37f216-4d31-46db-a513-e343542e5619","system_id":"levelo_inurba_marseille","lat":43.28406,"lon":5.37519,"is_reserved":false,"is_disabled":false,"rental_uris":{"android":"levelo://app?vid=cc37f216-4d31-46db-a513-e343542e5619","ios":"levelo://app?vid=cc37f216-4d31-46db-a513-e343542e5619"},"vehicle_type_id":"4","last_reported":1746918528,"current_range_meters":15200,"station_id":"ce4bh412rcd13ifvqds0","pricing_plan_id":"cebpf4jnsgd1na2vs0mg"},{"bike_id":"2dbdf915-d2fb-4c36-8994-b53e3db07015","system_id":"levelo_inurba_marseille","lat":43.217545,"lon":5.345965,"is_reserved":false,"is_disabled":true,"rental_uris":{"android":"levelo://app?vid=2dbdf915-d2fb-4c36-8994-b53e3db07015","ios":"levelo://app?vid=2dbdf915-d2fb-4c36-8994-b53e3db07015"},"vehicle_type_id":"4","last_reported":1746918528,"current_range_meters":15200,"station_id":"st_cvj6r9ubvosntc0bgbag","pricing_plan_id":"cebpf4jnsgd1na2vs0mg"},{"bike_id":"78bdd65d-acd5-4212-b9ce-1f713fbfe66f","system_id":"levelo_inurba_marseille","lat":43.21202,"lon":5.35074,"is_reserved":false,"is_disabled":true,"rental_uris":{"android":"levelo://app?vid=78bdd65d-acd5-4212-b9ce-1f713fbfe66f","ios":"levelo://app?vid=78bdd65d-acd5-4212-b9ce-1f713fbfe66f"},"vehicle_type_id":"4","last_reported":1746918528,"current_range_meters":15200,"station_id":"st_cvj6sg6p6f1abm77japg","pricing_plan_id":"cebpf4jnsgd1na2vs0mg"},{"bike_id":"f2fd71f1-8d0f-441a-9f1b-9fc9c34f54cc","system_id":"levelo_inurba_marseille","lat":43.32337,"lon":5.40622,"is_reserved":false,"is_disabled":false,"rental_uris":{"android":"levelo://app?vid=f2fd71f1-8d0f-441a-9f1b-9fc9c34f54cc","ios":"levelo://app?vid=f2fd71f1-8d0f-441a-9f1b-9fc9c34f54cc"},"vehicle_type_id":"4","last_reported":1746918528,"current_range_meters":16000,"station_id":"ce4bhq92rcd13ifvqhjg","pricing_plan_id":"cebpf4jnsgd1na2vs0mg"},{"bike_id":"079fcbc3-300a-4786-bf09-eec4846b25ae","system_id":"levelo_inurba_marseille","lat":43.31328,"lon":5.39688,"is_reserved":false,"is_disabled":false,"rental_uris":{"android":"levelo://app?vid=079fcbc3-300a-4786-bf09-eec4846b25ae","ios":"levelo://app?vid=079fcbc3-300a-4786-bf09-eec4846b25ae"},"vehicle_type_id":"4","last_reported":1746918528,"current_range_meters":16000,"station_id":"ce4bgvp2rcd13ifvqcu0","pricing_plan_id":"cebpf4jnsgd1na2vs0mg"},{"bike_id":"13b0ccc3-423d-43b4-87ae-0d6ebc4ae8a4","system_id":"levelo_inurba_marseille","lat":43.28911,"lon":5.38396,"is_reserved":false,"is_disabled":false,"rental_uris":{"android":"levelo://app?vid=13b0ccc3-423d-43b4-87ae-0d6ebc4ae8a4","ios":"levelo://app?vid=13b0ccc3-423d-43b4-87ae-0d6ebc4ae8a4"},"vehicle_type_id":"4","last_reported":1746918528,"current_range_meters":16000,"station_id":"ce4bh612rcd13ifvqe6g","pricing_plan_id":"cebpf4jnsgd1na2vs0mg"},{"bike_id":"c33c979d-9903-40dc-a17f-25ccdad88704","system_id":"levelo_inurba_marseille","lat":43.29515,"lon":5.39384,"is_reserved":false,"is_disabled":true,"rental_uris":{"android":"levelo://app?vid=c33c979d-9903-40dc-a17f-25ccdad88704","ios":"levelo://app?vid=c33c979d-9903-40dc-a17f-25ccdad88704"},"vehicle_type_id":"4","last_reported":1746918528,"current_range_meters":16000,"station_id":"ce4bh292rcd13ifvqdf0","pricing_plan_id":"cebpf4jnsgd1na2vs0mg"},{"bike_id":"13fa2dba-5a58-4588-b4a1-7956487d21f6","system_id":"levelo_inurba_marseille","lat":43.322537,"lon":5.36761,"is_reserved":false,"is_disabled":false,"rental_uris":{"android":"levelo://app?vid=13fa2dba-5a58-4588-b4a1-7956487d21f6","ios":"levelo://app?vid=13fa2dba-5a58-4588-b4a1-7956487d21f6"},"vehicle_type_id":"4","last_reported":1746918528,"current_range_meters":16000,"station_id":"","pricing_plan_id":"cebpf4jnsgd1na2vs0mg"},{"bike_id":"b782172c-d8d1-4a9c-bc65-cdfa53888b07","system_id":"levelo_inurba_marseille","lat":43.30427,"lon":5.3889,"is_reserved":false,"is_disabled":false,"rental_uris":{"android":"levelo://app?vid=b782172c-d8d1-4a9c-bc65-cdfa53888b07","ios":"levelo://app?vid=b782172c-d8d1-4a9c-bc65-cdfa53888b07"},"vehicle_type_id":"4","last_reported":1746918528,"current_range_meters":15200,"station_id":"ce4bgk12rcd13ifvqbi0","pricing_plan_id":"cebpf4jnsgd1na2vs0mg"},{"bike_id":"8916c462-ddfa-49f1-b55b-21b7a3da473f","system_id":"levelo_inurba_marseille","lat":43.29274,"lon":5.40117,"is_reserved":false,"is_disabled":false,"rental_uris":{"android":"levelo://app?vid=8916c462-ddfa-49f1-b55b-21b7a3da473f","ios":"levelo://app?vid=8916c462-ddfa-49f1-b55b-21b7a3da473f"},"vehicle_type_id":"4","last_reported":1746918528,"current_range_meters":16000,"station_id":"ce4bh312rcd13ifvqdk0","pricing_plan_id":"cebpf4jnsgd1na2vs0mg"},{"bike_id":"932646df-16eb-43fc-a8e9-4eaa42bf3acd","system_id":"levelo_inurba_marseille","lat":43.2979,"lon":5.39328,"is_reserved":false,"is_disabled":false,"rental_uris":{"android":"levelo://app?vid=932646df-16eb-43fc-a8e9-4eaa42bf3acd","ios":"levelo://app?vid=932646df-16eb-43fc-a8e9-4eaa42bf3acd"},"vehicle_type_id":"4","last_reported":1746918528,"current_range_meters":16000,"station_id":"chh1huq6cuj3fo74tm60","pricing_plan_id":"cebpf4jnsgd1na2vs0mg"},{"bike_id":"a300d4f4-08ef-4779-9448-fb93b7bf2faa","system_id":"levelo_inurba_marseille","lat":43.29276,"lon":5.36849,"is_reserved":false,"is_disabled":false,"rental_uris":{"android":"levelo://app?vid=a300d4f4-08ef-4779-9448-fb93b7bf2faa","ios":"levelo://app?vid=a300d4f4-08ef-4779-9448-fb93b7bf2faa"},"vehicle_type_id":"4","last_reported":1746918528,"current_range_meters":16400,"station_id":"ce4bhbp2rcd13ifvqesg","pricing_plan_id":"cebpf4jnsgd1na2vs0mg"},{"bike_id":"b75b4679-8d68-4b3e-84de-81540b685903","system_id":"levelo_inurba_marseille","lat":43.28699,"lon":5.37376,"is_reserved":false,"is_disabled":false,"rental_uris":{"android":"levelo://app?vid=b75b4679-8d68-4b3e-84de-81540b685903","ios":"levelo://app?vid=b75b4679-8d68-4b3e-84de-81540b685903"},"vehicle_type_id":"4","last_reported":1746918528,"current_range_meters":16000,"station_id":"ce4bh3p2rcd13ifvqdq0","pricing_plan_id":"cebpf4jnsgd1na2vs0mg"},{"bike_id":"414ad671-a8a1-4d3b-9048-27398cfe4f06","system_id":"levelo_inurba_marseille","lat":43.2841,"lon":5.37517,"is_reserved":false,"is_disabled":false,"rental_uris":{"android":"levelo://app?vid=414ad671-a8a1-4d3b-9048-27398cfe4f06","ios":"levelo://app?vid=414ad671-a8a1-4d3b-9048-27398cfe4f06"},"vehicle_type_id":"4","last_reported":1746918528,"current_range_meters":16400,"station_id":"ce4bh412rcd13ifvqds0","pricing_plan_id":"cebpf4jnsgd1na2vs0mg"},{"bike_id":"fe02c690-cfe5-4e48-8edf-d77d3a6ed82c","system_id":"levelo_inurba_marseille","lat":43.25078,"lon":5.39495,"is_reserved":false,"is_disabled":false,"rental_uris":{"android":"levelo://app?vid=fe02c690-cfe5-4e48-8edf-d77d3a6ed82c","ios":"levelo://app?vid=fe02c690-cfe5-4e48-8edf-d77d3a6ed82c"},"vehicle_type_id":"4","last_reported":1746918528,"current_range_meters":16400,"station_id":"ce4bhm12rcd13ifvqgkg","pricing_plan_id":"cebpf4jnsgd1na2vs0mg"},{"bike_id":"cbe5e661-c3e6-4a61-bcb7-bf5eab36baff","system_id":"levelo_inurba_marseille","lat":43.30322,"lon":5.40435,"is_reserved":false,"is_disabled":false,"rental_uris":{"android":"levelo://app?vid=cbe5e661-c3e6-4a61-bcb7-bf5eab36baff","ios":"levelo://app?vid=cbe5e661-c3e6-4a61-bcb7-bf5eab36baff"},"vehicle_type_id":"4","last_reported":1746918528,"current_range_meters":16400,"station_id":"ce4bh012rcd13ifvqd10","pricing_plan_id":"cebpf4jnsgd1na2vs0mg"},{"bike_id":"9ca5a64c-7fe5-4800-b304-f0a90074b325","system_id":"levelo_inurba_marseille","lat":43.31235,"lon":5.40661,"is_reserved":false,"is_disabled":false,"rental_uris":{"android":"levelo://app?vid=9ca5a64c-7fe5-4800-b304-f0a90074b325","ios":"levelo://app?vid=9ca5a64c-7fe5-4800-b304-f0a90074b325"},"vehicle_type_id":"4","last_reported":1746918528,"current_range_meters":16400,"station_id":"","pricing_plan_id":"cebpf4jnsgd1na2vs0mg"},{"bike_id":"7b862a3e-82bd-4770-bc9b-310b977245a0","system_id":"levelo_inurba_marseille","lat":43.28715,"lon":5.37943,"is_reserved":false,"is_disabled":false,"rental_uris":{"android":"levelo://app?vid=7b862a3e-82bd-4770-bc9b-310b977245a0","ios":"levelo://app?vid=7b862a3e-82bd-4770-bc9b-310b977245a0"},"vehicle_type_id":"4","last_reported":1746918528,"current_range_meters":16400,"station_id":"ce4bh9p2rcd13ifvqec0","pricing_plan_id":"cebpf4jnsgd1na2vs0mg"},{"bike_id":"eabf14a0-7bd3-4e89-8bac-05906d0f4b2c","system_id":"levelo_inurba_marseille","lat":43.27957,"lon":5.38735,"is_reserved":false,"is_disabled":true,"rental_uris":{"android":"levelo://app?vid=eabf14a0-7bd3-4e89-8bac-05906d0f4b2c","ios":"levelo://app?vid=eabf14a0-7bd3-4e89-8bac-05906d0f4b2c"},"vehicle_type_id":"4","last_reported":1746918528,"current_range_meters":16400,"station_id":"ce4bhg12rcd13ifvqf80","pricing_plan_id":"cebpf4jnsgd1na2vs0mg"},{"bike_id":"d18d4370-2bd6-49a0-b879-64148b9a89fb","system_id":"levelo_inurba_marseille","lat":43.28926,"lon":5.38393,"is_reserved":false,"is_disabled":false,"rental_uris":{"android":"levelo://app?vid=d18d4370-2bd6-49a0-b879-64148b9a89fb","ios":"levelo://app?vid=d18d4370-2bd6-49a0-b879-64148b9a89fb"},"vehicle_type_id":"4","last_reported":1746918528,"current_range_meters":16800,"station_id":"ce4bh612rcd13ifvqe6g","pricing_plan_id":"cebpf4jnsgd1na2vs0mg"},{"bike_id":"14d693c5-ecb3-4074-a67c-588bec49507c","system_id":"levelo_inurba_marseille","lat":43.290981,"lon":5.38141,"is_reserved":false,"is_disabled":false,"rental_uris":{"android":"levelo://app?vid=14d693c5-ecb3-4074-a67c-588bec49507c","ios":"levelo://app?vid=14d693c5-ecb3-4074-a67c-588bec49507c"},"vehicle_type_id":"4","last_reported":1746918528,"current_range_meters":16800,"station_id":"ce4bh512rcd13ifvqe2g","pricing_plan_id":"cebpf4jnsgd1na2vs0mg"},{"bike_id":"a7abf39e-85d5-4e55-846a-700a0054657e","system_id":"levelo_inurba_marseille","lat":43.24811,"lon":5.37451,"is_reserved":false,"is_disabled":true,"rental_uris":{"android":"levelo://app?vid=a7abf39e-85d5-4e55-846a-700a0054657e","ios":"levelo://app?vid=a7abf39e-85d5-4e55-846a-700a0054657e"},"vehicle_type_id":"4","last_reported":1746918528,"current_range_meters":16800,"station_id":"ce4bhgh2rcd13ifvqfb0","pricing_plan_id":"cebpf4jnsgd1na2vs0mg"},{"bike_id":"d769f653-2284-4ccd-8df9-03b5aebbcb34","system_id":"levelo_inurba_marseille","lat":43.26988,"lon":5.43151,"is_reserved":false,"is_disabled":false,"rental_uris":{"android":"levelo://app?vid=d769f653-2284-4ccd-8df9-03b5aebbcb34","ios":"levelo://app?vid=d769f653-2284-4ccd-8df9-03b5aebbcb34"},"vehicle_type_id":"4","last_reported":1746918528,"current_range_meters":16800,"station_id":"","pricing_plan_id":"cebpf4jnsgd1na2vs0mg"},{"bike_id":"cc62d2da-5a20-4806-9c3f-389790a326f5","system_id":"levelo_inurba_marseille","lat":43.243982,"lon":5.370557,"is_reserved":false,"is_disabled":true,"rental_uris":{"android":"levelo://app?vid=cc62d2da-5a20-4806-9c3f-389790a326f5","ios":"levelo://app?vid=cc62d2da-5a20-4806-9c3f-389790a326f5"},"vehicle_type_id":"4","last_reported":1746918528,"current_range_meters":16800,"station_id":"ce4bhhh2rcd13ifvqfk0","pricing_plan_id":"cebpf4jnsgd1na2vs0mg"},{"bike_id":"0e5586fb-cddb-49b5-8352-7834ee80358f","system_id":"levelo_inurba_marseille","lat":43.3093,"lon":5.40143,"is_reserved":false,"is_disabled":false,"rental_uris":{"android":"levelo://app?vid=0e5586fb-cddb-49b5-8352-7834ee80358f","ios":"levelo://app?vid=0e5586fb-cddb-49b5-8352-7834ee80358f"},"vehicle_type_id":"4","last_reported":1746918528,"current_range_meters":16800,"station_id":"ce4bgvp2rcd13ifvqct0","pricing_plan_id":"cebpf4jnsgd1na2vs0mg"},{"bike_id":"7af234a1-5f62-47e8-968a-5e0f75ad2dcb","system_id":"levelo_inurba_marseille","lat":43.24071,"lon":5.37764,"is_reserved":false,"is_disabled":false,"rental_uris":{"android":"levelo://app?vid=7af234a1-5f62-47e8-968a-5e0f75ad2dcb","ios":"levelo://app?vid=7af234a1-5f62-47e8-968a-5e0f75ad2dcb"},"vehicle_type_id":"4","last_reported":1746918528,"current_range_meters":16800,"station_id":"ce4bhnp2rcd13ifvqgvg","pricing_plan_id":"cebpf4jnsgd1na2vs0mg"},{"bike_id":"e1b2c710-e66c-478a-8582-5a8ce788ad40","system_id":"levelo_inurba_marseille","lat":43.299828,"lon":5.371751,"is_reserved":false,"is_disabled":false,"rental_uris":{"android":"levelo://app?vid=e1b2c710-e66c-478a-8582-5a8ce788ad40","ios":"levelo://app?vid=e1b2c710-e66c-478a-8582-5a8ce788ad40"},"vehicle_type_id":"4","last_reported":1746918528,"current_range_meters":17200,"station_id":"","pricing_plan_id":"cebpf4jnsgd1na2vs0mg"},{"bike_id":"7cbc17b7-5e15-4774-8f61-2cf6e6839ec1","system_id":"levelo_inurba_marseille","lat":43.295365,"lon":5.3867,"is_reserved":false,"is_disabled":false,"rental_uris":{"android":"levelo://app?vid=7cbc17b7-5e15-4774-8f61-2cf6e6839ec1","ios":"levelo://app?vid=7cbc17b7-5e15-4774-8f61-2cf6e6839ec1"},"vehicle_type_id":"4","last_reported":1746918528,"current_range_meters":17200,"station_id":"","pricing_plan_id":"cebpf4jnsgd1na2vs0mg"},{"bike_id":"29bcc0a3-f441-4905-b817-702918cd7f8e","system_id":"levelo_inurba_marseille","lat":43.28268,"lon":5.36159,"is_reserved":false,"is_disabled":false,"rental_uris":{"android":"levelo://app?vid=29bcc0a3-f441-4905-b817-702918cd7f8e","ios":"levelo://app?vid=29bcc0a3-f441-4905-b817-702918cd7f8e"},"vehicle_type_id":"4","last_reported":1746918528,"current_range_meters":17200,"station_id":"","pricing_plan_id":"cebpf4jnsgd1na2vs0mg"},{"bike_id":"fa19c0b9-0ae3-4cb3-8f96-32b3e8e4fc8c","system_id":"levelo_inurba_marseille","lat":43.31483,"lon":5.37307,"is_reserved":false,"is_disabled":false,"rental_uris":{"android":"levelo://app?vid=fa19c0b9-0ae3-4cb3-8f96-32b3e8e4fc8c","ios":"levelo://app?vid=fa19c0b9-0ae3-4cb3-8f96-32b3e8e4fc8c"},"vehicle_type_id":"4","last_reported":1746918528,"current_range_meters":17200,"station_id":"ce4bgt12rcd13ifvqcd0","pricing_plan_id":"cebpf4jnsgd1na2vs0mg"},{"bike_id":"f52c819d-ca4b-4640-b458-b877db1bf990","system_id":"levelo_inurba_marseille","lat":43.2986,"lon":5.40996,"is_reserved":false,"is_disabled":false,"rental_uris":{"android":"levelo://app?vid=f52c819d-ca4b-4640-b458-b877db1bf990","ios":"levelo://app?vid=f52c819d-ca4b-4640-b458-b877db1bf990"},"vehicle_type_id":"4","last_reported":1746918528,"current_range_meters":17600,"station_id":"","pricing_plan_id":"cebpf4jnsgd1na2vs0mg"},{"bike_id":"c297d717-738d-401f-a61f-eb5983471425","system_id":"levelo_inurba_marseille","lat":43.29258,"lon":5.40897,"is_reserved":false,"is_disabled":false,"rental_uris":{"android":"levelo://app?vid=c297d717-738d-401f-a61f-eb5983471425","ios":"levelo://app?vid=c297d717-738d-401f-a61f-eb5983471425"},"vehicle_type_id":"4","last_reported":1746918528,"current_range_meters":17600,"station_id":"ce4bh192rcd13ifvqdc0","pricing_plan_id":"cebpf4jnsgd1na2vs0mg"},{"bike_id":"7cc2f029-d4b0-4ec8-ac68-9008ff398834","system_id":"levelo_inurba_marseille","lat":43.2835,"lon":5.38096,"is_reserved":false,"is_disabled":false,"rental_uris":{"android":"levelo://app?vid=7cc2f029-d4b0-4ec8-ac68-9008ff398834","ios":"levelo://app?vid=7cc2f029-d4b0-4ec8-ac68-9008ff398834"},"vehicle_type_id":"4","last_reported":1746918528,"current_range_meters":17600,"station_id":"ce4bh412rcd13ifvqdr0","pricing_plan_id":"cebpf4jnsgd1na2vs0mg"},{"bike_id":"068c4f3c-74d1-43ca-9ed0-890e51e4c47b","system_id":"levelo_inurba_marseille","lat":43.28448,"lon":5.39205,"is_reserved":false,"is_disabled":false,"rental_uris":{"android":"levelo://app?vid=068c4f3c-74d1-43ca-9ed0-890e51e4c47b","ios":"levelo://app?vid=068c4f3c-74d1-43ca-9ed0-890e51e4c47b"},"vehicle_type_id":"4","last_reported":1746918528,"current_range_meters":17600,"station_id":"ce4bhoh2rcd13ifvqh5g","pricing_plan_id":"cebpf4jnsgd1na2vs0mg"},{"bike_id":"8c685edd-fb6a-4e9c-be61-f816bb12845b","system_id":"levelo_inurba_marseille","lat":43.31118,"lon":5.37771,"is_reserved":false,"is_disabled":false,"rental_uris":{"android":"levelo://app?vid=8c685edd-fb6a-4e9c-be61-f816bb12845b","ios":"levelo://app?vid=8c685edd-fb6a-4e9c-be61-f816bb12845b"},"vehicle_type_id":"4","last_reported":1746918528,"current_range_meters":17600,"station_id":"ce4bgt92rcd13ifvqcg0","pricing_plan_id":"cebpf4jnsgd1na2vs0mg"},{"bike_id":"9b2f7d8a-4869-4006-a9df-d9c81ac2f2d8","system_id":"levelo_inurba_marseille","lat":43.28702,"lon":5.40016,"is_reserved":false,"is_disabled":false,"rental_uris":{"android":"levelo://app?vid=9b2f7d8a-4869-4006-a9df-d9c81ac2f2d8","ios":"levelo://app?vid=9b2f7d8a-4869-4006-a9df-d9c81ac2f2d8"},"vehicle_type_id":"4","last_reported":1746918528,"current_range_meters":17600,"station_id":"ce4bho92rcd13ifvqh3g","pricing_plan_id":"cebpf4jnsgd1na2vs0mg"},{"bike_id":"fda9cf1b-43ed-4e6a-8d0a-1ac0b850ffd7","system_id":"levelo_inurba_marseille","lat":43.24177,"lon":5.39734,"is_reserved":false,"is_disabled":false,"rental_uris":{"android":"levelo://app?vid=fda9cf1b-43ed-4e6a-8d0a-1ac0b850ffd7","ios":"levelo://app?vid=fda9cf1b-43ed-4e6a-8d0a-1ac0b850ffd7"},"vehicle_type_id":"4","last_reported":1746918528,"current_range_meters":17600,"station_id":"ce4bhn12rcd13ifvqgpg","pricing_plan_id":"cebpf4jnsgd1na2vs0mg"},{"bike_id":"eea2c32a-fa80-40a4-ae2c-18d1ca8ee305","system_id":"levelo_inurba_marseille","lat":43.310708,"lon":5.383552,"is_reserved":false,"is_disabled":false,"rental_uris":{"android":"levelo://app?vid=eea2c32a-fa80-40a4-ae2c-18d1ca8ee305","ios":"levelo://app?vid=eea2c32a-fa80-40a4-ae2c-18d1ca8ee305"},"vehicle_type_id":"4","last_reported":1746918528,"current_range_meters":17600,"station_id":"ce4bgv92rcd13ifvqcr0","pricing_plan_id":"cebpf4jnsgd1na2vs0mg"},{"bike_id":"b3ca21aa-7b26-4bad-b6cd-0f5679f1ac2e","system_id":"levelo_inurba_marseille","lat":43.27901,"lon":5.38012,"is_reserved":false,"is_disabled":false,"rental_uris":{"android":"levelo://app?vid=b3ca21aa-7b26-4bad-b6cd-0f5679f1ac2e","ios":"levelo://app?vid=b3ca21aa-7b26-4bad-b6cd-0f5679f1ac2e"},"vehicle_type_id":"4","last_reported":1746918528,"current_range_meters":17600,"station_id":"ce4bhf92rcd13ifvqf50","pricing_plan_id":"cebpf4jnsgd1na2vs0mg"},{"bike_id":"52736094-3941-425f-b915-d6bb150d0d07","system_id":"levelo_inurba_marseille","lat":43.30216,"lon":5.39489,"is_reserved":false,"is_disabled":false,"rental_uris":{"android":"levelo://app?vid=52736094-3941-425f-b915-d6bb150d0d07","ios":"levelo://app?vid=52736094-3941-425f-b915-d6bb150d0d07"},"vehicle_type_id":"4","last_reported":1746918528,"current_range_meters":17600,"station_id":"ce4bh0p2rcd13ifvqd70","pricing_plan_id":"cebpf4jnsgd1na2vs0mg"},{"bike_id":"50193ae5-4456-41cd-8bcb-dec6cf61b153","system_id":"levelo_inurba_marseille","lat":43.27486,"lon":5.42458,"is_reserved":false,"is_disabled":false,"rental_uris":{"android":"levelo://app?vid=50193ae5-4456-41cd-8bcb-dec6cf61b153","ios":"levelo://app?vid=50193ae5-4456-41cd-8bcb-dec6cf61b153"},"vehicle_type_id":"4","last_reported":1746918528,"current_range_meters":18000,"station_id":"ce4bhn92rcd13ifvqgrg","pricing_plan_id":"cebpf4jnsgd1na2vs0mg"},{"bike_id":"79053622-c692-4e0e-96cc-3db36c18bebe","system_id":"levelo_inurba_marseille","lat":43.30204,"lon":5.39452,"is_reserved":false,"is_disabled":false,"rental_uris":{"android":"levelo://app?vid=79053622-c692-4e0e-96cc-3db36c18bebe","ios":"levelo://app?vid=79053622-c692-4e0e-96cc-3db36c18bebe"},"vehicle_type_id":"4","last_reported":1746918528,"current_range_meters":18000,"station_id":"ce4bh0p2rcd13ifvqd70","pricing_plan_id":"cebpf4jnsgd1na2vs0mg"},{"bike_id":"900ea268-0578-4e3f-962a-f13d5c269c59","system_id":"levelo_inurba_marseille","lat":43.23149,"lon":5.43722,"is_reserved":false,"is_disabled":false,"rental_uris":{"android":"levelo://app?vid=900ea268-0578-4e3f-962a-f13d5c269c59","ios":"levelo://app?vid=900ea268-0578-4e3f-962a-f13d5c269c59"},"vehicle_type_id":"4","last_reported":1746918528,"current_range_meters":18000,"station_id":"ce4bhmp2rcd13ifvqgog","pricing_plan_id":"cebpf4jnsgd1na2vs0mg"},{"bike_id":"c37ca2b1-69dc-46e9-94be-7c01aebc93d5","system_id":"levelo_inurba_marseille","lat":43.303107,"lon":5.368966,"is_reserved":false,"is_disabled":false,"rental_uris":{"android":"levelo://app?vid=c37ca2b1-69dc-46e9-94be-7c01aebc93d5","ios":"levelo://app?vid=c37ca2b1-69dc-46e9-94be-7c01aebc93d5"},"vehicle_type_id":"4","last_reported":1746918528,"current_range_meters":18000,"station_id":"","pricing_plan_id":"cebpf4jnsgd1na2vs0mg"},{"bike_id":"130c8bc3-cd36-4938-a42b-5409bfd27391","system_id":"levelo_inurba_marseille","lat":43.28398,"lon":5.37512,"is_reserved":false,"is_disabled":false,"rental_uris":{"android":"levelo://app?vid=130c8bc3-cd36-4938-a42b-5409bfd27391","ios":"levelo://app?vid=130c8bc3-cd36-4938-a42b-5409bfd27391"},"vehicle_type_id":"4","last_reported":1746918528,"current_range_meters":18000,"station_id":"ce4bh412rcd13ifvqds0","pricing_plan_id":"cebpf4jnsgd1na2vs0mg"},{"bike_id":"9e1bac43-4e2b-4e2e-8686-e6d76948494d","system_id":"levelo_inurba_marseille","lat":43.28359,"lon":5.38102,"is_reserved":false,"is_disabled":false,"rental_uris":{"android":"levelo://app?vid=9e1bac43-4e2b-4e2e-8686-e6d76948494d","ios":"levelo://app?vid=9e1bac43-4e2b-4e2e-8686-e6d76948494d"},"vehicle_type_id":"4","last_reported":1746918528,"current_range_meters":18000,"station_id":"ce4bh412rcd13ifvqdr0","pricing_plan_id":"cebpf4jnsgd1na2vs0mg"},{"bike_id":"e64b6efa-8ad8-4af7-8d4d-f16b57fe35e2","system_id":"levelo_inurba_marseille","lat":43.28614,"lon":5.37054,"is_reserved":false,"is_disabled":true,"rental_uris":{"android":"levelo://app?vid=e64b6efa-8ad8-4af7-8d4d-f16b57fe35e2","ios":"levelo://app?vid=e64b6efa-8ad8-4af7-8d4d-f16b57fe35e2"},"vehicle_type_id":"4","last_reported":1746918528,"current_range_meters":18000,"station_id":"ce4bht12rcd13ifvqi60","pricing_plan_id":"cebpf4jnsgd1na2vs0mg"},{"bike_id":"ac9ad60a-819a-4a59-869e-571a2df7efda","system_id":"levelo_inurba_marseille","lat":43.323387,"lon":5.4061,"is_reserved":false,"is_disabled":false,"rental_uris":{"android":"levelo://app?vid=ac9ad60a-819a-4a59-869e-571a2df7efda","ios":"levelo://app?vid=ac9ad60a-819a-4a59-869e-571a2df7efda"},"vehicle_type_id":"4","last_reported":1746918528,"current_range_meters":18000,"station_id":"ce4bhq92rcd13ifvqhjg","pricing_plan_id":"cebpf4jnsgd1na2vs0mg"},{"bike_id":"ee1769de-526a-4d73-b5be-66046d5ddd8a","system_id":"levelo_inurba_marseille","lat":43.30331,"lon":5.40435,"is_reserved":false,"is_disabled":false,"rental_uris":{"android":"levelo://app?vid=ee1769de-526a-4d73-b5be-66046d5ddd8a","ios":"levelo://app?vid=ee1769de-526a-4d73-b5be-66046d5ddd8a"},"vehicle_type_id":"4","last_reported":1746918528,"current_range_meters":18000,"station_id":"ce4bh012rcd13ifvqd10","pricing_plan_id":"cebpf4jnsgd1na2vs0mg"},{"bike_id":"c254d5dd-4f55-4111-abf7-f538f3030e92","system_id":"levelo_inurba_marseille","lat":43.29893,"lon":5.4367,"is_reserved":false,"is_disabled":false,"rental_uris":{"android":"levelo://app?vid=c254d5dd-4f55-4111-abf7-f538f3030e92","ios":"levelo://app?vid=c254d5dd-4f55-4111-abf7-f538f3030e92"},"vehicle_type_id":"4","last_reported":1746918528,"current_range_meters":18000,"station_id":"ce4bhpp2rcd13ifvqhfg","pricing_plan_id":"cebpf4jnsgd1na2vs0mg"},{"bike_id":"893a45cc-dd45-470f-9670-63dddacfbf70","system_id":"levelo_inurba_marseille","lat":43.27068,"lon":5.42278,"is_reserved":false,"is_disabled":false,"rental_uris":{"android":"levelo://app?vid=893a45cc-dd45-470f-9670-63dddacfbf70","ios":"levelo://app?vid=893a45cc-dd45-470f-9670-63dddacfbf70"},"vehicle_type_id":"4","last_reported":1746918528,"current_range_meters":18800,"station_id":"ce4bhk92rcd13ifvqgb0","pricing_plan_id":"cebpf4jnsgd1na2vs0mg"},{"bike_id":"158b1e38-aaba-4c72-8125-04253198eb71","system_id":"levelo_inurba_marseille","lat":43.30955,"lon":5.39034,"is_reserved":false,"is_disabled":false,"rental_uris":{"android":"levelo://app?vid=158b1e38-aaba-4c72-8125-04253198eb71","ios":"levelo://app?vid=158b1e38-aaba-4c72-8125-04253198eb71"},"vehicle_type_id":"4","last_reported":1746918528,"current_range_meters":18800,"station_id":"ce4bgup2rcd13ifvqco0","pricing_plan_id":"cebpf4jnsgd1na2vs0mg"},{"bike_id":"5e578374-39b2-4117-9967-5fc1fc67cc3f","system_id":"levelo_inurba_marseille","lat":43.25118,"lon":5.40321,"is_reserved":false,"is_disabled":false,"rental_uris":{"android":"levelo://app?vid=5e578374-39b2-4117-9967-5fc1fc67cc3f","ios":"levelo://app?vid=5e578374-39b2-4117-9967-5fc1fc67cc3f"},"vehicle_type_id":"4","last_reported":1746918528,"current_range_meters":18800,"station_id":"","pricing_plan_id":"cebpf4jnsgd1na2vs0mg"},{"bike_id":"bedbf8d3-dae8-404f-a8ca-2fda54452782","system_id":"levelo_inurba_marseille","lat":43.30947,"lon":5.39021,"is_reserved":false,"is_disabled":false,"rental_uris":{"android":"levelo://app?vid=bedbf8d3-dae8-404f-a8ca-2fda54452782","ios":"levelo://app?vid=bedbf8d3-dae8-404f-a8ca-2fda54452782"},"vehicle_type_id":"4","last_reported":1746918528,"current_range_meters":18800,"station_id":"ce4bgup2rcd13ifvqco0","pricing_plan_id":"cebpf4jnsgd1na2vs0mg"},{"bike_id":"3cf91f01-f2d6-49b6-b319-1b3a0f0b8792","system_id":"levelo_inurba_marseille","lat":43.27953,"lon":5.41033,"is_reserved":false,"is_disabled":false,"rental_uris":{"android":"levelo://app?vid=3cf91f01-f2d6-49b6-b319-1b3a0f0b8792","ios":"levelo://app?vid=3cf91f01-f2d6-49b6-b319-1b3a0f0b8792"},"vehicle_type_id":"4","last_reported":1746918528,"current_range_meters":18800,"station_id":"ce4bhnp2rcd13ifvqh0g","pricing_plan_id":"cebpf4jnsgd1na2vs0mg"},{"bike_id":"c685ed0e-8133-4e8d-afba-56f44522e679","system_id":"levelo_inurba_marseille","lat":43.29032,"lon":5.39954,"is_reserved":false,"is_disabled":false,"rental_uris":{"android":"levelo://app?vid=c685ed0e-8133-4e8d-afba-56f44522e679","ios":"levelo://app?vid=c685ed0e-8133-4e8d-afba-56f44522e679"},"vehicle_type_id":"4","last_reported":1746918528,"current_range_meters":18800,"station_id":"ce4bh392rcd13ifvqdm0","pricing_plan_id":"cebpf4jnsgd1na2vs0mg"},{"bike_id":"9c6e6818-df27-485f-95b7-176cf1094eb7","system_id":"levelo_inurba_marseille","lat":43.31307,"lon":5.39732,"is_reserved":false,"is_disabled":false,"rental_uris":{"android":"levelo://app?vid=9c6e6818-df27-485f-95b7-176cf1094eb7","ios":"levelo://app?vid=9c6e6818-df27-485f-95b7-176cf1094eb7"},"vehicle_type_id":"4","last_reported":1746918528,"current_range_meters":18800,"station_id":"ce4bgvp2rcd13ifvqcu0","pricing_plan_id":"cebpf4jnsgd1na2vs0mg"},{"bike_id":"534c9c23-cdbf-4ba7-9a1a-17f5c93a4d5b","system_id":"levelo_inurba_marseille","lat":43.30345,"lon":5.368333,"is_reserved":false,"is_disabled":false,"rental_uris":{"android":"levelo://app?vid=534c9c23-cdbf-4ba7-9a1a-17f5c93a4d5b","ios":"levelo://app?vid=534c9c23-cdbf-4ba7-9a1a-17f5c93a4d5b"},"vehicle_type_id":"4","last_reported":1746918528,"current_range_meters":18800,"station_id":"","pricing_plan_id":"cebpf4jnsgd1na2vs0mg"},{"bike_id":"d66127f1-3317-4a2e-8802-42e7db19c41d","system_id":"levelo_inurba_marseille","lat":43.31124,"lon":5.3777,"is_reserved":false,"is_disabled":false,"rental_uris":{"android":"levelo://app?vid=d66127f1-3317-4a2e-8802-42e7db19c41d","ios":"levelo://app?vid=d66127f1-3317-4a2e-8802-42e7db19c41d"},"vehicle_type_id":"4","last_reported":1746918528,"current_range_meters":18800,"station_id":"ce4bgt92rcd13ifvqcg0","pricing_plan_id":"cebpf4jnsgd1na2vs0mg"},{"bike_id":"bf8d19c3-65f2-46f6-a580-d2c59dd59a95","system_id":"levelo_inurba_marseille","lat":43.292763,"lon":5.401093,"is_reserved":false,"is_disabled":false,"rental_uris":{"android":"levelo://app?vid=bf8d19c3-65f2-46f6-a580-d2c59dd59a95","ios":"levelo://app?vid=bf8d19c3-65f2-46f6-a580-d2c59dd59a95"},"vehicle_type_id":"4","last_reported":1746918528,"current_range_meters":18800,"station_id":"ce4bh312rcd13ifvqdk0","pricing_plan_id":"cebpf4jnsgd1na2vs0mg"},{"bike_id":"b8cabda3-defc-45ea-bf71-b5fae306c442","system_id":"levelo_inurba_marseille","lat":43.24646,"lon":5.3889,"is_reserved":false,"is_disabled":false,"rental_uris":{"android":"levelo://app?vid=b8cabda3-defc-45ea-bf71-b5fae306c442","ios":"levelo://app?vid=b8cabda3-defc-45ea-bf71-b5fae306c442"},"vehicle_type_id":"4","last_reported":1746918528,"current_range_meters":18800,"station_id":"ce4bhg12rcd13ifvqf60","pricing_plan_id":"cebpf4jnsgd1na2vs0mg"},{"bike_id":"748d84d8-5b89-431b-939c-66810a6e7006","system_id":"levelo_inurba_marseille","lat":43.30621,"lon":5.37248,"is_reserved":false,"is_disabled":false,"rental_uris":{"android":"levelo://app?vid=748d84d8-5b89-431b-939c-66810a6e7006","ios":"levelo://app?vid=748d84d8-5b89-431b-939c-66810a6e7006"},"vehicle_type_id":"4","last_reported":1746918528,"current_range_meters":19200,"station_id":"ce4bgqh2rcd13ifvqc4g","pricing_plan_id":"cebpf4jnsgd1na2vs0mg"},{"bike_id":"9eb45cff-0f92-440d-b5e4-f9f552e30ae0","system_id":"levelo_inurba_marseille","lat":43.28412,"lon":5.3498,"is_reserved":false,"is_disabled":true,"rental_uris":{"android":"levelo://app?vid=9eb45cff-0f92-440d-b5e4-f9f552e30ae0","ios":"levelo://app?vid=9eb45cff-0f92-440d-b5e4-f9f552e30ae0"},"vehicle_type_id":"4","last_reported":1746918528,"current_range_meters":19200,"station_id":"ce4bhbh2rcd13ifvqepg","pricing_plan_id":"cebpf4jnsgd1na2vs0mg"},{"bike_id":"6f33d593-b6b8-45ca-b839-ed5fd0e98215","system_id":"levelo_inurba_marseille","lat":43.21186,"lon":5.35065,"is_reserved":false,"is_disabled":true,"rental_uris":{"android":"levelo://app?vid=6f33d593-b6b8-45ca-b839-ed5fd0e98215","ios":"levelo://app?vid=6f33d593-b6b8-45ca-b839-ed5fd0e98215"},"vehicle_type_id":"4","last_reported":1746918528,"current_range_meters":19200,"station_id":"st_cvj6sg6p6f1abm77japg","pricing_plan_id":"cebpf4jnsgd1na2vs0mg"},{"bike_id":"476a88a3-b19c-4b3b-981f-f54d1157f097","system_id":"levelo_inurba_marseille","lat":43.30784,"lon":5.37644,"is_reserved":false,"is_disabled":false,"rental_uris":{"android":"levelo://app?vid=476a88a3-b19c-4b3b-981f-f54d1157f097","ios":"levelo://app?vid=476a88a3-b19c-4b3b-981f-f54d1157f097"},"vehicle_type_id":"4","last_reported":1746918528,"current_range_meters":19200,"station_id":"ce4bgv92rcd13ifvqcq0","pricing_plan_id":"cebpf4jnsgd1na2vs0mg"},{"bike_id":"92d87bf1-60f8-44f9-b273-2bc2afd633ce","system_id":"levelo_inurba_marseille","lat":43.28459,"lon":5.35885,"is_reserved":false,"is_disabled":false,"rental_uris":{"android":"levelo://app?vid=92d87bf1-60f8-44f9-b273-2bc2afd633ce","ios":"levelo://app?vid=92d87bf1-60f8-44f9-b273-2bc2afd633ce"},"vehicle_type_id":"4","last_reported":1746918528,"current_range_meters":19200,"station_id":"ce4bhah2rcd13ifvqei0","pricing_plan_id":"cebpf4jnsgd1na2vs0mg"},{"bike_id":"468e7a96-a1f0-4959-b7ae-81b17aae2c78","system_id":"levelo_inurba_marseille","lat":43.318823,"lon":5.40739,"is_reserved":false,"is_disabled":false,"rental_uris":{"android":"levelo://app?vid=468e7a96-a1f0-4959-b7ae-81b17aae2c78","ios":"levelo://app?vid=468e7a96-a1f0-4959-b7ae-81b17aae2c78"},"vehicle_type_id":"4","last_reported":1746918528,"current_range_meters":19600,"station_id":"ce4bhq12rcd13ifvqhig","pricing_plan_id":"cebpf4jnsgd1na2vs0mg"},{"bike_id":"1fa09b9a-4d77-44f7-a6c7-0b5152821e9d","system_id":"levelo_inurba_marseille","lat":43.31709,"lon":5.37753,"is_reserved":false,"is_disabled":false,"rental_uris":{"android":"levelo://app?vid=1fa09b9a-4d77-44f7-a6c7-0b5152821e9d","ios":"levelo://app?vid=1fa09b9a-4d77-44f7-a6c7-0b5152821e9d"},"vehicle_type_id":"4","last_reported":1746918528,"current_range_meters":19200,"station_id":"ce4bgth2rcd13ifvqch0","pricing_plan_id":"cebpf4jnsgd1na2vs0mg"},{"bike_id":"4a165f23-fbd3-4d80-8747-44afd0fff7ae","system_id":"levelo_inurba_marseille","lat":43.31078,"lon":5.38338,"is_reserved":false,"is_disabled":false,"rental_uris":{"android":"levelo://app?vid=4a165f23-fbd3-4d80-8747-44afd0fff7ae","ios":"levelo://app?vid=4a165f23-fbd3-4d80-8747-44afd0fff7ae"},"vehicle_type_id":"4","last_reported":1746918528,"current_range_meters":19600,"station_id":"ce4bgv92rcd13ifvqcr0","pricing_plan_id":"cebpf4jnsgd1na2vs0mg"},{"bike_id":"7692b48f-523f-4105-bb0f-76be2eddb235","system_id":"levelo_inurba_marseille","lat":43.32636,"lon":5.40969,"is_reserved":false,"is_disabled":false,"rental_uris":{"android":"levelo://app?vid=7692b48f-523f-4105-bb0f-76be2eddb235","ios":"levelo://app?vid=7692b48f-523f-4105-bb0f-76be2eddb235"},"vehicle_type_id":"4","last_reported":1746918528,"current_range_meters":19600,"station_id":"ce4bhpp2rcd13ifvqhgg","pricing_plan_id":"cebpf4jnsgd1na2vs0mg"},{"bike_id":"95c07f58-992e-486e-9e01-f8c38af93653","system_id":"levelo_inurba_marseille","lat":43.305305,"lon":5.367083,"is_reserved":false,"is_disabled":true,"rental_uris":{"android":"levelo://app?vid=95c07f58-992e-486e-9e01-f8c38af93653","ios":"levelo://app?vid=95c07f58-992e-486e-9e01-f8c38af93653"},"vehicle_type_id":"4","last_reported":1746918528,"current_range_meters":19600,"station_id":"ce4bgrp2rcd13ifvqc9g","pricing_plan_id":"cebpf4jnsgd1na2vs0mg"},{"bike_id":"6e1d5b89-9223-4bf9-b1d9-ca3ad63700ee","system_id":"levelo_inurba_marseille","lat":43.284751,"lon":5.359223,"is_reserved":false,"is_disabled":false,"rental_uris":{"android":"levelo://app?vid=6e1d5b89-9223-4bf9-b1d9-ca3ad63700ee","ios":"levelo://app?vid=6e1d5b89-9223-4bf9-b1d9-ca3ad63700ee"},"vehicle_type_id":"4","last_reported":1746918528,"current_range_meters":19600,"station_id":"ce4bhah2rcd13ifvqei0","pricing_plan_id":"cebpf4jnsgd1na2vs0mg"},{"bike_id":"edfeab95-e69f-40f9-aacb-f0082799357f","system_id":"levelo_inurba_marseille","lat":43.32475,"lon":5.36562,"is_reserved":false,"is_disabled":false,"rental_uris":{"android":"levelo://app?vid=edfeab95-e69f-40f9-aacb-f0082799357f","ios":"levelo://app?vid=edfeab95-e69f-40f9-aacb-f0082799357f"},"vehicle_type_id":"4","last_reported":1746918528,"current_range_meters":20000,"station_id":"ce4bhs12rcd13ifvqhvg","pricing_plan_id":"cebpf4jnsgd1na2vs0mg"},{"bike_id":"b12cf3a9-305c-4324-a710-a783e8434726","system_id":"levelo_inurba_marseille","lat":43.30952,"lon":5.3903,"is_reserved":false,"is_disabled":false,"rental_uris":{"android":"levelo://app?vid=b12cf3a9-305c-4324-a710-a783e8434726","ios":"levelo://app?vid=b12cf3a9-305c-4324-a710-a783e8434726"},"vehicle_type_id":"4","last_reported":1746918528,"current_range_meters":20000,"station_id":"ce4bgup2rcd13ifvqco0","pricing_plan_id":"cebpf4jnsgd1na2vs0mg"},{"bike_id":"cb412ac9-524d-450c-b726-f754a4e8340d","system_id":"levelo_inurba_marseille","lat":43.28455,"lon":5.35888,"is_reserved":false,"is_disabled":false,"rental_uris":{"android":"levelo://app?vid=cb412ac9-524d-450c-b726-f754a4e8340d","ios":"levelo://app?vid=cb412ac9-524d-450c-b726-f754a4e8340d"},"vehicle_type_id":"4","last_reported":1746918528,"current_range_meters":20000,"station_id":"ce4bhah2rcd13ifvqei0","pricing_plan_id":"cebpf4jnsgd1na2vs0mg"},{"bike_id":"4762718c-a376-420c-be5d-ae5208641990","system_id":"levelo_inurba_marseille","lat":43.284662,"lon":5.358954,"is_reserved":false,"is_disabled":true,"rental_uris":{"android":"levelo://app?vid=4762718c-a376-420c-be5d-ae5208641990","ios":"levelo://app?vid=4762718c-a376-420c-be5d-ae5208641990"},"vehicle_type_id":"4","last_reported":1746918528,"current_range_meters":20000,"station_id":"ce4bhah2rcd13ifvqei0","pricing_plan_id":"cebpf4jnsgd1na2vs0mg"},{"bike_id":"c1a3854a-1ab7-4017-a018-402b3237e51c","system_id":"levelo_inurba_marseille","lat":43.32288,"lon":5.38275,"is_reserved":false,"is_disabled":false,"rental_uris":{"android":"levelo://app?vid=c1a3854a-1ab7-4017-a018-402b3237e51c","ios":"levelo://app?vid=c1a3854a-1ab7-4017-a018-402b3237e51c"},"vehicle_type_id":"4","last_reported":1746918528,"current_range_meters":19600,"station_id":"ce4bhr12rcd13ifvqhqg","pricing_plan_id":"cebpf4jnsgd1na2vs0mg"},{"bike_id":"dbf5fde2-c707-459e-b682-6e3ec4f30c26","system_id":"levelo_inurba_marseille","lat":43.30578,"lon":5.37193,"is_reserved":false,"is_disabled":false,"rental_uris":{"android":"levelo://app?vid=dbf5fde2-c707-459e-b682-6e3ec4f30c26","ios":"levelo://app?vid=dbf5fde2-c707-459e-b682-6e3ec4f30c26"},"vehicle_type_id":"4","last_reported":1746918528,"current_range_meters":20400,"station_id":"ce4bgqh2rcd13ifvqc4g","pricing_plan_id":"cebpf4jnsgd1na2vs0mg"},{"bike_id":"3ecea697-2d8c-4211-86f6-6aac398d0f8f","system_id":"levelo_inurba_marseille","lat":43.28348,"lon":5.38096,"is_reserved":false,"is_disabled":false,"rental_uris":{"android":"levelo://app?vid=3ecea697-2d8c-4211-86f6-6aac398d0f8f","ios":"levelo://app?vid=3ecea697-2d8c-4211-86f6-6aac398d0f8f"},"vehicle_type_id":"4","last_reported":1746918528,"current_range_meters":20400,"station_id":"ce4bh412rcd13ifvqdr0","pricing_plan_id":"cebpf4jnsgd1na2vs0mg"},{"bike_id":"07ed42d6-4006-46bb-a152-b4b958a77641","system_id":"levelo_inurba_marseille","lat":43.30944,"lon":5.39054,"is_reserved":false,"is_disabled":false,"rental_uris":{"android":"levelo://app?vid=07ed42d6-4006-46bb-a152-b4b958a77641","ios":"levelo://app?vid=07ed42d6-4006-46bb-a152-b4b958a77641"},"vehicle_type_id":"4","last_reported":1746918528,"current_range_meters":20400,"station_id":"ce4bgup2rcd13ifvqco0","pricing_plan_id":"cebpf4jnsgd1na2vs0mg"},{"bike_id":"77b898d6-83c3-4819-8f10-342d8faa3aa9","system_id":"levelo_inurba_marseille","lat":43.270761,"lon":5.422688,"is_reserved":false,"is_disabled":true,"rental_uris":{"android":"levelo://app?vid=77b898d6-83c3-4819-8f10-342d8faa3aa9","ios":"levelo://app?vid=77b898d6-83c3-4819-8f10-342d8faa3aa9"},"vehicle_type_id":"4","last_reported":1746918528,"current_range_meters":20400,"station_id":"ce4bhk92rcd13ifvqgb0","pricing_plan_id":"cebpf4jnsgd1na2vs0mg"},{"bike_id":"bce9332a-b4b4-4419-a2b2-6239f68c865d","system_id":"levelo_inurba_marseille","lat":43.29437,"lon":5.39748,"is_reserved":false,"is_disabled":false,"rental_uris":{"android":"levelo://app?vid=bce9332a-b4b4-4419-a2b2-6239f68c865d","ios":"levelo://app?vid=bce9332a-b4b4-4419-a2b2-6239f68c865d"},"vehicle_type_id":"4","last_reported":1746918528,"current_range_meters":20400,"station_id":"ce4bh3h2rcd13ifvqdo0","pricing_plan_id":"cebpf4jnsgd1na2vs0mg"},{"bike_id":"95c951a3-19d8-4ddc-b6c8-0a711e97dec8","system_id":"levelo_inurba_marseille","lat":43.29951,"lon":5.3702,"is_reserved":false,"is_disabled":false,"rental_uris":{"android":"levelo://app?vid=95c951a3-19d8-4ddc-b6c8-0a711e97dec8","ios":"levelo://app?vid=95c951a3-19d8-4ddc-b6c8-0a711e97dec8"},"vehicle_type_id":"4","last_reported":1746918528,"current_range_meters":20400,"station_id":"","pricing_plan_id":"cebpf4jnsgd1na2vs0mg"},{"bike_id":"3ca0c116-e23f-45a3-ae3d-ecec2dd0a712","system_id":"levelo_inurba_marseille","lat":43.299235,"lon":5.375038,"is_reserved":false,"is_disabled":false,"rental_uris":{"android":"levelo://app?vid=3ca0c116-e23f-45a3-ae3d-ecec2dd0a712","ios":"levelo://app?vid=3ca0c116-e23f-45a3-ae3d-ecec2dd0a712"},"vehicle_type_id":"4","last_reported":1746918528,"current_range_meters":20800,"station_id":"ce4bgjh2rcd13ifvqbg0","pricing_plan_id":"cebpf4jnsgd1na2vs0mg"},{"bike_id":"d740be2a-867c-42f0-893b-a550f7411c44","system_id":"levelo_inurba_marseille","lat":43.30325,"lon":5.40437,"is_reserved":false,"is_disabled":false,"rental_uris":{"android":"levelo://app?vid=d740be2a-867c-42f0-893b-a550f7411c44","ios":"levelo://app?vid=d740be2a-867c-42f0-893b-a550f7411c44"},"vehicle_type_id":"4","last_reported":1746918528,"current_range_meters":20800,"station_id":"ce4bh012rcd13ifvqd10","pricing_plan_id":"cebpf4jnsgd1na2vs0mg"},{"bike_id":"f4096660-b97e-40e1-a4fd-df22946467fb","system_id":"levelo_inurba_marseille","lat":43.31359,"lon":5.38485,"is_reserved":false,"is_disabled":false,"rental_uris":{"android":"levelo://app?vid=f4096660-b97e-40e1-a4fd-df22946467fb","ios":"levelo://app?vid=f4096660-b97e-40e1-a4fd-df22946467fb"},"vehicle_type_id":"4","last_reported":1746918528,"current_range_meters":20800,"station_id":"ce4bgt92rcd13ifvqcf0","pricing_plan_id":"cebpf4jnsgd1na2vs0mg"},{"bike_id":"07c2a9e4-6c04-47dc-b864-ada75e55eda0","system_id":"levelo_inurba_marseille","lat":43.26232,"lon":5.40448,"is_reserved":false,"is_disabled":false,"rental_uris":{"android":"levelo://app?vid=07c2a9e4-6c04-47dc-b864-ada75e55eda0","ios":"levelo://app?vid=07c2a9e4-6c04-47dc-b864-ada75e55eda0"},"vehicle_type_id":"4","last_reported":1746918528,"current_range_meters":20800,"station_id":"ce4bhmh2rcd13ifvqgmg","pricing_plan_id":"cebpf4jnsgd1na2vs0mg"},