{"last_updated":1746972537,"ttl":60,"version":"2.2","data":{"bikes":[{"bike_id":"c0b9fd4f-e181-46ce-b0bf-f5119973334f","system_id":"levelo_inurba_marseille","lat":43.33771,"lon":5.37424,"is_reserved":false,"is_disabled":false,"rental_uris":{"android":"levelo://app?vid=c0b9fd4f-e181-46ce-b0bf-f5119973334f","ios":"levelo://app?vid=c0b9fd4f-e181-46ce-b0bf-f5119973334f"},"vehicle_type_id":"4","last_reported":1746972537,"current_range_meters":32400,"station_id":"","pricing_plan_id":"cebpf4jnsgd1na2vs0mg"},{"bike_id":"ac6d8b96-ba0a-4537-9dc1-1782823e636c","system_id":"levelo_inurba_marseille","lat":43.27945,"lon":5.38674,"is_reserved":false,"is_disabled":true,"rental_uris":{"android":"levelo://app?vid=ac6d8b96-ba0a-4537-9dc1-1782823e636c","ios":"levelo://app?vid=ac6d8b96-ba0a-4537-9dc1-1782823e636c"},"vehicle_type_id":"4","last_reported":1746972537,"current_range_meters":0,"station_id":"","pricing_plan_id":"cebpf4jnsgd1na2vs0mg"},{"bike_id":"ad17c5b4-973a-4cb5-ad8c-32068ccae9d2","system_id":"levelo_inurba_marseille","lat":43.28977,"lon":5.43269,"is_reserved":false,"is_disabled":true,"rental_uris":{"android":"levelo://app?vid=ad17c5b4-973a-4cb5-ad8c-32068ccae9d2","ios":"levelo://app?vid=ad17c5b4-973a-4cb5-ad8c-32068ccae9d2"},"vehicle_type_id":"4","last_reported":1746972537,"current_range_meters":0,"station_id":"","pricing_plan_id":"cebpf4jnsgd1na2vs0mg"},{"bike_id":"a72028ca-425b-4f2c-9e2d-16be28a01f65","system_id":"levelo_inurba_marseille","lat":43.26027,"lon":5.4175,"is_reserved":false,"is_disabled":true,"rental_uris":{"android":"levelo://app?vid=a72028ca-425b-4f2c-9e2d-16be28a01f65","ios":"levelo://app?vid=a72028ca-425b-4f2c-9e2d-16be28a01f65"},"vehicle_type_id":"4","last_reported":1746972537,"current_range_meters":0,"station_id":"","pricing_plan_id":"cebpf4jnsgd1na2vs0mg"},{"bike_id":"e43d995b-a136-4201-b650-ca62eacfe18a","system_id":"levelo_inurba_marseille","lat":43.27135,"lon":5.36383,"is_reserved":false,"is_disabled":true,"rental_uris":{"android":"levelo://app?vid=e43d995b-a136-4201-b650-ca62eacfe18a","ios":"levelo://app?vid=e43d995b-a136-4201-b650-ca62eacfe18a"},"vehicle_type_id":"4","last_reported":1746972537,"current_range_meters":0,"station_id":"","pricing_plan_id":"cebpf4jnsgd1na2vs0mg"},{"bike_id":"caf9033d-5f00-49c3-b1ee-1328b62008dc","system_id":"levelo_inurba_marseille","lat":43.33594,"lon":5.42822,"is_reserved":false,"is_disabled":true,"rental_uris":{"android":"levelo://app?vid=caf9033d-5f00-49c3-b1ee-1328b62008dc","ios":"levelo://app?vid=caf9033d-5f00-49c3-b1ee-1328b62008dc"},"vehicle_type_id":"4","last_reported":1746972537,"current_range_meters":0,"station_id":"","pricing_plan_id":"cebpf4jnsgd1na2vs0mg"},{"bike_id":"689d1ebc-80c1-4c8c-9647-6e072db7ae2b","system_id":"levelo_inurba_marseille","lat":43.26858,"lon":5.37035,"is_reserved":false,"is_disabled":true,"rental_uris":{"android":"levelo://app?vid=689d1ebc-80c1-4c8c-9647-6e072db7ae2b","ios":"levelo://app?vid=689d1ebc-80c1-4c8c-9647-6e072db7ae2b"},"vehicle_type_id":"4","last_reported":1746972537,"current_range_meters":0,"station_id":"","pricing_plan_id":"cebpf4jnsgd1na2vs0mg"},{"bike_id":"e1dc35ab-8d93-4040-9d60-ff9c2a1cf351","system_id":"levelo_inurba_marseille","lat":43.31076,"lon":5.40171,"is_reserved":false,"is_disabled":true,"rental_uris":{"android":"levelo://app?vid=e1dc35ab-8d93-4040-9d60-ff9c2a1cf351","ios":"levelo://app?vid=e1dc35ab-8d93-4040-9d60-ff9c2a1cf351"},"vehicle_type_id":"4","last_reported":1746972537,"current_range_meters":0,"station_id":"","pricing_plan_id":"cebpf4jnsgd1na2vs0mg"},{"bike_id":"2d46911a-8d75-4d63-9057-acbaafb11eea","system_id":"levelo_inurba_marseille","lat":43.2674,"lon":5.372038,"is_reserved":false,"is_disabled":true,"rental_uris":{"android":"levelo://app?vid=2d46911a-8d75-4d63-9057-acbaafb11eea","ios":"levelo://app?vid=2d46911a-8d75-4d63-9057-acbaafb11eea"},"vehicle_type_id":"4","last_reported":1746972537,"current_range_meters":0,"station_id":"","pricing_plan_id":"cebpf4jnsgd1na2vs0mg"},{"bike_id":"0332266f-2be3-4024-8256-12855c80f955","system_id":"levelo_inurba_marseille","lat":43.298,"lon":5.38091,"is_reserved":false,"is_disabled":true,"rental_uris":{"android":"levelo://app?vid=0332266f-2be3-4024-8256-12855c80f955","ios":"levelo://app?vid=0332266f-2be3-4024-8256-12855c80f955"},"vehicle_type_id":"4","last_reported":1746972537,"current_range_meters":0,"station_id":"ce4bgip2rcd13ifvqbb0","pricing_plan_id":"cebpf4jnsgd1na2vs0mg"},{"bike_id":"b8117c63-cf3e-43dc-b646-811eba307af8","system_id":"levelo_inurba_marseille","lat":43.31074,"lon":5.38347,"is_reserved":false,"is_disabled":true,"rental_uris":{"android":"levelo://app?vid=b8117c63-cf3e-43dc-b646-811eba307af8","ios":"levelo://app?vid=b8117c63-cf3e-43dc-b646-811eba307af8"},"vehicle_type_id":"4","last_reported":1746972537,"current_range_meters":0,"station_id":"ce4bgv92rcd13ifvqcr0","pricing_plan_id":"cebpf4jnsgd1na2vs0mg"},{"bike_id":"7fa99896-ccf4-425e-8111-cb9140080e22","system_id":"levelo_inurba_marseille","lat":43.30889,"lon":5.39629,"is_reserved":false,"is_disabled":true,"rental_uris":{"android":"levelo://app?vid=7fa99896-ccf4-425e-8111-cb9140080e22","ios":"levelo://app?vid=7fa99896-ccf4-425e-8111-cb9140080e22"},"vehicle_type_id":"4","last_reported":1746972537,"current_range_meters":0,"station_id":"ce4bh012rcd13ifvqcv0","pricing_plan_id":"cebpf4jnsgd1na2vs0mg"},{"bike_id":"1843bcf7-01d5-4871-9e7f-038034af6f04","system_id":"levelo_inurba_marseille","lat":43.29573,"lon":5.39969,"is_reserved":false,"is_disabled":true,"rental_uris":{"android":"levelo://app?vid=1843bcf7-01d5-4871-9e7f-038034af6f04","ios":"levelo://app?vid=1843bcf7-01d5-4871-9e7f-038034af6f04"},"vehicle_type_id":"4","last_reported":1746972537,"current_range_meters":0,"station_id":"ce4bh312rcd13ifvqdj0","pricing_plan_id":"cebpf4jnsgd1na2vs0mg"},{"bike_id":"b803fbd3-00c3-4a27-8d03-587d05a50728","system_id":"levelo_inurba_marseille","lat":43.28464,"lon":5.35885,"is_reserved":false,"is_disabled":true,"rental_uris":{"android":"levelo://app?vid=b803fbd3-00c3-4a27-8d03-587d05a50728","ios":"levelo://app?vid=b803fbd3-00c3-4a27-8d03-587d05a50728"},"vehicle_type_id":"4","last_reported":1746972537,"current_range_meters":0,"station_id":"ce4bhah2rcd13ifvqei0","pricing_plan_id":"cebpf4jnsgd1na2vs0mg"},{"bike_id":"cc375370-738f-403c-8284-70be150669d5","system_id":"levelo_inurba_marseille","lat":43.27379,"lon":5.36243,"is_reserved":false,"is_disabled":true,"rental_uris":{"android":"levelo://app?vid=cc375370-738f-403c-8284-70be150669d5","ios":"levelo://app?vid=cc375370-738f-403c-8284-70be150669d5"},"vehicle_type_id":"4","last_reported":1746972537,"current_range_meters":0,"station_id":"ce4bhbh2rcd13ifvqeo0","pricing_plan_id":"cebpf4jnsgd1na2vs0mg"},{"bike_id":"9296ab5b-f6ec-43ae-a0fc-1e08fe4e344d","system_id":"levelo_inurba_marseille","lat":43.26556,"lon":5.37285,"is_reserved":false,"is_disabled":true,"rental_uris":{"android":"levelo://app?vid=9296ab5b-f6ec-43ae-a0fc-1e08fe4e344d","ios":"levelo://app?vid=9296ab5b-f6ec-43ae-a0fc-1e08fe4e344d"},"vehicle_type_id":"4","last_reported":1746972537,"current_range_meters":0,"station_id":"ce4bhg12rcd13ifvqf70","pricing_plan_id":"cebpf4jnsgd1na2vs0mg"},{"bike_id":"eb1dfd24-28f2-4d8f-a926-4f0831f6d493","system_id":"levelo_inurba_marseille","lat":43.2656,"lon":5.3728,"is_reserved":false,"is_disabled":true,"rental_uris":{"android":"levelo://app?vid=eb1dfd24-28f2-4d8f-a926-4f0831f6d493","ios":"levelo://app?vid=eb1dfd24-28f2-4d8f-a926-4f0831f6d493"},"vehicle_type_id":"4","last_reported":1746972537,"current_range_meters":0,"station_id":"ce4bhg12rcd13ifvqf70","pricing_plan_id":"cebpf4jnsgd1na2vs0mg"},{"bike_id":"2fae3c6a-0b86-46a7-b0b4-621f9de79a85","system_id":"levelo_inurba_marseille","lat":43.32467,"lon":5.366,"is_reserved":false,"is_disabled":true,"rental_uris":{"android":"levelo://app?vid=2fae3c6a-0b86-46a7-b0b4-621f9de79a85","ios":"levelo://app?vid=2fae3c6a-0b86-46a7-b0b4-621f9de79a85"},"vehicle_type_id":"4","last_reported":1746972537,"current_range_meters":0,"station_id":"ce4bhs12rcd13ifvqhvg","pricing_plan_id":"cebpf4jnsgd1na2vs0mg"},{"bike_id":"5835d87c-ac89-4fdf-9cf9-9780d6ebc1c6","system_id":"levelo_inurba_marseille","lat":43.32489,"lon":5.36574,"is_reserved":false,"is_disabled":true,"rental_uris":{"android":"levelo://app?vid=5835d87c-ac89-4fdf-9cf9-9780d6ebc1c6","ios":"levelo://app?vid=5835d87c-ac89-4fdf-9cf9-9780d6ebc1c6"},"vehicle_type_id":"4","last_reported":1746972537,"current_range_meters":0,"station_id":"ce4bhs12rcd13ifvqhvg","pricing_plan_id":"cebpf4jnsgd1na2vs0mg"},{"bike_id":"35502eda-d0a6-4195-83f3-cd75d788dcea","system_id":"levelo_inurba_marseille","lat":43.2956,"lon":5.39967,"is_reserved":false,"is_disabled":true,"rental_uris":{"android":"levelo://app?vid=35502eda-d0a6-4195-83f3-cd75d788dcea","ios":"levelo://app?vid=35502eda-d0a6-4195-83f3-cd75d788dcea"},"vehicle_type_id":"4","last_reported":1746972537,"current_range_meters":400,"station_id":"ce4bh312rcd13ifvqdj0","pricing_plan_id":"cebpf4jnsgd1na2vs0mg"},{"bike_id":"25eca617-b98f-401a-838e-f174b31941e5","system_id":"levelo_inurba_marseille","lat":43.3033,"lon":5.40433,"is_reserved":false,"is_disabled":true,"rental_uris":{"android":"levelo://app?vid=25eca617-b98f-401a-838e-f174b31941e5","ios":"levelo://app?vid=25eca617-b98f-401a-838e-f174b31941e5"},"vehicle_type_id":"4","last_reported":1746972537,"current_range_meters":800,"station_id":"ce4bh012rcd13ifvqd10","pricing_plan_id":"cebpf4jnsgd1na2vs0mg"},{"bike_id":"229001d2-7627-43e0-aeea-2d75580fd339","system_id":"levelo_inurba_marseille","lat":43.2829,"lon":5.43234,"is_reserved":false,"is_disabled":true,"rental_uris":{"android":"levelo://app?vid=229001d2-7627-43e0-aeea-2d75580fd339","ios":"levelo://app?vid=229001d2-7627-43e0-aeea-2d75580fd339"},"vehicle_type_id":"4","last_reported":1746972537,"current_range_meters":1200,"station_id":"","pricing_plan_id":"cebpf4jnsgd1na2vs0mg"},{"bike_id":"43da1e2e-1814-4391-b982-c71ad85f810c","system_id":"levelo_inurba_marseille","lat":43.27368,"lon":5.36255,"is_reserved":false,"is_disabled":true,"rental_uris":{"android":"levelo://app?vid=43da1e2e-1814-4391-b982-c71ad85f810c","ios":"levelo://app?vid=43da1e2e-1814-4391-b982-c71ad85f810c"},"vehicle_type_id":"4","last_reported":1746972537,"current_range_meters":1200,"station_id":"ce4bhbh2rcd13ifvqeo0","pricing_plan_id":"cebpf4jnsgd1na2vs0mg"},{"bike_id":"8cbacdf7-316b-4471-afb1-e19b530f0445","system_id":"levelo_inurba_marseille","lat":43.29205,"lon":5.39327,"is_reserved":false,"is_disabled":true,"rental_uris":{"android":"levelo://app?vid=8cbacdf7-316b-4471-afb1-e19b530f0445","ios":"levelo://app?vid=8cbacdf7-316b-4471-afb1-e19b530f0445"},"vehicle_type_id":"4","last_reported":1746972537,"current_range_meters":2000,"station_id":"ce4bh192rcd13ifvqdd0","pricing_plan_id":"cebpf4jnsgd1na2vs0mg"},{"bike_id":"9a325137-1793-4157-89ec-f4e00c00f7ea","system_id":"levelo_inurba_marseille","lat":43.282105,"lon":5.351035,"is_reserved":false,"is_disabled":false,"rental_uris":{"android":"levelo://app?vid=9a325137-1793-4157-89ec-f4e00c00f7ea","ios":"levelo://app?vid=9a325137-1793-4157-89ec-f4e00c00f7ea"},"vehicle_type_id":"4","last_reported":1746972537,"current_range_meters":2800,"station_id":"ce4bhbh2rcd13ifvqeo0","pricing_plan_id":"cebpf4jnsgd1na2vs0mg"},{"bike_id":"d0af6956-3c1a-482c-b1cc-50dd1447307f","system_id":"levelo_inurba_marseille","lat":43.324763,"lon":5.365646,"is_reserved":false,"is_disabled":false,"rental_uris":{"android":"levelo://app?vid=d0af6956-3c1a-482c-b1cc-50dd1447307f","ios":"levelo://app?vid=d0af6956-3c1a-482c-b1cc-50dd1447307f"},"vehicle_type_id":"4","last_reported":1746972537,"current_range_meters":2800,"station_id":"ce4bhs12rcd13ifvqhvg","pricing_plan_id":"cebpf4jnsgd1na2vs0mg"},{"bike_id":"3fa50eea-ec4f-463a-bb7c-6034a5495e2d","system_id":"levelo_inurba_marseille","lat":43.27925,"lon":5.39577,"is_reserved":false,"is_disabled":false,"rental_uris":{"android":"levelo://app?vid=3fa50eea-ec4f-463a-bb7c-6034a5495e2d","ios":"levelo://app?vid=3fa50eea-ec4f-463a-bb7c-6034a5495e2d"},"vehicle_type_id":"4","last_reported":1746972537,"current_range_meters":3200,"station_id":"ce4bhf92rcd13ifvqf40","pricing_plan_id":"cebpf4jnsgd1na2vs0mg"},{"bike_id":"d55b69a5-d266-4e3f-91da-c698daafeaef","system_id":"levelo_inurba_marseille","lat":43.24546,"lon":5.39516,"is_reserved":false,"is_disabled":false,"rental_uris":{"android":"levelo://app?vid=d55b69a5-d266-4e3f-91da-c698daafeaef","ios":"levelo://app?vid=d55b69a5-d266-4e3f-91da-c698daafeaef"},"vehicle_type_id":"4","last_reported":1746972537,"current_range_meters":3200,"station_id":"ce4bhlp2rcd13ifvqgjg","pricing_plan_id":"cebpf4jnsgd1na2vs0mg"},{"bike_id":"a2c63fe2-1a4c-4119-974b-15d485603b06","system_id":"levelo_inurba_marseille","lat":43.28065,"lon":5.368663,"is_reserved":false,"is_disabled":false,"rental_uris":{"android":"levelo://app?vid=a2c63fe2-1a4c-4119-974b-15d485603b06","ios":"levelo://app?vid=a2c63fe2-1a4c-4119-974b-15d485603b06"},"vehicle_type_id":"4","last_reported":1746972537,"current_range_meters":3600,"station_id":"","pricing_plan_id":"cebpf4jnsgd1na2vs0mg"},{"bike_id":"4ef47605-f676-41d0-b56e-4a64e572c779","system_id":"levelo_inurba_marseille","lat":43.29421,"lon":5.38617,"is_reserved":false,"is_disabled":false,"rental_uris":{"android":"levelo://app?vid=4ef47605-f676-41d0-b56e-4a64e572c779","ios":"levelo://app?vid=4ef47605-f676-41d0-b56e-4a64e572c779"},"vehicle_type_id":"4","last_reported":1746972537,"current_range_meters":3600,"station_id":"ce4bh2h2rcd13ifvqdh0","pricing_plan_id":"cebpf4jnsgd1na2vs0mg"},{"bike_id":"ed818778-71e7-40dc-b95a-8351ccef69de","system_id":"levelo_inurba_marseille","lat":43.309533,"lon":5.390293,"is_reserved":false,"is_disabled":false,"rental_uris":{"android":"levelo://app?vid=ed818778-71e7-40dc-b95a-8351ccef69de","ios":"levelo://app?vid=ed818778-71e7-40dc-b95a-8351ccef69de"},"vehicle_type_id":"4","last_reported":1746972537,"current_range_meters":4000,"station_id":"ce4bgup2rcd13ifvqco0","pricing_plan_id":"cebpf4jnsgd1na2vs0mg"},{"bike_id":"f2b9a239-5bbf-4899-800a-7f0e31a89cf4","system_id":"levelo_inurba_marseille","lat":43.25587,"lon":5.38218,"is_reserved":false,"is_disabled":false,"rental_uris":{"android":"levelo://app?vid=f2b9a239-5bbf-4899-800a-7f0e31a89cf4","ios":"levelo://app?vid=f2b9a239-5bbf-4899-800a-7f0e31a89cf4"},"vehicle_type_id":"4","last_reported":1746972537,"current_range_meters":4000,"station_id":"ce4bhih2rcd13ifvqfs0","pricing_plan_id":"cebpf4jnsgd1na2vs0mg"},{"bike_id":"cba7027f-bc10-4bf7-a8c3-da629a9a4234","system_id":"levelo_inurba_marseille","lat":43.27051,"lon":5.40262,"is_reserved":false,"is_disabled":false,"rental_uris":{"android":"levelo://app?vid=cba7027f-bc10-4bf7-a8c3-da629a9a4234","ios":"levelo://app?vid=cba7027f-bc10-4bf7-a8c3-da629a9a4234"},"vehicle_type_id":"4","last_reported":1746972537,"current_range_meters":4000,"station_id":"ce4bhk92rcd13ifvqgc0","pricing_plan_id":"cebpf4jnsgd1na2vs0mg"},{"bike_id":"81f2bec3-e5fc-428d-a279-dfa15be8f04b","system_id":"levelo_inurba_marseille","lat":43.240639,"lon":5.377174,"is_reserved":false,"is_disabled":false,"rental_uris":{"android":"levelo://app?vid=81f2bec3-e5fc-428d-a279-dfa15be8f04b","ios":"levelo://app?vid=81f2bec3-e5fc-428d-a279-dfa15be8f04b"},"vehicle_type_id":"4","last_reported":1746972537,"current_range_meters":4000,"station_id":"ce4bhnp2rcd13ifvqgvg","pricing_plan_id":"cebpf4jnsgd1na2vs0mg"},{"bike_id":"c8871d60-de65-4dc9-8457-ca42730446e7","system_id":"levelo_inurba_marseille","lat":43.317484,"lon":5.387686,"is_reserved":false,"is_disabled":false,"rental_uris":{"android":"levelo://app?vid=c8871d60-de65-4dc9-8457-ca42730446e7","ios":"levelo://app?vid=c8871d60-de65-4dc9-8457-ca42730446e7"},"vehicle_type_id":"4","last_reported":1746972537,"current_range_meters":5600,"station_id":"","pricing_plan_id":"cebpf4jnsgd1na2vs0mg"},{"bike_id":"d5f01881-5c7d-4d85-9c2e-2335e4ec140d","system_id":"levelo_inurba_marseille","lat":43.29574,"lon":5.37518,"is_reserved":false,"is_disabled":false,"rental_uris":{"android":"levelo://app?vid=d5f01881-5c7d-4d85-9c2e-2335e4ec140d","ios":"levelo://app?vid=d5f01881-5c7d-4d85-9c2e-2335e4ec140d"},"vehicle_type_id":"4","last_reported":1746972537,"current_range_meters":5600,"station_id":"ce4bgh92rcd13ifvqb50","pricing_plan_id":"cebpf4jnsgd1na2vs0mg"},{"bike_id":"4f39ef46-c182-492f-a9f2-8b71081efeff","system_id":"levelo_inurba_marseille","lat":43.25724,"lon":5.41115,"is_reserved":false,"is_disabled":false,"rental_uris":{"android":"levelo://app?vid=4f39ef46-c182-492f-a9f2-8b71081efeff","ios":"levelo://app?vid=4f39ef46-c182-492f-a9f2-8b71081efeff"},"vehicle_type_id":"4","last_reported":1746972537,"current_range_meters":5600,"station_id":"ce4bhkp2rcd13ifvqgd0","pricing_plan_id":"cebpf4jnsgd1na2vs0mg"},{"bike_id":"91684c6e-4122-407b-bd69-2c77d2fde5c3","system_id":"levelo_inurba_marseille","lat":43.33714,"lon":5.39205,"is_reserved":false,"is_disabled":false,"rental_uris":{"android":"levelo://app?vid=91684c6e-4122-407b-bd69-2c77d2fde5c3","ios":"levelo://app?vid=91684c6e-4122-407b-bd69-2c77d2fde5c3"},"vehicle_type_id":"4","last_reported":1746972537,"current_range_meters":6000,"station_id":"ce4bhr92rcd13ifvqhsg","pricing_plan_id":"cebpf4jnsgd1na2vs0mg"},{"bike_id":"da720f27-4eda-4c57-90d3-1dce2f6ab566","system_id":"levelo_inurba_marseille","lat":43.27987,"lon":5.41689,"is_reserved":false,"is_disabled":false,"rental_uris":{"android":"levelo://app?vid=da720f27-4eda-4c57-90d3-1dce2f6ab566","ios":"levelo://app?vid=da720f27-4eda-4c57-90d3-1dce2f6ab566"},"vehicle_type_id":"4","last_reported":1746972537,"current_range_meters":6400,"station_id":"ce4bho12rcd13ifvqh1g","pricing_plan_id":"cebpf4jnsgd1na2vs0mg"},{"bike_id":"10ee2d0e-ca01-4e83-bbdf-6c08178a202f","system_id":"levelo_inurba_marseille","lat":43.2861,"lon":5.41293,"is_reserved":false,"is_disabled":false,"rental_uris":{"android":"levelo://app?vid=10ee2d0e-ca01-4e83-bbdf-6c08178a202f","ios":"levelo://app?vid=10ee2d0e-ca01-4e83-bbdf-6c08178a202f"},"vehicle_type_id":"4","last_reported":1746972537,"current_range_meters":6800,"station_id":"","pricing_plan_id":"cebpf4jnsgd1na2vs0mg"},{"bike_id":"6e6cde16-3c27-47dc-883f-eeb1ab424d27","system_id":"levelo_inurba_marseille","lat":43.27203,"lon":5.39185,"is_reserved":false,"is_disabled":false,"rental_uris":{"android":"levelo://app?vid=6e6cde16-3c27-47dc-883f-eeb1ab424d27","ios":"levelo://app?vid=6e6cde16-3c27-47dc-883f-eeb1ab424d27"},"vehicle_type_id":"4","last_reported":1746972537,"current_range_meters":6800,"station_id":"ce4bhhp2rcd13ifvqfm0","pricing_plan_id":"cebpf4jnsgd1na2vs0mg"},{"bike_id":"aedac110-9a80-4055-b3bc-6fbbff4ed0bc","system_id":"levelo_inurba_marseille","lat":43.31737,"lon":5.37255,"is_reserved":false,"is_disabled":false,"rental_uris":{"android":"levelo://app?vid=aedac110-9a80-4055-b3bc-6fbbff4ed0bc","ios":"levelo://app?vid=aedac110-9a80-4055-b3bc-6fbbff4ed0bc"},"vehicle_type_id":"4","last_reported":1746972537,"current_range_meters":7200,"station_id":"","pricing_plan_id":"cebpf4jnsgd1na2vs0mg"},{"bike_id":"e9ff74fd-25f7-4eb7-b2d3-93563e7d9f73","system_id":"levelo_inurba_marseille","lat":43.26944,"lon":5.38919,"is_reserved":false,"is_disabled":false,"rental_uris":{"android":"levelo://app?vid=e9ff74fd-25f7-4eb7-b2d3-93563e7d9f73","ios":"levelo://app?vid=e9ff74fd-25f7-4eb7-b2d3-93563e7d9f73"},"vehicle_type_id":"4","last_reported":1746972537,"current_range_meters":7200,"station_id":"ce4bhhh2rcd13ifvqfl0","pricing_plan_id":"cebpf4jnsgd1na2vs0mg"},{"bike_id":"33aabda6-7a6c-4efe-88f3-202b8b1f8373","system_id":"levelo_inurba_marseille","lat":43.29173,"lon":5.37157,"is_reserved":false,"is_disabled":false,"rental_uris":{"android":"levelo://app?vid=33aabda6-7a6c-4efe-88f3-202b8b1f8373","ios":"levelo://app?vid=33aabda6-7a6c-4efe-88f3-202b8b1f8373"},"vehicle_type_id":"4","last_reported":1746972537,"current_range_meters":8000,"station_id":"ce4bha92rcd13ifvqeh0","pricing_plan_id":"cebpf4jnsgd1na2vs0mg"},{"bike_id":"c7b2c172-c868-409b-94b2-994d10fee645","system_id":"levelo_inurba_marseille","lat":43.26055,"lon":5.39384,"is_reserved":false,"is_disabled":false,"rental_uris":{"android":"levelo://app?vid=c7b2c172-c868-409b-94b2-994d10fee645","ios":"levelo://app?vid=c7b2c172-c868-409b-94b2-994d10fee645"},"vehicle_type_id":"4","last_reported":1746972537,"current_range_meters":8000,"station_id":"ce4bhh92rcd13ifvqfj0","pricing_plan_id":"cebpf4jnsgd1na2vs0mg"},{"bike_id":"90699213-8274-436f-bb67-aab198828d40","system_id":"levelo_inurba_marseille","lat":43.32329,"lon":5.40632,"is_reserved":false,"is_disabled":false,"rental_uris":{"android":"levelo://app?vid=90699213-8274-436f-bb67-aab198828d40","ios":"levelo://app?vid=90699213-8274-436f-bb67-aab198828d40"},"vehicle_type_id":"4","last_reported":1746972537,"current_range_meters":8000,"station_id":"ce4bhq92rcd13ifvqhjg","pricing_plan_id":"cebpf4jnsgd1na2vs0mg"},{"bike_id":"04c1226f-faa4-4a45-b805-4b9bcac57fa8","system_id":"levelo_inurba_marseille","lat":43.292629,"lon":5.391169,"is_reserved":false,"is_disabled":false,"rental_uris":{"android":"levelo://app?vid=04c1226f-faa4-4a45-b805-4b9bcac57fa8","ios":"levelo://app?vid=04c1226f-faa4-4a45-b805-4b9bcac57fa8"},"vehicle_type_id":"4","last_reported":1746972537,"current_range_meters":8400,"station_id":"","pricing_plan_id":"cebpf4jnsgd1na2vs0mg"},{"bike_id":"ed2ee6fd-6ade-47b3-88bd-ac0fe3fa400f","system_id":"levelo_inurba_marseille","lat":43.24186,"lon":5.3973,"is_reserved":false,"is_disabled":false,"rental_uris":{"android":"levelo://app?vid=ed2ee6fd-6ade-47b3-88bd-ac0fe3fa400f","ios":"levelo://app?vid=ed2ee6fd-6ade-47b3-88bd-ac0fe3fa400f"},"vehicle_type_id":"4","last_reported":1746972537,"current_range_meters":8400,"station_id":"ce4bhn12rcd13ifvqgpg","pricing_plan_id":"cebpf4jnsgd1na2vs0mg"},{"bike_id":"14f559c3-80ce-498e-9cf2-728e0fed888e","system_id":"levelo_inurba_marseille","lat":43.28003,"lon":5.40014,"is_reserved":false,"is_disabled":false,"rental_uris":{"android":"levelo://app?vid=14f559c3-80ce-498e-9cf2-728e0fed888e","ios":"levelo://app?vid=14f559c3-80ce-498e-9cf2-728e0fed888e"},"vehicle_type_id":"4","last_reported":1746972537,"current_range_meters":8400,"station_id":"ce4bho92rcd13ifvqh4g","pricing_plan_id":"cebpf4jnsgd1na2vs0mg"},{"bike_id":"47607102-590b-407d-a6f8-f88f2bbbeae5","system_id":"levelo_inurba_marseille","lat":43.2985,"lon":5.36284,"is_reserved":false,"is_disabled":false,"rental_uris":{"android":"levelo://app?vid=47607102-590b-407d-a6f8-f88f2bbbeae5","ios":"levelo://app?vid=47607102-590b-407d-a6f8-f88f2bbbeae5"},"vehicle_type_id":"4","last_reported":1746972537,"current_range_meters":8800,"station_id":"ce4bgpp2rcd13ifvqc3g","pricing_plan_id":"cebpf4jnsgd1na2vs0mg"},{"bike_id":"07f3b46a-40d1-4786-b0b0-c79b86053f0c","system_id":"levelo_inurba_marseille","lat":43.30927,"lon":5.40143,"is_reserved":false,"is_disabled":false,"rental_uris":{"android":"levelo://app?vid=07f3b46a-40d1-4786-b0b0-c79b86053f0c","ios":"levelo://app?vid=07f3b46a-40d1-4786-b0b0-c79b86053f0c"},"vehicle_type_id":"4","last_reported":1746972537,"current_range_meters":8800,"station_id":"ce4bgvp2rcd13ifvqct0","pricing_plan_id":"cebpf4jnsgd1na2vs0mg"},{"bike_id":"1029ccea-f712-4112-86c8-28baad096e83","system_id":"levelo_inurba_marseille","lat":43.29002,"lon":5.35607,"is_reserved":false,"is_disabled":false,"rental_uris":{"android":"levelo://app?vid=1029ccea-f712-4112-86c8-28baad096e83","ios":"levelo://app?vid=1029ccea-f712-4112-86c8-28baad096e83"},"vehicle_type_id":"4","last_reported":1746972537,"current_range_meters":8800,"station_id":"ce4bhb92rcd13ifvqen0","pricing_plan_id":"cebpf4jnsgd1na2vs0mg"},{"bike_id":"091b2495-8506-43b4-b374-57e577b837c4","system_id":"levelo_inurba_marseille","lat":43.2512,"lon":5.40313,"is_reserved":false,"is_disabled":false,"rental_uris":{"android":"levelo://app?vid=091b2495-8506-43b4-b374-57e577b837c4","ios":"levelo://app?vid=091b2495-8506-43b4-b374-57e577b837c4"},"vehicle_type_id":"4","last_reported":1746972537,"current_range_meters":9200,"station_id":"ce4bhlh2rcd13ifvqgig","pricing_plan_id":"cebpf4jnsgd1na2vs0mg"},{"bike_id":"24a40667-661d-4b2a-b265-049a415d871e","system_id":"levelo_inurba_marseille","lat":43.21199,"lon":5.350769,"is_reserved":false,"is_disabled":false,"rental_uris":{"android":"levelo://app?vid=24a40667-661d-4b2a-b265-049a415d871e","ios":"levelo://app?vid=24a40667-661d-4b2a-b265-049a415d871e"},"vehicle_type_id":"4","last_reported":1746972537,"current_range_meters":9200,"station_id":"st_cvj6sg6p6f1abm77japg","pricing_plan_id":"cebpf4jnsgd1na2vs0mg"},{"bike_id":"b97b59d9-f43c-4c45-9e67-0fa304f6b1d8","system_id":"levelo_inurba_marseille","lat":43.26556,"lon":5.37281,"is_reserved":false,"is_disabled":false,"rental_uris":{"android":"levelo://app?vid=b97b59d9-f43c-4c45-9e67-0fa304f6b1d8","ios":"levelo://app?vid=b97b59d9-f43c-4c45-9e67-0fa304f6b1d8"},"vehicle_type_id":"4","last_reported":1746972537,"current_range_meters":9600,"station_id":"ce4bhg12rcd13ifvqf70","pricing_plan_id":"cebpf4jnsgd1na2vs0mg"},{"bike_id":"fc2577e7-1497-425b-9d4f-ab8d7dc843c6","system_id":"levelo_inurba_marseille","lat":43.33771,"lon":5.37485,"is_reserved":false,"is_disabled":false,"rental_uris":{"android":"levelo://app?vid=fc2577e7-1497-425b-9d4f-ab8d7dc843c6","ios":"levelo://app?vid=fc2577e7-1497-425b-9d4f-ab8d7dc843c6"},"vehicle_type_id":"4","last_reported":1746972537,"current_range_meters":10000,"station_id":"","pricing_plan_id":"cebpf4jnsgd1na2vs0mg"},{"bike_id":"56f6b009-6610-4512-a2e1-888dd17c3550","system_id":"levelo_inurba_marseille","lat":43.31069,"lon":5.38352,"is_reserved":false,"is_disabled":false,"rental_uris":{"android":"levelo://app?vid=56f6b009-6610-4512-a2e1-888dd17c3550","ios":"levelo://app?vid=56f6b009-6610-4512-a2e1-888dd17c3550"},"vehicle_type_id":"4","last_reported":1746972537,"current_range_meters":10800,"station_id":"ce4bgv92rcd13ifvqcr0","pricing_plan_id":"cebpf4jnsgd1na2vs0mg"},{"bike_id":"d897ae5a-305a-4dfe-9639-e8ab90ae791e","system_id":"levelo_inurba_marseille","lat":43.23148,"lon":5.43713,"is_reserved":false,"is_disabled":false,"rental_uris":{"android":"levelo://app?vid=d897ae5a-305a-4dfe-9639-e8ab90ae791e","ios":"levelo://app?vid=d897ae5a-305a-4dfe-9639-e8ab90ae791e"},"vehicle_type_id":"4","last_reported":1746972537,"current_range_meters":10800,"station_id":"ce4bhmp2rcd13ifvqgog","pricing_plan_id":"cebpf4jnsgd1na2vs0mg"},{"bike_id":"9adb96b2-300a-4337-9448-2ebdec3d11a3","system_id":"levelo_inurba_marseille","lat":43.29723,"lon":5.37698,"is_reserved":false,"is_disabled":false,"rental_uris":{"android":"levelo://app?vid=9adb96b2-300a-4337-9448-2ebdec3d11a3","ios":"levelo://app?vid=9adb96b2-300a-4337-9448-2ebdec3d11a3"},"vehicle_type_id":"4","last_reported":1746972537,"current_range_meters":11200,"station_id":"ce4bgkh2rcd13ifvqbl0","pricing_plan_id":"cebpf4jnsgd1na2vs0mg"},{"bike_id":"a1121b36-b5cd-4dda-96ef-13a3dfaa55e1","system_id":"levelo_inurba_marseille","lat":43.301401,"lon":5.387791,"is_reserved":false,"is_disabled":false,"rental_uris":{"android":"levelo://app?vid=a1121b36-b5cd-4dda-96ef-13a3dfaa55e1","ios":"levelo://app?vid=a1121b36-b5cd-4dda-96ef-13a3dfaa55e1"},"vehicle_type_id":"4","last_reported":1746972537,"current_range_meters":11600,"station_id":"","pricing_plan_id":"cebpf4jnsgd1na2vs0mg"},{"bike_id":"37f57ee9-665e-48d2-9603-e6b554aae302","system_id":"levelo_inurba_marseille","lat":43.29603,"lon":5.38108,"is_reserved":false,"is_disabled":false,"rental_uris":{"android":"levelo://app?vid=37f57ee9-665e-48d2-9603-e6b554aae302","ios":"levelo://app?vid=37f57ee9-665e-48d2-9603-e6b554aae302"},"vehicle_type_id":"4","last_reported":1746972537,"current_range_meters":11600,"station_id":"ce4bgl12rcd13ifvqbo0","pricing_plan_id":"cebpf4jnsgd1na2vs0mg"},{"bike_id":"d83b7170-8eed-47c1-b0ec-1140d3a45dea","system_id":"levelo_inurba_marseille","lat":43.30815,"lon":5.43555,"is_reserved":false,"is_disabled":false,"rental_uris":{"android":"levelo://app?vid=d83b7170-8eed-47c1-b0ec-1140d3a45dea","ios":"levelo://app?vid=d83b7170-8eed-47c1-b0ec-1140d3a45dea"},"vehicle_type_id":"4","last_reported":1746972537,"current_range_meters":11600,"station_id":"ce4bhph2rcd13ifvqheg","pricing_plan_id":"cebpf4jnsgd1na2vs0mg"},{"bike_id":"27abadcb-07ae-4ece-ae1b-798c11b53628","system_id":"levelo_inurba_marseille","lat":43.297089,"lon":5.366068,"is_reserved":false,"is_disabled":false,"rental_uris":{"android":"levelo://app?vid=27abadcb-07ae-4ece-ae1b-798c11b53628","ios":"levelo://app?vid=27abadcb-07ae-4ece-ae1b-798c11b53628"},"vehicle_type_id":"4","last_reported":1746972537,"current_range_meters":12000,"station_id":"ce4bgn12rcd13ifvqbt0","pricing_plan_id":"cebpf4jnsgd1na2vs0mg"},{"bike_id":"efc0a0d5-a353-4db4-9aad-8fb20bd2a998","system_id":"levelo_inurba_marseille","lat":43.25734,"lon":5.4111,"is_reserved":false,"is_disabled":false,"rental_uris":{"android":"levelo://app?vid=efc0a0d5-a353-4db4-9aad-8fb20bd2a998","ios":"levelo://app?vid=efc0a0d5-a353-4db4-9aad-8fb20bd2a998"},"vehicle_type_id":"4","last_reported":1746972537,"current_range_meters":12000,"station_id":"ce4bhkp2rcd13ifvqgd0","pricing_plan_id":"cebpf4jnsgd1na2vs0mg"},{"bike_id":"cbe5e661-c3e6-4a61-bcb7-bf5eab36baff","system_id":"levelo_inurba_marseille","lat":43.30313,"lon":5.40462,"is_reserved":false,"is_disabled":false,"rental_uris":{"android":"levelo://app?vid=cbe5e661-c3e6-4a61-bcb7-bf5eab36baff","ios":"levelo://app?vid=cbe5e661-c3e6-4a61-bcb7-bf5eab36baff"},"vehicle_type_id":"4","last_reported":1746972537,"current_range_meters":12400,"station_id":"ce4bh012rcd13ifvqd10","pricing_plan_id":"cebpf4jnsgd1na2vs0mg"},{"bike_id":"2ca645a6-4d4d-4cbc-98de-9bb9265c0531","system_id":"levelo_inurba_marseille","lat":43.30215,"lon":5.39468,"is_reserved":false,"is_disabled":false,"rental_uris":{"android":"levelo://app?vid=2ca645a6-4d4d-4cbc-98de-9bb9265c0531","ios":"levelo://app?vid=2ca645a6-4d4d-4cbc-98de-9bb9265c0531"},"vehicle_type_id":"4","last_reported":1746972537,"current_range_meters":12400,"station_id":"ce4bh0p2rcd13ifvqd70","pricing_plan_id":"cebpf4jnsgd1na2vs0mg"},{"bike_id":"85847a8c-59bc-47df-81d6-93bf4c7f547d","system_id":"levelo_inurba_marseille","lat":43.27842,"lon":5.39205,"is_reserved":false,"is_disabled":false,"rental_uris":{"android":"levelo://app?vid=85847a8c-59bc-47df-81d6-93bf4c7f547d","ios":"levelo://app?vid=85847a8c-59bc-47df-81d6-93bf4c7f547d"},"vehicle_type_id":"4","last_reported":1746972537,"current_range_meters":12400,"station_id":"ce4bhjp2rcd13ifvqga0","pricing_plan_id":"cebpf4jnsgd1na2vs0mg"},{"bike_id":"9086a547-f8a3-47a2-a7ce-48620a88254c","system_id":"levelo_inurba_marseille","lat":43.31711,"lon":5.437039,"is_reserved":false,"is_disabled":false,"rental_uris":{"android":"levelo://app?vid=9086a547-f8a3-47a2-a7ce-48620a88254c","ios":"levelo://app?vid=9086a547-f8a3-47a2-a7ce-48620a88254c"},"vehicle_type_id":"4","last_reported":1746972537,"current_range_meters":12400,"station_id":"ce4bhp92rcd13ifvqhcg","pricing_plan_id":"cebpf4jnsgd1na2vs0mg"},{"bike_id":"f90e6d7c-23a1-43be-b618-8de3f48423fb","system_id":"levelo_inurba_marseille","lat":43.26959,"lon":5.38634,"is_reserved":false,"is_disabled":false,"rental_uris":{"android":"levelo://app?vid=f90e6d7c-23a1-43be-b618-8de3f48423fb","ios":"levelo://app?vid=f90e6d7c-23a1-43be-b618-8de3f48423fb"},"vehicle_type_id":"4","last_reported":1746972537,"current_range_meters":12800,"station_id":"ce4bhh92rcd13ifvqfh0","pricing_plan_id":"cebpf4jnsgd1na2vs0mg"},{"bike_id":"a1d9903e-321a-4c5b-8dec-74e82894279c","system_id":"levelo_inurba_marseille","lat":43.30804,"lon":5.43521,"is_reserved":false,"is_disabled":false,"rental_uris":{"android":"levelo://app?vid=a1d9903e-321a-4c5b-8dec-74e82894279c","ios":"levelo://app?vid=a1d9903e-321a-4c5b-8dec-74e82894279c"},"vehicle_type_id":"4","last_reported":1746972537,"current_range_meters":14000,"station_id":"ce4bhph2rcd13ifvqheg","pricing_plan_id":"cebpf4jnsgd1na2vs0mg"},{"bike_id":"a01ea556-dca3-4c52-bd1b-4bab64cd439b","system_id":"levelo_inurba_marseille","lat":43.2573,"lon":5.41107,"is_reserved":false,"is_disabled":false,"rental_uris":{"android":"levelo://app?vid=a01ea556-dca3-4c52-bd1b-4bab64cd439b","ios":"levelo://app?vid=a01ea556-dca3-4c52-bd1b-4bab64cd439b"},"vehicle_type_id":"4","last_reported":1746972537,"current_range_meters":14400,"station_id":"ce4bhkp2rcd13ifvqgd0","pricing_plan_id":"cebpf4jnsgd1na2vs0mg"},{"bike_id":"f52c819d-ca4b-4640-b458-b877db1bf990","system_id":"levelo_inurba_marseille","lat":43.29859,"lon":5.41,"is_reserved":false,"is_disabled":false,"rental_uris":{"android":"levelo://app?vid=f52c819d-ca4b-4640-b458-b877db1bf990","ios":"levelo://app?vid=f52c819d-ca4b-4640-b458-b877db1bf990"},"vehicle_type_id":"4","last_reported":1746972537,"current_range_meters":14800,"station_id":"","pricing_plan_id":"cebpf4jnsgd1na2vs0mg"},{"bike_id":"fe8a300c-df4c-42e1-b092-cce77e5975ce","system_id":"levelo_inurba_marseille","lat":43.25724,"lon":5.41111,"is_reserved":false,"is_disabled":false,"rental_uris":{"android":"levelo://app?vid=fe8a300c-df4c-42e1-b092-cce77e5975ce","ios":"levelo://app?vid=fe8a300c-df4c-42e1-b092-cce77e5975ce"},"vehicle_type_id":"4","last_reported":1746972537,"current_range_meters":14800,"station_id":"ce4bhkp2rcd13ifvqgd0","pricing_plan_id":"cebpf4jnsgd1na2vs0mg"},{"bike_id":"e6e5cdbe-90b5-4430-9eb9-275816ee9d91","system_id":"levelo_inurba_marseille","lat":43.21745,"lon":5.34601,"is_reserved":false,"is_disabled":false,"rental_uris":{"android":"levelo://app?vid=e6e5cdbe-90b5-4430-9eb9-275816ee9d91","ios":"levelo://app?vid=e6e5cdbe-90b5-4430-9eb9-275816ee9d91"},"vehicle_type_id":"4","last_reported":1746972537,"current_range_meters":14800,"station_id":"st_cvj6r9ubvosntc0bgbag","pricing_plan_id":"cebpf4jnsgd1na2vs0mg"},{"bike_id":"b03d973a-294f-48ce-86a1-c77f306d028c","system_id":"levelo_inurba_marseille","lat":43.2985,"lon":5.36271,"is_reserved":false,"is_disabled":false,"rental_uris":{"android":"levelo://app?vid=b03d973a-294f-48ce-86a1-c77f306d028c","ios":"levelo://app?vid=b03d973a-294f-48ce-86a1-c77f306d028c"},"vehicle_type_id":"4","last_reported":1746972537,"current_range_meters":15200,"station_id":"ce4bgpp2rcd13ifvqc3g","pricing_plan_id":"cebpf4jnsgd1na2vs0mg"},{"bike_id":"0e9a568c-80c5-46e1-a46b-20fbbee38704","system_id":"levelo_inurba_marseille","lat":43.29214,"lon":5.40014,"is_reserved":false,"is_disabled":false,"rental_uris":{"android":"levelo://app?vid=0e9a568c-80c5-46e1-a46b-20fbbee38704","ios":"levelo://app?vid=0e9a568c-80c5-46e1-a46b-20fbbee38704"},"vehicle_type_id":"4","last_reported":1746972537,"current_range_meters":16000,"station_id":"","pricing_plan_id":"cebpf4jnsgd1na2vs0mg"},{"bike_id":"26ef6a94-542c-403b-a0b5-efc65a2d73d2","system_id":"levelo_inurba_marseille","lat":43.31884,"lon":5.40729,"is_reserved":false,"is_disabled":false,"rental_uris":{"android":"levelo://app?vid=26ef6a94-542c-403b-a0b5-efc65a2d73d2","ios":"levelo://app?vid=26ef6a94-542c-403b-a0b5-efc65a2d73d2"},"vehicle_type_id":"4","last_reported":1746972537,"current_range_meters":16000,"station_id":"ce4bhq12rcd13ifvqhig","pricing_plan_id":"cebpf4jnsgd1na2vs0mg"},{"bike_id":"a64a2976-6ff1-4111-a2d9-95f602e4bb72","system_id":"levelo_inurba_marseille","lat":43.29576,"lon":5.37519,"is_reserved":false,"is_disabled":false,"rental_uris":{"android":"levelo://app?vid=a64a2976-6ff1-4111-a2d9-95f602e4bb72","ios":"levelo://app?vid=a64a2976-6ff1-4111-a2d9-95f602e4bb72"},"vehicle_type_id":"4","last_reported":1746972537,"current_range_meters":16400,"station_id":"","pricing_plan_id":"cebpf4jnsgd1na2vs0mg"},{"bike_id":"03f0da42-54e5-4b54-a066-bf1856a38279","system_id":"levelo_inurba_marseille","lat":43.30435,"lon":5.39745,"is_reserved":false,"is_disabled":false,"rental_uris":{"android":"levelo://app?vid=03f0da42-54e5-4b54-a066-bf1856a38279","ios":"levelo://app?vid=03f0da42-54e5-4b54-a066-bf1856a38279"},"vehicle_type_id":"4","last_reported":1746972537,"current_range_meters":16400,"station_id":"ce4bh092rcd13ifvqd20","pricing_plan_id":"cebpf4jnsgd1na2vs0mg"},{"bike_id":"984cc90c-03c9-4fc8-9371-a0f0bf3b2f79","system_id":"levelo_inurba_marseille","lat":43.23196,"lon":5.355583,"is_reserved":false,"is_disabled":false,"rental_uris":{"android":"levelo://app?vid=984cc90c-03c9-4fc8-9371-a0f0bf3b2f79","ios":"levelo://app?vid=984cc90c-03c9-4fc8-9371-a0f0bf3b2f79"},"vehicle_type_id":"4","last_reported":1746972537,"current_range_meters":16400,"station_id":"ce4bhu92rcd13ifvqi70","pricing_plan_id":"cebpf4jnsgd1na2vs0mg"},{"bike_id":"c37ca2b1-69dc-46e9-94be-7c01aebc93d5","system_id":"levelo_inurba_marseille","lat":43.30299,"lon":5.36661,"is_reserved":false,"is_disabled":false,"rental_uris":{"android":"levelo://app?vid=c37ca2b1-69dc-46e9-94be-7c01aebc93d5","ios":"levelo://app?vid=c37ca2b1-69dc-46e9-94be-7c01aebc93d5"},"vehicle_type_id":"4","last_reported":1746972537,"current_range_meters":16800,"station_id":"","pricing_plan_id":"cebpf4jnsgd1na2vs0mg"},{"bike_id":"a3cfbeb5-0ed1-4c8e-8d1d-c9603b834a27","system_id":"levelo_inurba_marseille","lat":43.32268,"lon":5.40651,"is_reserved":false,"is_disabled":false,"rental_uris":{"android":"levelo://app?vid=a3cfbeb5-0ed1-4c8e-8d1d-c9603b834a27","ios":"levelo://app?vid=a3cfbeb5-0ed1-4c8e-8d1d-c9603b834a27"},"vehicle_type_id":"4","last_reported":1746972537,"current_range_meters":16800,"station_id":"","pricing_plan_id":"cebpf4jnsgd1na2vs0mg"},{"bike_id":"ad0662cf-29ef-45a6-af83-e4a737dd0d06","system_id":"levelo_inurba_marseille","lat":43.29008,"lon":5.35607,"is_reserved":false,"is_disabled":false,"rental_uris":{"android":"levelo://app?vid=ad0662cf-29ef-45a6-af83-e4a737dd0d06","ios":"levelo://app?vid=ad0662cf-29ef-45a6-af83-e4a737dd0d06"},"vehicle_type_id":"4","last_reported":1746972537,"current_range_meters":16800,"station_id":"ce4bhb92rcd13ifvqen0","pricing_plan_id":"cebpf4jnsgd1na2vs0mg"},{"bike_id":"89f92199-c024-426b-a0d2-a419b4f30416","system_id":"levelo_inurba_marseille","lat":43.24807,"lon":5.37456,"is_reserved":false,"is_disabled":false,"rental_uris":{"android":"levelo://app?vid=89f92199-c024-426b-a0d2-a419b4f30416","ios":"levelo://app?vid=89f92199-c024-426b-a0d2-a419b4f30416"},"vehicle_type_id":"4","last_reported":1746972537,"current_range_meters":16800,"station_id":"ce4bhgh2rcd13ifvqfb0","pricing_plan_id":"cebpf4jnsgd1na2vs0mg"},{"bike_id":"a649b5dd-3357-4eb6-8669-d8d74e18bd8f","system_id":"levelo_inurba_marseille","lat":43.21747,"lon":5.34598,"is_reserved":false,"is_disabled":false,"rental_uris":{"android":"levelo://app?vid=a649b5dd-3357-4eb6-8669-d8d74e18bd8f","ios":"levelo://app?vid=a649b5dd-3357-4eb6-8669-d8d74e18bd8f"},"vehicle_type_id":"4","last_reported":1746972537,"current_range_meters":16800,"station_id":"st_cvj6r9ubvosntc0bgbag","pricing_plan_id":"cebpf4jnsgd1na2vs0mg"},{"bike_id":"b690fd5d-cc39-4354-b447-67201705df29","system_id":"levelo_inurba_marseille","lat":43.21192,"lon":5.35072,"is_reserved":false,"is_disabled":false,"rental_uris":{"android":"levelo://app?vid=b690fd5d-cc39-4354-b447-67201705df29","ios":"levelo://app?vid=b690fd5d-cc39-4354-b447-67201705df29"},"vehicle_type_id":"4","last_reported":1746972537,"current_range_meters":17200,"station_id":"st_cvj6sg6p6f1abm77japg","pricing_plan_id":"cebpf4jnsgd1na2vs0mg"},{"bike_id":"1d2bc58b-b82f-4789-bf46-469ebb3ec713","system_id":"levelo_inurba_marseille","lat":43.3137,"lon":5.38492,"is_reserved":false,"is_disabled":false,"rental_uris":{"android":"levelo://app?vid=1d2bc58b-b82f-4789-bf46-469ebb3ec713","ios":"levelo://app?vid=1d2bc58b-b82f-4789-bf46-469ebb3ec713"},"vehicle_type_id":"4","last_reported":1746972537,"current_range_meters":17600,"station_id":"ce4bgt92rcd13ifvqcf0","pricing_plan_id":"cebpf4jnsgd1na2vs0mg"},{"bike_id":"5c7166b5-32cc-437c-bbc7-9bfe56a65c3a","system_id":"levelo_inurba_marseille","lat":43.30947,"lon":5.37158,"is_reserved":false,"is_disabled":false,"rental_uris":{"android":"levelo://app?vid=5c7166b5-32cc-437c-bbc7-9bfe56a65c3a","ios":"levelo://app?vid=5c7166b5-32cc-437c-bbc7-9bfe56a65c3a"},"vehicle_type_id":"4","last_reported":1746972537,"current_range_meters":17600,"station_id":"ce4bguh2rcd13ifvqckg","pricing_plan_id":"cebpf4jnsgd1na2vs0mg"},{"bike_id":"fee25d30-94c4-40fa-bb83-e3651ca27256","system_id":"levelo_inurba_marseille","lat":43.30941,"lon":5.40151,"is_reserved":false,"is_disabled":false,"rental_uris":{"android":"levelo://app?vid=fee25d30-94c4-40fa-bb83-e3651ca27256","ios":"levelo://app?vid=fee25d30-94c4-40fa-bb83-e3651ca27256"},"vehicle_type_id":"4","last_reported":1746972537,"current_range_meters":17600,"station_id":"ce4bgvp2rcd13ifvqct0","pricing_plan_id":"cebpf4jnsgd1na2vs0mg"},{"bike_id":"83a5dddc-f08f-476e-a316-d0e0dfb65037","system_id":"levelo_inurba_marseille","lat":43.31723,"lon":5.42426,"is_reserved":false,"is_disabled":false,"rental_uris":{"android":"levelo://app?vid=83a5dddc-f08f-476e-a316-d0e0dfb65037","ios":"levelo://app?vid=83a5dddc-f08f-476e-a316-d0e0dfb65037"},"vehicle_type_id":"4","last_reported":1746972537,"current_range_meters":17600,"station_id":"ce4bhp92rcd13ifvqhbg","pricing_plan_id":"cebpf4jnsgd1na2vs0mg"},{"bike_id":"69cfaeb7-9d49-4c22-b951-954e8215cf53","system_id":"levelo_inurba_marseille","lat":43.21744,"lon":5.34605,"is_reserved":false,"is_disabled":false,"rental_uris":{"android":"levelo://app?vid=69cfaeb7-9d49-4c22-b951-954e8215cf53","ios":"levelo://app?vid=69cfaeb7-9d49-4c22-b951-954e8215cf53"},"vehicle_type_id":"4","last_reported":1746972537,"current_range_meters":17600,"station_id":"st_cvj6r9ubvosntc0bgbag","pricing_plan_id":"cebpf4jnsgd1na2vs0mg"},{"bike_id":"36a5c11b-0cfd-4fde-ba39-eeadc35dedb1","system_id":"levelo_inurba_marseille","lat":43.25148,"lon":5.40343,"is_reserved":false,"is_disabled":false,"rental_uris":{"android":"levelo://app?vid=36a5c11b-0cfd-4fde-ba39-eeadc35dedb1","ios":"levelo://app?vid=36a5c11b-0cfd-4fde-ba39-eeadc35dedb1"},"vehicle_type_id":"4","last_reported":1746972537,"current_range_meters":18000,"station_id":"","pricing_plan_id":"cebpf4jnsgd1na2vs0mg"},{"bike_id":"d740be2a-867c-42f0-893b-a550f7411c44","system_id":"levelo_inurba_marseille","lat":43.30333,"lon":5.4042,"is_reserved":false,"is_disabled":false,"rental_uris":{"android":"levelo://app?vid=d740be2a-867c-42f0-893b-a550f7411c44","ios":"levelo://app?vid=d740be2a-867c-42f0-893b-a550f7411c44"},"vehicle_type_id":"4","last_reported":1746972537,"current_range_meters":18000,"station_id":"ce4bh012rcd13ifvqd10","pricing_plan_id":"cebpf4jnsgd1na2vs0mg"},{"bike_id":"b09f111b-cc11-4544-9b98-638004e7e438","system_id":"levelo_inurba_marseille","lat":43.30598,"lon":5.39368,"is_reserved":false,"is_disabled":false,"rental_uris":{"android":"levelo://app?vid=b09f111b-cc11-4544-9b98-638004e7e438","ios":"levelo://app?vid=b09f111b-cc11-4544-9b98-638004e7e438"},"vehicle_type_id":"4","last_reported":1746972537,"current_range_meters":18000,"station_id":"ce4bh0p2rcd13ifvqd80","pricing_plan_id":"cebpf4jnsgd1na2vs0mg"},{"bike_id":"49f81408-2818-4801-be40-a2021e895112","system_id":"levelo_inurba_marseille","lat":43.28271,"lon":5.35053,"is_reserved":false,"is_disabled":false,"rental_uris":{"android":"levelo://app?vid=49f81408-2818-4801-be40-a2021e895112","ios":"levelo://app?vid=49f81408-2818-4801-be40-a2021e895112"},"vehicle_type_id":"4","last_reported":1746972537,"current_range_meters":18000,"station_id":"ce4bhbp2rcd13ifvqerg","pricing_plan_id":"cebpf4jnsgd1na2vs0mg"},{"bike_id":"38bc3caf-c321-4107-a67e-0091289aa092","system_id":"levelo_inurba_marseille","lat":43.2781,"lon":5.40718,"is_reserved":false,"is_disabled":false,"rental_uris":{"android":"levelo://app?vid=38bc3caf-c321-4107-a67e-0091289aa092","ios":"levelo://app?vid=38bc3caf-c321-4107-a67e-0091289aa092"},"vehicle_type_id":"4","last_reported":1746972537,"current_range_meters":18000,"station_id":"ce4bhnh2rcd13ifvqgtg","pricing_plan_id":"cebpf4jnsgd1na2vs0mg"},{"bike_id":"b6f0504a-f7d7-4a97-b810-e7c9e7b1c671","system_id":"levelo_inurba_marseille","lat":43.27887,"lon":5.41277,"is_reserved":false,"is_disabled":false,"rental_uris":{"android":"levelo://app?vid=b6f0504a-f7d7-4a97-b810-e7c9e7b1c671","ios":"levelo://app?vid=b6f0504a-f7d7-4a97-b810-e7c9e7b1c671"},"vehicle_type_id":"4","last_reported":1746972537,"current_range_meters":18800,"station_id":"","pricing_plan_id":"cebpf4jnsgd1na2vs0mg"},{"bike_id":"546082e1-5bf4-4d49-8511-003bd5cbf11e","system_id":"levelo_inurba_marseille","lat":43.30885,"lon":5.39652,"is_reserved":false,"is_disabled":false,"rental_uris":{"android":"levelo://app?vid=546082e1-5bf4-4d49-8511-003bd5cbf11e","ios":"levelo://app?vid=546082e1-5bf4-4d49-8511-003bd5cbf11e"},"vehicle_type_id":"4","last_reported":1746972537,"current_range_meters":18800,"station_id":"ce4bh012rcd13ifvqcv0","pricing_plan_id":"cebpf4jnsgd1na2vs0mg"},{"bike_id":"b11766cb-22b8-431e-9cb2-16a7d2e68527","system_id":"levelo_inurba_marseille","lat":43.28011,"lon":5.41665,"is_reserved":false,"is_disabled":false,"rental_uris":{"android":"levelo://app?vid=b11766cb-22b8-431e-9cb2-16a7d2e68527","ios":"levelo://app?vid=b11766cb-22b8-431e-9cb2-16a7d2e68527"},"vehicle_type_id":"4","last_reported":1746972537,"current_range_meters":18800,"station_id":"ce4bho12rcd13ifvqh1g","pricing_plan_id":"cebpf4jnsgd1na2vs0mg"},{"bike_id":"395bf3fb-f048-4a74-afbe-e9fb0235e768","system_id":"levelo_inurba_marseille","lat":43.31284,"lon":5.37573,"is_reserved":false,"is_disabled":false,"rental_uris":{"android":"levelo://app?vid=395bf3fb-f048-4a74-afbe-e9fb0235e768","ios":"levelo://app?vid=395bf3fb-f048-4a74-afbe-e9fb0235e768"},"vehicle_type_id":"4","last_reported":1746972537,"current_range_meters":19200,"station_id":"","pricing_plan_id":"cebpf4jnsgd1na2vs0mg"},{"bike_id":"923bc3c8-9653-42f6-ab2d-a12cb585d499","system_id":"levelo_inurba_marseille","lat":43.29449,"lon":5.38696,"is_reserved":false,"is_disabled":false,"rental_uris":{"android":"levelo://app?vid=923bc3c8-9653-42f6-ab2d-a12cb585d499","ios":"levelo://app?vid=923bc3c8-9653-42f6-ab2d-a12cb585d499"},"vehicle_type_id":"4","last_reported":1746972537,"current_range_meters":19200,"station_id":"","pricing_plan_id":"cebpf4jnsgd1na2vs0mg"},{"bike_id":"9ac07f1c-7b81-4758-98cf-0c3a2b970896","system_id":"levelo_inurba_marseille","lat":43.28616,"lon":5.35102,"is_reserved":false,"is_disabled":false,"rental_uris":{"android":"levelo://app?vid=9ac07f1c-7b81-4758-98cf-0c3a2b970896","ios":"levelo://app?vid=9ac07f1c-7b81-4758-98cf-0c3a2b970896"},"vehicle_type_id":"4","last_reported":1746972537,"current_range_meters":19200,"station_id":"ce4bhch2rcd13ifvqeug","pricing_plan_id":"cebpf4jnsgd1na2vs0mg"},{"bike_id":"2a2e92a8-9be2-42a0-8f8b-e8c99ed20b3a","system_id":"levelo_inurba_marseille","lat":43.231618,"lon":5.399248,"is_reserved":false,"is_disabled":false,"rental_uris":{"android":"levelo://app?vid=2a2e92a8-9be2-42a0-8f8b-e8c99ed20b3a","ios":"levelo://app?vid=2a2e92a8-9be2-42a0-8f8b-e8c99ed20b3a"},"vehicle_type_id":"4","last_reported":1746972537,"current_range_meters":19600,"station_id":"","pricing_plan_id":"cebpf4jnsgd1na2vs0mg"},{"bike_id":"901d25d5-e0a4-4b9d-9519-beabbed3efe8","system_id":"levelo_inurba_marseille","lat":43.21186,"lon":5.35085,"is_reserved":false,"is_disabled":false,"rental_uris":{"android":"levelo://app?vid=901d25d5-e0a4-4b9d-9519-beabbed3efe8","ios":"levelo://app?vid=901d25d5-e0a4-4b9d-9519-beabbed3efe8"},"vehicle_type_id":"4","last_reported":1746972537,"current_range_meters":19600,"station_id":"st_cvj6sg6p6f1abm77japg","pricing_plan_id":"cebpf4jnsgd1na2vs0mg"},{"bike_id":"aca142bd-2716-4ee3-8c04-bd27c952c647","system_id":"levelo_inurba_marseille","lat":43.264592,"lon":5.374953,"is_reserved":false,"is_disabled":false,"rental_uris":{"android":"levelo://app?vid=aca142bd-2716-4ee3-8c04-bd27c952c647","ios":"levelo://app?vid=aca142bd-2716-4ee3-8c04-bd27c952c647"},"vehicle_type_id":"4","last_reported":1746972537,"current_range_meters":20000,"station_id":"","pricing_plan_id":"cebpf4jnsgd1na2vs0mg"},{"bike_id":"b07bfc09-4ee4-480d-951d-bf310d1d8d6c","system_id":"levelo_inurba_marseille","lat":43.321507,"lon":5.384695,"is_reserved":false,"is_disabled":false,"rental_uris":{"android":"levelo://app?vid=b07bfc09-4ee4-480d-951d-bf310d1d8d6c","ios":"levelo://app?vid=b07bfc09-4ee4-480d-951d-bf310d1d8d6c"},"vehicle_type_id":"4","last_reported":1746972537,"current_range_meters":20000,"station_id":"","pricing_plan_id":"cebpf4jnsgd1na2vs0mg"},{"bike_id":"e11e4109-5baf-4360-a832-83a0dbb2c199","system_id":"levelo_inurba_marseille","lat":43.30587,"lon":5.39347,"is_reserved":false,"is_disabled":false,"rental_uris":{"android":"levelo://app?vid=e11e4109-5baf-4360-a832-83a0dbb2c199","ios":"levelo://app?vid=e11e4109-5baf-4360-a832-83a0dbb2c199"},"vehicle_type_id":"4","last_reported":1746972537,"current_range_meters":20000,"station_id":"ce4bh0p2rcd13ifvqd80","pricing_plan_id":"cebpf4jnsgd1na2vs0mg"},{"bike_id":"3275e86f-c72f-4e7b-9bda-277b152f6896","system_id":"levelo_inurba_marseille","lat":43.31494,"lon":5.37307,"is_reserved":false,"is_disabled":false,"rental_uris":{"android":"levelo://app?vid=3275e86f-c72f-4e7b-9bda-277b152f6896","ios":"levelo://app?vid=3275e86f-c72f-4e7b-9bda-277b152f6896"},"vehicle_type_id":"4","last_reported":1746972537,"current_range_meters":20400,"station_id":"ce4bgt12rcd13ifvqcd0","pricing_plan_id":"cebpf4jnsgd1na2vs0mg"},{"bike_id":"cc64278d-218b-4375-8c37-0490e850458b","system_id":"levelo_inurba_marseille","lat":43.30636,"lon":5.40056,"is_reserved":false,"is_disabled":false,"rental_uris":{"android":"levelo://app?vid=cc64278d-218b-4375-8c37-0490e850458b","ios":"levelo://app?vid=cc64278d-218b-4375-8c37-0490e850458b"},"vehicle_type_id":"4","last_reported":1746972537,"current_range_meters":20400,"station_id":"ce4bh112rcd13ifvqda0","pricing_plan_id":"cebpf4jnsgd1na2vs0mg"},{"bike_id":"c0fc37c0-7a34-4285-89e4-f2b86fbf7452","system_id":"levelo_inurba_marseille","lat":43.24805,"lon":5.37457,"is_reserved":false,"is_disabled":false,"rental_uris":{"android":"levelo://app?vid=c0fc37c0-7a34-4285-89e4-f2b86fbf7452","ios":"levelo://app?vid=c0fc37c0-7a34-4285-89e4-f2b86fbf7452"},"vehicle_type_id":"4","last_reported":1746972537,"current_range_meters":20400,"station_id":"ce4bhgh2rcd13ifvqfb0","pricing_plan_id":"cebpf4jnsgd1na2vs0mg"},{"bike_id":"366cab92-afe2-42f0-9410-83676dc484f7","system_id":"levelo_inurba_marseille","lat":43.2511,"lon":5.403257,"is_reserved":false,"is_disabled":false,"rental_uris":{"android":"levelo://app?vid=366cab92-afe2-42f0-9410-83676dc484f7","ios":"levelo://app?vid=366cab92-afe2-42f0-9410-83676dc484f7"},"vehicle_type_id":"4","last_reported":1746972537,"current_range_meters":20400,"station_id":"ce4bhlh2rcd13ifvqgig","pricing_plan_id":"cebpf4jnsgd1na2vs0mg"},{"bike_id":"481452ad-7b35-4b78-beb0-57aa309059a9","system_id":"levelo_inurba_marseille","lat":43.28674,"lon":5.36352,"is_reserved":false,"is_disabled":false,"rental_uris":{"android":"levelo://app?vid=481452ad-7b35-4b78-beb0-57aa309059a9","ios":"levelo://app?vid=481452ad-7b35-4b78-beb0-57aa309059a9"},"vehicle_type_id":"4","last_reported":1746972537,"current_range_meters":20800,"station_id":"ce4bhah2rcd13ifvqej0","pricing_plan_id":"cebpf4jnsgd1na2vs0mg"},{"bike_id":"8ed78df5-8918-413b-a00c-a6a7ade95b85","system_id":"levelo_inurba_marseille","lat":43.29421,"lon":5.38617,"is_reserved":false,"is_disabled":false,"rental_uris":{"android":"levelo://app?vid=8ed78df5-8918-413b-a00c-a6a7ade95b85","ios":"levelo://app?vid=8ed78df5-8918-413b-a00c-a6a7ade95b85"},"vehicle_type_id":"4","last_reported":1746972537,"current_range_meters":21600,"station_id":"ce4bh2h2rcd13ifvqdh0","pricing_plan_id":"cebpf4jnsgd1na2vs0mg"},{"bike_id":"ca8bb738-de1b-45a5-9428-1b4f2a551172","system_id":"levelo_inurba_marseille","lat":43.26554,"lon":5.37284,"is_reserved":false,"is_disabled":false,"rental_uris":{"android":"levelo://app?vid=ca8bb738-de1b-45a5-9428-1b4f2a551172","ios":"levelo://app?vid=ca8bb738-de1b-45a5-9428-1b4f2a551172"},"vehicle_type_id":"4","last_reported":1746972537,"current_range_meters":21600,"station_id":"ce4bhg12rcd13ifvqf70","pricing_plan_id":"cebpf4jnsgd1na2vs0mg"},{"bike_id":"f6c38d18-46a4-4140-a702-0b784f8109a8","system_id":"levelo_inurba_marseille","lat":43.26506,"lon":5.39537,"is_reserved":false,"is_disabled":false,"rental_uris":{"android":"levelo://app?vid=f6c38d18-46a4-4140-a702-0b784f8109a8","ios":"levelo://app?vid=f6c38d18-46a4-4140-a702-0b784f8109a8"},"vehicle_type_id":"4","last_reported":1746972537,"current_range_meters":21600,"station_id":"ce4bhi12rcd13ifvqfq0","pricing_plan_id":"cebpf4jnsgd1na2vs0mg"},{"bike_id":"edeff76b-f072-46a3-a4be-17a30df75d29","system_id":"levelo_inurba_marseille","lat":43.33028,"lon":5.39037,"is_reserved":false,"is_disabled":false,"rental_uris":{"android":"levelo://app?vid=edeff76b-f072-46a3-a4be-17a30df75d29","ios":"levelo://app?vid=edeff76b-f072-46a3-a4be-17a30df75d29"},"vehicle_type_id":"4","last_reported":1746972537,"current_range_meters":21600,"station_id":"ce4bhr92rcd13ifvqhrg","pricing_plan_id":"cebpf4jnsgd1na2vs0mg"},{"bike_id":"55c209c7-d0f7-4c3b-b5ba-1c447e9c2f36","system_id":"levelo_inurba_marseille","lat":43.2844,"lon":5.41077,"is_reserved":false,"is_disabled":false,"rental_uris":{"android":"levelo://app?vid=55c209c7-d0f7-4c3b-b5ba-1c447e9c2f36","ios":"levelo://app?vid=55c209c7-d0f7-4c3b-b5ba-1c447e9c2f36"},"vehicle_type_id":"4","last_reported":1746972537,"current_range_meters":22000,"station_id":"","pricing_plan_id":"cebpf4jnsgd1na2vs0mg"},{"bike_id":"a2505e92-7475-41c4-aa2e-9b8bc32dde00","system_id":"levelo_inurba_marseille","lat":43.28619,"lon":5.35104,"is_reserved":false,"is_disabled":false,"rental_uris":{"android":"levelo://app?vid=a2505e92-7475-41c4-aa2e-9b8bc32dde00","ios":"levelo://app?vid=a2505e92-7475-41c4-aa2e-9b8bc32dde00"},"vehicle_type_id":"4","last_reported":1746972537,"current_range_meters":22000,"station_id":"ce4bhch2rcd13ifvqeug","pricing_plan_id":"cebpf4jnsgd1na2vs0mg"},{"bike_id":"cf96c7fb-c4cf-471a-9bde-df3142a2f178","system_id":"levelo_inurba_marseille","lat":43.25113,"lon":5.40347,"is_reserved":false,"is_disabled":false,"rental_uris":{"android":"levelo://app?vid=cf96c7fb-c4cf-471a-9bde-df3142a2f178","ios":"levelo://app?vid=cf96c7fb-c4cf-471a-9bde-df3142a2f178"},"vehicle_type_id":"4","last_reported":1746972537,"current_range_meters":22000,"station_id":"ce4bhlh2rcd13ifvqgig","pricing_plan_id":"cebpf4jnsgd1na2vs0mg"},{"bike_id":"14269fe1-60cd-4b6d-aac5-f248bc584035","system_id":"levelo_inurba_marseille","lat":43.303727,"lon":5.424872,"is_reserved":false,"is_disabled":false,"rental_uris":{"android":"levelo://app?vid=14269fe1-60cd-4b6d-aac5-f248bc584035","ios":"levelo://app?vid=14269fe1-60cd-4b6d-aac5-f248bc584035"},"vehicle_type_id":"4","last_reported":1746972537,"current_range_meters":22400,"station_id":"ce4bhoh2rcd13ifvqh6g","pricing_plan_id":"cebpf4jnsgd1na2vs0mg"},{"bike_id":"3b19c3f2-6859-4a32-883d-4c07f0fd947c","system_id":"levelo_inurba_marseille","lat":43.30819,"lon":5.3718,"is_reserved":false,"is_disabled":false,"rental_uris":{"android":"levelo://app?vid=3b19c3f2-6859-4a32-883d-4c07f0fd947c","ios":"levelo://app?vid=3b19c3f2-6859-4a32-883d-4c07f0fd947c"},"vehicle_type_id":"4","last_reported":1746972537,"current_range_meters":22800,"station_id":"","pricing_plan_id":"cebpf4jnsgd1na2vs0mg"},{"bike_id":"5f0ed116-72db-4fb3-bd15-6272510b3c2a","system_id":"levelo_inurba_marseille","lat":43.29305,"lon":5.37468,"is_reserved":false,"is_disabled":false,"rental_uris":{"android":"levelo://app?vid=5f0ed116-72db-4fb3-bd15-6272510b3c2a","ios":"levelo://app?vid=5f0ed116-72db-4fb3-bd15-6272510b3c2a"},"vehicle_type_id":"4","last_reported":1746972537,"current_range_meters":22800,"station_id":"ce4bgi12rcd13ifvqb70","pricing_plan_id":"cebpf4jnsgd1na2vs0mg"},{"bike_id":"b75a972b-6233-4226-8e84-d30f730b1685","system_id":"levelo_inurba_marseille","lat":43.29303,"lon":5.37457,"is_reserved":false,"is_disabled":false,"rental_uris":{"android":"levelo://app?vid=b75a972b-6233-4226-8e84-d30f730b1685","ios":"levelo://app?vid=b75a972b-6233-4226-8e84-d30f730b1685"},"vehicle_type_id":"4","last_reported":1746972537,"current_range_meters":22800,"station_id":"ce4bgi12rcd13ifvqb70","pricing_plan_id":"cebpf4jnsgd1na2vs0mg"},{"bike_id":"9c9a4253-ed22-4556-9874-02ca7a392df9","system_id":"levelo_inurba_marseille","lat":43.30437,"lon":5.39741,"is_reserved":false,"is_disabled":false,"rental_uris":{"android":"levelo://app?vid=9c9a4253-ed22-4556-9874-02ca7a392df9","ios":"levelo://app?vid=9c9a4253-ed22-4556-9874-02ca7a392df9"},"vehicle_type_id":"4","last_reported":1746972537,"current_range_meters":22800,"station_id":"ce4bh092rcd13ifvqd20","pricing_plan_id":"cebpf4jnsgd1na2vs0mg"},{"bike_id":"4ae2c6cd-48b5-412a-b67b-386d8fe1dc0f","system_id":"levelo_inurba_marseille","lat":43.27681,"lon":5.38897,"is_reserved":false,"is_disabled":false,"rental_uris":{"android":"levelo://app?vid=4ae2c6cd-48b5-412a-b67b-386d8fe1dc0f","ios":"levelo://app?vid=4ae2c6cd-48b5-412a-b67b-386d8fe1dc0f"},"vehicle_type_id":"4","last_reported":1746972537,"current_range_meters":22800,"station_id":"ce4bhi12rcd13ifvqfo0","pricing_plan_id":"cebpf4jnsgd1na2vs0mg"},{"bike_id":"2a96a40c-2f62-4a43-a1c1-fa8d235cb68d","system_id":"levelo_inurba_marseille","lat":43.31346,"lon":5.3761,"is_reserved":false,"is_disabled":false,"rental_uris":{"android":"levelo://app?vid=2a96a40c-2f62-4a43-a1c1-fa8d235cb68d","ios":"levelo://app?vid=2a96a40c-2f62-4a43-a1c1-fa8d235cb68d"},"vehicle_type_id":"4","last_reported":1746972537,"current_range_meters":23200,"station_id":"","pricing_plan_id":"cebpf4jnsgd1na2vs0mg"},{"bike_id":"c65512c4-82c1-47c2-bf84-cd1ad20db18e","system_id":"levelo_inurba_marseille","lat":43.32483,"lon":5.36561,"is_reserved":false,"is_disabled":false,"rental_uris":{"android":"levelo://app?vid=c65512c4-82c1-47c2-bf84-cd1ad20db18e","ios":"levelo://app?vid=c65512c4-82c1-47c2-bf84-cd1ad20db18e"},"vehicle_type_id":"4","last_reported":1746972537,"current_range_meters":23200,"station_id":"ce4bhs12rcd13ifvqhvg","pricing_plan_id":"cebpf4jnsgd1na2vs0mg"},{"bike_id":"a546a166-3357-42b2-be14-012e05b92d7d","system_id":"levelo_inurba_marseille","lat":43.32583,"lon":5.43058,"is_reserved":false,"is_disabled":false,"rental_uris":{"android":"levelo://app?vid=a546a166-3357-42b2-be14-012e05b92d7d","ios":"levelo://app?vid=a546a166-3357-42b2-be14-012e05b92d7d"},"vehicle_type_id":"4","last_reported":1746972537,"current_range_meters":24000,"station_id":"","pricing_plan_id":"cebpf4jnsgd1na2vs0mg"},{"bike_id":"327f63b1-1e21-41fe-bc0e-5aabadde0d25","system_id":"levelo_inurba_marseille","lat":43.26554,"lon":5.37287,"is_reserved":false,"is_disabled":false,"rental_uris":{"android":"levelo://app?vid=327f63b1-1e21-41fe-bc0e-5aabadde0d25","ios":"levelo://app?vid=327f63b1-1e21-41fe-bc0e-5aabadde0d25"},"vehicle_type_id":"4","last_reported":1746972537,"current_range_meters":24000,"station_id":"ce4bhg12rcd13ifvqf70","pricing_plan_id":"cebpf4jnsgd1na2vs0mg"},{"bike_id":"386bcf71-d4f0-4c51-ae27-c1d0e4e39151","system_id":"levelo_inurba_marseille","lat":43.26506,"lon":5.39532,"is_reserved":false,"is_disabled":false,"rental_uris":{"android":"levelo://app?vid=386bcf71-d4f0-4c51-ae27-c1d0e4e39151","ios":"levelo://app?vid=386bcf71-d4f0-4c51-ae27-c1d0e4e39151"},"vehicle_type_id":"4","last_reported":1746972537,"current_range_meters":24000,"station_id":"ce4bhi12rcd13ifvqfq0","pricing_plan_id":"cebpf4jnsgd1na2vs0mg"},{"bike_id":"0a58c277-b2a9-4dc8-87aa-cf12f87fe675","system_id":"levelo_inurba_marseille","lat":43.251156,"lon":5.403201,"is_reserved":false,"is_disabled":false,"rental_uris":{"android":"levelo://app?vid=0a58c277-b2a9-4dc8-87aa-cf12f87fe675","ios":"levelo://app?vid=0a58c277-b2a9-4dc8-87aa-cf12f87fe675"},"vehicle_type_id":"4","last_reported":1746972537,"current_range_meters":24400,"station_id":"ce4bhlh2rcd13ifvqgig","pricing_plan_id":"cebpf4jnsgd1na2vs0mg"},{"bike_id":"f986adab-af95-4003-91be-196549f1a6e5","system_id":"levelo_inurba_marseille","lat":43.29709,"lon":5.38377,"is_reserved":false,"is_disabled":false,"rental_uris":{"android":"levelo://app?vid=f986adab-af95-4003-91be-196549f1a6e5","ios":"levelo://app?vid=f986adab-af95-4003-91be-196549f1a6e5"},"vehicle_type_id":"4","last_reported":1746972537,"current_range_meters":24800,"station_id":"","pricing_plan_id":"cebpf4jnsgd1na2vs0mg"},{"bike_id":"fcf9463b-401b-4157-a5a9-4c36ca7d015d","system_id":"levelo_inurba_marseille","lat":43.306836,"lon":5.370539,"is_reserved":false,"is_disabled":false,"rental_uris":{"android":"levelo://app?vid=fcf9463b-401b-4157-a5a9-4c36ca7d015d","ios":"levelo://app?vid=fcf9463b-401b-4157-a5a9-4c36ca7d015d"},"vehicle_type_id":"4","last_reported":1746972537,"current_range_meters":24800,"station_id":"","pricing_plan_id":"cebpf4jnsgd1na2vs0mg"},{"bike_id":"929c97f1-90fa-4661-aee1-d21a5c909f93","system_id":"levelo_inurba_marseille","lat":43.30545,"lon":5.365439,"is_reserved":false,"is_disabled":false,"rental_uris":{"android":"levelo://app?vid=929c97f1-90fa-4661-aee1-d21a5c909f93","ios":"levelo://app?vid=929c97f1-90fa-4661-aee1-d21a5c909f93"},"vehicle_type_id":"4","last_reported":1746972537,"current_range_meters":24800,"station_id":"ce4bgs12rcd13ifvqcag","pricing_plan_id":"cebpf4jnsgd1na2vs0mg"},{"bike_id":"4c83fb99-f7aa-4d21-a0bc-16c01d84b914","system_id":"levelo_inurba_marseille","lat":43.29075,"lon":5.37181,"is_reserved":false,"is_disabled":false,"rental_uris":{"android":"levelo://app?vid=4c83fb99-f7aa-4d21-a0bc-16c01d84b914","ios":"levelo://app?vid=4c83fb99-f7aa-4d21-a0bc-16c01d84b914"},"vehicle_type_id":"4","last_reported":1746972537,"current_range_meters":24800,"station_id":"ce4bh5p2rcd13ifvqe4g","pricing_plan_id":"cebpf4jnsgd1na2vs0mg"},{"bike_id":"6b1992b4-2702-4a9f-8c5e-f05fee76333b","system_id":"levelo_inurba_marseille","lat":43.29075,"lon":5.37177,"is_reserved":false,"is_disabled":false,"rental_uris":{"android":"levelo://app?vid=6b1992b4-2702-4a9f-8c5e-f05fee76333b","ios":"levelo://app?vid=6b1992b4-2702-4a9f-8c5e-f05fee76333b"},"vehicle_type_id":"4","last_reported":1746972537,"current_range_meters":24800,"station_id":"ce4bh5p2rcd13ifvqe4g","pricing_plan_id":"cebpf4jnsgd1na2vs0mg"},{"bike_id":"934f5507-dc47-4676-b82f-3a37a467b409","system_id":"levelo_inurba_marseille","lat":43.28616,"lon":5.3511,"is_reserved":false,"is_disabled":false,"rental_uris":{"android":"levelo://app?vid=934f5507-dc47-4676-b82f-3a37a467b409","ios":"levelo://app?vid=934f5507-dc47-4676-b82f-3a37a467b409"},"vehicle_type_id":"4","last_reported":1746972537,"current_range_meters":24800,"station_id":"ce4bhch2rcd13ifvqeug","pricing_plan_id":"cebpf4jnsgd1na2vs0mg"},{"bike_id":"0f163f6f-2fd7-47c4-afbe-0afab9b852d1","system_id":"levelo_inurba_marseille","lat":43.28608,"lon":5.35104,"is_reserved":false,"is_disabled":false,"rental_uris":{"android":"levelo://app?vid=0f163f6f-2fd7-47c4-afbe-0afab9b852d1","ios":"levelo://app?vid=0f163f6f-2fd7-47c4-afbe-0afab9b852d1"},"vehicle_type_id":"4","last_reported":1746972537,"current_range_meters":24800,"station_id":"ce4bhch2rcd13ifvqeug","pricing_plan_id":"cebpf4jnsgd1na2vs0mg"},{"bike_id":"3a1f6d68-920d-4a60-b66c-76f47d561801","system_id":"levelo_inurba_marseille","lat":43.30249,"lon":5.40073,"is_reserved":false,"is_disabled":false,"rental_uris":{"android":"levelo://app?vid=3a1f6d68-920d-4a60-b66c-76f47d561801","ios":"levelo://app?vid=3a1f6d68-920d-4a60-b66c-76f47d561801"},"vehicle_type_id":"4","last_reported":1746972537,"current_range_meters":25200,"station_id":"ce4bgvh2rcd13ifvqcs0","pricing_plan_id":"cebpf4jnsgd1na2vs0mg"},{"bike_id":"61bc30da-5446-4008-b0ce-ab78f5a5f862","system_id":"levelo_inurba_marseille","lat":43.31186,"lon":5.37713,"is_reserved":false,"is_disabled":false,"rental_uris":{"android":"levelo://app?vid=61bc30da-5446-4008-b0ce-ab78f5a5f862","ios":"levelo://app?vid=61bc30da-5446-4008-b0ce-ab78f5a5f862"},"vehicle_type_id":"4","last_reported":1746972537,"current_range_meters":25600,"station_id":"","pricing_plan_id":"cebpf4jnsgd1na2vs0mg"},{"bike_id":"98fc7729-e632-413b-81ef-4cec09c553d4","system_id":"levelo_inurba_marseille","lat":43.291885,"lon":5.357554,"is_reserved":false,"is_disabled":false,"rental_uris":{"android":"levelo://app?vid=98fc7729-e632-413b-81ef-4cec09c553d4","ios":"levelo://app?vid=98fc7729-e632-413b-81ef-4cec09c553d4"},"vehicle_type_id":"4","last_reported":1746972537,"current_range_meters":25600,"station_id":"ce4bhb12rcd13ifvqel0","pricing_plan_id":"cebpf4jnsgd1na2vs0mg"},{"bike_id":"b35ee90c-5f4a-4ccb-8da8-cecb5d9deb1d","system_id":"levelo_inurba_marseille","lat":43.22506,"lon":5.3479,"is_reserved":false,"is_disabled":false,"rental_uris":{"android":"levelo://app?vid=b35ee90c-5f4a-4ccb-8da8-cecb5d9deb1d","ios":"levelo://app?vid=b35ee90c-5f4a-4ccb-8da8-cecb5d9deb1d"},"vehicle_type_id":"4","last_reported":1746972537,"current_range_meters":25600,"station_id":"st_cvj5dfep6f1abm77gieg","pricing_plan_id":"cebpf4jnsgd1na2vs0mg"},{"bike_id":"543a09e9-f3f2-482a-a555-071e7374f5c6","system_id":"levelo_inurba_marseille","lat":43.21806,"lon":5.34595,"is_reserved":false,"is_disabled":false,"rental_uris":{"android":"levelo://app?vid=543a09e9-f3f2-482a-a555-071e7374f5c6","ios":"levelo://app?vid=543a09e9-f3f2-482a-a555-071e7374f5c6"},"vehicle_type_id":"4","last_reported":1746972537,"current_range_meters":25600,"station_id":"st_cvj6r9ubvosntc0bgbag","pricing_plan_id":"cebpf4jnsgd1na2vs0mg"},{"bike_id":"362c81a6-8d17-4b29-a3db-7caf0cb06275","system_id":"levelo_inurba_marseille","lat":43.29157,"lon":5.35611,"is_reserved":false,"is_disabled":false,"rental_uris":{"android":"levelo://app?vid=362c81a6-8d17-4b29-a3db-7caf0cb06275","ios":"levelo://app?vid=362c81a6-8d17-4b29-a3db-7caf0cb06275"},"vehicle_type_id":"4","last_reported":1746972537,"current_range_meters":26000,"station_id":"","pricing_plan_id":"cebpf4jnsgd1na2vs0mg"},{"bike_id":"9dc9500d-5452-449a-8dab-bbbc7986182a","system_id":"levelo_inurba_marseille","lat":43.293072,"lon":5.374469,"is_reserved":false,"is_disabled":false,"rental_uris":{"android":"levelo://app?vid=9dc9500d-5452-449a-8dab-bbbc7986182a","ios":"levelo://app?vid=9dc9500d-5452-449a-8dab-bbbc7986182a"},"vehicle_type_id":"4","last_reported":1746972537,"current_range_meters":26000,"station_id":"ce4bgi12rcd13ifvqb70","pricing_plan_id":"cebpf4jnsgd1na2vs0mg"},{"bike_id":"6ffa96cb-bc57-44c0-9949-ef04aad07c7b","system_id":"levelo_inurba_marseille","lat":43.29619,"lon":5.37727,"is_reserved":false,"is_disabled":false,"rental_uris":{"android":"levelo://app?vid=6ffa96cb-bc57-44c0-9949-ef04aad07c7b","ios":"levelo://app?vid=6ffa96cb-bc57-44c0-9949-ef04aad07c7b"},"vehicle_type_id":"4","last_reported":1746972537,"current_range_meters":27200,"station_id":"ce4bgi92rcd13ifvqb90","pricing_plan_id":"cebpf4jnsgd1na2vs0mg"},{"bike_id":"7a34b0f1-ad4f-46c2-962b-c43b9881b19a","system_id":"levelo_inurba_marseille","lat":43.30427,"lon":5.39741,"is_reserved":false,"is_disabled":false,"rental_uris":{"android":"levelo://app?vid=7a34b0f1-ad4f-46c2-962b-c43b9881b19a","ios":"levelo://app?vid=7a34b0f1-ad4f-46c2-962b-c43b9881b19a"},"vehicle_type_id":"4","last_reported":1746972537,"current_range_meters":27200,"station_id":"ce4bh092rcd13ifvqd20","pricing_plan_id":"cebpf4jnsgd1na2vs0mg"},{"bike_id":"18c39bbb-0949-4dad-9101-21bc2482315f","system_id":"levelo_inurba_marseille","lat":43.249992,"lon":5.389339,"is_reserved":false,"is_disabled":false,"rental_uris":{"android":"levelo://app?vid=18c39bbb-0949-4dad-9101-21bc2482315f","ios":"levelo://app?vid=18c39bbb-0949-4dad-9101-21bc2482315f"},"vehicle_type_id":"4","last_reported":1746972537,"current_range_meters":27200,"station_id":"ce4bhgp2rcd13ifvqfd0","pricing_plan_id":"cebpf4jnsgd1na2vs0mg"},{"bike_id":"847d6692-e6d3-4857-ad02-806de247bacc","system_id":"levelo_inurba_marseille","lat":43.24378,"lon":5.37097,"is_reserved":false,"is_disabled":false,"rental_uris":{"android":"levelo://app?vid=847d6692-e6d3-4857-ad02-806de247bacc","ios":"levelo://app?vid=847d6692-e6d3-4857-ad02-806de247bacc"},"vehicle_type_id":"4","last_reported":1746972537,"current_range_meters":27200,"station_id":"ce4bhhh2rcd13ifvqfk0","pricing_plan_id":"cebpf4jnsgd1na2vs0mg"},{"bike_id":"41869887-553f-4046-a1a2-547d68ab564f","system_id":"levelo_inurba_marseille","lat":43.2849,"lon":5.38419,"is_reserved":false,"is_disabled":false,"rental_uris":{"android":"levelo://app?vid=41869887-553f-4046-a1a2-547d68ab564f","ios":"levelo://app?vid=41869887-553f-4046-a1a2-547d68ab564f"},"vehicle_type_id":"4","last_reported":1746972537,"current_range_meters":27600,"station_id":"ce4bh512rcd13ifvqe3g","pricing_plan_id":"cebpf4jnsgd1na2vs0mg"},{"bike_id":"ec09d92a-f7a0-4e6e-b9b4-72bb725e2fb6","system_id":"levelo_inurba_marseille","lat":43.26057,"lon":5.39395,"is_reserved":false,"is_disabled":false,"rental_uris":{"android":"levelo://app?vid=ec09d92a-f7a0-4e6e-b9b4-72bb725e2fb6","ios":"levelo://app?vid=ec09d92a-f7a0-4e6e-b9b4-72bb725e2fb6"},"vehicle_type_id":"4","last_reported":1746972537,"current_range_meters":27600,"station_id":"ce4bhh92rcd13ifvqfj0","pricing_plan_id":"cebpf4jnsgd1na2vs0mg"},{"bike_id":"a6f40057-630f-4f15-af0e-5ca022368b43","system_id":"levelo_inurba_marseille","lat":43.27058,"lon":5.4025,"is_reserved":false,"is_disabled":false,"rental_uris":{"android":"levelo://app?vid=a6f40057-630f-4f15-af0e-5ca022368b43","ios":"levelo://app?vid=a6f40057-630f-4f15-af0e-5ca022368b43"},"vehicle_type_id":"4","last_reported":1746972537,"current_range_meters":27600,"station_id":"ce4bhk92rcd13ifvqgc0","pricing_plan_id":"cebpf4jnsgd1na2vs0mg"},{"bike_id":"3b2529ba-f111-4706-be56-7b3096805db9","system_id":"levelo_inurba_marseille","lat":43.279803,"lon":5.410837,"is_reserved":false,"is_disabled":false,"rental_uris":{"android":"levelo://app?vid=3b2529ba-f111-4706-be56-7b3096805db9","ios":"levelo://app?vid=3b2529ba-f111-4706-be56-7b3096805db9"},"vehicle_type_id":"4","last_reported":1746972537,"current_range_meters":27600,"station_id":"ce4bhnp2rcd13ifvqh0g","pricing_plan_id":"cebpf4jnsgd1na2vs0mg"},{"bike_id":"f30700cd-2b15-4379-bae3-a617af060209","system_id":"levelo_inurba_marseille","lat":43.21748,"lon":5.34604,"is_reserved":false,"is_disabled":false,"rental_uris":{"android":"levelo://app?vid=f30700cd-2b15-4379-bae3-a617af060209","ios":"levelo://app?vid=f30700cd-2b15-4379-bae3-a617af060209"},"vehicle_type_id":"4","last_reported":1746972537,"current_range_meters":27600,"station_id":"st_cvj6r9ubvosntc0bgbag","pricing_plan_id":"cebpf4jnsgd1na2vs0mg"},{"bike_id":"f42aa8b6-f4ed-450d-a222-b91a9711e74a","system_id":"levelo_inurba_marseille","lat":43.2957,"lon":5.3752,"is_reserved":false,"is_disabled":false,"rental_uris":{"android":"levelo://app?vid=f42aa8b6-f4ed-450d-a222-b91a9711e74a","ios":"levelo://app?vid=f42aa8b6-f4ed-450d-a222-b91a9711e74a"},"vehicle_type_id":"4","last_reported":1746972537,"current_range_meters":28000,"station_id":"ce4bgh92rcd13ifvqb50","pricing_plan_id":"cebpf4jnsgd1na2vs0mg"},{"bike_id":"9b0fef64-2ee7-434b-9661-646e0f69c4b4","system_id":"levelo_inurba_marseille","lat":43.30338,"lon":5.40428,"is_reserved":false,"is_disabled":false,"rental_uris":{"android":"levelo://app?vid=9b0fef64-2ee7-434b-9661-646e0f69c4b4","ios":"levelo://app?vid=9b0fef64-2ee7-434b-9661-646e0f69c4b4"},"vehicle_type_id":"4","last_reported":1746972537,"current_range_meters":28000,"station_id":"ce4bh012rcd13ifvqd10","pricing_plan_id":"cebpf4jnsgd1na2vs0mg"},{"bike_id":"473a519d-09d4-4319-a10a-ebece74506aa","system_id":"levelo_inurba_marseille","lat":43.289449,"lon":5.408071,"is_reserved":false,"is_disabled":false,"rental_uris":{"android":"levelo://app?vid=473a519d-09d4-4319-a10a-ebece74506aa","ios":"levelo://app?vid=473a519d-09d4-4319-a10a-ebece74506aa"},"vehicle_type_id":"4","last_reported":1746972537,"current_range_meters":28000,"station_id":"ce4bh192rcd13ifvqdc0","pricing_plan_id":"cebpf4jnsgd1na2vs0mg"},{"bike_id":"cb7b42f5-3664-4975-8de6-2fcd3bb7bf66","system_id":"levelo_inurba_marseille","lat":43.27371,"lon":5.3626,"is_reserved":false,"is_disabled":false,"rental_uris":{"android":"levelo://app?vid=cb7b42f5-3664-4975-8de6-2fcd3bb7bf66","ios":"levelo://app?vid=cb7b42f5-3664-4975-8de6-2fcd3bb7bf66"},"vehicle_type_id":"4","last_reported":1746972537,"current_range_meters":28000,"station_id":"ce4bhbh2rcd13ifvqeo0","pricing_plan_id":"cebpf4jnsgd1na2vs0mg"},{"bike_id":"7864da10-8763-4178-b12c-0131a0a147fb","system_id":"levelo_inurba_marseille","lat":43.28001,"lon":5.40004,"is_reserved":false,"is_disabled":false,"rental_uris":{"android":"levelo://app?vid=7864da10-8763-4178-b12c-0131a0a147fb","ios":"levelo://app?vid=7864da10-8763-4178-b12c-0131a0a147fb"},"vehicle_type_id":"4","last_reported":1746972537,"current_range_meters":28000,"station_id":"ce4bho92rcd13ifvqh4g","pricing_plan_id":"cebpf4jnsgd1na2vs0mg"},{"bike_id":"e648a593-d519-4638-a96b-e759c1833772","system_id":"levelo_inurba_marseille","lat":43.24173,"lon":5.36393,"is_reserved":false,"is_disabled":false,"rental_uris":{"android":"levelo://app?vid=e648a593-d519-4638-a96b-e759c1833772","ios":"levelo://app?vid=e648a593-d519-4638-a96b-e759c1833772"},"vehicle_type_id":"4","last_reported":1746972537,"current_range_meters":28000,"station_id":"cpo36qri1sfpv3e86is0","pricing_plan_id":"cebpf4jnsgd1na2vs0mg"},{"bike_id":"06426f58-e01e-4c8a-8dcf-b1b6281cbae5","system_id":"levelo_inurba_marseille","lat":43.29037,"lon":5.35742,"is_reserved":false,"is_disabled":false,"rental_uris":{"android":"levelo://app?vid=06426f58-e01e-4c8a-8dcf-b1b6281cbae5","ios":"levelo://app?vid=06426f58-e01e-4c8a-8dcf-b1b6281cbae5"},"vehicle_type_id":"4","last_reported":1746972537,"current_range_meters":28400,"station_id":"","pricing_plan_id":"cebpf4jnsgd1na2vs0mg"},{"bike_id":"e172af54-51e9-411c-9765-01487529519e","system_id":"levelo_inurba_marseille","lat":43.29763,"lon":5.36172,"is_reserved":false,"is_disabled":false,"rental_uris":{"android":"levelo://app?vid=e172af54-51e9-411c-9765-01487529519e","ios":"levelo://app?vid=e172af54-51e9-411c-9765-01487529519e"},"vehicle_type_id":"4","last_reported":1746972537,"current_range_meters":28400,"station_id":"","pricing_plan_id":"cebpf4jnsgd1na2vs0mg"},{"bike_id":"4ec76d6f-5519-4ef9-abb7-06d515bb3740","system_id":"levelo_inurba_marseille","lat":43.27566,"lon":5.38429,"is_reserved":false,"is_disabled":false,"rental_uris":{"android":"levelo://app?vid=4ec76d6f-5519-4ef9-abb7-06d515bb3740","ios":"levelo://app?vid=4ec76d6f-5519-4ef9-abb7-06d515bb3740"},"vehicle_type_id":"4","last_reported":1746972537,"current_range_meters":28400,"station_id":"ce4bhh92rcd13ifvqfi0","pricing_plan_id":"cebpf4jnsgd1na2vs0mg"},{"bike_id":"31c19bbc-5621-4ebd-9813-d3ac73812f2b","system_id":"levelo_inurba_marseille","lat":43.24171,"lon":5.36395,"is_reserved":false,"is_disabled":false,"rental_uris":{"android":"levelo://app?vid=31c19bbc-5621-4ebd-9813-d3ac73812f2b","ios":"levelo://app?vid=31c19bbc-5621-4ebd-9813-d3ac73812f2b"},"vehicle_type_id":"4","last_reported":1746972537,"current_range_meters":28400,"station_id":"cpo36qri1sfpv3e86is0","pricing_plan_id":"cebpf4jnsgd1na2vs0mg"},{"bike_id":"a826ed0f-f3cf-4bc3-851b-f11ea46b4f18","system_id":"levelo_inurba_marseille","lat":43.21753,"lon":5.34609,"is_reserved":false,"is_disabled":false,"rental_uris":{"android":"levelo://app?vid=a826ed0f-f3cf-4bc3-851b-f11ea46b4f18","ios":"levelo://app?vid=a826ed0f-f3cf-4bc3-851b-f11ea46b4f18"},"vehicle_type_id":"4","last_reported":1746972537,"current_range_meters":28400,"station_id":"st_cvj6r9ubvosntc0bgbag","pricing_plan_id":"cebpf4jnsgd1na2vs0mg"},{"bike_id":"89996d0f-8ca7-4264-b7d0-86131436a61c","system_id":"levelo_inurba_marseille","lat":43.217475,"lon":5.346142,"is_reserved":false,"is_disabled":false,"rental_uris":{"android":"levelo://app?vid=89996d0f-8ca7-4264-b7d0-86131436a61c","ios":"levelo://app?vid=89996d0f-8ca7-4264-b7d0-86131436a61c"},"vehicle_type_id":"4","last_reported":1746972537,"current_range_meters":28400,"station_id":"st_cvj6r9ubvosntc0bgbag","pricing_plan_id":"cebpf4jnsgd1na2vs0mg"},{"bike_id":"98217d88-b75a-490c-8c7a-b91942611aab","system_id":"levelo_inurba_marseille","lat":43.30218,"lon":5.3947,"is_reserved":false,"is_disabled":false,"rental_uris":{"android":"levelo://app?vid=98217d88-b75a-490c-8c7a-b91942611aab","ios":"levelo://app?vid=98217d88-b75a-490c-8c7a-b91942611aab"},"vehicle_type_id":"4","last_reported":1746972537,"current_range_meters":28800,"station_id":"ce4bh0p2rcd13ifvqd70","pricing_plan_id":"cebpf4jnsgd1na2vs0mg"},{"bike_id":"38c80d7b-3c76-4afc-a74c-f2abd6e7aa24","system_id":"levelo_inurba_marseille","lat":43.28618,"lon":5.35094,"is_reserved":false,"is_disabled":false,"rental_uris":{"android":"levelo://app?vid=38c80d7b-3c76-4afc-a74c-f2abd6e7aa24","ios":"levelo://app?vid=38c80d7b-3c76-4afc-a74c-f2abd6e7aa24"},"vehicle_type_id":"4","last_reported":1746972537,"current_range_meters":28800,"station_id":"ce4bhch2rcd13ifvqeug","pricing_plan_id":"cebpf4jnsgd1na2vs0mg"},{"bike_id":"9c3d250f-1b7f-43a3-91c9-1cfcc90fef9d","system_id":"levelo_inurba_marseille","lat":43.24664,"lon":5.38163,"is_reserved":false,"is_disabled":false,"rental_uris":{"android":"levelo://app?vid=9c3d250f-1b7f-43a3-91c9-1cfcc90fef9d","ios":"levelo://app?vid=9c3d250f-1b7f-43a3-91c9-1cfcc90fef9d"},"vehicle_type_id":"4","last_reported":1746972537,"current_range_meters":28800,"station_id":"ce4bhih2rcd13ifvqfr0","pricing_plan_id":"cebpf4jnsgd1na2vs0mg"},{"bike_id":"1297402a-0699-4324-a067-80a0da342625","system_id":"levelo_inurba_marseille","lat":43.25721,"lon":5.41116,"is_reserved":false,"is_disabled":false,"rental_uris":{"android":"levelo://app?vid=1297402a-0699-4324-a067-80a0da342625","ios":"levelo://app?vid=1297402a-0699-4324-a067-80a0da342625"},"vehicle_type_id":"4","last_reported":1746972537,"current_range_meters":28800,"station_id":"ce4bhkp2rcd13ifvqgd0","pricing_plan_id":"cebpf4jnsgd1na2vs0mg"},{"bike_id":"9adfc852-0050-401b-ae90-e75d1847a329","system_id":"levelo_inurba_marseille","lat":43.241785,"lon":5.397296,"is_reserved":false,"is_disabled":false,"rental_uris":{"android":"levelo://app?vid=9adfc852-0050-401b-ae90-e75d1847a329","ios":"levelo://app?vid=9adfc852-0050-401b-ae90-e75d1847a329"},"vehicle_type_id":"4","last_reported":1746972537,"current_range_meters":28800,"station_id":"ce4bhn12rcd13ifvqgpg","pricing_plan_id":"cebpf4jnsgd1na2vs0mg"},{"bike_id":"9bab3335-b94e-4440-8517-6d191e301ffb","system_id":"levelo_inurba_marseille","lat":43.3176,"lon":5.39011,"is_reserved":false,"is_disabled":false,"rental_uris":{"android":"levelo://app?vid=9bab3335-b94e-4440-8517-6d191e301ffb","ios":"levelo://app?vid=9bab3335-b94e-4440-8517-6d191e301ffb"},"vehicle_type_id":"4","last_reported":1746972537,"current_range_meters":28800,"station_id":"ce4bhqp2rcd13ifvqhng","pricing_plan_id":"cebpf4jnsgd1na2vs0mg"},{"bike_id":"a30caeef-10cc-433b-ab2e-0e5695eed2d1","system_id":"levelo_inurba_marseille","lat":43.29545,"lon":5.38536,"is_reserved":false,"is_disabled":false,"rental_uris":{"android":"levelo://app?vid=a30caeef-10cc-433b-ab2e-0e5695eed2d1","ios":"levelo://app?vid=a30caeef-10cc-433b-ab2e-0e5695eed2d1"},"vehicle_type_id":"4","last_reported":1746972537,"current_range_meters":29600,"station_id":"ce4bgih2rcd13ifvqba0","pricing_plan_id":"cebpf4jnsgd1na2vs0mg"},{"bike_id":"d988fe68-e233-41d9-a23a-31e4ef3aaeaf","system_id":"levelo_inurba_marseille","lat":43.31224,"lon":5.36855,"is_reserved":false,"is_disabled":false,"rental_uris":{"android":"levelo://app?vid=d988fe68-e233-41d9-a23a-31e4ef3aaeaf","ios":"levelo://app?vid=d988fe68-e233-41d9-a23a-31e4ef3aaeaf"},"vehicle_type_id":"4","last_reported":1746972537,"current_range_meters":29600,"station_id":"ce4bgl92rcd13ifvqbq0","pricing_plan_id":"cebpf4jnsgd1na2vs0mg"},{"bike_id":"a08e7002-ff51-488f-8fcf-4944ef128687","system_id":"levelo_inurba_marseille","lat":43.31495,"lon":5.372246,"is_reserved":false,"is_disabled":false,"rental_uris":{"android":"levelo://app?vid=a08e7002-ff51-488f-8fcf-4944ef128687","ios":"levelo://app?vid=a08e7002-ff51-488f-8fcf-4944ef128687"},"vehicle_type_id":"4","last_reported":1746972537,"current_range_meters":29600,"station_id":"ce4bgt12rcd13ifvqcd0","pricing_plan_id":"cebpf4jnsgd1na2vs0mg"},{"bike_id":"19c0d2fd-d804-4286-9c48-a283cf4e0dbb","system_id":"levelo_inurba_marseille","lat":43.26562,"lon":5.37291,"is_reserved":false,"is_disabled":false,"rental_uris":{"android":"levelo://app?vid=19c0d2fd-d804-4286-9c48-a283cf4e0dbb","ios":"levelo://app?vid=19c0d2fd-d804-4286-9c48-a283cf4e0dbb"},"vehicle_type_id":"4","last_reported":1746972537,"current_range_meters":29600,"station_id":"ce4bhg12rcd13ifvqf70","pricing_plan_id":"cebpf4jnsgd1na2vs0mg"},{"bike_id":"b5c41c97-bba4-484b-903c-8bffd6c092f1","system_id":"levelo_inurba_marseille","lat":43.27938,"lon":5.41036,"is_reserved":false,"is_disabled":false,"rental_uris":{"android":"levelo://app?vid=b5c41c97-bba4-484b-903c-8bffd6c092f1","ios":"levelo://app?vid=b5c41c97-bba4-484b-903c-8bffd6c092f1"},"vehicle_type_id":"4","last_reported":1746972537,"current_range_meters":29600,"station_id":"ce4bhnp2rcd13ifvqh0g","pricing_plan_id":"cebpf4jnsgd1na2vs0mg"},{"bike_id":"e5a6df01-5e04-4be2-bfed-70a026cb5e84","system_id":"levelo_inurba_marseille","lat":43.27626,"lon":5.36105,"is_reserved":false,"is_disabled":false,"rental_uris":{"android":"levelo://app?vid=e5a6df01-5e04-4be2-bfed-70a026cb5e84","ios":"levelo://app?vid=e5a6df01-5e04-4be2-bfed-70a026cb5e84"},"vehicle_type_id":"4","last_reported":1746972537,"current_range_meters":30000,"station_id":"ce4bgj92rcd13ifvqbe0","pricing_plan_id":"cebpf4jnsgd1na2vs0mg"},{"bike_id":"bb2939a4-db1e-4914-8615-26622562086c","system_id":"levelo_inurba_marseille","lat":43.27625,"lon":5.36103,"is_reserved":false,"is_disabled":false,"rental_uris":{"android":"levelo://app?vid=bb2939a4-db1e-4914-8615-26622562086c","ios":"levelo://app?vid=bb2939a4-db1e-4914-8615-26622562086c"},"vehicle_type_id":"4","last_reported":1746972537,"current_range_meters":30000,"station_id":"ce4bgj92rcd13ifvqbe0","pricing_plan_id":"cebpf4jnsgd1na2vs0mg"},{"bike_id":"ef32cdbf-2296-446b-865c-1f6d563e6e80","system_id":"levelo_inurba_marseille","lat":43.28043,"lon":5.36945,"is_reserved":false,"is_disabled":false,"rental_uris":{"android":"levelo://app?vid=ef32cdbf-2296-446b-865c-1f6d563e6e80","ios":"levelo://app?vid=ef32cdbf-2296-446b-865c-1f6d563e6e80"},"vehicle_type_id":"4","last_reported":1746972537,"current_range_meters":30000,"station_id":"ce4bha12rcd13ifvqef0","pricing_plan_id":"cebpf4jnsgd1na2vs0mg"},{"bike_id":"e735cc6f-7322-48cc-a6e5-18ccf5733adb","system_id":"levelo_inurba_marseille","lat":43.2251,"lon":5.34805,"is_reserved":false,"is_disabled":false,"rental_uris":{"android":"levelo://app?vid=e735cc6f-7322-48cc-a6e5-18ccf5733adb","ios":"levelo://app?vid=e735cc6f-7322-48cc-a6e5-18ccf5733adb"},"vehicle_type_id":"4","last_reported":1746972537,"current_range_meters":30000,"station_id":"st_cvj5dfep6f1abm77gieg","pricing_plan_id":"cebpf4jnsgd1na2vs0mg"},{"bike_id":"4c553312-7a56-4420-94be-4db995548186","system_id":"levelo_inurba_marseille","lat":43.29335,"lon":5.43453,"is_reserved":false,"is_disabled":false,"rental_uris":{"android":"levelo://app?vid=4c553312-7a56-4420-94be-4db995548186","ios":"levelo://app?vid=4c553312-7a56-4420-94be-4db995548186"},"vehicle_type_id":"4","last_reported":1746972537,"current_range_meters":30400,"station_id":"","pricing_plan_id":"cebpf4jnsgd1na2vs0mg"},{"bike_id":"596c5539-c13b-4d82-89b9-77c7aa0ecbfe","system_id":"levelo_inurba_marseille","lat":43.34227,"lon":5.3861,"is_reserved":false,"is_disabled":false,"rental_uris":{"android":"levelo://app?vid=596c5539-c13b-4d82-89b9-77c7aa0ecbfe","ios":"levelo://app?vid=596c5539-c13b-4d82-89b9-77c7aa0ecbfe"},"vehicle_type_id":"4","last_reported":1746972537,"current_range_meters":30400,"station_id":"","pricing_plan_id":"cebpf4jnsgd1na2vs0mg"},{"bike_id":"a300e9b5-143d-4074-8c14-e3949f3172cc","system_id":"levelo_inurba_marseille","lat":43.260618,"lon":5.39398,"is_reserved":false,"is_disabled":false,"rental_uris":{"android":"levelo://app?vid=a300e9b5-143d-4074-8c14-e3949f3172cc","ios":"levelo://app?vid=a300e9b5-143d-4074-8c14-e3949f3172cc"},"vehicle_type_id":"4","last_reported":1746972537,"current_range_meters":30400,"station_id":"ce4bhh92rcd13ifvqfj0","pricing_plan_id":"cebpf4jnsgd1na2vs0mg"},{"bike_id":"0f676d8c-1c34-4eaf-8b5e-fb63a175a56d","system_id":"levelo_inurba_marseille","lat":43.29853,"lon":5.36291,"is_reserved":false,"is_disabled":false,"rental_uris":{"android":"levelo://app?vid=0f676d8c-1c34-4eaf-8b5e-fb63a175a56d","ios":"levelo://app?vid=0f676d8c-1c34-4eaf-8b5e-fb63a175a56d"},"vehicle_type_id":"4","last_reported":1746972537,"current_range_meters":30800,"station_id":"ce4bgpp2rcd13ifvqc3g","pricing_plan_id":"cebpf4jnsgd1na2vs0mg"},{"bike_id":"b7311931-b9e8-4040-951c-8d8e886a703f","system_id":"levelo_inurba_marseille","lat":43.30932,"lon":5.4014,"is_reserved":false,"is_disabled":false,"rental_uris":{"android":"levelo://app?vid=b7311931-b9e8-4040-951c-8d8e886a703f","ios":"levelo://app?vid=b7311931-b9e8-4040-951c-8d8e886a703f"},"vehicle_type_id":"4","last_reported":1746972537,"current_range_meters":30800,"station_id":"ce4bgvp2rcd13ifvqct0","pricing_plan_id":"cebpf4jnsgd1na2vs0mg"},{"bike_id":"d7d21bfe-0cab-46fb-a384-72081eda0a31","system_id":"levelo_inurba_marseille","lat":43.30932,"lon":5.40139,"is_reserved":false,"is_disabled":false,"rental_uris":{"android":"levelo://app?vid=d7d21bfe-0cab-46fb-a384-72081eda0a31","ios":"levelo://app?vid=d7d21bfe-0cab-46fb-a384-72081eda0a31"},"vehicle_type_id":"4","last_reported":1746972537,"current_range_meters":30800,"station_id":"ce4bgvp2rcd13ifvqct0","pricing_plan_id":"cebpf4jnsgd1na2vs0mg"},{"bike_id":"8ca7f4be-37fb-47ec-8f0d-00dcb483855b","system_id":"levelo_inurba_marseille","lat":43.282559,"lon":5.424141,"is_reserved":false,"is_disabled":false,"rental_uris":{"android":"levelo://app?vid=8ca7f4be-37fb-47ec-8f0d-00dcb483855b","ios":"levelo://app?vid=8ca7f4be-37fb-47ec-8f0d-00dcb483855b"},"vehicle_type_id":"4","last_reported":1746972537,"current_range_meters":31200,"station_id":"","pricing_plan_id":"cebpf4jnsgd1na2vs0mg"},{"bike_id":"24bc86b5-93de-4ecd-9ae6-9c6af7f80533","system_id":"levelo_inurba_marseille","lat":43.29553,"lon":5.37547,"is_reserved":false,"is_disabled":false,"rental_uris":{"android":"levelo://app?vid=24bc86b5-93de-4ecd-9ae6-9c6af7f80533","ios":"levelo://app?vid=24bc86b5-93de-4ecd-9ae6-9c6af7f80533"},"vehicle_type_id":"4","last_reported":1746972537,"current_range_meters":31200,"station_id":"ce4bgh92rcd13ifvqb50","pricing_plan_id":"cebpf4jnsgd1na2vs0mg"},{"bike_id":"f7ccd831-32e8-450b-9e09-23542eb3912e","system_id":"levelo_inurba_marseille","lat":43.30199,"lon":5.36612,"is_reserved":false,"is_disabled":false,"rental_uris":{"android":"levelo://app?vid=f7ccd831-32e8-450b-9e09-23542eb3912e","ios":"levelo://app?vid=f7ccd831-32e8-450b-9e09-23542eb3912e"},"vehicle_type_id":"4","last_reported":1746972537,"current_range_meters":31200,"station_id":"ce4bgrh2rcd13ifvqc8g","pricing_plan_id":"cebpf4jnsgd1na2vs0mg"},{"bike_id":"2674c3f7-fde8-4c6e-b9d2-8487e8f17f78","system_id":"levelo_inurba_marseille","lat":43.2315,"lon":5.35558,"is_reserved":false,"is_disabled":false,"rental_uris":{"android":"levelo://app?vid=2674c3f7-fde8-4c6e-b9d2-8487e8f17f78","ios":"levelo://app?vid=2674c3f7-fde8-4c6e-b9d2-8487e8f17f78"},"vehicle_type_id":"4","last_reported":1746972537,"current_range_meters":31200,"station_id":"ce4bhu92rcd13ifvqi70","pricing_plan_id":"cebpf4jnsgd1na2vs0mg"},{"bike_id":"c94b4ae4-ff44-4bd1-afc9-a3d12cc4bbc2","system_id":"levelo_inurba_marseille","lat":43.26232,"lon":5.37468,"is_reserved":false,"is_disabled":false,"rental_uris":{"android":"levelo://app?vid=c94b4ae4-ff44-4bd1-afc9-a3d12cc4bbc2","ios":"levelo://app?vid=c94b4ae4-ff44-4bd1-afc9-a3d12cc4bbc2"},"vehicle_type_id":"4","last_reported":1746972537,"current_range_meters":32000,"station_id":"ce4bhgp2rcd13ifvqfc0","pricing_plan_id":"cebpf4jnsgd1na2vs0mg"},{"bike_id":"cdc62916-98c5-4459-a4cd-4b71ee75b9fc","system_id":"levelo_inurba_marseille","lat":43.26021,"lon":5.41744,"is_reserved":false,"is_disabled":false,"rental_uris":{"android":"levelo://app?vid=cdc62916-98c5-4459-a4cd-4b71ee75b9fc","ios":"levelo://app?vid=cdc62916-98c5-4459-a4cd-4b71ee75b9fc"},"vehicle_type_id":"4","last_reported":1746972537,"current_range_meters":32400,"station_id":"","pricing_plan_id":"cebpf4jnsgd1na2vs0mg"},{"bike_id":"acf4f6c8-6807-4b3e-ab94-0340d45eff31","system_id":"levelo_inurba_marseille","lat":43.29317,"lon":5.37169,"is_reserved":false,"is_disabled":false,"rental_uris":{"android":"levelo://app?vid=acf4f6c8-6807-4b3e-ab94-0340d45eff31","ios":"levelo://app?vid=acf4f6c8-6807-4b3e-ab94-0340d45eff31"},"vehicle_type_id":"4","last_reported":1746972537,"current_range_meters":32400,"station_id":"ce4bgh92rcd13ifvqb40","pricing_plan_id":"cebpf4jnsgd1na2vs0mg"},{"bike_id":"1ba33c3a-fe17-4365-ab79-89799f300a2f","system_id":"levelo_inurba_marseille","lat":43.30141,"lon":5.374175,"is_reserved":false,"is_disabled":false,"rental_uris":{"android":"levelo://app?vid=1ba33c3a-fe17-4365-ab79-89799f300a2f","ios":"levelo://app?vid=1ba33c3a-fe17-4365-ab79-89799f300a2f"},"vehicle_type_id":"4","last_reported":1746972537,"current_range_meters":32400,"station_id":"ce4bgs92rcd13ifvqcc0","pricing_plan_id":"cebpf4jnsgd1na2vs0mg"},{"bike_id":"903870a4-0671-4511-8241-238838a5e0e3","system_id":"levelo_inurba_marseille","lat":43.30122,"lon":5.37437,"is_reserved":false,"is_disabled":false,"rental_uris":{"android":"levelo://app?vid=903870a4-0671-4511-8241-238838a5e0e3","ios":"levelo://app?vid=903870a4-0671-4511-8241-238838a5e0e3"},"vehicle_type_id":"4","last_reported":1746972537,"current_range_meters":32400,"station_id":"ce4bgs92rcd13ifvqcc0","pricing_plan_id":"cebpf4jnsgd1na2vs0mg"},{"bike_id":"7a8e64c1-1a2e-40fa-9cad-da6031f80a86","system_id":"levelo_inurba_marseille","lat":43.31281,"lon":5.40162,"is_reserved":false,"is_disabled":false,"rental_uris":{"android":"levelo://app?vid=7a8e64c1-1a2e-40fa-9cad-da6031f80a86","ios":"levelo://app?vid=7a8e64c1-1a2e-40fa-9cad-da6031f80a86"},"vehicle_type_id":"4","last_reported":1746972537,"current_range_meters":32400,"station_id":"ce4bh092rcd13ifvqd30","pricing_plan_id":"cebpf4jnsgd1na2vs0mg"},{"bike_id":"897f5546-87f8-4f20-b3b2-21c3e7799b17","system_id":"levelo_inurba_marseille","lat":43.26555,"lon":5.37286,"is_reserved":false,"is_disabled":false,"rental_uris":{"android":"levelo://app?vid=897f5546-87f8-4f20-b3b2-21c3e7799b17","ios":"levelo://app?vid=897f5546-87f8-4f20-b3b2-21c3e7799b17"},"vehicle_type_id":"4","last_reported":1746972537,"current_range_meters":32400,"station_id":"ce4bhg12rcd13ifvqf70","pricing_plan_id":"cebpf4jnsgd1na2vs0mg"},{"bike_id":"58fe4998-a76c-4cd0-8895-95215441316b","system_id":"levelo_inurba_marseille","lat":43.2694,"lon":5.38914,"is_reserved":false,"is_disabled":false,"rental_uris":{"android":"levelo://app?vid=58fe4998-a76c-4cd0-8895-95215441316b","ios":"levelo://app?vid=58fe4998-a76c-4cd0-8895-95215441316b"},"vehicle_type_id":"4","last_reported":1746972537,"current_range_meters":32400,"station_id":"ce4bhhh2rcd13ifvqfl0","pricing_plan_id":"cebpf4jnsgd1na2vs0mg"},{"bike_id":"d80f49fb-1e1d-4df4-8177-c4be533f4c65","system_id":"levelo_inurba_marseille","lat":43.24677,"lon":5.38184,"is_reserved":false,"is_disabled":false,"rental_uris":{"android":"levelo://app?vid=d80f49fb-1e1d-4df4-8177-c4be533f4c65","ios":"levelo://app?vid=d80f49fb-1e1d-4df4-8177-c4be533f4c65"},"vehicle_type_id":"4","last_reported":1746972537,"current_range_meters":32400,"station_id":"ce4bhih2rcd13ifvqfr0","pricing_plan_id":"cebpf4jnsgd1na2vs0mg"},{"bike_id":"1e7b033c-cba5-48de-ba4b-e623673e75cc","system_id":"levelo_inurba_marseille","lat":43.28645,"lon":5.37053,"is_reserved":false,"is_disabled":false,"rental_uris":{"android":"levelo://app?vid=1e7b033c-cba5-48de-ba4b-e623673e75cc","ios":"levelo://app?vid=1e7b033c-cba5-48de-ba4b-e623673e75cc"},"vehicle_type_id":"4","last_reported":1746972537,"current_range_meters":32400,"station_id":"ce4bht12rcd13ifvqi60","pricing_plan_id":"cebpf4jnsgd1na2vs0mg"},{"bike_id":"97e9a0a5-21cd-458e-9cce-c3bc06833929","system_id":"levelo_inurba_marseille","lat":43.30549,"lon":5.36552,"is_reserved":false,"is_disabled":false,"rental_uris":{"android":"levelo://app?vid=97e9a0a5-21cd-458e-9cce-c3bc06833929","ios":"levelo://app?vid=97e9a0a5-21cd-458e-9cce-c3bc06833929"},"vehicle_type_id":"4","last_reported":1746972537,"current_range_meters":32800,"station_id":"ce4bgs12rcd13ifvqcag","pricing_plan_id":"cebpf4jnsgd1na2vs0mg"},{"bike_id":"7745e058-1a8f-4094-b174-9001912aa0e3","system_id":"levelo_inurba_marseille","lat":43.30333,"lon":5.404355,"is_reserved":false,"is_disabled":false,"rental_uris":{"android":"levelo://app?vid=7745e058-1a8f-4094-b174-9001912aa0e3","ios":"levelo://app?vid=7745e058-1a8f-4094-b174-9001912aa0e3"},"vehicle_type_id":"4","last_reported":1746972537,"current_range_meters":32800,"station_id":"ce4bh012rcd13ifvqd10","pricing_plan_id":"cebpf4jnsgd1na2vs0mg"},{"bike_id":"e5e41115-a0d9-4f50-9514-7b0dc576943e","system_id":"levelo_inurba_marseille","lat":43.303318,"lon":5.404394,"is_reserved":false,"is_disabled":false,"rental_uris":{"android":"levelo://app?vid=e5e41115-a0d9-4f50-9514-7b0dc576943e","ios":"levelo://app?vid=e5e41115-a0d9-4f50-9514-7b0dc576943e"},"vehicle_type_id":"4","last_reported":1746972537,"current_range_meters":32800,"station_id":"ce4bh012rcd13ifvqd10","pricing_plan_id":"cebpf4jnsgd1na2vs0mg"},{"bike_id":"36277d4e-75ae-42ac-8663-2764cfc04117","system_id":"levelo_inurba_marseille","lat":43.27073,"lon":5.4229,"is_reserved":false,"is_disabled":false,"rental_uris":{"android":"levelo://app?vid=36277d4e-75ae-42ac-8663-2764cfc04117","ios":"levelo://app?vid=36277d4e-75ae-42ac-8663-2764cfc04117"},"vehicle_type_id":"4","last_reported":1746972537,"current_range_meters":32800,"station_id":"ce4bhk92rcd13ifvqgb0","pricing_plan_id":"cebpf4jnsgd1na2vs0mg"},{"bike_id":"a1132df7-36aa-49b1-9d5c-66ebc2c32f6f","system_id":"levelo_inurba_marseille","lat":43.31699,"lon":5.43739,"is_reserved":false,"is_disabled":false,"rental_uris":{"android":"levelo://app?vid=a1132df7-36aa-49b1-9d5c-66ebc2c32f6f","ios":"levelo://app?vid=a1132df7-36aa-49b1-9d5c-66ebc2c32f6f"},"vehicle_type_id":"4","last_reported":1746972537,"current_range_meters":32800,"station_id":"ce4bhp92rcd13ifvqhcg","pricing_plan_id":"cebpf4jnsgd1na2vs0mg"},{"bike_id":"5c046693-3fbd-4755-81fd-1c6b34ebf07b","system_id":"levelo_inurba_marseille","lat":43.337605,"lon":5.374426,"is_reserved":false,"is_disabled":false,"rental_uris":{"android":"levelo://app?vid=5c046693-3fbd-4755-81fd-1c6b34ebf07b","ios":"levelo://app?vid=5c046693-3fbd-4755-81fd-1c6b34ebf07b"},"vehicle_type_id":"4","last_reported":1746972537,"current_range_meters":33200,"station_id":"","pricing_plan_id":"cebpf4jnsgd1na2vs0mg"},{"bike_id":"4de56f70-d280-4fd7-a743-fe2245b8f917","system_id":"levelo_inurba_marseille","lat":43.30297,"lon":5.39217,"is_reserved":false,"is_disabled":false,"rental_uris":{"android":"levelo://app?vid=4de56f70-d280-4fd7-a743-fe2245b8f917","ios":"levelo://app?vid=4de56f70-d280-4fd7-a743-fe2245b8f917"},"vehicle_type_id":"4","last_reported":1746972537,"current_range_meters":33200,"station_id":"ce4bgkh2rcd13ifvqbk0","pricing_plan_id":"cebpf4jnsgd1na2vs0mg"},{"bike_id":"59bbacf2-bb0e-48c6-b01e-563c5dcdacec","system_id":"levelo_inurba_marseille","lat":43.26551,"lon":5.37285,"is_reserved":false,"is_disabled":false,"rental_uris":{"android":"levelo://app?vid=59bbacf2-bb0e-48c6-b01e-563c5dcdacec","ios":"levelo://app?vid=59bbacf2-bb0e-48c6-b01e-563c5dcdacec"},"vehicle_type_id":"4","last_reported":1746972537,"current_range_meters":33200,"station_id":"ce4bhg12rcd13ifvqf70","pricing_plan_id":"cebpf4jnsgd1na2vs0mg"},{"bike_id":"5e2f3436-8694-4e71-92b6-07487212378d","system_id":"levelo_inurba_marseille","lat":43.26785,"lon":5.39416,"is_reserved":false,"is_disabled":false,"rental_uris":{"android":"levelo://app?vid=5e2f3436-8694-4e71-92b6-07487212378d","ios":"levelo://app?vid=5e2f3436-8694-4e71-92b6-07487212378d"},"vehicle_type_id":"4","last_reported":1746972537,"current_range_meters":33200,"station_id":"ce4bhh12rcd13ifvqfg0","pricing_plan_id":"cebpf4jnsgd1na2vs0mg"},{"bike_id":"ba37e599-22f6-416a-b7f7-2003aa6a2ea9","system_id":"levelo_inurba_marseille","lat":43.26065,"lon":5.39393,"is_reserved":false,"is_disabled":false,"rental_uris":{"android":"levelo://app?vid=ba37e599-22f6-416a-b7f7-2003aa6a2ea9","ios":"levelo://app?vid=ba37e599-22f6-416a-b7f7-2003aa6a2ea9"},"vehicle_type_id":"4","last_reported":1746972537,"current_range_meters":33200,"station_id":"ce4bhh92rcd13ifvqfj0","pricing_plan_id":"cebpf4jnsgd1na2vs0mg"},{"bike_id":"5bb77b46-367b-4510-b845-b2adaa6f4204","system_id":"levelo_inurba_marseille","lat":43.25824,"lon":5.39436,"is_reserved":false,"is_disabled":false,"rental_uris":{"android":"levelo://app?vid=5bb77b46-367b-4510-b845-b2adaa6f4204","ios":"levelo://app?vid=5bb77b46-367b-4510-b845-b2adaa6f4204"},"vehicle_type_id":"4","last_reported":1746972537,"current_range_meters":33200,"station_id":"ce4bhip2rcd13ifvqft0","pricing_plan_id":"cebpf4jnsgd1na2vs0mg"},{"bike_id":"f64a83ec-2629-4a50-830a-0eec5af6a0b0","system_id":"levelo_inurba_marseille","lat":43.25724,"lon":5.41154,"is_reserved":false,"is_disabled":false,"rental_uris":{"android":"levelo://app?vid=f64a83ec-2629-4a50-830a-0eec5af6a0b0","ios":"levelo://app?vid=f64a83ec-2629-4a50-830a-0eec5af6a0b0"},"vehicle_type_id":"4","last_reported":1746972537,"current_range_meters":33200,"station_id":"ce4bhkp2rcd13ifvqgd0","pricing_plan_id":"cebpf4jnsgd1na2vs0mg"},{"bike_id":"c76d723c-f216-4468-9eba-dc9a0d8f3aee","system_id":"levelo_inurba_marseille","lat":43.29269,"lon":5.3762,"is_reserved":false,"is_disabled":false,"rental_uris":{"android":"levelo://app?vid=c76d723c-f216-4468-9eba-dc9a0d8f3aee","ios":"levelo://app?vid=c76d723c-f216-4468-9eba-dc9a0d8f3aee"},"vehicle_type_id":"4","last_reported":1746972537,"current_range_meters":33600,"station_id":"ce4bgi12rcd13ifvqb80","pricing_plan_id":"cebpf4jnsgd1na2vs0mg"},{"bike_id":"5abb570c-e3fa-46bd-8356-a52e899c0a2e","system_id":"levelo_inurba_marseille","lat":43.28616,"lon":5.35101,"is_reserved":false,"is_disabled":false,"rental_uris":{"android":"levelo://app?vid=5abb570c-e3fa-46bd-8356-a52e899c0a2e","ios":"levelo://app?vid=5abb570c-e3fa-46bd-8356-a52e899c0a2e"},"vehicle_type_id":"4","last_reported":1746972537,"current_range_meters":33600,"station_id":"ce4bhch2rcd13ifvqeug","pricing_plan_id":"cebpf4jnsgd1na2vs0mg"},{"bike_id":"20ad757b-164c-4284-bdf7-205614336855","system_id":"levelo_inurba_marseille","lat":43.26786,"lon":5.39416,"is_reserved":false,"is_disabled":false,"rental_uris":{"android":"levelo://app?vid=20ad757b-164c-4284-bdf7-205614336855","ios":"levelo://app?vid=20ad757b-164c-4284-bdf7-205614336855"},"vehicle_type_id":"4","last_reported":1746972537,"current_range_meters":33600,"station_id":"ce4bhh12rcd13ifvqfg0","pricing_plan_id":"cebpf4jnsgd1na2vs0mg"},{"bike_id":"f8274916-d943-414a-b4e4-9b5638122b22","system_id":"levelo_inurba_marseille","lat":43.24546,"lon":5.39521,"is_reserved":false,"is_disabled":false,"rental_uris":{"android":"levelo://app?vid=f8274916-d943-414a-b4e4-9b5638122b22","ios":"levelo://app?vid=f8274916-d943-414a-b4e4-9b5638122b22"},"vehicle_type_id":"4","last_reported":1746972537,"current_range_meters":33600,"station_id":"ce4bhlp2rcd13ifvqgjg","pricing_plan_id":"cebpf4jnsgd1na2vs0mg"},{"bike_id":"7f11480a-3659-4fdb-b780-a4e058b0c4cb","system_id":"levelo_inurba_marseille","lat":43.21761,"lon":5.34601,"is_reserved":false,"is_disabled":false,"rental_uris":{"android":"levelo://app?vid=7f11480a-3659-4fdb-b780-a4e058b0c4cb","ios":"levelo://app?vid=7f11480a-3659-4fdb-b780-a4e058b0c4cb"},"vehicle_type_id":"4","last_reported":1746972537,"current_range_meters":33600,"station_id":"st_cvj6r9ubvosntc0bgbag","pricing_plan_id":"cebpf4jnsgd1na2vs0mg"},{"bike_id":"4e15405c-06d6-4668-9ccb-155f40c00a82","system_id":"levelo_inurba_marseille","lat":43.30099,"lon":5.3908,"is_reserved":false,"is_disabled":false,"rental_uris":{"android":"levelo://app?vid=4e15405c-06d6-4668-9ccb-155f40c00a82","ios":"levelo://app?vid=4e15405c-06d6-4668-9ccb-155f40c00a82"},"vehicle_type_id":"4","last_reported":1746972537,"current_range_meters":34000,"station_id":"ce4bh192rcd13ifvqdb0","pricing_plan_id":"cebpf4jnsgd1na2vs0mg"},{"bike_id":"70b78d74-03b8-4168-85a5-40514a8ae8a9","system_id":"levelo_inurba_marseille","lat":43.24642,"lon":5.38912,"is_reserved":false,"is_disabled":false,"rental_uris":{"android":"levelo://app?vid=70b78d74-03b8-4168-85a5-40514a8ae8a9","ios":"levelo://app?vid=70b78d74-03b8-4168-85a5-40514a8ae8a9"},"vehicle_type_id":"4","last_reported":1746972537,"current_range_meters":34000,"station_id":"ce4bhg12rcd13ifvqf60","pricing_plan_id":"cebpf4jnsgd1na2vs0mg"},{"bike_id":"10b9a039-dd7e-4a20-9e80-3ea6aa75ce6b","system_id":"levelo_inurba_marseille","lat":43.31722,"lon":5.42409,"is_reserved":false,"is_disabled":false,"rental_uris":{"android":"levelo://app?vid=10b9a039-dd7e-4a20-9e80-3ea6aa75ce6b","ios":"levelo://app?vid=10b9a039-dd7e-4a20-9e80-3ea6aa75ce6b"},