{"last_updated":1762672183,"ttl":60,"version":"2.2","data":{"bikes":[{"bike_id":"c687f5b8-73fc-4bba-bdba-8dae557f7ae6","system_id":"levelo_inurba_marseille","lat":43.27379,"lon":5.36252,"is_reserved":false,"is_disabled":true,"rental_uris":{"android":"levelo://app?vid=c687f5b8-73fc-4bba-bdba-8dae557f7ae6","ios":"levelo://app?vid=c687f5b8-73fc-4bba-bdba-8dae557f7ae6"},"vehicle_type_id":"4","last_reported":1762672183,"current_range_meters":2800,"station_id":"ce4bhbh2rcd13ifvqeo0","pricing_plan_id":"cebpf4jnsgd1na2vs0mg"},{"bike_id":"5b98d579-5d9e-4fea-93b7-a7307fb6f858","system_id":"levelo_inurba_marseille","lat":43.23797,"lon":5.36637,"is_reserved":false,"is_disabled":false,"rental_uris":{"android":"levelo://app?vid=5b98d579-5d9e-4fea-93b7-a7307fb6f858","ios":"levelo://app?vid=5b98d579-5d9e-4fea-93b7-a7307fb6f858"},"vehicle_type_id":"4","last_reported":1762672183,"current_range_meters":2800,"station_id":"st_d3nk18o9ro0c73en2l3g","pricing_plan_id":"cebpf4jnsgd1na2vs0mg"},{"bike_id":"711b5184-06a1-46c6-b1ad-270408b914a4","system_id":"levelo_inurba_marseille","lat":43.30015,"lon":5.40985,"is_reserved":false,"is_disabled":false,"rental_uris":{"android":"levelo://app?vid=711b5184-06a1-46c6-b1ad-270408b914a4","ios":"levelo://app?vid=711b5184-06a1-46c6-b1ad-270408b914a4"},"vehicle_type_id":"4","last_reported":1762672183,"current_range_meters":2800,"station_id":"","pricing_plan_id":"cebpf4jnsgd1na2vs0mg"},{"bike_id":"9b95728d-eb6e-44bc-be34-317a49ea657a","system_id":"levelo_inurba_marseille","lat":43.280943,"lon":5.40167,"is_reserved":false,"is_disabled":false,"rental_uris":{"android":"levelo://app?vid=9b95728d-eb6e-44bc-be34-317a49ea657a","ios":"levelo://app?vid=9b95728d-eb6e-44bc-be34-317a49ea657a"},"vehicle_type_id":"4","last_reported":1762672183,"current_range_meters":2800,"station_id":"","pricing_plan_id":"cebpf4jnsgd1na2vs0mg"},{"bike_id":"78bd5f74-b07f-4aac-b566-26ecec6fd5df","system_id":"levelo_inurba_marseille","lat":43.3069,"lon":5.38059,"is_reserved":false,"is_disabled":false,"rental_uris":{"android":"levelo://app?vid=78bd5f74-b07f-4aac-b566-26ecec6fd5df","ios":"levelo://app?vid=78bd5f74-b07f-4aac-b566-26ecec6fd5df"},"vehicle_type_id":"4","last_reported":1762672183,"current_range_meters":2800,"station_id":"","pricing_plan_id":"cebpf4jnsgd1na2vs0mg"},{"bike_id":"09ef64c9-8369-4998-8a84-5b278effc959","system_id":"levelo_inurba_marseille","lat":43.29614,"lon":5.40309,"is_reserved":false,"is_disabled":false,"rental_uris":{"android":"levelo://app?vid=09ef64c9-8369-4998-8a84-5b278effc959","ios":"levelo://app?vid=09ef64c9-8369-4998-8a84-5b278effc959"},"vehicle_type_id":"4","last_reported":1762672183,"current_range_meters":2800,"station_id":"","pricing_plan_id":"cebpf4jnsgd1na2vs0mg"},{"bike_id":"acd557de-f5b5-4879-83af-4b0e72bb7a14","system_id":"levelo_inurba_marseille","lat":43.27062,"lon":5.38299,"is_reserved":false,"is_disabled":false,"rental_uris":{"android":"levelo://app?vid=acd557de-f5b5-4879-83af-4b0e72bb7a14","ios":"levelo://app?vid=acd557de-f5b5-4879-83af-4b0e72bb7a14"},"vehicle_type_id":"4","last_reported":1762672183,"current_range_meters":3200,"station_id":"st_d3n2fo6cfp8s73cte1j0","pricing_plan_id":"cebpf4jnsgd1na2vs0mg"},{"bike_id":"52dbe28e-c481-443e-9f88-271281cd4f25","system_id":"levelo_inurba_marseille","lat":43.28939,"lon":5.36396,"is_reserved":false,"is_disabled":false,"rental_uris":{"android":"levelo://app?vid=52dbe28e-c481-443e-9f88-271281cd4f25","ios":"levelo://app?vid=52dbe28e-c481-443e-9f88-271281cd4f25"},"vehicle_type_id":"4","last_reported":1762672183,"current_range_meters":3600,"station_id":"ce4bhc92rcd13ifvqetg","pricing_plan_id":"cebpf4jnsgd1na2vs0mg"},{"bike_id":"5d63f2aa-8446-4f1d-92da-1e2d5b4a6cc8","system_id":"levelo_inurba_marseille","lat":43.29707,"lon":5.37765,"is_reserved":false,"is_disabled":false,"rental_uris":{"android":"levelo://app?vid=5d63f2aa-8446-4f1d-92da-1e2d5b4a6cc8","ios":"levelo://app?vid=5d63f2aa-8446-4f1d-92da-1e2d5b4a6cc8"},"vehicle_type_id":"4","last_reported":1762672183,"current_range_meters":3600,"station_id":"","pricing_plan_id":"cebpf4jnsgd1na2vs0mg"},{"bike_id":"7c392732-2900-41fd-8c6d-e5b49cdf67b5","system_id":"levelo_inurba_marseille","lat":43.29703,"lon":5.38257,"is_reserved":false,"is_disabled":false,"rental_uris":{"android":"levelo://app?vid=7c392732-2900-41fd-8c6d-e5b49cdf67b5","ios":"levelo://app?vid=7c392732-2900-41fd-8c6d-e5b49cdf67b5"},"vehicle_type_id":"4","last_reported":1762672183,"current_range_meters":3600,"station_id":"","pricing_plan_id":"cebpf4jnsgd1na2vs0mg"},{"bike_id":"25c46df7-545c-4270-8523-9d6f955a0e80","system_id":"levelo_inurba_marseille","lat":43.30559,"lon":5.36562,"is_reserved":false,"is_disabled":false,"rental_uris":{"android":"levelo://app?vid=25c46df7-545c-4270-8523-9d6f955a0e80","ios":"levelo://app?vid=25c46df7-545c-4270-8523-9d6f955a0e80"},"vehicle_type_id":"4","last_reported":1762672183,"current_range_meters":3600,"station_id":"ce4bgs12rcd13ifvqcag","pricing_plan_id":"cebpf4jnsgd1na2vs0mg"},{"bike_id":"6580beb2-f281-473f-9ef4-7b331653ef2e","system_id":"levelo_inurba_marseille","lat":43.29113,"lon":5.40816,"is_reserved":false,"is_disabled":false,"rental_uris":{"android":"levelo://app?vid=6580beb2-f281-473f-9ef4-7b331653ef2e","ios":"levelo://app?vid=6580beb2-f281-473f-9ef4-7b331653ef2e"},"vehicle_type_id":"4","last_reported":1762672183,"current_range_meters":3600,"station_id":"","pricing_plan_id":"cebpf4jnsgd1na2vs0mg"},{"bike_id":"de0f6b87-468e-4d95-a7af-d39dacd51689","system_id":"levelo_inurba_marseille","lat":43.29011,"lon":5.35619,"is_reserved":false,"is_disabled":false,"rental_uris":{"android":"levelo://app?vid=de0f6b87-468e-4d95-a7af-d39dacd51689","ios":"levelo://app?vid=de0f6b87-468e-4d95-a7af-d39dacd51689"},"vehicle_type_id":"4","last_reported":1762672183,"current_range_meters":4000,"station_id":"ce4bhb92rcd13ifvqen0","pricing_plan_id":"cebpf4jnsgd1na2vs0mg"},{"bike_id":"348bf609-07f6-4ffc-add0-6df7615d023f","system_id":"levelo_inurba_marseille","lat":43.337669,"lon":5.37438,"is_reserved":false,"is_disabled":false,"rental_uris":{"android":"levelo://app?vid=348bf609-07f6-4ffc-add0-6df7615d023f","ios":"levelo://app?vid=348bf609-07f6-4ffc-add0-6df7615d023f"},"vehicle_type_id":"4","last_reported":1762672183,"current_range_meters":4000,"station_id":"","pricing_plan_id":"cebpf4jnsgd1na2vs0mg"},{"bike_id":"3608e548-4033-44dd-af05-e160405da94a","system_id":"levelo_inurba_marseille","lat":43.25942,"lon":5.40888,"is_reserved":false,"is_disabled":false,"rental_uris":{"android":"levelo://app?vid=3608e548-4033-44dd-af05-e160405da94a","ios":"levelo://app?vid=3608e548-4033-44dd-af05-e160405da94a"},"vehicle_type_id":"4","last_reported":1762672183,"current_range_meters":4400,"station_id":"ce4bhm92rcd13ifvqglg","pricing_plan_id":"cebpf4jnsgd1na2vs0mg"},{"bike_id":"47820c2c-f6b8-4cf9-a4c6-fc63b338bd4f","system_id":"levelo_inurba_marseille","lat":43.279917,"lon":5.416684,"is_reserved":false,"is_disabled":false,"rental_uris":{"android":"levelo://app?vid=47820c2c-f6b8-4cf9-a4c6-fc63b338bd4f","ios":"levelo://app?vid=47820c2c-f6b8-4cf9-a4c6-fc63b338bd4f"},"vehicle_type_id":"4","last_reported":1762672183,"current_range_meters":4400,"station_id":"ce4bho12rcd13ifvqh1g","pricing_plan_id":"cebpf4jnsgd1na2vs0mg"},{"bike_id":"23206732-1a6b-4a60-8e5c-68fd64769c34","system_id":"levelo_inurba_marseille","lat":43.301872,"lon":5.366139,"is_reserved":false,"is_disabled":false,"rental_uris":{"android":"levelo://app?vid=23206732-1a6b-4a60-8e5c-68fd64769c34","ios":"levelo://app?vid=23206732-1a6b-4a60-8e5c-68fd64769c34"},"vehicle_type_id":"4","last_reported":1762672183,"current_range_meters":4400,"station_id":"ce4bgrh2rcd13ifvqc8g","pricing_plan_id":"cebpf4jnsgd1na2vs0mg"},{"bike_id":"c03bd52b-534b-4ae1-bb73-924e391fe2f5","system_id":"levelo_inurba_marseille","lat":43.255149,"lon":5.376639,"is_reserved":false,"is_disabled":true,"rental_uris":{"android":"levelo://app?vid=c03bd52b-534b-4ae1-bb73-924e391fe2f5","ios":"levelo://app?vid=c03bd52b-534b-4ae1-bb73-924e391fe2f5"},"vehicle_type_id":"4","last_reported":1762672183,"current_range_meters":4800,"station_id":"ce4bhh12rcd13ifvqff0","pricing_plan_id":"cebpf4jnsgd1na2vs0mg"},{"bike_id":"34c14480-831b-41a9-b30b-a1e8f994a110","system_id":"levelo_inurba_marseille","lat":43.30848,"lon":5.37176,"is_reserved":false,"is_disabled":false,"rental_uris":{"android":"levelo://app?vid=34c14480-831b-41a9-b30b-a1e8f994a110","ios":"levelo://app?vid=34c14480-831b-41a9-b30b-a1e8f994a110"},"vehicle_type_id":"4","last_reported":1762672183,"current_range_meters":4800,"station_id":"","pricing_plan_id":"cebpf4jnsgd1na2vs0mg"},{"bike_id":"b244e63f-2736-4592-bd42-3ed07c477bf1","system_id":"levelo_inurba_marseille","lat":43.30304,"lon":5.369277,"is_reserved":false,"is_disabled":false,"rental_uris":{"android":"levelo://app?vid=b244e63f-2736-4592-bd42-3ed07c477bf1","ios":"levelo://app?vid=b244e63f-2736-4592-bd42-3ed07c477bf1"},"vehicle_type_id":"4","last_reported":1762672183,"current_range_meters":4800,"station_id":"ce4bgqh2rcd13ifvqc5g","pricing_plan_id":"cebpf4jnsgd1na2vs0mg"},{"bike_id":"5bee8f0f-57fe-4257-a72a-04a4967570b5","system_id":"levelo_inurba_marseille","lat":43.300389,"lon":5.37723,"is_reserved":false,"is_disabled":false,"rental_uris":{"android":"levelo://app?vid=5bee8f0f-57fe-4257-a72a-04a4967570b5","ios":"levelo://app?vid=5bee8f0f-57fe-4257-a72a-04a4967570b5"},"vehicle_type_id":"4","last_reported":1762672183,"current_range_meters":4800,"station_id":"","pricing_plan_id":"cebpf4jnsgd1na2vs0mg"},{"bike_id":"8d24077b-6601-4b8b-88ab-571838035bbe","system_id":"levelo_inurba_marseille","lat":43.28668,"lon":5.38666,"is_reserved":false,"is_disabled":false,"rental_uris":{"android":"levelo://app?vid=8d24077b-6601-4b8b-88ab-571838035bbe","ios":"levelo://app?vid=8d24077b-6601-4b8b-88ab-571838035bbe"},"vehicle_type_id":"4","last_reported":1762672183,"current_range_meters":4800,"station_id":"ce4bh492rcd13ifvqdug","pricing_plan_id":"cebpf4jnsgd1na2vs0mg"},{"bike_id":"d12e4128-0f82-40ca-8e94-25ee1548b2e2","system_id":"levelo_inurba_marseille","lat":43.29184,"lon":5.35803,"is_reserved":false,"is_disabled":false,"rental_uris":{"android":"levelo://app?vid=d12e4128-0f82-40ca-8e94-25ee1548b2e2","ios":"levelo://app?vid=d12e4128-0f82-40ca-8e94-25ee1548b2e2"},"vehicle_type_id":"4","last_reported":1762672183,"current_range_meters":5600,"station_id":"ce4bhb12rcd13ifvqel0","pricing_plan_id":"cebpf4jnsgd1na2vs0mg"},{"bike_id":"64afb97e-7246-4474-83af-cffeee346617","system_id":"levelo_inurba_marseille","lat":43.2919,"lon":5.35811,"is_reserved":false,"is_disabled":false,"rental_uris":{"android":"levelo://app?vid=64afb97e-7246-4474-83af-cffeee346617","ios":"levelo://app?vid=64afb97e-7246-4474-83af-cffeee346617"},"vehicle_type_id":"4","last_reported":1762672183,"current_range_meters":5600,"station_id":"ce4bhb12rcd13ifvqel0","pricing_plan_id":"cebpf4jnsgd1na2vs0mg"},{"bike_id":"7ad73cbf-6e7f-40c6-9f01-5beee285b1af","system_id":"levelo_inurba_marseille","lat":43.3236,"lon":5.36743,"is_reserved":false,"is_disabled":false,"rental_uris":{"android":"levelo://app?vid=7ad73cbf-6e7f-40c6-9f01-5beee285b1af","ios":"levelo://app?vid=7ad73cbf-6e7f-40c6-9f01-5beee285b1af"},"vehicle_type_id":"4","last_reported":1762672183,"current_range_meters":6000,"station_id":"ce4bhsh2rcd13ifvqi2g","pricing_plan_id":"cebpf4jnsgd1na2vs0mg"},{"bike_id":"2bda9569-8855-4749-9a29-a9c55ba153ed","system_id":"levelo_inurba_marseille","lat":43.22551,"lon":5.4162,"is_reserved":false,"is_disabled":false,"rental_uris":{"android":"levelo://app?vid=2bda9569-8855-4749-9a29-a9c55ba153ed","ios":"levelo://app?vid=2bda9569-8855-4749-9a29-a9c55ba153ed"},"vehicle_type_id":"4","last_reported":1762672183,"current_range_meters":6000,"station_id":"st_d2o4gvlbi1j2169b742g","pricing_plan_id":"cebpf4jnsgd1na2vs0mg"},{"bike_id":"b05048b6-3636-4628-97b9-678771374061","system_id":"levelo_inurba_marseille","lat":43.31273,"lon":5.37574,"is_reserved":false,"is_disabled":true,"rental_uris":{"android":"levelo://app?vid=b05048b6-3636-4628-97b9-678771374061","ios":"levelo://app?vid=b05048b6-3636-4628-97b9-678771374061"},"vehicle_type_id":"4","last_reported":1762672183,"current_range_meters":6000,"station_id":"","pricing_plan_id":"cebpf4jnsgd1na2vs0mg"},{"bike_id":"e06e34c1-3fad-4c33-8e85-21950639eb25","system_id":"levelo_inurba_marseille","lat":43.24074,"lon":5.37753,"is_reserved":false,"is_disabled":false,"rental_uris":{"android":"levelo://app?vid=e06e34c1-3fad-4c33-8e85-21950639eb25","ios":"levelo://app?vid=e06e34c1-3fad-4c33-8e85-21950639eb25"},"vehicle_type_id":"4","last_reported":1762672183,"current_range_meters":6000,"station_id":"ce4bhnp2rcd13ifvqgvg","pricing_plan_id":"cebpf4jnsgd1na2vs0mg"},{"bike_id":"a0ea519d-554f-42a0-93a3-d4c181552c78","system_id":"levelo_inurba_marseille","lat":43.31288,"lon":5.37756,"is_reserved":false,"is_disabled":false,"rental_uris":{"android":"levelo://app?vid=a0ea519d-554f-42a0-93a3-d4c181552c78","ios":"levelo://app?vid=a0ea519d-554f-42a0-93a3-d4c181552c78"},"vehicle_type_id":"4","last_reported":1762672183,"current_range_meters":6000,"station_id":"","pricing_plan_id":"cebpf4jnsgd1na2vs0mg"},{"bike_id":"3df1ea74-4323-4495-adf2-6ebb2ea74981","system_id":"levelo_inurba_marseille","lat":43.281071,"lon":5.378345,"is_reserved":false,"is_disabled":false,"rental_uris":{"android":"levelo://app?vid=3df1ea74-4323-4495-adf2-6ebb2ea74981","ios":"levelo://app?vid=3df1ea74-4323-4495-adf2-6ebb2ea74981"},"vehicle_type_id":"4","last_reported":1762672183,"current_range_meters":6000,"station_id":"ce4bha12rcd13ifvqee0","pricing_plan_id":"cebpf4jnsgd1na2vs0mg"},{"bike_id":"941a4a58-dba2-4581-b75e-5c974a3566bf","system_id":"levelo_inurba_marseille","lat":43.265455,"lon":5.372887,"is_reserved":false,"is_disabled":false,"rental_uris":{"android":"levelo://app?vid=941a4a58-dba2-4581-b75e-5c974a3566bf","ios":"levelo://app?vid=941a4a58-dba2-4581-b75e-5c974a3566bf"},"vehicle_type_id":"4","last_reported":1762672183,"current_range_meters":6400,"station_id":"ce4bhg12rcd13ifvqf70","pricing_plan_id":"cebpf4jnsgd1na2vs0mg"},{"bike_id":"5c17ed12-8897-4f84-bbfc-85419a7f8038","system_id":"levelo_inurba_marseille","lat":43.270699,"lon":5.394552,"is_reserved":false,"is_disabled":false,"rental_uris":{"android":"levelo://app?vid=5c17ed12-8897-4f84-bbfc-85419a7f8038","ios":"levelo://app?vid=5c17ed12-8897-4f84-bbfc-85419a7f8038"},"vehicle_type_id":"4","last_reported":1762672183,"current_range_meters":6400,"station_id":"","pricing_plan_id":"cebpf4jnsgd1na2vs0mg"},{"bike_id":"4368ae1c-3f07-4d38-946d-e5bd2325dd82","system_id":"levelo_inurba_marseille","lat":43.279156,"lon":5.395742,"is_reserved":false,"is_disabled":false,"rental_uris":{"android":"levelo://app?vid=4368ae1c-3f07-4d38-946d-e5bd2325dd82","ios":"levelo://app?vid=4368ae1c-3f07-4d38-946d-e5bd2325dd82"},"vehicle_type_id":"4","last_reported":1762672183,"current_range_meters":6400,"station_id":"ce4bhf92rcd13ifvqf40","pricing_plan_id":"cebpf4jnsgd1na2vs0mg"},{"bike_id":"eb46c66d-5104-4495-80f5-a25d45718f4c","system_id":"levelo_inurba_marseille","lat":43.303808,"lon":5.424915,"is_reserved":false,"is_disabled":false,"rental_uris":{"android":"levelo://app?vid=eb46c66d-5104-4495-80f5-a25d45718f4c","ios":"levelo://app?vid=eb46c66d-5104-4495-80f5-a25d45718f4c"},"vehicle_type_id":"4","last_reported":1762672183,"current_range_meters":6400,"station_id":"ce4bhoh2rcd13ifvqh6g","pricing_plan_id":"cebpf4jnsgd1na2vs0mg"},{"bike_id":"05f5bb0b-ac3b-4234-887b-2f8b90625e47","system_id":"levelo_inurba_marseille","lat":43.28858,"lon":5.35864,"is_reserved":false,"is_disabled":false,"rental_uris":{"android":"levelo://app?vid=05f5bb0b-ac3b-4234-887b-2f8b90625e47","ios":"levelo://app?vid=05f5bb0b-ac3b-4234-887b-2f8b90625e47"},"vehicle_type_id":"4","last_reported":1762672183,"current_range_meters":6400,"station_id":"ce4bhb12rcd13ifvqem0","pricing_plan_id":"cebpf4jnsgd1na2vs0mg"},{"bike_id":"9bc3bbff-37bb-41d1-80dc-b7cb1a77b9d9","system_id":"levelo_inurba_marseille","lat":43.30252,"lon":5.40073,"is_reserved":false,"is_disabled":false,"rental_uris":{"android":"levelo://app?vid=9bc3bbff-37bb-41d1-80dc-b7cb1a77b9d9","ios":"levelo://app?vid=9bc3bbff-37bb-41d1-80dc-b7cb1a77b9d9"},"vehicle_type_id":"4","last_reported":1762672183,"current_range_meters":6400,"station_id":"ce4bgvh2rcd13ifvqcs0","pricing_plan_id":"cebpf4jnsgd1na2vs0mg"},{"bike_id":"8f7c2452-6bc2-4fdc-a583-8d2415ee4356","system_id":"levelo_inurba_marseille","lat":43.279367,"lon":5.410437,"is_reserved":false,"is_disabled":false,"rental_uris":{"android":"levelo://app?vid=8f7c2452-6bc2-4fdc-a583-8d2415ee4356","ios":"levelo://app?vid=8f7c2452-6bc2-4fdc-a583-8d2415ee4356"},"vehicle_type_id":"4","last_reported":1762672183,"current_range_meters":6400,"station_id":"ce4bhnp2rcd13ifvqh0g","pricing_plan_id":"cebpf4jnsgd1na2vs0mg"},{"bike_id":"61a7521a-8207-4e8e-8e62-e9d6929a8cff","system_id":"levelo_inurba_marseille","lat":43.265699,"lon":5.403227,"is_reserved":false,"is_disabled":false,"rental_uris":{"android":"levelo://app?vid=61a7521a-8207-4e8e-8e62-e9d6929a8cff","ios":"levelo://app?vid=61a7521a-8207-4e8e-8e62-e9d6929a8cff"},"vehicle_type_id":"4","last_reported":1762672183,"current_range_meters":6400,"station_id":"ce4bhmp2rcd13ifvqgng","pricing_plan_id":"cebpf4jnsgd1na2vs0mg"},{"bike_id":"a3a26465-b70c-4479-b741-843f16621c8d","system_id":"levelo_inurba_marseille","lat":43.284222,"lon":5.375403,"is_reserved":false,"is_disabled":false,"rental_uris":{"android":"levelo://app?vid=a3a26465-b70c-4479-b741-843f16621c8d","ios":"levelo://app?vid=a3a26465-b70c-4479-b741-843f16621c8d"},"vehicle_type_id":"4","last_reported":1762672183,"current_range_meters":6800,"station_id":"ce4bh412rcd13ifvqds0","pricing_plan_id":"cebpf4jnsgd1na2vs0mg"},{"bike_id":"1287bfb9-052c-4054-97f4-3cfc43708f51","system_id":"levelo_inurba_marseille","lat":43.26555,"lon":5.37276,"is_reserved":false,"is_disabled":false,"rental_uris":{"android":"levelo://app?vid=1287bfb9-052c-4054-97f4-3cfc43708f51","ios":"levelo://app?vid=1287bfb9-052c-4054-97f4-3cfc43708f51"},"vehicle_type_id":"4","last_reported":1762672183,"current_range_meters":6800,"station_id":"ce4bhg12rcd13ifvqf70","pricing_plan_id":"cebpf4jnsgd1na2vs0mg"},{"bike_id":"bad93078-b484-4873-a1ce-359b2e630abc","system_id":"levelo_inurba_marseille","lat":43.293657,"lon":5.384428,"is_reserved":false,"is_disabled":false,"rental_uris":{"android":"levelo://app?vid=bad93078-b484-4873-a1ce-359b2e630abc","ios":"levelo://app?vid=bad93078-b484-4873-a1ce-359b2e630abc"},"vehicle_type_id":"4","last_reported":1762672183,"current_range_meters":6800,"station_id":"","pricing_plan_id":"cebpf4jnsgd1na2vs0mg"},{"bike_id":"d59cc947-3503-4c6f-815c-a6f3c53bc387","system_id":"levelo_inurba_marseille","lat":43.2927,"lon":5.36831,"is_reserved":false,"is_disabled":false,"rental_uris":{"android":"levelo://app?vid=d59cc947-3503-4c6f-815c-a6f3c53bc387","ios":"levelo://app?vid=d59cc947-3503-4c6f-815c-a6f3c53bc387"},"vehicle_type_id":"4","last_reported":1762672183,"current_range_meters":6800,"station_id":"ce4bhbp2rcd13ifvqesg","pricing_plan_id":"cebpf4jnsgd1na2vs0mg"},{"bike_id":"d13f7aac-3326-47eb-8c83-0485dd333747","system_id":"levelo_inurba_marseille","lat":43.30476,"lon":5.39284,"is_reserved":false,"is_disabled":false,"rental_uris":{"android":"levelo://app?vid=d13f7aac-3326-47eb-8c83-0485dd333747","ios":"levelo://app?vid=d13f7aac-3326-47eb-8c83-0485dd333747"},"vehicle_type_id":"4","last_reported":1762672183,"current_range_meters":6800,"station_id":"","pricing_plan_id":"cebpf4jnsgd1na2vs0mg"},{"bike_id":"79a47f97-c906-4bd5-8859-153a9b74b16a","system_id":"levelo_inurba_marseille","lat":43.29577,"lon":5.37508,"is_reserved":false,"is_disabled":false,"rental_uris":{"android":"levelo://app?vid=79a47f97-c906-4bd5-8859-153a9b74b16a","ios":"levelo://app?vid=79a47f97-c906-4bd5-8859-153a9b74b16a"},"vehicle_type_id":"4","last_reported":1762672183,"current_range_meters":7200,"station_id":"ce4bgh92rcd13ifvqb50","pricing_plan_id":"cebpf4jnsgd1na2vs0mg"},{"bike_id":"f114550f-0e97-467f-a15f-491fe7ea5021","system_id":"levelo_inurba_marseille","lat":43.29291,"lon":5.37154,"is_reserved":false,"is_disabled":true,"rental_uris":{"android":"levelo://app?vid=f114550f-0e97-467f-a15f-491fe7ea5021","ios":"levelo://app?vid=f114550f-0e97-467f-a15f-491fe7ea5021"},"vehicle_type_id":"4","last_reported":1762672183,"current_range_meters":7200,"station_id":"ce4bgh92rcd13ifvqb40","pricing_plan_id":"cebpf4jnsgd1na2vs0mg"},{"bike_id":"9a959a9d-3741-405c-a6ee-fd06ae076c40","system_id":"levelo_inurba_marseille","lat":43.217522,"lon":5.346168,"is_reserved":false,"is_disabled":false,"rental_uris":{"android":"levelo://app?vid=9a959a9d-3741-405c-a6ee-fd06ae076c40","ios":"levelo://app?vid=9a959a9d-3741-405c-a6ee-fd06ae076c40"},"vehicle_type_id":"4","last_reported":1762672183,"current_range_meters":7200,"station_id":"st_cvj6r9ubvosntc0bgbag","pricing_plan_id":"cebpf4jnsgd1na2vs0mg"},{"bike_id":"4fa93e58-ad51-41bb-b7cd-c71dad4e22b9","system_id":"levelo_inurba_marseille","lat":43.211927,"lon":5.35076,"is_reserved":false,"is_disabled":true,"rental_uris":{"android":"levelo://app?vid=4fa93e58-ad51-41bb-b7cd-c71dad4e22b9","ios":"levelo://app?vid=4fa93e58-ad51-41bb-b7cd-c71dad4e22b9"},"vehicle_type_id":"4","last_reported":1762672183,"current_range_meters":7200,"station_id":"st_cvj6sg6p6f1abm77japg","pricing_plan_id":"cebpf4jnsgd1na2vs0mg"},{"bike_id":"26aad628-bd01-4664-890e-ba85447bad9f","system_id":"levelo_inurba_marseille","lat":43.303332,"lon":5.40429,"is_reserved":false,"is_disabled":true,"rental_uris":{"android":"levelo://app?vid=26aad628-bd01-4664-890e-ba85447bad9f","ios":"levelo://app?vid=26aad628-bd01-4664-890e-ba85447bad9f"},"vehicle_type_id":"4","last_reported":1762672183,"current_range_meters":7200,"station_id":"ce4bh012rcd13ifvqd10","pricing_plan_id":"cebpf4jnsgd1na2vs0mg"},{"bike_id":"36181477-9b1b-474b-b500-94cd21c63e26","system_id":"levelo_inurba_marseille","lat":43.2872,"lon":5.39981,"is_reserved":false,"is_disabled":false,"rental_uris":{"android":"levelo://app?vid=36181477-9b1b-474b-b500-94cd21c63e26","ios":"levelo://app?vid=36181477-9b1b-474b-b500-94cd21c63e26"},"vehicle_type_id":"4","last_reported":1762672183,"current_range_meters":8000,"station_id":"ce4bho92rcd13ifvqh3g","pricing_plan_id":"cebpf4jnsgd1na2vs0mg"},{"bike_id":"bd3dcbf9-4a41-4698-ab71-ccab77fe7f49","system_id":"levelo_inurba_marseille","lat":43.27056,"lon":5.40259,"is_reserved":false,"is_disabled":false,"rental_uris":{"android":"levelo://app?vid=bd3dcbf9-4a41-4698-ab71-ccab77fe7f49","ios":"levelo://app?vid=bd3dcbf9-4a41-4698-ab71-ccab77fe7f49"},"vehicle_type_id":"4","last_reported":1762672183,"current_range_meters":8000,"station_id":"ce4bhk92rcd13ifvqgc0","pricing_plan_id":"cebpf4jnsgd1na2vs0mg"},{"bike_id":"5916b080-126b-493e-9d76-68ff8df78665","system_id":"levelo_inurba_marseille","lat":43.251123,"lon":5.403229,"is_reserved":false,"is_disabled":false,"rental_uris":{"android":"levelo://app?vid=5916b080-126b-493e-9d76-68ff8df78665","ios":"levelo://app?vid=5916b080-126b-493e-9d76-68ff8df78665"},"vehicle_type_id":"4","last_reported":1762672183,"current_range_meters":8000,"station_id":"ce4bhlh2rcd13ifvqgig","pricing_plan_id":"cebpf4jnsgd1na2vs0mg"},{"bike_id":"21796bbd-1c22-4041-a45b-9df62dff9b59","system_id":"levelo_inurba_marseille","lat":43.29916,"lon":5.37483,"is_reserved":false,"is_disabled":false,"rental_uris":{"android":"levelo://app?vid=21796bbd-1c22-4041-a45b-9df62dff9b59","ios":"levelo://app?vid=21796bbd-1c22-4041-a45b-9df62dff9b59"},"vehicle_type_id":"4","last_reported":1762672183,"current_range_meters":8000,"station_id":"ce4bgjh2rcd13ifvqbg0","pricing_plan_id":"cebpf4jnsgd1na2vs0mg"},{"bike_id":"c0969de0-74b0-4b5a-9248-b43b0ee3e19e","system_id":"levelo_inurba_marseille","lat":43.249092,"lon":5.376574,"is_reserved":false,"is_disabled":false,"rental_uris":{"android":"levelo://app?vid=c0969de0-74b0-4b5a-9248-b43b0ee3e19e","ios":"levelo://app?vid=c0969de0-74b0-4b5a-9248-b43b0ee3e19e"},"vehicle_type_id":"4","last_reported":1762672183,"current_range_meters":8000,"station_id":"","pricing_plan_id":"cebpf4jnsgd1na2vs0mg"},{"bike_id":"95565d88-4e0c-4b5d-b6d1-9a4c73bcb1f1","system_id":"levelo_inurba_marseille","lat":43.33778,"lon":5.37404,"is_reserved":false,"is_disabled":false,"rental_uris":{"android":"levelo://app?vid=95565d88-4e0c-4b5d-b6d1-9a4c73bcb1f1","ios":"levelo://app?vid=95565d88-4e0c-4b5d-b6d1-9a4c73bcb1f1"},"vehicle_type_id":"4","last_reported":1762672183,"current_range_meters":8000,"station_id":"","pricing_plan_id":"cebpf4jnsgd1na2vs0mg"},{"bike_id":"8863d798-c72d-4abc-b02c-2fc8a7b7e3a8","system_id":"levelo_inurba_marseille","lat":43.29259,"lon":5.37624,"is_reserved":false,"is_disabled":false,"rental_uris":{"android":"levelo://app?vid=8863d798-c72d-4abc-b02c-2fc8a7b7e3a8","ios":"levelo://app?vid=8863d798-c72d-4abc-b02c-2fc8a7b7e3a8"},"vehicle_type_id":"4","last_reported":1762672183,"current_range_meters":8000,"station_id":"ce4bgi12rcd13ifvqb80","pricing_plan_id":"cebpf4jnsgd1na2vs0mg"},{"bike_id":"382f597e-181c-4839-b1de-04339df9aa55","system_id":"levelo_inurba_marseille","lat":43.267998,"lon":5.402654,"is_reserved":false,"is_disabled":true,"rental_uris":{"android":"levelo://app?vid=382f597e-181c-4839-b1de-04339df9aa55","ios":"levelo://app?vid=382f597e-181c-4839-b1de-04339df9aa55"},"vehicle_type_id":"4","last_reported":1762672183,"current_range_meters":8400,"station_id":"ce501612rcd8frsf0b60","pricing_plan_id":"cebpf4jnsgd1na2vs0mg"},{"bike_id":"b98c59d1-12c0-4a03-b198-cf728a9bdad0","system_id":"levelo_inurba_marseille","lat":43.29322,"lon":5.37155,"is_reserved":false,"is_disabled":false,"rental_uris":{"android":"levelo://app?vid=b98c59d1-12c0-4a03-b198-cf728a9bdad0","ios":"levelo://app?vid=b98c59d1-12c0-4a03-b198-cf728a9bdad0"},"vehicle_type_id":"4","last_reported":1762672183,"current_range_meters":8400,"station_id":"","pricing_plan_id":"cebpf4jnsgd1na2vs0mg"},{"bike_id":"9f611ac1-6f6a-4437-9025-ea87f35606a4","system_id":"levelo_inurba_marseille","lat":43.28525,"lon":5.3778,"is_reserved":false,"is_disabled":false,"rental_uris":{"android":"levelo://app?vid=9f611ac1-6f6a-4437-9025-ea87f35606a4","ios":"levelo://app?vid=9f611ac1-6f6a-4437-9025-ea87f35606a4"},"vehicle_type_id":"4","last_reported":1762672183,"current_range_meters":8400,"station_id":"","pricing_plan_id":"cebpf4jnsgd1na2vs0mg"},{"bike_id":"cd36fb7c-4385-47bd-96a8-f8889a6e3476","system_id":"levelo_inurba_marseille","lat":43.299009,"lon":5.436535,"is_reserved":false,"is_disabled":false,"rental_uris":{"android":"levelo://app?vid=cd36fb7c-4385-47bd-96a8-f8889a6e3476","ios":"levelo://app?vid=cd36fb7c-4385-47bd-96a8-f8889a6e3476"},"vehicle_type_id":"4","last_reported":1762672183,"current_range_meters":8400,"station_id":"ce4bhpp2rcd13ifvqhfg","pricing_plan_id":"cebpf4jnsgd1na2vs0mg"},{"bike_id":"cc9a29dd-6ee2-49d8-92ef-b2d7952d5700","system_id":"levelo_inurba_marseille","lat":43.2863,"lon":5.35088,"is_reserved":false,"is_disabled":false,"rental_uris":{"android":"levelo://app?vid=cc9a29dd-6ee2-49d8-92ef-b2d7952d5700","ios":"levelo://app?vid=cc9a29dd-6ee2-49d8-92ef-b2d7952d5700"},"vehicle_type_id":"4","last_reported":1762672183,"current_range_meters":8400,"station_id":"ce4bhch2rcd13ifvqeug","pricing_plan_id":"cebpf4jnsgd1na2vs0mg"},{"bike_id":"a4b610ef-5dc5-47fb-9228-87e17fe490d3","system_id":"levelo_inurba_marseille","lat":43.27061,"lon":5.42267,"is_reserved":false,"is_disabled":true,"rental_uris":{"android":"levelo://app?vid=a4b610ef-5dc5-47fb-9228-87e17fe490d3","ios":"levelo://app?vid=a4b610ef-5dc5-47fb-9228-87e17fe490d3"},"vehicle_type_id":"4","last_reported":1762672183,"current_range_meters":8400,"station_id":"ce4bhk92rcd13ifvqgb0","pricing_plan_id":"cebpf4jnsgd1na2vs0mg"},{"bike_id":"59736966-d2af-4cbc-8ac5-e955aeb2f190","system_id":"levelo_inurba_marseille","lat":43.28865,"lon":5.42525,"is_reserved":false,"is_disabled":false,"rental_uris":{"android":"levelo://app?vid=59736966-d2af-4cbc-8ac5-e955aeb2f190","ios":"levelo://app?vid=59736966-d2af-4cbc-8ac5-e955aeb2f190"},"vehicle_type_id":"4","last_reported":1762672183,"current_range_meters":8400,"station_id":"st_d3b462108ojc7389ooeg","pricing_plan_id":"cebpf4jnsgd1na2vs0mg"},{"bike_id":"3b294fa9-3f9f-4381-a2a8-e3592d375a68","system_id":"levelo_inurba_marseille","lat":43.26688,"lon":5.39666,"is_reserved":false,"is_disabled":false,"rental_uris":{"android":"levelo://app?vid=3b294fa9-3f9f-4381-a2a8-e3592d375a68","ios":"levelo://app?vid=3b294fa9-3f9f-4381-a2a8-e3592d375a68"},"vehicle_type_id":"4","last_reported":1762672183,"current_range_meters":8400,"station_id":"","pricing_plan_id":"cebpf4jnsgd1na2vs0mg"},{"bike_id":"f1dcf78c-d221-4655-bbe1-e0374d11c9c5","system_id":"levelo_inurba_marseille","lat":43.29015,"lon":5.38126,"is_reserved":false,"is_disabled":false,"rental_uris":{"android":"levelo://app?vid=f1dcf78c-d221-4655-bbe1-e0374d11c9c5","ios":"levelo://app?vid=f1dcf78c-d221-4655-bbe1-e0374d11c9c5"},"vehicle_type_id":"4","last_reported":1762672183,"current_range_meters":8400,"station_id":"ce4bh4p2rcd13ifvqe1g","pricing_plan_id":"cebpf4jnsgd1na2vs0mg"},{"bike_id":"bab2073e-c4c9-44aa-be67-77039a9943c5","system_id":"levelo_inurba_marseille","lat":43.2849,"lon":5.38569,"is_reserved":false,"is_disabled":false,"rental_uris":{"android":"levelo://app?vid=bab2073e-c4c9-44aa-be67-77039a9943c5","ios":"levelo://app?vid=bab2073e-c4c9-44aa-be67-77039a9943c5"},"vehicle_type_id":"4","last_reported":1762672183,"current_range_meters":8800,"station_id":"ce4bh8p2rcd13ifvqeb0","pricing_plan_id":"cebpf4jnsgd1na2vs0mg"},{"bike_id":"69acbfae-0031-4cd5-8e22-3e901a52d5bc","system_id":"levelo_inurba_marseille","lat":43.249416,"lon":5.404945,"is_reserved":false,"is_disabled":false,"rental_uris":{"android":"levelo://app?vid=69acbfae-0031-4cd5-8e22-3e901a52d5bc","ios":"levelo://app?vid=69acbfae-0031-4cd5-8e22-3e901a52d5bc"},"vehicle_type_id":"4","last_reported":1762672183,"current_range_meters":8800,"station_id":"st_d2ngiaodas8pm72gd1h0","pricing_plan_id":"cebpf4jnsgd1na2vs0mg"},{"bike_id":"93bedc54-a7b1-48ec-9b87-8b90ffb2b6e0","system_id":"levelo_inurba_marseille","lat":43.26563,"lon":5.39038,"is_reserved":false,"is_disabled":false,"rental_uris":{"android":"levelo://app?vid=93bedc54-a7b1-48ec-9b87-8b90ffb2b6e0","ios":"levelo://app?vid=93bedc54-a7b1-48ec-9b87-8b90ffb2b6e0"},"vehicle_type_id":"4","last_reported":1762672183,"current_range_meters":8800,"station_id":"ce4bhe12rcd13ifvqf30","pricing_plan_id":"cebpf4jnsgd1na2vs0mg"},{"bike_id":"fecd52af-29bb-4bb2-9160-9e83d6376c53","system_id":"levelo_inurba_marseille","lat":43.28797,"lon":5.3959,"is_reserved":false,"is_disabled":false,"rental_uris":{"android":"levelo://app?vid=fecd52af-29bb-4bb2-9160-9e83d6376c53","ios":"levelo://app?vid=fecd52af-29bb-4bb2-9160-9e83d6376c53"},"vehicle_type_id":"4","last_reported":1762672183,"current_range_meters":8800,"station_id":"","pricing_plan_id":"cebpf4jnsgd1na2vs0mg"},{"bike_id":"9606f59c-b785-468b-bf32-4f7152eb69f7","system_id":"levelo_inurba_marseille","lat":43.253326,"lon":5.421708,"is_reserved":false,"is_disabled":false,"rental_uris":{"android":"levelo://app?vid=9606f59c-b785-468b-bf32-4f7152eb69f7","ios":"levelo://app?vid=9606f59c-b785-468b-bf32-4f7152eb69f7"},"vehicle_type_id":"4","last_reported":1762672183,"current_range_meters":8800,"station_id":"st_d2m65c5bi1j21697t3ng","pricing_plan_id":"cebpf4jnsgd1na2vs0mg"},{"bike_id":"d510b29d-06c6-4a67-8cee-2182097a14e2","system_id":"levelo_inurba_marseille","lat":43.292732,"lon":5.376177,"is_reserved":false,"is_disabled":true,"rental_uris":{"android":"levelo://app?vid=d510b29d-06c6-4a67-8cee-2182097a14e2","ios":"levelo://app?vid=d510b29d-06c6-4a67-8cee-2182097a14e2"},"vehicle_type_id":"4","last_reported":1762672183,"current_range_meters":8800,"station_id":"ce4bgi12rcd13ifvqb80","pricing_plan_id":"cebpf4jnsgd1na2vs0mg"},{"bike_id":"321d43c2-a97c-419e-a110-a172b4ee23e9","system_id":"levelo_inurba_marseille","lat":43.26155,"lon":5.4178,"is_reserved":false,"is_disabled":false,"rental_uris":{"android":"levelo://app?vid=321d43c2-a97c-419e-a110-a172b4ee23e9","ios":"levelo://app?vid=321d43c2-a97c-419e-a110-a172b4ee23e9"},"vehicle_type_id":"4","last_reported":1762672183,"current_range_meters":8800,"station_id":"","pricing_plan_id":"cebpf4jnsgd1na2vs0mg"},{"bike_id":"2049b5f5-a61d-4a53-9402-9b03842abc29","system_id":"levelo_inurba_marseille","lat":43.29201,"lon":5.35814,"is_reserved":false,"is_disabled":false,"rental_uris":{"android":"levelo://app?vid=2049b5f5-a61d-4a53-9402-9b03842abc29","ios":"levelo://app?vid=2049b5f5-a61d-4a53-9402-9b03842abc29"},"vehicle_type_id":"4","last_reported":1762672183,"current_range_meters":8800,"station_id":"ce4bhb12rcd13ifvqel0","pricing_plan_id":"cebpf4jnsgd1na2vs0mg"},{"bike_id":"1339ef90-7056-4f6c-97e9-32c4fa532151","system_id":"levelo_inurba_marseille","lat":43.240294,"lon":5.377465,"is_reserved":false,"is_disabled":false,"rental_uris":{"android":"levelo://app?vid=1339ef90-7056-4f6c-97e9-32c4fa532151","ios":"levelo://app?vid=1339ef90-7056-4f6c-97e9-32c4fa532151"},"vehicle_type_id":"4","last_reported":1762672183,"current_range_meters":8800,"station_id":"ce4bhnp2rcd13ifvqgvg","pricing_plan_id":"cebpf4jnsgd1na2vs0mg"},{"bike_id":"0e481b69-920b-48e1-b4f6-7ad29c4b0bcb","system_id":"levelo_inurba_marseille","lat":43.24654,"lon":5.43143,"is_reserved":false,"is_disabled":false,"rental_uris":{"android":"levelo://app?vid=0e481b69-920b-48e1-b4f6-7ad29c4b0bcb","ios":"levelo://app?vid=0e481b69-920b-48e1-b4f6-7ad29c4b0bcb"},"vehicle_type_id":"4","last_reported":1762672183,"current_range_meters":9200,"station_id":"st_d2m6c4gdas8pm72e190g","pricing_plan_id":"cebpf4jnsgd1na2vs0mg"},{"bike_id":"a9865bd5-be41-486d-b55c-2a75c0334784","system_id":"levelo_inurba_marseille","lat":43.28392,"lon":5.38078,"is_reserved":false,"is_disabled":false,"rental_uris":{"android":"levelo://app?vid=a9865bd5-be41-486d-b55c-2a75c0334784","ios":"levelo://app?vid=a9865bd5-be41-486d-b55c-2a75c0334784"},"vehicle_type_id":"4","last_reported":1762672183,"current_range_meters":9200,"station_id":"ce4bh412rcd13ifvqdr0","pricing_plan_id":"cebpf4jnsgd1na2vs0mg"},{"bike_id":"86a1d395-e83f-4e1c-9550-675523cd2d40","system_id":"levelo_inurba_marseille","lat":43.28303,"lon":5.39015,"is_reserved":false,"is_disabled":false,"rental_uris":{"android":"levelo://app?vid=86a1d395-e83f-4e1c-9550-675523cd2d40","ios":"levelo://app?vid=86a1d395-e83f-4e1c-9550-675523cd2d40"},"vehicle_type_id":"4","last_reported":1762672183,"current_range_meters":9200,"station_id":"","pricing_plan_id":"cebpf4jnsgd1na2vs0mg"},{"bike_id":"e29aa7d7-4287-4a52-b3dc-8004a3da962e","system_id":"levelo_inurba_marseille","lat":43.31063,"lon":5.38345,"is_reserved":false,"is_disabled":false,"rental_uris":{"android":"levelo://app?vid=e29aa7d7-4287-4a52-b3dc-8004a3da962e","ios":"levelo://app?vid=e29aa7d7-4287-4a52-b3dc-8004a3da962e"},"vehicle_type_id":"4","last_reported":1762672183,"current_range_meters":9200,"station_id":"ce4bgv92rcd13ifvqcr0","pricing_plan_id":"cebpf4jnsgd1na2vs0mg"},{"bike_id":"60c530a0-69e7-4ff7-af8a-3ef4e145092d","system_id":"levelo_inurba_marseille","lat":43.217429,"lon":5.346055,"is_reserved":false,"is_disabled":false,"rental_uris":{"android":"levelo://app?vid=60c530a0-69e7-4ff7-af8a-3ef4e145092d","ios":"levelo://app?vid=60c530a0-69e7-4ff7-af8a-3ef4e145092d"},"vehicle_type_id":"4","last_reported":1762672183,"current_range_meters":9200,"station_id":"","pricing_plan_id":"cebpf4jnsgd1na2vs0mg"},{"bike_id":"e14dda37-224b-49e5-897c-26f7a8c31c5e","system_id":"levelo_inurba_marseille","lat":43.31666,"lon":5.42719,"is_reserved":false,"is_disabled":false,"rental_uris":{"android":"levelo://app?vid=e14dda37-224b-49e5-897c-26f7a8c31c5e","ios":"levelo://app?vid=e14dda37-224b-49e5-897c-26f7a8c31c5e"},"vehicle_type_id":"4","last_reported":1762672183,"current_range_meters":9200,"station_id":"","pricing_plan_id":"cebpf4jnsgd1na2vs0mg"},{"bike_id":"acebb37f-10a9-4fea-ba6c-a317484bde56","system_id":"levelo_inurba_marseille","lat":43.29837,"lon":5.36492,"is_reserved":false,"is_disabled":false,"rental_uris":{"android":"levelo://app?vid=acebb37f-10a9-4fea-ba6c-a317484bde56","ios":"levelo://app?vid=acebb37f-10a9-4fea-ba6c-a317484bde56"},"vehicle_type_id":"4","last_reported":1762672183,"current_range_meters":9200,"station_id":"","pricing_plan_id":"cebpf4jnsgd1na2vs0mg"},{"bike_id":"4bce02cb-bdba-488a-a39f-eae80d4c7da8","system_id":"levelo_inurba_marseille","lat":43.282185,"lon":5.390497,"is_reserved":false,"is_disabled":true,"rental_uris":{"android":"levelo://app?vid=4bce02cb-bdba-488a-a39f-eae80d4c7da8","ios":"levelo://app?vid=4bce02cb-bdba-488a-a39f-eae80d4c7da8"},"vehicle_type_id":"4","last_reported":1762672183,"current_range_meters":9200,"station_id":"ce4bhn92rcd13ifvqgsg","pricing_plan_id":"cebpf4jnsgd1na2vs0mg"},{"bike_id":"dfde87bb-1a24-4866-bcda-6d9da60c1cf9","system_id":"levelo_inurba_marseille","lat":43.28585,"lon":5.3936,"is_reserved":false,"is_disabled":false,"rental_uris":{"android":"levelo://app?vid=dfde87bb-1a24-4866-bcda-6d9da60c1cf9","ios":"levelo://app?vid=dfde87bb-1a24-4866-bcda-6d9da60c1cf9"},"vehicle_type_id":"4","last_reported":1762672183,"current_range_meters":9200,"station_id":"","pricing_plan_id":"cebpf4jnsgd1na2vs0mg"},{"bike_id":"89c70b3d-8db7-400d-af88-ea1c30cbac93","system_id":"levelo_inurba_marseille","lat":43.29031,"lon":5.39991,"is_reserved":false,"is_disabled":false,"rental_uris":{"android":"levelo://app?vid=89c70b3d-8db7-400d-af88-ea1c30cbac93","ios":"levelo://app?vid=89c70b3d-8db7-400d-af88-ea1c30cbac93"},"vehicle_type_id":"4","last_reported":1762672183,"current_range_meters":9600,"station_id":"ce4bh392rcd13ifvqdm0","pricing_plan_id":"cebpf4jnsgd1na2vs0mg"},{"bike_id":"0e37c406-15ef-4a6c-8f37-3e3428645836","system_id":"levelo_inurba_marseille","lat":43.309316,"lon":5.401516,"is_reserved":false,"is_disabled":false,"rental_uris":{"android":"levelo://app?vid=0e37c406-15ef-4a6c-8f37-3e3428645836","ios":"levelo://app?vid=0e37c406-15ef-4a6c-8f37-3e3428645836"},"vehicle_type_id":"4","last_reported":1762672183,"current_range_meters":9600,"station_id":"ce4bgvp2rcd13ifvqct0","pricing_plan_id":"cebpf4jnsgd1na2vs0mg"},{"bike_id":"f17369a8-721f-41b9-b44a-b6dd21ee726c","system_id":"levelo_inurba_marseille","lat":43.30401,"lon":5.41298,"is_reserved":false,"is_disabled":false,"rental_uris":{"android":"levelo://app?vid=f17369a8-721f-41b9-b44a-b6dd21ee726c","ios":"levelo://app?vid=f17369a8-721f-41b9-b44a-b6dd21ee726c"},"vehicle_type_id":"4","last_reported":1762672183,"current_range_meters":9600,"station_id":"ce4bhop2rcd13ifvqh8g","pricing_plan_id":"cebpf4jnsgd1na2vs0mg"},{"bike_id":"665a5ba2-246e-4ac7-a969-6694219b1452","system_id":"levelo_inurba_marseille","lat":43.288515,"lon":5.35836,"is_reserved":false,"is_disabled":true,"rental_uris":{"android":"levelo://app?vid=665a5ba2-246e-4ac7-a969-6694219b1452","ios":"levelo://app?vid=665a5ba2-246e-4ac7-a969-6694219b1452"},"vehicle_type_id":"4","last_reported":1762672183,"current_range_meters":9600,"station_id":"ce4bhb12rcd13ifvqem0","pricing_plan_id":"cebpf4jnsgd1na2vs0mg"},{"bike_id":"ea369eb4-f14e-431e-9345-0f9312e0cd00","system_id":"levelo_inurba_marseille","lat":43.23782,"lon":5.36629,"is_reserved":false,"is_disabled":false,"rental_uris":{"android":"levelo://app?vid=ea369eb4-f14e-431e-9345-0f9312e0cd00","ios":"levelo://app?vid=ea369eb4-f14e-431e-9345-0f9312e0cd00"},"vehicle_type_id":"4","last_reported":1762672183,"current_range_meters":9600,"station_id":"st_d3nk18o9ro0c73en2l3g","pricing_plan_id":"cebpf4jnsgd1na2vs0mg"},{"bike_id":"0e1a7b6b-5de9-490d-a3c7-f241ef9468d0","system_id":"levelo_inurba_marseille","lat":43.30554,"lon":5.3839,"is_reserved":false,"is_disabled":false,"rental_uris":{"android":"levelo://app?vid=0e1a7b6b-5de9-490d-a3c7-f241ef9468d0","ios":"levelo://app?vid=0e1a7b6b-5de9-490d-a3c7-f241ef9468d0"},"vehicle_type_id":"4","last_reported":1762672183,"current_range_meters":9600,"station_id":"ce4bgg92rcd13ifvqb30","pricing_plan_id":"cebpf4jnsgd1na2vs0mg"},{"bike_id":"1c96cc64-0234-4ae0-b5ee-3c65f4e1762a","system_id":"levelo_inurba_marseille","lat":43.24544,"lon":5.3953,"is_reserved":false,"is_disabled":false,"rental_uris":{"android":"levelo://app?vid=1c96cc64-0234-4ae0-b5ee-3c65f4e1762a","ios":"levelo://app?vid=1c96cc64-0234-4ae0-b5ee-3c65f4e1762a"},"vehicle_type_id":"4","last_reported":1762672183,"current_range_meters":9600,"station_id":"ce4bhlp2rcd13ifvqgjg","pricing_plan_id":"cebpf4jnsgd1na2vs0mg"},{"bike_id":"027eee29-9bd0-4480-aee4-1542a23bb9f1","system_id":"levelo_inurba_marseille","lat":43.28486,"lon":5.38421,"is_reserved":false,"is_disabled":false,"rental_uris":{"android":"levelo://app?vid=027eee29-9bd0-4480-aee4-1542a23bb9f1","ios":"levelo://app?vid=027eee29-9bd0-4480-aee4-1542a23bb9f1"},"vehicle_type_id":"4","last_reported":1762672183,"current_range_meters":9600,"station_id":"ce4bh512rcd13ifvqe3g","pricing_plan_id":"cebpf4jnsgd1na2vs0mg"},{"bike_id":"54fa92af-5541-4137-afea-d36fade5cb4b","system_id":"levelo_inurba_marseille","lat":43.246393,"lon":5.431443,"is_reserved":false,"is_disabled":false,"rental_uris":{"android":"levelo://app?vid=54fa92af-5541-4137-afea-d36fade5cb4b","ios":"levelo://app?vid=54fa92af-5541-4137-afea-d36fade5cb4b"},"vehicle_type_id":"4","last_reported":1762672183,"current_range_meters":9600,"station_id":"st_d2m6c4gdas8pm72e190g","pricing_plan_id":"cebpf4jnsgd1na2vs0mg"},{"bike_id":"9740c8e5-19a7-40b9-b20a-4e0dd3ed4204","system_id":"levelo_inurba_marseille","lat":43.29582,"lon":5.399911,"is_reserved":false,"is_disabled":false,"rental_uris":{"android":"levelo://app?vid=9740c8e5-19a7-40b9-b20a-4e0dd3ed4204","ios":"levelo://app?vid=9740c8e5-19a7-40b9-b20a-4e0dd3ed4204"},"vehicle_type_id":"4","last_reported":1762672183,"current_range_meters":9600,"station_id":"ce4bh312rcd13ifvqdj0","pricing_plan_id":"cebpf4jnsgd1na2vs0mg"},{"bike_id":"870a9ad1-db35-4ab0-bc9a-84476efc6571","system_id":"levelo_inurba_marseille","lat":43.327883,"lon":5.426566,"is_reserved":false,"is_disabled":false,"rental_uris":{"android":"levelo://app?vid=870a9ad1-db35-4ab0-bc9a-84476efc6571","ios":"levelo://app?vid=870a9ad1-db35-4ab0-bc9a-84476efc6571"},"vehicle_type_id":"4","last_reported":1762672183,"current_range_meters":9600,"station_id":"","pricing_plan_id":"cebpf4jnsgd1na2vs0mg"},{"bike_id":"d2991a60-dcfa-4252-8f9d-bfff4b1dc433","system_id":"levelo_inurba_marseille","lat":43.31074,"lon":5.37129,"is_reserved":false,"is_disabled":false,"rental_uris":{"android":"levelo://app?vid=d2991a60-dcfa-4252-8f9d-bfff4b1dc433","ios":"levelo://app?vid=d2991a60-dcfa-4252-8f9d-bfff4b1dc433"},"vehicle_type_id":"4","last_reported":1762672183,"current_range_meters":9600,"station_id":"","pricing_plan_id":"cebpf4jnsgd1na2vs0mg"},{"bike_id":"fbde6ec5-1fe7-4d22-8c5f-69ffd202fbfd","system_id":"levelo_inurba_marseille","lat":43.28411,"lon":5.34989,"is_reserved":false,"is_disabled":false,"rental_uris":{"android":"levelo://app?vid=fbde6ec5-1fe7-4d22-8c5f-69ffd202fbfd","ios":"levelo://app?vid=fbde6ec5-1fe7-4d22-8c5f-69ffd202fbfd"},"vehicle_type_id":"4","last_reported":1762672183,"current_range_meters":10000,"station_id":"ce4bhbh2rcd13ifvqepg","pricing_plan_id":"cebpf4jnsgd1na2vs0mg"},{"bike_id":"05891cf1-768d-49ec-ac41-a2f202350756","system_id":"levelo_inurba_marseille","lat":43.31056,"lon":5.38365,"is_reserved":false,"is_disabled":false,"rental_uris":{"android":"levelo://app?vid=05891cf1-768d-49ec-ac41-a2f202350756","ios":"levelo://app?vid=05891cf1-768d-49ec-ac41-a2f202350756"},"vehicle_type_id":"4","last_reported":1762672183,"current_range_meters":10000,"station_id":"ce4bgv92rcd13ifvqcr0","pricing_plan_id":"cebpf4jnsgd1na2vs0mg"},{"bike_id":"825a1957-d327-49da-97b3-2485c79c40e7","system_id":"levelo_inurba_marseille","lat":43.21744,"lon":5.34615,"is_reserved":false,"is_disabled":true,"rental_uris":{"android":"levelo://app?vid=825a1957-d327-49da-97b3-2485c79c40e7","ios":"levelo://app?vid=825a1957-d327-49da-97b3-2485c79c40e7"},"vehicle_type_id":"4","last_reported":1762672183,"current_range_meters":10000,"station_id":"","pricing_plan_id":"cebpf4jnsgd1na2vs0mg"},{"bike_id":"2af63f6c-5625-4c1c-aec0-be4ec80aef16","system_id":"levelo_inurba_marseille","lat":43.28266,"lon":5.35073,"is_reserved":false,"is_disabled":false,"rental_uris":{"android":"levelo://app?vid=2af63f6c-5625-4c1c-aec0-be4ec80aef16","ios":"levelo://app?vid=2af63f6c-5625-4c1c-aec0-be4ec80aef16"},"vehicle_type_id":"4","last_reported":1762672183,"current_range_meters":10000,"station_id":"ce4bhbp2rcd13ifvqerg","pricing_plan_id":"cebpf4jnsgd1na2vs0mg"},{"bike_id":"fdfdde80-7f98-4492-a263-3964ecfbbb45","system_id":"levelo_inurba_marseille","lat":43.2827,"lon":5.35066,"is_reserved":false,"is_disabled":true,"rental_uris":{"android":"levelo://app?vid=fdfdde80-7f98-4492-a263-3964ecfbbb45","ios":"levelo://app?vid=fdfdde80-7f98-4492-a263-3964ecfbbb45"},"vehicle_type_id":"4","last_reported":1762672183,"current_range_meters":10000,"station_id":"ce4bhbp2rcd13ifvqerg","pricing_plan_id":"cebpf4jnsgd1na2vs0mg"},{"bike_id":"968e9c29-84ee-4827-bcab-ac08bc4ab6d5","system_id":"levelo_inurba_marseille","lat":43.29263,"lon":5.36851,"is_reserved":false,"is_disabled":true,"rental_uris":{"android":"levelo://app?vid=968e9c29-84ee-4827-bcab-ac08bc4ab6d5","ios":"levelo://app?vid=968e9c29-84ee-4827-bcab-ac08bc4ab6d5"},"vehicle_type_id":"4","last_reported":1762672183,"current_range_meters":10000,"station_id":"ce4bhbp2rcd13ifvqesg","pricing_plan_id":"cebpf4jnsgd1na2vs0mg"},{"bike_id":"2d09d6a2-f592-48df-a952-68864ae6960f","system_id":"levelo_inurba_marseille","lat":43.24471,"lon":5.40961,"is_reserved":false,"is_disabled":false,"rental_uris":{"android":"levelo://app?vid=2d09d6a2-f592-48df-a952-68864ae6960f","ios":"levelo://app?vid=2d09d6a2-f592-48df-a952-68864ae6960f"},"vehicle_type_id":"4","last_reported":1762672183,"current_range_meters":10000,"station_id":"","pricing_plan_id":"cebpf4jnsgd1na2vs0mg"},{"bike_id":"034b45fe-fc8a-40e2-930b-00715a4950c7","system_id":"levelo_inurba_marseille","lat":43.22546,"lon":5.34836,"is_reserved":false,"is_disabled":false,"rental_uris":{"android":"levelo://app?vid=034b45fe-fc8a-40e2-930b-00715a4950c7","ios":"levelo://app?vid=034b45fe-fc8a-40e2-930b-00715a4950c7"},"vehicle_type_id":"4","last_reported":1762672183,"current_range_meters":10800,"station_id":"","pricing_plan_id":"cebpf4jnsgd1na2vs0mg"},{"bike_id":"00a9969d-61b2-4fdd-bff1-9604d9c17fcc","system_id":"levelo_inurba_marseille","lat":43.28662,"lon":5.36359,"is_reserved":false,"is_disabled":false,"rental_uris":{"android":"levelo://app?vid=00a9969d-61b2-4fdd-bff1-9604d9c17fcc","ios":"levelo://app?vid=00a9969d-61b2-4fdd-bff1-9604d9c17fcc"},"vehicle_type_id":"4","last_reported":1762672183,"current_range_meters":10800,"station_id":"ce4bhah2rcd13ifvqej0","pricing_plan_id":"cebpf4jnsgd1na2vs0mg"},{"bike_id":"1f95699b-5498-4194-a0e4-6863698420ac","system_id":"levelo_inurba_marseille","lat":43.279248,"lon":5.395814,"is_reserved":false,"is_disabled":false,"rental_uris":{"android":"levelo://app?vid=1f95699b-5498-4194-a0e4-6863698420ac","ios":"levelo://app?vid=1f95699b-5498-4194-a0e4-6863698420ac"},"vehicle_type_id":"4","last_reported":1762672183,"current_range_meters":10800,"station_id":"ce4bhf92rcd13ifvqf40","pricing_plan_id":"cebpf4jnsgd1na2vs0mg"},{"bike_id":"6e516340-9641-4325-9cd8-46780776c1ed","system_id":"levelo_inurba_marseille","lat":43.30552,"lon":5.36708,"is_reserved":false,"is_disabled":true,"rental_uris":{"android":"levelo://app?vid=6e516340-9641-4325-9cd8-46780776c1ed","ios":"levelo://app?vid=6e516340-9641-4325-9cd8-46780776c1ed"},"vehicle_type_id":"4","last_reported":1762672183,"current_range_meters":10800,"station_id":"ce4bgrp2rcd13ifvqc9g","pricing_plan_id":"cebpf4jnsgd1na2vs0mg"},{"bike_id":"d093f383-5262-4d4b-8e02-dcebb6a0d405","system_id":"levelo_inurba_marseille","lat":43.29004,"lon":5.35616,"is_reserved":false,"is_disabled":false,"rental_uris":{"android":"levelo://app?vid=d093f383-5262-4d4b-8e02-dcebb6a0d405","ios":"levelo://app?vid=d093f383-5262-4d4b-8e02-dcebb6a0d405"},"vehicle_type_id":"4","last_reported":1762672183,"current_range_meters":10800,"station_id":"ce4bhb92rcd13ifvqen0","pricing_plan_id":"cebpf4jnsgd1na2vs0mg"},{"bike_id":"a630d70e-d466-46de-bd9f-14c9a7757ee6","system_id":"levelo_inurba_marseille","lat":43.24646,"lon":5.38908,"is_reserved":false,"is_disabled":false,"rental_uris":{"android":"levelo://app?vid=a630d70e-d466-46de-bd9f-14c9a7757ee6","ios":"levelo://app?vid=a630d70e-d466-46de-bd9f-14c9a7757ee6"},"vehicle_type_id":"4","last_reported":1762672183,"current_range_meters":10800,"station_id":"ce4bhg12rcd13ifvqf60","pricing_plan_id":"cebpf4jnsgd1na2vs0mg"},{"bike_id":"5c91f7a5-bf4a-47b4-82be-e1c1e11e7df2","system_id":"levelo_inurba_marseille","lat":43.29485,"lon":5.43307,"is_reserved":false,"is_disabled":false,"rental_uris":{"android":"levelo://app?vid=5c91f7a5-bf4a-47b4-82be-e1c1e11e7df2","ios":"levelo://app?vid=5c91f7a5-bf4a-47b4-82be-e1c1e11e7df2"},"vehicle_type_id":"4","last_reported":1762672183,"current_range_meters":10800,"station_id":"st_d3j5ugp08ojc73fj9d10","pricing_plan_id":"cebpf4jnsgd1na2vs0mg"},{"bike_id":"bb369614-864d-4eca-9329-9045de388202","system_id":"levelo_inurba_marseille","lat":43.28854,"lon":5.35868,"is_reserved":false,"is_disabled":false,"rental_uris":{"android":"levelo://app?vid=bb369614-864d-4eca-9329-9045de388202","ios":"levelo://app?vid=bb369614-864d-4eca-9329-9045de388202"},"vehicle_type_id":"4","last_reported":1762672183,"current_range_meters":10800,"station_id":"ce4bhb12rcd13ifvqem0","pricing_plan_id":"cebpf4jnsgd1na2vs0mg"},{"bike_id":"21dcb4e2-bef4-415f-aa59-cd0b9e2cb07b","system_id":"levelo_inurba_marseille","lat":43.22816,"lon":5.43472,"is_reserved":false,"is_disabled":false,"rental_uris":{"android":"levelo://app?vid=21dcb4e2-bef4-415f-aa59-cd0b9e2cb07b","ios":"levelo://app?vid=21dcb4e2-bef4-415f-aa59-cd0b9e2cb07b"},"vehicle_type_id":"4","last_reported":1762672183,"current_range_meters":10800,"station_id":"","pricing_plan_id":"cebpf4jnsgd1na2vs0mg"},{"bike_id":"6fb9aaeb-fd54-4120-8c7f-cb19a69f6629","system_id":"levelo_inurba_marseille","lat":43.23371,"lon":5.35592,"is_reserved":false,"is_disabled":false,"rental_uris":{"android":"levelo://app?vid=6fb9aaeb-fd54-4120-8c7f-cb19a69f6629","ios":"levelo://app?vid=6fb9aaeb-fd54-4120-8c7f-cb19a69f6629"},"vehicle_type_id":"4","last_reported":1762672183,"current_range_meters":11200,"station_id":"","pricing_plan_id":"cebpf4jnsgd1na2vs0mg"},{"bike_id":"c73c5513-728d-4700-9395-e31e4399cd51","system_id":"levelo_inurba_marseille","lat":43.29213,"lon":5.40293,"is_reserved":false,"is_disabled":false,"rental_uris":{"android":"levelo://app?vid=c73c5513-728d-4700-9395-e31e4399cd51","ios":"levelo://app?vid=c73c5513-728d-4700-9395-e31e4399cd51"},"vehicle_type_id":"4","last_reported":1762672183,"current_range_meters":11200,"station_id":"","pricing_plan_id":"cebpf4jnsgd1na2vs0mg"},{"bike_id":"96849ec5-10dd-4e24-8e24-c76949fc9655","system_id":"levelo_inurba_marseille","lat":43.275,"lon":5.42452,"is_reserved":false,"is_disabled":false,"rental_uris":{"android":"levelo://app?vid=96849ec5-10dd-4e24-8e24-c76949fc9655","ios":"levelo://app?vid=96849ec5-10dd-4e24-8e24-c76949fc9655"},"vehicle_type_id":"4","last_reported":1762672183,"current_range_meters":11200,"station_id":"ce4bhn92rcd13ifvqgrg","pricing_plan_id":"cebpf4jnsgd1na2vs0mg"},{"bike_id":"15db09df-59b0-446a-87c5-e354a3319258","system_id":"levelo_inurba_marseille","lat":43.28477,"lon":5.48399,"is_reserved":false,"is_disabled":false,"rental_uris":{"android":"levelo://app?vid=15db09df-59b0-446a-87c5-e354a3319258","ios":"levelo://app?vid=15db09df-59b0-446a-87c5-e354a3319258"},"vehicle_type_id":"4","last_reported":1762672183,"current_range_meters":11200,"station_id":"","pricing_plan_id":"cebpf4jnsgd1na2vs0mg"},{"bike_id":"c1ac8c2e-9073-4bc7-a7fa-75f8a4c88d0e","system_id":"levelo_inurba_marseille","lat":43.31485,"lon":5.37295,"is_reserved":false,"is_disabled":false,"rental_uris":{"android":"levelo://app?vid=c1ac8c2e-9073-4bc7-a7fa-75f8a4c88d0e","ios":"levelo://app?vid=c1ac8c2e-9073-4bc7-a7fa-75f8a4c88d0e"},"vehicle_type_id":"4","last_reported":1762672183,"current_range_meters":11200,"station_id":"ce4bgt12rcd13ifvqcd0","pricing_plan_id":"cebpf4jnsgd1na2vs0mg"},{"bike_id":"755cc534-8502-443b-99ad-796f64a01270","system_id":"levelo_inurba_marseille","lat":43.2418,"lon":5.39727,"is_reserved":false,"is_disabled":false,"rental_uris":{"android":"levelo://app?vid=755cc534-8502-443b-99ad-796f64a01270","ios":"levelo://app?vid=755cc534-8502-443b-99ad-796f64a01270"},"vehicle_type_id":"4","last_reported":1762672183,"current_range_meters":11200,"station_id":"ce4bhn12rcd13ifvqgpg","pricing_plan_id":"cebpf4jnsgd1na2vs0mg"},{"bike_id":"019594b8-79b3-4ac5-9fb9-9cafe418346b","system_id":"levelo_inurba_marseille","lat":43.29191,"lon":5.35793,"is_reserved":false,"is_disabled":false,"rental_uris":{"android":"levelo://app?vid=019594b8-79b3-4ac5-9fb9-9cafe418346b","ios":"levelo://app?vid=019594b8-79b3-4ac5-9fb9-9cafe418346b"},"vehicle_type_id":"4","last_reported":1762672183,"current_range_meters":11200,"station_id":"ce4bhb12rcd13ifvqel0","pricing_plan_id":"cebpf4jnsgd1na2vs0mg"},{"bike_id":"462fd3fb-de6a-4a66-9e94-cfd2b0d801c6","system_id":"levelo_inurba_marseille","lat":43.30335,"lon":5.37696,"is_reserved":false,"is_disabled":false,"rental_uris":{"android":"levelo://app?vid=462fd3fb-de6a-4a66-9e94-cfd2b0d801c6","ios":"levelo://app?vid=462fd3fb-de6a-4a66-9e94-cfd2b0d801c6"},"vehicle_type_id":"4","last_reported":1762672183,"current_range_meters":11200,"station_id":"","pricing_plan_id":"cebpf4jnsgd1na2vs0mg"},{"bike_id":"8e140702-853d-4aa7-abe8-645805aa250e","system_id":"levelo_inurba_marseille","lat":43.265594,"lon":5.403279,"is_reserved":false,"is_disabled":false,"rental_uris":{"android":"levelo://app?vid=8e140702-853d-4aa7-abe8-645805aa250e","ios":"levelo://app?vid=8e140702-853d-4aa7-abe8-645805aa250e"},"vehicle_type_id":"4","last_reported":1762672183,"current_range_meters":11600,"station_id":"ce4bhmp2rcd13ifvqgng","pricing_plan_id":"cebpf4jnsgd1na2vs0mg"},{"bike_id":"1a85bd73-f6c9-483d-ac28-5d95b6775d78","system_id":"levelo_inurba_marseille","lat":43.28715,"lon":5.37939,"is_reserved":false,"is_disabled":true,"rental_uris":{"android":"levelo://app?vid=1a85bd73-f6c9-483d-ac28-5d95b6775d78","ios":"levelo://app?vid=1a85bd73-f6c9-483d-ac28-5d95b6775d78"},"vehicle_type_id":"4","last_reported":1762672183,"current_range_meters":11600,"station_id":"ce4bh9p2rcd13ifvqec0","pricing_plan_id":"cebpf4jnsgd1na2vs0mg"},{"bike_id":"539af7a8-1dd8-479c-af85-4043d0cfc94d","system_id":"levelo_inurba_marseille","lat":43.29166,"lon":5.37146,"is_reserved":false,"is_disabled":false,"rental_uris":{"android":"levelo://app?vid=539af7a8-1dd8-479c-af85-4043d0cfc94d","ios":"levelo://app?vid=539af7a8-1dd8-479c-af85-4043d0cfc94d"},"vehicle_type_id":"4","last_reported":1762672183,"current_range_meters":11600,"station_id":"ce4bha92rcd13ifvqeh0","pricing_plan_id":"cebpf4jnsgd1na2vs0mg"},{"bike_id":"0438f67e-f1fb-4064-8a55-a78fd643a326","system_id":"levelo_inurba_marseille","lat":43.2356,"lon":5.37465,"is_reserved":false,"is_disabled":false,"rental_uris":{"android":"levelo://app?vid=0438f67e-f1fb-4064-8a55-a78fd643a326","ios":"levelo://app?vid=0438f67e-f1fb-4064-8a55-a78fd643a326"},"vehicle_type_id":"4","last_reported":1762672183,"current_range_meters":11600,"station_id":"","pricing_plan_id":"cebpf4jnsgd1na2vs0mg"},{"bike_id":"1d5b947e-2f1a-40e5-8166-542ac5ce448f","system_id":"levelo_inurba_marseille","lat":43.30457,"lon":5.38885,"is_reserved":false,"is_disabled":false,"rental_uris":{"android":"levelo://app?vid=1d5b947e-2f1a-40e5-8166-542ac5ce448f","ios":"levelo://app?vid=1d5b947e-2f1a-40e5-8166-542ac5ce448f"},"vehicle_type_id":"4","last_reported":1762672183,"current_range_meters":11600,"station_id":"ce4bgk12rcd13ifvqbi0","pricing_plan_id":"cebpf4jnsgd1na2vs0mg"},{"bike_id":"3e2b6028-a539-4e64-9081-578276ce4315","system_id":"levelo_inurba_marseille","lat":43.24596,"lon":5.4211,"is_reserved":false,"is_disabled":false,"rental_uris":{"android":"levelo://app?vid=3e2b6028-a539-4e64-9081-578276ce4315","ios":"levelo://app?vid=3e2b6028-a539-4e64-9081-578276ce4315"},"vehicle_type_id":"4","last_reported":1762672183,"current_range_meters":12000,"station_id":"","pricing_plan_id":"cebpf4jnsgd1na2vs0mg"},{"bike_id":"84138f31-9213-45c3-a4c2-e6e9fdfb5ae1","system_id":"levelo_inurba_marseille","lat":43.292311,"lon":5.364797,"is_reserved":false,"is_disabled":false,"rental_uris":{"android":"levelo://app?vid=84138f31-9213-45c3-a4c2-e6e9fdfb5ae1","ios":"levelo://app?vid=84138f31-9213-45c3-a4c2-e6e9fdfb5ae1"},"vehicle_type_id":"4","last_reported":1762672183,"current_range_meters":12000,"station_id":"","pricing_plan_id":"cebpf4jnsgd1na2vs0mg"},{"bike_id":"6c3a40b5-fcef-426e-8a9c-85e786754dc6","system_id":"levelo_inurba_marseille","lat":43.302552,"lon":5.400657,"is_reserved":false,"is_disabled":false,"rental_uris":{"android":"levelo://app?vid=6c3a40b5-fcef-426e-8a9c-85e786754dc6","ios":"levelo://app?vid=6c3a40b5-fcef-426e-8a9c-85e786754dc6"},"vehicle_type_id":"4","last_reported":1762672183,"current_range_meters":12000,"station_id":"ce4bgvh2rcd13ifvqcs0","pricing_plan_id":"cebpf4jnsgd1na2vs0mg"},{"bike_id":"96b2482f-648d-43a4-be62-da9678bd96ec","system_id":"levelo_inurba_marseille","lat":43.30899,"lon":5.37195,"is_reserved":false,"is_disabled":false,"rental_uris":{"android":"levelo://app?vid=96b2482f-648d-43a4-be62-da9678bd96ec","ios":"levelo://app?vid=96b2482f-648d-43a4-be62-da9678bd96ec"},"vehicle_type_id":"4","last_reported":1762672183,"current_range_meters":12000,"station_id":"ce4bguh2rcd13ifvqckg","pricing_plan_id":"cebpf4jnsgd1na2vs0mg"},{"bike_id":"ce8c961a-85c8-44ab-ae83-7f378b5ad238","system_id":"levelo_inurba_marseille","lat":43.28146,"lon":5.426375,"is_reserved":false,"is_disabled":false,"rental_uris":{"android":"levelo://app?vid=ce8c961a-85c8-44ab-ae83-7f378b5ad238","ios":"levelo://app?vid=ce8c961a-85c8-44ab-ae83-7f378b5ad238"},"vehicle_type_id":"4","last_reported":1762672183,"current_range_meters":12000,"station_id":"ce4bhnh2rcd13ifvqgug","pricing_plan_id":"cebpf4jnsgd1na2vs0mg"},{"bike_id":"b6e4535c-5cae-4935-a3fb-2bbd0399a4f7","system_id":"levelo_inurba_marseille","lat":43.21198,"lon":5.35096,"is_reserved":false,"is_disabled":false,"rental_uris":{"android":"levelo://app?vid=b6e4535c-5cae-4935-a3fb-2bbd0399a4f7","ios":"levelo://app?vid=b6e4535c-5cae-4935-a3fb-2bbd0399a4f7"},"vehicle_type_id":"4","last_reported":1762672183,"current_range_meters":12000,"station_id":"","pricing_plan_id":"cebpf4jnsgd1na2vs0mg"},{"bike_id":"e374f4d6-676c-4d62-af2d-1f0734c48172","system_id":"levelo_inurba_marseille","lat":43.294864,"lon":5.433143,"is_reserved":false,"is_disabled":false,"rental_uris":{"android":"levelo://app?vid=e374f4d6-676c-4d62-af2d-1f0734c48172","ios":"levelo://app?vid=e374f4d6-676c-4d62-af2d-1f0734c48172"},"vehicle_type_id":"4","last_reported":1762672183,"current_range_meters":12400,"station_id":"st_d3j5ugp08ojc73fj9d10","pricing_plan_id":"cebpf4jnsgd1na2vs0mg"},{"bike_id":"a07eee62-9d57-4305-a3b9-5271338fd36d","system_id":"levelo_inurba_marseille","lat":43.256367,"lon":5.39394,"is_reserved":false,"is_disabled":false,"rental_uris":{"android":"levelo://app?vid=a07eee62-9d57-4305-a3b9-5271338fd36d","ios":"levelo://app?vid=a07eee62-9d57-4305-a3b9-5271338fd36d"},"vehicle_type_id":"4","last_reported":1762672183,"current_range_meters":12400,"station_id":"","pricing_plan_id":"cebpf4jnsgd1na2vs0mg"},{"bike_id":"6ca580b9-ae87-4e9b-a62c-4e0f6a07370c","system_id":"levelo_inurba_marseille","lat":43.211881,"lon":5.350721,"is_reserved":false,"is_disabled":false,"rental_uris":{"android":"levelo://app?vid=6ca580b9-ae87-4e9b-a62c-4e0f6a07370c","ios":"levelo://app?vid=6ca580b9-ae87-4e9b-a62c-4e0f6a07370c"},"vehicle_type_id":"4","last_reported":1762672183,"current_range_meters":12400,"station_id":"st_cvj6sg6p6f1abm77japg","pricing_plan_id":"cebpf4jnsgd1na2vs0mg"},{"bike_id":"5a5328e0-d49a-47f5-b845-fc6cc4d47ca6","system_id":"levelo_inurba_marseille","lat":43.28412,"lon":5.34986,"is_reserved":false,"is_disabled":false,"rental_uris":{"android":"levelo://app?vid=5a5328e0-d49a-47f5-b845-fc6cc4d47ca6","ios":"levelo://app?vid=5a5328e0-d49a-47f5-b845-fc6cc4d47ca6"},"vehicle_type_id":"4","last_reported":1762672183,"current_range_meters":12400,"station_id":"ce4bhbh2rcd13ifvqepg","pricing_plan_id":"cebpf4jnsgd1na2vs0mg"},{"bike_id":"437cf636-6a5d-42d9-8522-2125899f9bcc","system_id":"levelo_inurba_marseille","lat":43.30315,"lon":5.40443,"is_reserved":false,"is_disabled":false,"rental_uris":{"android":"levelo://app?vid=437cf636-6a5d-42d9-8522-2125899f9bcc","ios":"levelo://app?vid=437cf636-6a5d-42d9-8522-2125899f9bcc"},"vehicle_type_id":"4","last_reported":1762672183,"current_range_meters":12400,"station_id":"ce4bh012rcd13ifvqd10","pricing_plan_id":"cebpf4jnsgd1na2vs0mg"},{"bike_id":"50f530d8-a703-4d21-9bca-1083f2e62edb","system_id":"levelo_inurba_marseille","lat":43.25342,"lon":5.42139,"is_reserved":false,"is_disabled":false,"rental_uris":{"android":"levelo://app?vid=50f530d8-a703-4d21-9bca-1083f2e62edb","ios":"levelo://app?vid=50f530d8-a703-4d21-9bca-1083f2e62edb"},"vehicle_type_id":"4","last_reported":1762672183,"current_range_meters":12800,"station_id":"st_d2m65c5bi1j21697t3ng","pricing_plan_id":"cebpf4jnsgd1na2vs0mg"},{"bike_id":"4132147f-7431-4834-888a-022eef83d616","system_id":"levelo_inurba_marseille","lat":43.27414,"lon":5.39388,"is_reserved":false,"is_disabled":false,"rental_uris":{"android":"levelo://app?vid=4132147f-7431-4834-888a-022eef83d616","ios":"levelo://app?vid=4132147f-7431-4834-888a-022eef83d616"},"vehicle_type_id":"4","last_reported":1762672183,"current_range_meters":12800,"station_id":"ce4bhdp2rcd13ifvqf20","pricing_plan_id":"cebpf4jnsgd1na2vs0mg"},{"bike_id":"c6d5d8d4-4173-4646-a45b-e93034e39692","system_id":"levelo_inurba_marseille","lat":43.23145,"lon":5.43724,"is_reserved":false,"is_disabled":false,"rental_uris":{"android":"levelo://app?vid=c6d5d8d4-4173-4646-a45b-e93034e39692","ios":"levelo://app?vid=c6d5d8d4-4173-4646-a45b-e93034e39692"},"vehicle_type_id":"4","last_reported":1762672183,"current_range_meters":12800,"station_id":"ce4bhmp2rcd13ifvqgog","pricing_plan_id":"cebpf4jnsgd1na2vs0mg"},{"bike_id":"2b4a0053-688e-47e8-ba93-f48ad26ca95f","system_id":"levelo_inurba_marseille","lat":43.30925,"lon":5.40163,"is_reserved":false,"is_disabled":false,"rental_uris":{"android":"levelo://app?vid=2b4a0053-688e-47e8-ba93-f48ad26ca95f","ios":"levelo://app?vid=2b4a0053-688e-47e8-ba93-f48ad26ca95f"},"vehicle_type_id":"4","last_reported":1762672183,"current_range_meters":12800,"station_id":"ce4bgvp2rcd13ifvqct0","pricing_plan_id":"cebpf4jnsgd1na2vs0mg"},{"bike_id":"7da7c3d0-d919-4a1b-8b39-5704565a0082","system_id":"levelo_inurba_marseille","lat":43.29002,"lon":5.35613,"is_reserved":false,"is_disabled":false,"rental_uris":{"android":"levelo://app?vid=7da7c3d0-d919-4a1b-8b39-5704565a0082","ios":"levelo://app?vid=7da7c3d0-d919-4a1b-8b39-5704565a0082"},"vehicle_type_id":"4","last_reported":1762672183,"current_range_meters":12800,"station_id":"ce4bhb92rcd13ifvqen0","pricing_plan_id":"cebpf4jnsgd1na2vs0mg"},{"bike_id":"43cd5cad-a17a-4f7c-b241-a555b3006555","system_id":"levelo_inurba_marseille","lat":43.30885,"lon":5.39627,"is_reserved":false,"is_disabled":false,"rental_uris":{"android":"levelo://app?vid=43cd5cad-a17a-4f7c-b241-a555b3006555","ios":"levelo://app?vid=43cd5cad-a17a-4f7c-b241-a555b3006555"},"vehicle_type_id":"4","last_reported":1762672183,"current_range_meters":12800,"station_id":"ce4bh012rcd13ifvqcv0","pricing_plan_id":"cebpf4jnsgd1na2vs0mg"},{"bike_id":"81930cd8-4d1b-4bc0-874e-f0517b12147e","system_id":"levelo_inurba_marseille","lat":43.30637,"lon":5.40078,"is_reserved":false,"is_disabled":false,"rental_uris":{"android":"levelo://app?vid=81930cd8-4d1b-4bc0-874e-f0517b12147e","ios":"levelo://app?vid=81930cd8-4d1b-4bc0-874e-f0517b12147e"},"vehicle_type_id":"4","last_reported":1762672183,"current_range_meters":12800,"station_id":"ce4bh112rcd13ifvqda0","pricing_plan_id":"cebpf4jnsgd1na2vs0mg"},{"bike_id":"06b572d6-d95a-4f1a-9a9a-b316897ad6d5","system_id":"levelo_inurba_marseille","lat":43.29545,"lon":5.3752,"is_reserved":false,"is_disabled":false,"rental_uris":{"android":"levelo://app?vid=06b572d6-d95a-4f1a-9a9a-b316897ad6d5","ios":"levelo://app?vid=06b572d6-d95a-4f1a-9a9a-b316897ad6d5"},"vehicle_type_id":"4","last_reported":1762672183,"current_range_meters":12800,"station_id":"ce4bgkp2rcd13ifvqbmg","pricing_plan_id":"cebpf4jnsgd1na2vs0mg"},{"bike_id":"bcb7664a-39c2-46f8-930f-41cebd3d0b86","system_id":"levelo_inurba_marseille","lat":43.21184,"lon":5.35074,"is_reserved":false,"is_disabled":true,"rental_uris":{"android":"levelo://app?vid=bcb7664a-39c2-46f8-930f-41cebd3d0b86","ios":"levelo://app?vid=bcb7664a-39c2-46f8-930f-41cebd3d0b86"},"vehicle_type_id":"4","last_reported":1762672183,"current_range_meters":12800,"station_id":"st_cvj6sg6p6f1abm77japg","pricing_plan_id":"cebpf4jnsgd1na2vs0mg"},{"bike_id":"b343e7d4-d786-4665-9636-a7f91c01ef9b","system_id":"levelo_inurba_marseille","lat":43.253291,"lon":5.421744,"is_reserved":false,"is_disabled":false,"rental_uris":{"android":"levelo://app?vid=b343e7d4-d786-4665-9636-a7f91c01ef9b","ios":"levelo://app?vid=b343e7d4-d786-4665-9636-a7f91c01ef9b"},"vehicle_type_id":"4","last_reported":1762672183,"current_range_meters":12800,"station_id":"st_d2m65c5bi1j21697t3ng","pricing_plan_id":"cebpf4jnsgd1na2vs0mg"},{"bike_id":"2b1e0c4b-c73b-415a-b52c-8778d2bdbadb","system_id":"levelo_inurba_marseille","lat":43.30014,"lon":5.38188,"is_reserved":false,"is_disabled":false,"rental_uris":{"android":"levelo://app?vid=2b1e0c4b-c73b-415a-b52c-8778d2bdbadb","ios":"levelo://app?vid=2b1e0c4b-c73b-415a-b52c-8778d2bdbadb"},"vehicle_type_id":"4","last_reported":1762672183,"current_range_meters":12800,"station_id":"","pricing_plan_id":"cebpf4jnsgd1na2vs0mg"},{"bike_id":"ac1012d0-7872-4c6e-85e6-fc8eaff39396","system_id":"levelo_inurba_marseille","lat":43.284608,"lon":5.358924,"is_reserved":false,"is_disabled":true,"rental_uris":{"android":"levelo://app?vid=ac1012d0-7872-4c6e-85e6-fc8eaff39396","ios":"levelo://app?vid=ac1012d0-7872-4c6e-85e6-fc8eaff39396"},"vehicle_type_id":"4","last_reported":1762672183,"current_range_meters":12800,"station_id":"ce4bhah2rcd13ifvqei0","pricing_plan_id":"cebpf4jnsgd1na2vs0mg"},{"bike_id":"7251439b-7fee-4423-83ad-8a0dbd1ea6cd","system_id":"levelo_inurba_marseille","lat":43.24077,"lon":5.37731,"is_reserved":false,"is_disabled":false,"rental_uris":{"android":"levelo://app?vid=7251439b-7fee-4423-83ad-8a0dbd1ea6cd","ios":"levelo://app?vid=7251439b-7fee-4423-83ad-8a0dbd1ea6cd"},"vehicle_type_id":"4","last_reported":1762672183,"current_range_meters":12800,"station_id":"ce4bhnp2rcd13ifvqgvg","pricing_plan_id":"cebpf4jnsgd1na2vs0mg"},{"bike_id":"b0c16fab-fa00-45da-a504-a4fe01049530","system_id":"levelo_inurba_marseille","lat":43.28432,"lon":5.37683,"is_reserved":false,"is_disabled":false,"rental_uris":{"android":"levelo://app?vid=b0c16fab-fa00-45da-a504-a4fe01049530","ios":"levelo://app?vid=b0c16fab-fa00-45da-a504-a4fe01049530"},"vehicle_type_id":"4","last_reported":1762672183,"current_range_meters":12800,"station_id":"","pricing_plan_id":"cebpf4jnsgd1na2vs0mg"},{"bike_id":"317822ad-eebe-4d49-be47-de3738a7f974","system_id":"levelo_inurba_marseille","lat":43.33149,"lon":5.37701,"is_reserved":false,"is_disabled":false,"rental_uris":{"android":"levelo://app?vid=317822ad-eebe-4d49-be47-de3738a7f974","ios":"levelo://app?vid=317822ad-eebe-4d49-be47-de3738a7f974"},"vehicle_type_id":"4","last_reported":1762672183,"current_range_meters":13600,"station_id":"st_d46cu089ee8s73dldbu0","pricing_plan_id":"cebpf4jnsgd1na2vs0mg"},{"bike_id":"74573cb4-9773-4fb0-b048-61ac3a6954a7","system_id":"levelo_inurba_marseille","lat":43.28401,"lon":5.37534,"is_reserved":false,"is_disabled":false,"rental_uris":{"android":"levelo://app?vid=74573cb4-9773-4fb0-b048-61ac3a6954a7","ios":"levelo://app?vid=74573cb4-9773-4fb0-b048-61ac3a6954a7"},"vehicle_type_id":"4","last_reported":1762672183,"current_range_meters":13600,"station_id":"ce4bh412rcd13ifvqds0","pricing_plan_id":"cebpf4jnsgd1na2vs0mg"},{"bike_id":"d40eddf7-c016-4619-ae96-396f174beeac","system_id":"levelo_inurba_marseille","lat":43.29002,"lon":5.35609,"is_reserved":false,"is_disabled":false,"rental_uris":{"android":"levelo://app?vid=d40eddf7-c016-4619-ae96-396f174beeac","ios":"levelo://app?vid=d40eddf7-c016-4619-ae96-396f174beeac"},"vehicle_type_id":"4","last_reported":1762672183,"current_range_meters":13600,"station_id":"ce4bhb92rcd13ifvqen0","pricing_plan_id":"cebpf4jnsgd1na2vs0mg"},{"bike_id":"8104c69d-4db3-489d-9298-81ea4e398d16","system_id":"levelo_inurba_marseille","lat":43.27962,"lon":5.41059,"is_reserved":false,"is_disabled":false,"rental_uris":{"android":"levelo://app?vid=8104c69d-4db3-489d-9298-81ea4e398d16","ios":"levelo://app?vid=8104c69d-4db3-489d-9298-81ea4e398d16"},"vehicle_type_id":"4","last_reported":1762672183,"current_range_meters":13600,"station_id":"ce4bhnp2rcd13ifvqh0g","pricing_plan_id":"cebpf4jnsgd1na2vs0mg"},{"bike_id":"260e08db-ebe0-43dc-841f-0b6cfdac9a2f","system_id":"levelo_inurba_marseille","lat":43.251206,"lon":5.403232,"is_reserved":false,"is_disabled":false,"rental_uris":{"android":"levelo://app?vid=260e08db-ebe0-43dc-841f-0b6cfdac9a2f","ios":"levelo://app?vid=260e08db-ebe0-43dc-841f-0b6cfdac9a2f"},"vehicle_type_id":"4","last_reported":1762672183,"current_range_meters":13600,"station_id":"ce4bhlh2rcd13ifvqgig","pricing_plan_id":"cebpf4jnsgd1na2vs0mg"},{"bike_id":"d4d905e3-5d4c-4dcf-b2a7-a39dd627b8e4","system_id":"levelo_inurba_marseille","lat":43.253324,"lon":5.421658,"is_reserved":false,"is_disabled":false,"rental_uris":{"android":"levelo://app?vid=d4d905e3-5d4c-4dcf-b2a7-a39dd627b8e4","ios":"levelo://app?vid=d4d905e3-5d4c-4dcf-b2a7-a39dd627b8e4"},"vehicle_type_id":"4","last_reported":1762672183,"current_range_meters":13600,"station_id":"st_d2m65c5bi1j21697t3ng","pricing_plan_id":"cebpf4jnsgd1na2vs0mg"},{"bike_id":"2b0c47a1-a456-46ac-9133-b33536d93127","system_id":"levelo_inurba_marseille","lat":43.306492,"lon":5.400807,"is_reserved":false,"is_disabled":false,"rental_uris":{"android":"levelo://app?vid=2b0c47a1-a456-46ac-9133-b33536d93127","ios":"levelo://app?vid=2b0c47a1-a456-46ac-9133-b33536d93127"},"vehicle_type_id":"4","last_reported":1762672183,"current_range_meters":13600,"station_id":"ce4bh112rcd13ifvqda0","pricing_plan_id":"cebpf4jnsgd1na2vs0mg"},{"bike_id":"24a6a279-34e1-439e-8ea4-be1b46fd4762","system_id":"levelo_inurba_marseille","lat":43.317094,"lon":5.404593,"is_reserved":false,"is_disabled":false,"rental_uris":{"android":"levelo://app?vid=24a6a279-34e1-439e-8ea4-be1b46fd4762","ios":"levelo://app?vid=24a6a279-34e1-439e-8ea4-be1b46fd4762"},"vehicle_type_id":"4","last_reported":1762672183,"current_range_meters":13600,"station_id":"ce4bh012rcd13ifvqd00","pricing_plan_id":"cebpf4jnsgd1na2vs0mg"},{"bike_id":"de55c010-abe2-4f50-9186-e780ceeace4d","system_id":"levelo_inurba_marseille","lat":43.312729,"lon":5.401769,"is_reserved":false,"is_disabled":false,"rental_uris":{"android":"levelo://app?vid=de55c010-abe2-4f50-9186-e780ceeace4d","ios":"levelo://app?vid=de55c010-abe2-4f50-9186-e780ceeace4d"},"vehicle_type_id":"4","last_reported":1762672183,"current_range_meters":14000,"station_id":"ce4bh092rcd13ifvqd30","pricing_plan_id":"cebpf4jnsgd1na2vs0mg"},{"bike_id":"faf0aceb-00d1-4296-8aba-764fb540ed9f","system_id":"levelo_inurba_marseille","lat":43.24069,"lon":5.37764,"is_reserved":false,"is_disabled":false,"rental_uris":{"android":"levelo://app?vid=faf0aceb-00d1-4296-8aba-764fb540ed9f","ios":"levelo://app?vid=faf0aceb-00d1-4296-8aba-764fb540ed9f"},"vehicle_type_id":"4","last_reported":1762672183,"current_range_meters":14000,"station_id":"ce4bhnp2rcd13ifvqgvg","pricing_plan_id":"cebpf4jnsgd1na2vs0mg"},{"bike_id":"12f53e4a-fba6-4ed2-9d3b-c6215df92d6f","system_id":"levelo_inurba_marseille","lat":43.29916,"lon":5.37495,"is_reserved":false,"is_disabled":false,"rental_uris":{"android":"levelo://app?vid=12f53e4a-fba6-4ed2-9d3b-c6215df92d6f","ios":"levelo://app?vid=12f53e4a-fba6-4ed2-9d3b-c6215df92d6f"},"vehicle_type_id":"4","last_reported":1762672183,"current_range_meters":14400,"station_id":"ce4bgjh2rcd13ifvqbg0","pricing_plan_id":"cebpf4jnsgd1na2vs0mg"},{"bike_id":"5320d673-8f17-42b0-b637-4e20de7189dd","system_id":"levelo_inurba_marseille","lat":43.299452,"lon":5.365329,"is_reserved":false,"is_disabled":true,"rental_uris":{"android":"levelo://app?vid=5320d673-8f17-42b0-b637-4e20de7189dd","ios":"levelo://app?vid=5320d673-8f17-42b0-b637-4e20de7189dd"},"vehicle_type_id":"4","last_reported":1762672183,"current_range_meters":14400,"station_id":"ce4bgm92rcd13ifvqbr0","pricing_plan_id":"cebpf4jnsgd1na2vs0mg"},{"bike_id":"90e75491-f300-4cd4-95d9-4fcce675996b","system_id":"levelo_inurba_marseille","lat":43.28409,"lon":5.37517,"is_reserved":false,"is_disabled":true,"rental_uris":{"android":"levelo://app?vid=90e75491-f300-4cd4-95d9-4fcce675996b","ios":"levelo://app?vid=90e75491-f300-4cd4-95d9-4fcce675996b"},"vehicle_type_id":"4","last_reported":1762672183,"current_range_meters":14400,"station_id":"ce4bh412rcd13ifvqds0","pricing_plan_id":"cebpf4jnsgd1na2vs0mg"},{"bike_id":"a697c050-65cb-4cad-975c-84488c6104a1","system_id":"levelo_inurba_marseille","lat":43.32,"lon":5.38125,"is_reserved":false,"is_disabled":false,"rental_uris":{"android":"levelo://app?vid=a697c050-65cb-4cad-975c-84488c6104a1","ios":"levelo://app?vid=a697c050-65cb-4cad-975c-84488c6104a1"},"vehicle_type_id":"4","last_reported":1762672183,"current_range_meters":14400,"station_id":"ce4bhr12rcd13ifvqhpg","pricing_plan_id":"cebpf4jnsgd1na2vs0mg"},{"bike_id":"2e27933d-fc18-453e-ad3c-dfe367228a43","system_id":"levelo_inurba_marseille","lat":43.253389,"lon":5.421708,"is_reserved":false,"is_disabled":false,"rental_uris":{"android":"levelo://app?vid=2e27933d-fc18-453e-ad3c-dfe367228a43","ios":"levelo://app?vid=2e27933d-fc18-453e-ad3c-dfe367228a43"},"vehicle_type_id":"4","last_reported":1762672183,"current_range_meters":14400,"station_id":"st_d2m65c5bi1j21697t3ng","pricing_plan_id":"cebpf4jnsgd1na2vs0mg"},{"bike_id":"40697d1f-6578-4d94-b588-df99a511b90b","system_id":"levelo_inurba_marseille","lat":43.28826,"lon":5.35921,"is_reserved":false,"is_disabled":false,"rental_uris":{"android":"levelo://app?vid=40697d1f-6578-4d94-b588-df99a511b90b","ios":"levelo://app?vid=40697d1f-6578-4d94-b588-df99a511b90b"},"vehicle_type_id":"4","last_reported":1762672183,"current_range_meters":14400,"station_id":"","pricing_plan_id":"cebpf4jnsgd1na2vs0mg"},{"bike_id":"a5a51bf9-9908-420d-8212-6ef8d2db5d39","system_id":"levelo_inurba_marseille","lat":43.27384,"lon":5.36256,"is_reserved":false,"is_disabled":false,"rental_uris":{"android":"levelo://app?vid=a5a51bf9-9908-420d-8212-6ef8d2db5d39","ios":"levelo://app?vid=a5a51bf9-9908-420d-8212-6ef8d2db5d39"},"vehicle_type_id":"4","last_reported":1762672183,"current_range_meters":14800,"station_id":"ce4bhbh2rcd13ifvqeo0","pricing_plan_id":"cebpf4jnsgd1na2vs0mg"},{"bike_id":"d7e897bd-e945-4104-8c6e-bb12c8cfd81b","system_id":"levelo_inurba_marseille","lat":43.28413,"lon":5.34992,"is_reserved":false,"is_disabled":false,"rental_uris":{"android":"levelo://app?vid=d7e897bd-e945-4104-8c6e-bb12c8cfd81b","ios":"levelo://app?vid=d7e897bd-e945-4104-8c6e-bb12c8cfd81b"},"vehicle_type_id":"4","last_reported":1762672183,"current_range_meters":14800,"station_id":"ce4bhbh2rcd13ifvqepg","pricing_plan_id":"cebpf4jnsgd1na2vs0mg"},{"bike_id":"ecd9fbaa-71af-4da1-a554-7b75e9d6ed32","system_id":"levelo_inurba_marseille","lat":43.30415,"lon":5.41281,"is_reserved":false,"is_disabled":false,"rental_uris":{"android":"levelo://app?vid=ecd9fbaa-71af-4da1-a554-7b75e9d6ed32","ios":"levelo://app?vid=ecd9fbaa-71af-4da1-a554-7b75e9d6ed32"},"vehicle_type_id":"4","last_reported":1762672183,"current_range_meters":14800,"station_id":"ce4bhop2rcd13ifvqh8g","pricing_plan_id":"cebpf4jnsgd1na2vs0mg"},{"bike_id":"b6b8ccfb-e814-47d3-9ccf-88ba6d08d3d8","system_id":"levelo_inurba_marseille","lat":43.26214,"lon":5.4043,"is_reserved":false,"is_disabled":false,"rental_uris":{"android":"levelo://app?vid=b6b8ccfb-e814-47d3-9ccf-88ba6d08d3d8","ios":"levelo://app?vid=b6b8ccfb-e814-47d3-9ccf-88ba6d08d3d8"},"vehicle_type_id":"4","last_reported":1762672183,"current_range_meters":14800,"station_id":"ce4bhmh2rcd13ifvqgmg","pricing_plan_id":"cebpf4jnsgd1na2vs0mg"},{"bike_id":"68e2a4eb-9515-41fd-aa1c-8497e40ac482","system_id":"levelo_inurba_marseille","lat":43.299061,"lon":5.381337,"is_reserved":false,"is_disabled":true,"rental_uris":{"android":"levelo://app?vid=68e2a4eb-9515-41fd-aa1c-8497e40ac482","ios":"levelo://app?vid=68e2a4eb-9515-41fd-aa1c-8497e40ac482"},"vehicle_type_id":"4","last_reported":1762672183,"current_range_meters":14800,"station_id":"ce4bgj12rcd13ifvqbc0","pricing_plan_id":"cebpf4jnsgd1na2vs0mg"},{"bike_id":"d8a2355e-a776-4b85-8a3e-22368796688d","system_id":"levelo_inurba_marseille","lat":43.308046,"lon":5.368427,"is_reserved":false,"is_disabled":false,"rental_uris":{"android":"levelo://app?vid=d8a2355e-a776-4b85-8a3e-22368796688d","ios":"levelo://app?vid=d8a2355e-a776-4b85-8a3e-22368796688d"},"vehicle_type_id":"4","last_reported":1762672183,"current_range_meters":14800,"station_id":"","pricing_plan_id":"cebpf4jnsgd1na2vs0mg"},{"bike_id":"beb94f55-7cad-4f93-b357-1a1cafd7bcec","system_id":"levelo_inurba_marseille","lat":43.2463,"lon":5.43144,"is_reserved":false,"is_disabled":false,"rental_uris":{"android":"levelo://app?vid=beb94f55-7cad-4f93-b357-1a1cafd7bcec","ios":"levelo://app?vid=beb94f55-7cad-4f93-b357-1a1cafd7bcec"},"vehicle_type_id":"4","last_reported":1762672183,"current_range_meters":14800,"station_id":"st_d2m6c4gdas8pm72e190g","pricing_plan_id":"cebpf4jnsgd1na2vs0mg"},{"bike_id":"07487456-04db-4d2a-9c08-bc3d6a0a4071","system_id":"levelo_inurba_marseille","lat":43.281553,"lon":5.426389,"is_reserved":false,"is_disabled":false,"rental_uris":{"android":"levelo://app?vid=07487456-04db-4d2a-9c08-bc3d6a0a4071","ios":"levelo://app?vid=07487456-04db-4d2a-9c08-bc3d6a0a4071"},"vehicle_type_id":"4","last_reported":1762672183,"current_range_meters":15200,"station_id":"ce4bhnh2rcd13ifvqgug","pricing_plan_id":"cebpf4jnsgd1na2vs0mg"},{"bike_id":"04fe3fd8-4c89-4f0d-b9f3-c22f091e626a","system_id":"levelo_inurba_marseille","lat":43.301432,"lon":5.374182,"is_reserved":false,"is_disabled":false,"rental_uris":{"android":"levelo://app?vid=04fe3fd8-4c89-4f0d-b9f3-c22f091e626a","ios":"levelo://app?vid=04fe3fd8-4c89-4f0d-b9f3-c22f091e626a"},"vehicle_type_id":"4","last_reported":1762672183,"current_range_meters":15200,"station_id":"ce4bgs92rcd13ifvqcc0","pricing_plan_id":"cebpf4jnsgd1na2vs0mg"},{"bike_id":"f4b3610c-ddfd-461d-9ea3-633c91510343","system_id":"levelo_inurba_marseille","lat":43.24614,"lon":5.43139,"is_reserved":false,"is_disabled":false,"rental_uris":{"android":"levelo://app?vid=f4b3610c-ddfd-461d-9ea3-633c91510343","ios":"levelo://app?vid=f4b3610c-ddfd-461d-9ea3-633c91510343"},"vehicle_type_id":"4","last_reported":1762672183,"current_range_meters":15200,"station_id":"st_d2m6c4gdas8pm72e190g","pricing_plan_id":"cebpf4jnsgd1na2vs0mg"},{"bike_id":"345285ad-10a7-49ef-b97f-7faa01587ccf","system_id":"levelo_inurba_marseille","lat":43.246313,"lon":5.431539,"is_reserved":false,"is_disabled":false,"rental_uris":{"android":"levelo://app?vid=345285ad-10a7-49ef-b97f-7faa01587ccf","ios":"levelo://app?vid=345285ad-10a7-49ef-b97f-7faa01587ccf"},"vehicle_type_id":"4","last_reported":1762672183,"current_range_meters":15200,"station_id":"st_d2m6c4gdas8pm72e190g","pricing_plan_id":"cebpf4jnsgd1na2vs0mg"},{"bike_id":"b12ab54c-b193-46fc-bc83-432f5a972661","system_id":"levelo_inurba_marseille","lat":43.26777,"lon":5.39433,"is_reserved":false,"is_disabled":false,"rental_uris":{"android":"levelo://app?vid=b12ab54c-b193-46fc-bc83-432f5a972661","ios":"levelo://app?vid=b12ab54c-b193-46fc-bc83-432f5a972661"},"vehicle_type_id":"4","last_reported":1762672183,"current_range_meters":15200,"station_id":"ce4bhh12rcd13ifvqfg0","pricing_plan_id":"cebpf4jnsgd1na2vs0mg"},{"bike_id":"b0370738-4d86-4710-99fc-c5094c79dcbe","system_id":"levelo_inurba_marseille","lat":43.29191,"lon":5.35796,"is_reserved":false,"is_disabled":false,"rental_uris":{"android":"levelo://app?vid=b0370738-4d86-4710-99fc-c5094c79dcbe","ios":"levelo://app?vid=b0370738-4d86-4710-99fc-c5094c79dcbe"},"vehicle_type_id":"4","last_reported":1762672183,"current_range_meters":15200,"station_id":"ce4bhb12rcd13ifvqel0","pricing_plan_id":"cebpf4jnsgd1na2vs0mg"},{"bike_id":"7efa7bc5-9bb6-4259-9376-ebee5a3081c4","system_id":"levelo_inurba_marseille","lat":43.28611,"lon":5.35104,"is_reserved":false,"is_disabled":false,"rental_uris":{"android":"levelo://app?vid=7efa7bc5-9bb6-4259-9376-ebee5a3081c4","ios":"levelo://app?vid=7efa7bc5-9bb6-4259-9376-ebee5a3081c4"},"vehicle_type_id":"4","last_reported":1762672183,"current_range_meters":15200,"station_id":"ce4bhch2rcd13ifvqeug","pricing_plan_id":"cebpf4jnsgd1na2vs0mg"},{"bike_id":"56937f09-c129-498f-93da-0e67d9e568ed","system_id":"levelo_inurba_marseille","lat":43.28458,"lon":5.35899,"is_reserved":false,"is_disabled":false,"rental_uris":{"android":"levelo://app?vid=56937f09-c129-498f-93da-0e67d9e568ed","ios":"levelo://app?vid=56937f09-c129-498f-93da-0e67d9e568ed"},"vehicle_type_id":"4","last_reported":1762672183,"current_range_meters":15200,"station_id":"ce4bhah2rcd13ifvqei0","pricing_plan_id":"cebpf4jnsgd1na2vs0mg"},{"bike_id":"c197fb5b-6ad3-43e6-ba7c-1a3724b70895","system_id":"levelo_inurba_marseille","lat":43.265771,"lon":5.390297,"is_reserved":false,"is_disabled":false,"rental_uris":{"android":"levelo://app?vid=c197fb5b-6ad3-43e6-ba7c-1a3724b70895","ios":"levelo://app?vid=c197fb5b-6ad3-43e6-ba7c-1a3724b70895"},"vehicle_type_id":"4","last_reported":1762672183,"current_range_meters":15200,"station_id":"ce4bhe12rcd13ifvqf30","pricing_plan_id":"cebpf4jnsgd1na2vs0mg"},{"bike_id":"c19b9475-1f49-4df3-a555-5f8ad7c35f16","system_id":"levelo_inurba_marseille","lat":43.22533,"lon":5.34841,"is_reserved":false,"is_disabled":false,"rental_uris":{"android":"levelo://app?vid=c19b9475-1f49-4df3-a555-5f8ad7c35f16","ios":"levelo://app?vid=c19b9475-1f49-4df3-a555-5f8ad7c35f16"},"vehicle_type_id":"4","last_reported":1762672183,"current_range_meters":15200,"station_id":"","pricing_plan_id":"cebpf4jnsgd1na2vs0mg"},{"bike_id":"5f51530e-ad6d-4525-9dbe-df8ccdff7435","system_id":"levelo_inurba_marseille","lat":43.31678,"lon":5.38258,"is_reserved":false,"is_disabled":false,"rental_uris":{"android":"levelo://app?vid=5f51530e-ad6d-4525-9dbe-df8ccdff7435","ios":"levelo://app?vid=5f51530e-ad6d-4525-9dbe-df8ccdff7435"},"vehicle_type_id":"4","last_reported":1762672183,"current_range_meters":15200,"station_id":"","pricing_plan_id":"cebpf4jnsgd1na2vs0mg"},{"bike_id":"fee4f445-bba8-4be4-a3da-4decf51271b2","system_id":"levelo_inurba_marseille","lat":43.31837,"lon":5.40718,"is_reserved":false,"is_disabled":false,"rental_uris":{"android":"levelo://app?vid=fee4f445-bba8-4be4-a3da-4decf51271b2","ios":"levelo://app?vid=fee4f445-bba8-4be4-a3da-4decf51271b2"},"vehicle_type_id":"4","last_reported":1762672183,"current_range_meters":16000,"station_id":"","pricing_plan_id":"cebpf4jnsgd1na2vs0mg"},{"bike_id":"9a776a3f-cab6-4283-a416-cc8852920997","system_id":"levelo_inurba_marseille","lat":43.22533,"lon":5.34837,"is_reserved":false,"is_disabled":false,"rental_uris":{"android":"levelo://app?vid=9a776a3f-cab6-4283-a416-cc8852920997","ios":"levelo://app?vid=9a776a3f-cab6-4283-a416-cc8852920997"},"vehicle_type_id":"4","last_reported":1762672183,"current_range_meters":16000,"station_id":"","pricing_plan_id":"cebpf4jnsgd1na2vs0mg"},{"bike_id":"4eac3eb9-9ac1-4ff6-ad57-ed359befeed2","system_id":"levelo_inurba_marseille","lat":43.22878,"lon":5.40226,"is_reserved":false,"is_disabled":false,"rental_uris":{"android":"levelo://app?vid=4eac3eb9-9ac1-4ff6-ad57-ed359befeed2","ios":"levelo://app?vid=4eac3eb9-9ac1-4ff6-ad57-ed359befeed2"},"vehicle_type_id":"4","last_reported":1762672183,"current_range_meters":16000,"station_id":"","pricing_plan_id":"cebpf4jnsgd1na2vs0mg"},{"bike_id":"c1783fb2-6784-4b7f-92a8-0112651e291c","system_id":"levelo_inurba_marseille","lat":43.29769,"lon":5.42738,"is_reserved":false,"is_disabled":false,"rental_uris":{"android":"levelo://app?vid=c1783fb2-6784-4b7f-92a8-0112651e291c","ios":"levelo://app?vid=c1783fb2-6784-4b7f-92a8-0112651e291c"},"vehicle_type_id":"4","last_reported":1762672183,"current_range_meters":16000,"station_id":"st_d3md5207bmas73dh9klg","pricing_plan_id":"cebpf4jnsgd1na2vs0mg"},{"bike_id":"7cd82efc-cab1-4304-a152-fb4844e81213","system_id":"levelo_inurba_marseille","lat":43.303256,"lon":5.404412,"is_reserved":false,"is_disabled":false,"rental_uris":{"android":"levelo://app?vid=7cd82efc-cab1-4304-a152-fb4844e81213","ios":"levelo://app?vid=7cd82efc-cab1-4304-a152-fb4844e81213"},"vehicle_type_id":"4","last_reported":1762672183,"current_range_meters":16000,"station_id":"ce4bh012rcd13ifvqd10","pricing_plan_id":"cebpf4jnsgd1na2vs0mg"},{"bike_id":"f08621f1-92b2-4985-8a3a-96dd283a7c2b","system_id":"levelo_inurba_marseille","lat":43.31354,"lon":5.37932,"is_reserved":false,"is_disabled":false,"rental_uris":{"android":"levelo://app?vid=f08621f1-92b2-4985-8a3a-96dd283a7c2b","ios":"levelo://app?vid=f08621f1-92b2-4985-8a3a-96dd283a7c2b"},"vehicle_type_id":"4","last_reported":1762672183,"current_range_meters":16000,"station_id":"","pricing_plan_id":"cebpf4jnsgd1na2vs0mg"},{"bike_id":"493d5586-9fc6-4f12-be84-9f6467f72b20","system_id":"levelo_inurba_marseille","lat":43.29224,"lon":5.36067,"is_reserved":false,"is_disabled":false,"rental_uris":{"android":"levelo://app?vid=493d5586-9fc6-4f12-be84-9f6467f72b20","ios":"levelo://app?vid=493d5586-9fc6-4f12-be84-9f6467f72b20"},"vehicle_type_id":"4","last_reported":1762672183,"current_range_meters":16000,"station_id":"ce4bhbh2rcd13ifvqeqg","pricing_plan_id":"cebpf4jnsgd1na2vs0mg"},{"bike_id":"56c407da-7675-4f00-a1f7-f93d662c9aff","system_id":"levelo_inurba_marseille","lat":43.29936,"lon":5.36534,"is_reserved":false,"is_disabled":false,"rental_uris":{"android":"levelo://app?vid=56c407da-7675-4f00-a1f7-f93d662c9aff","ios":"levelo://app?vid=56c407da-7675-4f00-a1f7-f93d662c9aff"},"vehicle_type_id":"4","last_reported":1762672183,"current_range_meters":16400,"station_id":"ce4bgm92rcd13ifvqbr0","pricing_plan_id":"cebpf4jnsgd1na2vs0mg"},{"bike_id":"004653de-7c1b-4886-bdee-5252d1943d43","system_id":"levelo_inurba_marseille","lat":43.2848,"lon":5.38425,"is_reserved":false,"is_disabled":false,"rental_uris":{"android":"levelo://app?vid=004653de-7c1b-4886-bdee-5252d1943d43","ios":"levelo://app?vid=004653de-7c1b-4886-bdee-5252d1943d43"},"vehicle_type_id":"4","last_reported":1762672183,"current_range_meters":16400,"station_id":"","pricing_plan_id":"cebpf4jnsgd1na2vs0mg"},{"bike_id":"69ff6164-0506-4dce-bfaa-0d3519b8fd28","system_id":"levelo_inurba_marseille","lat":43.2466,"lon":5.38158,"is_reserved":false,"is_disabled":false,"rental_uris":{"android":"levelo://app?vid=69ff6164-0506-4dce-bfaa-0d3519b8fd28","ios":"levelo://app?vid=69ff6164-0506-4dce-bfaa-0d3519b8fd28"},"vehicle_type_id":"4","last_reported":1762672183,"current_range_meters":16400,"station_id":"ce4bhih2rcd13ifvqfr0","pricing_plan_id":"cebpf4jnsgd1na2vs0mg"},{"bike_id":"7fbd1ff9-4b4c-41ae-8d84-cca75e8f7f8a","system_id":"levelo_inurba_marseille","lat":43.273202,"lon":5.390808,"is_reserved":false,"is_disabled":false,"rental_uris":{"android":"levelo://app?vid=7fbd1ff9-4b4c-41ae-8d84-cca75e8f7f8a","ios":"levelo://app?vid=7fbd1ff9-4b4c-41ae-8d84-cca75e8f7f8a"},"vehicle_type_id":"4","last_reported":1762672183,"current_range_meters":16400,"station_id":"ce4bhgp2rcd13ifvqfe0","pricing_plan_id":"cebpf4jnsgd1na2vs0mg"},{"bike_id":"36b5094e-3cad-4813-ab6b-3048b15d300f","system_id":"levelo_inurba_marseille","lat":43.27374,"lon":5.36258,"is_reserved":false,"is_disabled":false,"rental_uris":{"android":"levelo://app?vid=36b5094e-3cad-4813-ab6b-3048b15d300f","ios":"levelo://app?vid=36b5094e-3cad-4813-ab6b-3048b15d300f"},"vehicle_type_id":"4","last_reported":1762672183,"current_range_meters":16400,"station_id":"ce4bhbh2rcd13ifvqeo0","pricing_plan_id":"cebpf4jnsgd1na2vs0mg"},{"bike_id":"0cb3c68b-dd02-4bf5-806b-1c8ab23a0f30","system_id":"levelo_inurba_marseille","lat":43.27071,"lon":5.38305,"is_reserved":false,"is_disabled":false,"rental_uris":{"android":"levelo://app?vid=0cb3c68b-dd02-4bf5-806b-1c8ab23a0f30","ios":"levelo://app?vid=0cb3c68b-dd02-4bf5-806b-1c8ab23a0f30"},"vehicle_type_id":"4","last_reported":1762672183,"current_range_meters":16400,"station_id":"st_d3n2fo6cfp8s73cte1j0","pricing_plan_id":"cebpf4jnsgd1na2vs0mg"},{"bike_id":"2fdccf48-a4e0-405b-a58b-ef528d56693a","system_id":"levelo_inurba_marseille","lat":43.30673,"lon":5.37343,"is_reserved":false,"is_disabled":false,"rental_uris":{"android":"levelo://app?vid=2fdccf48-a4e0-405b-a58b-ef528d56693a","ios":"levelo://app?vid=2fdccf48-a4e0-405b-a58b-ef528d56693a"},"vehicle_type_id":"4","last_reported":1762672183,"current_range_meters":16400,"station_id":"","pricing_plan_id":"cebpf4jnsgd1na2vs0mg"},{"bike_id":"2b6c7f17-6a0b-4c7e-9de0-10989be42791","system_id":"levelo_inurba_marseille","lat":43.29009,"lon":5.38447,"is_reserved":false,"is_disabled":false,"rental_uris":{"android":"levelo://app?vid=2b6c7f17-6a0b-4c7e-9de0-10989be42791","ios":"levelo://app?vid=2b6c7f17-6a0b-4c7e-9de0-10989be42791"},"vehicle_type_id":"4","last_reported":1762672183,"current_range_meters":16400,"station_id":"","pricing_plan_id":"cebpf4jnsgd1na2vs0mg"},{"bike_id":"823f9d7f-5db5-4876-8b5d-28b6923592c8","system_id":"levelo_inurba_marseille","lat":43.249546,"lon":5.405012,"is_reserved":false,"is_disabled":false,"rental_uris":{"android":"levelo://app?vid=823f9d7f-5db5-4876-8b5d-28b6923592c8","ios":"levelo://app?vid=823f9d7f-5db5-4876-8b5d-28b6923592c8"},"vehicle_type_id":"4","last_reported":1762672183,"current_range_meters":16400,"station_id":"st_d2ngiaodas8pm72gd1h0","pricing_plan_id":"cebpf4jnsgd1na2vs0mg"},{"bike_id":"81117295-ef99-4696-a5e4-29e11d56d47c","system_id":"levelo_inurba_marseille","lat":43.326633,"lon":5.409891,"is_reserved":false,"is_disabled":false,"rental_uris":{"android":"levelo://app?vid=81117295-ef99-4696-a5e4-29e11d56d47c","ios":"levelo://app?vid=81117295-ef99-4696-a5e4-29e11d56d47c"},"vehicle_type_id":"4","last_reported":1762672183,"current_range_meters":16800,"station_id":"ce4bhpp2rcd13ifvqhgg","pricing_plan_id":"cebpf4jnsgd1na2vs0mg"},{"bike_id":"2db833f7-30c8-4ab8-90cb-f29430b1992a","system_id":"levelo_inurba_marseille","lat":43.29004,"lon":5.35608,"is_reserved":false,"is_disabled":false,"rental_uris":{"android":"levelo://app?vid=2db833f7-30c8-4ab8-90cb-f29430b1992a","ios":"levelo://app?vid=2db833f7-30c8-4ab8-90cb-f29430b1992a"},"vehicle_type_id":"4","last_reported":1762672183,"current_range_meters":16800,"station_id":"ce4bhb92rcd13ifvqen0","pricing_plan_id":"cebpf4jnsgd1na2vs0mg"},{"bike_id":"53529ee7-fa79-4bfe-8ac3-2ffb63a46b11","system_id":"levelo_inurba_marseille","lat":43.318027,"lon":5.388329,"is_reserved":false,"is_disabled":false,"rental_uris":{"android":"levelo://app?vid=53529ee7-fa79-4bfe-8ac3-2ffb63a46b11","ios":"levelo://app?vid=53529ee7-fa79-4bfe-8ac3-2ffb63a46b11"},"vehicle_type_id":"4","last_reported":1762672183,"current_range_meters":16800,"station_id":"","pricing_plan_id":"cebpf4jnsgd1na2vs0mg"},{"bike_id":"c24fecf3-4355-4f04-9fa7-986718e8454f","system_id":"levelo_inurba_marseille","lat":43.29184,"lon":5.35807,"is_reserved":false,"is_disabled":false,"rental_uris":{"android":"levelo://app?vid=c24fecf3-4355-4f04-9fa7-986718e8454f","ios":"levelo://app?vid=c24fecf3-4355-4f04-9fa7-986718e8454f"},"vehicle_type_id":"4","last_reported":1762672183,"current_range_meters":16800,"station_id":"ce4bhb12rcd13ifvqel0","pricing_plan_id":"cebpf4jnsgd1na2vs0mg"},{"bike_id":"e995c849-6e21-4213-b2c5-fabfd52ad1d7","system_id":"levelo_inurba_marseille","lat":43.298527,"lon":5.362909,"is_reserved":false,"is_disabled":false,"rental_uris":{"android":"levelo://app?vid=e995c849-6e21-4213-b2c5-fabfd52ad1d7","ios":"levelo://app?vid=e995c849-6e21-4213-b2c5-fabfd52ad1d7"},"vehicle_type_id":"4","last_reported":1762672183,"current_range_meters":16800,"station_id":"ce4bgpp2rcd13ifvqc3g","pricing_plan_id":"cebpf4jnsgd1na2vs0mg"},{"bike_id":"0392c01f-c7f1-41fd-9cd6-aa463c8d4035","system_id":"levelo_inurba_marseille","lat":43.243928,"lon":5.370645,"is_reserved":false,"is_disabled":false,"rental_uris":{"android":"levelo://app?vid=0392c01f-c7f1-41fd-9cd6-aa463c8d4035","ios":"levelo://app?vid=0392c01f-c7f1-41fd-9cd6-aa463c8d4035"},"vehicle_type_id":"4","last_reported":1762672183,"current_range_meters":16800,"station_id":"ce4bhhh2rcd13ifvqfk0","pricing_plan_id":"cebpf4jnsgd1na2vs0mg"},{"bike_id":"d33cc7af-4f0c-48da-b8d5-abb4beb039a3","system_id":"levelo_inurba_marseille","lat":43.28612,"lon":5.35105,"is_reserved":false,"is_disabled":false,"rental_uris":{"android":"levelo://app?vid=d33cc7af-4f0c-48da-b8d5-abb4beb039a3","ios":"levelo://app?vid=d33cc7af-4f0c-48da-b8d5-abb4beb039a3"},"vehicle_type_id":"4","last_reported":1762672183,"current_range_meters":16800,"station_id":"ce4bhch2rcd13ifvqeug","pricing_plan_id":"cebpf4jnsgd1na2vs0mg"},{"bike_id":"6d7c1aaf-f4c7-4f1f-9842-eba300df5da2","system_id":"levelo_inurba_marseille","lat":43.29015,"lon":5.35614,"is_reserved":false,"is_disabled":false,"rental_uris":{"android":"levelo://app?vid=6d7c1aaf-f4c7-4f1f-9842-eba300df5da2","ios":"levelo://app?vid=6d7c1aaf-f4c7-4f1f-9842-eba300df5da2"},"vehicle_type_id":"4","last_reported":1762672183,"current_range_meters":16800,"station_id":"ce4bhb92rcd13ifvqen0","pricing_plan_id":"cebpf4jnsgd1na2vs0mg"},{"bike_id":"68e4c483-02f2-4cec-a049-af173861fe3d","system_id":"levelo_inurba_marseille","lat":43.28411,"lon":5.3499,"is_reserved":false,"is_disabled":false,"rental_uris":{"android":"levelo://app?vid=68e4c483-02f2-4cec-a049-af173861fe3d","ios":"levelo://app?vid=68e4c483-02f2-4cec-a049-af173861fe3d"},"vehicle_type_id":"4","last_reported":1762672183,"current_range_meters":16800,"station_id":"ce4bhbh2rcd13ifvqepg","pricing_plan_id":"cebpf4jnsgd1na2vs0mg"},{"bike_id":"e083d16a-6dba-4905-a451-3761c3e28d39","system_id":"levelo_inurba_marseille","lat":43.311161,"lon":5.377683,"is_reserved":false,"is_disabled":false,"rental_uris":{"android":"levelo://app?vid=e083d16a-6dba-4905-a451-3761c3e28d39","ios":"levelo://app?vid=e083d16a-6dba-4905-a451-3761c3e28d39"},"vehicle_type_id":"4","last_reported":1762672183,"current_range_meters":16800,"station_id":"ce4bgt92rcd13ifvqcg0","pricing_plan_id":"cebpf4jnsgd1na2vs0mg"},{"bike_id":"b198113b-5d14-4872-9f7c-a319a263af41","system_id":"levelo_inurba_marseille","lat":43.28262,"lon":5.35075,"is_reserved":false,"is_disabled":false,"rental_uris":{"android":"levelo://app?vid=b198113b-5d14-4872-9f7c-a319a263af41","ios":"levelo://app?vid=b198113b-5d14-4872-9f7c-a319a263af41"},"vehicle_type_id":"4","last_reported":1762672183,"current_range_meters":16800,"station_id":"ce4bhbp2rcd13ifvqerg","pricing_plan_id":"cebpf4jnsgd1na2vs0mg"},{"bike_id":"a9d08e4c-0813-4aef-85b1-1d50cf456f69","system_id":"levelo_inurba_marseille","lat":43.217482,"lon":5.346057,"is_reserved":false,"is_disabled":true,"rental_uris":{"android":"levelo://app?vid=a9d08e4c-0813-4aef-85b1-1d50cf456f69","ios":"levelo://app?vid=a9d08e4c-0813-4aef-85b1-1d50cf456f69"},"vehicle_type_id":"4","last_reported":1762672183,"current_range_meters":17200,"station_id":"","pricing_plan_id":"cebpf4jnsgd1na2vs0mg"},{"bike_id":"2bee9d77-f4ce-40fb-a351-5c9f7e879e55","system_id":"levelo_inurba_marseille","lat":43.29629,"lon":5.40624,"is_reserved":false,"is_disabled":false,"rental_uris":{"android":"levelo://app?vid=2bee9d77-f4ce-40fb-a351-5c9f7e879e55","ios":"levelo://app?vid=2bee9d77-f4ce-40fb-a351-5c9f7e879e55"},"vehicle_type_id":"4","last_reported":1762672183,"current_range_meters":17200,"station_id":"ce4bh0h2rcd13ifvqd60","pricing_plan_id":"cebpf4jnsgd1na2vs0mg"},{"bike_id":"c1c2c044-4849-4924-8e74-c40d5933f91e","system_id":"levelo_inurba_marseille","lat":43.22534,"lon":5.34846,"is_reserved":false,"is_disabled":false,"rental_uris":{"android":"levelo://app?vid=c1c2c044-4849-4924-8e74-c40d5933f91e","ios":"levelo://app?vid=c1c2c044-4849-4924-8e74-c40d5933f91e"},"vehicle_type_id":"4","last_reported":1762672183,"current_range_meters":17200,"station_id":"","pricing_plan_id":"cebpf4jnsgd1na2vs0mg"},{"bike_id":"f4285871-3b92-4148-85b9-632a69343ab6","system_id":"levelo_inurba_marseille","lat":43.30142,"lon":5.39884,"is_reserved":false,"is_disabled":false,"rental_uris":{"android":"levelo://app?vid=f4285871-3b92-4148-85b9-632a69343ab6","ios":"levelo://app?vid=f4285871-3b92-4148-85b9-632a69343ab6"},"vehicle_type_id":"4","last_reported":1762672183,"current_range_meters":17200,"station_id":"ce4bh0h2rcd13ifvqd40","pricing_plan_id":"cebpf4jnsgd1na2vs0mg"},{"bike_id":"ab4ac132-5519-4aac-ac12-8b8c2929bb7e","system_id":"levelo_inurba_marseille","lat":43.32302,"lon":5.38493,"is_reserved":false,"is_disabled":false,"rental_uris":{"android":"levelo://app?vid=ab4ac132-5519-4aac-ac12-8b8c2929bb7e","ios":"levelo://app?vid=ab4ac132-5519-4aac-ac12-8b8c2929bb7e"},"vehicle_type_id":"4","last_reported":1762672183,"current_range_meters":17200,"station_id":"st_d45171o9ee8s73djdqug","pricing_plan_id":"cebpf4jnsgd1na2vs0mg"},{"bike_id":"b6ba799f-93a0-474d-970a-cd786094f7da","system_id":"levelo_inurba_marseille","lat":43.284754,"lon":5.384254,"is_reserved":false,"is_disabled":true,"rental_uris":{"android":"levelo://app?vid=b6ba799f-93a0-474d-970a-cd786094f7da","ios":"levelo://app?vid=b6ba799f-93a0-474d-970a-cd786094f7da"},"vehicle_type_id":"4","last_reported":1762672183,"current_range_meters":17200,"station_id":"ce4bh512rcd13ifvqe3g","pricing_plan_id":"cebpf4jnsgd1na2vs0mg"},{"bike_id":"aaf560bb-adf8-4d7c-b749-b4c5ca2f2663","system_id":"levelo_inurba_marseille","lat":43.23934,"lon":5.36648,"is_reserved":false,"is_disabled":true,"rental_uris":{"android":"levelo://app?vid=aaf560bb-adf8-4d7c-b749-b4c5ca2f2663","ios":"levelo://app?vid=aaf560bb-adf8-4d7c-b749-b4c5ca2f2663"},"vehicle_type_id":"4","last_reported":1762672183,"current_range_meters":17200,"station_id":"ce4bhi12rcd13ifvqfp0","pricing_plan_id":"cebpf4jnsgd1na2vs0mg"},{"bike_id":"8ad4b13a-ead0-46d4-8853-88a1d1fb82b1","system_id":"levelo_inurba_marseille","lat":43.24392,"lon":5.37045,"is_reserved":false,"is_disabled":false,"rental_uris":{"android":"levelo://app?vid=8ad4b13a-ead0-46d4-8853-88a1d1fb82b1","ios":"levelo://app?vid=8ad4b13a-ead0-46d4-8853-88a1d1fb82b1"},"vehicle_type_id":"4","last_reported":1762672183,"current_range_meters":17200,"station_id":"ce4bhhh2rcd13ifvqfk0","pricing_plan_id":"cebpf4jnsgd1na2vs0mg"},{"bike_id":"52fb7e67-9da4-4ef0-8336-d669123c5362","system_id":"levelo_inurba_marseille","lat":43.24181,"lon":5.39733,"is_reserved":false,"is_disabled":false,"rental_uris":{"android":"levelo://app?vid=52fb7e67-9da4-4ef0-8336-d669123c5362","ios":"levelo://app?vid=52fb7e67-9da4-4ef0-8336-d669123c5362"},"vehicle_type_id":"4","last_reported":1762672183,"current_range_meters":17200,"station_id":"ce4bhn12rcd13ifvqgpg","pricing_plan_id":"cebpf4jnsgd1na2vs0mg"},{"bike_id":"e69e7294-0504-4d57-a490-e2b2b55a529c","system_id":"levelo_inurba_marseille","lat":43.32009,"lon":5.38145,"is_reserved":false,"is_disabled":false,"rental_uris":{"android":"levelo://app?vid=e69e7294-0504-4d57-a490-e2b2b55a529c","ios":"levelo://app?vid=e69e7294-0504-4d57-a490-e2b2b55a529c"},"vehicle_type_id":"4","last_reported":1762672183,"current_range_meters":17200,"station_id":"ce4bhr12rcd13ifvqhpg","pricing_plan_id":"cebpf4jnsgd1na2vs0mg"},{"bike_id":"863a73ca-ba01-458c-9cf3-2b07bb19a694","system_id":"levelo_inurba_marseille","lat":43.28465,"lon":5.35897,"is_reserved":false,"is_disabled":false,"rental_uris":{"android":"levelo://app?vid=863a73ca-ba01-458c-9cf3-2b07bb19a694","ios":"levelo://app?vid=863a73ca-ba01-458c-9cf3-2b07bb19a694"},"vehicle_type_id":"4","last_reported":1762672183,"current_range_meters":17200,"station_id":"ce4bhah2rcd13ifvqei0","pricing_plan_id":"cebpf4jnsgd1na2vs0mg"},{"bike_id":"f4cd1f76-686b-443b-bf62-c78f0f11dda9","system_id":"levelo_inurba_marseille","lat":43.28402,"lon":5.3752,"is_reserved":false,"is_disabled":true,"rental_uris":{"android":"levelo://app?vid=f4cd1f76-686b-443b-bf62-c78f0f11dda9","ios":"levelo://app?vid=f4cd1f76-686b-443b-bf62-c78f0f11dda9"},"vehicle_type_id":"4","last_reported":1762672183,"current_range_meters":17600,"station_id":"ce4bh412rcd13ifvqds0","pricing_plan_id":"cebpf4jnsgd1na2vs0mg"},