{"last_updated":1750745789,"ttl":60,"version":"2.2","data":{"bikes":[{"bike_id":"3da29fb8-fc97-44c6-b9ac-31dd456b2fd4","system_id":"levelo_inurba_marseille","lat":43.33771,"lon":5.37424,"is_reserved":false,"is_disabled":true,"rental_uris":{"android":"levelo://app?vid=3da29fb8-fc97-44c6-b9ac-31dd456b2fd4","ios":"levelo://app?vid=3da29fb8-fc97-44c6-b9ac-31dd456b2fd4"},"vehicle_type_id":"4","last_reported":1750745789,"current_range_meters":0,"station_id":"","pricing_plan_id":"cebpf4jnsgd1na2vs0mg"},{"bike_id":"01861ad8-a8d7-4be6-816e-651927c87584","system_id":"levelo_inurba_marseille","lat":43.33751,"lon":5.37456,"is_reserved":false,"is_disabled":true,"rental_uris":{"android":"levelo://app?vid=01861ad8-a8d7-4be6-816e-651927c87584","ios":"levelo://app?vid=01861ad8-a8d7-4be6-816e-651927c87584"},"vehicle_type_id":"4","last_reported":1750745789,"current_range_meters":0,"station_id":"","pricing_plan_id":"cebpf4jnsgd1na2vs0mg"},{"bike_id":"f0a1d594-9817-42ab-a8d6-aea4947e8858","system_id":"levelo_inurba_marseille","lat":43.28842,"lon":5.43402,"is_reserved":false,"is_disabled":true,"rental_uris":{"android":"levelo://app?vid=f0a1d594-9817-42ab-a8d6-aea4947e8858","ios":"levelo://app?vid=f0a1d594-9817-42ab-a8d6-aea4947e8858"},"vehicle_type_id":"4","last_reported":1750745789,"current_range_meters":0,"station_id":"","pricing_plan_id":"cebpf4jnsgd1na2vs0mg"},{"bike_id":"38fa1014-dc0c-49c9-ad0a-4ed146026865","system_id":"levelo_inurba_marseille","lat":43.21195,"lon":5.35063,"is_reserved":false,"is_disabled":true,"rental_uris":{"android":"levelo://app?vid=38fa1014-dc0c-49c9-ad0a-4ed146026865","ios":"levelo://app?vid=38fa1014-dc0c-49c9-ad0a-4ed146026865"},"vehicle_type_id":"4","last_reported":1750745789,"current_range_meters":0,"station_id":"","pricing_plan_id":"cebpf4jnsgd1na2vs0mg"},{"bike_id":"62a493c7-4534-4419-ad43-0582de34a72a","system_id":"levelo_inurba_marseille","lat":43.21366,"lon":5.355183,"is_reserved":false,"is_disabled":true,"rental_uris":{"android":"levelo://app?vid=62a493c7-4534-4419-ad43-0582de34a72a","ios":"levelo://app?vid=62a493c7-4534-4419-ad43-0582de34a72a"},"vehicle_type_id":"4","last_reported":1750745789,"current_range_meters":0,"station_id":"","pricing_plan_id":"cebpf4jnsgd1na2vs0mg"},{"bike_id":"139d47bd-ff87-42d8-a4c6-89da4be6f80c","system_id":"levelo_inurba_marseille","lat":43.27962,"lon":5.44252,"is_reserved":false,"is_disabled":true,"rental_uris":{"android":"levelo://app?vid=139d47bd-ff87-42d8-a4c6-89da4be6f80c","ios":"levelo://app?vid=139d47bd-ff87-42d8-a4c6-89da4be6f80c"},"vehicle_type_id":"4","last_reported":1750745789,"current_range_meters":0,"station_id":"","pricing_plan_id":"cebpf4jnsgd1na2vs0mg"},{"bike_id":"d07b07aa-5732-4368-b606-c642421b7603","system_id":"levelo_inurba_marseille","lat":43.34338,"lon":5.34977,"is_reserved":false,"is_disabled":true,"rental_uris":{"android":"levelo://app?vid=d07b07aa-5732-4368-b606-c642421b7603","ios":"levelo://app?vid=d07b07aa-5732-4368-b606-c642421b7603"},"vehicle_type_id":"4","last_reported":1750745789,"current_range_meters":0,"station_id":"","pricing_plan_id":"cebpf4jnsgd1na2vs0mg"},{"bike_id":"b029dd7d-66f2-41c6-b792-e13f00a5aa4a","system_id":"levelo_inurba_marseille","lat":43.30853,"lon":5.38437,"is_reserved":false,"is_disabled":true,"rental_uris":{"android":"levelo://app?vid=b029dd7d-66f2-41c6-b792-e13f00a5aa4a","ios":"levelo://app?vid=b029dd7d-66f2-41c6-b792-e13f00a5aa4a"},"vehicle_type_id":"4","last_reported":1750745789,"current_range_meters":0,"station_id":"","pricing_plan_id":"cebpf4jnsgd1na2vs0mg"},{"bike_id":"3a3a1818-f20a-442b-bfcf-0e0a18008f43","system_id":"levelo_inurba_marseille","lat":43.26628,"lon":5.37471,"is_reserved":false,"is_disabled":true,"rental_uris":{"android":"levelo://app?vid=3a3a1818-f20a-442b-bfcf-0e0a18008f43","ios":"levelo://app?vid=3a3a1818-f20a-442b-bfcf-0e0a18008f43"},"vehicle_type_id":"4","last_reported":1750745789,"current_range_meters":0,"station_id":"","pricing_plan_id":"cebpf4jnsgd1na2vs0mg"},{"bike_id":"1077b5b0-6cc3-4ca3-a74a-ec713036c223","system_id":"levelo_inurba_marseille","lat":43.2964,"lon":5.38069,"is_reserved":false,"is_disabled":true,"rental_uris":{"android":"levelo://app?vid=1077b5b0-6cc3-4ca3-a74a-ec713036c223","ios":"levelo://app?vid=1077b5b0-6cc3-4ca3-a74a-ec713036c223"},"vehicle_type_id":"4","last_reported":1750745789,"current_range_meters":0,"station_id":"","pricing_plan_id":"cebpf4jnsgd1na2vs0mg"},{"bike_id":"d6609b4f-333b-43c1-9ebe-8726f5e76e88","system_id":"levelo_inurba_marseille","lat":43.337444,"lon":5.374475,"is_reserved":false,"is_disabled":true,"rental_uris":{"android":"levelo://app?vid=d6609b4f-333b-43c1-9ebe-8726f5e76e88","ios":"levelo://app?vid=d6609b4f-333b-43c1-9ebe-8726f5e76e88"},"vehicle_type_id":"4","last_reported":1750745789,"current_range_meters":0,"station_id":"","pricing_plan_id":"cebpf4jnsgd1na2vs0mg"},{"bike_id":"0c86cdad-b64a-47bf-ba91-5b398064181c","system_id":"levelo_inurba_marseille","lat":43.384196,"lon":5.358629,"is_reserved":false,"is_disabled":true,"rental_uris":{"android":"levelo://app?vid=0c86cdad-b64a-47bf-ba91-5b398064181c","ios":"levelo://app?vid=0c86cdad-b64a-47bf-ba91-5b398064181c"},"vehicle_type_id":"4","last_reported":1750745789,"current_range_meters":0,"station_id":"","pricing_plan_id":"cebpf4jnsgd1na2vs0mg"},{"bike_id":"e1476c83-e928-4d2e-8749-4651c68ec3e5","system_id":"levelo_inurba_marseille","lat":43.31112,"lon":5.3777,"is_reserved":false,"is_disabled":true,"rental_uris":{"android":"levelo://app?vid=e1476c83-e928-4d2e-8749-4651c68ec3e5","ios":"levelo://app?vid=e1476c83-e928-4d2e-8749-4651c68ec3e5"},"vehicle_type_id":"4","last_reported":1750745789,"current_range_meters":0,"station_id":"ce4bgt92rcd13ifvqcg0","pricing_plan_id":"cebpf4jnsgd1na2vs0mg"},{"bike_id":"ac49569c-40dc-447d-a62e-cc4ff9bf11e5","system_id":"levelo_inurba_marseille","lat":43.27916,"lon":5.39577,"is_reserved":false,"is_disabled":true,"rental_uris":{"android":"levelo://app?vid=ac49569c-40dc-447d-a62e-cc4ff9bf11e5","ios":"levelo://app?vid=ac49569c-40dc-447d-a62e-cc4ff9bf11e5"},"vehicle_type_id":"4","last_reported":1750745789,"current_range_meters":0,"station_id":"ce4bhf92rcd13ifvqf40","pricing_plan_id":"cebpf4jnsgd1na2vs0mg"},{"bike_id":"9c268796-5545-49e7-91bc-25acd1302ef9","system_id":"levelo_inurba_marseille","lat":43.27065,"lon":5.40258,"is_reserved":false,"is_disabled":true,"rental_uris":{"android":"levelo://app?vid=9c268796-5545-49e7-91bc-25acd1302ef9","ios":"levelo://app?vid=9c268796-5545-49e7-91bc-25acd1302ef9"},"vehicle_type_id":"4","last_reported":1750745789,"current_range_meters":0,"station_id":"ce4bhk92rcd13ifvqgc0","pricing_plan_id":"cebpf4jnsgd1na2vs0mg"},{"bike_id":"5d8d4a37-f1d7-4561-89e7-a9621ebd96c2","system_id":"levelo_inurba_marseille","lat":43.32538,"lon":5.41452,"is_reserved":false,"is_disabled":true,"rental_uris":{"android":"levelo://app?vid=5d8d4a37-f1d7-4561-89e7-a9621ebd96c2","ios":"levelo://app?vid=5d8d4a37-f1d7-4561-89e7-a9621ebd96c2"},"vehicle_type_id":"4","last_reported":1750745789,"current_range_meters":0,"station_id":"ce4bhq12rcd13ifvqhhg","pricing_plan_id":"cebpf4jnsgd1na2vs0mg"},{"bike_id":"99842919-00d6-4e9a-a6d9-802d4371cb63","system_id":"levelo_inurba_marseille","lat":43.3414,"lon":5.40914,"is_reserved":false,"is_disabled":true,"rental_uris":{"android":"levelo://app?vid=99842919-00d6-4e9a-a6d9-802d4371cb63","ios":"levelo://app?vid=99842919-00d6-4e9a-a6d9-802d4371cb63"},"vehicle_type_id":"4","last_reported":1750745789,"current_range_meters":0,"station_id":"ce4bhqh2rcd13ifvqhlg","pricing_plan_id":"cebpf4jnsgd1na2vs0mg"},{"bike_id":"de002d9d-83b0-41e6-99fe-f9eb013d6ff3","system_id":"levelo_inurba_marseille","lat":43.21745,"lon":5.34602,"is_reserved":false,"is_disabled":true,"rental_uris":{"android":"levelo://app?vid=de002d9d-83b0-41e6-99fe-f9eb013d6ff3","ios":"levelo://app?vid=de002d9d-83b0-41e6-99fe-f9eb013d6ff3"},"vehicle_type_id":"4","last_reported":1750745789,"current_range_meters":0,"station_id":"st_cvj6r9ubvosntc0bgbag","pricing_plan_id":"cebpf4jnsgd1na2vs0mg"},{"bike_id":"9cb193d0-906b-4ac2-85c5-eea810b1d20f","system_id":"levelo_inurba_marseille","lat":43.29398,"lon":5.43182,"is_reserved":false,"is_disabled":true,"rental_uris":{"android":"levelo://app?vid=9cb193d0-906b-4ac2-85c5-eea810b1d20f","ios":"levelo://app?vid=9cb193d0-906b-4ac2-85c5-eea810b1d20f"},"vehicle_type_id":"4","last_reported":1750745789,"current_range_meters":400,"station_id":"","pricing_plan_id":"cebpf4jnsgd1na2vs0mg"},{"bike_id":"766542e8-6cd4-44a4-a163-19f241852bd0","system_id":"levelo_inurba_marseille","lat":43.33605,"lon":5.41037,"is_reserved":false,"is_disabled":true,"rental_uris":{"android":"levelo://app?vid=766542e8-6cd4-44a4-a163-19f241852bd0","ios":"levelo://app?vid=766542e8-6cd4-44a4-a163-19f241852bd0"},"vehicle_type_id":"4","last_reported":1750745789,"current_range_meters":400,"station_id":"ce4bhqh2rcd13ifvqhmg","pricing_plan_id":"cebpf4jnsgd1na2vs0mg"},{"bike_id":"0503e1d2-ec4f-4cb3-9ea6-e4f3eb558d3e","system_id":"levelo_inurba_marseille","lat":43.299251,"lon":5.369404,"is_reserved":false,"is_disabled":true,"rental_uris":{"android":"levelo://app?vid=0503e1d2-ec4f-4cb3-9ea6-e4f3eb558d3e","ios":"levelo://app?vid=0503e1d2-ec4f-4cb3-9ea6-e4f3eb558d3e"},"vehicle_type_id":"4","last_reported":1750745789,"current_range_meters":800,"station_id":"","pricing_plan_id":"cebpf4jnsgd1na2vs0mg"},{"bike_id":"d6ad1898-96b6-4bc7-a045-cd51d4c6319b","system_id":"levelo_inurba_marseille","lat":43.30285,"lon":5.37704,"is_reserved":false,"is_disabled":true,"rental_uris":{"android":"levelo://app?vid=d6ad1898-96b6-4bc7-a045-cd51d4c6319b","ios":"levelo://app?vid=d6ad1898-96b6-4bc7-a045-cd51d4c6319b"},"vehicle_type_id":"4","last_reported":1750745789,"current_range_meters":800,"station_id":"ce4bguh2rcd13ifvqcj0","pricing_plan_id":"cebpf4jnsgd1na2vs0mg"},{"bike_id":"6609a24d-085d-4d78-adc9-29a5eee1202d","system_id":"levelo_inurba_marseille","lat":43.32475,"lon":5.36573,"is_reserved":false,"is_disabled":true,"rental_uris":{"android":"levelo://app?vid=6609a24d-085d-4d78-adc9-29a5eee1202d","ios":"levelo://app?vid=6609a24d-085d-4d78-adc9-29a5eee1202d"},"vehicle_type_id":"4","last_reported":1750745789,"current_range_meters":800,"station_id":"ce4bhs12rcd13ifvqhvg","pricing_plan_id":"cebpf4jnsgd1na2vs0mg"},{"bike_id":"3d07ef76-af52-42e0-81f1-5f4963c9ee29","system_id":"levelo_inurba_marseille","lat":43.294701,"lon":5.438349,"is_reserved":false,"is_disabled":true,"rental_uris":{"android":"levelo://app?vid=3d07ef76-af52-42e0-81f1-5f4963c9ee29","ios":"levelo://app?vid=3d07ef76-af52-42e0-81f1-5f4963c9ee29"},"vehicle_type_id":"4","last_reported":1750745789,"current_range_meters":1200,"station_id":"","pricing_plan_id":"cebpf4jnsgd1na2vs0mg"},{"bike_id":"5026cdb4-a1eb-42b7-96f0-e06fd4695fec","system_id":"levelo_inurba_marseille","lat":43.27852,"lon":5.38517,"is_reserved":false,"is_disabled":true,"rental_uris":{"android":"levelo://app?vid=5026cdb4-a1eb-42b7-96f0-e06fd4695fec","ios":"levelo://app?vid=5026cdb4-a1eb-42b7-96f0-e06fd4695fec"},"vehicle_type_id":"4","last_reported":1750745789,"current_range_meters":1600,"station_id":"","pricing_plan_id":"cebpf4jnsgd1na2vs0mg"},{"bike_id":"b79cfcb4-08f8-4029-9f14-40d5961edc58","system_id":"levelo_inurba_marseille","lat":43.3046,"lon":5.37907,"is_reserved":false,"is_disabled":true,"rental_uris":{"android":"levelo://app?vid=b79cfcb4-08f8-4029-9f14-40d5961edc58","ios":"levelo://app?vid=b79cfcb4-08f8-4029-9f14-40d5961edc58"},"vehicle_type_id":"4","last_reported":1750745789,"current_range_meters":1600,"station_id":"ce4bgup2rcd13ifvqcn0","pricing_plan_id":"cebpf4jnsgd1na2vs0mg"},{"bike_id":"6bc161cd-f203-48d7-9e3e-6034f9e43983","system_id":"levelo_inurba_marseille","lat":43.26212,"lon":5.37441,"is_reserved":false,"is_disabled":true,"rental_uris":{"android":"levelo://app?vid=6bc161cd-f203-48d7-9e3e-6034f9e43983","ios":"levelo://app?vid=6bc161cd-f203-48d7-9e3e-6034f9e43983"},"vehicle_type_id":"4","last_reported":1750745789,"current_range_meters":1600,"station_id":"ce4bhgp2rcd13ifvqfc0","pricing_plan_id":"cebpf4jnsgd1na2vs0mg"},{"bike_id":"32032050-1285-40ec-a92e-fdda0d1c3d84","system_id":"levelo_inurba_marseille","lat":43.250076,"lon":5.389379,"is_reserved":false,"is_disabled":true,"rental_uris":{"android":"levelo://app?vid=32032050-1285-40ec-a92e-fdda0d1c3d84","ios":"levelo://app?vid=32032050-1285-40ec-a92e-fdda0d1c3d84"},"vehicle_type_id":"4","last_reported":1750745789,"current_range_meters":1600,"station_id":"ce4bhgp2rcd13ifvqfd0","pricing_plan_id":"cebpf4jnsgd1na2vs0mg"},{"bike_id":"f1cb194a-4748-4ffd-aeef-755ef903185b","system_id":"levelo_inurba_marseille","lat":43.30796,"lon":5.37661,"is_reserved":false,"is_disabled":true,"rental_uris":{"android":"levelo://app?vid=f1cb194a-4748-4ffd-aeef-755ef903185b","ios":"levelo://app?vid=f1cb194a-4748-4ffd-aeef-755ef903185b"},"vehicle_type_id":"4","last_reported":1750745789,"current_range_meters":2000,"station_id":"ce4bgv92rcd13ifvqcq0","pricing_plan_id":"cebpf4jnsgd1na2vs0mg"},{"bike_id":"81fac99e-6113-41f7-8d36-f61e20429e9b","system_id":"levelo_inurba_marseille","lat":43.23155,"lon":5.43708,"is_reserved":false,"is_disabled":true,"rental_uris":{"android":"levelo://app?vid=81fac99e-6113-41f7-8d36-f61e20429e9b","ios":"levelo://app?vid=81fac99e-6113-41f7-8d36-f61e20429e9b"},"vehicle_type_id":"4","last_reported":1750745789,"current_range_meters":2000,"station_id":"ce4bhmp2rcd13ifvqgog","pricing_plan_id":"cebpf4jnsgd1na2vs0mg"},{"bike_id":"b2b814b4-b6e4-4dd8-a36a-10e2029d576f","system_id":"levelo_inurba_marseille","lat":43.29892,"lon":5.38888,"is_reserved":false,"is_disabled":false,"rental_uris":{"android":"levelo://app?vid=b2b814b4-b6e4-4dd8-a36a-10e2029d576f","ios":"levelo://app?vid=b2b814b4-b6e4-4dd8-a36a-10e2029d576f"},"vehicle_type_id":"4","last_reported":1750745789,"current_range_meters":2800,"station_id":"ce4bh392rcd13ifvqdl0","pricing_plan_id":"cebpf4jnsgd1na2vs0mg"},{"bike_id":"65cfcebc-805a-41ee-9fe4-93e1040f31e9","system_id":"levelo_inurba_marseille","lat":43.29229,"lon":5.36062,"is_reserved":false,"is_disabled":false,"rental_uris":{"android":"levelo://app?vid=65cfcebc-805a-41ee-9fe4-93e1040f31e9","ios":"levelo://app?vid=65cfcebc-805a-41ee-9fe4-93e1040f31e9"},"vehicle_type_id":"4","last_reported":1750745789,"current_range_meters":3200,"station_id":"ce4bhbh2rcd13ifvqeqg","pricing_plan_id":"cebpf4jnsgd1na2vs0mg"},{"bike_id":"087f2159-7753-4646-b13a-36c8508d6b4f","system_id":"levelo_inurba_marseille","lat":43.32479,"lon":5.3657,"is_reserved":false,"is_disabled":false,"rental_uris":{"android":"levelo://app?vid=087f2159-7753-4646-b13a-36c8508d6b4f","ios":"levelo://app?vid=087f2159-7753-4646-b13a-36c8508d6b4f"},"vehicle_type_id":"4","last_reported":1750745789,"current_range_meters":3200,"station_id":"ce4bhs12rcd13ifvqhvg","pricing_plan_id":"cebpf4jnsgd1na2vs0mg"},{"bike_id":"85c58f10-925d-4344-b389-09267487a6fc","system_id":"levelo_inurba_marseille","lat":43.21148,"lon":5.41889,"is_reserved":false,"is_disabled":false,"rental_uris":{"android":"levelo://app?vid=85c58f10-925d-4344-b389-09267487a6fc","ios":"levelo://app?vid=85c58f10-925d-4344-b389-09267487a6fc"},"vehicle_type_id":"4","last_reported":1750745789,"current_range_meters":3600,"station_id":"","pricing_plan_id":"cebpf4jnsgd1na2vs0mg"},{"bike_id":"5c79d93f-8f60-4627-92d5-c4a789407a05","system_id":"levelo_inurba_marseille","lat":43.2902,"lon":5.3814,"is_reserved":false,"is_disabled":false,"rental_uris":{"android":"levelo://app?vid=5c79d93f-8f60-4627-92d5-c4a789407a05","ios":"levelo://app?vid=5c79d93f-8f60-4627-92d5-c4a789407a05"},"vehicle_type_id":"4","last_reported":1750745789,"current_range_meters":4000,"station_id":"ce4bh4p2rcd13ifvqe1g","pricing_plan_id":"cebpf4jnsgd1na2vs0mg"},{"bike_id":"01f2a692-824c-49db-b272-bcf28e20e086","system_id":"levelo_inurba_marseille","lat":43.2814,"lon":5.44159,"is_reserved":false,"is_disabled":false,"rental_uris":{"android":"levelo://app?vid=01f2a692-824c-49db-b272-bcf28e20e086","ios":"levelo://app?vid=01f2a692-824c-49db-b272-bcf28e20e086"},"vehicle_type_id":"4","last_reported":1750745789,"current_range_meters":4400,"station_id":"","pricing_plan_id":"cebpf4jnsgd1na2vs0mg"},{"bike_id":"65e3e88e-00e0-4528-916d-73a97fd73d09","system_id":"levelo_inurba_marseille","lat":43.33024,"lon":5.39039,"is_reserved":false,"is_disabled":false,"rental_uris":{"android":"levelo://app?vid=65e3e88e-00e0-4528-916d-73a97fd73d09","ios":"levelo://app?vid=65e3e88e-00e0-4528-916d-73a97fd73d09"},"vehicle_type_id":"4","last_reported":1750745789,"current_range_meters":4400,"station_id":"ce4bhr92rcd13ifvqhrg","pricing_plan_id":"cebpf4jnsgd1na2vs0mg"},{"bike_id":"97be1abb-9b31-4e97-ab51-4566a81c9c1e","system_id":"levelo_inurba_marseille","lat":43.32363,"lon":5.36747,"is_reserved":false,"is_disabled":false,"rental_uris":{"android":"levelo://app?vid=97be1abb-9b31-4e97-ab51-4566a81c9c1e","ios":"levelo://app?vid=97be1abb-9b31-4e97-ab51-4566a81c9c1e"},"vehicle_type_id":"4","last_reported":1750745789,"current_range_meters":4800,"station_id":"ce4bhsh2rcd13ifvqi2g","pricing_plan_id":"cebpf4jnsgd1na2vs0mg"},{"bike_id":"8c6de0c1-9eaf-4c18-8155-d956789067ae","system_id":"levelo_inurba_marseille","lat":43.27929,"lon":5.44239,"is_reserved":false,"is_disabled":false,"rental_uris":{"android":"levelo://app?vid=8c6de0c1-9eaf-4c18-8155-d956789067ae","ios":"levelo://app?vid=8c6de0c1-9eaf-4c18-8155-d956789067ae"},"vehicle_type_id":"4","last_reported":1750745789,"current_range_meters":5600,"station_id":"","pricing_plan_id":"cebpf4jnsgd1na2vs0mg"},{"bike_id":"a9e5e555-fdaf-49c0-b286-f0f2659b17d0","system_id":"levelo_inurba_marseille","lat":43.28308,"lon":5.43214,"is_reserved":false,"is_disabled":false,"rental_uris":{"android":"levelo://app?vid=a9e5e555-fdaf-49c0-b286-f0f2659b17d0","ios":"levelo://app?vid=a9e5e555-fdaf-49c0-b286-f0f2659b17d0"},"vehicle_type_id":"4","last_reported":1750745789,"current_range_meters":5600,"station_id":"","pricing_plan_id":"cebpf4jnsgd1na2vs0mg"},{"bike_id":"06a79f81-8e3e-418a-b03f-bff40f51ba62","system_id":"levelo_inurba_marseille","lat":43.23966,"lon":5.36633,"is_reserved":false,"is_disabled":false,"rental_uris":{"android":"levelo://app?vid=06a79f81-8e3e-418a-b03f-bff40f51ba62","ios":"levelo://app?vid=06a79f81-8e3e-418a-b03f-bff40f51ba62"},"vehicle_type_id":"4","last_reported":1750745789,"current_range_meters":5600,"station_id":"ce4bhi12rcd13ifvqfp0","pricing_plan_id":"cebpf4jnsgd1na2vs0mg"},{"bike_id":"36a6f5ba-696d-469f-9dfb-8c2b9ce389c7","system_id":"levelo_inurba_marseille","lat":43.25932,"lon":5.4091,"is_reserved":false,"is_disabled":false,"rental_uris":{"android":"levelo://app?vid=36a6f5ba-696d-469f-9dfb-8c2b9ce389c7","ios":"levelo://app?vid=36a6f5ba-696d-469f-9dfb-8c2b9ce389c7"},"vehicle_type_id":"4","last_reported":1750745789,"current_range_meters":5600,"station_id":"ce4bhm92rcd13ifvqglg","pricing_plan_id":"cebpf4jnsgd1na2vs0mg"},{"bike_id":"5db18a16-177a-49e6-850a-05463ff04e1b","system_id":"levelo_inurba_marseille","lat":43.32548,"lon":5.41441,"is_reserved":false,"is_disabled":false,"rental_uris":{"android":"levelo://app?vid=5db18a16-177a-49e6-850a-05463ff04e1b","ios":"levelo://app?vid=5db18a16-177a-49e6-850a-05463ff04e1b"},"vehicle_type_id":"4","last_reported":1750745789,"current_range_meters":5600,"station_id":"ce4bhq12rcd13ifvqhhg","pricing_plan_id":"cebpf4jnsgd1na2vs0mg"},{"bike_id":"d7c56714-1585-4954-976a-05b319c2a630","system_id":"levelo_inurba_marseille","lat":43.3078,"lon":5.37424,"is_reserved":false,"is_disabled":false,"rental_uris":{"android":"levelo://app?vid=d7c56714-1585-4954-976a-05b319c2a630","ios":"levelo://app?vid=d7c56714-1585-4954-976a-05b319c2a630"},"vehicle_type_id":"4","last_reported":1750745789,"current_range_meters":6000,"station_id":"","pricing_plan_id":"cebpf4jnsgd1na2vs0mg"},{"bike_id":"f10e38ce-c08a-4001-873a-ec3e8846285a","system_id":"levelo_inurba_marseille","lat":43.32956,"lon":5.38026,"is_reserved":false,"is_disabled":false,"rental_uris":{"android":"levelo://app?vid=f10e38ce-c08a-4001-873a-ec3e8846285a","ios":"levelo://app?vid=f10e38ce-c08a-4001-873a-ec3e8846285a"},"vehicle_type_id":"4","last_reported":1750745789,"current_range_meters":6800,"station_id":"","pricing_plan_id":"cebpf4jnsgd1na2vs0mg"},{"bike_id":"99fcdf86-ee24-4ee6-a6e1-de15a55d87d2","system_id":"levelo_inurba_marseille","lat":43.30143,"lon":5.3812,"is_reserved":false,"is_disabled":false,"rental_uris":{"android":"levelo://app?vid=99fcdf86-ee24-4ee6-a6e1-de15a55d87d2","ios":"levelo://app?vid=99fcdf86-ee24-4ee6-a6e1-de15a55d87d2"},"vehicle_type_id":"4","last_reported":1750745789,"current_range_meters":6800,"station_id":"ce4bgjp2rcd13ifvqbh0","pricing_plan_id":"cebpf4jnsgd1na2vs0mg"},{"bike_id":"31c2620f-bb02-4637-9b2a-68ce8cf06949","system_id":"levelo_inurba_marseille","lat":43.30377,"lon":5.42474,"is_reserved":false,"is_disabled":false,"rental_uris":{"android":"levelo://app?vid=31c2620f-bb02-4637-9b2a-68ce8cf06949","ios":"levelo://app?vid=31c2620f-bb02-4637-9b2a-68ce8cf06949"},"vehicle_type_id":"4","last_reported":1750745789,"current_range_meters":6800,"station_id":"ce4bhoh2rcd13ifvqh6g","pricing_plan_id":"cebpf4jnsgd1na2vs0mg"},{"bike_id":"70764641-799a-4261-99bd-903918c1b74a","system_id":"levelo_inurba_marseille","lat":43.32909,"lon":5.38377,"is_reserved":false,"is_disabled":false,"rental_uris":{"android":"levelo://app?vid=70764641-799a-4261-99bd-903918c1b74a","ios":"levelo://app?vid=70764641-799a-4261-99bd-903918c1b74a"},"vehicle_type_id":"4","last_reported":1750745789,"current_range_meters":8000,"station_id":"","pricing_plan_id":"cebpf4jnsgd1na2vs0mg"},{"bike_id":"b709586a-49d3-4bdd-bfd8-7881a58a6110","system_id":"levelo_inurba_marseille","lat":43.30147,"lon":5.38096,"is_reserved":false,"is_disabled":false,"rental_uris":{"android":"levelo://app?vid=b709586a-49d3-4bdd-bfd8-7881a58a6110","ios":"levelo://app?vid=b709586a-49d3-4bdd-bfd8-7881a58a6110"},"vehicle_type_id":"4","last_reported":1750745789,"current_range_meters":8000,"station_id":"ce4bgjp2rcd13ifvqbh0","pricing_plan_id":"cebpf4jnsgd1na2vs0mg"},{"bike_id":"3dedb0fa-9b6b-4e71-8daf-fda98e5ddb38","system_id":"levelo_inurba_marseille","lat":43.30456,"lon":5.37908,"is_reserved":false,"is_disabled":false,"rental_uris":{"android":"levelo://app?vid=3dedb0fa-9b6b-4e71-8daf-fda98e5ddb38","ios":"levelo://app?vid=3dedb0fa-9b6b-4e71-8daf-fda98e5ddb38"},"vehicle_type_id":"4","last_reported":1750745789,"current_range_meters":8000,"station_id":"ce4bgup2rcd13ifvqcn0","pricing_plan_id":"cebpf4jnsgd1na2vs0mg"},{"bike_id":"bd589ca7-451b-4541-8f57-5aac1079dd56","system_id":"levelo_inurba_marseille","lat":43.30801,"lon":5.43525,"is_reserved":false,"is_disabled":false,"rental_uris":{"android":"levelo://app?vid=bd589ca7-451b-4541-8f57-5aac1079dd56","ios":"levelo://app?vid=bd589ca7-451b-4541-8f57-5aac1079dd56"},"vehicle_type_id":"4","last_reported":1750745789,"current_range_meters":8000,"station_id":"ce4bhph2rcd13ifvqheg","pricing_plan_id":"cebpf4jnsgd1na2vs0mg"},{"bike_id":"6aa1d562-181f-4591-badc-33969b4f10dd","system_id":"levelo_inurba_marseille","lat":43.298931,"lon":5.436654,"is_reserved":false,"is_disabled":false,"rental_uris":{"android":"levelo://app?vid=6aa1d562-181f-4591-badc-33969b4f10dd","ios":"levelo://app?vid=6aa1d562-181f-4591-badc-33969b4f10dd"},"vehicle_type_id":"4","last_reported":1750745789,"current_range_meters":8000,"station_id":"ce4bhpp2rcd13ifvqhfg","pricing_plan_id":"cebpf4jnsgd1na2vs0mg"},{"bike_id":"af1ee2aa-9649-4a84-92f8-a833c0e1efe3","system_id":"levelo_inurba_marseille","lat":43.3236,"lon":5.36769,"is_reserved":false,"is_disabled":false,"rental_uris":{"android":"levelo://app?vid=af1ee2aa-9649-4a84-92f8-a833c0e1efe3","ios":"levelo://app?vid=af1ee2aa-9649-4a84-92f8-a833c0e1efe3"},"vehicle_type_id":"4","last_reported":1750745789,"current_range_meters":8000,"station_id":"ce4bhsh2rcd13ifvqi2g","pricing_plan_id":"cebpf4jnsgd1na2vs0mg"},{"bike_id":"56a5a372-42be-4373-8952-af0a399c84ec","system_id":"levelo_inurba_marseille","lat":43.28977,"lon":5.40139,"is_reserved":false,"is_disabled":false,"rental_uris":{"android":"levelo://app?vid=56a5a372-42be-4373-8952-af0a399c84ec","ios":"levelo://app?vid=56a5a372-42be-4373-8952-af0a399c84ec"},"vehicle_type_id":"4","last_reported":1750745789,"current_range_meters":8400,"station_id":"","pricing_plan_id":"cebpf4jnsgd1na2vs0mg"},{"bike_id":"d2d933d6-d3ef-4abe-8531-38f9a0d7d824","system_id":"levelo_inurba_marseille","lat":43.301514,"lon":5.380871,"is_reserved":false,"is_disabled":false,"rental_uris":{"android":"levelo://app?vid=d2d933d6-d3ef-4abe-8531-38f9a0d7d824","ios":"levelo://app?vid=d2d933d6-d3ef-4abe-8531-38f9a0d7d824"},"vehicle_type_id":"4","last_reported":1750745789,"current_range_meters":8400,"station_id":"ce4bgjp2rcd13ifvqbh0","pricing_plan_id":"cebpf4jnsgd1na2vs0mg"},{"bike_id":"0252ef4f-7618-4074-bf1d-e782157930fe","system_id":"levelo_inurba_marseille","lat":43.29706,"lon":5.36618,"is_reserved":false,"is_disabled":false,"rental_uris":{"android":"levelo://app?vid=0252ef4f-7618-4074-bf1d-e782157930fe","ios":"levelo://app?vid=0252ef4f-7618-4074-bf1d-e782157930fe"},"vehicle_type_id":"4","last_reported":1750745789,"current_range_meters":8400,"station_id":"ce4bgn12rcd13ifvqbt0","pricing_plan_id":"cebpf4jnsgd1na2vs0mg"},{"bike_id":"c7f04c2e-853d-4176-9ee3-fdd3efeccc93","system_id":"levelo_inurba_marseille","lat":43.31491,"lon":5.37304,"is_reserved":false,"is_disabled":false,"rental_uris":{"android":"levelo://app?vid=c7f04c2e-853d-4176-9ee3-fdd3efeccc93","ios":"levelo://app?vid=c7f04c2e-853d-4176-9ee3-fdd3efeccc93"},"vehicle_type_id":"4","last_reported":1750745789,"current_range_meters":8400,"station_id":"ce4bgt12rcd13ifvqcd0","pricing_plan_id":"cebpf4jnsgd1na2vs0mg"},{"bike_id":"4ab893bc-b609-425f-9b93-8bcb09c76bf6","system_id":"levelo_inurba_marseille","lat":43.3046,"lon":5.37899,"is_reserved":false,"is_disabled":false,"rental_uris":{"android":"levelo://app?vid=4ab893bc-b609-425f-9b93-8bcb09c76bf6","ios":"levelo://app?vid=4ab893bc-b609-425f-9b93-8bcb09c76bf6"},"vehicle_type_id":"4","last_reported":1750745789,"current_range_meters":8400,"station_id":"ce4bgup2rcd13ifvqcn0","pricing_plan_id":"cebpf4jnsgd1na2vs0mg"},{"bike_id":"2fa2d5e0-bf46-42c5-84fc-c383d80ed380","system_id":"levelo_inurba_marseille","lat":43.30943,"lon":5.39038,"is_reserved":false,"is_disabled":false,"rental_uris":{"android":"levelo://app?vid=2fa2d5e0-bf46-42c5-84fc-c383d80ed380","ios":"levelo://app?vid=2fa2d5e0-bf46-42c5-84fc-c383d80ed380"},"vehicle_type_id":"4","last_reported":1750745789,"current_range_meters":8400,"station_id":"ce4bgup2rcd13ifvqco0","pricing_plan_id":"cebpf4jnsgd1na2vs0mg"},{"bike_id":"465d2323-f97d-48b0-a820-bc5fa54ae0fa","system_id":"levelo_inurba_marseille","lat":43.28404,"lon":5.45975,"is_reserved":false,"is_disabled":false,"rental_uris":{"android":"levelo://app?vid=465d2323-f97d-48b0-a820-bc5fa54ae0fa","ios":"levelo://app?vid=465d2323-f97d-48b0-a820-bc5fa54ae0fa"},"vehicle_type_id":"4","last_reported":1750745789,"current_range_meters":8800,"station_id":"","pricing_plan_id":"cebpf4jnsgd1na2vs0mg"},{"bike_id":"708a5153-e9eb-4b8c-828a-f2918a7ff712","system_id":"levelo_inurba_marseille","lat":43.337195,"lon":5.391928,"is_reserved":false,"is_disabled":false,"rental_uris":{"android":"levelo://app?vid=708a5153-e9eb-4b8c-828a-f2918a7ff712","ios":"levelo://app?vid=708a5153-e9eb-4b8c-828a-f2918a7ff712"},"vehicle_type_id":"4","last_reported":1750745789,"current_range_meters":8800,"station_id":"ce4bhr92rcd13ifvqhsg","pricing_plan_id":"cebpf4jnsgd1na2vs0mg"},{"bike_id":"1c203772-536d-40e7-9fba-13baabe6598e","system_id":"levelo_inurba_marseille","lat":43.299378,"lon":5.374615,"is_reserved":false,"is_disabled":false,"rental_uris":{"android":"levelo://app?vid=1c203772-536d-40e7-9fba-13baabe6598e","ios":"levelo://app?vid=1c203772-536d-40e7-9fba-13baabe6598e"},"vehicle_type_id":"4","last_reported":1750745789,"current_range_meters":9200,"station_id":"ce4bgjh2rcd13ifvqbg0","pricing_plan_id":"cebpf4jnsgd1na2vs0mg"},{"bike_id":"f94b375b-de76-41be-9c06-44c30649209c","system_id":"levelo_inurba_marseille","lat":43.23217,"lon":5.35549,"is_reserved":false,"is_disabled":false,"rental_uris":{"android":"levelo://app?vid=f94b375b-de76-41be-9c06-44c30649209c","ios":"levelo://app?vid=f94b375b-de76-41be-9c06-44c30649209c"},"vehicle_type_id":"4","last_reported":1750745789,"current_range_meters":9200,"station_id":"ce4bhu92rcd13ifvqi70","pricing_plan_id":"cebpf4jnsgd1na2vs0mg"},{"bike_id":"a4d2adfa-665f-4a49-bac1-43742f353271","system_id":"levelo_inurba_marseille","lat":43.30527,"lon":5.36547,"is_reserved":false,"is_disabled":false,"rental_uris":{"android":"levelo://app?vid=a4d2adfa-665f-4a49-bac1-43742f353271","ios":"levelo://app?vid=a4d2adfa-665f-4a49-bac1-43742f353271"},"vehicle_type_id":"4","last_reported":1750745789,"current_range_meters":9600,"station_id":"ce4bgs12rcd13ifvqcag","pricing_plan_id":"cebpf4jnsgd1na2vs0mg"},{"bike_id":"cca609f7-a6b5-43d2-bbc7-cc55b78e7522","system_id":"levelo_inurba_marseille","lat":43.30477,"lon":5.37909,"is_reserved":false,"is_disabled":false,"rental_uris":{"android":"levelo://app?vid=cca609f7-a6b5-43d2-bbc7-cc55b78e7522","ios":"levelo://app?vid=cca609f7-a6b5-43d2-bbc7-cc55b78e7522"},"vehicle_type_id":"4","last_reported":1750745789,"current_range_meters":9600,"station_id":"ce4bgup2rcd13ifvqcn0","pricing_plan_id":"cebpf4jnsgd1na2vs0mg"},{"bike_id":"943db18b-0f7b-491b-9e26-7d7c28c5dd8f","system_id":"levelo_inurba_marseille","lat":43.29254,"lon":5.40907,"is_reserved":false,"is_disabled":false,"rental_uris":{"android":"levelo://app?vid=943db18b-0f7b-491b-9e26-7d7c28c5dd8f","ios":"levelo://app?vid=943db18b-0f7b-491b-9e26-7d7c28c5dd8f"},"vehicle_type_id":"4","last_reported":1750745789,"current_range_meters":9600,"station_id":"ce4bh192rcd13ifvqdc0","pricing_plan_id":"cebpf4jnsgd1na2vs0mg"},{"bike_id":"bb655025-1fa6-4b73-a5c9-0aa281c97c1a","system_id":"levelo_inurba_marseille","lat":43.31535,"lon":5.38017,"is_reserved":false,"is_disabled":false,"rental_uris":{"android":"levelo://app?vid=bb655025-1fa6-4b73-a5c9-0aa281c97c1a","ios":"levelo://app?vid=bb655025-1fa6-4b73-a5c9-0aa281c97c1a"},"vehicle_type_id":"4","last_reported":1750745789,"current_range_meters":9600,"station_id":"ce4bhsp2rcd13ifvqi50","pricing_plan_id":"cebpf4jnsgd1na2vs0mg"},{"bike_id":"a092c41c-0118-4d86-b43e-981a2615e33e","system_id":"levelo_inurba_marseille","lat":43.34708,"lon":5.34511,"is_reserved":false,"is_disabled":false,"rental_uris":{"android":"levelo://app?vid=a092c41c-0118-4d86-b43e-981a2615e33e","ios":"levelo://app?vid=a092c41c-0118-4d86-b43e-981a2615e33e"},"vehicle_type_id":"4","last_reported":1750745789,"current_range_meters":10000,"station_id":"","pricing_plan_id":"cebpf4jnsgd1na2vs0mg"},{"bike_id":"9ad43fe6-1b49-4ea3-9f06-a5733a9a82aa","system_id":"levelo_inurba_marseille","lat":43.211925,"lon":5.350741,"is_reserved":false,"is_disabled":false,"rental_uris":{"android":"levelo://app?vid=9ad43fe6-1b49-4ea3-9f06-a5733a9a82aa","ios":"levelo://app?vid=9ad43fe6-1b49-4ea3-9f06-a5733a9a82aa"},"vehicle_type_id":"4","last_reported":1750745789,"current_range_meters":10000,"station_id":"","pricing_plan_id":"cebpf4jnsgd1na2vs0mg"},{"bike_id":"fe90cb1e-85fc-4f53-87be-675451a629ec","system_id":"levelo_inurba_marseille","lat":43.30147,"lon":5.381,"is_reserved":false,"is_disabled":false,"rental_uris":{"android":"levelo://app?vid=fe90cb1e-85fc-4f53-87be-675451a629ec","ios":"levelo://app?vid=fe90cb1e-85fc-4f53-87be-675451a629ec"},"vehicle_type_id":"4","last_reported":1750745789,"current_range_meters":10000,"station_id":"ce4bgjp2rcd13ifvqbh0","pricing_plan_id":"cebpf4jnsgd1na2vs0mg"},{"bike_id":"8fa54854-af81-45de-9146-e4fa9650bd3d","system_id":"levelo_inurba_marseille","lat":43.30144,"lon":5.38097,"is_reserved":false,"is_disabled":false,"rental_uris":{"android":"levelo://app?vid=8fa54854-af81-45de-9146-e4fa9650bd3d","ios":"levelo://app?vid=8fa54854-af81-45de-9146-e4fa9650bd3d"},"vehicle_type_id":"4","last_reported":1750745789,"current_range_meters":10000,"station_id":"ce4bgjp2rcd13ifvqbh0","pricing_plan_id":"cebpf4jnsgd1na2vs0mg"},{"bike_id":"b1ac8da4-ea47-4fd4-9ca7-fb6c92a92e98","system_id":"levelo_inurba_marseille","lat":43.30527,"lon":5.36526,"is_reserved":false,"is_disabled":false,"rental_uris":{"android":"levelo://app?vid=b1ac8da4-ea47-4fd4-9ca7-fb6c92a92e98","ios":"levelo://app?vid=b1ac8da4-ea47-4fd4-9ca7-fb6c92a92e98"},"vehicle_type_id":"4","last_reported":1750745789,"current_range_meters":10000,"station_id":"ce4bgs12rcd13ifvqcag","pricing_plan_id":"cebpf4jnsgd1na2vs0mg"},{"bike_id":"e127ef7e-24d3-4248-81fa-66c5e7c3e582","system_id":"levelo_inurba_marseille","lat":43.29599,"lon":5.37953,"is_reserved":false,"is_disabled":false,"rental_uris":{"android":"levelo://app?vid=e127ef7e-24d3-4248-81fa-66c5e7c3e582","ios":"levelo://app?vid=e127ef7e-24d3-4248-81fa-66c5e7c3e582"},"vehicle_type_id":"4","last_reported":1750745789,"current_range_meters":10800,"station_id":"","pricing_plan_id":"cebpf4jnsgd1na2vs0mg"},{"bike_id":"0fbdd57a-2f81-4daa-97f2-4fa41dfb83af","system_id":"levelo_inurba_marseille","lat":43.31337,"lon":5.36717,"is_reserved":false,"is_disabled":false,"rental_uris":{"android":"levelo://app?vid=0fbdd57a-2f81-4daa-97f2-4fa41dfb83af","ios":"levelo://app?vid=0fbdd57a-2f81-4daa-97f2-4fa41dfb83af"},"vehicle_type_id":"4","last_reported":1750745789,"current_range_meters":10800,"station_id":"ce4bgr92rcd13ifvqc6g","pricing_plan_id":"cebpf4jnsgd1na2vs0mg"},{"bike_id":"0c6cb6b2-2172-43fb-8317-f85e0342da64","system_id":"levelo_inurba_marseille","lat":43.30542,"lon":5.36555,"is_reserved":false,"is_disabled":false,"rental_uris":{"android":"levelo://app?vid=0c6cb6b2-2172-43fb-8317-f85e0342da64","ios":"levelo://app?vid=0c6cb6b2-2172-43fb-8317-f85e0342da64"},"vehicle_type_id":"4","last_reported":1750745789,"current_range_meters":10800,"station_id":"ce4bgs12rcd13ifvqcag","pricing_plan_id":"cebpf4jnsgd1na2vs0mg"},{"bike_id":"80908cc2-e9f5-43d0-aac0-21a4f3d5dac4","system_id":"levelo_inurba_marseille","lat":43.323413,"lon":5.38886,"is_reserved":false,"is_disabled":false,"rental_uris":{"android":"levelo://app?vid=80908cc2-e9f5-43d0-aac0-21a4f3d5dac4","ios":"levelo://app?vid=80908cc2-e9f5-43d0-aac0-21a4f3d5dac4"},"vehicle_type_id":"4","last_reported":1750745789,"current_range_meters":10800,"station_id":"ce4bhqp2rcd13ifvqhog","pricing_plan_id":"cebpf4jnsgd1na2vs0mg"},{"bike_id":"f5ca69b7-28e3-4b82-8aa8-91bdd46a3e67","system_id":"levelo_inurba_marseille","lat":43.30266,"lon":5.37967,"is_reserved":false,"is_disabled":false,"rental_uris":{"android":"levelo://app?vid=f5ca69b7-28e3-4b82-8aa8-91bdd46a3e67","ios":"levelo://app?vid=f5ca69b7-28e3-4b82-8aa8-91bdd46a3e67"},"vehicle_type_id":"4","last_reported":1750745789,"current_range_meters":11200,"station_id":"","pricing_plan_id":"cebpf4jnsgd1na2vs0mg"},{"bike_id":"e3c98ea9-5ede-4f57-8f11-2e25041a9538","system_id":"levelo_inurba_marseille","lat":43.299,"lon":5.43665,"is_reserved":false,"is_disabled":false,"rental_uris":{"android":"levelo://app?vid=e3c98ea9-5ede-4f57-8f11-2e25041a9538","ios":"levelo://app?vid=e3c98ea9-5ede-4f57-8f11-2e25041a9538"},"vehicle_type_id":"4","last_reported":1750745789,"current_range_meters":11200,"station_id":"ce4bhpp2rcd13ifvqhfg","pricing_plan_id":"cebpf4jnsgd1na2vs0mg"},{"bike_id":"9213f417-38fe-4ac6-ba73-fa7495d6b748","system_id":"levelo_inurba_marseille","lat":43.24165,"lon":5.36414,"is_reserved":false,"is_disabled":false,"rental_uris":{"android":"levelo://app?vid=9213f417-38fe-4ac6-ba73-fa7495d6b748","ios":"levelo://app?vid=9213f417-38fe-4ac6-ba73-fa7495d6b748"},"vehicle_type_id":"4","last_reported":1750745789,"current_range_meters":11200,"station_id":"cpo36qri1sfpv3e86is0","pricing_plan_id":"cebpf4jnsgd1na2vs0mg"},{"bike_id":"cada33e7-7feb-4285-bb16-b2e63d63815b","system_id":"levelo_inurba_marseille","lat":43.23677,"lon":5.3918,"is_reserved":false,"is_disabled":false,"rental_uris":{"android":"levelo://app?vid=cada33e7-7feb-4285-bb16-b2e63d63815b","ios":"levelo://app?vid=cada33e7-7feb-4285-bb16-b2e63d63815b"},"vehicle_type_id":"4","last_reported":1750745789,"current_range_meters":11600,"station_id":"","pricing_plan_id":"cebpf4jnsgd1na2vs0mg"},{"bike_id":"8cd3e3ea-2346-42fe-bba2-e7a68790f830","system_id":"levelo_inurba_marseille","lat":43.25937,"lon":5.40901,"is_reserved":false,"is_disabled":false,"rental_uris":{"android":"levelo://app?vid=8cd3e3ea-2346-42fe-bba2-e7a68790f830","ios":"levelo://app?vid=8cd3e3ea-2346-42fe-bba2-e7a68790f830"},"vehicle_type_id":"4","last_reported":1750745789,"current_range_meters":11600,"station_id":"ce4bhm92rcd13ifvqglg","pricing_plan_id":"cebpf4jnsgd1na2vs0mg"},{"bike_id":"82daa609-66e4-4b91-8a1c-a20f4b557675","system_id":"levelo_inurba_marseille","lat":43.30336,"lon":5.36691,"is_reserved":false,"is_disabled":false,"rental_uris":{"android":"levelo://app?vid=82daa609-66e4-4b91-8a1c-a20f4b557675","ios":"levelo://app?vid=82daa609-66e4-4b91-8a1c-a20f4b557675"},"vehicle_type_id":"4","last_reported":1750745789,"current_range_meters":12000,"station_id":"","pricing_plan_id":"cebpf4jnsgd1na2vs0mg"},{"bike_id":"104a7179-e2e6-4359-8627-4535b608e02a","system_id":"levelo_inurba_marseille","lat":43.30159,"lon":5.38094,"is_reserved":false,"is_disabled":false,"rental_uris":{"android":"levelo://app?vid=104a7179-e2e6-4359-8627-4535b608e02a","ios":"levelo://app?vid=104a7179-e2e6-4359-8627-4535b608e02a"},"vehicle_type_id":"4","last_reported":1750745789,"current_range_meters":12000,"station_id":"ce4bgjp2rcd13ifvqbh0","pricing_plan_id":"cebpf4jnsgd1na2vs0mg"},{"bike_id":"326c35e3-874d-40e9-900c-e30caafeacf2","system_id":"levelo_inurba_marseille","lat":43.30905,"lon":5.36847,"is_reserved":false,"is_disabled":false,"rental_uris":{"android":"levelo://app?vid=326c35e3-874d-40e9-900c-e30caafeacf2","ios":"levelo://app?vid=326c35e3-874d-40e9-900c-e30caafeacf2"},"vehicle_type_id":"4","last_reported":1750745789,"current_range_meters":12000,"station_id":"ce4bgn92rcd13ifvqbvg","pricing_plan_id":"cebpf4jnsgd1na2vs0mg"},{"bike_id":"137cf081-5a5f-4a28-9c6b-7cfc1f68ae46","system_id":"levelo_inurba_marseille","lat":43.301448,"lon":5.380856,"is_reserved":false,"is_disabled":false,"rental_uris":{"android":"levelo://app?vid=137cf081-5a5f-4a28-9c6b-7cfc1f68ae46","ios":"levelo://app?vid=137cf081-5a5f-4a28-9c6b-7cfc1f68ae46"},"vehicle_type_id":"4","last_reported":1750745789,"current_range_meters":12400,"station_id":"","pricing_plan_id":"cebpf4jnsgd1na2vs0mg"},{"bike_id":"ba7009b7-dbb9-4c29-8645-d0a68dca7b4f","system_id":"levelo_inurba_marseille","lat":43.312975,"lon":5.445535,"is_reserved":false,"is_disabled":false,"rental_uris":{"android":"levelo://app?vid=ba7009b7-dbb9-4c29-8645-d0a68dca7b4f","ios":"levelo://app?vid=ba7009b7-dbb9-4c29-8645-d0a68dca7b4f"},"vehicle_type_id":"4","last_reported":1750745789,"current_range_meters":12400,"station_id":"","pricing_plan_id":"cebpf4jnsgd1na2vs0mg"},{"bike_id":"5c4fcc86-0c18-402b-a4af-838e3cf53a25","system_id":"levelo_inurba_marseille","lat":43.24384,"lon":5.37058,"is_reserved":false,"is_disabled":false,"rental_uris":{"android":"levelo://app?vid=5c4fcc86-0c18-402b-a4af-838e3cf53a25","ios":"levelo://app?vid=5c4fcc86-0c18-402b-a4af-838e3cf53a25"},"vehicle_type_id":"4","last_reported":1750745789,"current_range_meters":12400,"station_id":"ce4bhhh2rcd13ifvqfk0","pricing_plan_id":"cebpf4jnsgd1na2vs0mg"},{"bike_id":"62ab43d4-58ac-4dca-85ac-3c853273fa9a","system_id":"levelo_inurba_marseille","lat":43.25121,"lon":5.40312,"is_reserved":false,"is_disabled":false,"rental_uris":{"android":"levelo://app?vid=62ab43d4-58ac-4dca-85ac-3c853273fa9a","ios":"levelo://app?vid=62ab43d4-58ac-4dca-85ac-3c853273fa9a"},"vehicle_type_id":"4","last_reported":1750745789,"current_range_meters":12400,"station_id":"ce4bhlh2rcd13ifvqgig","pricing_plan_id":"cebpf4jnsgd1na2vs0mg"},{"bike_id":"d3b4acd1-475d-43e1-bb04-3b5b22c96457","system_id":"levelo_inurba_marseille","lat":43.29899,"lon":5.43674,"is_reserved":false,"is_disabled":false,"rental_uris":{"android":"levelo://app?vid=d3b4acd1-475d-43e1-bb04-3b5b22c96457","ios":"levelo://app?vid=d3b4acd1-475d-43e1-bb04-3b5b22c96457"},"vehicle_type_id":"4","last_reported":1750745789,"current_range_meters":12400,"station_id":"ce4bhpp2rcd13ifvqhfg","pricing_plan_id":"cebpf4jnsgd1na2vs0mg"},{"bike_id":"66fe660e-bbbe-4cd1-b5fb-9344c71cb66e","system_id":"levelo_inurba_marseille","lat":43.211892,"lon":5.350776,"is_reserved":false,"is_disabled":false,"rental_uris":{"android":"levelo://app?vid=66fe660e-bbbe-4cd1-b5fb-9344c71cb66e","ios":"levelo://app?vid=66fe660e-bbbe-4cd1-b5fb-9344c71cb66e"},"vehicle_type_id":"4","last_reported":1750745789,"current_range_meters":12400,"station_id":"st_cvj6sg6p6f1abm77japg","pricing_plan_id":"cebpf4jnsgd1na2vs0mg"},{"bike_id":"dbe6c68d-1bce-4ae8-8294-9099ae52e697","system_id":"levelo_inurba_marseille","lat":43.24544,"lon":5.39522,"is_reserved":false,"is_disabled":false,"rental_uris":{"android":"levelo://app?vid=dbe6c68d-1bce-4ae8-8294-9099ae52e697","ios":"levelo://app?vid=dbe6c68d-1bce-4ae8-8294-9099ae52e697"},"vehicle_type_id":"4","last_reported":1750745789,"current_range_meters":12800,"station_id":"ce4bhlp2rcd13ifvqgjg","pricing_plan_id":"cebpf4jnsgd1na2vs0mg"},{"bike_id":"f06ab9c8-88a3-4b76-a708-f4ea2ff0ac7d","system_id":"levelo_inurba_marseille","lat":43.302337,"lon":5.385687,"is_reserved":false,"is_disabled":false,"rental_uris":{"android":"levelo://app?vid=f06ab9c8-88a3-4b76-a708-f4ea2ff0ac7d","ios":"levelo://app?vid=f06ab9c8-88a3-4b76-a708-f4ea2ff0ac7d"},"vehicle_type_id":"4","last_reported":1750745789,"current_range_meters":13600,"station_id":"","pricing_plan_id":"cebpf4jnsgd1na2vs0mg"},{"bike_id":"12f6b162-6559-405b-97ba-5632bcad717b","system_id":"levelo_inurba_marseille","lat":43.24072,"lon":5.37756,"is_reserved":false,"is_disabled":false,"rental_uris":{"android":"levelo://app?vid=12f6b162-6559-405b-97ba-5632bcad717b","ios":"levelo://app?vid=12f6b162-6559-405b-97ba-5632bcad717b"},"vehicle_type_id":"4","last_reported":1750745789,"current_range_meters":13600,"station_id":"ce4bhnp2rcd13ifvqgvg","pricing_plan_id":"cebpf4jnsgd1na2vs0mg"},{"bike_id":"e8bdcbbe-1b11-4971-a078-f8f587629944","system_id":"levelo_inurba_marseille","lat":43.337282,"lon":5.391809,"is_reserved":false,"is_disabled":false,"rental_uris":{"android":"levelo://app?vid=e8bdcbbe-1b11-4971-a078-f8f587629944","ios":"levelo://app?vid=e8bdcbbe-1b11-4971-a078-f8f587629944"},"vehicle_type_id":"4","last_reported":1750745789,"current_range_meters":13600,"station_id":"ce4bhr92rcd13ifvqhsg","pricing_plan_id":"cebpf4jnsgd1na2vs0mg"},{"bike_id":"35aeefc0-3fb3-44e4-b36c-7585a16f98d5","system_id":"levelo_inurba_marseille","lat":43.32479,"lon":5.36564,"is_reserved":false,"is_disabled":false,"rental_uris":{"android":"levelo://app?vid=35aeefc0-3fb3-44e4-b36c-7585a16f98d5","ios":"levelo://app?vid=35aeefc0-3fb3-44e4-b36c-7585a16f98d5"},"vehicle_type_id":"4","last_reported":1750745789,"current_range_meters":13600,"station_id":"ce4bhs12rcd13ifvqhvg","pricing_plan_id":"cebpf4jnsgd1na2vs0mg"},{"bike_id":"e6e1ec66-36d4-41d2-872a-c2836e7851fd","system_id":"levelo_inurba_marseille","lat":43.21757,"lon":5.34583,"is_reserved":false,"is_disabled":false,"rental_uris":{"android":"levelo://app?vid=e6e1ec66-36d4-41d2-872a-c2836e7851fd","ios":"levelo://app?vid=e6e1ec66-36d4-41d2-872a-c2836e7851fd"},"vehicle_type_id":"4","last_reported":1750745789,"current_range_meters":13600,"station_id":"st_cvj6r9ubvosntc0bgbag","pricing_plan_id":"cebpf4jnsgd1na2vs0mg"},{"bike_id":"ff359b06-e82b-4518-b602-f9c62162a27d","system_id":"levelo_inurba_marseille","lat":43.21192,"lon":5.35065,"is_reserved":false,"is_disabled":false,"rental_uris":{"android":"levelo://app?vid=ff359b06-e82b-4518-b602-f9c62162a27d","ios":"levelo://app?vid=ff359b06-e82b-4518-b602-f9c62162a27d"},"vehicle_type_id":"4","last_reported":1750745789,"current_range_meters":13600,"station_id":"st_cvj6sg6p6f1abm77japg","pricing_plan_id":"cebpf4jnsgd1na2vs0mg"},{"bike_id":"07dfafb5-92cc-4e8a-ba82-70efbf9b4e21","system_id":"levelo_inurba_marseille","lat":43.27701,"lon":5.41541,"is_reserved":false,"is_disabled":false,"rental_uris":{"android":"levelo://app?vid=07dfafb5-92cc-4e8a-ba82-70efbf9b4e21","ios":"levelo://app?vid=07dfafb5-92cc-4e8a-ba82-70efbf9b4e21"},"vehicle_type_id":"4","last_reported":1750745789,"current_range_meters":14000,"station_id":"","pricing_plan_id":"cebpf4jnsgd1na2vs0mg"},{"bike_id":"095eabd1-5dcf-4106-9219-bdac4470d970","system_id":"levelo_inurba_marseille","lat":43.32856,"lon":5.43376,"is_reserved":false,"is_disabled":false,"rental_uris":{"android":"levelo://app?vid=095eabd1-5dcf-4106-9219-bdac4470d970","ios":"levelo://app?vid=095eabd1-5dcf-4106-9219-bdac4470d970"},"vehicle_type_id":"4","last_reported":1750745789,"current_range_meters":14000,"station_id":"","pricing_plan_id":"cebpf4jnsgd1na2vs0mg"},{"bike_id":"ea58c5af-7e24-472a-9042-4626112e91cb","system_id":"levelo_inurba_marseille","lat":43.291979,"lon":5.358054,"is_reserved":false,"is_disabled":false,"rental_uris":{"android":"levelo://app?vid=ea58c5af-7e24-472a-9042-4626112e91cb","ios":"levelo://app?vid=ea58c5af-7e24-472a-9042-4626112e91cb"},"vehicle_type_id":"4","last_reported":1750745789,"current_range_meters":14000,"station_id":"","pricing_plan_id":"cebpf4jnsgd1na2vs0mg"},{"bike_id":"c3b67a3c-755c-43da-b7f2-a4d8a045bf9d","system_id":"levelo_inurba_marseille","lat":43.21197,"lon":5.35074,"is_reserved":false,"is_disabled":false,"rental_uris":{"android":"levelo://app?vid=c3b67a3c-755c-43da-b7f2-a4d8a045bf9d","ios":"levelo://app?vid=c3b67a3c-755c-43da-b7f2-a4d8a045bf9d"},"vehicle_type_id":"4","last_reported":1750745789,"current_range_meters":14000,"station_id":"st_cvj6sg6p6f1abm77japg","pricing_plan_id":"cebpf4jnsgd1na2vs0mg"},{"bike_id":"b6b861fa-fd27-43ad-89fb-4be1a264be92","system_id":"levelo_inurba_marseille","lat":43.25307,"lon":5.37497,"is_reserved":false,"is_disabled":false,"rental_uris":{"android":"levelo://app?vid=b6b861fa-fd27-43ad-89fb-4be1a264be92","ios":"levelo://app?vid=b6b861fa-fd27-43ad-89fb-4be1a264be92"},"vehicle_type_id":"4","last_reported":1750745789,"current_range_meters":14400,"station_id":"","pricing_plan_id":"cebpf4jnsgd1na2vs0mg"},{"bike_id":"3e0f5345-cfae-479a-9b41-9237c8726756","system_id":"levelo_inurba_marseille","lat":43.29682,"lon":5.36331,"is_reserved":false,"is_disabled":false,"rental_uris":{"android":"levelo://app?vid=3e0f5345-cfae-479a-9b41-9237c8726756","ios":"levelo://app?vid=3e0f5345-cfae-479a-9b41-9237c8726756"},"vehicle_type_id":"4","last_reported":1750745789,"current_range_meters":14400,"station_id":"","pricing_plan_id":"cebpf4jnsgd1na2vs0mg"},{"bike_id":"7c3f6852-4f29-42a9-a8c1-e2b82bb43fcf","system_id":"levelo_inurba_marseille","lat":43.29256,"lon":5.42686,"is_reserved":false,"is_disabled":false,"rental_uris":{"android":"levelo://app?vid=7c3f6852-4f29-42a9-a8c1-e2b82bb43fcf","ios":"levelo://app?vid=7c3f6852-4f29-42a9-a8c1-e2b82bb43fcf"},"vehicle_type_id":"4","last_reported":1750745789,"current_range_meters":14400,"station_id":"","pricing_plan_id":"cebpf4jnsgd1na2vs0mg"},{"bike_id":"c7cd1e8c-5878-4cb9-b118-a74bddb512a1","system_id":"levelo_inurba_marseille","lat":43.307974,"lon":5.435246,"is_reserved":false,"is_disabled":false,"rental_uris":{"android":"levelo://app?vid=c7cd1e8c-5878-4cb9-b118-a74bddb512a1","ios":"levelo://app?vid=c7cd1e8c-5878-4cb9-b118-a74bddb512a1"},"vehicle_type_id":"4","last_reported":1750745789,"current_range_meters":14400,"station_id":"ce4bhph2rcd13ifvqheg","pricing_plan_id":"cebpf4jnsgd1na2vs0mg"},{"bike_id":"a0a9d51d-3199-45de-8b76-202f15c685f8","system_id":"levelo_inurba_marseille","lat":43.30147,"lon":5.38092,"is_reserved":false,"is_disabled":false,"rental_uris":{"android":"levelo://app?vid=a0a9d51d-3199-45de-8b76-202f15c685f8","ios":"levelo://app?vid=a0a9d51d-3199-45de-8b76-202f15c685f8"},"vehicle_type_id":"4","last_reported":1750745789,"current_range_meters":14800,"station_id":"ce4bgjp2rcd13ifvqbh0","pricing_plan_id":"cebpf4jnsgd1na2vs0mg"},{"bike_id":"f3434959-c97e-49f0-9b0f-5252d7b532f4","system_id":"levelo_inurba_marseille","lat":43.301531,"lon":5.380853,"is_reserved":false,"is_disabled":false,"rental_uris":{"android":"levelo://app?vid=f3434959-c97e-49f0-9b0f-5252d7b532f4","ios":"levelo://app?vid=f3434959-c97e-49f0-9b0f-5252d7b532f4"},"vehicle_type_id":"4","last_reported":1750745789,"current_range_meters":14800,"station_id":"ce4bgjp2rcd13ifvqbh0","pricing_plan_id":"cebpf4jnsgd1na2vs0mg"},{"bike_id":"2262b186-2df3-4269-85e5-bcb83d0355df","system_id":"levelo_inurba_marseille","lat":43.30915,"lon":5.36838,"is_reserved":false,"is_disabled":false,"rental_uris":{"android":"levelo://app?vid=2262b186-2df3-4269-85e5-bcb83d0355df","ios":"levelo://app?vid=2262b186-2df3-4269-85e5-bcb83d0355df"},"vehicle_type_id":"4","last_reported":1750745789,"current_range_meters":14800,"station_id":"ce4bgn92rcd13ifvqbvg","pricing_plan_id":"cebpf4jnsgd1na2vs0mg"},{"bike_id":"092eaa9b-252b-425c-bacd-75ec9a41e9e9","system_id":"levelo_inurba_marseille","lat":43.24044,"lon":5.37766,"is_reserved":false,"is_disabled":false,"rental_uris":{"android":"levelo://app?vid=092eaa9b-252b-425c-bacd-75ec9a41e9e9","ios":"levelo://app?vid=092eaa9b-252b-425c-bacd-75ec9a41e9e9"},"vehicle_type_id":"4","last_reported":1750745789,"current_range_meters":15200,"station_id":"ce4bhnp2rcd13ifvqgvg","pricing_plan_id":"cebpf4jnsgd1na2vs0mg"},{"bike_id":"11ebf4fb-e752-44af-81e3-7d28e8eee9cc","system_id":"levelo_inurba_marseille","lat":43.281101,"lon":5.432114,"is_reserved":false,"is_disabled":false,"rental_uris":{"android":"levelo://app?vid=11ebf4fb-e752-44af-81e3-7d28e8eee9cc","ios":"levelo://app?vid=11ebf4fb-e752-44af-81e3-7d28e8eee9cc"},"vehicle_type_id":"4","last_reported":1750745789,"current_range_meters":16000,"station_id":"","pricing_plan_id":"cebpf4jnsgd1na2vs0mg"},{"bike_id":"3582c015-8c9d-4f90-a7ce-717c80f702f5","system_id":"levelo_inurba_marseille","lat":43.30167,"lon":5.38096,"is_reserved":false,"is_disabled":false,"rental_uris":{"android":"levelo://app?vid=3582c015-8c9d-4f90-a7ce-717c80f702f5","ios":"levelo://app?vid=3582c015-8c9d-4f90-a7ce-717c80f702f5"},"vehicle_type_id":"4","last_reported":1750745789,"current_range_meters":16000,"station_id":"ce4bgjp2rcd13ifvqbh0","pricing_plan_id":"cebpf4jnsgd1na2vs0mg"},{"bike_id":"cef721fd-afe4-48d0-89b0-0777a634e87f","system_id":"levelo_inurba_marseille","lat":43.244,"lon":5.37109,"is_reserved":false,"is_disabled":false,"rental_uris":{"android":"levelo://app?vid=cef721fd-afe4-48d0-89b0-0777a634e87f","ios":"levelo://app?vid=cef721fd-afe4-48d0-89b0-0777a634e87f"},"vehicle_type_id":"4","last_reported":1750745789,"current_range_meters":16000,"station_id":"ce4bhhh2rcd13ifvqfk0","pricing_plan_id":"cebpf4jnsgd1na2vs0mg"},{"bike_id":"f4e7a039-1267-4e96-a024-13b69cc9c6e7","system_id":"levelo_inurba_marseille","lat":43.25096,"lon":5.40327,"is_reserved":false,"is_disabled":false,"rental_uris":{"android":"levelo://app?vid=f4e7a039-1267-4e96-a024-13b69cc9c6e7","ios":"levelo://app?vid=f4e7a039-1267-4e96-a024-13b69cc9c6e7"},"vehicle_type_id":"4","last_reported":1750745789,"current_range_meters":16000,"station_id":"ce4bhlh2rcd13ifvqgig","pricing_plan_id":"cebpf4jnsgd1na2vs0mg"},{"bike_id":"801c2515-e061-4ec1-b305-97c3a566a070","system_id":"levelo_inurba_marseille","lat":43.21188,"lon":5.35071,"is_reserved":false,"is_disabled":false,"rental_uris":{"android":"levelo://app?vid=801c2515-e061-4ec1-b305-97c3a566a070","ios":"levelo://app?vid=801c2515-e061-4ec1-b305-97c3a566a070"},"vehicle_type_id":"4","last_reported":1750745789,"current_range_meters":16000,"station_id":"st_cvj6sg6p6f1abm77japg","pricing_plan_id":"cebpf4jnsgd1na2vs0mg"},{"bike_id":"f79d172a-8e1d-485c-a97c-f416a2837800","system_id":"levelo_inurba_marseille","lat":43.32637,"lon":5.42123,"is_reserved":false,"is_disabled":false,"rental_uris":{"android":"levelo://app?vid=f79d172a-8e1d-485c-a97c-f416a2837800","ios":"levelo://app?vid=f79d172a-8e1d-485c-a97c-f416a2837800"},"vehicle_type_id":"4","last_reported":1750745789,"current_range_meters":16400,"station_id":"","pricing_plan_id":"cebpf4jnsgd1na2vs0mg"},{"bike_id":"b87f5e37-a4df-4bc8-a944-6d6d09b0f782","system_id":"levelo_inurba_marseille","lat":43.30526,"lon":5.36708,"is_reserved":false,"is_disabled":false,"rental_uris":{"android":"levelo://app?vid=b87f5e37-a4df-4bc8-a944-6d6d09b0f782","ios":"levelo://app?vid=b87f5e37-a4df-4bc8-a944-6d6d09b0f782"},"vehicle_type_id":"4","last_reported":1750745789,"current_range_meters":16400,"station_id":"ce4bgrp2rcd13ifvqc9g","pricing_plan_id":"cebpf4jnsgd1na2vs0mg"},{"bike_id":"b2218468-0d13-4174-81c6-febfc67bb114","system_id":"levelo_inurba_marseille","lat":43.26552,"lon":5.37288,"is_reserved":false,"is_disabled":false,"rental_uris":{"android":"levelo://app?vid=b2218468-0d13-4174-81c6-febfc67bb114","ios":"levelo://app?vid=b2218468-0d13-4174-81c6-febfc67bb114"},"vehicle_type_id":"4","last_reported":1750745789,"current_range_meters":16400,"station_id":"ce4bhg12rcd13ifvqf70","pricing_plan_id":"cebpf4jnsgd1na2vs0mg"},{"bike_id":"74ca7455-29b7-465d-a7a3-b886316a92d0","system_id":"levelo_inurba_marseille","lat":43.24084,"lon":5.37744,"is_reserved":false,"is_disabled":false,"rental_uris":{"android":"levelo://app?vid=74ca7455-29b7-465d-a7a3-b886316a92d0","ios":"levelo://app?vid=74ca7455-29b7-465d-a7a3-b886316a92d0"},"vehicle_type_id":"4","last_reported":1750745789,"current_range_meters":16400,"station_id":"ce4bhnp2rcd13ifvqgvg","pricing_plan_id":"cebpf4jnsgd1na2vs0mg"},{"bike_id":"bb6bd17a-d4c7-4d91-a51f-826fd0d3fa50","system_id":"levelo_inurba_marseille","lat":43.323314,"lon":5.406287,"is_reserved":false,"is_disabled":false,"rental_uris":{"android":"levelo://app?vid=bb6bd17a-d4c7-4d91-a51f-826fd0d3fa50","ios":"levelo://app?vid=bb6bd17a-d4c7-4d91-a51f-826fd0d3fa50"},"vehicle_type_id":"4","last_reported":1750745789,"current_range_meters":16400,"station_id":"ce4bhq92rcd13ifvqhjg","pricing_plan_id":"cebpf4jnsgd1na2vs0mg"},{"bike_id":"0783249e-9f70-464a-b769-adb77239d765","system_id":"levelo_inurba_marseille","lat":43.212025,"lon":5.350721,"is_reserved":false,"is_disabled":false,"rental_uris":{"android":"levelo://app?vid=0783249e-9f70-464a-b769-adb77239d765","ios":"levelo://app?vid=0783249e-9f70-464a-b769-adb77239d765"},"vehicle_type_id":"4","last_reported":1750745789,"current_range_meters":16400,"station_id":"st_cvj6sg6p6f1abm77japg","pricing_plan_id":"cebpf4jnsgd1na2vs0mg"},{"bike_id":"51df9c8d-f116-4628-8c40-f3171ceea641","system_id":"levelo_inurba_marseille","lat":43.281224,"lon":5.446032,"is_reserved":false,"is_disabled":false,"rental_uris":{"android":"levelo://app?vid=51df9c8d-f116-4628-8c40-f3171ceea641","ios":"levelo://app?vid=51df9c8d-f116-4628-8c40-f3171ceea641"},"vehicle_type_id":"4","last_reported":1750745789,"current_range_meters":16800,"station_id":"","pricing_plan_id":"cebpf4jnsgd1na2vs0mg"},{"bike_id":"51b217be-9488-41c1-b083-6d728251b280","system_id":"levelo_inurba_marseille","lat":43.243344,"lon":5.368966,"is_reserved":false,"is_disabled":false,"rental_uris":{"android":"levelo://app?vid=51b217be-9488-41c1-b083-6d728251b280","ios":"levelo://app?vid=51b217be-9488-41c1-b083-6d728251b280"},"vehicle_type_id":"4","last_reported":1750745789,"current_range_meters":16800,"station_id":"","pricing_plan_id":"cebpf4jnsgd1na2vs0mg"},{"bike_id":"ff1500cc-ac8f-45c9-881c-9fd6595094a3","system_id":"levelo_inurba_marseille","lat":43.318016,"lon":5.401851,"is_reserved":false,"is_disabled":false,"rental_uris":{"android":"levelo://app?vid=ff1500cc-ac8f-45c9-881c-9fd6595094a3","ios":"levelo://app?vid=ff1500cc-ac8f-45c9-881c-9fd6595094a3"},"vehicle_type_id":"4","last_reported":1750745789,"current_range_meters":16800,"station_id":"","pricing_plan_id":"cebpf4jnsgd1na2vs0mg"},{"bike_id":"4a95984e-7695-4d2f-a0a4-237b30b1cb82","system_id":"levelo_inurba_marseille","lat":43.309,"lon":5.36842,"is_reserved":false,"is_disabled":false,"rental_uris":{"android":"levelo://app?vid=4a95984e-7695-4d2f-a0a4-237b30b1cb82","ios":"levelo://app?vid=4a95984e-7695-4d2f-a0a4-237b30b1cb82"},"vehicle_type_id":"4","last_reported":1750745789,"current_range_meters":16800,"station_id":"ce4bgn92rcd13ifvqbvg","pricing_plan_id":"cebpf4jnsgd1na2vs0mg"},{"bike_id":"6af11411-eaec-434d-8aec-5ac25bed1ca3","system_id":"levelo_inurba_marseille","lat":43.31341,"lon":5.36733,"is_reserved":false,"is_disabled":false,"rental_uris":{"android":"levelo://app?vid=6af11411-eaec-434d-8aec-5ac25bed1ca3","ios":"levelo://app?vid=6af11411-eaec-434d-8aec-5ac25bed1ca3"},"vehicle_type_id":"4","last_reported":1750745789,"current_range_meters":16800,"station_id":"ce4bgr92rcd13ifvqc6g","pricing_plan_id":"cebpf4jnsgd1na2vs0mg"},{"bike_id":"7fa2f383-f32b-47b8-b776-c101f985ac0e","system_id":"levelo_inurba_marseille","lat":43.30457,"lon":5.37905,"is_reserved":false,"is_disabled":false,"rental_uris":{"android":"levelo://app?vid=7fa2f383-f32b-47b8-b776-c101f985ac0e","ios":"levelo://app?vid=7fa2f383-f32b-47b8-b776-c101f985ac0e"},"vehicle_type_id":"4","last_reported":1750745789,"current_range_meters":16800,"station_id":"ce4bgup2rcd13ifvqcn0","pricing_plan_id":"cebpf4jnsgd1na2vs0mg"},{"bike_id":"89e78189-3f93-4468-a17e-c4ff0e8a065f","system_id":"levelo_inurba_marseille","lat":43.32,"lon":5.38153,"is_reserved":false,"is_disabled":false,"rental_uris":{"android":"levelo://app?vid=89e78189-3f93-4468-a17e-c4ff0e8a065f","ios":"levelo://app?vid=89e78189-3f93-4468-a17e-c4ff0e8a065f"},"vehicle_type_id":"4","last_reported":1750745789,"current_range_meters":16800,"station_id":"ce4bhr12rcd13ifvqhpg","pricing_plan_id":"cebpf4jnsgd1na2vs0mg"},{"bike_id":"af112b62-19de-41d4-b8d7-e14d0172315d","system_id":"levelo_inurba_marseille","lat":43.32747,"lon":5.39189,"is_reserved":false,"is_disabled":false,"rental_uris":{"android":"levelo://app?vid=af112b62-19de-41d4-b8d7-e14d0172315d","ios":"levelo://app?vid=af112b62-19de-41d4-b8d7-e14d0172315d"},"vehicle_type_id":"4","last_reported":1750745789,"current_range_meters":17200,"station_id":"","pricing_plan_id":"cebpf4jnsgd1na2vs0mg"},{"bike_id":"7dc16626-06b2-4f5f-ade0-7fff0744724a","system_id":"levelo_inurba_marseille","lat":43.30163,"lon":5.38094,"is_reserved":false,"is_disabled":false,"rental_uris":{"android":"levelo://app?vid=7dc16626-06b2-4f5f-ade0-7fff0744724a","ios":"levelo://app?vid=7dc16626-06b2-4f5f-ade0-7fff0744724a"},"vehicle_type_id":"4","last_reported":1750745789,"current_range_meters":17200,"station_id":"ce4bgjp2rcd13ifvqbh0","pricing_plan_id":"cebpf4jnsgd1na2vs0mg"},{"bike_id":"0d648536-2fa9-4c25-bcc0-039b160b1515","system_id":"levelo_inurba_marseille","lat":43.30153,"lon":5.381,"is_reserved":false,"is_disabled":false,"rental_uris":{"android":"levelo://app?vid=0d648536-2fa9-4c25-bcc0-039b160b1515","ios":"levelo://app?vid=0d648536-2fa9-4c25-bcc0-039b160b1515"},"vehicle_type_id":"4","last_reported":1750745789,"current_range_meters":17200,"station_id":"ce4bgjp2rcd13ifvqbh0","pricing_plan_id":"cebpf4jnsgd1na2vs0mg"},{"bike_id":"99c1bc55-9484-4768-bc63-b509cd8813a9","system_id":"levelo_inurba_marseille","lat":43.29511,"lon":5.37526,"is_reserved":false,"is_disabled":false,"rental_uris":{"android":"levelo://app?vid=99c1bc55-9484-4768-bc63-b509cd8813a9","ios":"levelo://app?vid=99c1bc55-9484-4768-bc63-b509cd8813a9"},"vehicle_type_id":"4","last_reported":1750745789,"current_range_meters":17200,"station_id":"ce4bgkp2rcd13ifvqbmg","pricing_plan_id":"cebpf4jnsgd1na2vs0mg"},{"bike_id":"98f6a20a-fd34-4f77-a03e-460e4ea070b7","system_id":"levelo_inurba_marseille","lat":43.32363,"lon":5.36757,"is_reserved":false,"is_disabled":false,"rental_uris":{"android":"levelo://app?vid=98f6a20a-fd34-4f77-a03e-460e4ea070b7","ios":"levelo://app?vid=98f6a20a-fd34-4f77-a03e-460e4ea070b7"},"vehicle_type_id":"4","last_reported":1750745789,"current_range_meters":17200,"station_id":"ce4bhsh2rcd13ifvqi2g","pricing_plan_id":"cebpf4jnsgd1na2vs0mg"},{"bike_id":"f4da8180-e66c-40be-b0dd-e95207ece69b","system_id":"levelo_inurba_marseille","lat":43.33776,"lon":5.3743,"is_reserved":false,"is_disabled":false,"rental_uris":{"android":"levelo://app?vid=f4da8180-e66c-40be-b0dd-e95207ece69b","ios":"levelo://app?vid=f4da8180-e66c-40be-b0dd-e95207ece69b"},"vehicle_type_id":"4","last_reported":1750745789,"current_range_meters":17600,"station_id":"","pricing_plan_id":"cebpf4jnsgd1na2vs0mg"},{"bike_id":"0df6bbbb-ad04-40f5-86a5-d62c0ba5f55a","system_id":"levelo_inurba_marseille","lat":43.30557,"lon":5.39208,"is_reserved":false,"is_disabled":false,"rental_uris":{"android":"levelo://app?vid=0df6bbbb-ad04-40f5-86a5-d62c0ba5f55a","ios":"levelo://app?vid=0df6bbbb-ad04-40f5-86a5-d62c0ba5f55a"},"vehicle_type_id":"4","last_reported":1750745789,"current_range_meters":17600,"station_id":"","pricing_plan_id":"cebpf4jnsgd1na2vs0mg"},{"bike_id":"9d17ba94-28b9-4307-96c9-7a19692d51f0","system_id":"levelo_inurba_marseille","lat":43.333031,"lon":5.396601,"is_reserved":false,"is_disabled":false,"rental_uris":{"android":"levelo://app?vid=9d17ba94-28b9-4307-96c9-7a19692d51f0","ios":"levelo://app?vid=9d17ba94-28b9-4307-96c9-7a19692d51f0"},"vehicle_type_id":"4","last_reported":1750745789,"current_range_meters":17600,"station_id":"","pricing_plan_id":"cebpf4jnsgd1na2vs0mg"},{"bike_id":"3c279dfc-f01d-4850-bf40-d3d4bff04a53","system_id":"levelo_inurba_marseille","lat":43.305404,"lon":5.367042,"is_reserved":false,"is_disabled":false,"rental_uris":{"android":"levelo://app?vid=3c279dfc-f01d-4850-bf40-d3d4bff04a53","ios":"levelo://app?vid=3c279dfc-f01d-4850-bf40-d3d4bff04a53"},"vehicle_type_id":"4","last_reported":1750745789,"current_range_meters":17600,"station_id":"","pricing_plan_id":"cebpf4jnsgd1na2vs0mg"},{"bike_id":"191b4f02-0e9b-4486-94b0-76b713851fce","system_id":"levelo_inurba_marseille","lat":43.32293,"lon":5.4063,"is_reserved":false,"is_disabled":false,"rental_uris":{"android":"levelo://app?vid=191b4f02-0e9b-4486-94b0-76b713851fce","ios":"levelo://app?vid=191b4f02-0e9b-4486-94b0-76b713851fce"},"vehicle_type_id":"4","last_reported":1750745789,"current_range_meters":17600,"station_id":"","pricing_plan_id":"cebpf4jnsgd1na2vs0mg"},{"bike_id":"3dd5c0fd-6c27-45d7-94ec-1243da58c1c9","system_id":"levelo_inurba_marseille","lat":43.30151,"lon":5.38084,"is_reserved":false,"is_disabled":false,"rental_uris":{"android":"levelo://app?vid=3dd5c0fd-6c27-45d7-94ec-1243da58c1c9","ios":"levelo://app?vid=3dd5c0fd-6c27-45d7-94ec-1243da58c1c9"},"vehicle_type_id":"4","last_reported":1750745789,"current_range_meters":17600,"station_id":"ce4bgjp2rcd13ifvqbh0","pricing_plan_id":"cebpf4jnsgd1na2vs0mg"},{"bike_id":"afcc3e34-a106-4a95-8e17-5a3480b99f1d","system_id":"levelo_inurba_marseille","lat":43.30587,"lon":5.37228,"is_reserved":false,"is_disabled":false,"rental_uris":{"android":"levelo://app?vid=afcc3e34-a106-4a95-8e17-5a3480b99f1d","ios":"levelo://app?vid=afcc3e34-a106-4a95-8e17-5a3480b99f1d"},"vehicle_type_id":"4","last_reported":1750745789,"current_range_meters":17600,"station_id":"ce4bgqh2rcd13ifvqc4g","pricing_plan_id":"cebpf4jnsgd1na2vs0mg"},{"bike_id":"8f9c833e-3257-4d88-b7b2-b55296be944e","system_id":"levelo_inurba_marseille","lat":43.29879,"lon":5.39732,"is_reserved":false,"is_disabled":false,"rental_uris":{"android":"levelo://app?vid=8f9c833e-3257-4d88-b7b2-b55296be944e","ios":"levelo://app?vid=8f9c833e-3257-4d88-b7b2-b55296be944e"},"vehicle_type_id":"4","last_reported":1750745789,"current_range_meters":17600,"station_id":"ce4bh0h2rcd13ifvqd50","pricing_plan_id":"cebpf4jnsgd1na2vs0mg"},{"bike_id":"18f3ca4e-2c6b-4479-922a-4f3c1125d3cc","system_id":"levelo_inurba_marseille","lat":43.25109,"lon":5.40321,"is_reserved":false,"is_disabled":false,"rental_uris":{"android":"levelo://app?vid=18f3ca4e-2c6b-4479-922a-4f3c1125d3cc","ios":"levelo://app?vid=18f3ca4e-2c6b-4479-922a-4f3c1125d3cc"},"vehicle_type_id":"4","last_reported":1750745789,"current_range_meters":17600,"station_id":"ce4bhlh2rcd13ifvqgig","pricing_plan_id":"cebpf4jnsgd1na2vs0mg"},{"bike_id":"26a14eba-87a9-47b8-9607-30bd0042d428","system_id":"levelo_inurba_marseille","lat":43.31434,"lon":5.39493,"is_reserved":false,"is_disabled":false,"rental_uris":{"android":"levelo://app?vid=26a14eba-87a9-47b8-9607-30bd0042d428","ios":"levelo://app?vid=26a14eba-87a9-47b8-9607-30bd0042d428"},"vehicle_type_id":"4","last_reported":1750745789,"current_range_meters":18000,"station_id":"","pricing_plan_id":"cebpf4jnsgd1na2vs0mg"},{"bike_id":"4e910733-61d7-4748-a072-92af13edbf01","system_id":"levelo_inurba_marseille","lat":43.301524,"lon":5.380853,"is_reserved":false,"is_disabled":false,"rental_uris":{"android":"levelo://app?vid=4e910733-61d7-4748-a072-92af13edbf01","ios":"levelo://app?vid=4e910733-61d7-4748-a072-92af13edbf01"},"vehicle_type_id":"4","last_reported":1750745789,"current_range_meters":18000,"station_id":"ce4bgjp2rcd13ifvqbh0","pricing_plan_id":"cebpf4jnsgd1na2vs0mg"},{"bike_id":"f751513f-41c8-4041-a28f-5ffb0b253596","system_id":"levelo_inurba_marseille","lat":43.23197,"lon":5.39986,"is_reserved":false,"is_disabled":false,"rental_uris":{"android":"levelo://app?vid=f751513f-41c8-4041-a28f-5ffb0b253596","ios":"levelo://app?vid=f751513f-41c8-4041-a28f-5ffb0b253596"},"vehicle_type_id":"4","last_reported":1750745789,"current_range_meters":18000,"station_id":"ce4bhn12rcd13ifvqgqg","pricing_plan_id":"cebpf4jnsgd1na2vs0mg"},{"bike_id":"b4498013-b453-4745-9b25-377c89f7677c","system_id":"levelo_inurba_marseille","lat":43.32545,"lon":5.41439,"is_reserved":false,"is_disabled":false,"rental_uris":{"android":"levelo://app?vid=b4498013-b453-4745-9b25-377c89f7677c","ios":"levelo://app?vid=b4498013-b453-4745-9b25-377c89f7677c"},"vehicle_type_id":"4","last_reported":1750745789,"current_range_meters":18000,"station_id":"ce4bhq12rcd13ifvqhhg","pricing_plan_id":"cebpf4jnsgd1na2vs0mg"},{"bike_id":"e50721ed-1138-40d2-b14f-7ed2add3906e","system_id":"levelo_inurba_marseille","lat":43.26686,"lon":5.38278,"is_reserved":false,"is_disabled":false,"rental_uris":{"android":"levelo://app?vid=e50721ed-1138-40d2-b14f-7ed2add3906e","ios":"levelo://app?vid=e50721ed-1138-40d2-b14f-7ed2add3906e"},"vehicle_type_id":"4","last_reported":1750745789,"current_range_meters":18800,"station_id":"ce4bhg92rcd13ifvqf90","pricing_plan_id":"cebpf4jnsgd1na2vs0mg"},{"bike_id":"602ab407-a79a-4fc2-8a9b-df3168b09d43","system_id":"levelo_inurba_marseille","lat":43.32355,"lon":5.3674,"is_reserved":false,"is_disabled":false,"rental_uris":{"android":"levelo://app?vid=602ab407-a79a-4fc2-8a9b-df3168b09d43","ios":"levelo://app?vid=602ab407-a79a-4fc2-8a9b-df3168b09d43"},"vehicle_type_id":"4","last_reported":1750745789,"current_range_meters":18800,"station_id":"ce4bhsh2rcd13ifvqi2g","pricing_plan_id":"cebpf4jnsgd1na2vs0mg"},{"bike_id":"b03d4bd4-5497-4b6b-8e6f-07ebe37a9fa6","system_id":"levelo_inurba_marseille","lat":43.21192,"lon":5.35066,"is_reserved":false,"is_disabled":false,"rental_uris":{"android":"levelo://app?vid=b03d4bd4-5497-4b6b-8e6f-07ebe37a9fa6","ios":"levelo://app?vid=b03d4bd4-5497-4b6b-8e6f-07ebe37a9fa6"},"vehicle_type_id":"4","last_reported":1750745789,"current_range_meters":18800,"station_id":"st_cvj6sg6p6f1abm77japg","pricing_plan_id":"cebpf4jnsgd1na2vs0mg"},{"bike_id":"ec1bbb20-efbe-404b-8beb-e922e0200c0c","system_id":"levelo_inurba_marseille","lat":43.29975,"lon":5.37045,"is_reserved":false,"is_disabled":false,"rental_uris":{"android":"levelo://app?vid=ec1bbb20-efbe-404b-8beb-e922e0200c0c","ios":"levelo://app?vid=ec1bbb20-efbe-404b-8beb-e922e0200c0c"},"vehicle_type_id":"4","last_reported":1750745789,"current_range_meters":19200,"station_id":"","pricing_plan_id":"cebpf4jnsgd1na2vs0mg"},{"bike_id":"e3cbe31d-3f2f-4c4c-a959-3bdba55d2dad","system_id":"levelo_inurba_marseille","lat":43.229209,"lon":5.353903,"is_reserved":false,"is_disabled":false,"rental_uris":{"android":"levelo://app?vid=e3cbe31d-3f2f-4c4c-a959-3bdba55d2dad","ios":"levelo://app?vid=e3cbe31d-3f2f-4c4c-a959-3bdba55d2dad"},"vehicle_type_id":"4","last_reported":1750745789,"current_range_meters":19200,"station_id":"cpo3532slgdg3j2ikp40","pricing_plan_id":"cebpf4jnsgd1na2vs0mg"},{"bike_id":"6d66f760-917a-49b1-b200-d585832e6166","system_id":"levelo_inurba_marseille","lat":43.22935,"lon":5.35365,"is_reserved":false,"is_disabled":false,"rental_uris":{"android":"levelo://app?vid=6d66f760-917a-49b1-b200-d585832e6166","ios":"levelo://app?vid=6d66f760-917a-49b1-b200-d585832e6166"},"vehicle_type_id":"4","last_reported":1750745789,"current_range_meters":19200,"station_id":"cpo3532slgdg3j2ikp40","pricing_plan_id":"cebpf4jnsgd1na2vs0mg"},{"bike_id":"cfb611d8-7d0d-42cd-a251-1a2ee16225ff","system_id":"levelo_inurba_marseille","lat":43.211913,"lon":5.350741,"is_reserved":false,"is_disabled":false,"rental_uris":{"android":"levelo://app?vid=cfb611d8-7d0d-42cd-a251-1a2ee16225ff","ios":"levelo://app?vid=cfb611d8-7d0d-42cd-a251-1a2ee16225ff"},"vehicle_type_id":"4","last_reported":1750745789,"current_range_meters":19200,"station_id":"st_cvj6sg6p6f1abm77japg","pricing_plan_id":"cebpf4jnsgd1na2vs0mg"},{"bike_id":"3b951d47-daef-4f47-9b11-1cb55583c0cc","system_id":"levelo_inurba_marseille","lat":43.21194,"lon":5.35071,"is_reserved":false,"is_disabled":false,"rental_uris":{"android":"levelo://app?vid=3b951d47-daef-4f47-9b11-1cb55583c0cc","ios":"levelo://app?vid=3b951d47-daef-4f47-9b11-1cb55583c0cc"},"vehicle_type_id":"4","last_reported":1750745789,"current_range_meters":19200,"station_id":"st_cvj6sg6p6f1abm77japg","pricing_plan_id":"cebpf4jnsgd1na2vs0mg"},{"bike_id":"0761f989-6e89-43d7-af31-a1c42b42abf4","system_id":"levelo_inurba_marseille","lat":43.3378,"lon":5.37438,"is_reserved":false,"is_disabled":false,"rental_uris":{"android":"levelo://app?vid=0761f989-6e89-43d7-af31-a1c42b42abf4","ios":"levelo://app?vid=0761f989-6e89-43d7-af31-a1c42b42abf4"},"vehicle_type_id":"4","last_reported":1750745789,"current_range_meters":19600,"station_id":"","pricing_plan_id":"cebpf4jnsgd1na2vs0mg"},{"bike_id":"6dda7a93-e6cf-46fd-9f83-42b8f292d698","system_id":"levelo_inurba_marseille","lat":43.33764,"lon":5.37454,"is_reserved":false,"is_disabled":false,"rental_uris":{"android":"levelo://app?vid=6dda7a93-e6cf-46fd-9f83-42b8f292d698","ios":"levelo://app?vid=6dda7a93-e6cf-46fd-9f83-42b8f292d698"},"vehicle_type_id":"4","last_reported":1750745789,"current_range_meters":19600,"station_id":"","pricing_plan_id":"cebpf4jnsgd1na2vs0mg"},{"bike_id":"3499a886-617e-4add-bc79-7d776e7943e6","system_id":"levelo_inurba_marseille","lat":43.33766,"lon":5.37437,"is_reserved":false,"is_disabled":false,"rental_uris":{"android":"levelo://app?vid=3499a886-617e-4add-bc79-7d776e7943e6","ios":"levelo://app?vid=3499a886-617e-4add-bc79-7d776e7943e6"},"vehicle_type_id":"4","last_reported":1750745789,"current_range_meters":19600,"station_id":"","pricing_plan_id":"cebpf4jnsgd1na2vs0mg"},{"bike_id":"5eb0cba9-7f8e-4a7f-b1a5-85dfd319fea5","system_id":"levelo_inurba_marseille","lat":43.305363,"lon":5.367332,"is_reserved":false,"is_disabled":false,"rental_uris":{"android":"levelo://app?vid=5eb0cba9-7f8e-4a7f-b1a5-85dfd319fea5","ios":"levelo://app?vid=5eb0cba9-7f8e-4a7f-b1a5-85dfd319fea5"},"vehicle_type_id":"4","last_reported":1750745789,"current_range_meters":19600,"station_id":"ce4bgrp2rcd13ifvqc9g","pricing_plan_id":"cebpf4jnsgd1na2vs0mg"},{"bike_id":"6a47698d-6661-42a8-8c60-40626eaa587d","system_id":"levelo_inurba_marseille","lat":43.30468,"lon":5.37908,"is_reserved":false,"is_disabled":false,"rental_uris":{"android":"levelo://app?vid=6a47698d-6661-42a8-8c60-40626eaa587d","ios":"levelo://app?vid=6a47698d-6661-42a8-8c60-40626eaa587d"},"vehicle_type_id":"4","last_reported":1750745789,"current_range_meters":19600,"station_id":"ce4bgup2rcd13ifvqcn0","pricing_plan_id":"cebpf4jnsgd1na2vs0mg"},{"bike_id":"ae789a38-ae66-4ff8-b1f4-64a75d595fb4","system_id":"levelo_inurba_marseille","lat":43.2737,"lon":5.36259,"is_reserved":false,"is_disabled":false,"rental_uris":{"android":"levelo://app?vid=ae789a38-ae66-4ff8-b1f4-64a75d595fb4","ios":"levelo://app?vid=ae789a38-ae66-4ff8-b1f4-64a75d595fb4"},"vehicle_type_id":"4","last_reported":1750745789,"current_range_meters":19600,"station_id":"ce4bhbh2rcd13ifvqeo0","pricing_plan_id":"cebpf4jnsgd1na2vs0mg"},{"bike_id":"78e9dd26-915c-48ae-936d-219551dd3a1f","system_id":"levelo_inurba_marseille","lat":43.2418,"lon":5.39723,"is_reserved":false,"is_disabled":false,"rental_uris":{"android":"levelo://app?vid=78e9dd26-915c-48ae-936d-219551dd3a1f","ios":"levelo://app?vid=78e9dd26-915c-48ae-936d-219551dd3a1f"},"vehicle_type_id":"4","last_reported":1750745789,"current_range_meters":19600,"station_id":"ce4bhn12rcd13ifvqgpg","pricing_plan_id":"cebpf4jnsgd1na2vs0mg"},{"bike_id":"3b1e90c9-da4c-45e6-8e30-cd3986cad700","system_id":"levelo_inurba_marseille","lat":43.21197,"lon":5.35053,"is_reserved":false,"is_disabled":false,"rental_uris":{"android":"levelo://app?vid=3b1e90c9-da4c-45e6-8e30-cd3986cad700","ios":"levelo://app?vid=3b1e90c9-da4c-45e6-8e30-cd3986cad700"},"vehicle_type_id":"4","last_reported":1750745789,"current_range_meters":19600,"station_id":"st_cvj6sg6p6f1abm77japg","pricing_plan_id":"cebpf4jnsgd1na2vs0mg"},{"bike_id":"5b0059f2-5a2a-41ce-b903-1f956adfdd24","system_id":"levelo_inurba_marseille","lat":43.29769,"lon":5.4357,"is_reserved":false,"is_disabled":false,"rental_uris":{"android":"levelo://app?vid=5b0059f2-5a2a-41ce-b903-1f956adfdd24","ios":"levelo://app?vid=5b0059f2-5a2a-41ce-b903-1f956adfdd24"},"vehicle_type_id":"4","last_reported":1750745789,"current_range_meters":20000,"station_id":"","pricing_plan_id":"cebpf4jnsgd1na2vs0mg"},{"bike_id":"8e6c9190-a115-47e8-9b87-d410b5f2bc0f","system_id":"levelo_inurba_marseille","lat":43.30143,"lon":5.380806,"is_reserved":false,"is_disabled":false,"rental_uris":{"android":"levelo://app?vid=8e6c9190-a115-47e8-9b87-d410b5f2bc0f","ios":"levelo://app?vid=8e6c9190-a115-47e8-9b87-d410b5f2bc0f"},"vehicle_type_id":"4","last_reported":1750745789,"current_range_meters":20000,"station_id":"ce4bgjp2rcd13ifvqbh0","pricing_plan_id":"cebpf4jnsgd1na2vs0mg"},{"bike_id":"53eae35d-612f-415f-8e34-5130724d5a54","system_id":"levelo_inurba_marseille","lat":43.24063,"lon":5.377645,"is_reserved":false,"is_disabled":false,"rental_uris":{"android":"levelo://app?vid=53eae35d-612f-415f-8e34-5130724d5a54","ios":"levelo://app?vid=53eae35d-612f-415f-8e34-5130724d5a54"},"vehicle_type_id":"4","last_reported":1750745789,"current_range_meters":20000,"station_id":"ce4bhnp2rcd13ifvqgvg","pricing_plan_id":"cebpf4jnsgd1na2vs0mg"},{"bike_id":"c4088a2a-8015-46c9-b67c-3b7aa8593c30","system_id":"levelo_inurba_marseille","lat":43.21755,"lon":5.34595,"is_reserved":false,"is_disabled":false,"rental_uris":{"android":"levelo://app?vid=c4088a2a-8015-46c9-b67c-3b7aa8593c30","ios":"levelo://app?vid=c4088a2a-8015-46c9-b67c-3b7aa8593c30"},"vehicle_type_id":"4","last_reported":1750745789,"current_range_meters":20000,"station_id":"st_cvj6r9ubvosntc0bgbag","pricing_plan_id":"cebpf4jnsgd1na2vs0mg"},{"bike_id":"963ad3af-4cac-48e8-ab96-9019f8532b1d","system_id":"levelo_inurba_marseille","lat":43.21199,"lon":5.3507,"is_reserved":false,"is_disabled":false,"rental_uris":{"android":"levelo://app?vid=963ad3af-4cac-48e8-ab96-9019f8532b1d","ios":"levelo://app?vid=963ad3af-4cac-48e8-ab96-9019f8532b1d"},"vehicle_type_id":"4","last_reported":1750745789,"current_range_meters":20000,"station_id":"st_cvj6sg6p6f1abm77japg","pricing_plan_id":"cebpf4jnsgd1na2vs0mg"},{"bike_id":"77b01abb-bb76-4d5b-96f1-bfb62c6b336e","system_id":"levelo_inurba_marseille","lat":43.259363,"lon":5.409058,"is_reserved":false,"is_disabled":false,"rental_uris":{"android":"levelo://app?vid=77b01abb-bb76-4d5b-96f1-bfb62c6b336e","ios":"levelo://app?vid=77b01abb-bb76-4d5b-96f1-bfb62c6b336e"},"vehicle_type_id":"4","last_reported":1750745789,"current_range_meters":20400,"station_id":"","pricing_plan_id":"cebpf4jnsgd1na2vs0mg"},{"bike_id":"8cb7866e-163d-4d73-b1e1-515025408a97","system_id":"levelo_inurba_marseille","lat":43.21189,"lon":5.35067,"is_reserved":false,"is_disabled":false,"rental_uris":{"android":"levelo://app?vid=8cb7866e-163d-4d73-b1e1-515025408a97","ios":"levelo://app?vid=8cb7866e-163d-4d73-b1e1-515025408a97"},"vehicle_type_id":"4","last_reported":1750745789,"current_range_meters":20400,"station_id":"st_cvj6sg6p6f1abm77japg","pricing_plan_id":"cebpf4jnsgd1na2vs0mg"},{"bike_id":"83d64502-1fc6-4760-a2e0-8853a567ee49","system_id":"levelo_inurba_marseille","lat":43.33183,"lon":5.41039,"is_reserved":false,"is_disabled":false,"rental_uris":{"android":"levelo://app?vid=83d64502-1fc6-4760-a2e0-8853a567ee49","ios":"levelo://app?vid=83d64502-1fc6-4760-a2e0-8853a567ee49"},"vehicle_type_id":"4","last_reported":1750745789,"current_range_meters":20800,"station_id":"","pricing_plan_id":"cebpf4jnsgd1na2vs0mg"},{"bike_id":"93151cb7-3135-4a36-96f2-c03aae33812e","system_id":"levelo_inurba_marseille","lat":43.31492,"lon":5.37313,"is_reserved":false,"is_disabled":false,"rental_uris":{"android":"levelo://app?vid=93151cb7-3135-4a36-96f2-c03aae33812e","ios":"levelo://app?vid=93151cb7-3135-4a36-96f2-c03aae33812e"},"vehicle_type_id":"4","last_reported":1750745789,"current_range_meters":20800,"station_id":"ce4bgt12rcd13ifvqcd0","pricing_plan_id":"cebpf4jnsgd1na2vs0mg"},{"bike_id":"ef1c5e63-e582-42b5-8fbf-a4a4272b9cb3","system_id":"levelo_inurba_marseille","lat":43.30276,"lon":5.37712,"is_reserved":false,"is_disabled":false,"rental_uris":{"android":"levelo://app?vid=ef1c5e63-e582-42b5-8fbf-a4a4272b9cb3","ios":"levelo://app?vid=ef1c5e63-e582-42b5-8fbf-a4a4272b9cb3"},"vehicle_type_id":"4","last_reported":1750745789,"current_range_meters":20800,"station_id":"ce4bguh2rcd13ifvqcj0","pricing_plan_id":"cebpf4jnsgd1na2vs0mg"},{"bike_id":"618057bf-cb00-488a-8af3-aa2ef9de3545","system_id":"levelo_inurba_marseille","lat":43.27312,"lon":5.39072,"is_reserved":false,"is_disabled":false,"rental_uris":{"android":"levelo://app?vid=618057bf-cb00-488a-8af3-aa2ef9de3545","ios":"levelo://app?vid=618057bf-cb00-488a-8af3-aa2ef9de3545"},"vehicle_type_id":"4","last_reported":1750745789,"current_range_meters":20800,"station_id":"ce4bhgp2rcd13ifvqfe0","pricing_plan_id":"cebpf4jnsgd1na2vs0mg"},{"bike_id":"595fd723-27c8-41c9-8347-5fd1d29a91e4","system_id":"levelo_inurba_marseille","lat":43.25938,"lon":5.409,"is_reserved":false,"is_disabled":false,"rental_uris":{"android":"levelo://app?vid=595fd723-27c8-41c9-8347-5fd1d29a91e4","ios":"levelo://app?vid=595fd723-27c8-41c9-8347-5fd1d29a91e4"},"vehicle_type_id":"4","last_reported":1750745789,"current_range_meters":20800,"station_id":"ce4bhm92rcd13ifvqglg","pricing_plan_id":"cebpf4jnsgd1na2vs0mg"},{"bike_id":"9d52ae7c-3bfc-4879-b169-67c07cec03d9","system_id":"levelo_inurba_marseille","lat":43.28488,"lon":5.3675,"is_reserved":false,"is_disabled":false,"rental_uris":{"android":"levelo://app?vid=9d52ae7c-3bfc-4879-b169-67c07cec03d9","ios":"levelo://app?vid=9d52ae7c-3bfc-4879-b169-67c07cec03d9"},"vehicle_type_id":"4","last_reported":1750745789,"current_range_meters":21600,"station_id":"","pricing_plan_id":"cebpf4jnsgd1na2vs0mg"},{"bike_id":"1170e5b2-eb4f-4c6b-8f16-725c9eb2cd4f","system_id":"levelo_inurba_marseille","lat":43.27095,"lon":5.42259,"is_reserved":false,"is_disabled":false,"rental_uris":{"android":"levelo://app?vid=1170e5b2-eb4f-4c6b-8f16-725c9eb2cd4f","ios":"levelo://app?vid=1170e5b2-eb4f-4c6b-8f16-725c9eb2cd4f"},"vehicle_type_id":"4","last_reported":1750745789,"current_range_meters":22000,"station_id":"ce4bhk92rcd13ifvqgb0","pricing_plan_id":"cebpf4jnsgd1na2vs0mg"},{"bike_id":"f9fc3d95-b38b-429e-9fdc-fc372743cbf5","system_id":"levelo_inurba_marseille","lat":43.3206,"lon":5.41567,"is_reserved":false,"is_disabled":false,"rental_uris":{"android":"levelo://app?vid=f9fc3d95-b38b-429e-9fdc-fc372743cbf5","ios":"levelo://app?vid=f9fc3d95-b38b-429e-9fdc-fc372743cbf5"},"vehicle_type_id":"4","last_reported":1750745789,"current_range_meters":22000,"station_id":"ce4bhq92rcd13ifvqhkg","pricing_plan_id":"cebpf4jnsgd1na2vs0mg"},{"bike_id":"62e51719-7884-49e8-ad52-a0e06b8fc92f","system_id":"levelo_inurba_marseille","lat":43.26939,"lon":5.40254,"is_reserved":false,"is_disabled":false,"rental_uris":{"android":"levelo://app?vid=62e51719-7884-49e8-ad52-a0e06b8fc92f","ios":"levelo://app?vid=62e51719-7884-49e8-ad52-a0e06b8fc92f"},"vehicle_type_id":"4","last_reported":1750745789,"current_range_meters":22000,"station_id":"cjm6bp8fraef2m0cb0m0","pricing_plan_id":"cebpf4jnsgd1na2vs0mg"},{"bike_id":"35aa5d2b-9479-46cb-b65e-a4b9d2d7550f","system_id":"levelo_inurba_marseille","lat":43.26555,"lon":5.37287,"is_reserved":false,"is_disabled":false,"rental_uris":{"android":"levelo://app?vid=35aa5d2b-9479-46cb-b65e-a4b9d2d7550f","ios":"levelo://app?vid=35aa5d2b-9479-46cb-b65e-a4b9d2d7550f"},"vehicle_type_id":"4","last_reported":1750745789,"current_range_meters":22400,"station_id":"ce4bhg12rcd13ifvqf70","pricing_plan_id":"cebpf4jnsgd1na2vs0mg"},{"bike_id":"18028507-ab03-4edb-86b7-ab7704d2c26f","system_id":"levelo_inurba_marseille","lat":43.211934,"lon":5.350741,"is_reserved":false,"is_disabled":false,"rental_uris":{"android":"levelo://app?vid=18028507-ab03-4edb-86b7-ab7704d2c26f","ios":"levelo://app?vid=18028507-ab03-4edb-86b7-ab7704d2c26f"},"vehicle_type_id":"4","last_reported":1750745789,"current_range_meters":22400,"station_id":"st_cvj6sg6p6f1abm77japg","pricing_plan_id":"cebpf4jnsgd1na2vs0mg"},{"bike_id":"81306071-5915-4ff4-b48a-b30c17e0c027","system_id":"levelo_inurba_marseille","lat":43.30897,"lon":5.37211,"is_reserved":false,"is_disabled":false,"rental_uris":{"android":"levelo://app?vid=81306071-5915-4ff4-b48a-b30c17e0c027","ios":"levelo://app?vid=81306071-5915-4ff4-b48a-b30c17e0c027"},"vehicle_type_id":"4","last_reported":1750745789,"current_range_meters":22800,"station_id":"ce4bguh2rcd13ifvqckg","pricing_plan_id":"cebpf4jnsgd1na2vs0mg"},{"bike_id":"2f944e20-a14c-4196-9525-8c749cc423f1","system_id":"levelo_inurba_marseille","lat":43.27208,"lon":5.39183,"is_reserved":false,"is_disabled":false,"rental_uris":{"android":"levelo://app?vid=2f944e20-a14c-4196-9525-8c749cc423f1","ios":"levelo://app?vid=2f944e20-a14c-4196-9525-8c749cc423f1"},"vehicle_type_id":"4","last_reported":1750745789,"current_range_meters":22800,"station_id":"ce4bhhp2rcd13ifvqfm0","pricing_plan_id":"cebpf4jnsgd1na2vs0mg"},{"bike_id":"7e6d04ab-7263-488a-a6c1-9459d9c10f53","system_id":"levelo_inurba_marseille","lat":43.2318,"lon":5.40016,"is_reserved":false,"is_disabled":false,"rental_uris":{"android":"levelo://app?vid=7e6d04ab-7263-488a-a6c1-9459d9c10f53","ios":"levelo://app?vid=7e6d04ab-7263-488a-a6c1-9459d9c10f53"},"vehicle_type_id":"4","last_reported":1750745789,"current_range_meters":22800,"station_id":"ce4bhn12rcd13ifvqgqg","pricing_plan_id":"cebpf4jnsgd1na2vs0mg"},{"bike_id":"7cbeaab6-ec19-4443-97d3-be9a7685495f","system_id":"levelo_inurba_marseille","lat":43.21753,"lon":5.346033,"is_reserved":false,"is_disabled":false,"rental_uris":{"android":"levelo://app?vid=7cbeaab6-ec19-4443-97d3-be9a7685495f","ios":"levelo://app?vid=7cbeaab6-ec19-4443-97d3-be9a7685495f"},"vehicle_type_id":"4","last_reported":1750745789,"current_range_meters":22800,"station_id":"st_cvj6r9ubvosntc0bgbag","pricing_plan_id":"cebpf4jnsgd1na2vs0mg"},{"bike_id":"13a35354-a292-4943-ab21-883c2b7d6548","system_id":"levelo_inurba_marseille","lat":43.30153,"lon":5.38088,"is_reserved":false,"is_disabled":false,"rental_uris":{"android":"levelo://app?vid=13a35354-a292-4943-ab21-883c2b7d6548","ios":"levelo://app?vid=13a35354-a292-4943-ab21-883c2b7d6548"},"vehicle_type_id":"4","last_reported":1750745789,"current_range_meters":23200,"station_id":"ce4bgjp2rcd13ifvqbh0","pricing_plan_id":"cebpf4jnsgd1na2vs0mg"},{"bike_id":"2f06d1eb-87bf-463d-a04b-18481044b79c","system_id":"levelo_inurba_marseille","lat":43.30321,"lon":5.36908,"is_reserved":false,"is_disabled":false,"rental_uris":{"android":"levelo://app?vid=2f06d1eb-87bf-463d-a04b-18481044b79c","ios":"levelo://app?vid=2f06d1eb-87bf-463d-a04b-18481044b79c"},"vehicle_type_id":"4","last_reported":1750745789,"current_range_meters":23200,"station_id":"ce4bgqh2rcd13ifvqc5g","pricing_plan_id":"cebpf4jnsgd1na2vs0mg"},{"bike_id":"0e310d86-f875-416b-aec1-8d6b2597e0aa","system_id":"levelo_inurba_marseille","lat":43.30465,"lon":5.37904,"is_reserved":false,"is_disabled":false,"rental_uris":{"android":"levelo://app?vid=0e310d86-f875-416b-aec1-8d6b2597e0aa","ios":"levelo://app?vid=0e310d86-f875-416b-aec1-8d6b2597e0aa"},"vehicle_type_id":"4","last_reported":1750745789,"current_range_meters":23200,"station_id":"ce4bgup2rcd13ifvqcn0","pricing_plan_id":"cebpf4jnsgd1na2vs0mg"},{"bike_id":"89cdfa1b-f563-49ce-85a7-e64b27dab9da","system_id":"levelo_inurba_marseille","lat":43.21187,"lon":5.35077,"is_reserved":false,"is_disabled":false,"rental_uris":{"android":"levelo://app?vid=89cdfa1b-f563-49ce-85a7-e64b27dab9da","ios":"levelo://app?vid=89cdfa1b-f563-49ce-85a7-e64b27dab9da"},"vehicle_type_id":"4","last_reported":1750745789,"current_range_meters":23200,"station_id":"st_cvj6sg6p6f1abm77japg","pricing_plan_id":"cebpf4jnsgd1na2vs0mg"},{"bike_id":"cd8e5c3a-9fb6-42e6-89ef-7a7f913f81a8","system_id":"levelo_inurba_marseille","lat":43.21197,"lon":5.35074,"is_reserved":false,"is_disabled":false,"rental_uris":{"android":"levelo://app?vid=cd8e5c3a-9fb6-42e6-89ef-7a7f913f81a8","ios":"levelo://app?vid=cd8e5c3a-9fb6-42e6-89ef-7a7f913f81a8"},"vehicle_type_id":"4","last_reported":1750745789,"current_range_meters":23200,"station_id":"st_cvj6sg6p6f1abm77japg","pricing_plan_id":"cebpf4jnsgd1na2vs0mg"},{"bike_id":"de0f7c2b-5974-4035-a240-8ed367c0e3f3","system_id":"levelo_inurba_marseille","lat":43.31959,"lon":5.37613,"is_reserved":false,"is_disabled":false,"rental_uris":{"android":"levelo://app?vid=de0f7c2b-5974-4035-a240-8ed367c0e3f3","ios":"levelo://app?vid=de0f7c2b-5974-4035-a240-8ed367c0e3f3"},"vehicle_type_id":"4","last_reported":1750745789,"current_range_meters":24000,"station_id":"","pricing_plan_id":"cebpf4jnsgd1na2vs0mg"},{"bike_id":"4dcd9a04-6869-4d8f-8799-aba47b8c1533","system_id":"levelo_inurba_marseille","lat":43.3047,"lon":5.379,"is_reserved":false,"is_disabled":false,"rental_uris":{"android":"levelo://app?vid=4dcd9a04-6869-4d8f-8799-aba47b8c1533","ios":"levelo://app?vid=4dcd9a04-6869-4d8f-8799-aba47b8c1533"},"vehicle_type_id":"4","last_reported":1750745789,"current_range_meters":24000,"station_id":"ce4bgup2rcd13ifvqcn0","pricing_plan_id":"cebpf4jnsgd1na2vs0mg"},{"bike_id":"3b83a30c-dc74-405d-8699-78732c1d0eea","system_id":"levelo_inurba_marseille","lat":43.23196,"lon":5.3998,"is_reserved":false,"is_disabled":false,"rental_uris":{"android":"levelo://app?vid=3b83a30c-dc74-405d-8699-78732c1d0eea","ios":"levelo://app?vid=3b83a30c-dc74-405d-8699-78732c1d0eea"},"vehicle_type_id":"4","last_reported":1750745789,"current_range_meters":24000,"station_id":"ce4bhn12rcd13ifvqgqg","pricing_plan_id":"cebpf4jnsgd1na2vs0mg"},{"bike_id":"3bdb2320-fcd5-4946-816e-a8fab1d222dc","system_id":"levelo_inurba_marseille","lat":43.24069,"lon":5.37763,"is_reserved":false,"is_disabled":false,"rental_uris":{"android":"levelo://app?vid=3bdb2320-fcd5-4946-816e-a8fab1d222dc","ios":"levelo://app?vid=3bdb2320-fcd5-4946-816e-a8fab1d222dc"},"vehicle_type_id":"4","last_reported":1750745789,"current_range_meters":24000,"station_id":"ce4bhnp2rcd13ifvqgvg","pricing_plan_id":"cebpf4jnsgd1na2vs0mg"},{"bike_id":"2762a942-fec2-42fb-9c35-1da692ba2e0f","system_id":"levelo_inurba_marseille","lat":43.27941,"lon":5.41049,"is_reserved":false,"is_disabled":false,"rental_uris":{"android":"levelo://app?vid=2762a942-fec2-42fb-9c35-1da692ba2e0f","ios":"levelo://app?vid=2762a942-fec2-42fb-9c35-1da692ba2e0f"},"vehicle_type_id":"4","last_reported":1750745789,"current_range_meters":24000,"station_id":"ce4bhnp2rcd13ifvqh0g","pricing_plan_id":"cebpf4jnsgd1na2vs0mg"},{"bike_id":"799175d1-69e4-4fff-9bed-4bdb63fc36e0","system_id":"levelo_inurba_marseille","lat":43.32474,"lon":5.36568,"is_reserved":false,"is_disabled":false,"rental_uris":{"android":"levelo://app?vid=799175d1-69e4-4fff-9bed-4bdb63fc36e0","ios":"levelo://app?vid=799175d1-69e4-4fff-9bed-4bdb63fc36e0"},"vehicle_type_id":"4","last_reported":1750745789,"current_range_meters":24000,"station_id":"ce4bhs12rcd13ifvqhvg","pricing_plan_id":"cebpf4jnsgd1na2vs0mg"},{"bike_id":"43a2f59d-0391-45a1-a8a7-bad698c95038","system_id":"levelo_inurba_marseille","lat":43.31442,"lon":5.38752,"is_reserved":false,"is_disabled":false,"rental_uris":{"android":"levelo://app?vid=43a2f59d-0391-45a1-a8a7-bad698c95038","ios":"levelo://app?vid=43a2f59d-0391-45a1-a8a7-bad698c95038"},"vehicle_type_id":"4","last_reported":1750745789,"current_range_meters":24400,"station_id":"","pricing_plan_id":"cebpf4jnsgd1na2vs0mg"},{"bike_id":"f4bebf38-e5b5-4bd7-994a-465f94d3ea66","system_id":"levelo_inurba_marseille","lat":43.31968,"lon":5.37615,"is_reserved":false,"is_disabled":false,"rental_uris":{"android":"levelo://app?vid=f4bebf38-e5b5-4bd7-994a-465f94d3ea66","ios":"levelo://app?vid=f4bebf38-e5b5-4bd7-994a-465f94d3ea66"},"vehicle_type_id":"4","last_reported":1750745789,"current_range_meters":24400,"station_id":"","pricing_plan_id":"cebpf4jnsgd1na2vs0mg"},{"bike_id":"c4eb5954-858a-47fb-a5b6-cae007ec19a5","system_id":"levelo_inurba_marseille","lat":43.30173,"lon":5.38093,"is_reserved":false,"is_disabled":false,"rental_uris":{"android":"levelo://app?vid=c4eb5954-858a-47fb-a5b6-cae007ec19a5","ios":"levelo://app?vid=c4eb5954-858a-47fb-a5b6-cae007ec19a5"},"vehicle_type_id":"4","last_reported":1750745789,"current_range_meters":24400,"station_id":"ce4bgjp2rcd13ifvqbh0","pricing_plan_id":"cebpf4jnsgd1na2vs0mg"},{"bike_id":"097085b3-197d-44ca-8d19-7aa3ef822802","system_id":"levelo_inurba_marseille","lat":43.30461,"lon":5.37912,"is_reserved":false,"is_disabled":false,"rental_uris":{"android":"levelo://app?vid=097085b3-197d-44ca-8d19-7aa3ef822802","ios":"levelo://app?vid=097085b3-197d-44ca-8d19-7aa3ef822802"},"vehicle_type_id":"4","last_reported":1750745789,"current_range_meters":24400,"station_id":"ce4bgup2rcd13ifvqcn0","pricing_plan_id":"cebpf4jnsgd1na2vs0mg"},{"bike_id":"c9305741-f293-4f73-ae07-175f12c1d466","system_id":"levelo_inurba_marseille","lat":43.30457,"lon":5.37901,"is_reserved":false,"is_disabled":false,"rental_uris":{"android":"levelo://app?vid=c9305741-f293-4f73-ae07-175f12c1d466","ios":"levelo://app?vid=c9305741-f293-4f73-ae07-175f12c1d466"},"vehicle_type_id":"4","last_reported":1750745789,"current_range_meters":24400,"station_id":"ce4bgup2rcd13ifvqcn0","pricing_plan_id":"cebpf4jnsgd1na2vs0mg"},{"bike_id":"4d82d553-bc42-4d27-b527-f2535d061cf6","system_id":"levelo_inurba_marseille","lat":43.240648,"lon":5.377651,"is_reserved":false,"is_disabled":false,"rental_uris":{"android":"levelo://app?vid=4d82d553-bc42-4d27-b527-f2535d061cf6","ios":"levelo://app?vid=4d82d553-bc42-4d27-b527-f2535d061cf6"},"vehicle_type_id":"4","last_reported":1750745789,"current_range_meters":24400,"station_id":"ce4bhnp2rcd13ifvqgvg","pricing_plan_id":"cebpf4jnsgd1na2vs0mg"},{"bike_id":"2303cd7d-71eb-4a22-8622-653e02997eb8","system_id":"levelo_inurba_marseille","lat":43.34143,"lon":5.40906,"is_reserved":false,"is_disabled":false,"rental_uris":{"android":"levelo://app?vid=2303cd7d-71eb-4a22-8622-653e02997eb8","ios":"levelo://app?vid=2303cd7d-71eb-4a22-8622-653e02997eb8"},"vehicle_type_id":"4","last_reported":1750745789,"current_range_meters":24400,"station_id":"ce4bhqh2rcd13ifvqhlg","pricing_plan_id":"cebpf4jnsgd1na2vs0mg"},{"bike_id":"6bbbdabf-81b5-4c65-92bb-75c3f89e2ff9","system_id":"levelo_inurba_marseille","lat":43.22936,"lon":5.35363,"is_reserved":false,"is_disabled":false,"rental_uris":{"android":"levelo://app?vid=6bbbdabf-81b5-4c65-92bb-75c3f89e2ff9","ios":"levelo://app?vid=6bbbdabf-81b5-4c65-92bb-75c3f89e2ff9"},"vehicle_type_id":"4","last_reported":1750745789,"current_range_meters":24400,"station_id":"cpo3532slgdg3j2ikp40","pricing_plan_id":"cebpf4jnsgd1na2vs0mg"},{"bike_id":"ab3beb7f-8d08-4d61-a484-9ae5904ea600","system_id":"levelo_inurba_marseille","lat":43.22927,"lon":5.35378,"is_reserved":false,"is_disabled":false,"rental_uris":{"android":"levelo://app?vid=ab3beb7f-8d08-4d61-a484-9ae5904ea600","ios":"levelo://app?vid=ab3beb7f-8d08-4d61-a484-9ae5904ea600"},"vehicle_type_id":"4","last_reported":1750745789,"current_range_meters":24400,"station_id":"cpo3532slgdg3j2ikp40","pricing_plan_id":"cebpf4jnsgd1na2vs0mg"},{"bike_id":"b935579a-e9d3-4ccf-a111-a22b8dbf997d","system_id":"levelo_inurba_marseille","lat":43.211934,"lon":5.350737,"is_reserved":false,"is_disabled":false,"rental_uris":{"android":"levelo://app?vid=b935579a-e9d3-4ccf-a111-a22b8dbf997d","ios":"levelo://app?vid=b935579a-e9d3-4ccf-a111-a22b8dbf997d"},"vehicle_type_id":"4","last_reported":1750745789,"current_range_meters":24400,"station_id":"st_cvj6sg6p6f1abm77japg","pricing_plan_id":"cebpf4jnsgd1na2vs0mg"},{"bike_id":"bb987ad3-b43e-46c1-9368-13e886e7e83d","system_id":"levelo_inurba_marseille","lat":43.35178,"lon":5.35821,"is_reserved":false,"is_disabled":false,"rental_uris":{"android":"levelo://app?vid=bb987ad3-b43e-46c1-9368-13e886e7e83d","ios":"levelo://app?vid=bb987ad3-b43e-46c1-9368-13e886e7e83d"},"vehicle_type_id":"4","last_reported":1750745789,"current_range_meters":24800,"station_id":"","pricing_plan_id":"cebpf4jnsgd1na2vs0mg"},{"bike_id":"4b8da722-ee9e-48a4-a5e5-3a8a10364708","system_id":"levelo_inurba_marseille","lat":43.312163,"lon":5.378223,"is_reserved":false,"is_disabled":false,"rental_uris":{"android":"levelo://app?vid=4b8da722-ee9e-48a4-a5e5-3a8a10364708","ios":"levelo://app?vid=4b8da722-ee9e-48a4-a5e5-3a8a10364708"},"vehicle_type_id":"4","last_reported":1750745789,"current_range_meters":24800,"station_id":"","pricing_plan_id":"cebpf4jnsgd1na2vs0mg"},{"bike_id":"7164b372-c45a-4697-9ab7-6fea5f1ce314","system_id":"levelo_inurba_marseille","lat":43.29924,"lon":5.36531,"is_reserved":false,"is_disabled":false,"rental_uris":{"android":"levelo://app?vid=7164b372-c45a-4697-9ab7-6fea5f1ce314","ios":"levelo://app?vid=7164b372-c45a-4697-9ab7-6fea5f1ce314"},"vehicle_type_id":"4","last_reported":1750745789,"current_range_meters":24800,"station_id":"ce4bgm92rcd13ifvqbr0","pricing_plan_id":"cebpf4jnsgd1na2vs0mg"},{"bike_id":"d2c82027-1cd9-426e-9c47-128a9fc410c2","system_id":"levelo_inurba_marseille","lat":43.31356,"lon":5.3672,"is_reserved":false,"is_disabled":false,"rental_uris":{"android":"levelo://app?vid=d2c82027-1cd9-426e-9c47-128a9fc410c2","ios":"levelo://app?vid=d2c82027-1cd9-426e-9c47-128a9fc410c2"},"vehicle_type_id":"4","last_reported":1750745789,"current_range_meters":24800,"station_id":"ce4bgr92rcd13ifvqc6g","pricing_plan_id":"cebpf4jnsgd1na2vs0mg"},{"bike_id":"ec6d38c8-9545-4a30-8099-b847c8c4e904","system_id":"levelo_inurba_marseille","lat":43.29224,"lon":5.3606,"is_reserved":false,"is_disabled":false,"rental_uris":{"android":"levelo://app?vid=ec6d38c8-9545-4a30-8099-b847c8c4e904","ios":"levelo://app?vid=ec6d38c8-9545-4a30-8099-b847c8c4e904"},"vehicle_type_id":"4","last_reported":1750745789,"current_range_meters":24800,"station_id":"ce4bhbh2rcd13ifvqeqg","pricing_plan_id":"cebpf4jnsgd1na2vs0mg"},{"bike_id":"ad20a218-2291-4912-967d-ca5c30de75d2","system_id":"levelo_inurba_marseille","lat":43.27056,"lon":5.40266,"is_reserved":false,"is_disabled":false,"rental_uris":{"android":"levelo://app?vid=ad20a218-2291-4912-967d-ca5c30de75d2","ios":"levelo://app?vid=ad20a218-2291-4912-967d-ca5c30de75d2"},"vehicle_type_id":"4","last_reported":1750745789,"current_range_meters":24800,"station_id":"ce4bhk92rcd13ifvqgc0","pricing_plan_id":"cebpf4jnsgd1na2vs0mg"},{"bike_id":"c0d91e83-7286-46de-b416-87964055a172","system_id":"levelo_inurba_marseille","lat":43.24063,"lon":5.37764,"is_reserved":false,"is_disabled":false,"rental_uris":{"android":"levelo://app?vid=c0d91e83-7286-46de-b416-87964055a172","ios":"levelo://app?vid=c0d91e83-7286-46de-b416-87964055a172"},"vehicle_type_id":"4","last_reported":1750745789,"current_range_meters":24800,"station_id":"ce4bhnp2rcd13ifvqgvg","pricing_plan_id":"cebpf4jnsgd1na2vs0mg"},{"bike_id":"c9040045-be59-4aae-9590-5c3c37a93cc9","system_id":"levelo_inurba_marseille","lat":43.21239,"lon":5.35053,"is_reserved":false,"is_disabled":false,"rental_uris":{"android":"levelo://app?vid=c9040045-be59-4aae-9590-5c3c37a93cc9","ios":"levelo://app?vid=c9040045-be59-4aae-9590-5c3c37a93cc9"},"vehicle_type_id":"4","last_reported":1750745789,"current_range_meters":24800,"station_id":"st_cvj6sg6p6f1abm77japg","pricing_plan_id":"cebpf4jnsgd1na2vs0mg"},{"bike_id":"34932e66-2eb5-46d1-b223-6881459ae682","system_id":"levelo_inurba_marseille","lat":43.28459,"lon":5.36787,"is_reserved":false,"is_disabled":false,"rental_uris":{"android":"levelo://app?vid=34932e66-2eb5-46d1-b223-6881459ae682","ios":"levelo://app?vid=34932e66-2eb5-46d1-b223-6881459ae682"},"vehicle_type_id":"4","last_reported":1750745789,"current_range_meters":25200,"station_id":"","pricing_plan_id":"cebpf4jnsgd1na2vs0mg"},{"bike_id":"c77a2110-a057-4212-ae54-33400cf075a2","system_id":"levelo_inurba_marseille","lat":43.30149,"lon":5.380898,"is_reserved":false,"is_disabled":false,"rental_uris":{"android":"levelo://app?vid=c77a2110-a057-4212-ae54-33400cf075a2","ios":"levelo://app?vid=c77a2110-a057-4212-ae54-33400cf075a2"},"vehicle_type_id":"4","last_reported":1750745789,"current_range_meters":25200,"station_id":"ce4bgjp2rcd13ifvqbh0","pricing_plan_id":"cebpf4jnsgd1na2vs0mg"},{"bike_id":"daea834c-5d8b-4c4f-9460-a26f8385c0f9","system_id":"levelo_inurba_marseille","lat":43.30189,"lon":5.36626,"is_reserved":false,"is_disabled":false,"rental_uris":{"android":"levelo://app?vid=daea834c-5d8b-4c4f-9460-a26f8385c0f9","ios":"levelo://app?vid=daea834c-5d8b-4c4f-9460-a26f8385c0f9"},"vehicle_type_id":"4","last_reported":1750745789,"current_range_meters":25200,"station_id":"ce4bgrh2rcd13ifvqc8g","pricing_plan_id":"cebpf4jnsgd1na2vs0mg"},{"bike_id":"bd2f11db-d4b2-4756-bfbb-0560855ad306","system_id":"levelo_inurba_marseille","lat":43.30534,"lon":5.36701,"is_reserved":false,"is_disabled":false,"rental_uris":{"android":"levelo://app?vid=bd2f11db-d4b2-4756-bfbb-0560855ad306","ios":"levelo://app?vid=bd2f11db-d4b2-4756-bfbb-0560855ad306"},"vehicle_type_id":"4","last_reported":1750745789,"current_range_meters":25200,"station_id":"ce4bgrp2rcd13ifvqc9g","pricing_plan_id":"cebpf4jnsgd1na2vs0mg"},{"bike_id":"fa45e805-392b-48a8-9afa-bba06d89a653","system_id":"levelo_inurba_marseille","lat":43.30471,"lon":5.37895,"is_reserved":false,"is_disabled":false,"rental_uris":{"android":"levelo://app?vid=fa45e805-392b-48a8-9afa-bba06d89a653","ios":"levelo://app?vid=fa45e805-392b-48a8-9afa-bba06d89a653"},"vehicle_type_id":"4","last_reported":1750745789,"current_range_meters":25200,"station_id":"ce4bgup2rcd13ifvqcn0","pricing_plan_id":"cebpf4jnsgd1na2vs0mg"},{"bike_id":"ae42ce83-1a5e-4f0a-a4ae-c63a986bc3ad","system_id":"levelo_inurba_marseille","lat":43.298974,"lon":5.436747,"is_reserved":false,"is_disabled":false,"rental_uris":{"android":"levelo://app?vid=ae42ce83-1a5e-4f0a-a4ae-c63a986bc3ad","ios":"levelo://app?vid=ae42ce83-1a5e-4f0a-a4ae-c63a986bc3ad"},"vehicle_type_id":"4","last_reported":1750745789,"current_range_meters":25200,"station_id":"ce4bhpp2rcd13ifvqhfg","pricing_plan_id":"cebpf4jnsgd1na2vs0mg"},{"bike_id":"3807736a-c268-4085-80ba-dafd815509aa","system_id":"levelo_inurba_marseille","lat":43.299845,"lon":5.380888,"is_reserved":false,"is_disabled":false,"rental_uris":{"android":"levelo://app?vid=3807736a-c268-4085-80ba-dafd815509aa","ios":"levelo://app?vid=3807736a-c268-4085-80ba-dafd815509aa"},"vehicle_type_id":"4","last_reported":1750745789,"current_range_meters":25600,"station_id":"","pricing_plan_id":"cebpf4jnsgd1na2vs0mg"},{"bike_id":"226a9a30-3f82-4da9-af64-055494e6bcb8","system_id":"levelo_inurba_marseille","lat":43.298,"lon":5.37685,"is_reserved":false,"is_disabled":false,"rental_uris":{"android":"levelo://app?vid=226a9a30-3f82-4da9-af64-055494e6bcb8","ios":"levelo://app?vid=226a9a30-3f82-4da9-af64-055494e6bcb8"},"vehicle_type_id":"4","last_reported":1750745789,"current_range_meters":25600,"station_id":"","pricing_plan_id":"cebpf4jnsgd1na2vs0mg"},{"bike_id":"8ff51c56-0b32-48d2-8dd3-36e44d3bcf7a","system_id":"levelo_inurba_marseille","lat":43.27995,"lon":5.4001,"is_reserved":false,"is_disabled":false,"rental_uris":{"android":"levelo://app?vid=8ff51c56-0b32-48d2-8dd3-36e44d3bcf7a","ios":"levelo://app?vid=8ff51c56-0b32-48d2-8dd3-36e44d3bcf7a"},"vehicle_type_id":"4","last_reported":1750745789,"current_range_meters":25600,"station_id":"ce4bho92rcd13ifvqh4g","pricing_plan_id":"cebpf4jnsgd1na2vs0mg"},{"bike_id":"a9fe8587-0008-42e9-8888-f083b55b84f7","system_id":"levelo_inurba_marseille","lat":43.30172,"lon":5.38061,"is_reserved":false,"is_disabled":false,"rental_uris":{"android":"levelo://app?vid=a9fe8587-0008-42e9-8888-f083b55b84f7","ios":"levelo://app?vid=a9fe8587-0008-42e9-8888-f083b55b84f7"},