{"last_updated":1721851713,"ttl":30,"version":"2.2","data":{"bikes":[{"bike_id":"a2610bec-28cf-4e46-bfa7-b619ea248969","system_id":"levelo_inurba_marseille","lat":43.31257,"lon":5.36767,"is_reserved":false,"is_disabled":false,"rental_uris":{"android":"levelo://app?vid=a2610bec-28cf-4e46-bfa7-b619ea248969","ios":"levelo://app?vid=a2610bec-28cf-4e46-bfa7-b619ea248969"},"vehicle_type_id":"4","last_reported":1721851713,"current_range_meters":1600,"station_id":"","pricing_plan_id":"cebpf4jnsgd1na2vs0mg"},{"bike_id":"0ae9dc76-5f52-4050-bd0a-1651070ee211","system_id":"levelo_inurba_marseille","lat":43.31254,"lon":5.36816,"is_reserved":false,"is_disabled":false,"rental_uris":{"android":"levelo://app?vid=0ae9dc76-5f52-4050-bd0a-1651070ee211","ios":"levelo://app?vid=0ae9dc76-5f52-4050-bd0a-1651070ee211"},"vehicle_type_id":"4","last_reported":1721851713,"current_range_meters":6000,"station_id":"ce4bgl92rcd13ifvqbq0","pricing_plan_id":"cebpf4jnsgd1na2vs0mg"},{"bike_id":"225f7201-c00a-48d8-8e66-9c61792f14c1","system_id":"levelo_inurba_marseille","lat":43.31243,"lon":5.36825,"is_reserved":false,"is_disabled":false,"rental_uris":{"android":"levelo://app?vid=225f7201-c00a-48d8-8e66-9c61792f14c1","ios":"levelo://app?vid=225f7201-c00a-48d8-8e66-9c61792f14c1"},"vehicle_type_id":"4","last_reported":1721851713,"current_range_meters":18400,"station_id":"ce4bgl92rcd13ifvqbq0","pricing_plan_id":"cebpf4jnsgd1na2vs0mg"},{"bike_id":"3001f545-3af9-473e-a3d3-da3f53ee6fde","system_id":"levelo_inurba_marseille","lat":43.312239,"lon":5.368562,"is_reserved":false,"is_disabled":false,"rental_uris":{"android":"levelo://app?vid=3001f545-3af9-473e-a3d3-da3f53ee6fde","ios":"levelo://app?vid=3001f545-3af9-473e-a3d3-da3f53ee6fde"},"vehicle_type_id":"4","last_reported":1721851713,"current_range_meters":0,"station_id":"ce4bgl92rcd13ifvqbq0","pricing_plan_id":"cebpf4jnsgd1na2vs0mg"},{"bike_id":"644973d5-cfbe-4d48-947c-bb63cd95524b","system_id":"levelo_inurba_marseille","lat":43.309076,"lon":5.368465,"is_reserved":false,"is_disabled":false,"rental_uris":{"android":"levelo://app?vid=644973d5-cfbe-4d48-947c-bb63cd95524b","ios":"levelo://app?vid=644973d5-cfbe-4d48-947c-bb63cd95524b"},"vehicle_type_id":"4","last_reported":1721851713,"current_range_meters":21600,"station_id":"ce4bgn92rcd13ifvqbvg","pricing_plan_id":"cebpf4jnsgd1na2vs0mg"},{"bike_id":"38032368-5307-40a8-9f9e-6e168be4319b","system_id":"levelo_inurba_marseille","lat":43.309076,"lon":5.368465,"is_reserved":false,"is_disabled":false,"rental_uris":{"android":"levelo://app?vid=38032368-5307-40a8-9f9e-6e168be4319b","ios":"levelo://app?vid=38032368-5307-40a8-9f9e-6e168be4319b"},"vehicle_type_id":"4","last_reported":1721851713,"current_range_meters":8000,"station_id":"ce4bgn92rcd13ifvqbvg","pricing_plan_id":"cebpf4jnsgd1na2vs0mg"},{"bike_id":"ad864700-47a6-44de-b71a-95599b676bce","system_id":"levelo_inurba_marseille","lat":43.309076,"lon":5.368465,"is_reserved":false,"is_disabled":false,"rental_uris":{"android":"levelo://app?vid=ad864700-47a6-44de-b71a-95599b676bce","ios":"levelo://app?vid=ad864700-47a6-44de-b71a-95599b676bce"},"vehicle_type_id":"4","last_reported":1721851713,"current_range_meters":9200,"station_id":"ce4bgn92rcd13ifvqbvg","pricing_plan_id":"cebpf4jnsgd1na2vs0mg"},{"bike_id":"c3e341e7-0ee8-4d57-8690-86eb71be7ba1","system_id":"levelo_inurba_marseille","lat":43.31494,"lon":5.37306,"is_reserved":false,"is_disabled":false,"rental_uris":{"android":"levelo://app?vid=c3e341e7-0ee8-4d57-8690-86eb71be7ba1","ios":"levelo://app?vid=c3e341e7-0ee8-4d57-8690-86eb71be7ba1"},"vehicle_type_id":"4","last_reported":1721851713,"current_range_meters":24400,"station_id":"ce4bgt12rcd13ifvqcd0","pricing_plan_id":"cebpf4jnsgd1na2vs0mg"},{"bike_id":"11a266b5-0421-4fef-af20-0aac8b4d27d6","system_id":"levelo_inurba_marseille","lat":43.314811,"lon":5.373104,"is_reserved":false,"is_disabled":false,"rental_uris":{"android":"levelo://app?vid=11a266b5-0421-4fef-af20-0aac8b4d27d6","ios":"levelo://app?vid=11a266b5-0421-4fef-af20-0aac8b4d27d6"},"vehicle_type_id":"4","last_reported":1721851713,"current_range_meters":15600,"station_id":"ce4bgt12rcd13ifvqcd0","pricing_plan_id":"cebpf4jnsgd1na2vs0mg"},{"bike_id":"2942187f-2a14-4c74-bf29-ec046d50c20b","system_id":"levelo_inurba_marseille","lat":43.314811,"lon":5.373104,"is_reserved":false,"is_disabled":false,"rental_uris":{"android":"levelo://app?vid=2942187f-2a14-4c74-bf29-ec046d50c20b","ios":"levelo://app?vid=2942187f-2a14-4c74-bf29-ec046d50c20b"},"vehicle_type_id":"4","last_reported":1721851713,"current_range_meters":15600,"station_id":"ce4bgt12rcd13ifvqcd0","pricing_plan_id":"cebpf4jnsgd1na2vs0mg"},{"bike_id":"3748e580-4673-47ce-adc0-2e3dccf6ebeb","system_id":"levelo_inurba_marseille","lat":43.319105,"lon":5.367158,"is_reserved":false,"is_disabled":false,"rental_uris":{"android":"levelo://app?vid=3748e580-4673-47ce-adc0-2e3dccf6ebeb","ios":"levelo://app?vid=3748e580-4673-47ce-adc0-2e3dccf6ebeb"},"vehicle_type_id":"4","last_reported":1721851713,"current_range_meters":6800,"station_id":"","pricing_plan_id":"cebpf4jnsgd1na2vs0mg"},{"bike_id":"a50f95f1-093e-4cef-b5fc-1a4992df2f57","system_id":"levelo_inurba_marseille","lat":43.30549,"lon":5.36707,"is_reserved":false,"is_disabled":false,"rental_uris":{"android":"levelo://app?vid=a50f95f1-093e-4cef-b5fc-1a4992df2f57","ios":"levelo://app?vid=a50f95f1-093e-4cef-b5fc-1a4992df2f57"},"vehicle_type_id":"4","last_reported":1721851713,"current_range_meters":3200,"station_id":"ce4bgrp2rcd13ifvqc9g","pricing_plan_id":"cebpf4jnsgd1na2vs0mg"},{"bike_id":"d4137801-8cce-4a11-87bc-d5b7b9768580","system_id":"levelo_inurba_marseille","lat":43.30539,"lon":5.36705,"is_reserved":false,"is_disabled":false,"rental_uris":{"android":"levelo://app?vid=d4137801-8cce-4a11-87bc-d5b7b9768580","ios":"levelo://app?vid=d4137801-8cce-4a11-87bc-d5b7b9768580"},"vehicle_type_id":"4","last_reported":1721851713,"current_range_meters":0,"station_id":"ce4bgrp2rcd13ifvqc9g","pricing_plan_id":"cebpf4jnsgd1na2vs0mg"},{"bike_id":"5b94af19-04ca-42f1-9351-0e358d2d4b20","system_id":"levelo_inurba_marseille","lat":43.305712,"lon":5.365641,"is_reserved":false,"is_disabled":false,"rental_uris":{"android":"levelo://app?vid=5b94af19-04ca-42f1-9351-0e358d2d4b20","ios":"levelo://app?vid=5b94af19-04ca-42f1-9351-0e358d2d4b20"},"vehicle_type_id":"4","last_reported":1721851713,"current_range_meters":30400,"station_id":"ce4bgs12rcd13ifvqcag","pricing_plan_id":"cebpf4jnsgd1na2vs0mg"},{"bike_id":"12518c98-2c83-4305-beca-aae556133d07","system_id":"levelo_inurba_marseille","lat":43.305989,"lon":5.37225,"is_reserved":false,"is_disabled":false,"rental_uris":{"android":"levelo://app?vid=12518c98-2c83-4305-beca-aae556133d07","ios":"levelo://app?vid=12518c98-2c83-4305-beca-aae556133d07"},"vehicle_type_id":"4","last_reported":1721851713,"current_range_meters":9200,"station_id":"ce4bgqh2rcd13ifvqc4g","pricing_plan_id":"cebpf4jnsgd1na2vs0mg"},{"bike_id":"343fd442-7f78-4516-8508-35272c78fa74","system_id":"levelo_inurba_marseille","lat":43.305989,"lon":5.37225,"is_reserved":false,"is_disabled":false,"rental_uris":{"android":"levelo://app?vid=343fd442-7f78-4516-8508-35272c78fa74","ios":"levelo://app?vid=343fd442-7f78-4516-8508-35272c78fa74"},"vehicle_type_id":"4","last_reported":1721851713,"current_range_meters":29600,"station_id":"ce4bgqh2rcd13ifvqc4g","pricing_plan_id":"cebpf4jnsgd1na2vs0mg"},{"bike_id":"65e15d75-5d3d-4714-8f92-3086dce8ef7e","system_id":"levelo_inurba_marseille","lat":43.305989,"lon":5.37225,"is_reserved":false,"is_disabled":false,"rental_uris":{"android":"levelo://app?vid=65e15d75-5d3d-4714-8f92-3086dce8ef7e","ios":"levelo://app?vid=65e15d75-5d3d-4714-8f92-3086dce8ef7e"},"vehicle_type_id":"4","last_reported":1721851713,"current_range_meters":31200,"station_id":"ce4bgqh2rcd13ifvqc4g","pricing_plan_id":"cebpf4jnsgd1na2vs0mg"},{"bike_id":"a43461bb-d5da-409a-84ff-172639a24181","system_id":"levelo_inurba_marseille","lat":43.311552,"lon":5.378248,"is_reserved":false,"is_disabled":false,"rental_uris":{"android":"levelo://app?vid=a43461bb-d5da-409a-84ff-172639a24181","ios":"levelo://app?vid=a43461bb-d5da-409a-84ff-172639a24181"},"vehicle_type_id":"4","last_reported":1721851713,"current_range_meters":30800,"station_id":"ce4bgv92rcd13ifvqcr0","pricing_plan_id":"cebpf4jnsgd1na2vs0mg"},{"bike_id":"c3aaefe8-21d7-49d5-88f3-f3b1a6436131","system_id":"levelo_inurba_marseille","lat":43.307945,"lon":5.376487,"is_reserved":false,"is_disabled":false,"rental_uris":{"android":"levelo://app?vid=c3aaefe8-21d7-49d5-88f3-f3b1a6436131","ios":"levelo://app?vid=c3aaefe8-21d7-49d5-88f3-f3b1a6436131"},"vehicle_type_id":"4","last_reported":1721851713,"current_range_meters":8400,"station_id":"ce4bgv92rcd13ifvqcq0","pricing_plan_id":"cebpf4jnsgd1na2vs0mg"},{"bike_id":"715ebc99-36d3-4c6d-a961-deb15e765f56","system_id":"levelo_inurba_marseille","lat":43.30787,"lon":5.376455,"is_reserved":false,"is_disabled":false,"rental_uris":{"android":"levelo://app?vid=715ebc99-36d3-4c6d-a961-deb15e765f56","ios":"levelo://app?vid=715ebc99-36d3-4c6d-a961-deb15e765f56"},"vehicle_type_id":"4","last_reported":1721851713,"current_range_meters":9600,"station_id":"ce4bgv92rcd13ifvqcq0","pricing_plan_id":"cebpf4jnsgd1na2vs0mg"},{"bike_id":"04c58f49-41ed-49b2-90c6-cc7edfcd4fdd","system_id":"levelo_inurba_marseille","lat":43.307945,"lon":5.376487,"is_reserved":false,"is_disabled":false,"rental_uris":{"android":"levelo://app?vid=04c58f49-41ed-49b2-90c6-cc7edfcd4fdd","ios":"levelo://app?vid=04c58f49-41ed-49b2-90c6-cc7edfcd4fdd"},"vehicle_type_id":"4","last_reported":1721851713,"current_range_meters":5200,"station_id":"ce4bgv92rcd13ifvqcq0","pricing_plan_id":"cebpf4jnsgd1na2vs0mg"},{"bike_id":"a49f2d20-1f1e-4d9c-9689-51778fe1434c","system_id":"levelo_inurba_marseille","lat":43.317075,"lon":5.377367,"is_reserved":false,"is_disabled":false,"rental_uris":{"android":"levelo://app?vid=a49f2d20-1f1e-4d9c-9689-51778fe1434c","ios":"levelo://app?vid=a49f2d20-1f1e-4d9c-9689-51778fe1434c"},"vehicle_type_id":"4","last_reported":1721851713,"current_range_meters":30000,"station_id":"ce4bgth2rcd13ifvqch0","pricing_plan_id":"cebpf4jnsgd1na2vs0mg"},{"bike_id":"b7e8091f-9ba9-4a85-8656-56c91010b681","system_id":"levelo_inurba_marseille","lat":43.30304,"lon":5.368987,"is_reserved":false,"is_disabled":false,"rental_uris":{"android":"levelo://app?vid=b7e8091f-9ba9-4a85-8656-56c91010b681","ios":"levelo://app?vid=b7e8091f-9ba9-4a85-8656-56c91010b681"},"vehicle_type_id":"4","last_reported":1721851713,"current_range_meters":21200,"station_id":"ce4bgqh2rcd13ifvqc5g","pricing_plan_id":"cebpf4jnsgd1na2vs0mg"},{"bike_id":"1ce25147-1070-4e00-a420-7f0c4bc5473d","system_id":"levelo_inurba_marseille","lat":43.30298,"lon":5.36899,"is_reserved":false,"is_disabled":false,"rental_uris":{"android":"levelo://app?vid=1ce25147-1070-4e00-a420-7f0c4bc5473d","ios":"levelo://app?vid=1ce25147-1070-4e00-a420-7f0c4bc5473d"},"vehicle_type_id":"4","last_reported":1721851713,"current_range_meters":4000,"station_id":"ce4bgqh2rcd13ifvqc5g","pricing_plan_id":"cebpf4jnsgd1na2vs0mg"},{"bike_id":"54db475e-1949-4d09-b81c-000a821d4233","system_id":"levelo_inurba_marseille","lat":43.30902,"lon":5.37975,"is_reserved":false,"is_disabled":false,"rental_uris":{"android":"levelo://app?vid=54db475e-1949-4d09-b81c-000a821d4233","ios":"levelo://app?vid=54db475e-1949-4d09-b81c-000a821d4233"},"vehicle_type_id":"4","last_reported":1721851713,"current_range_meters":18400,"station_id":"","pricing_plan_id":"cebpf4jnsgd1na2vs0mg"},{"bike_id":"6f0d8624-008a-4d1a-9664-934b916decea","system_id":"levelo_inurba_marseille","lat":43.31529,"lon":5.3803,"is_reserved":false,"is_disabled":false,"rental_uris":{"android":"levelo://app?vid=6f0d8624-008a-4d1a-9664-934b916decea","ios":"levelo://app?vid=6f0d8624-008a-4d1a-9664-934b916decea"},"vehicle_type_id":"4","last_reported":1721851713,"current_range_meters":1200,"station_id":"ce4bhsp2rcd13ifvqi50","pricing_plan_id":"cebpf4jnsgd1na2vs0mg"},{"bike_id":"57ca083d-169e-4add-8308-2fef21548fdf","system_id":"levelo_inurba_marseille","lat":43.315289,"lon":5.380349,"is_reserved":false,"is_disabled":false,"rental_uris":{"android":"levelo://app?vid=57ca083d-169e-4add-8308-2fef21548fdf","ios":"levelo://app?vid=57ca083d-169e-4add-8308-2fef21548fdf"},"vehicle_type_id":"4","last_reported":1721851713,"current_range_meters":30800,"station_id":"ce4bhsp2rcd13ifvqi50","pricing_plan_id":"cebpf4jnsgd1na2vs0mg"},{"bike_id":"d963bb8f-6749-48f7-8dc5-2f94b344281b","system_id":"levelo_inurba_marseille","lat":43.32367,"lon":5.388836,"is_reserved":false,"is_disabled":false,"rental_uris":{"android":"levelo://app?vid=d963bb8f-6749-48f7-8dc5-2f94b344281b","ios":"levelo://app?vid=d963bb8f-6749-48f7-8dc5-2f94b344281b"},"vehicle_type_id":"4","last_reported":1721851713,"current_range_meters":27200,"station_id":"ce4bhqp2rcd13ifvqhog","pricing_plan_id":"cebpf4jnsgd1na2vs0mg"},{"bike_id":"48dff36e-9e90-4d5a-b4aa-0e8c77a60876","system_id":"levelo_inurba_marseille","lat":43.30193,"lon":5.36608,"is_reserved":false,"is_disabled":false,"rental_uris":{"android":"levelo://app?vid=48dff36e-9e90-4d5a-b4aa-0e8c77a60876","ios":"levelo://app?vid=48dff36e-9e90-4d5a-b4aa-0e8c77a60876"},"vehicle_type_id":"4","last_reported":1721851713,"current_range_meters":0,"station_id":"ce4bgrh2rcd13ifvqc8g","pricing_plan_id":"cebpf4jnsgd1na2vs0mg"},{"bike_id":"6cbc0971-6ce8-4981-bdf9-6ce637ef51b6","system_id":"levelo_inurba_marseille","lat":43.301939,"lon":5.366286,"is_reserved":false,"is_disabled":false,"rental_uris":{"android":"levelo://app?vid=6cbc0971-6ce8-4981-bdf9-6ce637ef51b6","ios":"levelo://app?vid=6cbc0971-6ce8-4981-bdf9-6ce637ef51b6"},"vehicle_type_id":"4","last_reported":1721851713,"current_range_meters":400,"station_id":"ce4bgrh2rcd13ifvqc8g","pricing_plan_id":"cebpf4jnsgd1na2vs0mg"},{"bike_id":"dcf10d7a-da30-4f24-9cd9-7969e76ce2a6","system_id":"levelo_inurba_marseille","lat":43.308012,"lon":5.381511,"is_reserved":false,"is_disabled":false,"rental_uris":{"android":"levelo://app?vid=dcf10d7a-da30-4f24-9cd9-7969e76ce2a6","ios":"levelo://app?vid=dcf10d7a-da30-4f24-9cd9-7969e76ce2a6"},"vehicle_type_id":"4","last_reported":1721851713,"current_range_meters":4800,"station_id":"ce4bgt12rcd13ifvqce0","pricing_plan_id":"cebpf4jnsgd1na2vs0mg"},{"bike_id":"edbcf791-3222-487b-9470-7e23f8c18aac","system_id":"levelo_inurba_marseille","lat":43.308012,"lon":5.381511,"is_reserved":false,"is_disabled":false,"rental_uris":{"android":"levelo://app?vid=edbcf791-3222-487b-9470-7e23f8c18aac","ios":"levelo://app?vid=edbcf791-3222-487b-9470-7e23f8c18aac"},"vehicle_type_id":"4","last_reported":1721851713,"current_range_meters":7600,"station_id":"ce4bgt12rcd13ifvqce0","pricing_plan_id":"cebpf4jnsgd1na2vs0mg"},{"bike_id":"2498b7ab-650d-4589-9a79-b499e87016cf","system_id":"levelo_inurba_marseille","lat":43.324771,"lon":5.36557,"is_reserved":false,"is_disabled":false,"rental_uris":{"android":"levelo://app?vid=2498b7ab-650d-4589-9a79-b499e87016cf","ios":"levelo://app?vid=2498b7ab-650d-4589-9a79-b499e87016cf"},"vehicle_type_id":"4","last_reported":1721851713,"current_range_meters":24000,"station_id":"ce4bhs12rcd13ifvqhvg","pricing_plan_id":"cebpf4jnsgd1na2vs0mg"},{"bike_id":"dcd82908-1be2-4d1b-a124-edc807df1b51","system_id":"levelo_inurba_marseille","lat":43.310804,"lon":5.38359,"is_reserved":false,"is_disabled":false,"rental_uris":{"android":"levelo://app?vid=dcd82908-1be2-4d1b-a124-edc807df1b51","ios":"levelo://app?vid=dcd82908-1be2-4d1b-a124-edc807df1b51"},"vehicle_type_id":"4","last_reported":1721851713,"current_range_meters":6400,"station_id":"ce4bgv92rcd13ifvqcr0","pricing_plan_id":"cebpf4jnsgd1na2vs0mg"},{"bike_id":"f3d2fe22-185b-4765-9ac1-58041bc3bc2b","system_id":"levelo_inurba_marseille","lat":43.310804,"lon":5.38359,"is_reserved":false,"is_disabled":false,"rental_uris":{"android":"levelo://app?vid=f3d2fe22-185b-4765-9ac1-58041bc3bc2b","ios":"levelo://app?vid=f3d2fe22-185b-4765-9ac1-58041bc3bc2b"},"vehicle_type_id":"4","last_reported":1721851713,"current_range_meters":17600,"station_id":"ce4bgv92rcd13ifvqcr0","pricing_plan_id":"cebpf4jnsgd1na2vs0mg"},{"bike_id":"c75a79c9-4ec8-450f-b662-4c0066fb2310","system_id":"levelo_inurba_marseille","lat":43.310804,"lon":5.38359,"is_reserved":false,"is_disabled":false,"rental_uris":{"android":"levelo://app?vid=c75a79c9-4ec8-450f-b662-4c0066fb2310","ios":"levelo://app?vid=c75a79c9-4ec8-450f-b662-4c0066fb2310"},"vehicle_type_id":"4","last_reported":1721851713,"current_range_meters":31200,"station_id":"ce4bgv92rcd13ifvqcr0","pricing_plan_id":"cebpf4jnsgd1na2vs0mg"},{"bike_id":"c3bb5913-ebae-4a8d-8138-8680fd642a73","system_id":"levelo_inurba_marseille","lat":43.302784,"lon":5.377158,"is_reserved":false,"is_disabled":false,"rental_uris":{"android":"levelo://app?vid=c3bb5913-ebae-4a8d-8138-8680fd642a73","ios":"levelo://app?vid=c3bb5913-ebae-4a8d-8138-8680fd642a73"},"vehicle_type_id":"4","last_reported":1721851713,"current_range_meters":21600,"station_id":"ce4bguh2rcd13ifvqcj0","pricing_plan_id":"cebpf4jnsgd1na2vs0mg"},{"bike_id":"b4283b81-ddc2-48d3-9aa6-2e7fe4dcaeac","system_id":"levelo_inurba_marseille","lat":43.301429,"lon":5.37413,"is_reserved":false,"is_disabled":false,"rental_uris":{"android":"levelo://app?vid=b4283b81-ddc2-48d3-9aa6-2e7fe4dcaeac","ios":"levelo://app?vid=b4283b81-ddc2-48d3-9aa6-2e7fe4dcaeac"},"vehicle_type_id":"4","last_reported":1721851713,"current_range_meters":15200,"station_id":"ce4bgs92rcd13ifvqcc0","pricing_plan_id":"cebpf4jnsgd1na2vs0mg"},{"bike_id":"c6e2d0a7-fa21-4968-9f06-a63616667d80","system_id":"levelo_inurba_marseille","lat":43.319935,"lon":5.381699,"is_reserved":false,"is_disabled":false,"rental_uris":{"android":"levelo://app?vid=c6e2d0a7-fa21-4968-9f06-a63616667d80","ios":"levelo://app?vid=c6e2d0a7-fa21-4968-9f06-a63616667d80"},"vehicle_type_id":"4","last_reported":1721851713,"current_range_meters":7600,"station_id":"ce4bhr12rcd13ifvqhpg","pricing_plan_id":"cebpf4jnsgd1na2vs0mg"},{"bike_id":"c89b02c6-5f1b-4f44-a3e9-845dfc8d4139","system_id":"levelo_inurba_marseille","lat":43.319935,"lon":5.381699,"is_reserved":false,"is_disabled":false,"rental_uris":{"android":"levelo://app?vid=c89b02c6-5f1b-4f44-a3e9-845dfc8d4139","ios":"levelo://app?vid=c89b02c6-5f1b-4f44-a3e9-845dfc8d4139"},"vehicle_type_id":"4","last_reported":1721851713,"current_range_meters":0,"station_id":"ce4bhr12rcd13ifvqhpg","pricing_plan_id":"cebpf4jnsgd1na2vs0mg"},{"bike_id":"f2be9e85-4bc2-46a3-b540-4934f8cc6d83","system_id":"levelo_inurba_marseille","lat":43.313571,"lon":5.384829,"is_reserved":false,"is_disabled":false,"rental_uris":{"android":"levelo://app?vid=f2be9e85-4bc2-46a3-b540-4934f8cc6d83","ios":"levelo://app?vid=f2be9e85-4bc2-46a3-b540-4934f8cc6d83"},"vehicle_type_id":"4","last_reported":1721851713,"current_range_meters":1200,"station_id":"ce4bgt92rcd13ifvqcf0","pricing_plan_id":"cebpf4jnsgd1na2vs0mg"},{"bike_id":"915e0a62-929c-4a9d-bf99-5c81a313dbf0","system_id":"levelo_inurba_marseille","lat":43.313571,"lon":5.384829,"is_reserved":false,"is_disabled":false,"rental_uris":{"android":"levelo://app?vid=915e0a62-929c-4a9d-bf99-5c81a313dbf0","ios":"levelo://app?vid=915e0a62-929c-4a9d-bf99-5c81a313dbf0"},"vehicle_type_id":"4","last_reported":1721851713,"current_range_meters":8000,"station_id":"ce4bgt92rcd13ifvqcf0","pricing_plan_id":"cebpf4jnsgd1na2vs0mg"},{"bike_id":"70cbf672-1e19-43a7-a671-ebccc8177fed","system_id":"levelo_inurba_marseille","lat":43.313571,"lon":5.384829,"is_reserved":false,"is_disabled":false,"rental_uris":{"android":"levelo://app?vid=70cbf672-1e19-43a7-a671-ebccc8177fed","ios":"levelo://app?vid=70cbf672-1e19-43a7-a671-ebccc8177fed"},"vehicle_type_id":"4","last_reported":1721851713,"current_range_meters":10000,"station_id":"ce4bgt92rcd13ifvqcf0","pricing_plan_id":"cebpf4jnsgd1na2vs0mg"},{"bike_id":"8ef57490-03a3-4931-a892-b2c7d4fb68a3","system_id":"levelo_inurba_marseille","lat":43.31365,"lon":5.38497,"is_reserved":false,"is_disabled":false,"rental_uris":{"android":"levelo://app?vid=8ef57490-03a3-4931-a892-b2c7d4fb68a3","ios":"levelo://app?vid=8ef57490-03a3-4931-a892-b2c7d4fb68a3"},"vehicle_type_id":"4","last_reported":1721851713,"current_range_meters":0,"station_id":"ce4bgt92rcd13ifvqcf0","pricing_plan_id":"cebpf4jnsgd1na2vs0mg"},{"bike_id":"afdb596a-62b5-446d-b8d2-050a50dbf4c2","system_id":"levelo_inurba_marseille","lat":43.299222,"lon":5.365554,"is_reserved":false,"is_disabled":false,"rental_uris":{"android":"levelo://app?vid=afdb596a-62b5-446d-b8d2-050a50dbf4c2","ios":"levelo://app?vid=afdb596a-62b5-446d-b8d2-050a50dbf4c2"},"vehicle_type_id":"4","last_reported":1721851713,"current_range_meters":24000,"station_id":"ce4bgm92rcd13ifvqbr0","pricing_plan_id":"cebpf4jnsgd1na2vs0mg"},{"bike_id":"81f5d792-ceb4-4958-b74d-64864ece3933","system_id":"levelo_inurba_marseille","lat":43.299724,"lon":5.371829,"is_reserved":false,"is_disabled":false,"rental_uris":{"android":"levelo://app?vid=81f5d792-ceb4-4958-b74d-64864ece3933","ios":"levelo://app?vid=81f5d792-ceb4-4958-b74d-64864ece3933"},"vehicle_type_id":"4","last_reported":1721851713,"current_range_meters":400,"station_id":"ce4bgr92rcd13ifvqc7g","pricing_plan_id":"cebpf4jnsgd1na2vs0mg"},{"bike_id":"5c5865b8-d001-4b73-ae87-f86ac986c649","system_id":"levelo_inurba_marseille","lat":43.30442,"lon":5.381617,"is_reserved":false,"is_disabled":false,"rental_uris":{"android":"levelo://app?vid=5c5865b8-d001-4b73-ae87-f86ac986c649","ios":"levelo://app?vid=5c5865b8-d001-4b73-ae87-f86ac986c649"},"vehicle_type_id":"4","last_reported":1721851713,"current_range_meters":17600,"station_id":"","pricing_plan_id":"cebpf4jnsgd1na2vs0mg"},{"bike_id":"fc34847d-3bfb-4b93-8402-e3690ac2fb9a","system_id":"levelo_inurba_marseille","lat":43.29897,"lon":5.37046,"is_reserved":false,"is_disabled":false,"rental_uris":{"android":"levelo://app?vid=fc34847d-3bfb-4b93-8402-e3690ac2fb9a","ios":"levelo://app?vid=fc34847d-3bfb-4b93-8402-e3690ac2fb9a"},"vehicle_type_id":"4","last_reported":1721851713,"current_range_meters":0,"station_id":"","pricing_plan_id":"cebpf4jnsgd1na2vs0mg"},{"bike_id":"b3c97d5e-b6ba-43c6-af10-30c8437cef6b","system_id":"levelo_inurba_marseille","lat":43.309568,"lon":5.38615,"is_reserved":false,"is_disabled":false,"rental_uris":{"android":"levelo://app?vid=b3c97d5e-b6ba-43c6-af10-30c8437cef6b","ios":"levelo://app?vid=b3c97d5e-b6ba-43c6-af10-30c8437cef6b"},"vehicle_type_id":"4","last_reported":1721851713,"current_range_meters":1200,"station_id":"","pricing_plan_id":"cebpf4jnsgd1na2vs0mg"},{"bike_id":"f2dc0265-dcd1-40dc-9ed5-02ba2370f196","system_id":"levelo_inurba_marseille","lat":43.30125,"lon":5.37903,"is_reserved":false,"is_disabled":false,"rental_uris":{"android":"levelo://app?vid=f2dc0265-dcd1-40dc-9ed5-02ba2370f196","ios":"levelo://app?vid=f2dc0265-dcd1-40dc-9ed5-02ba2370f196"},"vehicle_type_id":"4","last_reported":1721851713,"current_range_meters":8800,"station_id":"","pricing_plan_id":"cebpf4jnsgd1na2vs0mg"},{"bike_id":"819cd1a5-ad74-44ce-ba54-07f5551c8b82","system_id":"levelo_inurba_marseille","lat":43.29855,"lon":5.36288,"is_reserved":false,"is_disabled":false,"rental_uris":{"android":"levelo://app?vid=819cd1a5-ad74-44ce-ba54-07f5551c8b82","ios":"levelo://app?vid=819cd1a5-ad74-44ce-ba54-07f5551c8b82"},"vehicle_type_id":"4","last_reported":1721851713,"current_range_meters":24000,"station_id":"ce4bgpp2rcd13ifvqc3g","pricing_plan_id":"cebpf4jnsgd1na2vs0mg"},{"bike_id":"eee5ec26-8463-469f-a549-0a7f28b55bf3","system_id":"levelo_inurba_marseille","lat":43.29851,"lon":5.36288,"is_reserved":false,"is_disabled":false,"rental_uris":{"android":"levelo://app?vid=eee5ec26-8463-469f-a549-0a7f28b55bf3","ios":"levelo://app?vid=eee5ec26-8463-469f-a549-0a7f28b55bf3"},"vehicle_type_id":"4","last_reported":1721851713,"current_range_meters":25200,"station_id":"ce4bgpp2rcd13ifvqc3g","pricing_plan_id":"cebpf4jnsgd1na2vs0mg"},{"bike_id":"500f2bca-9d43-4808-b21d-54470e0d894d","system_id":"levelo_inurba_marseille","lat":43.29851,"lon":5.36287,"is_reserved":false,"is_disabled":false,"rental_uris":{"android":"levelo://app?vid=500f2bca-9d43-4808-b21d-54470e0d894d","ios":"levelo://app?vid=500f2bca-9d43-4808-b21d-54470e0d894d"},"vehicle_type_id":"4","last_reported":1721851713,"current_range_meters":15200,"station_id":"ce4bgpp2rcd13ifvqc3g","pricing_plan_id":"cebpf4jnsgd1na2vs0mg"},{"bike_id":"7b8b954b-495b-4846-a50d-a50939c933f9","system_id":"levelo_inurba_marseille","lat":43.29851,"lon":5.36285,"is_reserved":false,"is_disabled":false,"rental_uris":{"android":"levelo://app?vid=7b8b954b-495b-4846-a50d-a50939c933f9","ios":"levelo://app?vid=7b8b954b-495b-4846-a50d-a50939c933f9"},"vehicle_type_id":"4","last_reported":1721851713,"current_range_meters":23200,"station_id":"ce4bgpp2rcd13ifvqc3g","pricing_plan_id":"cebpf4jnsgd1na2vs0mg"},{"bike_id":"275cd4f9-1f4c-4bf1-9561-7966eae18b9f","system_id":"levelo_inurba_marseille","lat":43.29851,"lon":5.36283,"is_reserved":false,"is_disabled":false,"rental_uris":{"android":"levelo://app?vid=275cd4f9-1f4c-4bf1-9561-7966eae18b9f","ios":"levelo://app?vid=275cd4f9-1f4c-4bf1-9561-7966eae18b9f"},"vehicle_type_id":"4","last_reported":1721851713,"current_range_meters":15200,"station_id":"ce4bgpp2rcd13ifvqc3g","pricing_plan_id":"cebpf4jnsgd1na2vs0mg"},{"bike_id":"edab9f1e-c583-4a03-ab50-9ab7e5cb8b37","system_id":"levelo_inurba_marseille","lat":43.29851,"lon":5.36282,"is_reserved":false,"is_disabled":false,"rental_uris":{"android":"levelo://app?vid=edab9f1e-c583-4a03-ab50-9ab7e5cb8b37","ios":"levelo://app?vid=edab9f1e-c583-4a03-ab50-9ab7e5cb8b37"},"vehicle_type_id":"4","last_reported":1721851713,"current_range_meters":31200,"station_id":"ce4bgpp2rcd13ifvqc3g","pricing_plan_id":"cebpf4jnsgd1na2vs0mg"},{"bike_id":"be26297c-d83b-4be5-856f-f4f93c923644","system_id":"levelo_inurba_marseille","lat":43.29851,"lon":5.36281,"is_reserved":false,"is_disabled":false,"rental_uris":{"android":"levelo://app?vid=be26297c-d83b-4be5-856f-f4f93c923644","ios":"levelo://app?vid=be26297c-d83b-4be5-856f-f4f93c923644"},"vehicle_type_id":"4","last_reported":1721851713,"current_range_meters":30800,"station_id":"ce4bgpp2rcd13ifvqc3g","pricing_plan_id":"cebpf4jnsgd1na2vs0mg"},{"bike_id":"c125b066-530e-47d1-8e6d-675e228cf71f","system_id":"levelo_inurba_marseille","lat":43.2985,"lon":5.36283,"is_reserved":false,"is_disabled":false,"rental_uris":{"android":"levelo://app?vid=c125b066-530e-47d1-8e6d-675e228cf71f","ios":"levelo://app?vid=c125b066-530e-47d1-8e6d-675e228cf71f"},"vehicle_type_id":"4","last_reported":1721851713,"current_range_meters":14400,"station_id":"ce4bgpp2rcd13ifvqc3g","pricing_plan_id":"cebpf4jnsgd1na2vs0mg"},{"bike_id":"b7a63376-efe0-403b-b9f6-8c114c813350","system_id":"levelo_inurba_marseille","lat":43.29849,"lon":5.36289,"is_reserved":false,"is_disabled":false,"rental_uris":{"android":"levelo://app?vid=b7a63376-efe0-403b-b9f6-8c114c813350","ios":"levelo://app?vid=b7a63376-efe0-403b-b9f6-8c114c813350"},"vehicle_type_id":"4","last_reported":1721851713,"current_range_meters":7200,"station_id":"ce4bgpp2rcd13ifvqc3g","pricing_plan_id":"cebpf4jnsgd1na2vs0mg"},{"bike_id":"2fda33e9-8828-44ef-962c-7ddd0a4b61c0","system_id":"levelo_inurba_marseille","lat":43.29849,"lon":5.36289,"is_reserved":false,"is_disabled":false,"rental_uris":{"android":"levelo://app?vid=2fda33e9-8828-44ef-962c-7ddd0a4b61c0","ios":"levelo://app?vid=2fda33e9-8828-44ef-962c-7ddd0a4b61c0"},"vehicle_type_id":"4","last_reported":1721851713,"current_range_meters":30800,"station_id":"ce4bgpp2rcd13ifvqc3g","pricing_plan_id":"cebpf4jnsgd1na2vs0mg"},{"bike_id":"6cb0aafb-7432-47b1-ba3d-f88b238efc8c","system_id":"levelo_inurba_marseille","lat":43.2985,"lon":5.36282,"is_reserved":false,"is_disabled":false,"rental_uris":{"android":"levelo://app?vid=6cb0aafb-7432-47b1-ba3d-f88b238efc8c","ios":"levelo://app?vid=6cb0aafb-7432-47b1-ba3d-f88b238efc8c"},"vehicle_type_id":"4","last_reported":1721851713,"current_range_meters":19600,"station_id":"ce4bgpp2rcd13ifvqc3g","pricing_plan_id":"cebpf4jnsgd1na2vs0mg"},{"bike_id":"adda6741-911e-49f8-8417-538c69a6f9b7","system_id":"levelo_inurba_marseille","lat":43.29849,"lon":5.36288,"is_reserved":false,"is_disabled":false,"rental_uris":{"android":"levelo://app?vid=adda6741-911e-49f8-8417-538c69a6f9b7","ios":"levelo://app?vid=adda6741-911e-49f8-8417-538c69a6f9b7"},"vehicle_type_id":"4","last_reported":1721851713,"current_range_meters":7600,"station_id":"ce4bgpp2rcd13ifvqc3g","pricing_plan_id":"cebpf4jnsgd1na2vs0mg"},{"bike_id":"7023524f-d9cd-409e-ad5d-2c21f28365bb","system_id":"levelo_inurba_marseille","lat":43.29851,"lon":5.36274,"is_reserved":false,"is_disabled":false,"rental_uris":{"android":"levelo://app?vid=7023524f-d9cd-409e-ad5d-2c21f28365bb","ios":"levelo://app?vid=7023524f-d9cd-409e-ad5d-2c21f28365bb"},"vehicle_type_id":"4","last_reported":1721851713,"current_range_meters":31200,"station_id":"ce4bgpp2rcd13ifvqc3g","pricing_plan_id":"cebpf4jnsgd1na2vs0mg"},{"bike_id":"6838743f-7b35-4c33-a496-23860a34871b","system_id":"levelo_inurba_marseille","lat":43.29849,"lon":5.36283,"is_reserved":false,"is_disabled":false,"rental_uris":{"android":"levelo://app?vid=6838743f-7b35-4c33-a496-23860a34871b","ios":"levelo://app?vid=6838743f-7b35-4c33-a496-23860a34871b"},"vehicle_type_id":"4","last_reported":1721851713,"current_range_meters":2000,"station_id":"ce4bgpp2rcd13ifvqc3g","pricing_plan_id":"cebpf4jnsgd1na2vs0mg"},{"bike_id":"323a6303-2464-4c22-a648-082851444da2","system_id":"levelo_inurba_marseille","lat":43.305364,"lon":5.384119,"is_reserved":false,"is_disabled":false,"rental_uris":{"android":"levelo://app?vid=323a6303-2464-4c22-a648-082851444da2","ios":"levelo://app?vid=323a6303-2464-4c22-a648-082851444da2"},"vehicle_type_id":"4","last_reported":1721851713,"current_range_meters":3200,"station_id":"ce4bgg92rcd13ifvqb30","pricing_plan_id":"cebpf4jnsgd1na2vs0mg"},{"bike_id":"7ae003da-b9aa-4e5a-a804-a02844d4489b","system_id":"levelo_inurba_marseille","lat":43.29848,"lon":5.36288,"is_reserved":false,"is_disabled":false,"rental_uris":{"android":"levelo://app?vid=7ae003da-b9aa-4e5a-a804-a02844d4489b","ios":"levelo://app?vid=7ae003da-b9aa-4e5a-a804-a02844d4489b"},"vehicle_type_id":"4","last_reported":1721851713,"current_range_meters":29200,"station_id":"ce4bgpp2rcd13ifvqc3g","pricing_plan_id":"cebpf4jnsgd1na2vs0mg"},{"bike_id":"f01d544f-1438-43ed-b5eb-63e3b082d0f9","system_id":"levelo_inurba_marseille","lat":43.29849,"lon":5.36281,"is_reserved":false,"is_disabled":false,"rental_uris":{"android":"levelo://app?vid=f01d544f-1438-43ed-b5eb-63e3b082d0f9","ios":"levelo://app?vid=f01d544f-1438-43ed-b5eb-63e3b082d0f9"},"vehicle_type_id":"4","last_reported":1721851713,"current_range_meters":400,"station_id":"ce4bgpp2rcd13ifvqc3g","pricing_plan_id":"cebpf4jnsgd1na2vs0mg"},{"bike_id":"056c6354-18f4-4f99-9771-d3623d184180","system_id":"levelo_inurba_marseille","lat":43.29849,"lon":5.3628,"is_reserved":false,"is_disabled":false,"rental_uris":{"android":"levelo://app?vid=056c6354-18f4-4f99-9771-d3623d184180","ios":"levelo://app?vid=056c6354-18f4-4f99-9771-d3623d184180"},"vehicle_type_id":"4","last_reported":1721851713,"current_range_meters":8400,"station_id":"ce4bgpp2rcd13ifvqc3g","pricing_plan_id":"cebpf4jnsgd1na2vs0mg"},{"bike_id":"a4b46b18-d0cb-4a8e-8c16-4e45f568339f","system_id":"levelo_inurba_marseille","lat":43.29849,"lon":5.3628,"is_reserved":false,"is_disabled":false,"rental_uris":{"android":"levelo://app?vid=a4b46b18-d0cb-4a8e-8c16-4e45f568339f","ios":"levelo://app?vid=a4b46b18-d0cb-4a8e-8c16-4e45f568339f"},"vehicle_type_id":"4","last_reported":1721851713,"current_range_meters":15200,"station_id":"ce4bgpp2rcd13ifvqc3g","pricing_plan_id":"cebpf4jnsgd1na2vs0mg"},{"bike_id":"a78a9fd8-5bed-4376-b05f-b7f25a0408aa","system_id":"levelo_inurba_marseille","lat":43.29848,"lon":5.36284,"is_reserved":false,"is_disabled":false,"rental_uris":{"android":"levelo://app?vid=a78a9fd8-5bed-4376-b05f-b7f25a0408aa","ios":"levelo://app?vid=a78a9fd8-5bed-4376-b05f-b7f25a0408aa"},"vehicle_type_id":"4","last_reported":1721851713,"current_range_meters":31200,"station_id":"ce4bgpp2rcd13ifvqc3g","pricing_plan_id":"cebpf4jnsgd1na2vs0mg"},{"bike_id":"d635b2e8-81a6-44c0-a78d-3e0c197583c7","system_id":"levelo_inurba_marseille","lat":43.29848,"lon":5.36284,"is_reserved":false,"is_disabled":false,"rental_uris":{"android":"levelo://app?vid=d635b2e8-81a6-44c0-a78d-3e0c197583c7","ios":"levelo://app?vid=d635b2e8-81a6-44c0-a78d-3e0c197583c7"},"vehicle_type_id":"4","last_reported":1721851713,"current_range_meters":24800,"station_id":"ce4bgpp2rcd13ifvqc3g","pricing_plan_id":"cebpf4jnsgd1na2vs0mg"},{"bike_id":"26a44c11-70a3-4dba-b37a-78d754b0900c","system_id":"levelo_inurba_marseille","lat":43.29848,"lon":5.36283,"is_reserved":false,"is_disabled":false,"rental_uris":{"android":"levelo://app?vid=26a44c11-70a3-4dba-b37a-78d754b0900c","ios":"levelo://app?vid=26a44c11-70a3-4dba-b37a-78d754b0900c"},"vehicle_type_id":"4","last_reported":1721851713,"current_range_meters":13200,"station_id":"ce4bgpp2rcd13ifvqc3g","pricing_plan_id":"cebpf4jnsgd1na2vs0mg"},{"bike_id":"0cbd28e7-f07e-42da-bf96-0b8563870a67","system_id":"levelo_inurba_marseille","lat":43.29848,"lon":5.36281,"is_reserved":false,"is_disabled":false,"rental_uris":{"android":"levelo://app?vid=0cbd28e7-f07e-42da-bf96-0b8563870a67","ios":"levelo://app?vid=0cbd28e7-f07e-42da-bf96-0b8563870a67"},"vehicle_type_id":"4","last_reported":1721851713,"current_range_meters":27600,"station_id":"ce4bgpp2rcd13ifvqc3g","pricing_plan_id":"cebpf4jnsgd1na2vs0mg"},{"bike_id":"f772ccf4-aa02-463d-923c-7a0d0d4d3b42","system_id":"levelo_inurba_marseille","lat":43.29848,"lon":5.36278,"is_reserved":false,"is_disabled":false,"rental_uris":{"android":"levelo://app?vid=f772ccf4-aa02-463d-923c-7a0d0d4d3b42","ios":"levelo://app?vid=f772ccf4-aa02-463d-923c-7a0d0d4d3b42"},"vehicle_type_id":"4","last_reported":1721851713,"current_range_meters":17600,"station_id":"ce4bgpp2rcd13ifvqc3g","pricing_plan_id":"cebpf4jnsgd1na2vs0mg"},{"bike_id":"a796a956-86e4-4d13-8ce7-c277544c8a3c","system_id":"levelo_inurba_marseille","lat":43.29847,"lon":5.36282,"is_reserved":false,"is_disabled":false,"rental_uris":{"android":"levelo://app?vid=a796a956-86e4-4d13-8ce7-c277544c8a3c","ios":"levelo://app?vid=a796a956-86e4-4d13-8ce7-c277544c8a3c"},"vehicle_type_id":"4","last_reported":1721851713,"current_range_meters":3600,"station_id":"ce4bgpp2rcd13ifvqc3g","pricing_plan_id":"cebpf4jnsgd1na2vs0mg"},{"bike_id":"0cd99c39-c8e4-4de9-a40f-3964f610d4f5","system_id":"levelo_inurba_marseille","lat":43.305364,"lon":5.384119,"is_reserved":false,"is_disabled":false,"rental_uris":{"android":"levelo://app?vid=0cd99c39-c8e4-4de9-a40f-3964f610d4f5","ios":"levelo://app?vid=0cd99c39-c8e4-4de9-a40f-3964f610d4f5"},"vehicle_type_id":"4","last_reported":1721851713,"current_range_meters":0,"station_id":"ce4bgg92rcd13ifvqb30","pricing_plan_id":"cebpf4jnsgd1na2vs0mg"},{"bike_id":"5bd59441-8de3-47c1-a187-438672b98dd7","system_id":"levelo_inurba_marseille","lat":43.29848,"lon":5.36275,"is_reserved":false,"is_disabled":false,"rental_uris":{"android":"levelo://app?vid=5bd59441-8de3-47c1-a187-438672b98dd7","ios":"levelo://app?vid=5bd59441-8de3-47c1-a187-438672b98dd7"},"vehicle_type_id":"4","last_reported":1721851713,"current_range_meters":0,"station_id":"ce4bgpp2rcd13ifvqc3g","pricing_plan_id":"cebpf4jnsgd1na2vs0mg"},{"bike_id":"de0148d3-3449-4279-9d82-0ea96dc7364a","system_id":"levelo_inurba_marseille","lat":43.29846,"lon":5.36288,"is_reserved":false,"is_disabled":false,"rental_uris":{"android":"levelo://app?vid=de0148d3-3449-4279-9d82-0ea96dc7364a","ios":"levelo://app?vid=de0148d3-3449-4279-9d82-0ea96dc7364a"},"vehicle_type_id":"4","last_reported":1721851713,"current_range_meters":7600,"station_id":"ce4bgpp2rcd13ifvqc3g","pricing_plan_id":"cebpf4jnsgd1na2vs0mg"},{"bike_id":"21b847c5-488d-4fb3-9440-4f9ddf3b47f3","system_id":"levelo_inurba_marseille","lat":43.29847,"lon":5.36281,"is_reserved":false,"is_disabled":false,"rental_uris":{"android":"levelo://app?vid=21b847c5-488d-4fb3-9440-4f9ddf3b47f3","ios":"levelo://app?vid=21b847c5-488d-4fb3-9440-4f9ddf3b47f3"},"vehicle_type_id":"4","last_reported":1721851713,"current_range_meters":18800,"station_id":"ce4bgpp2rcd13ifvqc3g","pricing_plan_id":"cebpf4jnsgd1na2vs0mg"},{"bike_id":"a9650e18-3100-438d-b946-af855d441f29","system_id":"levelo_inurba_marseille","lat":43.29847,"lon":5.36281,"is_reserved":false,"is_disabled":false,"rental_uris":{"android":"levelo://app?vid=a9650e18-3100-438d-b946-af855d441f29","ios":"levelo://app?vid=a9650e18-3100-438d-b946-af855d441f29"},"vehicle_type_id":"4","last_reported":1721851713,"current_range_meters":17600,"station_id":"ce4bgpp2rcd13ifvqc3g","pricing_plan_id":"cebpf4jnsgd1na2vs0mg"},{"bike_id":"e3b791ef-42b9-4b6c-83c8-0f9316079aa2","system_id":"levelo_inurba_marseille","lat":43.29847,"lon":5.3628,"is_reserved":false,"is_disabled":false,"rental_uris":{"android":"levelo://app?vid=e3b791ef-42b9-4b6c-83c8-0f9316079aa2","ios":"levelo://app?vid=e3b791ef-42b9-4b6c-83c8-0f9316079aa2"},"vehicle_type_id":"4","last_reported":1721851713,"current_range_meters":27600,"station_id":"ce4bgpp2rcd13ifvqc3g","pricing_plan_id":"cebpf4jnsgd1na2vs0mg"},{"bike_id":"0a927a6e-c219-4a47-a15c-9abb29a434f5","system_id":"levelo_inurba_marseille","lat":43.29847,"lon":5.36276,"is_reserved":false,"is_disabled":false,"rental_uris":{"android":"levelo://app?vid=0a927a6e-c219-4a47-a15c-9abb29a434f5","ios":"levelo://app?vid=0a927a6e-c219-4a47-a15c-9abb29a434f5"},"vehicle_type_id":"4","last_reported":1721851713,"current_range_meters":26800,"station_id":"ce4bgpp2rcd13ifvqc3g","pricing_plan_id":"cebpf4jnsgd1na2vs0mg"},{"bike_id":"0160a3c4-d567-44c6-bb1b-e2533410b247","system_id":"levelo_inurba_marseille","lat":43.305364,"lon":5.384119,"is_reserved":false,"is_disabled":false,"rental_uris":{"android":"levelo://app?vid=0160a3c4-d567-44c6-bb1b-e2533410b247","ios":"levelo://app?vid=0160a3c4-d567-44c6-bb1b-e2533410b247"},"vehicle_type_id":"4","last_reported":1721851713,"current_range_meters":6400,"station_id":"ce4bgg92rcd13ifvqb30","pricing_plan_id":"cebpf4jnsgd1na2vs0mg"},{"bike_id":"a0a08f92-a10d-475d-a9af-888eae3f313a","system_id":"levelo_inurba_marseille","lat":43.29847,"lon":5.36275,"is_reserved":false,"is_disabled":false,"rental_uris":{"android":"levelo://app?vid=a0a08f92-a10d-475d-a9af-888eae3f313a","ios":"levelo://app?vid=a0a08f92-a10d-475d-a9af-888eae3f313a"},"vehicle_type_id":"4","last_reported":1721851713,"current_range_meters":25200,"station_id":"ce4bgpp2rcd13ifvqc3g","pricing_plan_id":"cebpf4jnsgd1na2vs0mg"},{"bike_id":"8cb54502-4e29-4a17-a393-01165898252b","system_id":"levelo_inurba_marseille","lat":43.29846,"lon":5.36276,"is_reserved":false,"is_disabled":false,"rental_uris":{"android":"levelo://app?vid=8cb54502-4e29-4a17-a393-01165898252b","ios":"levelo://app?vid=8cb54502-4e29-4a17-a393-01165898252b"},"vehicle_type_id":"4","last_reported":1721851713,"current_range_meters":11600,"station_id":"ce4bgpp2rcd13ifvqc3g","pricing_plan_id":"cebpf4jnsgd1na2vs0mg"},{"bike_id":"036175ab-f391-4db0-b7e8-2f5ba6e1bd00","system_id":"levelo_inurba_marseille","lat":43.29846,"lon":5.36275,"is_reserved":false,"is_disabled":false,"rental_uris":{"android":"levelo://app?vid=036175ab-f391-4db0-b7e8-2f5ba6e1bd00","ios":"levelo://app?vid=036175ab-f391-4db0-b7e8-2f5ba6e1bd00"},"vehicle_type_id":"4","last_reported":1721851713,"current_range_meters":29200,"station_id":"ce4bgpp2rcd13ifvqc3g","pricing_plan_id":"cebpf4jnsgd1na2vs0mg"},{"bike_id":"4768574b-59cb-494e-93d8-191cfac4624f","system_id":"levelo_inurba_marseille","lat":43.29846,"lon":5.36275,"is_reserved":false,"is_disabled":false,"rental_uris":{"android":"levelo://app?vid=4768574b-59cb-494e-93d8-191cfac4624f","ios":"levelo://app?vid=4768574b-59cb-494e-93d8-191cfac4624f"},"vehicle_type_id":"4","last_reported":1721851713,"current_range_meters":9200,"station_id":"ce4bgpp2rcd13ifvqc3g","pricing_plan_id":"cebpf4jnsgd1na2vs0mg"},{"bike_id":"24c09b0b-15c6-4108-b448-78431446a0d0","system_id":"levelo_inurba_marseille","lat":43.29846,"lon":5.36275,"is_reserved":false,"is_disabled":false,"rental_uris":{"android":"levelo://app?vid=24c09b0b-15c6-4108-b448-78431446a0d0","ios":"levelo://app?vid=24c09b0b-15c6-4108-b448-78431446a0d0"},"vehicle_type_id":"4","last_reported":1721851713,"current_range_meters":25200,"station_id":"ce4bgpp2rcd13ifvqc3g","pricing_plan_id":"cebpf4jnsgd1na2vs0mg"},{"bike_id":"26822c73-56ec-485a-8486-ec7e50e9a0b6","system_id":"levelo_inurba_marseille","lat":43.29847,"lon":5.36268,"is_reserved":false,"is_disabled":false,"rental_uris":{"android":"levelo://app?vid=26822c73-56ec-485a-8486-ec7e50e9a0b6","ios":"levelo://app?vid=26822c73-56ec-485a-8486-ec7e50e9a0b6"},"vehicle_type_id":"4","last_reported":1721851713,"current_range_meters":20400,"station_id":"ce4bgpp2rcd13ifvqc3g","pricing_plan_id":"cebpf4jnsgd1na2vs0mg"},{"bike_id":"2445bc67-e8ef-4bb0-aa6a-2e2f775f3949","system_id":"levelo_inurba_marseille","lat":43.29845,"lon":5.36279,"is_reserved":false,"is_disabled":false,"rental_uris":{"android":"levelo://app?vid=2445bc67-e8ef-4bb0-aa6a-2e2f775f3949","ios":"levelo://app?vid=2445bc67-e8ef-4bb0-aa6a-2e2f775f3949"},"vehicle_type_id":"4","last_reported":1721851713,"current_range_meters":31200,"station_id":"ce4bgpp2rcd13ifvqc3g","pricing_plan_id":"cebpf4jnsgd1na2vs0mg"},{"bike_id":"ccf64fdd-0283-4d13-97e6-ea14eb2e02fb","system_id":"levelo_inurba_marseille","lat":43.29846,"lon":5.36271,"is_reserved":false,"is_disabled":false,"rental_uris":{"android":"levelo://app?vid=ccf64fdd-0283-4d13-97e6-ea14eb2e02fb","ios":"levelo://app?vid=ccf64fdd-0283-4d13-97e6-ea14eb2e02fb"},"vehicle_type_id":"4","last_reported":1721851713,"current_range_meters":0,"station_id":"ce4bgpp2rcd13ifvqc3g","pricing_plan_id":"cebpf4jnsgd1na2vs0mg"},{"bike_id":"be46b550-b1bb-47ac-b43c-d90f4cfa4303","system_id":"levelo_inurba_marseille","lat":43.29845,"lon":5.36275,"is_reserved":false,"is_disabled":false,"rental_uris":{"android":"levelo://app?vid=be46b550-b1bb-47ac-b43c-d90f4cfa4303","ios":"levelo://app?vid=be46b550-b1bb-47ac-b43c-d90f4cfa4303"},"vehicle_type_id":"4","last_reported":1721851713,"current_range_meters":800,"station_id":"ce4bgpp2rcd13ifvqc3g","pricing_plan_id":"cebpf4jnsgd1na2vs0mg"},{"bike_id":"9db2e399-b113-40ee-9869-3ec3f54119b2","system_id":"levelo_inurba_marseille","lat":43.29845,"lon":5.36275,"is_reserved":false,"is_disabled":false,"rental_uris":{"android":"levelo://app?vid=9db2e399-b113-40ee-9869-3ec3f54119b2","ios":"levelo://app?vid=9db2e399-b113-40ee-9869-3ec3f54119b2"},"vehicle_type_id":"4","last_reported":1721851713,"current_range_meters":0,"station_id":"ce4bgpp2rcd13ifvqc3g","pricing_plan_id":"cebpf4jnsgd1na2vs0mg"},{"bike_id":"e49e4a89-c1fa-409f-bbff-f19df4be6c30","system_id":"levelo_inurba_marseille","lat":43.29845,"lon":5.36274,"is_reserved":false,"is_disabled":false,"rental_uris":{"android":"levelo://app?vid=e49e4a89-c1fa-409f-bbff-f19df4be6c30","ios":"levelo://app?vid=e49e4a89-c1fa-409f-bbff-f19df4be6c30"},"vehicle_type_id":"4","last_reported":1721851713,"current_range_meters":21600,"station_id":"ce4bgpp2rcd13ifvqc3g","pricing_plan_id":"cebpf4jnsgd1na2vs0mg"},{"bike_id":"3a89da03-94ba-4d50-afd0-a84cf7a88316","system_id":"levelo_inurba_marseille","lat":43.29845,"lon":5.36274,"is_reserved":false,"is_disabled":false,"rental_uris":{"android":"levelo://app?vid=3a89da03-94ba-4d50-afd0-a84cf7a88316","ios":"levelo://app?vid=3a89da03-94ba-4d50-afd0-a84cf7a88316"},"vehicle_type_id":"4","last_reported":1721851713,"current_range_meters":29600,"station_id":"ce4bgpp2rcd13ifvqc3g","pricing_plan_id":"cebpf4jnsgd1na2vs0mg"},{"bike_id":"5bf79712-e3fd-4bef-89b1-51c373c2257e","system_id":"levelo_inurba_marseille","lat":43.29845,"lon":5.36273,"is_reserved":false,"is_disabled":false,"rental_uris":{"android":"levelo://app?vid=5bf79712-e3fd-4bef-89b1-51c373c2257e","ios":"levelo://app?vid=5bf79712-e3fd-4bef-89b1-51c373c2257e"},"vehicle_type_id":"4","last_reported":1721851713,"current_range_meters":29600,"station_id":"ce4bgpp2rcd13ifvqc3g","pricing_plan_id":"cebpf4jnsgd1na2vs0mg"},{"bike_id":"50ac6b93-570f-4eb6-bafd-3dc9e2b3296d","system_id":"levelo_inurba_marseille","lat":43.29845,"lon":5.36272,"is_reserved":false,"is_disabled":false,"rental_uris":{"android":"levelo://app?vid=50ac6b93-570f-4eb6-bafd-3dc9e2b3296d","ios":"levelo://app?vid=50ac6b93-570f-4eb6-bafd-3dc9e2b3296d"},"vehicle_type_id":"4","last_reported":1721851713,"current_range_meters":19600,"station_id":"ce4bgpp2rcd13ifvqc3g","pricing_plan_id":"cebpf4jnsgd1na2vs0mg"},{"bike_id":"7fb72e4a-1b90-4e88-8fae-5b4ffd26ed14","system_id":"levelo_inurba_marseille","lat":43.29845,"lon":5.36272,"is_reserved":false,"is_disabled":false,"rental_uris":{"android":"levelo://app?vid=7fb72e4a-1b90-4e88-8fae-5b4ffd26ed14","ios":"levelo://app?vid=7fb72e4a-1b90-4e88-8fae-5b4ffd26ed14"},"vehicle_type_id":"4","last_reported":1721851713,"current_range_meters":11600,"station_id":"ce4bgpp2rcd13ifvqc3g","pricing_plan_id":"cebpf4jnsgd1na2vs0mg"},{"bike_id":"09905da1-1510-4bf6-a981-f80096a2b5dd","system_id":"levelo_inurba_marseille","lat":43.29845,"lon":5.36271,"is_reserved":false,"is_disabled":false,"rental_uris":{"android":"levelo://app?vid=09905da1-1510-4bf6-a981-f80096a2b5dd","ios":"levelo://app?vid=09905da1-1510-4bf6-a981-f80096a2b5dd"},"vehicle_type_id":"4","last_reported":1721851713,"current_range_meters":2400,"station_id":"ce4bgpp2rcd13ifvqc3g","pricing_plan_id":"cebpf4jnsgd1na2vs0mg"},{"bike_id":"ad3beae2-ed55-499c-9740-8311cbc94926","system_id":"levelo_inurba_marseille","lat":43.29844,"lon":5.36273,"is_reserved":false,"is_disabled":false,"rental_uris":{"android":"levelo://app?vid=ad3beae2-ed55-499c-9740-8311cbc94926","ios":"levelo://app?vid=ad3beae2-ed55-499c-9740-8311cbc94926"},"vehicle_type_id":"4","last_reported":1721851713,"current_range_meters":28400,"station_id":"ce4bgpp2rcd13ifvqc3g","pricing_plan_id":"cebpf4jnsgd1na2vs0mg"},{"bike_id":"0f99cc03-d03d-4b7f-9c6e-29deb35ae968","system_id":"levelo_inurba_marseille","lat":43.29844,"lon":5.36271,"is_reserved":false,"is_disabled":false,"rental_uris":{"android":"levelo://app?vid=0f99cc03-d03d-4b7f-9c6e-29deb35ae968","ios":"levelo://app?vid=0f99cc03-d03d-4b7f-9c6e-29deb35ae968"},"vehicle_type_id":"4","last_reported":1721851713,"current_range_meters":800,"station_id":"ce4bgpp2rcd13ifvqc3g","pricing_plan_id":"cebpf4jnsgd1na2vs0mg"},{"bike_id":"a6e9d9d2-b9c5-42fc-816a-2a8725d10ef9","system_id":"levelo_inurba_marseille","lat":43.29844,"lon":5.3627,"is_reserved":false,"is_disabled":false,"rental_uris":{"android":"levelo://app?vid=a6e9d9d2-b9c5-42fc-816a-2a8725d10ef9","ios":"levelo://app?vid=a6e9d9d2-b9c5-42fc-816a-2a8725d10ef9"},"vehicle_type_id":"4","last_reported":1721851713,"current_range_meters":5200,"station_id":"ce4bgpp2rcd13ifvqc3g","pricing_plan_id":"cebpf4jnsgd1na2vs0mg"},{"bike_id":"4bcb86ca-d497-45a7-9605-b080ce582c6d","system_id":"levelo_inurba_marseille","lat":43.299243,"lon":5.374807,"is_reserved":false,"is_disabled":false,"rental_uris":{"android":"levelo://app?vid=4bcb86ca-d497-45a7-9605-b080ce582c6d","ios":"levelo://app?vid=4bcb86ca-d497-45a7-9605-b080ce582c6d"},"vehicle_type_id":"4","last_reported":1721851713,"current_range_meters":14400,"station_id":"ce4bgjh2rcd13ifvqbg0","pricing_plan_id":"cebpf4jnsgd1na2vs0mg"},{"bike_id":"a24b35ca-99c6-455d-be80-fb0797e8511d","system_id":"levelo_inurba_marseille","lat":43.298433,"lon":5.362774,"is_reserved":false,"is_disabled":false,"rental_uris":{"android":"levelo://app?vid=a24b35ca-99c6-455d-be80-fb0797e8511d","ios":"levelo://app?vid=a24b35ca-99c6-455d-be80-fb0797e8511d"},"vehicle_type_id":"4","last_reported":1721851713,"current_range_meters":21200,"station_id":"ce4bgpp2rcd13ifvqc3g","pricing_plan_id":"cebpf4jnsgd1na2vs0mg"},{"bike_id":"f9dd0716-d95f-4533-b079-0647629982d1","system_id":"levelo_inurba_marseille","lat":43.298433,"lon":5.362774,"is_reserved":false,"is_disabled":false,"rental_uris":{"android":"levelo://app?vid=f9dd0716-d95f-4533-b079-0647629982d1","ios":"levelo://app?vid=f9dd0716-d95f-4533-b079-0647629982d1"},"vehicle_type_id":"4","last_reported":1721851713,"current_range_meters":31200,"station_id":"ce4bgpp2rcd13ifvqc3g","pricing_plan_id":"cebpf4jnsgd1na2vs0mg"},{"bike_id":"eaa4416e-d651-4cc6-b6f8-34017925788e","system_id":"levelo_inurba_marseille","lat":43.29842,"lon":5.36273,"is_reserved":false,"is_disabled":false,"rental_uris":{"android":"levelo://app?vid=eaa4416e-d651-4cc6-b6f8-34017925788e","ios":"levelo://app?vid=eaa4416e-d651-4cc6-b6f8-34017925788e"},"vehicle_type_id":"4","last_reported":1721851713,"current_range_meters":7200,"station_id":"ce4bgpp2rcd13ifvqc3g","pricing_plan_id":"cebpf4jnsgd1na2vs0mg"},{"bike_id":"9d574e47-7c88-4322-ac3a-0bb2d97cd515","system_id":"levelo_inurba_marseille","lat":43.29843,"lon":5.36266,"is_reserved":false,"is_disabled":false,"rental_uris":{"android":"levelo://app?vid=9d574e47-7c88-4322-ac3a-0bb2d97cd515","ios":"levelo://app?vid=9d574e47-7c88-4322-ac3a-0bb2d97cd515"},"vehicle_type_id":"4","last_reported":1721851713,"current_range_meters":4800,"station_id":"ce4bgpp2rcd13ifvqc3g","pricing_plan_id":"cebpf4jnsgd1na2vs0mg"},{"bike_id":"50428e93-f1b2-46c8-9acb-5086a7495c3f","system_id":"levelo_inurba_marseille","lat":43.2984,"lon":5.36284,"is_reserved":false,"is_disabled":false,"rental_uris":{"android":"levelo://app?vid=50428e93-f1b2-46c8-9acb-5086a7495c3f","ios":"levelo://app?vid=50428e93-f1b2-46c8-9acb-5086a7495c3f"},"vehicle_type_id":"4","last_reported":1721851713,"current_range_meters":30800,"station_id":"ce4bgpp2rcd13ifvqc3g","pricing_plan_id":"cebpf4jnsgd1na2vs0mg"},{"bike_id":"7484b382-04aa-4434-938c-509157d17e63","system_id":"levelo_inurba_marseille","lat":43.305364,"lon":5.384119,"is_reserved":false,"is_disabled":false,"rental_uris":{"android":"levelo://app?vid=7484b382-04aa-4434-938c-509157d17e63","ios":"levelo://app?vid=7484b382-04aa-4434-938c-509157d17e63"},"vehicle_type_id":"4","last_reported":1721851713,"current_range_meters":24400,"station_id":"ce4bgg92rcd13ifvqb30","pricing_plan_id":"cebpf4jnsgd1na2vs0mg"},{"bike_id":"95f6ab04-b95b-48a0-9509-0ab9f5352dd6","system_id":"levelo_inurba_marseille","lat":43.298433,"lon":5.362774,"is_reserved":false,"is_disabled":false,"rental_uris":{"android":"levelo://app?vid=95f6ab04-b95b-48a0-9509-0ab9f5352dd6","ios":"levelo://app?vid=95f6ab04-b95b-48a0-9509-0ab9f5352dd6"},"vehicle_type_id":"4","last_reported":1721851713,"current_range_meters":13200,"station_id":"ce4bgpp2rcd13ifvqc3g","pricing_plan_id":"cebpf4jnsgd1na2vs0mg"},{"bike_id":"bf406ff6-7fde-4f4f-be76-572165eb1963","system_id":"levelo_inurba_marseille","lat":43.298433,"lon":5.362774,"is_reserved":false,"is_disabled":false,"rental_uris":{"android":"levelo://app?vid=bf406ff6-7fde-4f4f-be76-572165eb1963","ios":"levelo://app?vid=bf406ff6-7fde-4f4f-be76-572165eb1963"},"vehicle_type_id":"4","last_reported":1721851713,"current_range_meters":31200,"station_id":"ce4bgpp2rcd13ifvqc3g","pricing_plan_id":"cebpf4jnsgd1na2vs0mg"},{"bike_id":"79d9ae94-41e0-4b12-9a15-bf5e7660b6e2","system_id":"levelo_inurba_marseille","lat":43.29841,"lon":5.36265,"is_reserved":false,"is_disabled":false,"rental_uris":{"android":"levelo://app?vid=79d9ae94-41e0-4b12-9a15-bf5e7660b6e2","ios":"levelo://app?vid=79d9ae94-41e0-4b12-9a15-bf5e7660b6e2"},"vehicle_type_id":"4","last_reported":1721851713,"current_range_meters":12000,"station_id":"ce4bgpp2rcd13ifvqc3g","pricing_plan_id":"cebpf4jnsgd1na2vs0mg"},{"bike_id":"98a5380c-edb7-4b98-99b5-fd6af2782867","system_id":"levelo_inurba_marseille","lat":43.298433,"lon":5.362774,"is_reserved":false,"is_disabled":false,"rental_uris":{"android":"levelo://app?vid=98a5380c-edb7-4b98-99b5-fd6af2782867","ios":"levelo://app?vid=98a5380c-edb7-4b98-99b5-fd6af2782867"},"vehicle_type_id":"4","last_reported":1721851713,"current_range_meters":31200,"station_id":"ce4bgpp2rcd13ifvqc3g","pricing_plan_id":"cebpf4jnsgd1na2vs0mg"},{"bike_id":"c7534fbd-f12e-4376-96c5-75fdd3a8575b","system_id":"levelo_inurba_marseille","lat":43.29839,"lon":5.36263,"is_reserved":false,"is_disabled":false,"rental_uris":{"android":"levelo://app?vid=c7534fbd-f12e-4376-96c5-75fdd3a8575b","ios":"levelo://app?vid=c7534fbd-f12e-4376-96c5-75fdd3a8575b"},"vehicle_type_id":"4","last_reported":1721851713,"current_range_meters":31200,"station_id":"ce4bgpp2rcd13ifvqc3g","pricing_plan_id":"cebpf4jnsgd1na2vs0mg"},{"bike_id":"6e3465e2-48eb-4917-8c7a-de674200d268","system_id":"levelo_inurba_marseille","lat":43.31174,"lon":5.38709,"is_reserved":false,"is_disabled":false,"rental_uris":{"android":"levelo://app?vid=6e3465e2-48eb-4917-8c7a-de674200d268","ios":"levelo://app?vid=6e3465e2-48eb-4917-8c7a-de674200d268"},"vehicle_type_id":"4","last_reported":1721851713,"current_range_meters":4800,"station_id":"ce4bgv12rcd13ifvqcp0","pricing_plan_id":"cebpf4jnsgd1na2vs0mg"},{"bike_id":"605f1d3c-0113-46de-ab72-d6b1e7c526f9","system_id":"levelo_inurba_marseille","lat":43.29837,"lon":5.36262,"is_reserved":false,"is_disabled":false,"rental_uris":{"android":"levelo://app?vid=605f1d3c-0113-46de-ab72-d6b1e7c526f9","ios":"levelo://app?vid=605f1d3c-0113-46de-ab72-d6b1e7c526f9"},"vehicle_type_id":"4","last_reported":1721851713,"current_range_meters":31200,"station_id":"ce4bgpp2rcd13ifvqc3g","pricing_plan_id":"cebpf4jnsgd1na2vs0mg"},{"bike_id":"5243f123-932d-47a0-870e-bdf1dc633921","system_id":"levelo_inurba_marseille","lat":43.298433,"lon":5.362774,"is_reserved":false,"is_disabled":false,"rental_uris":{"android":"levelo://app?vid=5243f123-932d-47a0-870e-bdf1dc633921","ios":"levelo://app?vid=5243f123-932d-47a0-870e-bdf1dc633921"},"vehicle_type_id":"4","last_reported":1721851713,"current_range_meters":30400,"station_id":"ce4bgpp2rcd13ifvqc3g","pricing_plan_id":"cebpf4jnsgd1na2vs0mg"},{"bike_id":"9a13cda5-a753-4cc5-bdc5-c99d17aa76ab","system_id":"levelo_inurba_marseille","lat":43.299243,"lon":5.37481,"is_reserved":false,"is_disabled":false,"rental_uris":{"android":"levelo://app?vid=9a13cda5-a753-4cc5-bdc5-c99d17aa76ab","ios":"levelo://app?vid=9a13cda5-a753-4cc5-bdc5-c99d17aa76ab"},"vehicle_type_id":"4","last_reported":1721851713,"current_range_meters":21600,"station_id":"ce4bgjh2rcd13ifvqbg0","pricing_plan_id":"cebpf4jnsgd1na2vs0mg"},{"bike_id":"45191ba5-6258-41d9-abec-0bc0a67d0235","system_id":"levelo_inurba_marseille","lat":43.31164,"lon":5.38713,"is_reserved":false,"is_disabled":false,"rental_uris":{"android":"levelo://app?vid=45191ba5-6258-41d9-abec-0bc0a67d0235","ios":"levelo://app?vid=45191ba5-6258-41d9-abec-0bc0a67d0235"},"vehicle_type_id":"4","last_reported":1721851713,"current_range_meters":27600,"station_id":"ce4bgv12rcd13ifvqcp0","pricing_plan_id":"cebpf4jnsgd1na2vs0mg"},{"bike_id":"d309610f-021d-4e58-9d7c-506a42235971","system_id":"levelo_inurba_marseille","lat":43.31176,"lon":5.38715,"is_reserved":false,"is_disabled":false,"rental_uris":{"android":"levelo://app?vid=d309610f-021d-4e58-9d7c-506a42235971","ios":"levelo://app?vid=d309610f-021d-4e58-9d7c-506a42235971"},"vehicle_type_id":"4","last_reported":1721851713,"current_range_meters":12800,"station_id":"ce4bgv12rcd13ifvqcp0","pricing_plan_id":"cebpf4jnsgd1na2vs0mg"},{"bike_id":"6870b29e-f004-43b3-b593-0c1b717f633e","system_id":"levelo_inurba_marseille","lat":43.299243,"lon":5.37481,"is_reserved":false,"is_disabled":false,"rental_uris":{"android":"levelo://app?vid=6870b29e-f004-43b3-b593-0c1b717f633e","ios":"levelo://app?vid=6870b29e-f004-43b3-b593-0c1b717f633e"},"vehicle_type_id":"4","last_reported":1721851713,"current_range_meters":31600,"station_id":"ce4bgjh2rcd13ifvqbg0","pricing_plan_id":"cebpf4jnsgd1na2vs0mg"},{"bike_id":"ac7ae2e6-058a-48e8-a1e0-a454776eb1c9","system_id":"levelo_inurba_marseille","lat":43.31162,"lon":5.38716,"is_reserved":false,"is_disabled":false,"rental_uris":{"android":"levelo://app?vid=ac7ae2e6-058a-48e8-a1e0-a454776eb1c9","ios":"levelo://app?vid=ac7ae2e6-058a-48e8-a1e0-a454776eb1c9"},"vehicle_type_id":"4","last_reported":1721851713,"current_range_meters":31200,"station_id":"ce4bgv12rcd13ifvqcp0","pricing_plan_id":"cebpf4jnsgd1na2vs0mg"},{"bike_id":"f18edafd-8238-4d30-85a3-b9dc4f05a4ee","system_id":"levelo_inurba_marseille","lat":43.3116,"lon":5.38717,"is_reserved":false,"is_disabled":false,"rental_uris":{"android":"levelo://app?vid=f18edafd-8238-4d30-85a3-b9dc4f05a4ee","ios":"levelo://app?vid=f18edafd-8238-4d30-85a3-b9dc4f05a4ee"},"vehicle_type_id":"4","last_reported":1721851713,"current_range_meters":24800,"station_id":"ce4bgv12rcd13ifvqcp0","pricing_plan_id":"cebpf4jnsgd1na2vs0mg"},{"bike_id":"5ac7629e-c941-4880-b3b3-ebbb95d6f13e","system_id":"levelo_inurba_marseille","lat":43.31167,"lon":5.38718,"is_reserved":false,"is_disabled":false,"rental_uris":{"android":"levelo://app?vid=5ac7629e-c941-4880-b3b3-ebbb95d6f13e","ios":"levelo://app?vid=5ac7629e-c941-4880-b3b3-ebbb95d6f13e"},"vehicle_type_id":"4","last_reported":1721851713,"current_range_meters":31200,"station_id":"ce4bgv12rcd13ifvqcp0","pricing_plan_id":"cebpf4jnsgd1na2vs0mg"},{"bike_id":"db3646e0-8364-43d5-b93e-5ff3b1742f42","system_id":"levelo_inurba_marseille","lat":43.31167,"lon":5.38723,"is_reserved":false,"is_disabled":false,"rental_uris":{"android":"levelo://app?vid=db3646e0-8364-43d5-b93e-5ff3b1742f42","ios":"levelo://app?vid=db3646e0-8364-43d5-b93e-5ff3b1742f42"},"vehicle_type_id":"4","last_reported":1721851713,"current_range_meters":22000,"station_id":"ce4bgv12rcd13ifvqcp0","pricing_plan_id":"cebpf4jnsgd1na2vs0mg"},{"bike_id":"dc682b10-00b1-4e30-acb7-59a35500fd81","system_id":"levelo_inurba_marseille","lat":43.297794,"lon":5.370888,"is_reserved":false,"is_disabled":false,"rental_uris":{"android":"levelo://app?vid=dc682b10-00b1-4e30-acb7-59a35500fd81","ios":"levelo://app?vid=dc682b10-00b1-4e30-acb7-59a35500fd81"},"vehicle_type_id":"4","last_reported":1721851713,"current_range_meters":0,"station_id":"ce4bgop2rcd13ifvqc1g","pricing_plan_id":"cebpf4jnsgd1na2vs0mg"},{"bike_id":"b0bf8f0f-0720-4145-9d5e-f01c9ea1ed8f","system_id":"levelo_inurba_marseille","lat":43.297794,"lon":5.370888,"is_reserved":false,"is_disabled":false,"rental_uris":{"android":"levelo://app?vid=b0bf8f0f-0720-4145-9d5e-f01c9ea1ed8f","ios":"levelo://app?vid=b0bf8f0f-0720-4145-9d5e-f01c9ea1ed8f"},"vehicle_type_id":"4","last_reported":1721851713,"current_range_meters":3600,"station_id":"ce4bgop2rcd13ifvqc1g","pricing_plan_id":"cebpf4jnsgd1na2vs0mg"},{"bike_id":"bbd6c10f-5ff9-45e9-8eea-3297569eeb4d","system_id":"levelo_inurba_marseille","lat":43.297774,"lon":5.370875,"is_reserved":false,"is_disabled":false,"rental_uris":{"android":"levelo://app?vid=bbd6c10f-5ff9-45e9-8eea-3297569eeb4d","ios":"levelo://app?vid=bbd6c10f-5ff9-45e9-8eea-3297569eeb4d"},"vehicle_type_id":"4","last_reported":1721851713,"current_range_meters":28000,"station_id":"ce4bgop2rcd13ifvqc1g","pricing_plan_id":"cebpf4jnsgd1na2vs0mg"},{"bike_id":"75af61f3-de1e-4ddd-b60f-cd5459478d18","system_id":"levelo_inurba_marseille","lat":43.297774,"lon":5.370875,"is_reserved":false,"is_disabled":false,"rental_uris":{"android":"levelo://app?vid=75af61f3-de1e-4ddd-b60f-cd5459478d18","ios":"levelo://app?vid=75af61f3-de1e-4ddd-b60f-cd5459478d18"},"vehicle_type_id":"4","last_reported":1721851713,"current_range_meters":24400,"station_id":"ce4bgop2rcd13ifvqc1g","pricing_plan_id":"cebpf4jnsgd1na2vs0mg"},{"bike_id":"b175610a-4c59-44ad-a3af-c3e4b597556f","system_id":"levelo_inurba_marseille","lat":43.32281,"lon":5.3827,"is_reserved":false,"is_disabled":false,"rental_uris":{"android":"levelo://app?vid=b175610a-4c59-44ad-a3af-c3e4b597556f","ios":"levelo://app?vid=b175610a-4c59-44ad-a3af-c3e4b597556f"},"vehicle_type_id":"4","last_reported":1721851713,"current_range_meters":17200,"station_id":"ce4bhr12rcd13ifvqhqg","pricing_plan_id":"cebpf4jnsgd1na2vs0mg"},{"bike_id":"c35b388e-e3c9-4fcc-91b7-5672aa48325d","system_id":"levelo_inurba_marseille","lat":43.32299,"lon":5.38262,"is_reserved":false,"is_disabled":false,"rental_uris":{"android":"levelo://app?vid=c35b388e-e3c9-4fcc-91b7-5672aa48325d","ios":"levelo://app?vid=c35b388e-e3c9-4fcc-91b7-5672aa48325d"},"vehicle_type_id":"4","last_reported":1721851713,"current_range_meters":18400,"station_id":"ce4bhr12rcd13ifvqhqg","pricing_plan_id":"cebpf4jnsgd1na2vs0mg"},{"bike_id":"79466265-8a5d-45de-98cd-c1f1eab5f08e","system_id":"levelo_inurba_marseille","lat":43.297163,"lon":5.365866,"is_reserved":false,"is_disabled":false,"rental_uris":{"android":"levelo://app?vid=79466265-8a5d-45de-98cd-c1f1eab5f08e","ios":"levelo://app?vid=79466265-8a5d-45de-98cd-c1f1eab5f08e"},"vehicle_type_id":"4","last_reported":1721851713,"current_range_meters":28400,"station_id":"ce4bgn12rcd13ifvqbt0","pricing_plan_id":"cebpf4jnsgd1na2vs0mg"},{"bike_id":"1e7990d7-a91c-4940-8283-33e0eaf5f459","system_id":"levelo_inurba_marseille","lat":43.297163,"lon":5.365866,"is_reserved":false,"is_disabled":false,"rental_uris":{"android":"levelo://app?vid=1e7990d7-a91c-4940-8283-33e0eaf5f459","ios":"levelo://app?vid=1e7990d7-a91c-4940-8283-33e0eaf5f459"},"vehicle_type_id":"4","last_reported":1721851713,"current_range_meters":6800,"station_id":"ce4bgn12rcd13ifvqbt0","pricing_plan_id":"cebpf4jnsgd1na2vs0mg"},{"bike_id":"4ce8e85c-4bf4-46e2-809d-7743e8364abe","system_id":"levelo_inurba_marseille","lat":43.297163,"lon":5.365866,"is_reserved":false,"is_disabled":false,"rental_uris":{"android":"levelo://app?vid=4ce8e85c-4bf4-46e2-809d-7743e8364abe","ios":"levelo://app?vid=4ce8e85c-4bf4-46e2-809d-7743e8364abe"},"vehicle_type_id":"4","last_reported":1721851713,"current_range_meters":6000,"station_id":"ce4bgn12rcd13ifvqbt0","pricing_plan_id":"cebpf4jnsgd1na2vs0mg"},{"bike_id":"1cf1bc4b-4cd1-4c2c-a567-157123457bb2","system_id":"levelo_inurba_marseille","lat":43.297163,"lon":5.365866,"is_reserved":false,"is_disabled":false,"rental_uris":{"android":"levelo://app?vid=1cf1bc4b-4cd1-4c2c-a567-157123457bb2","ios":"levelo://app?vid=1cf1bc4b-4cd1-4c2c-a567-157123457bb2"},"vehicle_type_id":"4","last_reported":1721851713,"current_range_meters":16400,"station_id":"ce4bgn12rcd13ifvqbt0","pricing_plan_id":"cebpf4jnsgd1na2vs0mg"},{"bike_id":"14541d82-ca7b-4f40-bf1b-40c3a0eb5108","system_id":"levelo_inurba_marseille","lat":43.297163,"lon":5.365866,"is_reserved":false,"is_disabled":false,"rental_uris":{"android":"levelo://app?vid=14541d82-ca7b-4f40-bf1b-40c3a0eb5108","ios":"levelo://app?vid=14541d82-ca7b-4f40-bf1b-40c3a0eb5108"},"vehicle_type_id":"4","last_reported":1721851713,"current_range_meters":31200,"station_id":"ce4bgn12rcd13ifvqbt0","pricing_plan_id":"cebpf4jnsgd1na2vs0mg"},{"bike_id":"b4b25b3b-8de4-47b1-888d-0f27278f23bb","system_id":"levelo_inurba_marseille","lat":43.29573,"lon":5.367355,"is_reserved":false,"is_disabled":false,"rental_uris":{"android":"levelo://app?vid=b4b25b3b-8de4-47b1-888d-0f27278f23bb","ios":"levelo://app?vid=b4b25b3b-8de4-47b1-888d-0f27278f23bb"},"vehicle_type_id":"4","last_reported":1721851713,"current_range_meters":19600,"station_id":"ce4bgph2rcd13ifvqc2g","pricing_plan_id":"cebpf4jnsgd1na2vs0mg"},{"bike_id":"57645457-8568-4dad-965b-beb2f81afb31","system_id":"levelo_inurba_marseille","lat":43.296129,"lon":5.370777,"is_reserved":false,"is_disabled":false,"rental_uris":{"android":"levelo://app?vid=57645457-8568-4dad-965b-beb2f81afb31","ios":"levelo://app?vid=57645457-8568-4dad-965b-beb2f81afb31"},"vehicle_type_id":"4","last_reported":1721851713,"current_range_meters":1200,"station_id":"ce4bgnh2rcd13ifvqc0g","pricing_plan_id":"cebpf4jnsgd1na2vs0mg"},{"bike_id":"5cf560c2-87ca-47d8-a3cb-b44e0c0c0af8","system_id":"levelo_inurba_marseille","lat":43.296131,"lon":5.370791,"is_reserved":false,"is_disabled":false,"rental_uris":{"android":"levelo://app?vid=5cf560c2-87ca-47d8-a3cb-b44e0c0c0af8","ios":"levelo://app?vid=5cf560c2-87ca-47d8-a3cb-b44e0c0c0af8"},"vehicle_type_id":"4","last_reported":1721851713,"current_range_meters":20400,"station_id":"ce4bgnh2rcd13ifvqc0g","pricing_plan_id":"cebpf4jnsgd1na2vs0mg"},{"bike_id":"bd9f43fd-9572-414d-b884-3109fb7b2109","system_id":"levelo_inurba_marseille","lat":43.29584,"lon":5.36739,"is_reserved":false,"is_disabled":false,"rental_uris":{"android":"levelo://app?vid=bd9f43fd-9572-414d-b884-3109fb7b2109","ios":"levelo://app?vid=bd9f43fd-9572-414d-b884-3109fb7b2109"},"vehicle_type_id":"4","last_reported":1721851713,"current_range_meters":20000,"station_id":"ce4bgph2rcd13ifvqc2g","pricing_plan_id":"cebpf4jnsgd1na2vs0mg"},{"bike_id":"a75a96c6-9947-4ed2-80e3-cc6d1eabc7d5","system_id":"levelo_inurba_marseille","lat":43.29582,"lon":5.36734,"is_reserved":false,"is_disabled":false,"rental_uris":{"android":"levelo://app?vid=a75a96c6-9947-4ed2-80e3-cc6d1eabc7d5","ios":"levelo://app?vid=a75a96c6-9947-4ed2-80e3-cc6d1eabc7d5"},"vehicle_type_id":"4","last_reported":1721851713,"current_range_meters":31200,"station_id":"ce4bgph2rcd13ifvqc2g","pricing_plan_id":"cebpf4jnsgd1na2vs0mg"},{"bike_id":"ec203a6c-7106-476c-9f98-7809d0f4f13f","system_id":"levelo_inurba_marseille","lat":43.29582,"lon":5.3674,"is_reserved":false,"is_disabled":false,"rental_uris":{"android":"levelo://app?vid=ec203a6c-7106-476c-9f98-7809d0f4f13f","ios":"levelo://app?vid=ec203a6c-7106-476c-9f98-7809d0f4f13f"},"vehicle_type_id":"4","last_reported":1721851713,"current_range_meters":27200,"station_id":"ce4bgph2rcd13ifvqc2g","pricing_plan_id":"cebpf4jnsgd1na2vs0mg"},{"bike_id":"40bfca3d-23a8-424e-9258-8af00217fca8","system_id":"levelo_inurba_marseille","lat":43.29581,"lon":5.36741,"is_reserved":false,"is_disabled":false,"rental_uris":{"android":"levelo://app?vid=40bfca3d-23a8-424e-9258-8af00217fca8","ios":"levelo://app?vid=40bfca3d-23a8-424e-9258-8af00217fca8"},"vehicle_type_id":"4","last_reported":1721851713,"current_range_meters":30000,"station_id":"ce4bgph2rcd13ifvqc2g","pricing_plan_id":"cebpf4jnsgd1na2vs0mg"},{"bike_id":"f79a677a-3fe9-49e4-94d7-bbbc037e4113","system_id":"levelo_inurba_marseille","lat":43.29577,"lon":5.36731,"is_reserved":false,"is_disabled":false,"rental_uris":{"android":"levelo://app?vid=f79a677a-3fe9-49e4-94d7-bbbc037e4113","ios":"levelo://app?vid=f79a677a-3fe9-49e4-94d7-bbbc037e4113"},"vehicle_type_id":"4","last_reported":1721851713,"current_range_meters":18400,"station_id":"ce4bgph2rcd13ifvqc2g","pricing_plan_id":"cebpf4jnsgd1na2vs0mg"},{"bike_id":"1ecf0e5f-6455-40c8-8376-d5372c18dcb9","system_id":"levelo_inurba_marseille","lat":43.299028,"lon":5.381509,"is_reserved":false,"is_disabled":false,"rental_uris":{"android":"levelo://app?vid=1ecf0e5f-6455-40c8-8376-d5372c18dcb9","ios":"levelo://app?vid=1ecf0e5f-6455-40c8-8376-d5372c18dcb9"},"vehicle_type_id":"4","last_reported":1721851713,"current_range_meters":10000,"station_id":"ce4bgj12rcd13ifvqbc0","pricing_plan_id":"cebpf4jnsgd1na2vs0mg"},{"bike_id":"fded1323-c0e5-4519-8a13-d6afc9049fa3","system_id":"levelo_inurba_marseille","lat":43.296935,"lon":5.376544,"is_reserved":false,"is_disabled":false,"rental_uris":{"android":"levelo://app?vid=fded1323-c0e5-4519-8a13-d6afc9049fa3","ios":"levelo://app?vid=fded1323-c0e5-4519-8a13-d6afc9049fa3"},"vehicle_type_id":"4","last_reported":1721851713,"current_range_meters":4800,"station_id":"ce4bgkh2rcd13ifvqbl0","pricing_plan_id":"cebpf4jnsgd1na2vs0mg"},{"bike_id":"d06a6908-6706-49dd-81de-d8aac3693e18","system_id":"levelo_inurba_marseille","lat":43.30946,"lon":5.3902,"is_reserved":false,"is_disabled":false,"rental_uris":{"android":"levelo://app?vid=d06a6908-6706-49dd-81de-d8aac3693e18","ios":"levelo://app?vid=d06a6908-6706-49dd-81de-d8aac3693e18"},"vehicle_type_id":"4","last_reported":1721851713,"current_range_meters":23600,"station_id":"ce4bgup2rcd13ifvqco0","pricing_plan_id":"cebpf4jnsgd1na2vs0mg"},{"bike_id":"8d4e1751-25ee-4476-86ce-4326d8b8b2c3","system_id":"levelo_inurba_marseille","lat":43.309047,"lon":5.396551,"is_reserved":false,"is_disabled":false,"rental_uris":{"android":"levelo://app?vid=8d4e1751-25ee-4476-86ce-4326d8b8b2c3","ios":"levelo://app?vid=8d4e1751-25ee-4476-86ce-4326d8b8b2c3"},"vehicle_type_id":"4","last_reported":1721851713,"current_range_meters":28800,"station_id":"ce4bh012rcd13ifvqcv0","pricing_plan_id":"cebpf4jnsgd1na2vs0mg"},{"bike_id":"048e85dd-7a48-4a09-96f9-51fc04e0cb96","system_id":"levelo_inurba_marseille","lat":43.299028,"lon":5.381509,"is_reserved":false,"is_disabled":false,"rental_uris":{"android":"levelo://app?vid=048e85dd-7a48-4a09-96f9-51fc04e0cb96","ios":"levelo://app?vid=048e85dd-7a48-4a09-96f9-51fc04e0cb96"},"vehicle_type_id":"4","last_reported":1721851713,"current_range_meters":2800,"station_id":"ce4bgj12rcd13ifvqbc0","pricing_plan_id":"cebpf4jnsgd1na2vs0mg"},{"bike_id":"7b98ac39-87b5-45e8-8e54-34cf04c35f34","system_id":"levelo_inurba_marseille","lat":43.31761,"lon":5.39016,"is_reserved":false,"is_disabled":false,"rental_uris":{"android":"levelo://app?vid=7b98ac39-87b5-45e8-8e54-34cf04c35f34","ios":"levelo://app?vid=7b98ac39-87b5-45e8-8e54-34cf04c35f34"},"vehicle_type_id":"4","last_reported":1721851713,"current_range_meters":800,"station_id":"ce4bhqp2rcd13ifvqhng","pricing_plan_id":"cebpf4jnsgd1na2vs0mg"},{"bike_id":"b57e1efd-c77b-4b17-bc06-bcbb1374d539","system_id":"levelo_inurba_marseille","lat":43.31762,"lon":5.39025,"is_reserved":false,"is_disabled":false,"rental_uris":{"android":"levelo://app?vid=b57e1efd-c77b-4b17-bc06-bcbb1374d539","ios":"levelo://app?vid=b57e1efd-c77b-4b17-bc06-bcbb1374d539"},"vehicle_type_id":"4","last_reported":1721851713,"current_range_meters":6800,"station_id":"ce4bhqp2rcd13ifvqhng","pricing_plan_id":"cebpf4jnsgd1na2vs0mg"},{"bike_id":"09e6ef09-64d8-4564-bb81-9c3b7ca9f526","system_id":"levelo_inurba_marseille","lat":43.296921,"lon":5.376579,"is_reserved":false,"is_disabled":false,"rental_uris":{"android":"levelo://app?vid=09e6ef09-64d8-4564-bb81-9c3b7ca9f526","ios":"levelo://app?vid=09e6ef09-64d8-4564-bb81-9c3b7ca9f526"},"vehicle_type_id":"4","last_reported":1721851713,"current_range_meters":19600,"station_id":"ce4bgkh2rcd13ifvqbl0","pricing_plan_id":"cebpf4jnsgd1na2vs0mg"},{"bike_id":"57b144db-33de-4150-aa21-d7ca3b83f586","system_id":"levelo_inurba_marseille","lat":43.298037,"lon":5.381066,"is_reserved":false,"is_disabled":false,"rental_uris":{"android":"levelo://app?vid=57b144db-33de-4150-aa21-d7ca3b83f586","ios":"levelo://app?vid=57b144db-33de-4150-aa21-d7ca3b83f586"},"vehicle_type_id":"4","last_reported":1721851713,"current_range_meters":0,"station_id":"ce4bgip2rcd13ifvqbb0","pricing_plan_id":"cebpf4jnsgd1na2vs0mg"},{"bike_id":"fbdce422-24c7-4e78-b1b7-15294c4557bc","system_id":"levelo_inurba_marseille","lat":43.298037,"lon":5.381066,"is_reserved":false,"is_disabled":false,"rental_uris":{"android":"levelo://app?vid=fbdce422-24c7-4e78-b1b7-15294c4557bc","ios":"levelo://app?vid=fbdce422-24c7-4e78-b1b7-15294c4557bc"},"vehicle_type_id":"4","last_reported":1721851713,"current_range_meters":30000,"station_id":"ce4bgip2rcd13ifvqbb0","pricing_plan_id":"cebpf4jnsgd1na2vs0mg"},{"bike_id":"41899df4-5824-4d2b-88a4-4c8109728d0c","system_id":"levelo_inurba_marseille","lat":43.295748,"lon":5.37522,"is_reserved":false,"is_disabled":false,"rental_uris":{"android":"levelo://app?vid=41899df4-5824-4d2b-88a4-4c8109728d0c","ios":"levelo://app?vid=41899df4-5824-4d2b-88a4-4c8109728d0c"},"vehicle_type_id":"4","last_reported":1721851713,"current_range_meters":20000,"station_id":"ce4bgh92rcd13ifvqb50","pricing_plan_id":"cebpf4jnsgd1na2vs0mg"},{"bike_id":"41f0dd37-f890-4a31-8cda-214fbbfbe019","system_id":"levelo_inurba_marseille","lat":43.29577,"lon":5.37511,"is_reserved":false,"is_disabled":false,"rental_uris":{"android":"levelo://app?vid=41f0dd37-f890-4a31-8cda-214fbbfbe019","ios":"levelo://app?vid=41f0dd37-f890-4a31-8cda-214fbbfbe019"},"vehicle_type_id":"4","last_reported":1721851713,"current_range_meters":18800,"station_id":"ce4bgh92rcd13ifvqb50","pricing_plan_id":"cebpf4jnsgd1na2vs0mg"},{"bike_id":"66e6bf00-b248-4189-8334-8ca4839af6fc","system_id":"levelo_inurba_marseille","lat":43.304274,"lon":5.388873,"is_reserved":false,"is_disabled":false,"rental_uris":{"android":"levelo://app?vid=66e6bf00-b248-4189-8334-8ca4839af6fc","ios":"levelo://app?vid=66e6bf00-b248-4189-8334-8ca4839af6fc"},"vehicle_type_id":"4","last_reported":1721851713,"current_range_meters":29200,"station_id":"ce4bgk12rcd13ifvqbi0","pricing_plan_id":"cebpf4jnsgd1na2vs0mg"},{"bike_id":"075b2241-bef2-4d33-ae25-2e307fcfaaf8","system_id":"levelo_inurba_marseille","lat":43.295748,"lon":5.37522,"is_reserved":false,"is_disabled":false,"rental_uris":{"android":"levelo://app?vid=075b2241-bef2-4d33-ae25-2e307fcfaaf8","ios":"levelo://app?vid=075b2241-bef2-4d33-ae25-2e307fcfaaf8"},"vehicle_type_id":"4","last_reported":1721851713,"current_range_meters":0,"station_id":"ce4bgh92rcd13ifvqb50","pricing_plan_id":"cebpf4jnsgd1na2vs0mg"},{"bike_id":"c609a393-7ab6-4368-bd70-5d41ee648699","system_id":"levelo_inurba_marseille","lat":43.299707,"lon":5.384859,"is_reserved":false,"is_disabled":false,"rental_uris":{"android":"levelo://app?vid=c609a393-7ab6-4368-bd70-5d41ee648699","ios":"levelo://app?vid=c609a393-7ab6-4368-bd70-5d41ee648699"},"vehicle_type_id":"4","last_reported":1721851713,"current_range_meters":7600,"station_id":"ce4bgj92rcd13ifvqbd0","pricing_plan_id":"cebpf4jnsgd1na2vs0mg"},{"bike_id":"a2308e4e-75b4-4e5e-896a-ae83ec8461b9","system_id":"levelo_inurba_marseille","lat":43.29534,"lon":5.375,"is_reserved":false,"is_disabled":false,"rental_uris":{"android":"levelo://app?vid=a2308e4e-75b4-4e5e-896a-ae83ec8461b9","ios":"levelo://app?vid=a2308e4e-75b4-4e5e-896a-ae83ec8461b9"},"vehicle_type_id":"4","last_reported":1721851713,"current_range_meters":0,"station_id":"ce4bgkp2rcd13ifvqbmg","pricing_plan_id":"cebpf4jnsgd1na2vs0mg"},{"bike_id":"318c9e63-42cc-4140-9fbc-5b6698f62820","system_id":"levelo_inurba_marseille","lat":43.299707,"lon":5.384859,"is_reserved":false,"is_disabled":false,"rental_uris":{"android":"levelo://app?vid=318c9e63-42cc-4140-9fbc-5b6698f62820","ios":"levelo://app?vid=318c9e63-42cc-4140-9fbc-5b6698f62820"},"vehicle_type_id":"4","last_reported":1721851713,"current_range_meters":10000,"station_id":"ce4bgj92rcd13ifvqbd0","pricing_plan_id":"cebpf4jnsgd1na2vs0mg"},{"bike_id":"0a3bfca3-b4b6-4797-a96e-3a75d2a2db84","system_id":"levelo_inurba_marseille","lat":43.31465,"lon":5.39206,"is_reserved":false,"is_disabled":false,"rental_uris":{"android":"levelo://app?vid=0a3bfca3-b4b6-4797-a96e-3a75d2a2db84","ios":"levelo://app?vid=0a3bfca3-b4b6-4797-a96e-3a75d2a2db84"},"vehicle_type_id":"4","last_reported":1721851713,"current_range_meters":0,"station_id":"","pricing_plan_id":"cebpf4jnsgd1na2vs0mg"},{"bike_id":"5c21f93a-7f55-444d-a721-1176c5dd94ae","system_id":"levelo_inurba_marseille","lat":43.299707,"lon":5.384859,"is_reserved":false,"is_disabled":false,"rental_uris":{"android":"levelo://app?vid=5c21f93a-7f55-444d-a721-1176c5dd94ae","ios":"levelo://app?vid=5c21f93a-7f55-444d-a721-1176c5dd94ae"},"vehicle_type_id":"4","last_reported":1721851713,"current_range_meters":29200,"station_id":"ce4bgj92rcd13ifvqbd0","pricing_plan_id":"cebpf4jnsgd1na2vs0mg"},{"bike_id":"53903bc7-8372-4ba2-ac8b-367bba8c36a3","system_id":"levelo_inurba_marseille","lat":43.29615,"lon":5.37796,"is_reserved":false,"is_disabled":false,"rental_uris":{"android":"levelo://app?vid=53903bc7-8372-4ba2-ac8b-367bba8c36a3","ios":"levelo://app?vid=53903bc7-8372-4ba2-ac8b-367bba8c36a3"},"vehicle_type_id":"4","last_reported":1721851713,"current_range_meters":6400,"station_id":"","pricing_plan_id":"cebpf4jnsgd1na2vs0mg"},{"bike_id":"49258376-ae98-439d-8f53-e10a978f2785","system_id":"levelo_inurba_marseille","lat":43.29529,"lon":5.3751,"is_reserved":false,"is_disabled":false,"rental_uris":{"android":"levelo://app?vid=49258376-ae98-439d-8f53-e10a978f2785","ios":"levelo://app?vid=49258376-ae98-439d-8f53-e10a978f2785"},"vehicle_type_id":"4","last_reported":1721851713,"current_range_meters":0,"station_id":"ce4bgkp2rcd13ifvqbmg","pricing_plan_id":"cebpf4jnsgd1na2vs0mg"},{"bike_id":"7d40bc0d-e037-4e52-b60d-344776b5c992","system_id":"levelo_inurba_marseille","lat":43.301396,"lon":5.387812,"is_reserved":false,"is_disabled":false,"rental_uris":{"android":"levelo://app?vid=7d40bc0d-e037-4e52-b60d-344776b5c992","ios":"levelo://app?vid=7d40bc0d-e037-4e52-b60d-344776b5c992"},"vehicle_type_id":"4","last_reported":1721851713,"current_range_meters":25600,"station_id":"ce4bghh2rcd13ifvqb60","pricing_plan_id":"cebpf4jnsgd1na2vs0mg"},{"bike_id":"f8acb123-623d-4718-9590-6c4dc92f863e","system_id":"levelo_inurba_marseille","lat":43.301396,"lon":5.387812,"is_reserved":false,"is_disabled":false,"rental_uris":{"android":"levelo://app?vid=f8acb123-623d-4718-9590-6c4dc92f863e","ios":"levelo://app?vid=f8acb123-623d-4718-9590-6c4dc92f863e"},"vehicle_type_id":"4","last_reported":1721851713,"current_range_meters":31200,"station_id":"ce4bghh2rcd13ifvqb60","pricing_plan_id":"cebpf4jnsgd1na2vs0mg"},{"bike_id":"c0232123-fe8c-4d9b-996a-30fdd09e5067","system_id":"levelo_inurba_marseille","lat":43.301396,"lon":5.387812,"is_reserved":false,"is_disabled":false,"rental_uris":{"android":"levelo://app?vid=c0232123-fe8c-4d9b-996a-30fdd09e5067","ios":"levelo://app?vid=c0232123-fe8c-4d9b-996a-30fdd09e5067"},"vehicle_type_id":"4","last_reported":1721851713,"current_range_meters":31200,"station_id":"ce4bghh2rcd13ifvqb60","pricing_plan_id":"cebpf4jnsgd1na2vs0mg"},{"bike_id":"c2d3f827-8bdb-428a-bff5-28a2aaec3e4f","system_id":"levelo_inurba_marseille","lat":43.32367,"lon":5.3888,"is_reserved":false,"is_disabled":false,"rental_uris":{"android":"levelo://app?vid=c2d3f827-8bdb-428a-bff5-28a2aaec3e4f","ios":"levelo://app?vid=c2d3f827-8bdb-428a-bff5-28a2aaec3e4f"},"vehicle_type_id":"4","last_reported":1721851713,"current_range_meters":7600,"station_id":"ce4bhqp2rcd13ifvqhog","pricing_plan_id":"cebpf4jnsgd1na2vs0mg"},{"bike_id":"4321baa3-71cf-4deb-ae4e-37d439f315fa","system_id":"levelo_inurba_marseille","lat":43.32367,"lon":5.388836,"is_reserved":false,"is_disabled":false,"rental_uris":{"android":"levelo://app?vid=4321baa3-71cf-4deb-ae4e-37d439f315fa","ios":"levelo://app?vid=4321baa3-71cf-4deb-ae4e-37d439f315fa"},"vehicle_type_id":"4","last_reported":1721851713,"current_range_meters":1200,"station_id":"ce4bhqp2rcd13ifvqhog","pricing_plan_id":"cebpf4jnsgd1na2vs0mg"},{"bike_id":"c30cb287-2b43-4da6-a5b3-ad3e8b2ae25b","system_id":"levelo_inurba_marseille","lat":43.296037,"lon":5.380963,"is_reserved":false,"is_disabled":false,"rental_uris":{"android":"levelo://app?vid=c30cb287-2b43-4da6-a5b3-ad3e8b2ae25b","ios":"levelo://app?vid=c30cb287-2b43-4da6-a5b3-ad3e8b2ae25b"},"vehicle_type_id":"4","last_reported":1721851713,"current_range_meters":0,"station_id":"ce4bgl12rcd13ifvqbo0","pricing_plan_id":"cebpf4jnsgd1na2vs0mg"},{"bike_id":"308a40b8-1a50-4f33-9d34-7664ad0a7d96","system_id":"levelo_inurba_marseille","lat":43.29602,"lon":5.381084,"is_reserved":false,"is_disabled":false,"rental_uris":{"android":"levelo://app?vid=308a40b8-1a50-4f33-9d34-7664ad0a7d96","ios":"levelo://app?vid=308a40b8-1a50-4f33-9d34-7664ad0a7d96"},"vehicle_type_id":"4","last_reported":1721851713,"current_range_meters":0,"station_id":"ce4bgl12rcd13ifvqbo0","pricing_plan_id":"cebpf4jnsgd1na2vs0mg"},{"bike_id":"75e71c5e-3e3d-48c8-9b95-ff71cb7820e3","system_id":"levelo_inurba_marseille","lat":43.292749,"lon":5.368398,"is_reserved":false,"is_disabled":false,"rental_uris":{"android":"levelo://app?vid=75e71c5e-3e3d-48c8-9b95-ff71cb7820e3","ios":"levelo://app?vid=75e71c5e-3e3d-48c8-9b95-ff71cb7820e3"},"vehicle_type_id":"4","last_reported":1721851713,"current_range_meters":0,"station_id":"ce4bhbp2rcd13ifvqesg","pricing_plan_id":"cebpf4jnsgd1na2vs0mg"},{"bike_id":"8948cdfd-eeca-4399-9e31-2f53a3db647f","system_id":"levelo_inurba_marseille","lat":43.292749,"lon":5.368402,"is_reserved":false,"is_disabled":false,"rental_uris":{"android":"levelo://app?vid=8948cdfd-eeca-4399-9e31-2f53a3db647f","ios":"levelo://app?vid=8948cdfd-eeca-4399-9e31-2f53a3db647f"},"vehicle_type_id":"4","last_reported":1721851713,"current_range_meters":0,"station_id":"ce4bhbp2rcd13ifvqesg","pricing_plan_id":"cebpf4jnsgd1na2vs0mg"},{"bike_id":"7d901802-db49-4698-89f5-61a503ce32a6","system_id":"levelo_inurba_marseille","lat":43.2927,"lon":5.36841,"is_reserved":false,"is_disabled":false,"rental_uris":{"android":"levelo://app?vid=7d901802-db49-4698-89f5-61a503ce32a6","ios":"levelo://app?vid=7d901802-db49-4698-89f5-61a503ce32a6"},"vehicle_type_id":"4","last_reported":1721851713,"current_range_meters":31200,"station_id":"ce4bhbp2rcd13ifvqesg","pricing_plan_id":"cebpf4jnsgd1na2vs0mg"},{"bike_id":"dfa80226-af3b-414e-9d69-340a8b9f7379","system_id":"levelo_inurba_marseille","lat":43.305994,"lon":5.393687,"is_reserved":false,"is_disabled":false,"rental_uris":{"android":"levelo://app?vid=dfa80226-af3b-414e-9d69-340a8b9f7379","ios":"levelo://app?vid=dfa80226-af3b-414e-9d69-340a8b9f7379"},"vehicle_type_id":"4","last_reported":1721851713,"current_range_meters":30800,"station_id":"ce4bh0p2rcd13ifvqd80","pricing_plan_id":"cebpf4jnsgd1na2vs0mg"},{"bike_id":"cf597e0b-a585-4659-8eb8-c917afc37491","system_id":"levelo_inurba_marseille","lat":43.305994,"lon":5.393687,"is_reserved":false,"is_disabled":false,"rental_uris":{"android":"levelo://app?vid=cf597e0b-a585-4659-8eb8-c917afc37491","ios":"levelo://app?vid=cf597e0b-a585-4659-8eb8-c917afc37491"},"vehicle_type_id":"4","last_reported":1721851713,"current_range_meters":31200,"station_id":"ce4bh0p2rcd13ifvqd80","pricing_plan_id":"cebpf4jnsgd1na2vs0mg"},{"bike_id":"129a2fb1-8b83-4467-b826-4de1a1f30a49","system_id":"levelo_inurba_marseille","lat":43.305994,"lon":5.393687,"is_reserved":false,"is_disabled":false,"rental_uris":{"android":"levelo://app?vid=129a2fb1-8b83-4467-b826-4de1a1f30a49","ios":"levelo://app?vid=129a2fb1-8b83-4467-b826-4de1a1f30a49"},"vehicle_type_id":"4","last_reported":1721851713,"current_range_meters":23200,"station_id":"ce4bh0p2rcd13ifvqd80","pricing_plan_id":"cebpf4jnsgd1na2vs0mg"},{"bike_id":"2dfcef5a-116f-42a6-a898-c0386f4f5991","system_id":"levelo_inurba_marseille","lat":43.302992,"lon":5.392136,"is_reserved":false,"is_disabled":false,"rental_uris":{"android":"levelo://app?vid=2dfcef5a-116f-42a6-a898-c0386f4f5991","ios":"levelo://app?vid=2dfcef5a-116f-42a6-a898-c0386f4f5991"},"vehicle_type_id":"4","last_reported":1721851713,"current_range_meters":24000,"station_id":"ce4bgkh2rcd13ifvqbk0","pricing_plan_id":"cebpf4jnsgd1na2vs0mg"},{"bike_id":"a36f7a80-4e2b-4fff-8e80-2abb85baeaf7","system_id":"levelo_inurba_marseille","lat":43.302992,"lon":5.392136,"is_reserved":false,"is_disabled":false,"rental_uris":{"android":"levelo://app?vid=a36f7a80-4e2b-4fff-8e80-2abb85baeaf7","ios":"levelo://app?vid=a36f7a80-4e2b-4fff-8e80-2abb85baeaf7"},"vehicle_type_id":"4","last_reported":1721851713,"current_range_meters":16800,"station_id":"ce4bgkh2rcd13ifvqbk0","pricing_plan_id":"cebpf4jnsgd1na2vs0mg"},{"bike_id":"19d3a0f4-ccab-4ec0-b826-18a169dfa9eb","system_id":"levelo_inurba_marseille","lat":43.2936,"lon":5.37835,"is_reserved":false,"is_disabled":false,"rental_uris":{"android":"levelo://app?vid=19d3a0f4-ccab-4ec0-b826-18a169dfa9eb","ios":"levelo://app?vid=19d3a0f4-ccab-4ec0-b826-18a169dfa9eb"},"vehicle_type_id":"4","last_reported":1721851713,"current_range_meters":800,"station_id":"ce4bgjh2rcd13ifvqbf0","pricing_plan_id":"cebpf4jnsgd1na2vs0mg"},{"bike_id":"7a1468ea-c95c-49ef-82fd-84c03669494b","system_id":"levelo_inurba_marseille","lat":43.302992,"lon":5.392136,"is_reserved":false,"is_disabled":false,"rental_uris":{"android":"levelo://app?vid=7a1468ea-c95c-49ef-82fd-84c03669494b","ios":"levelo://app?vid=7a1468ea-c95c-49ef-82fd-84c03669494b"},"vehicle_type_id":"4","last_reported":1721851713,"current_range_meters":17600,"station_id":"ce4bgkh2rcd13ifvqbk0","pricing_plan_id":"cebpf4jnsgd1na2vs0mg"},{"bike_id":"3226accd-03d8-462e-8991-c902e5d5d83d","system_id":"levelo_inurba_marseille","lat":43.326395,"lon":5.388695,"is_reserved":false,"is_disabled":false,"rental_uris":{"android":"levelo://app?vid=3226accd-03d8-462e-8991-c902e5d5d83d","ios":"levelo://app?vid=3226accd-03d8-462e-8991-c902e5d5d83d"},"vehicle_type_id":"4","last_reported":1721851713,"current_range_meters":22000,"station_id":"","pricing_plan_id":"cebpf4jnsgd1na2vs0mg"},{"bike_id":"88934143-d8f9-4078-a5fd-10e360aac973","system_id":"levelo_inurba_marseille","lat":43.30085,"lon":5.390856,"is_reserved":false,"is_disabled":false,"rental_uris":{"android":"levelo://app?vid=88934143-d8f9-4078-a5fd-10e360aac973","ios":"levelo://app?vid=88934143-d8f9-4078-a5fd-10e360aac973"},"vehicle_type_id":"4","last_reported":1721851713,"current_range_meters":29600,"station_id":"ce4bh192rcd13ifvqdb0","pricing_plan_id":"cebpf4jnsgd1na2vs0mg"},{"bike_id":"0857ea58-a3eb-4bb8-9ca8-8cd73db15a39","system_id":"levelo_inurba_marseille","lat":43.300852,"lon":5.390859,"is_reserved":false,"is_disabled":false,"rental_uris":{"android":"levelo://app?vid=0857ea58-a3eb-4bb8-9ca8-8cd73db15a39","ios":"levelo://app?vid=0857ea58-a3eb-4bb8-9ca8-8cd73db15a39"},"vehicle_type_id":"4","last_reported":1721851713,"current_range_meters":22000,"station_id":"ce4bh192rcd13ifvqdb0","pricing_plan_id":"cebpf4jnsgd1na2vs0mg"},{"bike_id":"07d87ff4-bac9-41fd-b439-012f288e30eb","system_id":"levelo_inurba_marseille","lat":43.298764,"lon":5.388973,"is_reserved":false,"is_disabled":false,"rental_uris":{"android":"levelo://app?vid=07d87ff4-bac9-41fd-b439-012f288e30eb","ios":"levelo://app?vid=07d87ff4-bac9-41fd-b439-012f288e30eb"},"vehicle_type_id":"4","last_reported":1721851713,"current_range_meters":31200,"station_id":"ce4bh392rcd13ifvqdl0","pricing_plan_id":"cebpf4jnsgd1na2vs0mg"},{"bike_id":"4dd4c8bc-2fd2-4564-a059-6c46c0e6bf81","system_id":"levelo_inurba_marseille","lat":43.298764,"lon":5.388973,"is_reserved":false,"is_disabled":false,"rental_uris":{"android":"levelo://app?vid=4dd4c8bc-2fd2-4564-a059-6c46c0e6bf81","ios":"levelo://app?vid=4dd4c8bc-2fd2-4564-a059-6c46c0e6bf81"},"vehicle_type_id":"4","last_reported":1721851713,"current_range_meters":7200,"station_id":"ce4bh392rcd13ifvqdl0","pricing_plan_id":"cebpf4jnsgd1na2vs0mg"},{"bike_id":"7a619833-18d1-47e8-ba29-27020a02b064","system_id":"levelo_inurba_marseille","lat":43.298764,"lon":5.388973,"is_reserved":false,"is_disabled":false,"rental_uris":{"android":"levelo://app?vid=7a619833-18d1-47e8-ba29-27020a02b064","ios":"levelo://app?vid=7a619833-18d1-47e8-ba29-27020a02b064"},"vehicle_type_id":"4","last_reported":1721851713,"current_range_meters":32000,"station_id":"ce4bh392rcd13ifvqdl0","pricing_plan_id":"cebpf4jnsgd1na2vs0mg"},{"bike_id":"b20d3398-9cf2-4c95-b027-8c3edadf8050","system_id":"levelo_inurba_marseille","lat":43.290631,"lon":5.359244,"is_reserved":false,"is_disabled":false,"rental_uris":{"android":"levelo://app?vid=b20d3398-9cf2-4c95-b027-8c3edadf8050","ios":"levelo://app?vid=b20d3398-9cf2-4c95-b027-8c3edadf8050"},"vehicle_type_id":"4","last_reported":1721851713,"current_range_meters":1200,"station_id":"ce4bha92rcd13ifvqeg0","pricing_plan_id":"cebpf4jnsgd1na2vs0mg"},{"bike_id":"f482c8aa-9db1-425b-b45e-3f069629ec61","system_id":"levelo_inurba_marseille","lat":43.30888,"lon":5.396326,"is_reserved":false,"is_disabled":false,"rental_uris":{"android":"levelo://app?vid=f482c8aa-9db1-425b-b45e-3f069629ec61","ios":"levelo://app?vid=f482c8aa-9db1-425b-b45e-3f069629ec61"},"vehicle_type_id":"4","last_reported":1721851713,"current_range_meters":0,"station_id":"ce4bh012rcd13ifvqcv0","pricing_plan_id":"cebpf4jnsgd1na2vs0mg"},{"bike_id":"dda28ca9-c741-460b-bd2e-fb4f41bd9a5f","system_id":"levelo_inurba_marseille","lat":43.30887,"lon":5.39633,"is_reserved":false,"is_disabled":false,"rental_uris":{"android":"levelo://app?vid=dda28ca9-c741-460b-bd2e-fb4f41bd9a5f","ios":"levelo://app?vid=dda28ca9-c741-460b-bd2e-fb4f41bd9a5f"},"vehicle_type_id":"4","last_reported":1721851713,"current_range_meters":0,"station_id":"ce4bh012rcd13ifvqcv0","pricing_plan_id":"cebpf4jnsgd1na2vs0mg"},{"bike_id":"c29e4fcb-12b9-45d0-a0bf-9e3984260205","system_id":"levelo_inurba_marseille","lat":43.313291,"lon":5.396838,"is_reserved":false,"is_disabled":false,"rental_uris":{"android":"levelo://app?vid=c29e4fcb-12b9-45d0-a0bf-9e3984260205","ios":"levelo://app?vid=c29e4fcb-12b9-45d0-a0bf-9e3984260205"},"vehicle_type_id":"4","last_reported":1721851713,"current_range_meters":26000,"station_id":"ce4bgvp2rcd13ifvqcu0","pricing_plan_id":"cebpf4jnsgd1na2vs0mg"},{"bike_id":"942f2635-543c-43a4-8d4d-4c6895416a96","system_id":"levelo_inurba_marseille","lat":43.313291,"lon":5.396838,"is_reserved":false,"is_disabled":false,"rental_uris":{"android":"levelo://app?vid=942f2635-543c-43a4-8d4d-4c6895416a96","ios":"levelo://app?vid=942f2635-543c-43a4-8d4d-4c6895416a96"},"vehicle_type_id":"4","last_reported":1721851713,"current_range_meters":9600,"station_id":"ce4bgvp2rcd13ifvqcu0","pricing_plan_id":"cebpf4jnsgd1na2vs0mg"},{"bike_id":"c067495d-a8b2-40bf-9c03-92207e000f6b","system_id":"levelo_inurba_marseille","lat":43.313291,"lon":5.396838,"is_reserved":false,"is_disabled":false,"rental_uris":{"android":"levelo://app?vid=c067495d-a8b2-40bf-9c03-92207e000f6b","ios":"levelo://app?vid=c067495d-a8b2-40bf-9c03-92207e000f6b"},"vehicle_type_id":"4","last_reported":1721851713,"current_range_meters":24800,"station_id":"ce4bgvp2rcd13ifvqcu0","pricing_plan_id":"cebpf4jnsgd1na2vs0mg"},{"bike_id":"b6de04ad-fad6-4d36-a4aa-cb344e3d3039","system_id":"levelo_inurba_marseille","lat":43.313291,"lon":5.396838,"is_reserved":false,"is_disabled":false,"rental_uris":{"android":"levelo://app?vid=b6de04ad-fad6-4d36-a4aa-cb344e3d3039","ios":"levelo://app?vid=b6de04ad-fad6-4d36-a4aa-cb344e3d3039"},"vehicle_type_id":"4","last_reported":1721851713,"current_range_meters":27200,"station_id":"ce4bgvp2rcd13ifvqcu0","pricing_plan_id":"cebpf4jnsgd1na2vs0mg"},{"bike_id":"8069dcf4-81d9-4660-a4f7-bd9721b1513b","system_id":"levelo_inurba_marseille","lat":43.313291,"lon":5.396838,"is_reserved":false,"is_disabled":false,"rental_uris":{"android":"levelo://app?vid=8069dcf4-81d9-4660-a4f7-bd9721b1513b","ios":"levelo://app?vid=8069dcf4-81d9-4660-a4f7-bd9721b1513b"},"vehicle_type_id":"4","last_reported":1721851713,"current_range_meters":25200,"station_id":"ce4bgvp2rcd13ifvqcu0","pricing_plan_id":"cebpf4jnsgd1na2vs0mg"},{"bike_id":"58950146-4db1-49f7-bd89-cb5c3a783174","system_id":"levelo_inurba_marseille","lat":43.30892,"lon":5.3965,"is_reserved":false,"is_disabled":false,"rental_uris":{"android":"levelo://app?vid=58950146-4db1-49f7-bd89-cb5c3a783174","ios":"levelo://app?vid=58950146-4db1-49f7-bd89-cb5c3a783174"},"vehicle_type_id":"4","last_reported":1721851713,"current_range_meters":0,"station_id":"ce4bh012rcd13ifvqcv0","pricing_plan_id":"cebpf4jnsgd1na2vs0mg"},{"bike_id":"030eb0bf-c8a0-45f4-9ff0-a4235bca7c28","system_id":"levelo_inurba_marseille","lat":43.313291,"lon":5.396838,"is_reserved":false,"is_disabled":false,"rental_uris":{"android":"levelo://app?vid=030eb0bf-c8a0-45f4-9ff0-a4235bca7c28","ios":"levelo://app?vid=030eb0bf-c8a0-45f4-9ff0-a4235bca7c28"},"vehicle_type_id":"4","last_reported":1721851713,"current_range_meters":14800,"station_id":"ce4bgvp2rcd13ifvqcu0","pricing_plan_id":"cebpf4jnsgd1na2vs0mg"},{"bike_id":"9536ba07-d8ed-449e-8d75-5a1b4d90cf89","system_id":"levelo_inurba_marseille","lat":43.313291,"lon":5.396838,"is_reserved":false,"is_disabled":false,"rental_uris":{"android":"levelo://app?vid=9536ba07-d8ed-449e-8d75-5a1b4d90cf89","ios":"levelo://app?vid=9536ba07-d8ed-449e-8d75-5a1b4d90cf89"},"vehicle_type_id":"4","last_reported":1721851713,"current_range_meters":3600,"station_id":"ce4bgvp2rcd13ifvqcu0","pricing_plan_id":"cebpf4jnsgd1na2vs0mg"},{"bike_id":"e6c95d6c-8c6e-4ac4-a0f8-7b43de043045","system_id":"levelo_inurba_marseille","lat":43.309038,"lon":5.396546,"is_reserved":false,"is_disabled":false,"rental_uris":{"android":"levelo://app?vid=e6c95d6c-8c6e-4ac4-a0f8-7b43de043045","ios":"levelo://app?vid=e6c95d6c-8c6e-4ac4-a0f8-7b43de043045"},"vehicle_type_id":"4","last_reported":1721851713,"current_range_meters":26800,"station_id":"ce4bh012rcd13ifvqcv0","pricing_plan_id":"cebpf4jnsgd1na2vs0mg"},{"bike_id":"eb2a63a2-3ca1-481d-bb07-dbcbdf864db3","system_id":"levelo_inurba_marseille","lat":43.313291,"lon":5.396838,"is_reserved":false,"is_disabled":false,"rental_uris":{"android":"levelo://app?vid=eb2a63a2-3ca1-481d-bb07-dbcbdf864db3","ios":"levelo://app?vid=eb2a63a2-3ca1-481d-bb07-dbcbdf864db3"},"vehicle_type_id":"4","last_reported":1721851713,"current_range_meters":20000,"station_id":"ce4bgvp2rcd13ifvqcu0","pricing_plan_id":"cebpf4jnsgd1na2vs0mg"},{"bike_id":"8d67e471-585d-41ce-90a9-882d9a8e9f2b","system_id":"levelo_inurba_marseille","lat":43.290697,"lon":5.37176,"is_reserved":false,"is_disabled":false,"rental_uris":{"android":"levelo://app?vid=8d67e471-585d-41ce-90a9-882d9a8e9f2b","ios":"levelo://app?vid=8d67e471-585d-41ce-90a9-882d9a8e9f2b"},"vehicle_type_id":"4","last_reported":1721851713,"current_range_meters":3200,"station_id":"","pricing_plan_id":"cebpf4jnsgd1na2vs0mg"},{"bike_id":"ec5eae0f-e4da-471f-8821-6968d4d1ced8","system_id":"levelo_inurba_marseille","lat":43.302008,"lon":5.394694,"is_reserved":false,"is_disabled":false,"rental_uris":{"android":"levelo://app?vid=ec5eae0f-e4da-471f-8821-6968d4d1ced8","ios":"levelo://app?vid=ec5eae0f-e4da-471f-8821-6968d4d1ced8"},"vehicle_type_id":"4","last_reported":1721851713,"current_range_meters":2000,"station_id":"ce4bh0p2rcd13ifvqd70","pricing_plan_id":"cebpf4jnsgd1na2vs0mg"},{"bike_id":"c6b01c6e-4199-4dbf-bd8a-505c4e3abbb9","system_id":"levelo_inurba_marseille","lat":43.3145,"lon":5.398343,"is_reserved":false,"is_disabled":false,"rental_uris":{"android":"levelo://app?vid=c6b01c6e-4199-4dbf-bd8a-505c4e3abbb9","ios":"levelo://app?vid=c6b01c6e-4199-4dbf-bd8a-505c4e3abbb9"},"vehicle_type_id":"4","last_reported":1721851713,"current_range_meters":9200,"station_id":"","pricing_plan_id":"cebpf4jnsgd1na2vs0mg"},{"bike_id":"d2a8abfd-a4e7-4803-84ae-93d40ee66b86","system_id":"levelo_inurba_marseille","lat":43.290624,"lon":5.359245,"is_reserved":false,"is_disabled":false,"rental_uris":{"android":"levelo://app?vid=d2a8abfd-a4e7-4803-84ae-93d40ee66b86","ios":"levelo://app?vid=d2a8abfd-a4e7-4803-84ae-93d40ee66b86"},"vehicle_type_id":"4","last_reported":1721851713,"current_range_meters":0,"station_id":"ce4bha92rcd13ifvqeg0","pricing_plan_id":"cebpf4jnsgd1na2vs0mg"},{"bike_id":"db4b2d19-40e7-480c-8e01-c882cca4944d","system_id":"levelo_inurba_marseille","lat":43.29421,"lon":5.38619,"is_reserved":false,"is_disabled":false,"rental_uris":{"android":"levelo://app?vid=db4b2d19-40e7-480c-8e01-c882cca4944d","ios":"levelo://app?vid=db4b2d19-40e7-480c-8e01-c882cca4944d"},"vehicle_type_id":"4","last_reported":1721851713,"current_range_meters":0,"station_id":"ce4bh2h2rcd13ifvqdh0","pricing_plan_id":"cebpf4jnsgd1na2vs0mg"},{"bike_id":"f54defeb-7e46-498d-87f5-0161ab61d8be","system_id":"levelo_inurba_marseille","lat":43.294153,"lon":5.386305,"is_reserved":false,"is_disabled":false,"rental_uris":{"android":"levelo://app?vid=f54defeb-7e46-498d-87f5-0161ab61d8be","ios":"levelo://app?vid=f54defeb-7e46-498d-87f5-0161ab61d8be"},"vehicle_type_id":"4","last_reported":1721851713,"current_range_meters":7200,"station_id":"ce4bh2h2rcd13ifvqdh0","pricing_plan_id":"cebpf4jnsgd1na2vs0mg"},{"bike_id":"f7e7c859-c239-4a1c-8081-27ecf272ceae","system_id":"levelo_inurba_marseille","lat":43.29415,"lon":5.38618,"is_reserved":false,"is_disabled":false,"rental_uris":{"android":"levelo://app?vid=f7e7c859-c239-4a1c-8081-27ecf272ceae","ios":"levelo://app?vid=f7e7c859-c239-4a1c-8081-27ecf272ceae"},"vehicle_type_id":"4","last_reported":1721851713,"current_range_meters":1600,"station_id":"ce4bh2h2rcd13ifvqdh0","pricing_plan_id":"cebpf4jnsgd1na2vs0mg"},{"bike_id":"ae4e5374-0a53-47e8-95a3-1f5fc45c3c73","system_id":"levelo_inurba_marseille","lat":43.29418,"lon":5.38628,"is_reserved":false,"is_disabled":false,"rental_uris":{"android":"levelo://app?vid=ae4e5374-0a53-47e8-95a3-1f5fc45c3c73","ios":"levelo://app?vid=ae4e5374-0a53-47e8-95a3-1f5fc45c3c73"},"vehicle_type_id":"4","last_reported":1721851713,"current_range_meters":0,"station_id":"ce4bh2h2rcd13ifvqdh0","pricing_plan_id":"cebpf4jnsgd1na2vs0mg"},{"bike_id":"68aba45f-2161-4237-ab07-cf19300dd773","system_id":"levelo_inurba_marseille","lat":43.289184,"lon":5.366408,"is_reserved":false,"is_disabled":false,"rental_uris":{"android":"levelo://app?vid=68aba45f-2161-4237-ab07-cf19300dd773","ios":"levelo://app?vid=68aba45f-2161-4237-ab07-cf19300dd773"},"vehicle_type_id":"4","last_reported":1721851713,"current_range_meters":0,"station_id":"ce4bhap2rcd13ifvqek0","pricing_plan_id":"cebpf4jnsgd1na2vs0mg"},{"bike_id":"0f5632d7-a01a-45d1-b022-f91f0beb62dd","system_id":"levelo_inurba_marseille","lat":43.294162,"lon":5.386292,"is_reserved":false,"is_disabled":false,"rental_uris":{"android":"levelo://app?vid=0f5632d7-a01a-45d1-b022-f91f0beb62dd","ios":"levelo://app?vid=0f5632d7-a01a-45d1-b022-f91f0beb62dd"},"vehicle_type_id":"4","last_reported":1721851713,"current_range_meters":28000,"station_id":"ce4bh2h2rcd13ifvqdh0","pricing_plan_id":"cebpf4jnsgd1na2vs0mg"},{"bike_id":"c3fe9e3b-25ed-47ce-95e4-75b2b444db2a","system_id":"levelo_inurba_marseille","lat":43.29415,"lon":5.38627,"is_reserved":false,"is_disabled":false,"rental_uris":{"android":"levelo://app?vid=c3fe9e3b-25ed-47ce-95e4-75b2b444db2a","ios":"levelo://app?vid=c3fe9e3b-25ed-47ce-95e4-75b2b444db2a"},"vehicle_type_id":"4","last_reported":1721851713,"current_range_meters":0,"station_id":"ce4bh2h2rcd13ifvqdh0","pricing_plan_id":"cebpf4jnsgd1na2vs0mg"},{"bike_id":"db206fc5-ec53-4b9e-a90f-92e3bd024ef8","system_id":"levelo_inurba_marseille","lat":43.29411,"lon":5.38625,"is_reserved":false,"is_disabled":false,"rental_uris":{"android":"levelo://app?vid=db206fc5-ec53-4b9e-a90f-92e3bd024ef8","ios":"levelo://app?vid=db206fc5-ec53-4b9e-a90f-92e3bd024ef8"},"vehicle_type_id":"4","last_reported":1721851713,"current_range_meters":0,"station_id":"ce4bh2h2rcd13ifvqdh0","pricing_plan_id":"cebpf4jnsgd1na2vs0mg"},{"bike_id":"43c83cf0-bf3e-466e-b62c-8237c1e52548","system_id":"levelo_inurba_marseille","lat":43.289184,"lon":5.366408,"is_reserved":false,"is_disabled":false,"rental_uris":{"android":"levelo://app?vid=43c83cf0-bf3e-466e-b62c-8237c1e52548","ios":"levelo://app?vid=43c83cf0-bf3e-466e-b62c-8237c1e52548"},"vehicle_type_id":"4","last_reported":1721851713,"current_range_meters":0,"station_id":"ce4bhap2rcd13ifvqek0","pricing_plan_id":"cebpf4jnsgd1na2vs0mg"},{"bike_id":"2a4d6d85-dc0e-4992-8dcb-dfaf83c3534f","system_id":"levelo_inurba_marseille","lat":43.290104,"lon":5.356111,"is_reserved":false,"is_disabled":false,"rental_uris":{"android":"levelo://app?vid=2a4d6d85-dc0e-4992-8dcb-dfaf83c3534f","ios":"levelo://app?vid=2a4d6d85-dc0e-4992-8dcb-dfaf83c3534f"},"vehicle_type_id":"4","last_reported":1721851713,"current_range_meters":10800,"station_id":"ce4bhb92rcd13ifvqen0","pricing_plan_id":"cebpf4jnsgd1na2vs0mg"},{"bike_id":"66e386fa-7874-4e91-9b08-da91d7937016","system_id":"levelo_inurba_marseille","lat":43.292644,"lon":5.384257,"is_reserved":false,"is_disabled":false,"rental_uris":{"android":"levelo://app?vid=66e386fa-7874-4e91-9b08-da91d7937016","ios":"levelo://app?vid=66e386fa-7874-4e91-9b08-da91d7937016"},"vehicle_type_id":"4","last_reported":1721851713,"current_range_meters":16000,"station_id":"ce4bh692rcd13ifvqea0","pricing_plan_id":"cebpf4jnsgd1na2vs0mg"},{"bike_id":"5a06abb6-f73f-4122-85aa-bdd9362d0ec4","system_id":"levelo_inurba_marseille","lat":43.29253,"lon":5.38395,"is_reserved":false,"is_disabled":false,"rental_uris":{"android":"levelo://app?vid=5a06abb6-f73f-4122-85aa-bdd9362d0ec4","ios":"levelo://app?vid=5a06abb6-f73f-4122-85aa-bdd9362d0ec4"},"vehicle_type_id":"4","last_reported":1721851713,"current_range_meters":14000,"station_id":"ce4bh692rcd13ifvqea0","pricing_plan_id":"cebpf4jnsgd1na2vs0mg"},{"bike_id":"fa290b77-74a4-4c3e-b042-1a1bce01b92d","system_id":"levelo_inurba_marseille","lat":43.292642,"lon":5.384254,"is_reserved":false,"is_disabled":false,"rental_uris":{"android":"levelo://app?vid=fa290b77-74a4-4c3e-b042-1a1bce01b92d","ios":"levelo://app?vid=fa290b77-74a4-4c3e-b042-1a1bce01b92d"},"vehicle_type_id":"4","last_reported":1721851713,"current_range_meters":0,"station_id":"ce4bh692rcd13ifvqea0","pricing_plan_id":"cebpf4jnsgd1na2vs0mg"},{"bike_id":"93557709-7c5a-47f9-99fa-adc291f9b1cc","system_id":"levelo_inurba_marseille","lat":43.292644,"lon":5.384257,"is_reserved":false,"is_disabled":false,"rental_uris":{"android":"levelo://app?vid=93557709-7c5a-47f9-99fa-adc291f9b1cc","ios":"levelo://app?vid=93557709-7c5a-47f9-99fa-adc291f9b1cc"},"vehicle_type_id":"4","last_reported":1721851713,"current_range_meters":4000,"station_id":"ce4bh692rcd13ifvqea0","pricing_plan_id":"cebpf4jnsgd1na2vs0mg"},