{"last_updated":1691600792,"ttl":30,"version":"2.2","data":{"bikes":[{"bike_id":"2849e3e1-6dfa-4426-953a-eeb64c033cc2","system_id":"levelo_inurba_marseille","lat":43.314811,"lon":5.373104,"is_reserved":false,"is_disabled":false,"rental_uris":{"android":"levelo://app?vid=2849e3e1-6dfa-4426-953a-eeb64c033cc2","ios":"levelo://app?vid=2849e3e1-6dfa-4426-953a-eeb64c033cc2"},"vehicle_type_id":"4","last_reported":1691600792,"current_range_meters":30000,"station_id":"ce4bgt12rcd13ifvqcd0","pricing_plan_id":"free"},{"bike_id":"29191c12-0f19-4145-b18f-6f81234ca2de","system_id":"levelo_inurba_marseille","lat":43.31491,"lon":5.37309,"is_reserved":false,"is_disabled":false,"rental_uris":{"android":"levelo://app?vid=29191c12-0f19-4145-b18f-6f81234ca2de","ios":"levelo://app?vid=29191c12-0f19-4145-b18f-6f81234ca2de"},"vehicle_type_id":"4","last_reported":1691600792,"current_range_meters":23200,"station_id":"ce4bgt12rcd13ifvqcd0","pricing_plan_id":"free"},{"bike_id":"655b07be-632c-4040-a1f5-76e98a92397d","system_id":"levelo_inurba_marseille","lat":43.30537,"lon":5.36542,"is_reserved":false,"is_disabled":false,"rental_uris":{"android":"levelo://app?vid=655b07be-632c-4040-a1f5-76e98a92397d","ios":"levelo://app?vid=655b07be-632c-4040-a1f5-76e98a92397d"},"vehicle_type_id":"4","last_reported":1691600792,"current_range_meters":0,"station_id":"ce4bgs12rcd13ifvqcag","pricing_plan_id":"free"},{"bike_id":"4ad8f703-21aa-40fd-bdba-2780145aba1a","system_id":"levelo_inurba_marseille","lat":43.30613,"lon":5.37225,"is_reserved":false,"is_disabled":false,"rental_uris":{"android":"levelo://app?vid=4ad8f703-21aa-40fd-bdba-2780145aba1a","ios":"levelo://app?vid=4ad8f703-21aa-40fd-bdba-2780145aba1a"},"vehicle_type_id":"4","last_reported":1691600792,"current_range_meters":27600,"station_id":"ce4bgqh2rcd13ifvqc4g","pricing_plan_id":"free"},{"bike_id":"1193de45-af19-41b1-95c2-9efdf08610f3","system_id":"levelo_inurba_marseille","lat":43.31116,"lon":5.37771,"is_reserved":false,"is_disabled":false,"rental_uris":{"android":"levelo://app?vid=1193de45-af19-41b1-95c2-9efdf08610f3","ios":"levelo://app?vid=1193de45-af19-41b1-95c2-9efdf08610f3"},"vehicle_type_id":"4","last_reported":1691600792,"current_range_meters":27600,"station_id":"","pricing_plan_id":"free"},{"bike_id":"4f717866-d364-4e9a-b3c1-01d819498732","system_id":"levelo_inurba_marseille","lat":43.30819,"lon":5.37669,"is_reserved":false,"is_disabled":false,"rental_uris":{"android":"levelo://app?vid=4f717866-d364-4e9a-b3c1-01d819498732","ios":"levelo://app?vid=4f717866-d364-4e9a-b3c1-01d819498732"},"vehicle_type_id":"4","last_reported":1691600792,"current_range_meters":30400,"station_id":"ce4bgv92rcd13ifvqcq0","pricing_plan_id":"free"},{"bike_id":"425aefd0-56db-407a-8580-0ca303b1254e","system_id":"levelo_inurba_marseille","lat":43.317075,"lon":5.377367,"is_reserved":false,"is_disabled":false,"rental_uris":{"android":"levelo://app?vid=425aefd0-56db-407a-8580-0ca303b1254e","ios":"levelo://app?vid=425aefd0-56db-407a-8580-0ca303b1254e"},"vehicle_type_id":"4","last_reported":1691600792,"current_range_meters":800,"station_id":"ce4bgth2rcd13ifvqch0","pricing_plan_id":"free"},{"bike_id":"dbadef06-daaa-4454-a704-981a09e77f2d","system_id":"levelo_inurba_marseille","lat":43.317075,"lon":5.377367,"is_reserved":false,"is_disabled":false,"rental_uris":{"android":"levelo://app?vid=dbadef06-daaa-4454-a704-981a09e77f2d","ios":"levelo://app?vid=dbadef06-daaa-4454-a704-981a09e77f2d"},"vehicle_type_id":"4","last_reported":1691600792,"current_range_meters":29600,"station_id":"ce4bgth2rcd13ifvqch0","pricing_plan_id":"free"},{"bike_id":"c0fea9aa-658c-496e-8538-4a5ed2925bb9","system_id":"levelo_inurba_marseille","lat":43.317075,"lon":5.377367,"is_reserved":false,"is_disabled":false,"rental_uris":{"android":"levelo://app?vid=c0fea9aa-658c-496e-8538-4a5ed2925bb9","ios":"levelo://app?vid=c0fea9aa-658c-496e-8538-4a5ed2925bb9"},"vehicle_type_id":"4","last_reported":1691600792,"current_range_meters":31600,"station_id":"ce4bgth2rcd13ifvqch0","pricing_plan_id":"free"},{"bike_id":"b1c47f7f-d58d-4b23-afc7-5d3872c88590","system_id":"levelo_inurba_marseille","lat":43.317075,"lon":5.377367,"is_reserved":false,"is_disabled":false,"rental_uris":{"android":"levelo://app?vid=b1c47f7f-d58d-4b23-afc7-5d3872c88590","ios":"levelo://app?vid=b1c47f7f-d58d-4b23-afc7-5d3872c88590"},"vehicle_type_id":"4","last_reported":1691600792,"current_range_meters":26800,"station_id":"ce4bgth2rcd13ifvqch0","pricing_plan_id":"free"},{"bike_id":"20b5ce43-c7f1-4b3b-b3b7-a6912248472f","system_id":"levelo_inurba_marseille","lat":43.317075,"lon":5.377367,"is_reserved":false,"is_disabled":false,"rental_uris":{"android":"levelo://app?vid=20b5ce43-c7f1-4b3b-b3b7-a6912248472f","ios":"levelo://app?vid=20b5ce43-c7f1-4b3b-b3b7-a6912248472f"},"vehicle_type_id":"4","last_reported":1691600792,"current_range_meters":31200,"station_id":"ce4bgth2rcd13ifvqch0","pricing_plan_id":"free"},{"bike_id":"65affa8a-9878-4fb2-aeeb-5e00e608d8f2","system_id":"levelo_inurba_marseille","lat":43.317075,"lon":5.377367,"is_reserved":false,"is_disabled":false,"rental_uris":{"android":"levelo://app?vid=65affa8a-9878-4fb2-aeeb-5e00e608d8f2","ios":"levelo://app?vid=65affa8a-9878-4fb2-aeeb-5e00e608d8f2"},"vehicle_type_id":"4","last_reported":1691600792,"current_range_meters":31600,"station_id":"ce4bgth2rcd13ifvqch0","pricing_plan_id":"free"},{"bike_id":"ad106d1f-918c-4b2f-8215-c7550dd0fd13","system_id":"levelo_inurba_marseille","lat":43.30313,"lon":5.36902,"is_reserved":false,"is_disabled":false,"rental_uris":{"android":"levelo://app?vid=ad106d1f-918c-4b2f-8215-c7550dd0fd13","ios":"levelo://app?vid=ad106d1f-918c-4b2f-8215-c7550dd0fd13"},"vehicle_type_id":"4","last_reported":1691600792,"current_range_meters":11200,"station_id":"ce4bgqh2rcd13ifvqc5g","pricing_plan_id":"free"},{"bike_id":"e2eeb3c0-a12a-4085-8d10-eabb17bc6f6b","system_id":"levelo_inurba_marseille","lat":43.30311,"lon":5.369,"is_reserved":false,"is_disabled":false,"rental_uris":{"android":"levelo://app?vid=e2eeb3c0-a12a-4085-8d10-eabb17bc6f6b","ios":"levelo://app?vid=e2eeb3c0-a12a-4085-8d10-eabb17bc6f6b"},"vehicle_type_id":"4","last_reported":1691600792,"current_range_meters":0,"station_id":"ce4bgqh2rcd13ifvqc5g","pricing_plan_id":"free"},{"bike_id":"911d9108-fe93-494e-811a-d1513353bbc7","system_id":"levelo_inurba_marseille","lat":43.31529,"lon":5.380347,"is_reserved":false,"is_disabled":false,"rental_uris":{"android":"levelo://app?vid=911d9108-fe93-494e-811a-d1513353bbc7","ios":"levelo://app?vid=911d9108-fe93-494e-811a-d1513353bbc7"},"vehicle_type_id":"4","last_reported":1691600792,"current_range_meters":22800,"station_id":"ce4bhsp2rcd13ifvqi50","pricing_plan_id":"free"},{"bike_id":"f765004e-5592-4094-9422-e3617acd8bac","system_id":"levelo_inurba_marseille","lat":43.315293,"lon":5.380349,"is_reserved":false,"is_disabled":false,"rental_uris":{"android":"levelo://app?vid=f765004e-5592-4094-9422-e3617acd8bac","ios":"levelo://app?vid=f765004e-5592-4094-9422-e3617acd8bac"},"vehicle_type_id":"4","last_reported":1691600792,"current_range_meters":8400,"station_id":"ce4bhsp2rcd13ifvqi50","pricing_plan_id":"free"},{"bike_id":"6b09b21a-679e-4d45-9847-23879ba04b1e","system_id":"levelo_inurba_marseille","lat":43.308012,"lon":5.381511,"is_reserved":false,"is_disabled":false,"rental_uris":{"android":"levelo://app?vid=6b09b21a-679e-4d45-9847-23879ba04b1e","ios":"levelo://app?vid=6b09b21a-679e-4d45-9847-23879ba04b1e"},"vehicle_type_id":"4","last_reported":1691600792,"current_range_meters":14400,"station_id":"ce4bgt12rcd13ifvqce0","pricing_plan_id":"free"},{"bike_id":"7b419518-ea7f-4da5-b99a-931cff3ce7fb","system_id":"levelo_inurba_marseille","lat":43.31997,"lon":5.38137,"is_reserved":false,"is_disabled":false,"rental_uris":{"android":"levelo://app?vid=7b419518-ea7f-4da5-b99a-931cff3ce7fb","ios":"levelo://app?vid=7b419518-ea7f-4da5-b99a-931cff3ce7fb"},"vehicle_type_id":"4","last_reported":1691600792,"current_range_meters":31200,"station_id":"ce4bhr12rcd13ifvqhpg","pricing_plan_id":"free"},{"bike_id":"34d34957-3a05-48d3-a56a-489b167561fb","system_id":"levelo_inurba_marseille","lat":43.31992,"lon":5.38146,"is_reserved":false,"is_disabled":false,"rental_uris":{"android":"levelo://app?vid=34d34957-3a05-48d3-a56a-489b167561fb","ios":"levelo://app?vid=34d34957-3a05-48d3-a56a-489b167561fb"},"vehicle_type_id":"4","last_reported":1691600792,"current_range_meters":31200,"station_id":"ce4bhr12rcd13ifvqhpg","pricing_plan_id":"free"},{"bike_id":"eb9ca236-8bea-4a16-80b9-f4dcd1570b49","system_id":"levelo_inurba_marseille","lat":43.32001,"lon":5.38149,"is_reserved":false,"is_disabled":false,"rental_uris":{"android":"levelo://app?vid=eb9ca236-8bea-4a16-80b9-f4dcd1570b49","ios":"levelo://app?vid=eb9ca236-8bea-4a16-80b9-f4dcd1570b49"},"vehicle_type_id":"4","last_reported":1691600792,"current_range_meters":19600,"station_id":"ce4bhr12rcd13ifvqhpg","pricing_plan_id":"free"},{"bike_id":"15b2f289-e8da-4c30-a721-2cf15799ace1","system_id":"levelo_inurba_marseille","lat":43.31985,"lon":5.38268,"is_reserved":false,"is_disabled":false,"rental_uris":{"android":"levelo://app?vid=15b2f289-e8da-4c30-a721-2cf15799ace1","ios":"levelo://app?vid=15b2f289-e8da-4c30-a721-2cf15799ace1"},"vehicle_type_id":"4","last_reported":1691600792,"current_range_meters":4800,"station_id":"","pricing_plan_id":"free"},{"bike_id":"de2a09a8-2bcb-43cc-984a-c94ff3033b1e","system_id":"levelo_inurba_marseille","lat":43.298949,"lon":5.366631,"is_reserved":false,"is_disabled":false,"rental_uris":{"android":"levelo://app?vid=de2a09a8-2bcb-43cc-984a-c94ff3033b1e","ios":"levelo://app?vid=de2a09a8-2bcb-43cc-984a-c94ff3033b1e"},"vehicle_type_id":"4","last_reported":1691600792,"current_range_meters":23200,"station_id":"","pricing_plan_id":"free"},{"bike_id":"59e1b357-8029-4461-ba54-a7ae9af1d8f4","system_id":"levelo_inurba_marseille","lat":43.298433,"lon":5.362774,"is_reserved":false,"is_disabled":false,"rental_uris":{"android":"levelo://app?vid=59e1b357-8029-4461-ba54-a7ae9af1d8f4","ios":"levelo://app?vid=59e1b357-8029-4461-ba54-a7ae9af1d8f4"},"vehicle_type_id":"4","last_reported":1691600792,"current_range_meters":17600,"station_id":"ce4bgpp2rcd13ifvqc3g","pricing_plan_id":"free"},{"bike_id":"cdb60edd-68af-4125-8bf6-d9969710d63d","system_id":"levelo_inurba_marseille","lat":43.2985,"lon":5.36273,"is_reserved":false,"is_disabled":false,"rental_uris":{"android":"levelo://app?vid=cdb60edd-68af-4125-8bf6-d9969710d63d","ios":"levelo://app?vid=cdb60edd-68af-4125-8bf6-d9969710d63d"},"vehicle_type_id":"4","last_reported":1691600792,"current_range_meters":18400,"station_id":"","pricing_plan_id":"free"},{"bike_id":"a97bbd1c-762b-4544-a3a8-a994bb25656d","system_id":"levelo_inurba_marseille","lat":43.298433,"lon":5.362774,"is_reserved":false,"is_disabled":false,"rental_uris":{"android":"levelo://app?vid=a97bbd1c-762b-4544-a3a8-a994bb25656d","ios":"levelo://app?vid=a97bbd1c-762b-4544-a3a8-a994bb25656d"},"vehicle_type_id":"4","last_reported":1691600792,"current_range_meters":2000,"station_id":"ce4bgpp2rcd13ifvqc3g","pricing_plan_id":"free"},{"bike_id":"474e08fc-8a65-4cdb-9885-058c50958bbf","system_id":"levelo_inurba_marseille","lat":43.298433,"lon":5.362774,"is_reserved":false,"is_disabled":false,"rental_uris":{"android":"levelo://app?vid=474e08fc-8a65-4cdb-9885-058c50958bbf","ios":"levelo://app?vid=474e08fc-8a65-4cdb-9885-058c50958bbf"},"vehicle_type_id":"4","last_reported":1691600792,"current_range_meters":1600,"station_id":"ce4bgpp2rcd13ifvqc3g","pricing_plan_id":"free"},{"bike_id":"30537d43-af02-4a10-b928-7b9b8cf633d2","system_id":"levelo_inurba_marseille","lat":43.305265,"lon":5.384239,"is_reserved":false,"is_disabled":false,"rental_uris":{"android":"levelo://app?vid=30537d43-af02-4a10-b928-7b9b8cf633d2","ios":"levelo://app?vid=30537d43-af02-4a10-b928-7b9b8cf633d2"},"vehicle_type_id":"4","last_reported":1691600792,"current_range_meters":19200,"station_id":"ce4bgg92rcd13ifvqb30","pricing_plan_id":"free"},{"bike_id":"e12b4729-a1d9-4909-9759-e5b8690101b0","system_id":"levelo_inurba_marseille","lat":43.30062,"lon":5.37831,"is_reserved":false,"is_disabled":false,"rental_uris":{"android":"levelo://app?vid=e12b4729-a1d9-4909-9759-e5b8690101b0","ios":"levelo://app?vid=e12b4729-a1d9-4909-9759-e5b8690101b0"},"vehicle_type_id":"4","last_reported":1691600792,"current_range_meters":14000,"station_id":"","pricing_plan_id":"free"},{"bike_id":"788dfa14-809e-4503-9487-e77335f19d0a","system_id":"levelo_inurba_marseille","lat":43.31175,"lon":5.3872,"is_reserved":false,"is_disabled":false,"rental_uris":{"android":"levelo://app?vid=788dfa14-809e-4503-9487-e77335f19d0a","ios":"levelo://app?vid=788dfa14-809e-4503-9487-e77335f19d0a"},"vehicle_type_id":"4","last_reported":1691600792,"current_range_meters":0,"station_id":"","pricing_plan_id":"free"},{"bike_id":"b55b7ed4-eff6-4e3d-8058-646d084ca9e9","system_id":"levelo_inurba_marseille","lat":43.311722,"lon":5.387247,"is_reserved":false,"is_disabled":false,"rental_uris":{"android":"levelo://app?vid=b55b7ed4-eff6-4e3d-8058-646d084ca9e9","ios":"levelo://app?vid=b55b7ed4-eff6-4e3d-8058-646d084ca9e9"},"vehicle_type_id":"4","last_reported":1691600792,"current_range_meters":20400,"station_id":"ce4bgv12rcd13ifvqcp0","pricing_plan_id":"free"},{"bike_id":"3a574de3-b31f-4b53-9fcf-1545808be757","system_id":"levelo_inurba_marseille","lat":43.32288,"lon":5.3826,"is_reserved":false,"is_disabled":false,"rental_uris":{"android":"levelo://app?vid=3a574de3-b31f-4b53-9fcf-1545808be757","ios":"levelo://app?vid=3a574de3-b31f-4b53-9fcf-1545808be757"},"vehicle_type_id":"4","last_reported":1691600792,"current_range_meters":25200,"station_id":"ce4bhr12rcd13ifvqhqg","pricing_plan_id":"free"},{"bike_id":"9ee6703a-60c5-4a2b-90b4-e13264cfa7f8","system_id":"levelo_inurba_marseille","lat":43.32826,"lon":5.36693,"is_reserved":false,"is_disabled":false,"rental_uris":{"android":"levelo://app?vid=9ee6703a-60c5-4a2b-90b4-e13264cfa7f8","ios":"levelo://app?vid=9ee6703a-60c5-4a2b-90b4-e13264cfa7f8"},"vehicle_type_id":"4","last_reported":1691600792,"current_range_meters":24800,"station_id":"ce4bhs92rcd13ifvqi0g","pricing_plan_id":"free"},{"bike_id":"69208cf7-0ad1-487d-a460-18606486926b","system_id":"levelo_inurba_marseille","lat":43.32828,"lon":5.3667,"is_reserved":false,"is_disabled":false,"rental_uris":{"android":"levelo://app?vid=69208cf7-0ad1-487d-a460-18606486926b","ios":"levelo://app?vid=69208cf7-0ad1-487d-a460-18606486926b"},"vehicle_type_id":"4","last_reported":1691600792,"current_range_meters":31200,"station_id":"ce4bhs92rcd13ifvqi0g","pricing_plan_id":"free"},{"bike_id":"f0620734-0399-4780-9d51-210b6ae5a669","system_id":"levelo_inurba_marseille","lat":43.32829,"lon":5.36686,"is_reserved":false,"is_disabled":false,"rental_uris":{"android":"levelo://app?vid=f0620734-0399-4780-9d51-210b6ae5a669","ios":"levelo://app?vid=f0620734-0399-4780-9d51-210b6ae5a669"},"vehicle_type_id":"4","last_reported":1691600792,"current_range_meters":16000,"station_id":"ce4bhs92rcd13ifvqi0g","pricing_plan_id":"free"},{"bike_id":"dd789220-e7b5-42c1-b9dc-dc4243148021","system_id":"levelo_inurba_marseille","lat":43.297163,"lon":5.365866,"is_reserved":false,"is_disabled":false,"rental_uris":{"android":"levelo://app?vid=dd789220-e7b5-42c1-b9dc-dc4243148021","ios":"levelo://app?vid=dd789220-e7b5-42c1-b9dc-dc4243148021"},"vehicle_type_id":"4","last_reported":1691600792,"current_range_meters":31200,"station_id":"ce4bgn12rcd13ifvqbt0","pricing_plan_id":"free"},{"bike_id":"e2a74609-e548-4fdd-ab9f-b92d7c7bd6a0","system_id":"levelo_inurba_marseille","lat":43.296131,"lon":5.370791,"is_reserved":false,"is_disabled":false,"rental_uris":{"android":"levelo://app?vid=e2a74609-e548-4fdd-ab9f-b92d7c7bd6a0","ios":"levelo://app?vid=e2a74609-e548-4fdd-ab9f-b92d7c7bd6a0"},"vehicle_type_id":"4","last_reported":1691600792,"current_range_meters":800,"station_id":"ce4bgnh2rcd13ifvqc0g","pricing_plan_id":"free"},{"bike_id":"e77b3d0f-7a57-4c82-b455-52a093522c55","system_id":"levelo_inurba_marseille","lat":43.317557,"lon":5.390173,"is_reserved":false,"is_disabled":false,"rental_uris":{"android":"levelo://app?vid=e77b3d0f-7a57-4c82-b455-52a093522c55","ios":"levelo://app?vid=e77b3d0f-7a57-4c82-b455-52a093522c55"},"vehicle_type_id":"4","last_reported":1691600792,"current_range_meters":26400,"station_id":"ce4bhqp2rcd13ifvqhng","pricing_plan_id":"free"},{"bike_id":"4ac2e1cb-ccbf-4b9a-b24d-70e9e0a66a09","system_id":"levelo_inurba_marseille","lat":43.317557,"lon":5.390173,"is_reserved":false,"is_disabled":false,"rental_uris":{"android":"levelo://app?vid=4ac2e1cb-ccbf-4b9a-b24d-70e9e0a66a09","ios":"levelo://app?vid=4ac2e1cb-ccbf-4b9a-b24d-70e9e0a66a09"},"vehicle_type_id":"4","last_reported":1691600792,"current_range_meters":31200,"station_id":"ce4bhqp2rcd13ifvqhng","pricing_plan_id":"free"},{"bike_id":"38795b4d-66c8-4f7f-85fd-a43fd1cba755","system_id":"levelo_inurba_marseille","lat":43.317557,"lon":5.390173,"is_reserved":false,"is_disabled":false,"rental_uris":{"android":"levelo://app?vid=38795b4d-66c8-4f7f-85fd-a43fd1cba755","ios":"levelo://app?vid=38795b4d-66c8-4f7f-85fd-a43fd1cba755"},"vehicle_type_id":"4","last_reported":1691600792,"current_range_meters":20800,"station_id":"ce4bhqp2rcd13ifvqhng","pricing_plan_id":"free"},{"bike_id":"f0d506b5-1334-4bf3-b008-61812ced1ee1","system_id":"levelo_inurba_marseille","lat":43.317557,"lon":5.390173,"is_reserved":false,"is_disabled":false,"rental_uris":{"android":"levelo://app?vid=f0d506b5-1334-4bf3-b008-61812ced1ee1","ios":"levelo://app?vid=f0d506b5-1334-4bf3-b008-61812ced1ee1"},"vehicle_type_id":"4","last_reported":1691600792,"current_range_meters":26400,"station_id":"ce4bhqp2rcd13ifvqhng","pricing_plan_id":"free"},{"bike_id":"67bf6f54-0066-4632-bd5e-6c18d78f8763","system_id":"levelo_inurba_marseille","lat":43.317557,"lon":5.390173,"is_reserved":false,"is_disabled":false,"rental_uris":{"android":"levelo://app?vid=67bf6f54-0066-4632-bd5e-6c18d78f8763","ios":"levelo://app?vid=67bf6f54-0066-4632-bd5e-6c18d78f8763"},"vehicle_type_id":"4","last_reported":1691600792,"current_range_meters":30000,"station_id":"ce4bhqp2rcd13ifvqhng","pricing_plan_id":"free"},{"bike_id":"cda89c10-5809-407d-8993-297b4f94564d","system_id":"levelo_inurba_marseille","lat":43.317557,"lon":5.390173,"is_reserved":false,"is_disabled":false,"rental_uris":{"android":"levelo://app?vid=cda89c10-5809-407d-8993-297b4f94564d","ios":"levelo://app?vid=cda89c10-5809-407d-8993-297b4f94564d"},"vehicle_type_id":"4","last_reported":1691600792,"current_range_meters":22000,"station_id":"ce4bhqp2rcd13ifvqhng","pricing_plan_id":"free"},{"bike_id":"bbdf66e1-433b-4a72-929b-a9f7a519bdb2","system_id":"levelo_inurba_marseille","lat":43.317557,"lon":5.390173,"is_reserved":false,"is_disabled":false,"rental_uris":{"android":"levelo://app?vid=bbdf66e1-433b-4a72-929b-a9f7a519bdb2","ios":"levelo://app?vid=bbdf66e1-433b-4a72-929b-a9f7a519bdb2"},"vehicle_type_id":"4","last_reported":1691600792,"current_range_meters":30800,"station_id":"ce4bhqp2rcd13ifvqhng","pricing_plan_id":"free"},{"bike_id":"be152b6c-a5a8-4d21-a59d-861e3162814c","system_id":"levelo_inurba_marseille","lat":43.304278,"lon":5.388868,"is_reserved":false,"is_disabled":false,"rental_uris":{"android":"levelo://app?vid=be152b6c-a5a8-4d21-a59d-861e3162814c","ios":"levelo://app?vid=be152b6c-a5a8-4d21-a59d-861e3162814c"},"vehicle_type_id":"4","last_reported":1691600792,"current_range_meters":8000,"station_id":"ce4bgk12rcd13ifvqbi0","pricing_plan_id":"free"},{"bike_id":"a4df99ce-0488-49dd-a888-94686f562e88","system_id":"levelo_inurba_marseille","lat":43.295748,"lon":5.37522,"is_reserved":false,"is_disabled":false,"rental_uris":{"android":"levelo://app?vid=a4df99ce-0488-49dd-a888-94686f562e88","ios":"levelo://app?vid=a4df99ce-0488-49dd-a888-94686f562e88"},"vehicle_type_id":"4","last_reported":1691600792,"current_range_meters":29200,"station_id":"ce4bgh92rcd13ifvqb50","pricing_plan_id":"free"},{"bike_id":"5d2b051a-a268-49d4-8450-20707d19633f","system_id":"levelo_inurba_marseille","lat":43.30436,"lon":5.38902,"is_reserved":false,"is_disabled":false,"rental_uris":{"android":"levelo://app?vid=5d2b051a-a268-49d4-8450-20707d19633f","ios":"levelo://app?vid=5d2b051a-a268-49d4-8450-20707d19633f"},"vehicle_type_id":"4","last_reported":1691600792,"current_range_meters":23600,"station_id":"ce4bgk12rcd13ifvqbi0","pricing_plan_id":"free"},{"bike_id":"0e0cceaa-a4b2-4365-83ed-62fbae53860f","system_id":"levelo_inurba_marseille","lat":43.304278,"lon":5.388868,"is_reserved":false,"is_disabled":false,"rental_uris":{"android":"levelo://app?vid=0e0cceaa-a4b2-4365-83ed-62fbae53860f","ios":"levelo://app?vid=0e0cceaa-a4b2-4365-83ed-62fbae53860f"},"vehicle_type_id":"4","last_reported":1691600792,"current_range_meters":22000,"station_id":"ce4bgk12rcd13ifvqbi0","pricing_plan_id":"free"},{"bike_id":"0f1f156c-eba0-4768-bb86-9b84a5825f6a","system_id":"levelo_inurba_marseille","lat":43.299717,"lon":5.384845,"is_reserved":false,"is_disabled":false,"rental_uris":{"android":"levelo://app?vid=0f1f156c-eba0-4768-bb86-9b84a5825f6a","ios":"levelo://app?vid=0f1f156c-eba0-4768-bb86-9b84a5825f6a"},"vehicle_type_id":"4","last_reported":1691600792,"current_range_meters":0,"station_id":"ce4bgj92rcd13ifvqbd0","pricing_plan_id":"free"},{"bike_id":"06e7ccd8-9368-4f27-8503-a2912ba88e54","system_id":"levelo_inurba_marseille","lat":43.299717,"lon":5.384845,"is_reserved":false,"is_disabled":false,"rental_uris":{"android":"levelo://app?vid=06e7ccd8-9368-4f27-8503-a2912ba88e54","ios":"levelo://app?vid=06e7ccd8-9368-4f27-8503-a2912ba88e54"},"vehicle_type_id":"4","last_reported":1691600792,"current_range_meters":20000,"station_id":"ce4bgj92rcd13ifvqbd0","pricing_plan_id":"free"},{"bike_id":"4c7b782f-df06-44b1-8bb2-88637617612f","system_id":"levelo_inurba_marseille","lat":43.299707,"lon":5.384859,"is_reserved":false,"is_disabled":false,"rental_uris":{"android":"levelo://app?vid=4c7b782f-df06-44b1-8bb2-88637617612f","ios":"levelo://app?vid=4c7b782f-df06-44b1-8bb2-88637617612f"},"vehicle_type_id":"4","last_reported":1691600792,"current_range_meters":14400,"station_id":"ce4bgj92rcd13ifvqbd0","pricing_plan_id":"free"},{"bike_id":"4eebe06b-d096-453c-b928-7c2d4b5778de","system_id":"levelo_inurba_marseille","lat":43.299717,"lon":5.384845,"is_reserved":false,"is_disabled":false,"rental_uris":{"android":"levelo://app?vid=4eebe06b-d096-453c-b928-7c2d4b5778de","ios":"levelo://app?vid=4eebe06b-d096-453c-b928-7c2d4b5778de"},"vehicle_type_id":"4","last_reported":1691600792,"current_range_meters":0,"station_id":"ce4bgj92rcd13ifvqbd0","pricing_plan_id":"free"},{"bike_id":"2d8b254a-87f3-4049-a7bc-03fd28f94150","system_id":"levelo_inurba_marseille","lat":43.32367,"lon":5.388836,"is_reserved":false,"is_disabled":false,"rental_uris":{"android":"levelo://app?vid=2d8b254a-87f3-4049-a7bc-03fd28f94150","ios":"levelo://app?vid=2d8b254a-87f3-4049-a7bc-03fd28f94150"},"vehicle_type_id":"4","last_reported":1691600792,"current_range_meters":19200,"station_id":"ce4bhqp2rcd13ifvqhog","pricing_plan_id":"free"},{"bike_id":"eaad0f71-f290-4338-9e3a-b85deb3d9357","system_id":"levelo_inurba_marseille","lat":43.32367,"lon":5.38887,"is_reserved":false,"is_disabled":false,"rental_uris":{"android":"levelo://app?vid=eaad0f71-f290-4338-9e3a-b85deb3d9357","ios":"levelo://app?vid=eaad0f71-f290-4338-9e3a-b85deb3d9357"},"vehicle_type_id":"4","last_reported":1691600792,"current_range_meters":30800,"station_id":"ce4bhqp2rcd13ifvqhog","pricing_plan_id":"free"},{"bike_id":"f870a123-b96c-4ee6-bff7-922d953342aa","system_id":"levelo_inurba_marseille","lat":43.29436,"lon":5.37535,"is_reserved":false,"is_disabled":false,"rental_uris":{"android":"levelo://app?vid=f870a123-b96c-4ee6-bff7-922d953342aa","ios":"levelo://app?vid=f870a123-b96c-4ee6-bff7-922d953342aa"},"vehicle_type_id":"4","last_reported":1691600792,"current_range_meters":25600,"station_id":"","pricing_plan_id":"free"},{"bike_id":"88fd905f-98dd-4549-b28e-fbd078d0cef7","system_id":"levelo_inurba_marseille","lat":43.29602,"lon":5.381084,"is_reserved":false,"is_disabled":false,"rental_uris":{"android":"levelo://app?vid=88fd905f-98dd-4549-b28e-fbd078d0cef7","ios":"levelo://app?vid=88fd905f-98dd-4549-b28e-fbd078d0cef7"},"vehicle_type_id":"4","last_reported":1691600792,"current_range_meters":10000,"station_id":"ce4bgl12rcd13ifvqbo0","pricing_plan_id":"free"},{"bike_id":"6362015e-f7f4-4065-b9a0-8b593741e85d","system_id":"levelo_inurba_marseille","lat":43.29601,"lon":5.38103,"is_reserved":false,"is_disabled":false,"rental_uris":{"android":"levelo://app?vid=6362015e-f7f4-4065-b9a0-8b593741e85d","ios":"levelo://app?vid=6362015e-f7f4-4065-b9a0-8b593741e85d"},"vehicle_type_id":"4","last_reported":1691600792,"current_range_meters":11600,"station_id":"ce4bgl12rcd13ifvqbo0","pricing_plan_id":"free"},{"bike_id":"e90bd8c9-e305-48e0-b7ee-2bc5c5da1fdc","system_id":"levelo_inurba_marseille","lat":43.29309,"lon":5.3717,"is_reserved":false,"is_disabled":false,"rental_uris":{"android":"levelo://app?vid=e90bd8c9-e305-48e0-b7ee-2bc5c5da1fdc","ios":"levelo://app?vid=e90bd8c9-e305-48e0-b7ee-2bc5c5da1fdc"},"vehicle_type_id":"4","last_reported":1691600792,"current_range_meters":0,"station_id":"ce4bgh92rcd13ifvqb40","pricing_plan_id":"free"},{"bike_id":"dbe406a0-e31d-4174-932b-0d8d584d17c2","system_id":"levelo_inurba_marseille","lat":43.292749,"lon":5.368402,"is_reserved":false,"is_disabled":false,"rental_uris":{"android":"levelo://app?vid=dbe406a0-e31d-4174-932b-0d8d584d17c2","ios":"levelo://app?vid=dbe406a0-e31d-4174-932b-0d8d584d17c2"},"vehicle_type_id":"4","last_reported":1691600792,"current_range_meters":31200,"station_id":"ce4bhbp2rcd13ifvqesg","pricing_plan_id":"free"},{"bike_id":"f5f2e958-96d3-4df8-9001-e6e2efce6b18","system_id":"levelo_inurba_marseille","lat":43.29306,"lon":5.37178,"is_reserved":false,"is_disabled":false,"rental_uris":{"android":"levelo://app?vid=f5f2e958-96d3-4df8-9001-e6e2efce6b18","ios":"levelo://app?vid=f5f2e958-96d3-4df8-9001-e6e2efce6b18"},"vehicle_type_id":"4","last_reported":1691600792,"current_range_meters":10400,"station_id":"ce4bgh92rcd13ifvqb40","pricing_plan_id":"free"},{"bike_id":"15220b41-9cf1-4a07-9838-5061eefcb83f","system_id":"levelo_inurba_marseille","lat":43.29314,"lon":5.37444,"is_reserved":false,"is_disabled":false,"rental_uris":{"android":"levelo://app?vid=15220b41-9cf1-4a07-9838-5061eefcb83f","ios":"levelo://app?vid=15220b41-9cf1-4a07-9838-5061eefcb83f"},"vehicle_type_id":"4","last_reported":1691600792,"current_range_meters":4400,"station_id":"ce4bgi12rcd13ifvqb70","pricing_plan_id":"free"},{"bike_id":"835dbe68-e474-4ce1-b133-121b086fbc17","system_id":"levelo_inurba_marseille","lat":43.29303,"lon":5.37456,"is_reserved":false,"is_disabled":false,"rental_uris":{"android":"levelo://app?vid=835dbe68-e474-4ce1-b133-121b086fbc17","ios":"levelo://app?vid=835dbe68-e474-4ce1-b133-121b086fbc17"},"vehicle_type_id":"4","last_reported":1691600792,"current_range_meters":12000,"station_id":"ce4bgi12rcd13ifvqb70","pricing_plan_id":"free"},{"bike_id":"fc66dad7-86a8-437c-8d24-50384c4f207d","system_id":"levelo_inurba_marseille","lat":43.305994,"lon":5.393687,"is_reserved":false,"is_disabled":false,"rental_uris":{"android":"levelo://app?vid=fc66dad7-86a8-437c-8d24-50384c4f207d","ios":"levelo://app?vid=fc66dad7-86a8-437c-8d24-50384c4f207d"},"vehicle_type_id":"4","last_reported":1691600792,"current_range_meters":6000,"station_id":"ce4bh0p2rcd13ifvqd80","pricing_plan_id":"free"},{"bike_id":"d724c465-ff60-4416-997f-c59188405012","system_id":"levelo_inurba_marseille","lat":43.29295,"lon":5.37465,"is_reserved":false,"is_disabled":false,"rental_uris":{"android":"levelo://app?vid=d724c465-ff60-4416-997f-c59188405012","ios":"levelo://app?vid=d724c465-ff60-4416-997f-c59188405012"},"vehicle_type_id":"4","last_reported":1691600792,"current_range_meters":17600,"station_id":"ce4bgi12rcd13ifvqb70","pricing_plan_id":"free"},{"bike_id":"affc1a7f-b7d2-43f8-bb12-f808df2b4c3f","system_id":"levelo_inurba_marseille","lat":43.29225,"lon":5.36075,"is_reserved":false,"is_disabled":false,"rental_uris":{"android":"levelo://app?vid=affc1a7f-b7d2-43f8-bb12-f808df2b4c3f","ios":"levelo://app?vid=affc1a7f-b7d2-43f8-bb12-f808df2b4c3f"},"vehicle_type_id":"4","last_reported":1691600792,"current_range_meters":11200,"station_id":"","pricing_plan_id":"free"},{"bike_id":"2fc24591-f134-4653-8250-9ea35108a3ab","system_id":"levelo_inurba_marseille","lat":43.300852,"lon":5.390859,"is_reserved":false,"is_disabled":false,"rental_uris":{"android":"levelo://app?vid=2fc24591-f134-4653-8250-9ea35108a3ab","ios":"levelo://app?vid=2fc24591-f134-4653-8250-9ea35108a3ab"},"vehicle_type_id":"4","last_reported":1691600792,"current_range_meters":400,"station_id":"ce4bh192rcd13ifvqdb0","pricing_plan_id":"free"},{"bike_id":"78ebfa11-cab0-4af1-89a6-7664b4b171b4","system_id":"levelo_inurba_marseille","lat":43.300852,"lon":5.390859,"is_reserved":false,"is_disabled":false,"rental_uris":{"android":"levelo://app?vid=78ebfa11-cab0-4af1-89a6-7664b4b171b4","ios":"levelo://app?vid=78ebfa11-cab0-4af1-89a6-7664b4b171b4"},"vehicle_type_id":"4","last_reported":1691600792,"current_range_meters":5200,"station_id":"ce4bh192rcd13ifvqdb0","pricing_plan_id":"free"},{"bike_id":"b0cdc680-f0b6-41b7-b32b-238972261650","system_id":"levelo_inurba_marseille","lat":43.29277,"lon":5.37629,"is_reserved":false,"is_disabled":false,"rental_uris":{"android":"levelo://app?vid=b0cdc680-f0b6-41b7-b32b-238972261650","ios":"levelo://app?vid=b0cdc680-f0b6-41b7-b32b-238972261650"},"vehicle_type_id":"4","last_reported":1691600792,"current_range_meters":0,"station_id":"ce4bgi12rcd13ifvqb80","pricing_plan_id":"free"},{"bike_id":"2c324b3b-05fb-4e82-a0c9-381a8d3e4bee","system_id":"levelo_inurba_marseille","lat":43.300852,"lon":5.390859,"is_reserved":false,"is_disabled":false,"rental_uris":{"android":"levelo://app?vid=2c324b3b-05fb-4e82-a0c9-381a8d3e4bee","ios":"levelo://app?vid=2c324b3b-05fb-4e82-a0c9-381a8d3e4bee"},"vehicle_type_id":"4","last_reported":1691600792,"current_range_meters":6400,"station_id":"ce4bh192rcd13ifvqdb0","pricing_plan_id":"free"},{"bike_id":"25b5b89f-990d-4ff5-b4ad-571ca30df802","system_id":"levelo_inurba_marseille","lat":43.298764,"lon":5.388973,"is_reserved":false,"is_disabled":false,"rental_uris":{"android":"levelo://app?vid=25b5b89f-990d-4ff5-b4ad-571ca30df802","ios":"levelo://app?vid=25b5b89f-990d-4ff5-b4ad-571ca30df802"},"vehicle_type_id":"4","last_reported":1691600792,"current_range_meters":0,"station_id":"ce4bh392rcd13ifvqdl0","pricing_plan_id":"free"},{"bike_id":"2dce4529-e68f-451a-be30-54a0a4da6a55","system_id":"levelo_inurba_marseille","lat":43.291675,"lon":5.371583,"is_reserved":false,"is_disabled":false,"rental_uris":{"android":"levelo://app?vid=2dce4529-e68f-451a-be30-54a0a4da6a55","ios":"levelo://app?vid=2dce4529-e68f-451a-be30-54a0a4da6a55"},"vehicle_type_id":"4","last_reported":1691600792,"current_range_meters":30400,"station_id":"ce4bha92rcd13ifvqeh0","pricing_plan_id":"free"},{"bike_id":"d67feae0-b1cc-4f75-be4e-07b60e4754f9","system_id":"levelo_inurba_marseille","lat":43.29873,"lon":5.38903,"is_reserved":false,"is_disabled":false,"rental_uris":{"android":"levelo://app?vid=d67feae0-b1cc-4f75-be4e-07b60e4754f9","ios":"levelo://app?vid=d67feae0-b1cc-4f75-be4e-07b60e4754f9"},"vehicle_type_id":"4","last_reported":1691600792,"current_range_meters":24000,"station_id":"","pricing_plan_id":"free"},{"bike_id":"2e228653-8506-4864-ae4d-734783d210bc","system_id":"levelo_inurba_marseille","lat":43.298764,"lon":5.388973,"is_reserved":false,"is_disabled":false,"rental_uris":{"android":"levelo://app?vid=2e228653-8506-4864-ae4d-734783d210bc","ios":"levelo://app?vid=2e228653-8506-4864-ae4d-734783d210bc"},"vehicle_type_id":"4","last_reported":1691600792,"current_range_meters":8400,"station_id":"ce4bh392rcd13ifvqdl0","pricing_plan_id":"free"},{"bike_id":"0dd91d17-b3c5-4ea2-a5ab-7dd5eb9924c3","system_id":"levelo_inurba_marseille","lat":43.29197,"lon":5.35798,"is_reserved":false,"is_disabled":false,"rental_uris":{"android":"levelo://app?vid=0dd91d17-b3c5-4ea2-a5ab-7dd5eb9924c3","ios":"levelo://app?vid=0dd91d17-b3c5-4ea2-a5ab-7dd5eb9924c3"},"vehicle_type_id":"4","last_reported":1691600792,"current_range_meters":0,"station_id":"ce4bhb12rcd13ifvqel0","pricing_plan_id":"free"},{"bike_id":"31ce55b7-8a7c-421e-990e-1a5ddf11fd9c","system_id":"levelo_inurba_marseille","lat":43.291817,"lon":5.35804,"is_reserved":false,"is_disabled":false,"rental_uris":{"android":"levelo://app?vid=31ce55b7-8a7c-421e-990e-1a5ddf11fd9c","ios":"levelo://app?vid=31ce55b7-8a7c-421e-990e-1a5ddf11fd9c"},"vehicle_type_id":"4","last_reported":1691600792,"current_range_meters":6400,"station_id":"ce4bhb12rcd13ifvqel0","pricing_plan_id":"free"},{"bike_id":"38b2e49d-bcf2-449c-9e0b-391b3c0c3dc1","system_id":"levelo_inurba_marseille","lat":43.29532,"lon":5.38545,"is_reserved":false,"is_disabled":false,"rental_uris":{"android":"levelo://app?vid=38b2e49d-bcf2-449c-9e0b-391b3c0c3dc1","ios":"levelo://app?vid=38b2e49d-bcf2-449c-9e0b-391b3c0c3dc1"},"vehicle_type_id":"4","last_reported":1691600792,"current_range_meters":18800,"station_id":"ce4bgih2rcd13ifvqba0","pricing_plan_id":"free"},{"bike_id":"f781bc45-cc9c-495f-8895-08afc3cad72c","system_id":"levelo_inurba_marseille","lat":43.29529,"lon":5.385581,"is_reserved":false,"is_disabled":false,"rental_uris":{"android":"levelo://app?vid=f781bc45-cc9c-495f-8895-08afc3cad72c","ios":"levelo://app?vid=f781bc45-cc9c-495f-8895-08afc3cad72c"},"vehicle_type_id":"4","last_reported":1691600792,"current_range_meters":20400,"station_id":"ce4bgih2rcd13ifvqba0","pricing_plan_id":"free"},{"bike_id":"46bb04e6-5094-4a69-b239-09e8e181f382","system_id":"levelo_inurba_marseille","lat":43.29529,"lon":5.385581,"is_reserved":false,"is_disabled":false,"rental_uris":{"android":"levelo://app?vid=46bb04e6-5094-4a69-b239-09e8e181f382","ios":"levelo://app?vid=46bb04e6-5094-4a69-b239-09e8e181f382"},"vehicle_type_id":"4","last_reported":1691600792,"current_range_meters":17600,"station_id":"ce4bgih2rcd13ifvqba0","pricing_plan_id":"free"},{"bike_id":"cba46361-cc68-4fd1-bc12-b628eec57bef","system_id":"levelo_inurba_marseille","lat":43.302008,"lon":5.394694,"is_reserved":false,"is_disabled":false,"rental_uris":{"android":"levelo://app?vid=cba46361-cc68-4fd1-bc12-b628eec57bef","ios":"levelo://app?vid=cba46361-cc68-4fd1-bc12-b628eec57bef"},"vehicle_type_id":"4","last_reported":1691600792,"current_range_meters":21200,"station_id":"ce4bh0p2rcd13ifvqd70","pricing_plan_id":"free"},{"bike_id":"b0ea1f1f-1088-43e2-95e7-e456d9beb39a","system_id":"levelo_inurba_marseille","lat":43.29048,"lon":5.35911,"is_reserved":false,"is_disabled":false,"rental_uris":{"android":"levelo://app?vid=b0ea1f1f-1088-43e2-95e7-e456d9beb39a","ios":"levelo://app?vid=b0ea1f1f-1088-43e2-95e7-e456d9beb39a"},"vehicle_type_id":"4","last_reported":1691600792,"current_range_meters":10400,"station_id":"ce4bha92rcd13ifvqeg0","pricing_plan_id":"free"},{"bike_id":"fb2bfc71-4dd8-413c-a422-bf3af2c72fc2","system_id":"levelo_inurba_marseille","lat":43.29424,"lon":5.3862,"is_reserved":false,"is_disabled":false,"rental_uris":{"android":"levelo://app?vid=fb2bfc71-4dd8-413c-a422-bf3af2c72fc2","ios":"levelo://app?vid=fb2bfc71-4dd8-413c-a422-bf3af2c72fc2"},"vehicle_type_id":"4","last_reported":1691600792,"current_range_meters":6000,"station_id":"ce4bh2h2rcd13ifvqdh0","pricing_plan_id":"free"},{"bike_id":"142f19e3-cc16-4a70-b0a6-af5721bd1e31","system_id":"levelo_inurba_marseille","lat":43.29421,"lon":5.38617,"is_reserved":false,"is_disabled":false,"rental_uris":{"android":"levelo://app?vid=142f19e3-cc16-4a70-b0a6-af5721bd1e31","ios":"levelo://app?vid=142f19e3-cc16-4a70-b0a6-af5721bd1e31"},"vehicle_type_id":"4","last_reported":1691600792,"current_range_meters":17600,"station_id":"ce4bh2h2rcd13ifvqdh0","pricing_plan_id":"free"},{"bike_id":"09d926e6-e905-46aa-83ca-7d46a3f8d57c","system_id":"levelo_inurba_marseille","lat":43.29424,"lon":5.38624,"is_reserved":false,"is_disabled":false,"rental_uris":{"android":"levelo://app?vid=09d926e6-e905-46aa-83ca-7d46a3f8d57c","ios":"levelo://app?vid=09d926e6-e905-46aa-83ca-7d46a3f8d57c"},"vehicle_type_id":"4","last_reported":1691600792,"current_range_meters":24400,"station_id":"ce4bh2h2rcd13ifvqdh0","pricing_plan_id":"free"},{"bike_id":"7d7738bc-930d-41aa-9ead-63f366ccf88d","system_id":"levelo_inurba_marseille","lat":43.294162,"lon":5.386292,"is_reserved":false,"is_disabled":false,"rental_uris":{"android":"levelo://app?vid=7d7738bc-930d-41aa-9ead-63f366ccf88d","ios":"levelo://app?vid=7d7738bc-930d-41aa-9ead-63f366ccf88d"},"vehicle_type_id":"4","last_reported":1691600792,"current_range_meters":0,"station_id":"ce4bh2h2rcd13ifvqdh0","pricing_plan_id":"free"},{"bike_id":"abe969b9-db57-4d6b-b931-80de9bd5e42f","system_id":"levelo_inurba_marseille","lat":43.290327,"lon":5.375711,"is_reserved":false,"is_disabled":false,"rental_uris":{"android":"levelo://app?vid=abe969b9-db57-4d6b-b931-80de9bd5e42f","ios":"levelo://app?vid=abe969b9-db57-4d6b-b931-80de9bd5e42f"},"vehicle_type_id":"4","last_reported":1691600792,"current_range_meters":18800,"station_id":"ce4bh692rcd13ifvqe90","pricing_plan_id":"free"},{"bike_id":"81cf0a1f-c52a-4e9f-bebc-1527def9cc35","system_id":"levelo_inurba_marseille","lat":43.294162,"lon":5.386292,"is_reserved":false,"is_disabled":false,"rental_uris":{"android":"levelo://app?vid=81cf0a1f-c52a-4e9f-bebc-1527def9cc35","ios":"levelo://app?vid=81cf0a1f-c52a-4e9f-bebc-1527def9cc35"},"vehicle_type_id":"4","last_reported":1691600792,"current_range_meters":12000,"station_id":"ce4bh2h2rcd13ifvqdh0","pricing_plan_id":"free"},{"bike_id":"44c1acc0-0d09-4861-8847-16a3cd4ba591","system_id":"levelo_inurba_marseille","lat":43.29412,"lon":5.38624,"is_reserved":false,"is_disabled":false,"rental_uris":{"android":"levelo://app?vid=44c1acc0-0d09-4861-8847-16a3cd4ba591","ios":"levelo://app?vid=44c1acc0-0d09-4861-8847-16a3cd4ba591"},"vehicle_type_id":"4","last_reported":1691600792,"current_range_meters":22800,"station_id":"ce4bh2h2rcd13ifvqdh0","pricing_plan_id":"free"},{"bike_id":"262f2fc1-88bd-4570-92f1-520e992cd364","system_id":"levelo_inurba_marseille","lat":43.289184,"lon":5.366408,"is_reserved":false,"is_disabled":false,"rental_uris":{"android":"levelo://app?vid=262f2fc1-88bd-4570-92f1-520e992cd364","ios":"levelo://app?vid=262f2fc1-88bd-4570-92f1-520e992cd364"},"vehicle_type_id":"4","last_reported":1691600792,"current_range_meters":24400,"station_id":"ce4bhap2rcd13ifvqek0","pricing_plan_id":"free"},{"bike_id":"310f34e1-c9b7-4fd4-9d06-268d2966eca5","system_id":"levelo_inurba_marseille","lat":43.2894,"lon":5.36636,"is_reserved":false,"is_disabled":false,"rental_uris":{"android":"levelo://app?vid=310f34e1-c9b7-4fd4-9d06-268d2966eca5","ios":"levelo://app?vid=310f34e1-c9b7-4fd4-9d06-268d2966eca5"},"vehicle_type_id":"4","last_reported":1691600792,"current_range_meters":6800,"station_id":"","pricing_plan_id":"free"},{"bike_id":"1cae0434-5c6a-4c9e-a1d8-401097ec1200","system_id":"levelo_inurba_marseille","lat":43.289184,"lon":5.366408,"is_reserved":false,"is_disabled":false,"rental_uris":{"android":"levelo://app?vid=1cae0434-5c6a-4c9e-a1d8-401097ec1200","ios":"levelo://app?vid=1cae0434-5c6a-4c9e-a1d8-401097ec1200"},"vehicle_type_id":"4","last_reported":1691600792,"current_range_meters":29600,"station_id":"ce4bhap2rcd13ifvqek0","pricing_plan_id":"free"},{"bike_id":"8fdfedef-800a-4834-bbcc-f691247ba656","system_id":"levelo_inurba_marseille","lat":43.289184,"lon":5.366408,"is_reserved":false,"is_disabled":false,"rental_uris":{"android":"levelo://app?vid=8fdfedef-800a-4834-bbcc-f691247ba656","ios":"levelo://app?vid=8fdfedef-800a-4834-bbcc-f691247ba656"},"vehicle_type_id":"4","last_reported":1691600792,"current_range_meters":1600,"station_id":"ce4bhap2rcd13ifvqek0","pricing_plan_id":"free"},{"bike_id":"05c7fbc2-70d9-4ce2-8192-3330c49bff77","system_id":"levelo_inurba_marseille","lat":43.289184,"lon":5.366408,"is_reserved":false,"is_disabled":false,"rental_uris":{"android":"levelo://app?vid=05c7fbc2-70d9-4ce2-8192-3330c49bff77","ios":"levelo://app?vid=05c7fbc2-70d9-4ce2-8192-3330c49bff77"},"vehicle_type_id":"4","last_reported":1691600792,"current_range_meters":31200,"station_id":"ce4bhap2rcd13ifvqek0","pricing_plan_id":"free"},{"bike_id":"f18e4154-93d9-48d7-8d0c-b24fb3bf8ad7","system_id":"levelo_inurba_marseille","lat":43.289184,"lon":5.366408,"is_reserved":false,"is_disabled":false,"rental_uris":{"android":"levelo://app?vid=f18e4154-93d9-48d7-8d0c-b24fb3bf8ad7","ios":"levelo://app?vid=f18e4154-93d9-48d7-8d0c-b24fb3bf8ad7"},"vehicle_type_id":"4","last_reported":1691600792,"current_range_meters":18800,"station_id":"ce4bhap2rcd13ifvqek0","pricing_plan_id":"free"},{"bike_id":"d2ef920b-a88c-492b-93f2-b3492fa88d01","system_id":"levelo_inurba_marseille","lat":43.289184,"lon":5.366408,"is_reserved":false,"is_disabled":false,"rental_uris":{"android":"levelo://app?vid=d2ef920b-a88c-492b-93f2-b3492fa88d01","ios":"levelo://app?vid=d2ef920b-a88c-492b-93f2-b3492fa88d01"},"vehicle_type_id":"4","last_reported":1691600792,"current_range_meters":14000,"station_id":"ce4bhap2rcd13ifvqek0","pricing_plan_id":"free"},{"bike_id":"80d07de1-ffbc-4c4f-9da4-4a33378804c2","system_id":"levelo_inurba_marseille","lat":43.289468,"lon":5.363719,"is_reserved":false,"is_disabled":false,"rental_uris":{"android":"levelo://app?vid=80d07de1-ffbc-4c4f-9da4-4a33378804c2","ios":"levelo://app?vid=80d07de1-ffbc-4c4f-9da4-4a33378804c2"},"vehicle_type_id":"4","last_reported":1691600792,"current_range_meters":0,"station_id":"ce4bhc92rcd13ifvqetg","pricing_plan_id":"free"},{"bike_id":"d54ddbe9-3a4e-4387-82ac-6dc6dff55e4e","system_id":"levelo_inurba_marseille","lat":43.289468,"lon":5.363719,"is_reserved":false,"is_disabled":false,"rental_uris":{"android":"levelo://app?vid=d54ddbe9-3a4e-4387-82ac-6dc6dff55e4e","ios":"levelo://app?vid=d54ddbe9-3a4e-4387-82ac-6dc6dff55e4e"},"vehicle_type_id":"4","last_reported":1691600792,"current_range_meters":5200,"station_id":"ce4bhc92rcd13ifvqetg","pricing_plan_id":"free"},{"bike_id":"79f51269-0f00-4d2f-9cf6-ad88ad18e014","system_id":"levelo_inurba_marseille","lat":43.33563,"lon":5.37454,"is_reserved":false,"is_disabled":false,"rental_uris":{"android":"levelo://app?vid=79f51269-0f00-4d2f-9cf6-ad88ad18e014","ios":"levelo://app?vid=79f51269-0f00-4d2f-9cf6-ad88ad18e014"},"vehicle_type_id":"4","last_reported":1691600792,"current_range_meters":30400,"station_id":"","pricing_plan_id":"free"},{"bike_id":"ed9f1478-ab78-4c7f-9eac-7c87dd7a9af0","system_id":"levelo_inurba_marseille","lat":43.29041,"lon":5.399634,"is_reserved":false,"is_disabled":false,"rental_uris":{"android":"levelo://app?vid=ed9f1478-ab78-4c7f-9eac-7c87dd7a9af0","ios":"levelo://app?vid=ed9f1478-ab78-4c7f-9eac-7c87dd7a9af0"},"vehicle_type_id":"4","last_reported":1691600792,"current_range_meters":10000,"station_id":"ce4bh392rcd13ifvqdm0","pricing_plan_id":"free"},{"bike_id":"b175deaf-ff61-4afd-98a2-9d097d5e59f9","system_id":"levelo_inurba_marseille","lat":43.292644,"lon":5.384257,"is_reserved":false,"is_disabled":false,"rental_uris":{"android":"levelo://app?vid=b175deaf-ff61-4afd-98a2-9d097d5e59f9","ios":"levelo://app?vid=b175deaf-ff61-4afd-98a2-9d097d5e59f9"},"vehicle_type_id":"4","last_reported":1691600792,"current_range_meters":19200,"station_id":"ce4bh692rcd13ifvqea0","pricing_plan_id":"free"},{"bike_id":"809cee61-4521-49ff-b17b-f4f260d5f99b","system_id":"levelo_inurba_marseille","lat":43.292644,"lon":5.384257,"is_reserved":false,"is_disabled":false,"rental_uris":{"android":"levelo://app?vid=809cee61-4521-49ff-b17b-f4f260d5f99b","ios":"levelo://app?vid=809cee61-4521-49ff-b17b-f4f260d5f99b"},"vehicle_type_id":"4","last_reported":1691600792,"current_range_meters":22000,"station_id":"ce4bh692rcd13ifvqea0","pricing_plan_id":"free"},{"bike_id":"5944ae54-2b17-4bac-8e9a-affea4235b90","system_id":"levelo_inurba_marseille","lat":43.29263,"lon":5.38434,"is_reserved":false,"is_disabled":false,"rental_uris":{"android":"levelo://app?vid=5944ae54-2b17-4bac-8e9a-affea4235b90","ios":"levelo://app?vid=5944ae54-2b17-4bac-8e9a-affea4235b90"},"vehicle_type_id":"4","last_reported":1691600792,"current_range_meters":8000,"station_id":"ce4bh692rcd13ifvqea0","pricing_plan_id":"free"},{"bike_id":"f721442c-fd36-43b6-929d-626b89a78df4","system_id":"levelo_inurba_marseille","lat":43.292644,"lon":5.384257,"is_reserved":false,"is_disabled":false,"rental_uris":{"android":"levelo://app?vid=f721442c-fd36-43b6-929d-626b89a78df4","ios":"levelo://app?vid=f721442c-fd36-43b6-929d-626b89a78df4"},"vehicle_type_id":"4","last_reported":1691600792,"current_range_meters":22800,"station_id":"ce4bh692rcd13ifvqea0","pricing_plan_id":"free"},{"bike_id":"7aeff44e-0bb5-4422-9e0e-c3ce1f76ff08","system_id":"levelo_inurba_marseille","lat":43.292675,"lon":5.384442,"is_reserved":false,"is_disabled":false,"rental_uris":{"android":"levelo://app?vid=7aeff44e-0bb5-4422-9e0e-c3ce1f76ff08","ios":"levelo://app?vid=7aeff44e-0bb5-4422-9e0e-c3ce1f76ff08"},"vehicle_type_id":"4","last_reported":1691600792,"current_range_meters":27600,"station_id":"","pricing_plan_id":"free"},{"bike_id":"23b7b993-aee2-4d6b-8d16-f4f0b08c1050","system_id":"levelo_inurba_marseille","lat":43.292644,"lon":5.384257,"is_reserved":false,"is_disabled":false,"rental_uris":{"android":"levelo://app?vid=23b7b993-aee2-4d6b-8d16-f4f0b08c1050","ios":"levelo://app?vid=23b7b993-aee2-4d6b-8d16-f4f0b08c1050"},"vehicle_type_id":"4","last_reported":1691600792,"current_range_meters":7200,"station_id":"ce4bh692rcd13ifvqea0","pricing_plan_id":"free"},{"bike_id":"6f45dddc-1074-4d7e-ba87-1c2cb91858b6","system_id":"levelo_inurba_marseille","lat":43.292644,"lon":5.384257,"is_reserved":false,"is_disabled":false,"rental_uris":{"android":"levelo://app?vid=6f45dddc-1074-4d7e-ba87-1c2cb91858b6","ios":"levelo://app?vid=6f45dddc-1074-4d7e-ba87-1c2cb91858b6"},"vehicle_type_id":"4","last_reported":1691600792,"current_range_meters":31200,"station_id":"ce4bh692rcd13ifvqea0","pricing_plan_id":"free"},{"bike_id":"4735545a-843d-48dc-861e-a3bde4922640","system_id":"levelo_inurba_marseille","lat":43.304274,"lon":5.397513,"is_reserved":false,"is_disabled":false,"rental_uris":{"android":"levelo://app?vid=4735545a-843d-48dc-861e-a3bde4922640","ios":"levelo://app?vid=4735545a-843d-48dc-861e-a3bde4922640"},"vehicle_type_id":"4","last_reported":1691600792,"current_range_meters":13200,"station_id":"ce4bh092rcd13ifvqd20","pricing_plan_id":"free"},{"bike_id":"b450d945-18f3-4aeb-994f-34aee0a09d97","system_id":"levelo_inurba_marseille","lat":43.29258,"lon":5.38433,"is_reserved":false,"is_disabled":false,"rental_uris":{"android":"levelo://app?vid=b450d945-18f3-4aeb-994f-34aee0a09d97","ios":"levelo://app?vid=b450d945-18f3-4aeb-994f-34aee0a09d97"},"vehicle_type_id":"4","last_reported":1691600792,"current_range_meters":0,"station_id":"ce4bh692rcd13ifvqea0","pricing_plan_id":"free"},{"bike_id":"e1f0ea6e-dfe8-45d5-8132-f31c4232f35f","system_id":"levelo_inurba_marseille","lat":43.29257,"lon":5.38432,"is_reserved":false,"is_disabled":false,"rental_uris":{"android":"levelo://app?vid=e1f0ea6e-dfe8-45d5-8132-f31c4232f35f","ios":"levelo://app?vid=e1f0ea6e-dfe8-45d5-8132-f31c4232f35f"},"vehicle_type_id":"4","last_reported":1691600792,"current_range_meters":8400,"station_id":"ce4bh692rcd13ifvqea0","pricing_plan_id":"free"},{"bike_id":"167ad71b-b13b-4757-a500-9c02dabd298a","system_id":"levelo_inurba_marseille","lat":43.292644,"lon":5.384257,"is_reserved":false,"is_disabled":false,"rental_uris":{"android":"levelo://app?vid=167ad71b-b13b-4757-a500-9c02dabd298a","ios":"levelo://app?vid=167ad71b-b13b-4757-a500-9c02dabd298a"},"vehicle_type_id":"4","last_reported":1691600792,"current_range_meters":14400,"station_id":"ce4bh692rcd13ifvqea0","pricing_plan_id":"free"},{"bike_id":"7a165af9-105a-4382-a257-af22b803a4a2","system_id":"levelo_inurba_marseille","lat":43.29258,"lon":5.38435,"is_reserved":false,"is_disabled":false,"rental_uris":{"android":"levelo://app?vid=7a165af9-105a-4382-a257-af22b803a4a2","ios":"levelo://app?vid=7a165af9-105a-4382-a257-af22b803a4a2"},"vehicle_type_id":"4","last_reported":1691600792,"current_range_meters":10800,"station_id":"ce4bh692rcd13ifvqea0","pricing_plan_id":"free"},{"bike_id":"8e6f7ec5-5359-4b27-9e78-d632554cec16","system_id":"levelo_inurba_marseille","lat":43.292644,"lon":5.384257,"is_reserved":false,"is_disabled":false,"rental_uris":{"android":"levelo://app?vid=8e6f7ec5-5359-4b27-9e78-d632554cec16","ios":"levelo://app?vid=8e6f7ec5-5359-4b27-9e78-d632554cec16"},"vehicle_type_id":"4","last_reported":1691600792,"current_range_meters":10000,"station_id":"ce4bh692rcd13ifvqea0","pricing_plan_id":"free"},{"bike_id":"d57acbe1-a27e-4b1e-8d00-ee67dc3c4fee","system_id":"levelo_inurba_marseille","lat":43.292644,"lon":5.384257,"is_reserved":false,"is_disabled":false,"rental_uris":{"android":"levelo://app?vid=d57acbe1-a27e-4b1e-8d00-ee67dc3c4fee","ios":"levelo://app?vid=d57acbe1-a27e-4b1e-8d00-ee67dc3c4fee"},"vehicle_type_id":"4","last_reported":1691600792,"current_range_meters":0,"station_id":"ce4bh692rcd13ifvqea0","pricing_plan_id":"free"},{"bike_id":"1f4fe23b-409d-4bd0-bce9-cb421608c5ee","system_id":"levelo_inurba_marseille","lat":43.292644,"lon":5.384257,"is_reserved":false,"is_disabled":false,"rental_uris":{"android":"levelo://app?vid=1f4fe23b-409d-4bd0-bce9-cb421608c5ee","ios":"levelo://app?vid=1f4fe23b-409d-4bd0-bce9-cb421608c5ee"},"vehicle_type_id":"4","last_reported":1691600792,"current_range_meters":5200,"station_id":"ce4bh692rcd13ifvqea0","pricing_plan_id":"free"},{"bike_id":"f8bf6a9c-58da-4368-a1c1-f966be94a14b","system_id":"levelo_inurba_marseille","lat":43.33045,"lon":5.38907,"is_reserved":false,"is_disabled":false,"rental_uris":{"android":"levelo://app?vid=f8bf6a9c-58da-4368-a1c1-f966be94a14b","ios":"levelo://app?vid=f8bf6a9c-58da-4368-a1c1-f966be94a14b"},"vehicle_type_id":"4","last_reported":1691600792,"current_range_meters":30800,"station_id":"ce4bhr92rcd13ifvqhrg","pricing_plan_id":"free"},{"bike_id":"1d39cb6b-9879-4e3f-8a27-1c570603366e","system_id":"levelo_inurba_marseille","lat":43.33046,"lon":5.38906,"is_reserved":false,"is_disabled":false,"rental_uris":{"android":"levelo://app?vid=1d39cb6b-9879-4e3f-8a27-1c570603366e","ios":"levelo://app?vid=1d39cb6b-9879-4e3f-8a27-1c570603366e"},"vehicle_type_id":"4","last_reported":1691600792,"current_range_meters":31200,"station_id":"ce4bhr92rcd13ifvqhrg","pricing_plan_id":"free"},{"bike_id":"f71aed5b-352a-4d4c-967b-b7e0283ec3d5","system_id":"levelo_inurba_marseille","lat":43.33046,"lon":5.38913,"is_reserved":false,"is_disabled":false,"rental_uris":{"android":"levelo://app?vid=f71aed5b-352a-4d4c-967b-b7e0283ec3d5","ios":"levelo://app?vid=f71aed5b-352a-4d4c-967b-b7e0283ec3d5"},"vehicle_type_id":"4","last_reported":1691600792,"current_range_meters":29200,"station_id":"ce4bhr92rcd13ifvqhrg","pricing_plan_id":"free"},{"bike_id":"3287fb30-ec66-4dda-b599-a65f0dc59abf","system_id":"levelo_inurba_marseille","lat":43.33049,"lon":5.38909,"is_reserved":false,"is_disabled":false,"rental_uris":{"android":"levelo://app?vid=3287fb30-ec66-4dda-b599-a65f0dc59abf","ios":"levelo://app?vid=3287fb30-ec66-4dda-b599-a65f0dc59abf"},"vehicle_type_id":"4","last_reported":1691600792,"current_range_meters":24400,"station_id":"ce4bhr92rcd13ifvqhrg","pricing_plan_id":"free"},{"bike_id":"d92191b5-3897-428d-989c-4b986c7a7e64","system_id":"levelo_inurba_marseille","lat":43.29008,"lon":5.35612,"is_reserved":false,"is_disabled":false,"rental_uris":{"android":"levelo://app?vid=d92191b5-3897-428d-989c-4b986c7a7e64","ios":"levelo://app?vid=d92191b5-3897-428d-989c-4b986c7a7e64"},"vehicle_type_id":"4","last_reported":1691600792,"current_range_meters":30800,"station_id":"ce4bhb92rcd13ifvqen0","pricing_plan_id":"free"},{"bike_id":"915f802e-f31b-4c71-8de0-2a5fc39e5970","system_id":"levelo_inurba_marseille","lat":43.3304,"lon":5.38924,"is_reserved":false,"is_disabled":false,"rental_uris":{"android":"levelo://app?vid=915f802e-f31b-4c71-8de0-2a5fc39e5970","ios":"levelo://app?vid=915f802e-f31b-4c71-8de0-2a5fc39e5970"},"vehicle_type_id":"4","last_reported":1691600792,"current_range_meters":14000,"station_id":"ce4bhr92rcd13ifvqhrg","pricing_plan_id":"free"},{"bike_id":"7b78d55e-e99c-4fa7-968a-c672d6912f00","system_id":"levelo_inurba_marseille","lat":43.29008,"lon":5.3561,"is_reserved":false,"is_disabled":false,"rental_uris":{"android":"levelo://app?vid=7b78d55e-e99c-4fa7-968a-c672d6912f00","ios":"levelo://app?vid=7b78d55e-e99c-4fa7-968a-c672d6912f00"},"vehicle_type_id":"4","last_reported":1691600792,"current_range_meters":31200,"station_id":"ce4bhb92rcd13ifvqen0","pricing_plan_id":"free"},{"bike_id":"981fc383-fb5c-4c8b-9e13-8726f26b4a9d","system_id":"levelo_inurba_marseille","lat":43.297815,"lon":5.393548,"is_reserved":false,"is_disabled":false,"rental_uris":{"android":"levelo://app?vid=981fc383-fb5c-4c8b-9e13-8726f26b4a9d","ios":"levelo://app?vid=981fc383-fb5c-4c8b-9e13-8726f26b4a9d"},"vehicle_type_id":"4","last_reported":1691600792,"current_range_meters":2800,"station_id":"chh1huq6cuj3fo74tm60","pricing_plan_id":"free"},{"bike_id":"0ce854df-0068-4f73-86bd-b70ff8174073","system_id":"levelo_inurba_marseille","lat":43.29519,"lon":5.39039,"is_reserved":false,"is_disabled":false,"rental_uris":{"android":"levelo://app?vid=0ce854df-0068-4f73-86bd-b70ff8174073","ios":"levelo://app?vid=0ce854df-0068-4f73-86bd-b70ff8174073"},"vehicle_type_id":"4","last_reported":1691600792,"current_range_meters":16400,"station_id":"ce4bh3p2rcd13ifvqdp0","pricing_plan_id":"free"},{"bike_id":"d6bde5e4-acca-4b75-8df1-ac967e590560","system_id":"levelo_inurba_marseille","lat":43.28851,"lon":5.35856,"is_reserved":false,"is_disabled":false,"rental_uris":{"android":"levelo://app?vid=d6bde5e4-acca-4b75-8df1-ac967e590560","ios":"levelo://app?vid=d6bde5e4-acca-4b75-8df1-ac967e590560"},"vehicle_type_id":"4","last_reported":1691600792,"current_range_meters":22800,"station_id":"ce4bhb12rcd13ifvqem0","pricing_plan_id":"free"},{"bike_id":"59a236d1-7af9-4fb3-b7b6-c89e92e0f2af","system_id":"levelo_inurba_marseille","lat":43.28849,"lon":5.35847,"is_reserved":false,"is_disabled":false,"rental_uris":{"android":"levelo://app?vid=59a236d1-7af9-4fb3-b7b6-c89e92e0f2af","ios":"levelo://app?vid=59a236d1-7af9-4fb3-b7b6-c89e92e0f2af"},"vehicle_type_id":"4","last_reported":1691600792,"current_range_meters":15200,"station_id":"ce4bhb12rcd13ifvqem0","pricing_plan_id":"free"},{"bike_id":"a72a9e65-5074-4e7f-b9e6-cc8333fff4ef","system_id":"levelo_inurba_marseille","lat":43.28849,"lon":5.35842,"is_reserved":false,"is_disabled":false,"rental_uris":{"android":"levelo://app?vid=a72a9e65-5074-4e7f-b9e6-cc8333fff4ef","ios":"levelo://app?vid=a72a9e65-5074-4e7f-b9e6-cc8333fff4ef"},"vehicle_type_id":"4","last_reported":1691600792,"current_range_meters":0,"station_id":"ce4bhb12rcd13ifvqem0","pricing_plan_id":"free"},{"bike_id":"b99300a7-1f16-4d83-a83e-33b8fe07a13d","system_id":"levelo_inurba_marseille","lat":43.28848,"lon":5.35846,"is_reserved":false,"is_disabled":false,"rental_uris":{"android":"levelo://app?vid=b99300a7-1f16-4d83-a83e-33b8fe07a13d","ios":"levelo://app?vid=b99300a7-1f16-4d83-a83e-33b8fe07a13d"},"vehicle_type_id":"4","last_reported":1691600792,"current_range_meters":27600,"station_id":"","pricing_plan_id":"free"},{"bike_id":"b8a49fd5-a6df-4c6b-9a07-49f1a8160363","system_id":"levelo_inurba_marseille","lat":43.31278,"lon":5.40159,"is_reserved":false,"is_disabled":false,"rental_uris":{"android":"levelo://app?vid=b8a49fd5-a6df-4c6b-9a07-49f1a8160363","ios":"levelo://app?vid=b8a49fd5-a6df-4c6b-9a07-49f1a8160363"},"vehicle_type_id":"4","last_reported":1691600792,"current_range_meters":30400,"station_id":"ce4bh092rcd13ifvqd30","pricing_plan_id":"free"},{"bike_id":"b4b03c18-7488-44cf-af79-c3b7598b2050","system_id":"levelo_inurba_marseille","lat":43.231793,"lon":5.400044,"is_reserved":false,"is_disabled":false,"rental_uris":{"android":"levelo://app?vid=b4b03c18-7488-44cf-af79-c3b7598b2050","ios":"levelo://app?vid=b4b03c18-7488-44cf-af79-c3b7598b2050"},"vehicle_type_id":"4","last_reported":1691600792,"current_range_meters":18000,"station_id":"ce4bhn12rcd13ifvqgqg","pricing_plan_id":"free"},{"bike_id":"603ade40-ccac-4d2d-837f-d63eb47feb2a","system_id":"levelo_inurba_marseille","lat":43.30641,"lon":5.40083,"is_reserved":false,"is_disabled":false,"rental_uris":{"android":"levelo://app?vid=603ade40-ccac-4d2d-837f-d63eb47feb2a","ios":"levelo://app?vid=603ade40-ccac-4d2d-837f-d63eb47feb2a"},"vehicle_type_id":"4","last_reported":1691600792,"current_range_meters":14800,"station_id":"ce4bh112rcd13ifvqda0","pricing_plan_id":"free"},{"bike_id":"3585088c-1fad-4eca-b223-780202197d91","system_id":"levelo_inurba_marseille","lat":43.33017,"lon":5.3925,"is_reserved":false,"is_disabled":false,"rental_uris":{"android":"levelo://app?vid=3585088c-1fad-4eca-b223-780202197d91","ios":"levelo://app?vid=3585088c-1fad-4eca-b223-780202197d91"},"vehicle_type_id":"4","last_reported":1691600792,"current_range_meters":7600,"station_id":"","pricing_plan_id":"free"},{"bike_id":"587f2a5e-97aa-4562-ad3a-7a9ad8b5b318","system_id":"levelo_inurba_marseille","lat":43.33762,"lon":5.3746,"is_reserved":false,"is_disabled":false,"rental_uris":{"android":"levelo://app?vid=587f2a5e-97aa-4562-ad3a-7a9ad8b5b318","ios":"levelo://app?vid=587f2a5e-97aa-4562-ad3a-7a9ad8b5b318"},"vehicle_type_id":"4","last_reported":1691600792,"current_range_meters":29600,"station_id":"","pricing_plan_id":"free"},{"bike_id":"4bc49612-abff-4e5f-b302-69b9d486f3da","system_id":"levelo_inurba_marseille","lat":43.306051,"lon":5.400999,"is_reserved":false,"is_disabled":false,"rental_uris":{"android":"levelo://app?vid=4bc49612-abff-4e5f-b302-69b9d486f3da","ios":"levelo://app?vid=4bc49612-abff-4e5f-b302-69b9d486f3da"},"vehicle_type_id":"4","last_reported":1691600792,"current_range_meters":8800,"station_id":"ce4bhb92rcd13ifvqen0","pricing_plan_id":"free"},{"bike_id":"9c322c32-073f-4701-bab0-ec81020de873","system_id":"levelo_inurba_marseille","lat":43.301117,"lon":5.398795,"is_reserved":false,"is_disabled":false,"rental_uris":{"android":"levelo://app?vid=9c322c32-073f-4701-bab0-ec81020de873","ios":"levelo://app?vid=9c322c32-073f-4701-bab0-ec81020de873"},"vehicle_type_id":"4","last_reported":1691600792,"current_range_meters":28800,"station_id":"ce4bh0h2rcd13ifvqd40","pricing_plan_id":"free"},{"bike_id":"daa13e7a-668a-43db-99ee-5b80000e6e42","system_id":"levelo_inurba_marseille","lat":43.286591,"lon":5.363346,"is_reserved":false,"is_disabled":false,"rental_uris":{"android":"levelo://app?vid=daa13e7a-668a-43db-99ee-5b80000e6e42","ios":"levelo://app?vid=daa13e7a-668a-43db-99ee-5b80000e6e42"},"vehicle_type_id":"4","last_reported":1691600792,"current_range_meters":22400,"station_id":"ce4bhah2rcd13ifvqej0","pricing_plan_id":"free"},{"bike_id":"2c3df343-bc1c-4eb8-b5f5-75a560bc4a09","system_id":"levelo_inurba_marseille","lat":43.298681,"lon":5.397225,"is_reserved":false,"is_disabled":false,"rental_uris":{"android":"levelo://app?vid=2c3df343-bc1c-4eb8-b5f5-75a560bc4a09","ios":"levelo://app?vid=2c3df343-bc1c-4eb8-b5f5-75a560bc4a09"},"vehicle_type_id":"4","last_reported":1691600792,"current_range_meters":31600,"station_id":"ce4bh0h2rcd13ifvqd50","pricing_plan_id":"free"},{"bike_id":"1f9b1049-963d-43d4-a790-48c0099b2d42","system_id":"levelo_inurba_marseille","lat":43.286591,"lon":5.363346,"is_reserved":false,"is_disabled":false,"rental_uris":{"android":"levelo://app?vid=1f9b1049-963d-43d4-a790-48c0099b2d42","ios":"levelo://app?vid=1f9b1049-963d-43d4-a790-48c0099b2d42"},"vehicle_type_id":"4","last_reported":1691600792,"current_range_meters":15600,"station_id":"ce4bhah2rcd13ifvqej0","pricing_plan_id":"free"},{"bike_id":"75199276-b705-4ad7-b6a9-49aeaa84628a","system_id":"levelo_inurba_marseille","lat":43.286591,"lon":5.363346,"is_reserved":false,"is_disabled":false,"rental_uris":{"android":"levelo://app?vid=75199276-b705-4ad7-b6a9-49aeaa84628a","ios":"levelo://app?vid=75199276-b705-4ad7-b6a9-49aeaa84628a"},"vehicle_type_id":"4","last_reported":1691600792,"current_range_meters":31600,"station_id":"ce4bhah2rcd13ifvqej0","pricing_plan_id":"free"},{"bike_id":"ca511244-6757-4346-84b5-1769088da0fc","system_id":"levelo_inurba_marseille","lat":43.295196,"lon":5.39397,"is_reserved":false,"is_disabled":false,"rental_uris":{"android":"levelo://app?vid=ca511244-6757-4346-84b5-1769088da0fc","ios":"levelo://app?vid=ca511244-6757-4346-84b5-1769088da0fc"},"vehicle_type_id":"4","last_reported":1691600792,"current_range_meters":23600,"station_id":"ce4bh292rcd13ifvqdf0","pricing_plan_id":"free"},{"bike_id":"bb81291d-9350-4038-8a76-7f01f74a7886","system_id":"levelo_inurba_marseille","lat":43.302548,"lon":5.400568,"is_reserved":false,"is_disabled":false,"rental_uris":{"android":"levelo://app?vid=bb81291d-9350-4038-8a76-7f01f74a7886","ios":"levelo://app?vid=bb81291d-9350-4038-8a76-7f01f74a7886"},"vehicle_type_id":"4","last_reported":1691600792,"current_range_meters":0,"station_id":"","pricing_plan_id":"free"},{"bike_id":"9c4be964-72a9-4d1c-881b-3401826755f0","system_id":"levelo_inurba_marseille","lat":43.302759,"lon":5.400793,"is_reserved":false,"is_disabled":false,"rental_uris":{"android":"levelo://app?vid=9c4be964-72a9-4d1c-881b-3401826755f0","ios":"levelo://app?vid=9c4be964-72a9-4d1c-881b-3401826755f0"},"vehicle_type_id":"4","last_reported":1691600792,"current_range_meters":14800,"station_id":"ce4bgvh2rcd13ifvqcs0","pricing_plan_id":"free"},{"bike_id":"c681c776-8530-496f-b58d-e69b6e130845","system_id":"levelo_inurba_marseille","lat":43.302759,"lon":5.400793,"is_reserved":false,"is_disabled":false,"rental_uris":{"android":"levelo://app?vid=c681c776-8530-496f-b58d-e69b6e130845","ios":"levelo://app?vid=c681c776-8530-496f-b58d-e69b6e130845"},"vehicle_type_id":"4","last_reported":1691600792,"current_range_meters":4800,"station_id":"ce4bgvh2rcd13ifvqcs0","pricing_plan_id":"free"},{"bike_id":"a52715fd-5956-4557-9743-d0322cd2f030","system_id":"levelo_inurba_marseille","lat":43.286039,"lon":5.370679,"is_reserved":false,"is_disabled":false,"rental_uris":{"android":"levelo://app?vid=a52715fd-5956-4557-9743-d0322cd2f030","ios":"levelo://app?vid=a52715fd-5956-4557-9743-d0322cd2f030"},"vehicle_type_id":"4","last_reported":1691600792,"current_range_meters":14400,"station_id":"ce4bht12rcd13ifvqi60","pricing_plan_id":"free"},{"bike_id":"e8559ca4-c3ca-4f57-93e1-db9cc78feee8","system_id":"levelo_inurba_marseille","lat":43.287184,"lon":5.37937,"is_reserved":false,"is_disabled":false,"rental_uris":{"android":"levelo://app?vid=e8559ca4-c3ca-4f57-93e1-db9cc78feee8","ios":"levelo://app?vid=e8559ca4-c3ca-4f57-93e1-db9cc78feee8"},"vehicle_type_id":"4","last_reported":1691600792,"current_range_meters":4800,"station_id":"ce4bh9p2rcd13ifvqec0","pricing_plan_id":"free"},{"bike_id":"6a47f807-558c-4b3e-b9ba-3ca23ec1d50f","system_id":"levelo_inurba_marseille","lat":43.287184,"lon":5.37937,"is_reserved":false,"is_disabled":false,"rental_uris":{"android":"levelo://app?vid=6a47f807-558c-4b3e-b9ba-3ca23ec1d50f","ios":"levelo://app?vid=6a47f807-558c-4b3e-b9ba-3ca23ec1d50f"},"vehicle_type_id":"4","last_reported":1691600792,"current_range_meters":0,"station_id":"ce4bh9p2rcd13ifvqec0","pricing_plan_id":"free"},{"bike_id":"65248949-f791-478e-9ff8-be4737eefb0a","system_id":"levelo_inurba_marseille","lat":43.285856,"lon":5.350771,"is_reserved":false,"is_disabled":false,"rental_uris":{"android":"levelo://app?vid=65248949-f791-478e-9ff8-be4737eefb0a","ios":"levelo://app?vid=65248949-f791-478e-9ff8-be4737eefb0a"},"vehicle_type_id":"4","last_reported":1691600792,"current_range_meters":22000,"station_id":"ce4bhch2rcd13ifvqeug","pricing_plan_id":"free"},{"bike_id":"8b860385-a8ad-4722-a9a0-b71083dfcf75","system_id":"levelo_inurba_marseille","lat":43.284538,"lon":5.358657,"is_reserved":false,"is_disabled":false,"rental_uris":{"android":"levelo://app?vid=8b860385-a8ad-4722-a9a0-b71083dfcf75","ios":"levelo://app?vid=8b860385-a8ad-4722-a9a0-b71083dfcf75"},"vehicle_type_id":"4","last_reported":1691600792,"current_range_meters":19200,"station_id":"ce4bhah2rcd13ifvqei0","pricing_plan_id":"free"},{"bike_id":"f84b9da6-84f3-45a6-8d98-2fcbb2a0146a","system_id":"levelo_inurba_marseille","lat":43.284538,"lon":5.358657,"is_reserved":false,"is_disabled":false,"rental_uris":{"android":"levelo://app?vid=f84b9da6-84f3-45a6-8d98-2fcbb2a0146a","ios":"levelo://app?vid=f84b9da6-84f3-45a6-8d98-2fcbb2a0146a"},"vehicle_type_id":"4","last_reported":1691600792,"current_range_meters":30000,"station_id":"ce4bhah2rcd13ifvqei0","pricing_plan_id":"free"},{"bike_id":"a4947fc4-b063-414c-9913-83cfb820c9e0","system_id":"levelo_inurba_marseille","lat":43.284538,"lon":5.358657,"is_reserved":false,"is_disabled":false,"rental_uris":{"android":"levelo://app?vid=a4947fc4-b063-414c-9913-83cfb820c9e0","ios":"levelo://app?vid=a4947fc4-b063-414c-9913-83cfb820c9e0"},"vehicle_type_id":"4","last_reported":1691600792,"current_range_meters":2000,"station_id":"ce4bhah2rcd13ifvqei0","pricing_plan_id":"free"},{"bike_id":"1ad8d040-3362-4ab0-8398-db81eda9e4f6","system_id":"levelo_inurba_marseille","lat":43.28622,"lon":5.35107,"is_reserved":false,"is_disabled":false,"rental_uris":{"android":"levelo://app?vid=1ad8d040-3362-4ab0-8398-db81eda9e4f6","ios":"levelo://app?vid=1ad8d040-3362-4ab0-8398-db81eda9e4f6"},"vehicle_type_id":"4","last_reported":1691600792,"current_range_meters":19200,"station_id":"ce4bhch2rcd13ifvqeug","pricing_plan_id":"free"},{"bike_id":"78e426c0-38f0-4f87-9777-9d8cfcddf71b","system_id":"levelo_inurba_marseille","lat":43.28621,"lon":5.35108,"is_reserved":false,"is_disabled":false,"rental_uris":{"android":"levelo://app?vid=78e426c0-38f0-4f87-9777-9d8cfcddf71b","ios":"levelo://app?vid=78e426c0-38f0-4f87-9777-9d8cfcddf71b"},"vehicle_type_id":"4","last_reported":1691600792,"current_range_meters":0,"station_id":"ce4bhch2rcd13ifvqeug","pricing_plan_id":"free"},{"bike_id":"b2d3bc4d-26d0-4ae0-bfb2-1facedf45f76","system_id":"levelo_inurba_marseille","lat":43.2862,"lon":5.35103,"is_reserved":false,"is_disabled":false,"rental_uris":{"android":"levelo://app?vid=b2d3bc4d-26d0-4ae0-bfb2-1facedf45f76","ios":"levelo://app?vid=b2d3bc4d-26d0-4ae0-bfb2-1facedf45f76"},"vehicle_type_id":"4","last_reported":1691600792,"current_range_meters":18000,"station_id":"ce4bhch2rcd13ifvqeug","pricing_plan_id":"free"},{"bike_id":"2a0c9222-fda3-4870-aa8f-c2bc73a358db","system_id":"levelo_inurba_marseille","lat":43.28619,"lon":5.35106,"is_reserved":false,"is_disabled":false,"rental_uris":{"android":"levelo://app?vid=2a0c9222-fda3-4870-aa8f-c2bc73a358db","ios":"levelo://app?vid=2a0c9222-fda3-4870-aa8f-c2bc73a358db"},"vehicle_type_id":"4","last_reported":1691600792,"current_range_meters":26800,"station_id":"ce4bhch2rcd13ifvqeug","pricing_plan_id":"free"},{"bike_id":"b97216f1-d98a-49d0-a5fe-e4f61e335c33","system_id":"levelo_inurba_marseille","lat":43.28618,"lon":5.35108,"is_reserved":false,"is_disabled":false,"rental_uris":{"android":"levelo://app?vid=b97216f1-d98a-49d0-a5fe-e4f61e335c33","ios":"levelo://app?vid=b97216f1-d98a-49d0-a5fe-e4f61e335c33"},"vehicle_type_id":"4","last_reported":1691600792,"current_range_meters":17600,"station_id":"ce4bhch2rcd13ifvqeug","pricing_plan_id":"free"},{"bike_id":"92aa35b2-bb02-44da-8a9a-a4d5bb959847","system_id":"levelo_inurba_marseille","lat":43.28619,"lon":5.35104,"is_reserved":false,"is_disabled":false,"rental_uris":{"android":"levelo://app?vid=92aa35b2-bb02-44da-8a9a-a4d5bb959847","ios":"levelo://app?vid=92aa35b2-bb02-44da-8a9a-a4d5bb959847"},"vehicle_type_id":"4","last_reported":1691600792,"current_range_meters":31200,"station_id":"ce4bhch2rcd13ifvqeug","pricing_plan_id":"free"},{"bike_id":"6eaf5140-63f9-4533-bcbf-82b35e341718","system_id":"levelo_inurba_marseille","lat":43.28619,"lon":5.35103,"is_reserved":false,"is_disabled":false,"rental_uris":{"android":"levelo://app?vid=6eaf5140-63f9-4533-bcbf-82b35e341718","ios":"levelo://app?vid=6eaf5140-63f9-4533-bcbf-82b35e341718"},"vehicle_type_id":"4","last_reported":1691600792,"current_range_meters":22400,"station_id":"ce4bhch2rcd13ifvqeug","pricing_plan_id":"free"},{"bike_id":"87e2c347-ad0a-44c5-8151-8169583189b2","system_id":"levelo_inurba_marseille","lat":43.28618,"lon":5.35104,"is_reserved":false,"is_disabled":false,"rental_uris":{"android":"levelo://app?vid=87e2c347-ad0a-44c5-8151-8169583189b2","ios":"levelo://app?vid=87e2c347-ad0a-44c5-8151-8169583189b2"},"vehicle_type_id":"4","last_reported":1691600792,"current_range_meters":31200,"station_id":"ce4bhch2rcd13ifvqeug","pricing_plan_id":"free"},{"bike_id":"7bfaf776-a589-4b0a-b881-9816c974f233","system_id":"levelo_inurba_marseille","lat":43.28619,"lon":5.351,"is_reserved":false,"is_disabled":false,"rental_uris":{"android":"levelo://app?vid=7bfaf776-a589-4b0a-b881-9816c974f233","ios":"levelo://app?vid=7bfaf776-a589-4b0a-b881-9816c974f233"},"vehicle_type_id":"4","last_reported":1691600792,"current_range_meters":31200,"station_id":"ce4bhch2rcd13ifvqeug","pricing_plan_id":"free"},{"bike_id":"ac44739b-4d08-4cae-a5c5-839458d0dfaf","system_id":"levelo_inurba_marseille","lat":43.28619,"lon":5.35099,"is_reserved":false,"is_disabled":false,"rental_uris":{"android":"levelo://app?vid=ac44739b-4d08-4cae-a5c5-839458d0dfaf","ios":"levelo://app?vid=ac44739b-4d08-4cae-a5c5-839458d0dfaf"},"vehicle_type_id":"4","last_reported":1691600792,"current_range_meters":31200,"station_id":"ce4bhch2rcd13ifvqeug","pricing_plan_id":"free"},{"bike_id":"0be0192d-d13b-4114-bb90-2b572bb95898","system_id":"levelo_inurba_marseille","lat":43.28618,"lon":5.35102,"is_reserved":false,"is_disabled":false,"rental_uris":{"android":"levelo://app?vid=0be0192d-d13b-4114-bb90-2b572bb95898","ios":"levelo://app?vid=0be0192d-d13b-4114-bb90-2b572bb95898"},"vehicle_type_id":"4","last_reported":1691600792,"current_range_meters":31200,"station_id":"ce4bhch2rcd13ifvqeug","pricing_plan_id":"free"},{"bike_id":"b8405da9-a15b-40fd-8c5d-ae7b39f0448b","system_id":"levelo_inurba_marseille","lat":43.28615,"lon":5.3511,"is_reserved":false,"is_disabled":false,"rental_uris":{"android":"levelo://app?vid=b8405da9-a15b-40fd-8c5d-ae7b39f0448b","ios":"levelo://app?vid=b8405da9-a15b-40fd-8c5d-ae7b39f0448b"},"vehicle_type_id":"4","last_reported":1691600792,"current_range_meters":14400,"station_id":"ce4bhch2rcd13ifvqeug","pricing_plan_id":"free"},{"bike_id":"33a523d9-8058-4d38-bfce-46c6266b58af","system_id":"levelo_inurba_marseille","lat":43.28615,"lon":5.3511,"is_reserved":false,"is_disabled":false,"rental_uris":{"android":"levelo://app?vid=33a523d9-8058-4d38-bfce-46c6266b58af","ios":"levelo://app?vid=33a523d9-8058-4d38-bfce-46c6266b58af"},"vehicle_type_id":"4","last_reported":1691600792,"current_range_meters":2000,"station_id":"ce4bhch2rcd13ifvqeug","pricing_plan_id":"free"},{"bike_id":"888fcdec-570e-4574-aebc-7a9016b3b958","system_id":"levelo_inurba_marseille","lat":43.28616,"lon":5.35105,"is_reserved":false,"is_disabled":false,"rental_uris":{"android":"levelo://app?vid=888fcdec-570e-4574-aebc-7a9016b3b958","ios":"levelo://app?vid=888fcdec-570e-4574-aebc-7a9016b3b958"},"vehicle_type_id":"4","last_reported":1691600792,"current_range_meters":31200,"station_id":"ce4bhch2rcd13ifvqeug","pricing_plan_id":"free"},{"bike_id":"c9f1485c-d396-4e43-bde3-5a91ad071351","system_id":"levelo_inurba_marseille","lat":43.28615,"lon":5.35108,"is_reserved":false,"is_disabled":false,"rental_uris":{"android":"levelo://app?vid=c9f1485c-d396-4e43-bde3-5a91ad071351","ios":"levelo://app?vid=c9f1485c-d396-4e43-bde3-5a91ad071351"},"vehicle_type_id":"4","last_reported":1691600792,"current_range_meters":15200,"station_id":"ce4bhch2rcd13ifvqeug","pricing_plan_id":"free"},{"bike_id":"10bc812a-766c-4231-beb3-4cddfd796f34","system_id":"levelo_inurba_marseille","lat":43.28617,"lon":5.35098,"is_reserved":false,"is_disabled":false,"rental_uris":{"android":"levelo://app?vid=10bc812a-766c-4231-beb3-4cddfd796f34","ios":"levelo://app?vid=10bc812a-766c-4231-beb3-4cddfd796f34"},"vehicle_type_id":"4","last_reported":1691600792,"current_range_meters":31200,"station_id":"ce4bhch2rcd13ifvqeug","pricing_plan_id":"free"},{"bike_id":"ddd48d38-6449-489d-a7f3-7d2082b01291","system_id":"levelo_inurba_marseille","lat":43.28614,"lon":5.35105,"is_reserved":false,"is_disabled":false,"rental_uris":{"android":"levelo://app?vid=ddd48d38-6449-489d-a7f3-7d2082b01291","ios":"levelo://app?vid=ddd48d38-6449-489d-a7f3-7d2082b01291"},"vehicle_type_id":"4","last_reported":1691600792,"current_range_meters":14000,"station_id":"ce4bhch2rcd13ifvqeug","pricing_plan_id":"free"},{"bike_id":"c5b8cf2d-c743-4641-a6a3-09dbbf69b363","system_id":"levelo_inurba_marseille","lat":43.28613,"lon":5.35107,"is_reserved":false,"is_disabled":false,"rental_uris":{"android":"levelo://app?vid=c5b8cf2d-c743-4641-a6a3-09dbbf69b363","ios":"levelo://app?vid=c5b8cf2d-c743-4641-a6a3-09dbbf69b363"},"vehicle_type_id":"4","last_reported":1691600792,"current_range_meters":23600,"station_id":"ce4bhch2rcd13ifvqeug","pricing_plan_id":"free"},{"bike_id":"b37349fe-78a9-47fa-8ab1-312055e21bc7","system_id":"levelo_inurba_marseille","lat":43.28614,"lon":5.35103,"is_reserved":false,"is_disabled":false,"rental_uris":{"android":"levelo://app?vid=b37349fe-78a9-47fa-8ab1-312055e21bc7","ios":"levelo://app?vid=b37349fe-78a9-47fa-8ab1-312055e21bc7"},"vehicle_type_id":"4","last_reported":1691600792,"current_range_meters":0,"station_id":"ce4bhch2rcd13ifvqeug","pricing_plan_id":"free"},{"bike_id":"5ed05166-9f6f-4fef-8b18-894a9048eee9","system_id":"levelo_inurba_marseille","lat":43.285856,"lon":5.350771,"is_reserved":false,"is_disabled":false,"rental_uris":{"android":"levelo://app?vid=5ed05166-9f6f-4fef-8b18-894a9048eee9","ios":"levelo://app?vid=5ed05166-9f6f-4fef-8b18-894a9048eee9"},"vehicle_type_id":"4","last_reported":1691600792,"current_range_meters":6400,"station_id":"ce4bhch2rcd13ifvqeug","pricing_plan_id":"free"},{"bike_id":"de46a48c-fbf2-4923-bb71-85cebd33b546","system_id":"levelo_inurba_marseille","lat":43.2861,"lon":5.3511,"is_reserved":false,"is_disabled":false,"rental_uris":{"android":"levelo://app?vid=de46a48c-fbf2-4923-bb71-85cebd33b546","ios":"levelo://app?vid=de46a48c-fbf2-4923-bb71-85cebd33b546"},"vehicle_type_id":"4","last_reported":1691600792,"current_range_meters":20000,"station_id":"ce4bhch2rcd13ifvqeug","pricing_plan_id":"free"},{"bike_id":"1fda1a1c-8223-404c-b912-363ea60bf115","system_id":"levelo_inurba_marseille","lat":43.286147,"lon":5.350951,"is_reserved":false,"is_disabled":false,"rental_uris":{"android":"levelo://app?vid=1fda1a1c-8223-404c-b912-363ea60bf115","ios":"levelo://app?vid=1fda1a1c-8223-404c-b912-363ea60bf115"},"vehicle_type_id":"4","last_reported":1691600792,"current_range_meters":9600,"station_id":"ce4bhch2rcd13ifvqeug","pricing_plan_id":"free"},{"bike_id":"89cee22f-f32a-4910-86c8-a4f50aa3bc6b","system_id":"levelo_inurba_marseille","lat":43.285856,"lon":5.350771,"is_reserved":false,"is_disabled":false,"rental_uris":{"android":"levelo://app?vid=89cee22f-f32a-4910-86c8-a4f50aa3bc6b","ios":"levelo://app?vid=89cee22f-f32a-4910-86c8-a4f50aa3bc6b"},"vehicle_type_id":"4","last_reported":1691600792,"current_range_meters":25600,"station_id":"ce4bhch2rcd13ifvqeug","pricing_plan_id":"free"},{"bike_id":"cdee7ed6-8617-469d-a657-7e304352d1d2","system_id":"levelo_inurba_marseille","lat":43.285856,"lon":5.350771,"is_reserved":false,"is_disabled":false,"rental_uris":{"android":"levelo://app?vid=cdee7ed6-8617-469d-a657-7e304352d1d2","ios":"levelo://app?vid=cdee7ed6-8617-469d-a657-7e304352d1d2"},"vehicle_type_id":"4","last_reported":1691600792,"current_range_meters":14800,"station_id":"ce4bhch2rcd13ifvqeug","pricing_plan_id":"free"},{"bike_id":"04d79f8e-22d6-49e5-972f-0ddf5cb53759","system_id":"levelo_inurba_marseille","lat":43.283998,"lon":5.375062,"is_reserved":false,"is_disabled":false,"rental_uris":{"android":"levelo://app?vid=04d79f8e-22d6-49e5-972f-0ddf5cb53759","ios":"levelo://app?vid=04d79f8e-22d6-49e5-972f-0ddf5cb53759"},"vehicle_type_id":"4","last_reported":1691600792,"current_range_meters":18400,"station_id":"ce4bh412rcd13ifvqds0","pricing_plan_id":"free"},{"bike_id":"30edc61e-e627-4fcf-9c52-4f6d9b4679ba","system_id":"levelo_inurba_marseille","lat":43.283998,"lon":5.375062,"is_reserved":false,"is_disabled":false,"rental_uris":{"android":"levelo://app?vid=30edc61e-e627-4fcf-9c52-4f6d9b4679ba","ios":"levelo://app?vid=30edc61e-e627-4fcf-9c52-4f6d9b4679ba"},"vehicle_type_id":"4","last_reported":1691600792,"current_range_meters":23200,"station_id":"ce4bh412rcd13ifvqds0","pricing_plan_id":"free"},{"bike_id":"e335f635-6bde-48e3-b05a-147b7652e5e9","system_id":"levelo_inurba_marseille","lat":43.31887,"lon":5.4073,"is_reserved":false,"is_disabled":false,"rental_uris":{"android":"levelo://app?vid=e335f635-6bde-48e3-b05a-147b7652e5e9","ios":"levelo://app?vid=e335f635-6bde-48e3-b05a-147b7652e5e9"},"vehicle_type_id":"4","last_reported":1691600792,"current_range_meters":19600,"station_id":"ce4bhq12rcd13ifvqhig","pricing_plan_id":"free"},{"bike_id":"b2a3b27f-fa42-4588-ba61-6a762ab08897","system_id":"levelo_inurba_marseille","lat":43.337168,"lon":5.391825,"is_reserved":false,"is_disabled":false,"rental_uris":{"android":"levelo://app?vid=b2a3b27f-fa42-4588-ba61-6a762ab08897","ios":"levelo://app?vid=b2a3b27f-fa42-4588-ba61-6a762ab08897"},"vehicle_type_id":"4","last_reported":1691600792,"current_range_meters":25200,"station_id":"ce4bhr92rcd13ifvqhsg","pricing_plan_id":"free"},{"bike_id":"c1c36742-594e-4942-8b1b-16f98a15fa5e","system_id":"levelo_inurba_marseille","lat":43.32342,"lon":5.4062,"is_reserved":false,"is_disabled":false,"rental_uris":{"android":"levelo://app?vid=c1c36742-594e-4942-8b1b-16f98a15fa5e","ios":"levelo://app?vid=c1c36742-594e-4942-8b1b-16f98a15fa5e"},"vehicle_type_id":"4","last_reported":1691600792,"current_range_meters":31200,"station_id":"ce4bhq92rcd13ifvqhjg","pricing_plan_id":"free"},{"bike_id":"33aab567-0c7e-4402-bb49-fdb994b5c19d","system_id":"levelo_inurba_marseille","lat":43.284787,"lon":5.384116,"is_reserved":false,"is_disabled":false,"rental_uris":{"android":"levelo://app?vid=33aab567-0c7e-4402-bb49-fdb994b5c19d","ios":"levelo://app?vid=33aab567-0c7e-4402-bb49-fdb994b5c19d"},"vehicle_type_id":"4","last_reported":1691600792,"current_range_meters":5200,"station_id":"ce4bh512rcd13ifvqe3g","pricing_plan_id":"free"},{"bike_id":"332aecbe-8a2d-4ca6-a7e6-d8b330e727e7","system_id":"levelo_inurba_marseille","lat":43.29798,"lon":5.40402,"is_reserved":false,"is_disabled":false,"rental_uris":{"android":"levelo://app?vid=332aecbe-8a2d-4ca6-a7e6-d8b330e727e7","ios":"levelo://app?vid=332aecbe-8a2d-4ca6-a7e6-d8b330e727e7"},"vehicle_type_id":"4","last_reported":1691600792,"current_range_meters":8800,"station_id":"","pricing_plan_id":"free"},{"bike_id":"9bf17568-86e8-4424-ba26-ab077fb0bfdf","system_id":"levelo_inurba_marseille","lat":43.288497,"lon":5.393089,"is_reserved":false,"is_disabled":false,"rental_uris":{"android":"levelo://app?vid=9bf17568-86e8-4424-ba26-ab077fb0bfdf","ios":"levelo://app?vid=9bf17568-86e8-4424-ba26-ab077fb0bfdf"},"vehicle_type_id":"4","last_reported":1691600792,"current_range_meters":9200,"station_id":"ce4bh2p2rcd13ifvqdi0","pricing_plan_id":"free"},{"bike_id":"e716e168-37b1-435f-9048-fbafd6f685bb","system_id":"levelo_inurba_marseille","lat":43.28423,"lon":5.34992,"is_reserved":false,"is_disabled":false,"rental_uris":{"android":"levelo://app?vid=e716e168-37b1-435f-9048-fbafd6f685bb","ios":"levelo://app?vid=e716e168-37b1-435f-9048-fbafd6f685bb"},"vehicle_type_id":"4","last_reported":1691600792,"current_range_meters":31200,"station_id":"ce4bhbh2rcd13ifvqepg","pricing_plan_id":"free"},{"bike_id":"c9eae1eb-a458-4a03-889a-06f5b9cb84c9","system_id":"levelo_inurba_marseille","lat":43.28424,"lon":5.34985,"is_reserved":false,"is_disabled":false,"rental_uris":{"android":"levelo://app?vid=c9eae1eb-a458-4a03-889a-06f5b9cb84c9","ios":"levelo://app?vid=c9eae1eb-a458-4a03-889a-06f5b9cb84c9"},"vehicle_type_id":"4","last_reported":1691600792,"current_range_meters":30800,"station_id":"ce4bhbh2rcd13ifvqepg","pricing_plan_id":"free"},{"bike_id":"0e6c688c-90c1-425f-835d-141ca562192e","system_id":"levelo_inurba_marseille","lat":43.28422,"lon":5.34988,"is_reserved":false,"is_disabled":false,"rental_uris":{"android":"levelo://app?vid=0e6c688c-90c1-425f-835d-141ca562192e","ios":"levelo://app?vid=0e6c688c-90c1-425f-835d-141ca562192e"},"vehicle_type_id":"4","last_reported":1691600792,"current_range_meters":31200,"station_id":"ce4bhbh2rcd13ifvqepg","pricing_plan_id":"free"},{"bike_id":"ec095672-ac5b-4381-ac93-429e454daa78","system_id":"levelo_inurba_marseille","lat":43.28421,"lon":5.34991,"is_reserved":false,"is_disabled":false,"rental_uris":{"android":"levelo://app?vid=ec095672-ac5b-4381-ac93-429e454daa78","ios":"levelo://app?vid=ec095672-ac5b-4381-ac93-429e454daa78"},"vehicle_type_id":"4","last_reported":1691600792,"current_range_meters":9600,"station_id":"ce4bhbh2rcd13ifvqepg","pricing_plan_id":"free"},{"bike_id":"84aa36e3-0ced-4747-9e46-1e1fc3bdf475","system_id":"levelo_inurba_marseille","lat":43.28422,"lon":5.34987,"is_reserved":false,"is_disabled":false,"rental_uris":{"android":"levelo://app?vid=84aa36e3-0ced-4747-9e46-1e1fc3bdf475","ios":"levelo://app?vid=84aa36e3-0ced-4747-9e46-1e1fc3bdf475"},"vehicle_type_id":"4","last_reported":1691600792,"current_range_meters":13600,"station_id":"ce4bhbh2rcd13ifvqepg","pricing_plan_id":"free"},{"bike_id":"493687be-9154-4391-acbb-91bcfea101ec","system_id":"levelo_inurba_marseille","lat":43.284219,"lon":5.3497,"is_reserved":false,"is_disabled":false,"rental_uris":{"android":"levelo://app?vid=493687be-9154-4391-acbb-91bcfea101ec","ios":"levelo://app?vid=493687be-9154-4391-acbb-91bcfea101ec"},"vehicle_type_id":"4","last_reported":1691600792,"current_range_meters":25200,"station_id":"ce4bhbh2rcd13ifvqepg","pricing_plan_id":"free"},{"bike_id":"3d3b35a5-b93d-44c8-a63c-e1faa1e19906","system_id":"levelo_inurba_marseille","lat":43.28417,"lon":5.34997,"is_reserved":false,"is_disabled":false,"rental_uris":{"android":"levelo://app?vid=3d3b35a5-b93d-44c8-a63c-e1faa1e19906","ios":"levelo://app?vid=3d3b35a5-b93d-44c8-a63c-e1faa1e19906"},"vehicle_type_id":"4","last_reported":1691600792,"current_range_meters":23600,"station_id":"ce4bhbh2rcd13ifvqepg","pricing_plan_id":"free"},{"bike_id":"53fbb98e-9611-45ae-80a4-9bb472ce1831","system_id":"levelo_inurba_marseille","lat":43.28422,"lon":5.34978,"is_reserved":false,"is_disabled":false,"rental_uris":{"android":"levelo://app?vid=53fbb98e-9611-45ae-80a4-9bb472ce1831","ios":"levelo://app?vid=53fbb98e-9611-45ae-80a4-9bb472ce1831"},"vehicle_type_id":"4","last_reported":1691600792,"current_range_meters":7600,"station_id":"ce4bhbh2rcd13ifvqepg","pricing_plan_id":"free"},{"bike_id":"874a5045-2d66-4bc4-812a-880975f22397","system_id":"levelo_inurba_marseille","lat":43.284219,"lon":5.3497,"is_reserved":false,"is_disabled":false,"rental_uris":{"android":"levelo://app?vid=874a5045-2d66-4bc4-812a-880975f22397","ios":"levelo://app?vid=874a5045-2d66-4bc4-812a-880975f22397"},"vehicle_type_id":"4","last_reported":1691600792,"current_range_meters":25200,"station_id":"ce4bhbh2rcd13ifvqepg","pricing_plan_id":"free"},{"bike_id":"555582e9-11a1-48b2-b969-5b64c5c362ea","system_id":"levelo_inurba_marseille","lat":43.28417,"lon":5.34991,"is_reserved":false,"is_disabled":false,"rental_uris":{"android":"levelo://app?vid=555582e9-11a1-48b2-b969-5b64c5c362ea","ios":"levelo://app?vid=555582e9-11a1-48b2-b969-5b64c5c362ea"},"vehicle_type_id":"4","last_reported":1691600792,"current_range_meters":9600,"station_id":"ce4bhbh2rcd13ifvqepg","pricing_plan_id":"free"},{"bike_id":"1b747f00-6bc0-469e-96a6-1f454139e50f","system_id":"levelo_inurba_marseille","lat":43.284219,"lon":5.3497,"is_reserved":false,"is_disabled":false,"rental_uris":{"android":"levelo://app?vid=1b747f00-6bc0-469e-96a6-1f454139e50f","ios":"levelo://app?vid=1b747f00-6bc0-469e-96a6-1f454139e50f"},"vehicle_type_id":"4","last_reported":1691600792,"current_range_meters":31200,"station_id":"ce4bhbh2rcd13ifvqepg","pricing_plan_id":"free"},{"bike_id":"cf4ad1fa-2a3b-4a66-8d93-601581513f61","system_id":"levelo_inurba_marseille","lat":43.28417,"lon":5.34988,"is_reserved":false,"is_disabled":false,"rental_uris":{"android":"levelo://app?vid=cf4ad1fa-2a3b-4a66-8d93-601581513f61","ios":"levelo://app?vid=cf4ad1fa-2a3b-4a66-8d93-601581513f61"},"vehicle_type_id":"4","last_reported":1691600792,"current_range_meters":30000,"station_id":"ce4bhbh2rcd13ifvqepg","pricing_plan_id":"free"},{"bike_id":"b386e3f5-f647-47d1-ba08-23b9e7a83a3a","system_id":"levelo_inurba_marseille","lat":43.28419,"lon":5.34979,"is_reserved":false,"is_disabled":false,"rental_uris":{"android":"levelo://app?vid=b386e3f5-f647-47d1-ba08-23b9e7a83a3a","ios":"levelo://app?vid=b386e3f5-f647-47d1-ba08-23b9e7a83a3a"},"vehicle_type_id":"4","last_reported":1691600792,"current_range_meters":23200,"station_id":"ce4bhbh2rcd13ifvqepg","pricing_plan_id":"free"},{"bike_id":"37d94f28-7312-474a-9411-b6200433e252","system_id":"levelo_inurba_marseille","lat":43.28418,"lon":5.34981,"is_reserved":false,"is_disabled":false,"rental_uris":{"android":"levelo://app?vid=37d94f28-7312-474a-9411-b6200433e252","ios":"levelo://app?vid=37d94f28-7312-474a-9411-b6200433e252"},"vehicle_type_id":"4","last_reported":1691600792,"current_range_meters":2800,"station_id":"ce4bhbh2rcd13ifvqepg","pricing_plan_id":"free"},{"bike_id":"8c0a3260-8f30-4501-8313-6615053bda34","system_id":"levelo_inurba_marseille","lat":43.28418,"lon":5.3498,"is_reserved":false,"is_disabled":false,"rental_uris":{"android":"levelo://app?vid=8c0a3260-8f30-4501-8313-6615053bda34","ios":"levelo://app?vid=8c0a3260-8f30-4501-8313-6615053bda34"},"vehicle_type_id":"4","last_reported":1691600792,"current_range_meters":31200,"station_id":"ce4bhbh2rcd13ifvqepg","pricing_plan_id":"free"},{"bike_id":"44475ed7-2b08-40aa-8c9e-a964c402fb12","system_id":"levelo_inurba_marseille","lat":43.28417,"lon":5.34983,"is_reserved":false,"is_disabled":false,"rental_uris":{"android":"levelo://app?vid=44475ed7-2b08-40aa-8c9e-a964c402fb12","ios":"levelo://app?vid=44475ed7-2b08-40aa-8c9e-a964c402fb12"},"vehicle_type_id":"4","last_reported":1691600792,"current_range_meters":22400,"station_id":"ce4bhbh2rcd13ifvqepg","pricing_plan_id":"free"},{"bike_id":"58dc80ec-411a-4d9c-a238-5d7d910c3489","system_id":"levelo_inurba_marseille","lat":43.28419,"lon":5.34976,"is_reserved":false,"is_disabled":false,"rental_uris":{"android":"levelo://app?vid=58dc80ec-411a-4d9c-a238-5d7d910c3489","ios":"levelo://app?vid=58dc80ec-411a-4d9c-a238-5d7d910c3489"},"vehicle_type_id":"4","last_reported":1691600792,"current_range_meters":6000,"station_id":"ce4bhbh2rcd13ifvqepg","pricing_plan_id":"free"},{"bike_id":"7f4a6c65-5ed5-4a7d-8805-a342aa71fcd1","system_id":"levelo_inurba_marseille","lat":43.28415,"lon":5.34982,"is_reserved":false,"is_disabled":false,"rental_uris":{"android":"levelo://app?vid=7f4a6c65-5ed5-4a7d-8805-a342aa71fcd1","ios":"levelo://app?vid=7f4a6c65-5ed5-4a7d-8805-a342aa71fcd1"},"vehicle_type_id":"4","last_reported":1691600792,"current_range_meters":21200,"station_id":"ce4bhbh2rcd13ifvqepg","pricing_plan_id":"free"},{"bike_id":"5cec26ac-344f-432b-af34-450b75305b9b","system_id":"levelo_inurba_marseille","lat":43.292724,"lon":5.401131,"is_reserved":false,"is_disabled":false,"rental_uris":{"android":"levelo://app?vid=5cec26ac-344f-432b-af34-450b75305b9b","ios":"levelo://app?vid=5cec26ac-344f-432b-af34-450b75305b9b"},"vehicle_type_id":"4","last_reported":1691600792,"current_range_meters":31200,"station_id":"ce4bh312rcd13ifvqdk0","pricing_plan_id":"free"},{"bike_id":"507a9641-f15f-4809-aa66-a6491c1664f8","system_id":"levelo_inurba_marseille","lat":43.28278,"lon":5.35066,"is_reserved":false,"is_disabled":false,"rental_uris":{"android":"levelo://app?vid=507a9641-f15f-4809-aa66-a6491c1664f8","ios":"levelo://app?vid=507a9641-f15f-4809-aa66-a6491c1664f8"},"vehicle_type_id":"4","last_reported":1691600792,"current_range_meters":18400,"station_id":"ce4bhbp2rcd13ifvqerg","pricing_plan_id":"free"},{"bike_id":"88940920-727e-47f8-bee6-24feedff1167","system_id":"levelo_inurba_marseille","lat":43.282754,"lon":5.350519,"is_reserved":false,"is_disabled":false,"rental_uris":{"android":"levelo://app?vid=88940920-727e-47f8-bee6-24feedff1167","ios":"levelo://app?vid=88940920-727e-47f8-bee6-24feedff1167"},"vehicle_type_id":"4","last_reported":1691600792,"current_range_meters":31200,"station_id":"ce4bhbp2rcd13ifvqerg","pricing_plan_id":"free"},{"bike_id":"af03b0be-7fcb-436f-bc8b-d6f82bb18607","system_id":"levelo_inurba_marseille","lat":43.28266,"lon":5.35063,"is_reserved":false,"is_disabled":false,"rental_uris":{"android":"levelo://app?vid=af03b0be-7fcb-436f-bc8b-d6f82bb18607","ios":"levelo://app?vid=af03b0be-7fcb-436f-bc8b-d6f82bb18607"},"vehicle_type_id":"4","last_reported":1691600792,"current_range_meters":31200,"station_id":"","pricing_plan_id":"free"},{"bike_id":"e9c330fb-96a3-4844-963b-1151098d1b77","system_id":"levelo_inurba_marseille","lat":43.282645,"lon":5.350588,"is_reserved":false,"is_disabled":false,"rental_uris":{"android":"levelo://app?vid=e9c330fb-96a3-4844-963b-1151098d1b77","ios":"levelo://app?vid=e9c330fb-96a3-4844-963b-1151098d1b77"},"vehicle_type_id":"4","last_reported":1691600792,"current_range_meters":0,"station_id":"ce4bhbp2rcd13ifvqerg","pricing_plan_id":"free"},{"bike_id":"e17b78c4-80c1-4b0b-871d-3d3a4338e174","system_id":"levelo_inurba_marseille","lat":43.32482,"lon":5.40828,"is_reserved":false,"is_disabled":false,"rental_uris":{"android":"levelo://app?vid=e17b78c4-80c1-4b0b-871d-3d3a4338e174","ios":"levelo://app?vid=e17b78c4-80c1-4b0b-871d-3d3a4338e174"},"vehicle_type_id":"4","last_reported":1691600792,"current_range_meters":31200,"station_id":"","pricing_plan_id":"free"},{"bike_id":"021d317e-b420-4f61-88fc-c2889623dbb0","system_id":"levelo_inurba_marseille","lat":43.280382,"lon":5.369291,"is_reserved":false,"is_disabled":false,"rental_uris":{"android":"levelo://app?vid=021d317e-b420-4f61-88fc-c2889623dbb0","ios":"levelo://app?vid=021d317e-b420-4f61-88fc-c2889623dbb0"},"vehicle_type_id":"4","last_reported":1691600792,"current_range_meters":7200,"station_id":"ce4bha12rcd13ifvqef0","pricing_plan_id":"free"},{"bike_id":"fc25cce4-2401-451a-9510-3e7be37449a6","system_id":"levelo_inurba_marseille","lat":43.28039,"lon":5.369297,"is_reserved":false,"is_disabled":false,"rental_uris":{"android":"levelo://app?vid=fc25cce4-2401-451a-9510-3e7be37449a6","ios":"levelo://app?vid=fc25cce4-2401-451a-9510-3e7be37449a6"},"vehicle_type_id":"4","last_reported":1691600792,"current_range_meters":17600,"station_id":"ce4bha12rcd13ifvqef0","pricing_plan_id":"free"},{"bike_id":"8770235f-6ab1-46b4-b781-a58d186a4df4","system_id":"levelo_inurba_marseille","lat":43.281044,"lon":5.378308,"is_reserved":false,"is_disabled":false,"rental_uris":{"android":"levelo://app?vid=8770235f-6ab1-46b4-b781-a58d186a4df4","ios":"levelo://app?vid=8770235f-6ab1-46b4-b781-a58d186a4df4"},"vehicle_type_id":"4","last_reported":1691600792,"current_range_meters":13600,"station_id":"ce4bha12rcd13ifvqee0","pricing_plan_id":"free"},{"bike_id":"7d6bfb46-05b5-41ca-959c-fbab5ec95888","system_id":"levelo_inurba_marseille","lat":43.32596,"lon":5.40916,"is_reserved":false,"is_disabled":false,"rental_uris":{"android":"levelo://app?vid=7d6bfb46-05b5-41ca-959c-fbab5ec95888","ios":"levelo://app?vid=7d6bfb46-05b5-41ca-959c-fbab5ec95888"},"vehicle_type_id":"4","last_reported":1691600792,"current_range_meters":22400,"station_id":"","pricing_plan_id":"free"},{"bike_id":"b2d03303-d257-4e2b-b76b-9e58fccd9b4d","system_id":"levelo_inurba_marseille","lat":43.32632,"lon":5.40936,"is_reserved":false,"is_disabled":false,"rental_uris":{"android":"levelo://app?vid=b2d03303-d257-4e2b-b76b-9e58fccd9b4d","ios":"levelo://app?vid=b2d03303-d257-4e2b-b76b-9e58fccd9b4d"},"vehicle_type_id":"4","last_reported":1691600792,"current_range_meters":2000,"station_id":"","pricing_plan_id":"free"},{"bike_id":"8def9cb4-8253-45bf-9ec2-c0c8788c7488","system_id":"levelo_inurba_marseille","lat":43.32673,"lon":5.40918,"is_reserved":false,"is_disabled":false,"rental_uris":{"android":"levelo://app?vid=8def9cb4-8253-45bf-9ec2-c0c8788c7488","ios":"levelo://app?vid=8def9cb4-8253-45bf-9ec2-c0c8788c7488"},"vehicle_type_id":"4","last_reported":1691600792,"current_range_meters":25600,"station_id":"","pricing_plan_id":"free"},{"bike_id":"b11fc3c0-b441-47c9-97d2-b2bad26c20e3","system_id":"levelo_inurba_marseille","lat":43.304188,"lon":5.412904,"is_reserved":false,"is_disabled":false,"rental_uris":{"android":"levelo://app?vid=b11fc3c0-b441-47c9-97d2-b2bad26c20e3","ios":"levelo://app?vid=b11fc3c0-b441-47c9-97d2-b2bad26c20e3"},"vehicle_type_id":"4","last_reported":1691600792,"current_range_meters":20400,"station_id":"ce4bhop2rcd13ifvqh8g","pricing_plan_id":"free"},{"bike_id":"33e4c91f-56d0-4b8f-ac26-5a072f283e10","system_id":"levelo_inurba_marseille","lat":43.304188,"lon":5.412904,"is_reserved":false,"is_disabled":false,"rental_uris":{"android":"levelo://app?vid=33e4c91f-56d0-4b8f-ac26-5a072f283e10","ios":"levelo://app?vid=33e4c91f-56d0-4b8f-ac26-5a072f283e10"},"vehicle_type_id":"4","last_reported":1691600792,"current_range_meters":13600,"station_id":"ce4bhop2rcd13ifvqh8g","pricing_plan_id":"free"},{"bike_id":"d5413e43-03c0-42ae-bd41-52cb3d49bd75","system_id":"levelo_inurba_marseille","lat":43.304188,"lon":5.412904,"is_reserved":false,"is_disabled":false,"rental_uris":{"android":"levelo://app?vid=d5413e43-03c0-42ae-bd41-52cb3d49bd75","ios":"levelo://app?vid=d5413e43-03c0-42ae-bd41-52cb3d49bd75"},"vehicle_type_id":"4","last_reported":1691600792,"current_range_meters":17600,"station_id":"ce4bhop2rcd13ifvqh8g","pricing_plan_id":"free"},{"bike_id":"7882a990-6b9d-4066-b252-f9f1100182a7","system_id":"levelo_inurba_marseille","lat":43.279087,"lon":5.380114,"is_reserved":false,"is_disabled":false,"rental_uris":{"android":"levelo://app?vid=7882a990-6b9d-4066-b252-f9f1100182a7","ios":"levelo://app?vid=7882a990-6b9d-4066-b252-f9f1100182a7"},"vehicle_type_id":"4","last_reported":1691600792,"current_range_meters":30400,"station_id":"ce4bhf92rcd13ifvqf50","pricing_plan_id":"free"},{"bike_id":"ad0273c8-1c32-46bf-a3c5-49f272a02b5f","system_id":"levelo_inurba_marseille","lat":43.27906,"lon":5.38005,"is_reserved":false,"is_disabled":false,"rental_uris":{"android":"levelo://app?vid=ad0273c8-1c32-46bf-a3c5-49f272a02b5f","ios":"levelo://app?vid=ad0273c8-1c32-46bf-a3c5-49f272a02b5f"},"vehicle_type_id":"4","last_reported":1691600792,"current_range_meters":20400,"station_id":"ce4bhf92rcd13ifvqf50","pricing_plan_id":"free"},{"bike_id":"1c0174f7-2ed9-4271-bffd-247aeb074bee","system_id":"levelo_inurba_marseille","lat":43.279087,"lon":5.380114,"is_reserved":false,"is_disabled":false,"rental_uris":{"android":"levelo://app?vid=1c0174f7-2ed9-4271-bffd-247aeb074bee","ios":"levelo://app?vid=1c0174f7-2ed9-4271-bffd-247aeb074bee"},"vehicle_type_id":"4","last_reported":1691600792,"current_range_meters":21200,"station_id":"ce4bhf92rcd13ifvqf50","pricing_plan_id":"free"},{"bike_id":"329f5d66-96f5-4c60-ac93-b39d2e3d7514","system_id":"levelo_inurba_marseille","lat":43.27899,"lon":5.38004,"is_reserved":false,"is_disabled":false,"rental_uris":{"android":"levelo://app?vid=329f5d66-96f5-4c60-ac93-b39d2e3d7514","ios":"levelo://app?vid=329f5d66-96f5-4c60-ac93-b39d2e3d7514"},"vehicle_type_id":"4","last_reported":1691600792,"current_range_meters":21200,"station_id":"","pricing_plan_id":"free"},{"bike_id":"bab2b5f9-1ce4-4e5b-a260-946103e0afe8","system_id":"levelo_inurba_marseille","lat":43.287154,"lon":5.399979,"is_reserved":false,"is_disabled":false,"rental_uris":{"android":"levelo://app?vid=bab2b5f9-1ce4-4e5b-a260-946103e0afe8","ios":"levelo://app?vid=bab2b5f9-1ce4-4e5b-a260-946103e0afe8"},"vehicle_type_id":"4","last_reported":1691600792,"current_range_meters":22000,"station_id":"ce4bho92rcd13ifvqh3g","pricing_plan_id":"free"},{"bike_id":"fd3fb61b-c6b8-414c-ba00-244c77572400","system_id":"levelo_inurba_marseille","lat":43.287154,"lon":5.399979,"is_reserved":false,"is_disabled":false,"rental_uris":{"android":"levelo://app?vid=fd3fb61b-c6b8-414c-ba00-244c77572400","ios":"levelo://app?vid=fd3fb61b-c6b8-414c-ba00-244c77572400"},"vehicle_type_id":"4","last_reported":1691600792,"current_range_meters":2800,"station_id":"ce4bho92rcd13ifvqh3g","pricing_plan_id":"free"},{"bike_id":"0e57e671-897a-4275-be06-9242d0f94014","system_id":"levelo_inurba_marseille","lat":43.34701,"lon":5.35462,"is_reserved":false,"is_disabled":false,"rental_uris":{"android":"levelo://app?vid=0e57e671-897a-4275-be06-9242d0f94014","ios":"levelo://app?vid=0e57e671-897a-4275-be06-9242d0f94014"},"vehicle_type_id":"4","last_reported":1691600792,"current_range_meters":12000,"station_id":"","pricing_plan_id":"free"},{"bike_id":"26a31852-bb16-4818-a78b-6675c1af0377","system_id":"levelo_inurba_marseille","lat":43.320045,"lon":5.415046,"is_reserved":false,"is_disabled":false,"rental_uris":{"android":"levelo://app?vid=26a31852-bb16-4818-a78b-6675c1af0377","ios":"levelo://app?vid=26a31852-bb16-4818-a78b-6675c1af0377"},"vehicle_type_id":"4","last_reported":1691600792,"current_range_meters":19600,"station_id":"ce4bhq92rcd13ifvqhkg","pricing_plan_id":"free"},{"bike_id":"c327718a-8fe6-4791-a349-aba0f8f94e82","system_id":"levelo_inurba_marseille","lat":43.279742,"lon":5.38744,"is_reserved":false,"is_disabled":false,"rental_uris":{"android":"levelo://app?vid=c327718a-8fe6-4791-a349-aba0f8f94e82","ios":"levelo://app?vid=c327718a-8fe6-4791-a349-aba0f8f94e82"},"vehicle_type_id":"4","last_reported":1691600792,"current_range_meters":30000,"station_id":"ce4bhg12rcd13ifvqf80","pricing_plan_id":"free"},{"bike_id":"874c0618-4ac9-4346-bb87-cda7120a8794","system_id":"levelo_inurba_marseille","lat":43.299579,"lon":5.413255,"is_reserved":false,"is_disabled":false,"rental_uris":{"android":"levelo://app?vid=874c0618-4ac9-4346-bb87-cda7120a8794","ios":"levelo://app?vid=874c0618-4ac9-4346-bb87-cda7120a8794"},"vehicle_type_id":"4","last_reported":1691600792,"current_range_meters":15600,"station_id":"ce4bhp12rcd13ifvqh9g","pricing_plan_id":"free"},{"bike_id":"cefaa06c-00ea-4b83-9a63-25d1e50aefbb","system_id":"levelo_inurba_marseille","lat":43.32085,"lon":5.41593,"is_reserved":false,"is_disabled":false,"rental_uris":{"android":"levelo://app?vid=cefaa06c-00ea-4b83-9a63-25d1e50aefbb","ios":"levelo://app?vid=cefaa06c-00ea-4b83-9a63-25d1e50aefbb"},"vehicle_type_id":"4","last_reported":1691600792,"current_range_meters":25200,"station_id":"","pricing_plan_id":"free"},{"bike_id":"54fd0253-b4bf-433a-9500-87d5a8198b31","system_id":"levelo_inurba_marseille","lat":43.32545,"lon":5.4144,"is_reserved":false,"is_disabled":false,"rental_uris":{"android":"levelo://app?vid=54fd0253-b4bf-433a-9500-87d5a8198b31","ios":"levelo://app?vid=54fd0253-b4bf-433a-9500-87d5a8198b31"},"vehicle_type_id":"4","last_reported":1691600792,"current_range_meters":23600,"station_id":"ce4bhq12rcd13ifvqhhg","pricing_plan_id":"free"},{"bike_id":"9fe9175b-77da-48a1-b712-0e2285c03c0a","system_id":"levelo_inurba_marseille","lat":43.325233,"lon":5.414318,"is_reserved":false,"is_disabled":false,"rental_uris":{"android":"levelo://app?vid=9fe9175b-77da-48a1-b712-0e2285c03c0a","ios":"levelo://app?vid=9fe9175b-77da-48a1-b712-0e2285c03c0a"},"vehicle_type_id":"4","last_reported":1691600792,"current_range_meters":30800,"station_id":"ce4bhq12rcd13ifvqhhg","pricing_plan_id":"free"},{"bike_id":"386ed8e3-b71e-4f68-86af-202c5b76503e","system_id":"levelo_inurba_marseille","lat":43.27614,"lon":5.36106,"is_reserved":false,"is_disabled":false,"rental_uris":{"android":"levelo://app?vid=386ed8e3-b71e-4f68-86af-202c5b76503e","ios":"levelo://app?vid=386ed8e3-b71e-4f68-86af-202c5b76503e"},"vehicle_type_id":"4","last_reported":1691600792,"current_range_meters":13600,"station_id":"ce4bgj92rcd13ifvqbe0","pricing_plan_id":"free"},{"bike_id":"11ae2d32-9f74-40e5-ad95-cd2ca6705937","system_id":"levelo_inurba_marseille","lat":43.278399,"lon":5.392139,"is_reserved":false,"is_disabled":false,"rental_uris":{"android":"levelo://app?vid=11ae2d32-9f74-40e5-ad95-cd2ca6705937","ios":"levelo://app?vid=11ae2d32-9f74-40e5-ad95-cd2ca6705937"},"vehicle_type_id":"4","last_reported":1691600792,"current_range_meters":0,"station_id":"ce4bhjp2rcd13ifvqga0","pricing_plan_id":"free"},