{"last_updated":1738213737,"ttl":60,"version":"2.2","data":{"bikes":[{"bike_id":"69103986-8b11-47d5-ae17-3704326d37ef","system_id":"levelo_inurba_marseille","lat":43.306454,"lon":5.400839,"is_reserved":false,"is_disabled":false,"rental_uris":{"android":"levelo://app?vid=69103986-8b11-47d5-ae17-3704326d37ef","ios":"levelo://app?vid=69103986-8b11-47d5-ae17-3704326d37ef"},"vehicle_type_id":"4","last_reported":1738213738,"current_range_meters":32400,"station_id":"ce4bh112rcd13ifvqda0","pricing_plan_id":"cebpf4jnsgd1na2vs0mg"},{"bike_id":"f506a9e5-ac7d-4ec1-bc7d-dca336ec0ff0","system_id":"levelo_inurba_marseille","lat":43.30884,"lon":5.37775,"is_reserved":false,"is_disabled":false,"rental_uris":{"android":"levelo://app?vid=f506a9e5-ac7d-4ec1-bc7d-dca336ec0ff0","ios":"levelo://app?vid=f506a9e5-ac7d-4ec1-bc7d-dca336ec0ff0"},"vehicle_type_id":"4","last_reported":1738213738,"current_range_meters":29600,"station_id":"","pricing_plan_id":"cebpf4jnsgd1na2vs0mg"},{"bike_id":"9029b4ec-c617-400e-9d0e-ffbd6b51faf0","system_id":"levelo_inurba_marseille","lat":43.29552,"lon":5.39024,"is_reserved":false,"is_disabled":false,"rental_uris":{"android":"levelo://app?vid=9029b4ec-c617-400e-9d0e-ffbd6b51faf0","ios":"levelo://app?vid=9029b4ec-c617-400e-9d0e-ffbd6b51faf0"},"vehicle_type_id":"4","last_reported":1738213738,"current_range_meters":34000,"station_id":"ce4bh3p2rcd13ifvqdp0","pricing_plan_id":"cebpf4jnsgd1na2vs0mg"},{"bike_id":"9fd73913-dbae-4c44-9a9b-e393df78b1e9","system_id":"levelo_inurba_marseille","lat":43.25572,"lon":5.38236,"is_reserved":false,"is_disabled":false,"rental_uris":{"android":"levelo://app?vid=9fd73913-dbae-4c44-9a9b-e393df78b1e9","ios":"levelo://app?vid=9fd73913-dbae-4c44-9a9b-e393df78b1e9"},"vehicle_type_id":"4","last_reported":1738213738,"current_range_meters":38800,"station_id":"ce4bhih2rcd13ifvqfs0","pricing_plan_id":"cebpf4jnsgd1na2vs0mg"},{"bike_id":"6f54618b-a91a-49da-80b2-2b2a67e027e4","system_id":"levelo_inurba_marseille","lat":43.26537,"lon":5.37275,"is_reserved":false,"is_disabled":true,"rental_uris":{"android":"levelo://app?vid=6f54618b-a91a-49da-80b2-2b2a67e027e4","ios":"levelo://app?vid=6f54618b-a91a-49da-80b2-2b2a67e027e4"},"vehicle_type_id":"4","last_reported":1738213738,"current_range_meters":35200,"station_id":"ce4bhg12rcd13ifvqf70","pricing_plan_id":"cebpf4jnsgd1na2vs0mg"},{"bike_id":"db11cd7f-3734-41eb-95c8-7815def5f300","system_id":"levelo_inurba_marseille","lat":43.27821,"lon":5.39207,"is_reserved":false,"is_disabled":false,"rental_uris":{"android":"levelo://app?vid=db11cd7f-3734-41eb-95c8-7815def5f300","ios":"levelo://app?vid=db11cd7f-3734-41eb-95c8-7815def5f300"},"vehicle_type_id":"4","last_reported":1738213738,"current_range_meters":39200,"station_id":"ce4bhjp2rcd13ifvqga0","pricing_plan_id":"cebpf4jnsgd1na2vs0mg"},{"bike_id":"e6bbdc95-fc4f-4d93-904a-7748c29e8b7c","system_id":"levelo_inurba_marseille","lat":43.30324,"lon":5.40428,"is_reserved":false,"is_disabled":false,"rental_uris":{"android":"levelo://app?vid=e6bbdc95-fc4f-4d93-904a-7748c29e8b7c","ios":"levelo://app?vid=e6bbdc95-fc4f-4d93-904a-7748c29e8b7c"},"vehicle_type_id":"4","last_reported":1738213738,"current_range_meters":38800,"station_id":"ce4bh012rcd13ifvqd10","pricing_plan_id":"cebpf4jnsgd1na2vs0mg"},{"bike_id":"070985a7-e942-45ed-a1dd-7324497fc05e","system_id":"levelo_inurba_marseille","lat":43.28159,"lon":5.42623,"is_reserved":false,"is_disabled":false,"rental_uris":{"android":"levelo://app?vid=070985a7-e942-45ed-a1dd-7324497fc05e","ios":"levelo://app?vid=070985a7-e942-45ed-a1dd-7324497fc05e"},"vehicle_type_id":"4","last_reported":1738213738,"current_range_meters":29600,"station_id":"ce4bhnh2rcd13ifvqgug","pricing_plan_id":"cebpf4jnsgd1na2vs0mg"},{"bike_id":"f7f8117f-03ef-415e-85c6-2eeaf165e4f2","system_id":"levelo_inurba_marseille","lat":43.26229,"lon":5.40456,"is_reserved":false,"is_disabled":true,"rental_uris":{"android":"levelo://app?vid=f7f8117f-03ef-415e-85c6-2eeaf165e4f2","ios":"levelo://app?vid=f7f8117f-03ef-415e-85c6-2eeaf165e4f2"},"vehicle_type_id":"4","last_reported":1738213738,"current_range_meters":27200,"station_id":"ce4bhmh2rcd13ifvqgmg","pricing_plan_id":"cebpf4jnsgd1na2vs0mg"},{"bike_id":"dc3a4f44-a4ef-4a25-982c-da6d06b57ba7","system_id":"levelo_inurba_marseille","lat":43.28707,"lon":5.39967,"is_reserved":false,"is_disabled":false,"rental_uris":{"android":"levelo://app?vid=dc3a4f44-a4ef-4a25-982c-da6d06b57ba7","ios":"levelo://app?vid=dc3a4f44-a4ef-4a25-982c-da6d06b57ba7"},"vehicle_type_id":"4","last_reported":1738213738,"current_range_meters":38000,"station_id":"ce4bho92rcd13ifvqh3g","pricing_plan_id":"cebpf4jnsgd1na2vs0mg"},{"bike_id":"94701e59-732f-4523-a5b8-3c15eb311c9f","system_id":"levelo_inurba_marseille","lat":43.29878,"lon":5.38916,"is_reserved":false,"is_disabled":false,"rental_uris":{"android":"levelo://app?vid=94701e59-732f-4523-a5b8-3c15eb311c9f","ios":"levelo://app?vid=94701e59-732f-4523-a5b8-3c15eb311c9f"},"vehicle_type_id":"4","last_reported":1738213738,"current_range_meters":17200,"station_id":"ce4bh392rcd13ifvqdl0","pricing_plan_id":"cebpf4jnsgd1na2vs0mg"},{"bike_id":"e43ea19b-d0b3-42fa-b02a-feb412797ad3","system_id":"levelo_inurba_marseille","lat":43.31168,"lon":5.38697,"is_reserved":false,"is_disabled":false,"rental_uris":{"android":"levelo://app?vid=e43ea19b-d0b3-42fa-b02a-feb412797ad3","ios":"levelo://app?vid=e43ea19b-d0b3-42fa-b02a-feb412797ad3"},"vehicle_type_id":"4","last_reported":1738213738,"current_range_meters":38000,"station_id":"ce4bgv12rcd13ifvqcp0","pricing_plan_id":"cebpf4jnsgd1na2vs0mg"},{"bike_id":"74b7f1c9-4193-4e0c-809a-b8e96ff1ffa2","system_id":"levelo_inurba_marseille","lat":43.3135,"lon":5.39693,"is_reserved":false,"is_disabled":false,"rental_uris":{"android":"levelo://app?vid=74b7f1c9-4193-4e0c-809a-b8e96ff1ffa2","ios":"levelo://app?vid=74b7f1c9-4193-4e0c-809a-b8e96ff1ffa2"},"vehicle_type_id":"4","last_reported":1738213738,"current_range_meters":25200,"station_id":"ce4bgvp2rcd13ifvqcu0","pricing_plan_id":"cebpf4jnsgd1na2vs0mg"},{"bike_id":"de1b162f-edfa-4b86-b016-f125f78b5cd4","system_id":"levelo_inurba_marseille","lat":43.31277,"lon":5.40159,"is_reserved":false,"is_disabled":false,"rental_uris":{"android":"levelo://app?vid=de1b162f-edfa-4b86-b016-f125f78b5cd4","ios":"levelo://app?vid=de1b162f-edfa-4b86-b016-f125f78b5cd4"},"vehicle_type_id":"4","last_reported":1738213738,"current_range_meters":25600,"station_id":"ce4bh092rcd13ifvqd30","pricing_plan_id":"cebpf4jnsgd1na2vs0mg"},{"bike_id":"09abfd8b-c46c-405f-bd6d-b5e5ad2cd23b","system_id":"levelo_inurba_marseille","lat":43.30947,"lon":5.39028,"is_reserved":false,"is_disabled":false,"rental_uris":{"android":"levelo://app?vid=09abfd8b-c46c-405f-bd6d-b5e5ad2cd23b","ios":"levelo://app?vid=09abfd8b-c46c-405f-bd6d-b5e5ad2cd23b"},"vehicle_type_id":"4","last_reported":1738213738,"current_range_meters":32400,"station_id":"ce4bgup2rcd13ifvqco0","pricing_plan_id":"cebpf4jnsgd1na2vs0mg"},{"bike_id":"497916a9-33d4-4826-8179-7290ff70673f","system_id":"levelo_inurba_marseille","lat":43.300938,"lon":5.390741,"is_reserved":false,"is_disabled":false,"rental_uris":{"android":"levelo://app?vid=497916a9-33d4-4826-8179-7290ff70673f","ios":"levelo://app?vid=497916a9-33d4-4826-8179-7290ff70673f"},"vehicle_type_id":"4","last_reported":1738213738,"current_range_meters":36000,"station_id":"ce4bh192rcd13ifvqdb0","pricing_plan_id":"cebpf4jnsgd1na2vs0mg"},{"bike_id":"adc2855c-ce96-4ab1-9132-d4c82e18f627","system_id":"levelo_inurba_marseille","lat":43.26519,"lon":5.39573,"is_reserved":false,"is_disabled":false,"rental_uris":{"android":"levelo://app?vid=adc2855c-ce96-4ab1-9132-d4c82e18f627","ios":"levelo://app?vid=adc2855c-ce96-4ab1-9132-d4c82e18f627"},"vehicle_type_id":"4","last_reported":1738213738,"current_range_meters":30000,"station_id":"ce4bhi12rcd13ifvqfq0","pricing_plan_id":"cebpf4jnsgd1na2vs0mg"},{"bike_id":"b7959d54-10a6-4e6e-8fbf-d43ee65dd4f0","system_id":"levelo_inurba_marseille","lat":43.28405,"lon":5.37503,"is_reserved":false,"is_disabled":false,"rental_uris":{"android":"levelo://app?vid=b7959d54-10a6-4e6e-8fbf-d43ee65dd4f0","ios":"levelo://app?vid=b7959d54-10a6-4e6e-8fbf-d43ee65dd4f0"},"vehicle_type_id":"4","last_reported":1738213738,"current_range_meters":4800,"station_id":"ce4bh412rcd13ifvqds0","pricing_plan_id":"cebpf4jnsgd1na2vs0mg"},{"bike_id":"34da52eb-db04-40cd-8014-3ee37df46223","system_id":"levelo_inurba_marseille","lat":43.27329,"lon":5.39102,"is_reserved":false,"is_disabled":false,"rental_uris":{"android":"levelo://app?vid=34da52eb-db04-40cd-8014-3ee37df46223","ios":"levelo://app?vid=34da52eb-db04-40cd-8014-3ee37df46223"},"vehicle_type_id":"4","last_reported":1738213738,"current_range_meters":18800,"station_id":"ce4bhgp2rcd13ifvqfe0","pricing_plan_id":"cebpf4jnsgd1na2vs0mg"},{"bike_id":"0288be9b-7b6f-484a-a06c-e6be0ec543fe","system_id":"levelo_inurba_marseille","lat":43.33613,"lon":5.40986,"is_reserved":false,"is_disabled":false,"rental_uris":{"android":"levelo://app?vid=0288be9b-7b6f-484a-a06c-e6be0ec543fe","ios":"levelo://app?vid=0288be9b-7b6f-484a-a06c-e6be0ec543fe"},"vehicle_type_id":"4","last_reported":1738213738,"current_range_meters":38400,"station_id":"ce4bhqh2rcd13ifvqhmg","pricing_plan_id":"cebpf4jnsgd1na2vs0mg"},{"bike_id":"0cc647b1-af46-4796-a862-e96c55376362","system_id":"levelo_inurba_marseille","lat":43.2871,"lon":5.37375,"is_reserved":false,"is_disabled":false,"rental_uris":{"android":"levelo://app?vid=0cc647b1-af46-4796-a862-e96c55376362","ios":"levelo://app?vid=0cc647b1-af46-4796-a862-e96c55376362"},"vehicle_type_id":"4","last_reported":1738213738,"current_range_meters":38800,"station_id":"ce4bh3p2rcd13ifvqdq0","pricing_plan_id":"cebpf4jnsgd1na2vs0mg"},{"bike_id":"6e8f542f-0432-48c6-adc8-7717ef7b776a","system_id":"levelo_inurba_marseille","lat":43.28113,"lon":5.37848,"is_reserved":false,"is_disabled":false,"rental_uris":{"android":"levelo://app?vid=6e8f542f-0432-48c6-adc8-7717ef7b776a","ios":"levelo://app?vid=6e8f542f-0432-48c6-adc8-7717ef7b776a"},"vehicle_type_id":"4","last_reported":1738213738,"current_range_meters":29600,"station_id":"ce4bha12rcd13ifvqee0","pricing_plan_id":"cebpf4jnsgd1na2vs0mg"},{"bike_id":"79b7a714-6899-43f0-a0e6-1e9b5234e282","system_id":"levelo_inurba_marseille","lat":43.295519,"lon":5.422863,"is_reserved":false,"is_disabled":false,"rental_uris":{"android":"levelo://app?vid=79b7a714-6899-43f0-a0e6-1e9b5234e282","ios":"levelo://app?vid=79b7a714-6899-43f0-a0e6-1e9b5234e282"},"vehicle_type_id":"4","last_reported":1738213738,"current_range_meters":37600,"station_id":"ce4bhph2rcd13ifvqhdg","pricing_plan_id":"cebpf4jnsgd1na2vs0mg"},{"bike_id":"fef603c9-e2f8-4f17-9592-e93f77412abb","system_id":"levelo_inurba_marseille","lat":43.30113,"lon":5.39073,"is_reserved":false,"is_disabled":false,"rental_uris":{"android":"levelo://app?vid=fef603c9-e2f8-4f17-9592-e93f77412abb","ios":"levelo://app?vid=fef603c9-e2f8-4f17-9592-e93f77412abb"},"vehicle_type_id":"4","last_reported":1738213738,"current_range_meters":34000,"station_id":"ce4bh192rcd13ifvqdb0","pricing_plan_id":"cebpf4jnsgd1na2vs0mg"},{"bike_id":"e05d3339-457c-46fa-9827-97d4d0e79dfd","system_id":"levelo_inurba_marseille","lat":43.258661,"lon":5.399034,"is_reserved":false,"is_disabled":false,"rental_uris":{"android":"levelo://app?vid=e05d3339-457c-46fa-9827-97d4d0e79dfd","ios":"levelo://app?vid=e05d3339-457c-46fa-9827-97d4d0e79dfd"},"vehicle_type_id":"4","last_reported":1738213738,"current_range_meters":38400,"station_id":"ce4bhl92rcd13ifvqghg","pricing_plan_id":"cebpf4jnsgd1na2vs0mg"},{"bike_id":"2cfe8be4-4c08-4717-aeb3-4d6a16e66428","system_id":"levelo_inurba_marseille","lat":43.32357,"lon":5.40634,"is_reserved":false,"is_disabled":false,"rental_uris":{"android":"levelo://app?vid=2cfe8be4-4c08-4717-aeb3-4d6a16e66428","ios":"levelo://app?vid=2cfe8be4-4c08-4717-aeb3-4d6a16e66428"},"vehicle_type_id":"4","last_reported":1738213738,"current_range_meters":38800,"station_id":"ce4bhq92rcd13ifvqhjg","pricing_plan_id":"cebpf4jnsgd1na2vs0mg"},{"bike_id":"9bd21267-26f6-4122-9567-2f0b5d4f790f","system_id":"levelo_inurba_marseille","lat":43.32373,"lon":5.38877,"is_reserved":false,"is_disabled":false,"rental_uris":{"android":"levelo://app?vid=9bd21267-26f6-4122-9567-2f0b5d4f790f","ios":"levelo://app?vid=9bd21267-26f6-4122-9567-2f0b5d4f790f"},"vehicle_type_id":"4","last_reported":1738213738,"current_range_meters":6400,"station_id":"ce4bhqp2rcd13ifvqhog","pricing_plan_id":"cebpf4jnsgd1na2vs0mg"},{"bike_id":"0914551a-d643-4e36-834f-517682cb7e72","system_id":"levelo_inurba_marseille","lat":43.28077,"lon":5.39636,"is_reserved":false,"is_disabled":false,"rental_uris":{"android":"levelo://app?vid=0914551a-d643-4e36-834f-517682cb7e72","ios":"levelo://app?vid=0914551a-d643-4e36-834f-517682cb7e72"},"vehicle_type_id":"4","last_reported":1738213738,"current_range_meters":14800,"station_id":"ce4bho12rcd13ifvqh2g","pricing_plan_id":"cebpf4jnsgd1na2vs0mg"},{"bike_id":"26415dbd-5d7e-47ec-8cf6-7e1b6ac2f723","system_id":"levelo_inurba_marseille","lat":43.26949,"lon":5.40252,"is_reserved":false,"is_disabled":false,"rental_uris":{"android":"levelo://app?vid=26415dbd-5d7e-47ec-8cf6-7e1b6ac2f723","ios":"levelo://app?vid=26415dbd-5d7e-47ec-8cf6-7e1b6ac2f723"},"vehicle_type_id":"4","last_reported":1738213738,"current_range_meters":39200,"station_id":"cjm6bp8fraef2m0cb0m0","pricing_plan_id":"cebpf4jnsgd1na2vs0mg"},{"bike_id":"8bde1ebe-5abf-474a-84a7-7794fe44c931","system_id":"levelo_inurba_marseille","lat":43.33058,"lon":5.39055,"is_reserved":false,"is_disabled":false,"rental_uris":{"android":"levelo://app?vid=8bde1ebe-5abf-474a-84a7-7794fe44c931","ios":"levelo://app?vid=8bde1ebe-5abf-474a-84a7-7794fe44c931"},"vehicle_type_id":"4","last_reported":1738213738,"current_range_meters":38000,"station_id":"ce4bhr92rcd13ifvqhrg","pricing_plan_id":"cebpf4jnsgd1na2vs0mg"},{"bike_id":"621fc6d6-cd25-40f6-b7cc-da0378a8b001","system_id":"levelo_inurba_marseille","lat":43.30642,"lon":5.40066,"is_reserved":false,"is_disabled":false,"rental_uris":{"android":"levelo://app?vid=621fc6d6-cd25-40f6-b7cc-da0378a8b001","ios":"levelo://app?vid=621fc6d6-cd25-40f6-b7cc-da0378a8b001"},"vehicle_type_id":"4","last_reported":1738213738,"current_range_meters":28400,"station_id":"ce4bh112rcd13ifvqda0","pricing_plan_id":"cebpf4jnsgd1na2vs0mg"},{"bike_id":"1c63fa7b-8bb3-4da5-8267-9c40ab75cc0b","system_id":"levelo_inurba_marseille","lat":43.33726,"lon":5.39185,"is_reserved":false,"is_disabled":false,"rental_uris":{"android":"levelo://app?vid=1c63fa7b-8bb3-4da5-8267-9c40ab75cc0b","ios":"levelo://app?vid=1c63fa7b-8bb3-4da5-8267-9c40ab75cc0b"},"vehicle_type_id":"4","last_reported":1738213738,"current_range_meters":38800,"station_id":"ce4bhr92rcd13ifvqhsg","pricing_plan_id":"cebpf4jnsgd1na2vs0mg"},{"bike_id":"c0caade6-ebe2-42eb-a8a4-0fab8af7ea42","system_id":"levelo_inurba_marseille","lat":43.31712,"lon":5.43707,"is_reserved":false,"is_disabled":false,"rental_uris":{"android":"levelo://app?vid=c0caade6-ebe2-42eb-a8a4-0fab8af7ea42","ios":"levelo://app?vid=c0caade6-ebe2-42eb-a8a4-0fab8af7ea42"},"vehicle_type_id":"4","last_reported":1738213738,"current_range_meters":38800,"station_id":"ce4bhp92rcd13ifvqhcg","pricing_plan_id":"cebpf4jnsgd1na2vs0mg"},{"bike_id":"fb57aee5-301b-407c-a9d0-c23dec2dfbec","system_id":"levelo_inurba_marseille","lat":43.27376,"lon":5.36259,"is_reserved":false,"is_disabled":false,"rental_uris":{"android":"levelo://app?vid=fb57aee5-301b-407c-a9d0-c23dec2dfbec","ios":"levelo://app?vid=fb57aee5-301b-407c-a9d0-c23dec2dfbec"},"vehicle_type_id":"4","last_reported":1738213738,"current_range_meters":28000,"station_id":"ce4bhbh2rcd13ifvqeo0","pricing_plan_id":"cebpf4jnsgd1na2vs0mg"},{"bike_id":"5d4915e0-4a9f-4c36-821a-8bde58abc3cd","system_id":"levelo_inurba_marseille","lat":43.2511,"lon":5.40321,"is_reserved":false,"is_disabled":true,"rental_uris":{"android":"levelo://app?vid=5d4915e0-4a9f-4c36-821a-8bde58abc3cd","ios":"levelo://app?vid=5d4915e0-4a9f-4c36-821a-8bde58abc3cd"},"vehicle_type_id":"4","last_reported":1738213738,"current_range_meters":38000,"station_id":"ce4bhlh2rcd13ifvqgig","pricing_plan_id":"cebpf4jnsgd1na2vs0mg"},{"bike_id":"71fe1c26-5853-405a-bd0a-7fc15a5f97c1","system_id":"levelo_inurba_marseille","lat":43.31567,"lon":5.36842,"is_reserved":false,"is_disabled":true,"rental_uris":{"android":"levelo://app?vid=71fe1c26-5853-405a-bd0a-7fc15a5f97c1","ios":"levelo://app?vid=71fe1c26-5853-405a-bd0a-7fc15a5f97c1"},"vehicle_type_id":"4","last_reported":1738213738,"current_range_meters":34000,"station_id":"ce4bgr92rcd13ifvqc6g","pricing_plan_id":"cebpf4jnsgd1na2vs0mg"},{"bike_id":"e13b7a82-8d03-471f-ac70-6a6d40fcbd32","system_id":"levelo_inurba_marseille","lat":43.28674,"lon":5.38294,"is_reserved":false,"is_disabled":true,"rental_uris":{"android":"levelo://app?vid=e13b7a82-8d03-471f-ac70-6a6d40fcbd32","ios":"levelo://app?vid=e13b7a82-8d03-471f-ac70-6a6d40fcbd32"},"vehicle_type_id":"4","last_reported":1738213738,"current_range_meters":0,"station_id":"","pricing_plan_id":"cebpf4jnsgd1na2vs0mg"},{"bike_id":"8101c654-8d4b-4895-b6c9-3d52c31bb12d","system_id":"levelo_inurba_marseille","lat":43.2721,"lon":5.39171,"is_reserved":false,"is_disabled":false,"rental_uris":{"android":"levelo://app?vid=8101c654-8d4b-4895-b6c9-3d52c31bb12d","ios":"levelo://app?vid=8101c654-8d4b-4895-b6c9-3d52c31bb12d"},"vehicle_type_id":"4","last_reported":1738213738,"current_range_meters":37600,"station_id":"ce4bhhp2rcd13ifvqfm0","pricing_plan_id":"cebpf4jnsgd1na2vs0mg"},{"bike_id":"a9389fc2-665a-4b62-91a3-b0b6fbf044f3","system_id":"levelo_inurba_marseille","lat":43.2926,"lon":5.40912,"is_reserved":false,"is_disabled":false,"rental_uris":{"android":"levelo://app?vid=a9389fc2-665a-4b62-91a3-b0b6fbf044f3","ios":"levelo://app?vid=a9389fc2-665a-4b62-91a3-b0b6fbf044f3"},"vehicle_type_id":"4","last_reported":1738213738,"current_range_meters":32400,"station_id":"ce4bh192rcd13ifvqdc0","pricing_plan_id":"cebpf4jnsgd1na2vs0mg"},{"bike_id":"10d8361f-7304-4b98-a7da-1e8470473995","system_id":"levelo_inurba_marseille","lat":43.31733,"lon":5.424,"is_reserved":false,"is_disabled":false,"rental_uris":{"android":"levelo://app?vid=10d8361f-7304-4b98-a7da-1e8470473995","ios":"levelo://app?vid=10d8361f-7304-4b98-a7da-1e8470473995"},"vehicle_type_id":"4","last_reported":1738213738,"current_range_meters":38800,"station_id":"ce4bhp92rcd13ifvqhbg","pricing_plan_id":"cebpf4jnsgd1na2vs0mg"},{"bike_id":"cf194f9a-1e38-4734-a2d2-11f79d77748a","system_id":"levelo_inurba_marseille","lat":43.30441,"lon":5.38886,"is_reserved":false,"is_disabled":false,"rental_uris":{"android":"levelo://app?vid=cf194f9a-1e38-4734-a2d2-11f79d77748a","ios":"levelo://app?vid=cf194f9a-1e38-4734-a2d2-11f79d77748a"},"vehicle_type_id":"4","last_reported":1738213738,"current_range_meters":37600,"station_id":"ce4bgk12rcd13ifvqbi0","pricing_plan_id":"cebpf4jnsgd1na2vs0mg"},{"bike_id":"abe7f7cb-34b5-426f-b4cc-73443b30948d","system_id":"levelo_inurba_marseille","lat":43.273127,"lon":5.390852,"is_reserved":false,"is_disabled":false,"rental_uris":{"android":"levelo://app?vid=abe7f7cb-34b5-426f-b4cc-73443b30948d","ios":"levelo://app?vid=abe7f7cb-34b5-426f-b4cc-73443b30948d"},"vehicle_type_id":"4","last_reported":1738213738,"current_range_meters":38800,"station_id":"ce4bhgp2rcd13ifvqfe0","pricing_plan_id":"cebpf4jnsgd1na2vs0mg"},{"bike_id":"3344d65d-50b0-49b8-bd09-401de3b47b99","system_id":"levelo_inurba_marseille","lat":43.29804,"lon":5.39345,"is_reserved":false,"is_disabled":false,"rental_uris":{"android":"levelo://app?vid=3344d65d-50b0-49b8-bd09-401de3b47b99","ios":"levelo://app?vid=3344d65d-50b0-49b8-bd09-401de3b47b99"},"vehicle_type_id":"4","last_reported":1738213738,"current_range_meters":24800,"station_id":"chh1huq6cuj3fo74tm60","pricing_plan_id":"cebpf4jnsgd1na2vs0mg"},{"bike_id":"e2adc661-845f-477c-a638-193a6647ae14","system_id":"levelo_inurba_marseille","lat":43.32477,"lon":5.3655,"is_reserved":false,"is_disabled":false,"rental_uris":{"android":"levelo://app?vid=e2adc661-845f-477c-a638-193a6647ae14","ios":"levelo://app?vid=e2adc661-845f-477c-a638-193a6647ae14"},"vehicle_type_id":"4","last_reported":1738213738,"current_range_meters":38400,"station_id":"ce4bhs12rcd13ifvqhvg","pricing_plan_id":"cebpf4jnsgd1na2vs0mg"},{"bike_id":"effd80e3-2f19-4a69-bc64-660fe370f2b8","system_id":"levelo_inurba_marseille","lat":43.287034,"lon":5.373926,"is_reserved":false,"is_disabled":false,"rental_uris":{"android":"levelo://app?vid=effd80e3-2f19-4a69-bc64-660fe370f2b8","ios":"levelo://app?vid=effd80e3-2f19-4a69-bc64-660fe370f2b8"},"vehicle_type_id":"4","last_reported":1738213738,"current_range_meters":27200,"station_id":"ce4bh3p2rcd13ifvqdq0","pricing_plan_id":"cebpf4jnsgd1na2vs0mg"},{"bike_id":"63dc1daf-162c-4b12-b0a2-e2f97e9bdd3f","system_id":"levelo_inurba_marseille","lat":43.30809,"lon":5.43505,"is_reserved":false,"is_disabled":false,"rental_uris":{"android":"levelo://app?vid=63dc1daf-162c-4b12-b0a2-e2f97e9bdd3f","ios":"levelo://app?vid=63dc1daf-162c-4b12-b0a2-e2f97e9bdd3f"},"vehicle_type_id":"4","last_reported":1738213738,"current_range_meters":31200,"station_id":"ce4bhph2rcd13ifvqheg","pricing_plan_id":"cebpf4jnsgd1na2vs0mg"},{"bike_id":"e24b0b00-1780-4162-aac0-9bb6ee5464a6","system_id":"levelo_inurba_marseille","lat":43.29039,"lon":5.37575,"is_reserved":false,"is_disabled":true,"rental_uris":{"android":"levelo://app?vid=e24b0b00-1780-4162-aac0-9bb6ee5464a6","ios":"levelo://app?vid=e24b0b00-1780-4162-aac0-9bb6ee5464a6"},"vehicle_type_id":"4","last_reported":1738213738,"current_range_meters":4000,"station_id":"ce4bh692rcd13ifvqe90","pricing_plan_id":"cebpf4jnsgd1na2vs0mg"},{"bike_id":"d6a3b64e-2610-4e3c-87bb-b17282c413d8","system_id":"levelo_inurba_marseille","lat":43.30326,"lon":5.40443,"is_reserved":false,"is_disabled":false,"rental_uris":{"android":"levelo://app?vid=d6a3b64e-2610-4e3c-87bb-b17282c413d8","ios":"levelo://app?vid=d6a3b64e-2610-4e3c-87bb-b17282c413d8"},"vehicle_type_id":"4","last_reported":1738213738,"current_range_meters":38800,"station_id":"ce4bh012rcd13ifvqd10","pricing_plan_id":"cebpf4jnsgd1na2vs0mg"},{"bike_id":"dd5c5c45-05d7-435f-b329-97ebdf5c921f","system_id":"levelo_inurba_marseille","lat":43.25123,"lon":5.40319,"is_reserved":false,"is_disabled":true,"rental_uris":{"android":"levelo://app?vid=dd5c5c45-05d7-435f-b329-97ebdf5c921f","ios":"levelo://app?vid=dd5c5c45-05d7-435f-b329-97ebdf5c921f"},"vehicle_type_id":"4","last_reported":1738213738,"current_range_meters":38800,"station_id":"ce4bhlh2rcd13ifvqgig","pricing_plan_id":"cebpf4jnsgd1na2vs0mg"},{"bike_id":"18d4be5e-1517-4370-8b8e-245cc8e5dc6b","system_id":"levelo_inurba_marseille","lat":43.30453,"lon":5.38892,"is_reserved":false,"is_disabled":false,"rental_uris":{"android":"levelo://app?vid=18d4be5e-1517-4370-8b8e-245cc8e5dc6b","ios":"levelo://app?vid=18d4be5e-1517-4370-8b8e-245cc8e5dc6b"},"vehicle_type_id":"4","last_reported":1738213738,"current_range_meters":34800,"station_id":"ce4bgk12rcd13ifvqbi0","pricing_plan_id":"cebpf4jnsgd1na2vs0mg"},{"bike_id":"978cd6cf-2e58-49e0-ba8e-01d18e0d5ab9","system_id":"levelo_inurba_marseille","lat":43.28439,"lon":5.39154,"is_reserved":false,"is_disabled":false,"rental_uris":{"android":"levelo://app?vid=978cd6cf-2e58-49e0-ba8e-01d18e0d5ab9","ios":"levelo://app?vid=978cd6cf-2e58-49e0-ba8e-01d18e0d5ab9"},"vehicle_type_id":"4","last_reported":1738213738,"current_range_meters":38800,"station_id":"ce4bhoh2rcd13ifvqh5g","pricing_plan_id":"cebpf4jnsgd1na2vs0mg"},{"bike_id":"8a629ba1-e995-4737-a3b1-3e9f2e94d92b","system_id":"levelo_inurba_marseille","lat":43.251201,"lon":5.403193,"is_reserved":false,"is_disabled":false,"rental_uris":{"android":"levelo://app?vid=8a629ba1-e995-4737-a3b1-3e9f2e94d92b","ios":"levelo://app?vid=8a629ba1-e995-4737-a3b1-3e9f2e94d92b"},"vehicle_type_id":"4","last_reported":1738213738,"current_range_meters":38800,"station_id":"ce4bhlh2rcd13ifvqgig","pricing_plan_id":"cebpf4jnsgd1na2vs0mg"},{"bike_id":"bf94b5cf-6e0a-4706-b635-1d348d1ff856","system_id":"levelo_inurba_marseille","lat":43.27953,"lon":5.41068,"is_reserved":false,"is_disabled":false,"rental_uris":{"android":"levelo://app?vid=bf94b5cf-6e0a-4706-b635-1d348d1ff856","ios":"levelo://app?vid=bf94b5cf-6e0a-4706-b635-1d348d1ff856"},"vehicle_type_id":"4","last_reported":1738213738,"current_range_meters":9200,"station_id":"ce4bhnp2rcd13ifvqh0g","pricing_plan_id":"cebpf4jnsgd1na2vs0mg"},{"bike_id":"85582ced-d428-46cc-9220-5199b5ec421f","system_id":"levelo_inurba_marseille","lat":43.29846,"lon":5.36222,"is_reserved":false,"is_disabled":false,"rental_uris":{"android":"levelo://app?vid=85582ced-d428-46cc-9220-5199b5ec421f","ios":"levelo://app?vid=85582ced-d428-46cc-9220-5199b5ec421f"},"vehicle_type_id":"4","last_reported":1738213738,"current_range_meters":37600,"station_id":"ce4bgpp2rcd13ifvqc3g","pricing_plan_id":"cebpf4jnsgd1na2vs0mg"},{"bike_id":"9f7cbc3c-6e0b-4442-8c70-64c0b2a1452e","system_id":"levelo_inurba_marseille","lat":43.230525,"lon":5.355041,"is_reserved":false,"is_disabled":false,"rental_uris":{"android":"levelo://app?vid=9f7cbc3c-6e0b-4442-8c70-64c0b2a1452e","ios":"levelo://app?vid=9f7cbc3c-6e0b-4442-8c70-64c0b2a1452e"},"vehicle_type_id":"4","last_reported":1738213738,"current_range_meters":14000,"station_id":"cpo3342slgdg3j2ifvpg","pricing_plan_id":"cebpf4jnsgd1na2vs0mg"},{"bike_id":"c8a3a0ed-dff2-4f3c-87dc-2e6b47b1ad28","system_id":"levelo_inurba_marseille","lat":43.337444,"lon":5.374475,"is_reserved":false,"is_disabled":true,"rental_uris":{"android":"levelo://app?vid=c8a3a0ed-dff2-4f3c-87dc-2e6b47b1ad28","ios":"levelo://app?vid=c8a3a0ed-dff2-4f3c-87dc-2e6b47b1ad28"},"vehicle_type_id":"4","last_reported":1738213738,"current_range_meters":0,"station_id":"","pricing_plan_id":"cebpf4jnsgd1na2vs0mg"},{"bike_id":"61276f3a-b5d2-4b0c-a133-3bb4c7ca408d","system_id":"levelo_inurba_marseille","lat":43.27563,"lon":5.38427,"is_reserved":false,"is_disabled":false,"rental_uris":{"android":"levelo://app?vid=61276f3a-b5d2-4b0c-a133-3bb4c7ca408d","ios":"levelo://app?vid=61276f3a-b5d2-4b0c-a133-3bb4c7ca408d"},"vehicle_type_id":"4","last_reported":1738213738,"current_range_meters":38000,"station_id":"ce4bhh92rcd13ifvqfi0","pricing_plan_id":"cebpf4jnsgd1na2vs0mg"},{"bike_id":"62c0a05a-8c99-422d-8d99-b615ce2d9639","system_id":"levelo_inurba_marseille","lat":43.2795,"lon":5.41041,"is_reserved":false,"is_disabled":false,"rental_uris":{"android":"levelo://app?vid=62c0a05a-8c99-422d-8d99-b615ce2d9639","ios":"levelo://app?vid=62c0a05a-8c99-422d-8d99-b615ce2d9639"},"vehicle_type_id":"4","last_reported":1738213738,"current_range_meters":17600,"station_id":"ce4bhnp2rcd13ifvqh0g","pricing_plan_id":"cebpf4jnsgd1na2vs0mg"},{"bike_id":"d6b02c53-f0cf-4b2a-a86f-01340b4cf04e","system_id":"levelo_inurba_marseille","lat":43.31369,"lon":5.38506,"is_reserved":false,"is_disabled":false,"rental_uris":{"android":"levelo://app?vid=d6b02c53-f0cf-4b2a-a86f-01340b4cf04e","ios":"levelo://app?vid=d6b02c53-f0cf-4b2a-a86f-01340b4cf04e"},"vehicle_type_id":"4","last_reported":1738213738,"current_range_meters":12400,"station_id":"ce4bgt92rcd13ifvqcf0","pricing_plan_id":"cebpf4jnsgd1na2vs0mg"},{"bike_id":"080355be-cb4e-4892-a641-7a3946f1a672","system_id":"levelo_inurba_marseille","lat":43.31377,"lon":5.38486,"is_reserved":false,"is_disabled":false,"rental_uris":{"android":"levelo://app?vid=080355be-cb4e-4892-a641-7a3946f1a672","ios":"levelo://app?vid=080355be-cb4e-4892-a641-7a3946f1a672"},"vehicle_type_id":"4","last_reported":1738213738,"current_range_meters":23200,"station_id":"ce4bgt92rcd13ifvqcf0","pricing_plan_id":"cebpf4jnsgd1na2vs0mg"},{"bike_id":"2fccb5e1-0e0e-4a61-b1d6-110a47138fdb","system_id":"levelo_inurba_marseille","lat":43.25133,"lon":5.4032,"is_reserved":false,"is_disabled":false,"rental_uris":{"android":"levelo://app?vid=2fccb5e1-0e0e-4a61-b1d6-110a47138fdb","ios":"levelo://app?vid=2fccb5e1-0e0e-4a61-b1d6-110a47138fdb"},"vehicle_type_id":"4","last_reported":1738213738,"current_range_meters":38800,"station_id":"ce4bhlh2rcd13ifvqgig","pricing_plan_id":"cebpf4jnsgd1na2vs0mg"},{"bike_id":"7aec2e96-73be-461b-8528-ea6dc245ad82","system_id":"levelo_inurba_marseille","lat":43.296,"lon":5.38073,"is_reserved":false,"is_disabled":false,"rental_uris":{"android":"levelo://app?vid=7aec2e96-73be-461b-8528-ea6dc245ad82","ios":"levelo://app?vid=7aec2e96-73be-461b-8528-ea6dc245ad82"},"vehicle_type_id":"4","last_reported":1738213738,"current_range_meters":37600,"station_id":"ce4bgl12rcd13ifvqbo0","pricing_plan_id":"cebpf4jnsgd1na2vs0mg"},{"bike_id":"9418983f-1ad6-4866-a97b-35f6005d9cb7","system_id":"levelo_inurba_marseille","lat":43.2856,"lon":5.39484,"is_reserved":false,"is_disabled":false,"rental_uris":{"android":"levelo://app?vid=9418983f-1ad6-4866-a97b-35f6005d9cb7","ios":"levelo://app?vid=9418983f-1ad6-4866-a97b-35f6005d9cb7"},"vehicle_type_id":"4","last_reported":1738213738,"current_range_meters":36800,"station_id":"ce4bh292rcd13ifvqdg0","pricing_plan_id":"cebpf4jnsgd1na2vs0mg"},{"bike_id":"991e7465-9292-4d33-b4eb-9ae38338f8c0","system_id":"levelo_inurba_marseille","lat":43.25882,"lon":5.39912,"is_reserved":false,"is_disabled":false,"rental_uris":{"android":"levelo://app?vid=991e7465-9292-4d33-b4eb-9ae38338f8c0","ios":"levelo://app?vid=991e7465-9292-4d33-b4eb-9ae38338f8c0"},"vehicle_type_id":"4","last_reported":1738213738,"current_range_meters":38800,"station_id":"ce4bhl92rcd13ifvqghg","pricing_plan_id":"cebpf4jnsgd1na2vs0mg"},{"bike_id":"6811fcdd-0dd6-46b0-93c3-921932e8f90c","system_id":"levelo_inurba_marseille","lat":43.32527,"lon":5.4146,"is_reserved":false,"is_disabled":true,"rental_uris":{"android":"levelo://app?vid=6811fcdd-0dd6-46b0-93c3-921932e8f90c","ios":"levelo://app?vid=6811fcdd-0dd6-46b0-93c3-921932e8f90c"},"vehicle_type_id":"4","last_reported":1738213738,"current_range_meters":38400,"station_id":"ce4bhq12rcd13ifvqhhg","pricing_plan_id":"cebpf4jnsgd1na2vs0mg"},{"bike_id":"df5f4446-95bd-43c2-9c11-a436598efb40","system_id":"levelo_inurba_marseille","lat":43.26183,"lon":5.37925,"is_reserved":false,"is_disabled":false,"rental_uris":{"android":"levelo://app?vid=df5f4446-95bd-43c2-9c11-a436598efb40","ios":"levelo://app?vid=df5f4446-95bd-43c2-9c11-a436598efb40"},"vehicle_type_id":"4","last_reported":1738213738,"current_range_meters":38000,"station_id":"ce4bhjp2rcd13ifvqg90","pricing_plan_id":"cebpf4jnsgd1na2vs0mg"},{"bike_id":"4cef3525-a913-483d-a5d0-c94848f8d241","system_id":"levelo_inurba_marseille","lat":43.31707,"lon":5.37765,"is_reserved":false,"is_disabled":false,"rental_uris":{"android":"levelo://app?vid=4cef3525-a913-483d-a5d0-c94848f8d241","ios":"levelo://app?vid=4cef3525-a913-483d-a5d0-c94848f8d241"},"vehicle_type_id":"4","last_reported":1738213738,"current_range_meters":22800,"station_id":"ce4bgth2rcd13ifvqch0","pricing_plan_id":"cebpf4jnsgd1na2vs0mg"},{"bike_id":"9d2811f0-ab30-43e1-8fef-b9b6cb04c9ac","system_id":"levelo_inurba_marseille","lat":43.290242,"lon":5.38143,"is_reserved":false,"is_disabled":true,"rental_uris":{"android":"levelo://app?vid=9d2811f0-ab30-43e1-8fef-b9b6cb04c9ac","ios":"levelo://app?vid=9d2811f0-ab30-43e1-8fef-b9b6cb04c9ac"},"vehicle_type_id":"4","last_reported":1738213738,"current_range_meters":38000,"station_id":"ce4bh4p2rcd13ifvqe1g","pricing_plan_id":"cebpf4jnsgd1na2vs0mg"},{"bike_id":"ebb62ccf-3b30-4887-8c47-8865caf0c2fb","system_id":"levelo_inurba_marseille","lat":43.29877,"lon":5.389119,"is_reserved":false,"is_disabled":false,"rental_uris":{"android":"levelo://app?vid=ebb62ccf-3b30-4887-8c47-8865caf0c2fb","ios":"levelo://app?vid=ebb62ccf-3b30-4887-8c47-8865caf0c2fb"},"vehicle_type_id":"4","last_reported":1738213738,"current_range_meters":38800,"station_id":"ce4bh392rcd13ifvqdl0","pricing_plan_id":"cebpf4jnsgd1na2vs0mg"},{"bike_id":"96111419-020e-4b85-8005-96ab906d2273","system_id":"levelo_inurba_marseille","lat":43.281609,"lon":5.426458,"is_reserved":false,"is_disabled":false,"rental_uris":{"android":"levelo://app?vid=96111419-020e-4b85-8005-96ab906d2273","ios":"levelo://app?vid=96111419-020e-4b85-8005-96ab906d2273"},"vehicle_type_id":"4","last_reported":1738213738,"current_range_meters":38800,"station_id":"ce4bhnh2rcd13ifvqgug","pricing_plan_id":"cebpf4jnsgd1na2vs0mg"},{"bike_id":"c08dd8bb-6248-4bbb-b69d-22f233c849c8","system_id":"levelo_inurba_marseille","lat":43.24418,"lon":5.37022,"is_reserved":false,"is_disabled":false,"rental_uris":{"android":"levelo://app?vid=c08dd8bb-6248-4bbb-b69d-22f233c849c8","ios":"levelo://app?vid=c08dd8bb-6248-4bbb-b69d-22f233c849c8"},"vehicle_type_id":"4","last_reported":1738213738,"current_range_meters":38800,"station_id":"ce4bhhh2rcd13ifvqfk0","pricing_plan_id":"cebpf4jnsgd1na2vs0mg"},{"bike_id":"9838cc78-2b53-49d3-ae13-82df62c4fd64","system_id":"levelo_inurba_marseille","lat":43.28412,"lon":5.40934,"is_reserved":false,"is_disabled":true,"rental_uris":{"android":"levelo://app?vid=9838cc78-2b53-49d3-ae13-82df62c4fd64","ios":"levelo://app?vid=9838cc78-2b53-49d3-ae13-82df62c4fd64"},"vehicle_type_id":"4","last_reported":1738213738,"current_range_meters":0,"station_id":"","pricing_plan_id":"cebpf4jnsgd1na2vs0mg"},{"bike_id":"a765fe06-018c-4a73-898c-2082c09f528c","system_id":"levelo_inurba_marseille","lat":43.271766,"lon":5.409923,"is_reserved":false,"is_disabled":false,"rental_uris":{"android":"levelo://app?vid=a765fe06-018c-4a73-898c-2082c09f528c","ios":"levelo://app?vid=a765fe06-018c-4a73-898c-2082c09f528c"},"vehicle_type_id":"4","last_reported":1738213738,"current_range_meters":24800,"station_id":"ce4bhl12rcd13ifvqgf0","pricing_plan_id":"cebpf4jnsgd1na2vs0mg"},{"bike_id":"0b1f4817-4c30-44b7-9201-5f8be66aeb19","system_id":"levelo_inurba_marseille","lat":43.28038,"lon":5.36946,"is_reserved":false,"is_disabled":false,"rental_uris":{"android":"levelo://app?vid=0b1f4817-4c30-44b7-9201-5f8be66aeb19","ios":"levelo://app?vid=0b1f4817-4c30-44b7-9201-5f8be66aeb19"},"vehicle_type_id":"4","last_reported":1738213738,"current_range_meters":38800,"station_id":"ce4bha12rcd13ifvqef0","pricing_plan_id":"cebpf4jnsgd1na2vs0mg"},{"bike_id":"6cad4cc8-f358-494a-82b2-75d483525cc1","system_id":"levelo_inurba_marseille","lat":43.31354,"lon":5.39694,"is_reserved":false,"is_disabled":false,"rental_uris":{"android":"levelo://app?vid=6cad4cc8-f358-494a-82b2-75d483525cc1","ios":"levelo://app?vid=6cad4cc8-f358-494a-82b2-75d483525cc1"},"vehicle_type_id":"4","last_reported":1738213738,"current_range_meters":18800,"station_id":"ce4bgvp2rcd13ifvqcu0","pricing_plan_id":"cebpf4jnsgd1na2vs0mg"},{"bike_id":"02150b9b-6dd8-436a-9856-9e498795a32c","system_id":"levelo_inurba_marseille","lat":43.26217,"lon":5.4045,"is_reserved":false,"is_disabled":false,"rental_uris":{"android":"levelo://app?vid=02150b9b-6dd8-436a-9856-9e498795a32c","ios":"levelo://app?vid=02150b9b-6dd8-436a-9856-9e498795a32c"},"vehicle_type_id":"4","last_reported":1738213738,"current_range_meters":31200,"station_id":"ce4bhmh2rcd13ifvqgmg","pricing_plan_id":"cebpf4jnsgd1na2vs0mg"},{"bike_id":"cebc1cc3-2475-48cb-aa41-05d47858d44e","system_id":"levelo_inurba_marseille","lat":43.299044,"lon":5.436718,"is_reserved":false,"is_disabled":false,"rental_uris":{"android":"levelo://app?vid=cebc1cc3-2475-48cb-aa41-05d47858d44e","ios":"levelo://app?vid=cebc1cc3-2475-48cb-aa41-05d47858d44e"},"vehicle_type_id":"4","last_reported":1738213738,"current_range_meters":24800,"station_id":"ce4bhpp2rcd13ifvqhfg","pricing_plan_id":"cebpf4jnsgd1na2vs0mg"},{"bike_id":"a6b336c6-34d6-4b26-bccf-abefa3771ff1","system_id":"levelo_inurba_marseille","lat":43.23167,"lon":5.43706,"is_reserved":false,"is_disabled":false,"rental_uris":{"android":"levelo://app?vid=a6b336c6-34d6-4b26-bccf-abefa3771ff1","ios":"levelo://app?vid=a6b336c6-34d6-4b26-bccf-abefa3771ff1"},"vehicle_type_id":"4","last_reported":1738213738,"current_range_meters":37600,"station_id":"ce4bhmp2rcd13ifvqgog","pricing_plan_id":"cebpf4jnsgd1na2vs0mg"},{"bike_id":"062fa843-16c7-44ce-b405-e100835283d1","system_id":"levelo_inurba_marseille","lat":43.291958,"lon":5.393127,"is_reserved":false,"is_disabled":false,"rental_uris":{"android":"levelo://app?vid=062fa843-16c7-44ce-b405-e100835283d1","ios":"levelo://app?vid=062fa843-16c7-44ce-b405-e100835283d1"},"vehicle_type_id":"4","last_reported":1738213738,"current_range_meters":6800,"station_id":"ce4bh192rcd13ifvqdd0","pricing_plan_id":"cebpf4jnsgd1na2vs0mg"},{"bike_id":"02de8578-c1fb-4324-9497-60f08c0a1031","system_id":"levelo_inurba_marseille","lat":43.281014,"lon":5.378376,"is_reserved":false,"is_disabled":false,"rental_uris":{"android":"levelo://app?vid=02de8578-c1fb-4324-9497-60f08c0a1031","ios":"levelo://app?vid=02de8578-c1fb-4324-9497-60f08c0a1031"},"vehicle_type_id":"4","last_reported":1738213738,"current_range_meters":27200,"station_id":"ce4bha12rcd13ifvqee0","pricing_plan_id":"cebpf4jnsgd1na2vs0mg"},{"bike_id":"4d8bb960-d758-4e7b-9421-1e5b22e8d25e","system_id":"levelo_inurba_marseille","lat":43.30652,"lon":5.40076,"is_reserved":false,"is_disabled":false,"rental_uris":{"android":"levelo://app?vid=4d8bb960-d758-4e7b-9421-1e5b22e8d25e","ios":"levelo://app?vid=4d8bb960-d758-4e7b-9421-1e5b22e8d25e"},"vehicle_type_id":"4","last_reported":1738213738,"current_range_meters":35600,"station_id":"ce4bh112rcd13ifvqda0","pricing_plan_id":"cebpf4jnsgd1na2vs0mg"},{"bike_id":"4f30e33c-710c-4e39-b98d-5730f79a0868","system_id":"levelo_inurba_marseille","lat":43.27917,"lon":5.39571,"is_reserved":false,"is_disabled":false,"rental_uris":{"android":"levelo://app?vid=4f30e33c-710c-4e39-b98d-5730f79a0868","ios":"levelo://app?vid=4f30e33c-710c-4e39-b98d-5730f79a0868"},"vehicle_type_id":"4","last_reported":1738213738,"current_range_meters":16800,"station_id":"ce4bhf92rcd13ifvqf40","pricing_plan_id":"cebpf4jnsgd1na2vs0mg"},{"bike_id":"060157b3-febc-4f7a-af96-fae1cece7b4a","system_id":"levelo_inurba_marseille","lat":43.25091,"lon":5.39511,"is_reserved":false,"is_disabled":false,"rental_uris":{"android":"levelo://app?vid=060157b3-febc-4f7a-af96-fae1cece7b4a","ios":"levelo://app?vid=060157b3-febc-4f7a-af96-fae1cece7b4a"},"vehicle_type_id":"4","last_reported":1738213738,"current_range_meters":38800,"station_id":"ce4bhm12rcd13ifvqgkg","pricing_plan_id":"cebpf4jnsgd1na2vs0mg"},{"bike_id":"8316cb10-023d-4bec-a7d1-c688e60191c8","system_id":"levelo_inurba_marseille","lat":43.28173,"lon":5.42627,"is_reserved":false,"is_disabled":false,"rental_uris":{"android":"levelo://app?vid=8316cb10-023d-4bec-a7d1-c688e60191c8","ios":"levelo://app?vid=8316cb10-023d-4bec-a7d1-c688e60191c8"},"vehicle_type_id":"4","last_reported":1738213738,"current_range_meters":11600,"station_id":"ce4bhnh2rcd13ifvqgug","pricing_plan_id":"cebpf4jnsgd1na2vs0mg"},{"bike_id":"d51bd018-b652-4e1d-9bf4-54de43279c9c","system_id":"levelo_inurba_marseille","lat":43.322844,"lon":5.382754,"is_reserved":false,"is_disabled":false,"rental_uris":{"android":"levelo://app?vid=d51bd018-b652-4e1d-9bf4-54de43279c9c","ios":"levelo://app?vid=d51bd018-b652-4e1d-9bf4-54de43279c9c"},"vehicle_type_id":"4","last_reported":1738213738,"current_range_meters":35600,"station_id":"ce4bhr12rcd13ifvqhqg","pricing_plan_id":"cebpf4jnsgd1na2vs0mg"},{"bike_id":"4ad67fee-8571-4fab-a34a-5f44c7802ceb","system_id":"levelo_inurba_marseille","lat":43.28728,"lon":5.36095,"is_reserved":false,"is_disabled":false,"rental_uris":{"android":"levelo://app?vid=4ad67fee-8571-4fab-a34a-5f44c7802ceb","ios":"levelo://app?vid=4ad67fee-8571-4fab-a34a-5f44c7802ceb"},"vehicle_type_id":"4","last_reported":1738213738,"current_range_meters":20000,"station_id":"cki0cbj6b192h4jlfktg","pricing_plan_id":"cebpf4jnsgd1na2vs0mg"},{"bike_id":"e616b313-df38-422a-b95a-06db009f6756","system_id":"levelo_inurba_marseille","lat":43.27183,"lon":5.4099,"is_reserved":false,"is_disabled":false,"rental_uris":{"android":"levelo://app?vid=e616b313-df38-422a-b95a-06db009f6756","ios":"levelo://app?vid=e616b313-df38-422a-b95a-06db009f6756"},"vehicle_type_id":"4","last_reported":1738213738,"current_range_meters":38800,"station_id":"ce4bhl12rcd13ifvqgf0","pricing_plan_id":"cebpf4jnsgd1na2vs0mg"},{"bike_id":"d979d8d2-ec65-47af-9229-e4270aab279a","system_id":"levelo_inurba_marseille","lat":43.23072,"lon":5.3549,"is_reserved":false,"is_disabled":false,"rental_uris":{"android":"levelo://app?vid=d979d8d2-ec65-47af-9229-e4270aab279a","ios":"levelo://app?vid=d979d8d2-ec65-47af-9229-e4270aab279a"},"vehicle_type_id":"4","last_reported":1738213738,"current_range_meters":16000,"station_id":"cpo3342slgdg3j2ifvpg","pricing_plan_id":"cebpf4jnsgd1na2vs0mg"},{"bike_id":"d3e0dde3-8423-4b65-9bd9-d1f668df0be7","system_id":"levelo_inurba_marseille","lat":43.28724,"lon":5.36083,"is_reserved":false,"is_disabled":false,"rental_uris":{"android":"levelo://app?vid=d3e0dde3-8423-4b65-9bd9-d1f668df0be7","ios":"levelo://app?vid=d3e0dde3-8423-4b65-9bd9-d1f668df0be7"},"vehicle_type_id":"4","last_reported":1738213738,"current_range_meters":38800,"station_id":"cki0cbj6b192h4jlfktg","pricing_plan_id":"cebpf4jnsgd1na2vs0mg"},{"bike_id":"72fb6c3d-ab9b-438d-9161-f3042c3f00fc","system_id":"levelo_inurba_marseille","lat":43.32372,"lon":5.37012,"is_reserved":false,"is_disabled":false,"rental_uris":{"android":"levelo://app?vid=72fb6c3d-ab9b-438d-9161-f3042c3f00fc","ios":"levelo://app?vid=72fb6c3d-ab9b-438d-9161-f3042c3f00fc"},"vehicle_type_id":"4","last_reported":1738213738,"current_range_meters":38800,"station_id":"","pricing_plan_id":"cebpf4jnsgd1na2vs0mg"},{"bike_id":"8401c82e-2c7e-4101-98a2-b12f578674b6","system_id":"levelo_inurba_marseille","lat":43.28458,"lon":5.39231,"is_reserved":false,"is_disabled":false,"rental_uris":{"android":"levelo://app?vid=8401c82e-2c7e-4101-98a2-b12f578674b6","ios":"levelo://app?vid=8401c82e-2c7e-4101-98a2-b12f578674b6"},"vehicle_type_id":"4","last_reported":1738213738,"current_range_meters":38800,"station_id":"ce4bhoh2rcd13ifvqh5g","pricing_plan_id":"cebpf4jnsgd1na2vs0mg"},{"bike_id":"4b9d69a3-9df6-4088-b015-95b203e90966","system_id":"levelo_inurba_marseille","lat":43.2583,"lon":5.39442,"is_reserved":false,"is_disabled":false,"rental_uris":{"android":"levelo://app?vid=4b9d69a3-9df6-4088-b015-95b203e90966","ios":"levelo://app?vid=4b9d69a3-9df6-4088-b015-95b203e90966"},"vehicle_type_id":"4","last_reported":1738213738,"current_range_meters":38000,"station_id":"ce4bhip2rcd13ifvqft0","pricing_plan_id":"cebpf4jnsgd1na2vs0mg"},{"bike_id":"7d6260ec-6d8c-4d5b-8950-1a493871014c","system_id":"levelo_inurba_marseille","lat":43.29894,"lon":5.43661,"is_reserved":false,"is_disabled":false,"rental_uris":{"android":"levelo://app?vid=7d6260ec-6d8c-4d5b-8950-1a493871014c","ios":"levelo://app?vid=7d6260ec-6d8c-4d5b-8950-1a493871014c"},"vehicle_type_id":"4","last_reported":1738213738,"current_range_meters":36000,"station_id":"ce4bhpp2rcd13ifvqhfg","pricing_plan_id":"cebpf4jnsgd1na2vs0mg"},{"bike_id":"a74c92e3-070d-4916-97e7-0b55ffdfccfc","system_id":"levelo_inurba_marseille","lat":43.239615,"lon":5.36638,"is_reserved":false,"is_disabled":false,"rental_uris":{"android":"levelo://app?vid=a74c92e3-070d-4916-97e7-0b55ffdfccfc","ios":"levelo://app?vid=a74c92e3-070d-4916-97e7-0b55ffdfccfc"},"vehicle_type_id":"4","last_reported":1738213738,"current_range_meters":17600,"station_id":"ce4bhi12rcd13ifvqfp0","pricing_plan_id":"cebpf4jnsgd1na2vs0mg"},{"bike_id":"6be92d7d-a8c1-4c68-9c57-5f393165cf28","system_id":"levelo_inurba_marseille","lat":43.27068,"lon":5.422825,"is_reserved":false,"is_disabled":false,"rental_uris":{"android":"levelo://app?vid=6be92d7d-a8c1-4c68-9c57-5f393165cf28","ios":"levelo://app?vid=6be92d7d-a8c1-4c68-9c57-5f393165cf28"},"vehicle_type_id":"4","last_reported":1738213738,"current_range_meters":38800,"station_id":"ce4bhk92rcd13ifvqgb0","pricing_plan_id":"cebpf4jnsgd1na2vs0mg"},{"bike_id":"f53fdded-3c4e-48ea-b00a-dc6a12ccb9a8","system_id":"levelo_inurba_marseille","lat":43.299187,"lon":5.374765,"is_reserved":false,"is_disabled":false,"rental_uris":{"android":"levelo://app?vid=f53fdded-3c4e-48ea-b00a-dc6a12ccb9a8","ios":"levelo://app?vid=f53fdded-3c4e-48ea-b00a-dc6a12ccb9a8"},"vehicle_type_id":"4","last_reported":1738213738,"current_range_meters":38000,"station_id":"ce4bgjh2rcd13ifvqbg0","pricing_plan_id":"cebpf4jnsgd1na2vs0mg"},{"bike_id":"a5b5e51c-d3c4-4965-9f57-c89bba7bb2e8","system_id":"levelo_inurba_marseille","lat":43.30205,"lon":5.39466,"is_reserved":false,"is_disabled":false,"rental_uris":{"android":"levelo://app?vid=a5b5e51c-d3c4-4965-9f57-c89bba7bb2e8","ios":"levelo://app?vid=a5b5e51c-d3c4-4965-9f57-c89bba7bb2e8"},"vehicle_type_id":"4","last_reported":1738213738,"current_range_meters":38800,"station_id":"ce4bh0p2rcd13ifvqd70","pricing_plan_id":"cebpf4jnsgd1na2vs0mg"},{"bike_id":"a7fa174b-9e7a-480f-96ea-d7b68ff91040","system_id":"levelo_inurba_marseille","lat":43.29992,"lon":5.38489,"is_reserved":false,"is_disabled":true,"rental_uris":{"android":"levelo://app?vid=a7fa174b-9e7a-480f-96ea-d7b68ff91040","ios":"levelo://app?vid=a7fa174b-9e7a-480f-96ea-d7b68ff91040"},"vehicle_type_id":"4","last_reported":1738213738,"current_range_meters":30800,"station_id":"ce4bgj92rcd13ifvqbd0","pricing_plan_id":"cebpf4jnsgd1na2vs0mg"},{"bike_id":"d8b1c3f9-ff6e-4179-8423-4ba0d2a2af0e","system_id":"levelo_inurba_marseille","lat":43.33747,"lon":5.39159,"is_reserved":false,"is_disabled":false,"rental_uris":{"android":"levelo://app?vid=d8b1c3f9-ff6e-4179-8423-4ba0d2a2af0e","ios":"levelo://app?vid=d8b1c3f9-ff6e-4179-8423-4ba0d2a2af0e"},"vehicle_type_id":"4","last_reported":1738213738,"current_range_meters":38800,"station_id":"ce4bhr92rcd13ifvqhsg","pricing_plan_id":"cebpf4jnsgd1na2vs0mg"},{"bike_id":"3a697741-3bd1-4639-8533-6c884e7fbbdc","system_id":"levelo_inurba_marseille","lat":43.28938,"lon":5.36384,"is_reserved":false,"is_disabled":false,"rental_uris":{"android":"levelo://app?vid=3a697741-3bd1-4639-8533-6c884e7fbbdc","ios":"levelo://app?vid=3a697741-3bd1-4639-8533-6c884e7fbbdc"},"vehicle_type_id":"4","last_reported":1738213738,"current_range_meters":38800,"station_id":"ce4bhc92rcd13ifvqetg","pricing_plan_id":"cebpf4jnsgd1na2vs0mg"},{"bike_id":"e24a026a-c0e3-4ed2-bec3-0ff2a9afc08f","system_id":"levelo_inurba_marseille","lat":43.33035,"lon":5.39039,"is_reserved":false,"is_disabled":false,"rental_uris":{"android":"levelo://app?vid=e24a026a-c0e3-4ed2-bec3-0ff2a9afc08f","ios":"levelo://app?vid=e24a026a-c0e3-4ed2-bec3-0ff2a9afc08f"},"vehicle_type_id":"4","last_reported":1738213738,"current_range_meters":38800,"station_id":"ce4bhr92rcd13ifvqhrg","pricing_plan_id":"cebpf4jnsgd1na2vs0mg"},{"bike_id":"ccb6318c-6994-46f1-b382-d420e97e4a87","system_id":"levelo_inurba_marseille","lat":43.27236,"lon":5.39202,"is_reserved":false,"is_disabled":true,"rental_uris":{"android":"levelo://app?vid=ccb6318c-6994-46f1-b382-d420e97e4a87","ios":"levelo://app?vid=ccb6318c-6994-46f1-b382-d420e97e4a87"},"vehicle_type_id":"4","last_reported":1738213738,"current_range_meters":36000,"station_id":"ce4bhhp2rcd13ifvqfm0","pricing_plan_id":"cebpf4jnsgd1na2vs0mg"},{"bike_id":"c6b22e63-3112-4b18-a4bd-a7ccda40bad7","system_id":"levelo_inurba_marseille","lat":43.299073,"lon":5.381347,"is_reserved":false,"is_disabled":true,"rental_uris":{"android":"levelo://app?vid=c6b22e63-3112-4b18-a4bd-a7ccda40bad7","ios":"levelo://app?vid=c6b22e63-3112-4b18-a4bd-a7ccda40bad7"},"vehicle_type_id":"4","last_reported":1738213738,"current_range_meters":26800,"station_id":"ce4bgj12rcd13ifvqbc0","pricing_plan_id":"cebpf4jnsgd1na2vs0mg"},{"bike_id":"fa3dd353-aa33-4c66-9a77-d64de75adc68","system_id":"levelo_inurba_marseille","lat":43.33574,"lon":5.40999,"is_reserved":false,"is_disabled":false,"rental_uris":{"android":"levelo://app?vid=fa3dd353-aa33-4c66-9a77-d64de75adc68","ios":"levelo://app?vid=fa3dd353-aa33-4c66-9a77-d64de75adc68"},"vehicle_type_id":"4","last_reported":1738213738,"current_range_meters":38800,"station_id":"ce4bhqh2rcd13ifvqhmg","pricing_plan_id":"cebpf4jnsgd1na2vs0mg"},{"bike_id":"75651a46-22e2-4383-ab67-fa1d2f1c1ae6","system_id":"levelo_inurba_marseille","lat":43.284103,"lon":5.375131,"is_reserved":false,"is_disabled":false,"rental_uris":{"android":"levelo://app?vid=75651a46-22e2-4383-ab67-fa1d2f1c1ae6","ios":"levelo://app?vid=75651a46-22e2-4383-ab67-fa1d2f1c1ae6"},"vehicle_type_id":"4","last_reported":1738213738,"current_range_meters":20000,"station_id":"ce4bh412rcd13ifvqds0","pricing_plan_id":"cebpf4jnsgd1na2vs0mg"},{"bike_id":"955bb27e-8e8d-4c50-8833-f0a214de88f9","system_id":"levelo_inurba_marseille","lat":43.27893,"lon":5.39587,"is_reserved":false,"is_disabled":false,"rental_uris":{"android":"levelo://app?vid=955bb27e-8e8d-4c50-8833-f0a214de88f9","ios":"levelo://app?vid=955bb27e-8e8d-4c50-8833-f0a214de88f9"},"vehicle_type_id":"4","last_reported":1738213738,"current_range_meters":36800,"station_id":"ce4bhf92rcd13ifvqf40","pricing_plan_id":"cebpf4jnsgd1na2vs0mg"},{"bike_id":"3c9c9088-9c27-4609-bc62-8218c0dc2be8","system_id":"levelo_inurba_marseille","lat":43.231953,"lon":5.355587,"is_reserved":false,"is_disabled":false,"rental_uris":{"android":"levelo://app?vid=3c9c9088-9c27-4609-bc62-8218c0dc2be8","ios":"levelo://app?vid=3c9c9088-9c27-4609-bc62-8218c0dc2be8"},"vehicle_type_id":"4","last_reported":1738213738,"current_range_meters":38800,"station_id":"ce4bhu92rcd13ifvqi70","pricing_plan_id":"cebpf4jnsgd1na2vs0mg"},{"bike_id":"c26f377d-0438-4f8f-817a-159f799709ee","system_id":"levelo_inurba_marseille","lat":43.30424,"lon":5.39753,"is_reserved":false,"is_disabled":false,"rental_uris":{"android":"levelo://app?vid=c26f377d-0438-4f8f-817a-159f799709ee","ios":"levelo://app?vid=c26f377d-0438-4f8f-817a-159f799709ee"},"vehicle_type_id":"4","last_reported":1738213738,"current_range_meters":38400,"station_id":"ce4bh092rcd13ifvqd20","pricing_plan_id":"cebpf4jnsgd1na2vs0mg"},{"bike_id":"66e8ded4-8fd1-49d1-9987-9d3ca350ffcf","system_id":"levelo_inurba_marseille","lat":43.26943,"lon":5.38915,"is_reserved":false,"is_disabled":false,"rental_uris":{"android":"levelo://app?vid=66e8ded4-8fd1-49d1-9987-9d3ca350ffcf","ios":"levelo://app?vid=66e8ded4-8fd1-49d1-9987-9d3ca350ffcf"},"vehicle_type_id":"4","last_reported":1738213738,"current_range_meters":38800,"station_id":"ce4bhhh2rcd13ifvqfl0","pricing_plan_id":"cebpf4jnsgd1na2vs0mg"},{"bike_id":"fa2f1c21-3bfc-46ef-bcba-588774df180a","system_id":"levelo_inurba_marseille","lat":43.25871,"lon":5.39891,"is_reserved":false,"is_disabled":false,"rental_uris":{"android":"levelo://app?vid=fa2f1c21-3bfc-46ef-bcba-588774df180a","ios":"levelo://app?vid=fa2f1c21-3bfc-46ef-bcba-588774df180a"},"vehicle_type_id":"4","last_reported":1738213738,"current_range_meters":17200,"station_id":"ce4bhl92rcd13ifvqghg","pricing_plan_id":"cebpf4jnsgd1na2vs0mg"},{"bike_id":"44223985-a754-418c-b385-1bd11756dc9b","system_id":"levelo_inurba_marseille","lat":43.2862,"lon":5.35107,"is_reserved":false,"is_disabled":false,"rental_uris":{"android":"levelo://app?vid=44223985-a754-418c-b385-1bd11756dc9b","ios":"levelo://app?vid=44223985-a754-418c-b385-1bd11756dc9b"},"vehicle_type_id":"4","last_reported":1738213738,"current_range_meters":25200,"station_id":"ce4bhch2rcd13ifvqeug","pricing_plan_id":"cebpf4jnsgd1na2vs0mg"},{"bike_id":"53fa82d1-eb43-4e19-8ac1-1347a372b80a","system_id":"levelo_inurba_marseille","lat":43.25878,"lon":5.39886,"is_reserved":false,"is_disabled":false,"rental_uris":{"android":"levelo://app?vid=53fa82d1-eb43-4e19-8ac1-1347a372b80a","ios":"levelo://app?vid=53fa82d1-eb43-4e19-8ac1-1347a372b80a"},"vehicle_type_id":"4","last_reported":1738213738,"current_range_meters":31200,"station_id":"ce4bhl92rcd13ifvqghg","pricing_plan_id":"cebpf4jnsgd1na2vs0mg"},{"bike_id":"796664c1-d207-429d-b5f8-272d4d89b86b","system_id":"levelo_inurba_marseille","lat":43.330178,"lon":5.390442,"is_reserved":false,"is_disabled":false,"rental_uris":{"android":"levelo://app?vid=796664c1-d207-429d-b5f8-272d4d89b86b","ios":"levelo://app?vid=796664c1-d207-429d-b5f8-272d4d89b86b"},"vehicle_type_id":"4","last_reported":1738213738,"current_range_meters":38800,"station_id":"ce4bhr92rcd13ifvqhrg","pricing_plan_id":"cebpf4jnsgd1na2vs0mg"},{"bike_id":"42c78189-b400-4c78-92c4-ad00a450d7da","system_id":"levelo_inurba_marseille","lat":43.25485,"lon":5.37619,"is_reserved":false,"is_disabled":false,"rental_uris":{"android":"levelo://app?vid=42c78189-b400-4c78-92c4-ad00a450d7da","ios":"levelo://app?vid=42c78189-b400-4c78-92c4-ad00a450d7da"},"vehicle_type_id":"4","last_reported":1738213738,"current_range_meters":38000,"station_id":"ce4bhh12rcd13ifvqff0","pricing_plan_id":"cebpf4jnsgd1na2vs0mg"},{"bike_id":"e3f631fc-16ce-4928-9103-100eabab96f5","system_id":"levelo_inurba_marseille","lat":43.26678,"lon":5.38273,"is_reserved":false,"is_disabled":false,"rental_uris":{"android":"levelo://app?vid=e3f631fc-16ce-4928-9103-100eabab96f5","ios":"levelo://app?vid=e3f631fc-16ce-4928-9103-100eabab96f5"},"vehicle_type_id":"4","last_reported":1738213738,"current_range_meters":38000,"station_id":"ce4bhg92rcd13ifvqf90","pricing_plan_id":"cebpf4jnsgd1na2vs0mg"},{"bike_id":"ada889ea-5ee7-4de9-8745-790d1e73de0b","system_id":"levelo_inurba_marseille","lat":43.31268,"lon":5.40163,"is_reserved":false,"is_disabled":false,"rental_uris":{"android":"levelo://app?vid=ada889ea-5ee7-4de9-8745-790d1e73de0b","ios":"levelo://app?vid=ada889ea-5ee7-4de9-8745-790d1e73de0b"},"vehicle_type_id":"4","last_reported":1738213738,"current_range_meters":38800,"station_id":"ce4bh092rcd13ifvqd30","pricing_plan_id":"cebpf4jnsgd1na2vs0mg"},{"bike_id":"aa8684a0-4372-4167-987c-97a064c030c1","system_id":"levelo_inurba_marseille","lat":43.306794,"lon":5.422169,"is_reserved":false,"is_disabled":true,"rental_uris":{"android":"levelo://app?vid=aa8684a0-4372-4167-987c-97a064c030c1","ios":"levelo://app?vid=aa8684a0-4372-4167-987c-97a064c030c1"},"vehicle_type_id":"4","last_reported":1738213738,"current_range_meters":1600,"station_id":"","pricing_plan_id":"cebpf4jnsgd1na2vs0mg"},{"bike_id":"1e3bc1ac-75bb-44a1-8857-ef8f9e3ea1b0","system_id":"levelo_inurba_marseille","lat":43.32285,"lon":5.38276,"is_reserved":false,"is_disabled":false,"rental_uris":{"android":"levelo://app?vid=1e3bc1ac-75bb-44a1-8857-ef8f9e3ea1b0","ios":"levelo://app?vid=1e3bc1ac-75bb-44a1-8857-ef8f9e3ea1b0"},"vehicle_type_id":"4","last_reported":1738213738,"current_range_meters":35200,"station_id":"ce4bhr12rcd13ifvqhqg","pricing_plan_id":"cebpf4jnsgd1na2vs0mg"},{"bike_id":"35f37634-7a87-42d5-9235-58870f12fb07","system_id":"levelo_inurba_marseille","lat":43.2842,"lon":5.34941,"is_reserved":false,"is_disabled":false,"rental_uris":{"android":"levelo://app?vid=35f37634-7a87-42d5-9235-58870f12fb07","ios":"levelo://app?vid=35f37634-7a87-42d5-9235-58870f12fb07"},"vehicle_type_id":"4","last_reported":1738213738,"current_range_meters":28800,"station_id":"ce4bhbh2rcd13ifvqepg","pricing_plan_id":"cebpf4jnsgd1na2vs0mg"},{"bike_id":"89fff634-ab53-485b-bc98-38df108243c2","system_id":"levelo_inurba_marseille","lat":43.30608,"lon":5.37208,"is_reserved":false,"is_disabled":false,"rental_uris":{"android":"levelo://app?vid=89fff634-ab53-485b-bc98-38df108243c2","ios":"levelo://app?vid=89fff634-ab53-485b-bc98-38df108243c2"},"vehicle_type_id":"4","last_reported":1738213738,"current_range_meters":7200,"station_id":"ce4bgqh2rcd13ifvqc4g","pricing_plan_id":"cebpf4jnsgd1na2vs0mg"},{"bike_id":"a55b3987-e581-43b1-a743-595f1d7fbf45","system_id":"levelo_inurba_marseille","lat":43.28105,"lon":5.37838,"is_reserved":false,"is_disabled":false,"rental_uris":{"android":"levelo://app?vid=a55b3987-e581-43b1-a743-595f1d7fbf45","ios":"levelo://app?vid=a55b3987-e581-43b1-a743-595f1d7fbf45"},"vehicle_type_id":"4","last_reported":1738213738,"current_range_meters":33600,"station_id":"ce4bha12rcd13ifvqee0","pricing_plan_id":"cebpf4jnsgd1na2vs0mg"},{"bike_id":"9061c30b-f0f7-46e3-8477-d3c2c36b1f53","system_id":"levelo_inurba_marseille","lat":43.28036,"lon":5.3694,"is_reserved":false,"is_disabled":false,"rental_uris":{"android":"levelo://app?vid=9061c30b-f0f7-46e3-8477-d3c2c36b1f53","ios":"levelo://app?vid=9061c30b-f0f7-46e3-8477-d3c2c36b1f53"},"vehicle_type_id":"4","last_reported":1738213738,"current_range_meters":38400,"station_id":"ce4bha12rcd13ifvqef0","pricing_plan_id":"cebpf4jnsgd1na2vs0mg"},{"bike_id":"73905958-9769-4a85-960e-ba1d4f721447","system_id":"levelo_inurba_marseille","lat":43.28627,"lon":5.36353,"is_reserved":false,"is_disabled":false,"rental_uris":{"android":"levelo://app?vid=73905958-9769-4a85-960e-ba1d4f721447","ios":"levelo://app?vid=73905958-9769-4a85-960e-ba1d4f721447"},"vehicle_type_id":"4","last_reported":1738213738,"current_range_meters":28800,"station_id":"ce4bhah2rcd13ifvqej0","pricing_plan_id":"cebpf4jnsgd1na2vs0mg"},{"bike_id":"f13d5aa8-c024-4fbb-8216-a7ef6ab1eff4","system_id":"levelo_inurba_marseille","lat":43.31891,"lon":5.40699,"is_reserved":false,"is_disabled":false,"rental_uris":{"android":"levelo://app?vid=f13d5aa8-c024-4fbb-8216-a7ef6ab1eff4","ios":"levelo://app?vid=f13d5aa8-c024-4fbb-8216-a7ef6ab1eff4"},"vehicle_type_id":"4","last_reported":1738213738,"current_range_meters":38400,"station_id":"ce4bhq12rcd13ifvqhig","pricing_plan_id":"cebpf4jnsgd1na2vs0mg"},{"bike_id":"39bd9e28-59f1-42e3-98fa-8269cd3a779a","system_id":"levelo_inurba_marseille","lat":43.28093,"lon":5.39664,"is_reserved":false,"is_disabled":false,"rental_uris":{"android":"levelo://app?vid=39bd9e28-59f1-42e3-98fa-8269cd3a779a","ios":"levelo://app?vid=39bd9e28-59f1-42e3-98fa-8269cd3a779a"},"vehicle_type_id":"4","last_reported":1738213738,"current_range_meters":38800,"station_id":"ce4bho12rcd13ifvqh2g","pricing_plan_id":"cebpf4jnsgd1na2vs0mg"},{"bike_id":"ab2c796a-c23b-4a3a-9534-777b873d6a05","system_id":"levelo_inurba_marseille","lat":43.24166,"lon":5.36389,"is_reserved":false,"is_disabled":false,"rental_uris":{"android":"levelo://app?vid=ab2c796a-c23b-4a3a-9534-777b873d6a05","ios":"levelo://app?vid=ab2c796a-c23b-4a3a-9534-777b873d6a05"},"vehicle_type_id":"4","last_reported":1738213738,"current_range_meters":12400,"station_id":"cpo36qri1sfpv3e86is0","pricing_plan_id":"cebpf4jnsgd1na2vs0mg"},{"bike_id":"a7b37d27-bfc9-4dfc-9cf4-b0ff6252342a","system_id":"levelo_inurba_marseille","lat":43.30771,"lon":5.37652,"is_reserved":false,"is_disabled":false,"rental_uris":{"android":"levelo://app?vid=a7b37d27-bfc9-4dfc-9cf4-b0ff6252342a","ios":"levelo://app?vid=a7b37d27-bfc9-4dfc-9cf4-b0ff6252342a"},"vehicle_type_id":"4","last_reported":1738213738,"current_range_meters":19600,"station_id":"ce4bgv92rcd13ifvqcq0","pricing_plan_id":"cebpf4jnsgd1na2vs0mg"},{"bike_id":"eca914c1-5c29-44d5-b3d0-f7b51a76a49b","system_id":"levelo_inurba_marseille","lat":43.260324,"lon":5.375508,"is_reserved":false,"is_disabled":false,"rental_uris":{"android":"levelo://app?vid=eca914c1-5c29-44d5-b3d0-f7b51a76a49b","ios":"levelo://app?vid=eca914c1-5c29-44d5-b3d0-f7b51a76a49b"},"vehicle_type_id":"4","last_reported":1738213738,"current_range_meters":38400,"station_id":"ce4bhgh2rcd13ifvqfa0","pricing_plan_id":"cebpf4jnsgd1na2vs0mg"},{"bike_id":"e3d24e55-9c68-4f68-8903-3b34df454a10","system_id":"levelo_inurba_marseille","lat":43.28402,"lon":5.37496,"is_reserved":false,"is_disabled":false,"rental_uris":{"android":"levelo://app?vid=e3d24e55-9c68-4f68-8903-3b34df454a10","ios":"levelo://app?vid=e3d24e55-9c68-4f68-8903-3b34df454a10"},"vehicle_type_id":"4","last_reported":1738213738,"current_range_meters":28000,"station_id":"ce4bh412rcd13ifvqds0","pricing_plan_id":"cebpf4jnsgd1na2vs0mg"},{"bike_id":"a68a4023-94a0-467e-aba6-0c892fddab6e","system_id":"levelo_inurba_marseille","lat":43.24062,"lon":5.37733,"is_reserved":false,"is_disabled":false,"rental_uris":{"android":"levelo://app?vid=a68a4023-94a0-467e-aba6-0c892fddab6e","ios":"levelo://app?vid=a68a4023-94a0-467e-aba6-0c892fddab6e"},"vehicle_type_id":"4","last_reported":1738213738,"current_range_meters":38400,"station_id":"ce4bhnp2rcd13ifvqgvg","pricing_plan_id":"cebpf4jnsgd1na2vs0mg"},{"bike_id":"fa910578-4caa-4210-aa45-ea80af27e609","system_id":"levelo_inurba_marseille","lat":43.31732,"lon":5.42383,"is_reserved":false,"is_disabled":false,"rental_uris":{"android":"levelo://app?vid=fa910578-4caa-4210-aa45-ea80af27e609","ios":"levelo://app?vid=fa910578-4caa-4210-aa45-ea80af27e609"},"vehicle_type_id":"4","last_reported":1738213738,"current_range_meters":36000,"station_id":"ce4bhp92rcd13ifvqhbg","pricing_plan_id":"cebpf4jnsgd1na2vs0mg"},{"bike_id":"11a7852e-270e-45d9-9892-b44ae6bcec93","system_id":"levelo_inurba_marseille","lat":43.28874,"lon":5.35806,"is_reserved":false,"is_disabled":false,"rental_uris":{"android":"levelo://app?vid=11a7852e-270e-45d9-9892-b44ae6bcec93","ios":"levelo://app?vid=11a7852e-270e-45d9-9892-b44ae6bcec93"},"vehicle_type_id":"4","last_reported":1738213738,"current_range_meters":33200,"station_id":"ce4bhb12rcd13ifvqem0","pricing_plan_id":"cebpf4jnsgd1na2vs0mg"},{"bike_id":"8aadf7de-3b4f-46b0-8200-de52d69e303c","system_id":"levelo_inurba_marseille","lat":43.279956,"lon":5.416685,"is_reserved":false,"is_disabled":false,"rental_uris":{"android":"levelo://app?vid=8aadf7de-3b4f-46b0-8200-de52d69e303c","ios":"levelo://app?vid=8aadf7de-3b4f-46b0-8200-de52d69e303c"},"vehicle_type_id":"4","last_reported":1738213738,"current_range_meters":28000,"station_id":"ce4bho12rcd13ifvqh1g","pricing_plan_id":"cebpf4jnsgd1na2vs0mg"},{"bike_id":"f0f07e84-01c4-443b-852b-4e00b882c1d8","system_id":"levelo_inurba_marseille","lat":43.30758,"lon":5.43565,"is_reserved":false,"is_disabled":false,"rental_uris":{"android":"levelo://app?vid=f0f07e84-01c4-443b-852b-4e00b882c1d8","ios":"levelo://app?vid=f0f07e84-01c4-443b-852b-4e00b882c1d8"},"vehicle_type_id":"4","last_reported":1738213738,"current_range_meters":38400,"station_id":"ce4bhph2rcd13ifvqheg","pricing_plan_id":"cebpf4jnsgd1na2vs0mg"},{"bike_id":"224a4d7c-a193-403c-80d3-cc3782475e44","system_id":"levelo_inurba_marseille","lat":43.24317,"lon":5.36951,"is_reserved":false,"is_disabled":false,"rental_uris":{"android":"levelo://app?vid=224a4d7c-a193-403c-80d3-cc3782475e44","ios":"levelo://app?vid=224a4d7c-a193-403c-80d3-cc3782475e44"},"vehicle_type_id":"4","last_reported":1738213738,"current_range_meters":24400,"station_id":"ce4bhhh2rcd13ifvqfk0","pricing_plan_id":"cebpf4jnsgd1na2vs0mg"},{"bike_id":"615a0747-8d06-4fbf-b735-2ce44cc12594","system_id":"levelo_inurba_marseille","lat":43.323707,"lon":5.388811,"is_reserved":false,"is_disabled":false,"rental_uris":{"android":"levelo://app?vid=615a0747-8d06-4fbf-b735-2ce44cc12594","ios":"levelo://app?vid=615a0747-8d06-4fbf-b735-2ce44cc12594"},"vehicle_type_id":"4","last_reported":1738213738,"current_range_meters":17200,"station_id":"ce4bhqp2rcd13ifvqhog","pricing_plan_id":"cebpf4jnsgd1na2vs0mg"},{"bike_id":"8eeb5dfb-7158-4073-8c10-33dc86f27d7f","system_id":"levelo_inurba_marseille","lat":43.28667,"lon":5.36334,"is_reserved":false,"is_disabled":false,"rental_uris":{"android":"levelo://app?vid=8eeb5dfb-7158-4073-8c10-33dc86f27d7f","ios":"levelo://app?vid=8eeb5dfb-7158-4073-8c10-33dc86f27d7f"},"vehicle_type_id":"4","last_reported":1738213738,"current_range_meters":27200,"station_id":"ce4bhah2rcd13ifvqej0","pricing_plan_id":"cebpf4jnsgd1na2vs0mg"},{"bike_id":"147c6e83-12ef-48d2-b416-b057e0bd8af3","system_id":"levelo_inurba_marseille","lat":43.27939,"lon":5.41059,"is_reserved":false,"is_disabled":false,"rental_uris":{"android":"levelo://app?vid=147c6e83-12ef-48d2-b416-b057e0bd8af3","ios":"levelo://app?vid=147c6e83-12ef-48d2-b416-b057e0bd8af3"},"vehicle_type_id":"4","last_reported":1738213738,"current_range_meters":34000,"station_id":"ce4bhnp2rcd13ifvqh0g","pricing_plan_id":"cebpf4jnsgd1na2vs0mg"},{"bike_id":"3afe2907-14fe-40b0-8ce8-247215ed16c8","system_id":"levelo_inurba_marseille","lat":43.26952,"lon":5.38921,"is_reserved":false,"is_disabled":true,"rental_uris":{"android":"levelo://app?vid=3afe2907-14fe-40b0-8ce8-247215ed16c8","ios":"levelo://app?vid=3afe2907-14fe-40b0-8ce8-247215ed16c8"},"vehicle_type_id":"4","last_reported":1738213738,"current_range_meters":800,"station_id":"ce4bhhh2rcd13ifvqfl0","pricing_plan_id":"cebpf4jnsgd1na2vs0mg"},{"bike_id":"e8e1f7c6-d773-4c38-bfcc-4a6d773355ce","system_id":"levelo_inurba_marseille","lat":43.229302,"lon":5.353981,"is_reserved":false,"is_disabled":false,"rental_uris":{"android":"levelo://app?vid=e8e1f7c6-d773-4c38-bfcc-4a6d773355ce","ios":"levelo://app?vid=e8e1f7c6-d773-4c38-bfcc-4a6d773355ce"},"vehicle_type_id":"4","last_reported":1738213738,"current_range_meters":38800,"station_id":"cpo3532slgdg3j2ikp40","pricing_plan_id":"cebpf4jnsgd1na2vs0mg"},{"bike_id":"f0ed3e26-8dad-4678-bee9-f6903412b754","system_id":"levelo_inurba_marseille","lat":43.28113,"lon":5.37834,"is_reserved":false,"is_disabled":false,"rental_uris":{"android":"levelo://app?vid=f0ed3e26-8dad-4678-bee9-f6903412b754","ios":"levelo://app?vid=f0ed3e26-8dad-4678-bee9-f6903412b754"},"vehicle_type_id":"4","last_reported":1738213738,"current_range_meters":36400,"station_id":"ce4bha12rcd13ifvqee0","pricing_plan_id":"cebpf4jnsgd1na2vs0mg"},{"bike_id":"d1deb8e3-c7bf-4e18-9503-9c29710c6efe","system_id":"levelo_inurba_marseille","lat":43.29234,"lon":5.40176,"is_reserved":false,"is_disabled":false,"rental_uris":{"android":"levelo://app?vid=d1deb8e3-c7bf-4e18-9503-9c29710c6efe","ios":"levelo://app?vid=d1deb8e3-c7bf-4e18-9503-9c29710c6efe"},"vehicle_type_id":"4","last_reported":1738213738,"current_range_meters":26000,"station_id":"","pricing_plan_id":"cebpf4jnsgd1na2vs0mg"},{"bike_id":"4a9a989a-8451-4f59-84df-2b7e84bb2a27","system_id":"levelo_inurba_marseille","lat":43.30421,"lon":5.39739,"is_reserved":false,"is_disabled":false,"rental_uris":{"android":"levelo://app?vid=4a9a989a-8451-4f59-84df-2b7e84bb2a27","ios":"levelo://app?vid=4a9a989a-8451-4f59-84df-2b7e84bb2a27"},"vehicle_type_id":"4","last_reported":1738213738,"current_range_meters":33600,"station_id":"ce4bh092rcd13ifvqd20","pricing_plan_id":"cebpf4jnsgd1na2vs0mg"},{"bike_id":"0b25861b-717b-42df-b70d-c57c7799ec00","system_id":"levelo_inurba_marseille","lat":43.26194,"lon":5.37458,"is_reserved":false,"is_disabled":false,"rental_uris":{"android":"levelo://app?vid=0b25861b-717b-42df-b70d-c57c7799ec00","ios":"levelo://app?vid=0b25861b-717b-42df-b70d-c57c7799ec00"},"vehicle_type_id":"4","last_reported":1738213738,"current_range_meters":20400,"station_id":"ce4bhgp2rcd13ifvqfc0","pricing_plan_id":"cebpf4jnsgd1na2vs0mg"},{"bike_id":"260c3224-c3e5-4a9a-a5e4-8a6ee28f69e2","system_id":"levelo_inurba_marseille","lat":43.28104,"lon":5.37851,"is_reserved":false,"is_disabled":false,"rental_uris":{"android":"levelo://app?vid=260c3224-c3e5-4a9a-a5e4-8a6ee28f69e2","ios":"levelo://app?vid=260c3224-c3e5-4a9a-a5e4-8a6ee28f69e2"},"vehicle_type_id":"4","last_reported":1738213738,"current_range_meters":30800,"station_id":"ce4bha12rcd13ifvqee0","pricing_plan_id":"cebpf4jnsgd1na2vs0mg"},{"bike_id":"13da3b75-536b-4260-bc06-acbd5c63dff9","system_id":"levelo_inurba_marseille","lat":43.2318,"lon":5.40003,"is_reserved":false,"is_disabled":false,"rental_uris":{"android":"levelo://app?vid=13da3b75-536b-4260-bc06-acbd5c63dff9","ios":"levelo://app?vid=13da3b75-536b-4260-bc06-acbd5c63dff9"},"vehicle_type_id":"4","last_reported":1738213738,"current_range_meters":38800,"station_id":"ce4bhn12rcd13ifvqgqg","pricing_plan_id":"cebpf4jnsgd1na2vs0mg"},{"bike_id":"c7d3cd14-c17e-40b6-ad28-95f8e7b23957","system_id":"levelo_inurba_marseille","lat":43.25732,"lon":5.41088,"is_reserved":false,"is_disabled":false,"rental_uris":{"android":"levelo://app?vid=c7d3cd14-c17e-40b6-ad28-95f8e7b23957","ios":"levelo://app?vid=c7d3cd14-c17e-40b6-ad28-95f8e7b23957"},"vehicle_type_id":"4","last_reported":1738213738,"current_range_meters":38800,"station_id":"ce4bhkp2rcd13ifvqgd0","pricing_plan_id":"cebpf4jnsgd1na2vs0mg"},{"bike_id":"dcc09b49-a81a-42a9-a8e6-ed8eb579a833","system_id":"levelo_inurba_marseille","lat":43.31088,"lon":5.42436,"is_reserved":false,"is_disabled":false,"rental_uris":{"android":"levelo://app?vid=dcc09b49-a81a-42a9-a8e6-ed8eb579a833","ios":"levelo://app?vid=dcc09b49-a81a-42a9-a8e6-ed8eb579a833"},"vehicle_type_id":"4","last_reported":1738213738,"current_range_meters":6400,"station_id":"ce4bhp92rcd13ifvqhag","pricing_plan_id":"cebpf4jnsgd1na2vs0mg"},{"bike_id":"ba31f84e-cbe5-49e8-9983-339e553731ce","system_id":"levelo_inurba_marseille","lat":43.32655,"lon":5.40982,"is_reserved":false,"is_disabled":true,"rental_uris":{"android":"levelo://app?vid=ba31f84e-cbe5-49e8-9983-339e553731ce","ios":"levelo://app?vid=ba31f84e-cbe5-49e8-9983-339e553731ce"},"vehicle_type_id":"4","last_reported":1738213738,"current_range_meters":0,"station_id":"ce4bhpp2rcd13ifvqhgg","pricing_plan_id":"cebpf4jnsgd1na2vs0mg"},{"bike_id":"0fb0d812-5c1d-4f9e-9497-c8a8e5d880b1","system_id":"levelo_inurba_marseille","lat":43.30599,"lon":5.37204,"is_reserved":false,"is_disabled":false,"rental_uris":{"android":"levelo://app?vid=0fb0d812-5c1d-4f9e-9497-c8a8e5d880b1","ios":"levelo://app?vid=0fb0d812-5c1d-4f9e-9497-c8a8e5d880b1"},"vehicle_type_id":"4","last_reported":1738213738,"current_range_meters":38800,"station_id":"ce4bgqh2rcd13ifvqc4g","pricing_plan_id":"cebpf4jnsgd1na2vs0mg"},{"bike_id":"5f8ad610-27bd-4d90-b382-023cf7ae6327","system_id":"levelo_inurba_marseille","lat":43.28958,"lon":5.39624,"is_reserved":false,"is_disabled":false,"rental_uris":{"android":"levelo://app?vid=5f8ad610-27bd-4d90-b382-023cf7ae6327","ios":"levelo://app?vid=5f8ad610-27bd-4d90-b382-023cf7ae6327"},"vehicle_type_id":"4","last_reported":1738213738,"current_range_meters":37600,"station_id":"ce4bh3h2rcd13ifvqdn0","pricing_plan_id":"cebpf4jnsgd1na2vs0mg"},{"bike_id":"dd195832-ff3f-4763-a260-74003ef7ff4c","system_id":"levelo_inurba_marseille","lat":43.2922,"lon":5.36023,"is_reserved":false,"is_disabled":false,"rental_uris":{"android":"levelo://app?vid=dd195832-ff3f-4763-a260-74003ef7ff4c","ios":"levelo://app?vid=dd195832-ff3f-4763-a260-74003ef7ff4c"},"vehicle_type_id":"4","last_reported":1738213738,"current_range_meters":30400,"station_id":"ce4bhbh2rcd13ifvqeqg","pricing_plan_id":"cebpf4jnsgd1na2vs0mg"},{"bike_id":"078ce1de-fdde-4b25-8006-9875d485872a","system_id":"levelo_inurba_marseille","lat":43.317599,"lon":5.390175,"is_reserved":false,"is_disabled":false,"rental_uris":{"android":"levelo://app?vid=078ce1de-fdde-4b25-8006-9875d485872a","ios":"levelo://app?vid=078ce1de-fdde-4b25-8006-9875d485872a"},"vehicle_type_id":"4","last_reported":1738213738,"current_range_meters":19600,"station_id":"ce4bhqp2rcd13ifvqhng","pricing_plan_id":"cebpf4jnsgd1na2vs0mg"},{"bike_id":"ee757b3c-1b66-4688-957f-c178b479b260","system_id":"levelo_inurba_marseille","lat":43.28437,"lon":5.39196,"is_reserved":false,"is_disabled":false,"rental_uris":{"android":"levelo://app?vid=ee757b3c-1b66-4688-957f-c178b479b260","ios":"levelo://app?vid=ee757b3c-1b66-4688-957f-c178b479b260"},"vehicle_type_id":"4","last_reported":1738213738,"current_range_meters":27200,"station_id":"ce4bhoh2rcd13ifvqh5g","pricing_plan_id":"cebpf4jnsgd1na2vs0mg"},{"bike_id":"c5dcf720-29ec-4d44-b13b-6a26ae6217c5","system_id":"levelo_inurba_marseille","lat":43.28336,"lon":5.38081,"is_reserved":false,"is_disabled":false,"rental_uris":{"android":"levelo://app?vid=c5dcf720-29ec-4d44-b13b-6a26ae6217c5","ios":"levelo://app?vid=c5dcf720-29ec-4d44-b13b-6a26ae6217c5"},"vehicle_type_id":"4","last_reported":1738213738,"current_range_meters":27600,"station_id":"ce4bh412rcd13ifvqdr0","pricing_plan_id":"cebpf4jnsgd1na2vs0mg"},{"bike_id":"c1d1ce73-8f8f-42c4-8303-66858ad4f592","system_id":"levelo_inurba_marseille","lat":43.27501,"lon":5.42452,"is_reserved":false,"is_disabled":true,"rental_uris":{"android":"levelo://app?vid=c1d1ce73-8f8f-42c4-8303-66858ad4f592","ios":"levelo://app?vid=c1d1ce73-8f8f-42c4-8303-66858ad4f592"},"vehicle_type_id":"4","last_reported":1738213738,"current_range_meters":25200,"station_id":"ce4bhn92rcd13ifvqgrg","pricing_plan_id":"cebpf4jnsgd1na2vs0mg"},{"bike_id":"069d41e3-e2ea-4605-b9ad-d91a62d0b834","system_id":"levelo_inurba_marseille","lat":43.28479,"lon":5.38522,"is_reserved":false,"is_disabled":false,"rental_uris":{"android":"levelo://app?vid=069d41e3-e2ea-4605-b9ad-d91a62d0b834","ios":"levelo://app?vid=069d41e3-e2ea-4605-b9ad-d91a62d0b834"},"vehicle_type_id":"4","last_reported":1738213738,"current_range_meters":37600,"station_id":"ce4bh8p2rcd13ifvqeb0","pricing_plan_id":"cebpf4jnsgd1na2vs0mg"},{"bike_id":"71f34f72-d3b7-46a5-9bd4-1fe057b3152f","system_id":"levelo_inurba_marseille","lat":43.229356,"lon":5.353784,"is_reserved":false,"is_disabled":false,"rental_uris":{"android":"levelo://app?vid=71f34f72-d3b7-46a5-9bd4-1fe057b3152f","ios":"levelo://app?vid=71f34f72-d3b7-46a5-9bd4-1fe057b3152f"},"vehicle_type_id":"4","last_reported":1738213738,"current_range_meters":38800,"station_id":"cpo3532slgdg3j2ikp40","pricing_plan_id":"cebpf4jnsgd1na2vs0mg"},{"bike_id":"66c12baa-9477-443c-ad62-ceeda86c1e58","system_id":"levelo_inurba_marseille","lat":43.2588,"lon":5.3989,"is_reserved":false,"is_disabled":false,"rental_uris":{"android":"levelo://app?vid=66c12baa-9477-443c-ad62-ceeda86c1e58","ios":"levelo://app?vid=66c12baa-9477-443c-ad62-ceeda86c1e58"},"vehicle_type_id":"4","last_reported":1738213738,"current_range_meters":3600,"station_id":"ce4bhl92rcd13ifvqghg","pricing_plan_id":"cebpf4jnsgd1na2vs0mg"},{"bike_id":"20029bdd-9f9c-4ff9-86e4-5ba6ed30f46a","system_id":"levelo_inurba_marseille","lat":43.23147,"lon":5.4371,"is_reserved":false,"is_disabled":true,"rental_uris":{"android":"levelo://app?vid=20029bdd-9f9c-4ff9-86e4-5ba6ed30f46a","ios":"levelo://app?vid=20029bdd-9f9c-4ff9-86e4-5ba6ed30f46a"},"vehicle_type_id":"4","last_reported":1738213738,"current_range_meters":0,"station_id":"ce4bhmp2rcd13ifvqgog","pricing_plan_id":"cebpf4jnsgd1na2vs0mg"},{"bike_id":"de8bed2d-3ac5-40e7-a112-1349b213284e","system_id":"levelo_inurba_marseille","lat":43.28349,"lon":5.38104,"is_reserved":false,"is_disabled":false,"rental_uris":{"android":"levelo://app?vid=de8bed2d-3ac5-40e7-a112-1349b213284e","ios":"levelo://app?vid=de8bed2d-3ac5-40e7-a112-1349b213284e"},"vehicle_type_id":"4","last_reported":1738213738,"current_range_meters":33600,"station_id":"ce4bh412rcd13ifvqdr0","pricing_plan_id":"cebpf4jnsgd1na2vs0mg"},{"bike_id":"a335131c-b12c-433f-9f2c-1edb5549eb18","system_id":"levelo_inurba_marseille","lat":43.30174,"lon":5.38068,"is_reserved":false,"is_disabled":false,"rental_uris":{"android":"levelo://app?vid=a335131c-b12c-433f-9f2c-1edb5549eb18","ios":"levelo://app?vid=a335131c-b12c-433f-9f2c-1edb5549eb18"},"vehicle_type_id":"4","last_reported":1738213738,"current_range_meters":23200,"station_id":"ce4bgjp2rcd13ifvqbh0","pricing_plan_id":"cebpf4jnsgd1na2vs0mg"},{"bike_id":"4043af79-6d58-46ee-95c7-db3b9584c669","system_id":"levelo_inurba_marseille","lat":43.27441,"lon":5.39402,"is_reserved":false,"is_disabled":false,"rental_uris":{"android":"levelo://app?vid=4043af79-6d58-46ee-95c7-db3b9584c669","ios":"levelo://app?vid=4043af79-6d58-46ee-95c7-db3b9584c669"},"vehicle_type_id":"4","last_reported":1738213738,"current_range_meters":30400,"station_id":"ce4bhdp2rcd13ifvqf20","pricing_plan_id":"cebpf4jnsgd1na2vs0mg"},{"bike_id":"3f65cc72-6791-4e20-b3d8-bac9eb0b90d1","system_id":"levelo_inurba_marseille","lat":43.25118,"lon":5.40315,"is_reserved":false,"is_disabled":false,"rental_uris":{"android":"levelo://app?vid=3f65cc72-6791-4e20-b3d8-bac9eb0b90d1","ios":"levelo://app?vid=3f65cc72-6791-4e20-b3d8-bac9eb0b90d1"},"vehicle_type_id":"4","last_reported":1738213738,"current_range_meters":17600,"station_id":"ce4bhlh2rcd13ifvqgig","pricing_plan_id":"cebpf4jnsgd1na2vs0mg"},{"bike_id":"9cef6fa4-3ddb-412a-b91c-2ed6416e1e06","system_id":"levelo_inurba_marseille","lat":43.30318,"lon":5.40442,"is_reserved":false,"is_disabled":false,"rental_uris":{"android":"levelo://app?vid=9cef6fa4-3ddb-412a-b91c-2ed6416e1e06","ios":"levelo://app?vid=9cef6fa4-3ddb-412a-b91c-2ed6416e1e06"},"vehicle_type_id":"4","last_reported":1738213738,"current_range_meters":27200,"station_id":"ce4bh012rcd13ifvqd10","pricing_plan_id":"cebpf4jnsgd1na2vs0mg"},{"bike_id":"46f1f77e-98b6-4ba2-a396-1e36c4b255d1","system_id":"levelo_inurba_marseille","lat":43.28109,"lon":5.37835,"is_reserved":false,"is_disabled":false,"rental_uris":{"android":"levelo://app?vid=46f1f77e-98b6-4ba2-a396-1e36c4b255d1","ios":"levelo://app?vid=46f1f77e-98b6-4ba2-a396-1e36c4b255d1"},"vehicle_type_id":"4","last_reported":1738213738,"current_range_meters":16000,"station_id":"ce4bha12rcd13ifvqee0","pricing_plan_id":"cebpf4jnsgd1na2vs0mg"},{"bike_id":"6a125ed8-a227-4684-be19-44b998c74541","system_id":"levelo_inurba_marseille","lat":43.30648,"lon":5.40071,"is_reserved":false,"is_disabled":false,"rental_uris":{"android":"levelo://app?vid=6a125ed8-a227-4684-be19-44b998c74541","ios":"levelo://app?vid=6a125ed8-a227-4684-be19-44b998c74541"},"vehicle_type_id":"4","last_reported":1738213738,"current_range_meters":38800,"station_id":"ce4bh112rcd13ifvqda0","pricing_plan_id":"cebpf4jnsgd1na2vs0mg"},{"bike_id":"67010c49-4067-40f8-abbe-e9abaf8588d1","system_id":"levelo_inurba_marseille","lat":43.26029,"lon":5.37542,"is_reserved":false,"is_disabled":false,"rental_uris":{"android":"levelo://app?vid=67010c49-4067-40f8-abbe-e9abaf8588d1","ios":"levelo://app?vid=67010c49-4067-40f8-abbe-e9abaf8588d1"},"vehicle_type_id":"4","last_reported":1738213738,"current_range_meters":38000,"station_id":"ce4bhgh2rcd13ifvqfa0","pricing_plan_id":"cebpf4jnsgd1na2vs0mg"},{"bike_id":"bee89fe1-75de-4aa4-8834-a29197d70af2","system_id":"levelo_inurba_marseille","lat":43.30821,"lon":5.37146,"is_reserved":false,"is_disabled":true,"rental_uris":{"android":"levelo://app?vid=bee89fe1-75de-4aa4-8834-a29197d70af2","ios":"levelo://app?vid=bee89fe1-75de-4aa4-8834-a29197d70af2"},"vehicle_type_id":"4","last_reported":1738213738,"current_range_meters":0,"station_id":"","pricing_plan_id":"cebpf4jnsgd1na2vs0mg"},{"bike_id":"2ec84c22-8666-467b-b9ab-b38e4ac8ff9f","system_id":"levelo_inurba_marseille","lat":43.29911,"lon":5.43665,"is_reserved":false,"is_disabled":true,"rental_uris":{"android":"levelo://app?vid=2ec84c22-8666-467b-b9ab-b38e4ac8ff9f","ios":"levelo://app?vid=2ec84c22-8666-467b-b9ab-b38e4ac8ff9f"},"vehicle_type_id":"4","last_reported":1738213738,"current_range_meters":30400,"station_id":"ce4bhpp2rcd13ifvqhfg","pricing_plan_id":"cebpf4jnsgd1na2vs0mg"},{"bike_id":"7320c235-7fdd-49cb-83c0-b4ca9629f8a8","system_id":"levelo_inurba_marseille","lat":43.28458,"lon":5.359002,"is_reserved":false,"is_disabled":false,"rental_uris":{"android":"levelo://app?vid=7320c235-7fdd-49cb-83c0-b4ca9629f8a8","ios":"levelo://app?vid=7320c235-7fdd-49cb-83c0-b4ca9629f8a8"},"vehicle_type_id":"4","last_reported":1738213738,"current_range_meters":6000,"station_id":"ce4bhah2rcd13ifvqei0","pricing_plan_id":"cebpf4jnsgd1na2vs0mg"},{"bike_id":"c9c17ac2-0e98-4af0-a11c-93d69a9b620f","system_id":"levelo_inurba_marseille","lat":43.28622,"lon":5.35093,"is_reserved":false,"is_disabled":false,"rental_uris":{"android":"levelo://app?vid=c9c17ac2-0e98-4af0-a11c-93d69a9b620f","ios":"levelo://app?vid=c9c17ac2-0e98-4af0-a11c-93d69a9b620f"},"vehicle_type_id":"4","last_reported":1738213738,"current_range_meters":33200,"station_id":"ce4bhch2rcd13ifvqeug","pricing_plan_id":"cebpf4jnsgd1na2vs0mg"},{"bike_id":"9ea78203-8f98-4ce9-a46f-06802a5df390","system_id":"levelo_inurba_marseille","lat":43.23189,"lon":5.39979,"is_reserved":false,"is_disabled":false,"rental_uris":{"android":"levelo://app?vid=9ea78203-8f98-4ce9-a46f-06802a5df390","ios":"levelo://app?vid=9ea78203-8f98-4ce9-a46f-06802a5df390"},"vehicle_type_id":"4","last_reported":1738213738,"current_range_meters":10000,"station_id":"ce4bhn12rcd13ifvqgqg","pricing_plan_id":"cebpf4jnsgd1na2vs0mg"},{"bike_id":"39e64475-42a9-4145-a7f8-c07810bb0546","system_id":"levelo_inurba_marseille","lat":43.24683,"lon":5.3815,"is_reserved":false,"is_disabled":false,"rental_uris":{"android":"levelo://app?vid=39e64475-42a9-4145-a7f8-c07810bb0546","ios":"levelo://app?vid=39e64475-42a9-4145-a7f8-c07810bb0546"},"vehicle_type_id":"4","last_reported":1738213738,"current_range_meters":29600,"station_id":"ce4bhih2rcd13ifvqfr0","pricing_plan_id":"cebpf4jnsgd1na2vs0mg"},{"bike_id":"35115129-88da-424b-87bb-67c664234574","system_id":"levelo_inurba_marseille","lat":43.258712,"lon":5.398985,"is_reserved":false,"is_disabled":false,"rental_uris":{"android":"levelo://app?vid=35115129-88da-424b-87bb-67c664234574","ios":"levelo://app?vid=35115129-88da-424b-87bb-67c664234574"},"vehicle_type_id":"4","last_reported":1738213738,"current_range_meters":30800,"station_id":"ce4bhl92rcd13ifvqghg","pricing_plan_id":"cebpf4jnsgd1na2vs0mg"},{"bike_id":"296acca2-a355-4830-bc97-a6939a85f573","system_id":"levelo_inurba_marseille","lat":43.25566,"lon":5.38222,"is_reserved":false,"is_disabled":false,"rental_uris":{"android":"levelo://app?vid=296acca2-a355-4830-bc97-a6939a85f573","ios":"levelo://app?vid=296acca2-a355-4830-bc97-a6939a85f573"},"vehicle_type_id":"4","last_reported":1738213738,"current_range_meters":20800,"station_id":"ce4bhih2rcd13ifvqfs0","pricing_plan_id":"cebpf4jnsgd1na2vs0mg"},{"bike_id":"22bf8af2-fd6a-4807-85ab-b505fd3d9b3b","system_id":"levelo_inurba_marseille","lat":43.2951,"lon":5.39405,"is_reserved":false,"is_disabled":false,"rental_uris":{"android":"levelo://app?vid=22bf8af2-fd6a-4807-85ab-b505fd3d9b3b","ios":"levelo://app?vid=22bf8af2-fd6a-4807-85ab-b505fd3d9b3b"},"vehicle_type_id":"4","last_reported":1738213738,"current_range_meters":38000,"station_id":"ce4bh292rcd13ifvqdf0","pricing_plan_id":"cebpf4jnsgd1na2vs0mg"},{"bike_id":"69311afe-3d11-4d33-bd7f-5a46e643a98b","system_id":"levelo_inurba_marseille","lat":43.270594,"lon":5.40258,"is_reserved":false,"is_disabled":false,"rental_uris":{"android":"levelo://app?vid=69311afe-3d11-4d33-bd7f-5a46e643a98b","ios":"levelo://app?vid=69311afe-3d11-4d33-bd7f-5a46e643a98b"},"vehicle_type_id":"4","last_reported":1738213738,"current_range_meters":17200,"station_id":"ce4bhk92rcd13ifvqgc0","pricing_plan_id":"cebpf4jnsgd1na2vs0mg"},{"bike_id":"5f654e4e-95e6-426d-9211-44da09fb915e","system_id":"levelo_inurba_marseille","lat":43.27832,"lon":5.40694,"is_reserved":false,"is_disabled":false,"rental_uris":{"android":"levelo://app?vid=5f654e4e-95e6-426d-9211-44da09fb915e","ios":"levelo://app?vid=5f654e4e-95e6-426d-9211-44da09fb915e"},"vehicle_type_id":"4","last_reported":1738213738,"current_range_meters":38000,"station_id":"ce4bhnh2rcd13ifvqgtg","pricing_plan_id":"cebpf4jnsgd1na2vs0mg"},{"bike_id":"331d6122-4b80-4f84-9296-6b10b572a3cf","system_id":"levelo_inurba_marseille","lat":43.3131,"lon":5.3968,"is_reserved":false,"is_disabled":false,"rental_uris":{"android":"levelo://app?vid=331d6122-4b80-4f84-9296-6b10b572a3cf","ios":"levelo://app?vid=331d6122-4b80-4f84-9296-6b10b572a3cf"},"vehicle_type_id":"4","last_reported":1738213738,"current_range_meters":34800,"station_id":"ce4bgvp2rcd13ifvqcu0","pricing_plan_id":"cebpf4jnsgd1na2vs0mg"},{"bike_id":"0002070e-3794-4cb5-9dfa-5e512fa72331","system_id":"levelo_inurba_marseille","lat":43.279192,"lon":5.395846,"is_reserved":false,"is_disabled":false,"rental_uris":{"android":"levelo://app?vid=0002070e-3794-4cb5-9dfa-5e512fa72331","ios":"levelo://app?vid=0002070e-3794-4cb5-9dfa-5e512fa72331"},"vehicle_type_id":"4","last_reported":1738213738,"current_range_meters":38400,"station_id":"ce4bhf92rcd13ifvqf40","pricing_plan_id":"cebpf4jnsgd1na2vs0mg"},{"bike_id":"1d58f5fe-6c27-4df6-aaab-84463409b24d","system_id":"levelo_inurba_marseille","lat":43.28454,"lon":5.35886,"is_reserved":false,"is_disabled":false,"rental_uris":{"android":"levelo://app?vid=1d58f5fe-6c27-4df6-aaab-84463409b24d","ios":"levelo://app?vid=1d58f5fe-6c27-4df6-aaab-84463409b24d"},"vehicle_type_id":"4","last_reported":1738213738,"current_range_meters":38800,"station_id":"ce4bhah2rcd13ifvqei0","pricing_plan_id":"cebpf4jnsgd1na2vs0mg"},{"bike_id":"f785a9ca-3725-470c-a803-8877fc891212","system_id":"levelo_inurba_marseille","lat":43.3136,"lon":5.38495,"is_reserved":false,"is_disabled":false,"rental_uris":{"android":"levelo://app?vid=f785a9ca-3725-470c-a803-8877fc891212","ios":"levelo://app?vid=f785a9ca-3725-470c-a803-8877fc891212"},"vehicle_type_id":"4","last_reported":1738213738,"current_range_meters":15200,"station_id":"ce4bgt92rcd13ifvqcf0","pricing_plan_id":"cebpf4jnsgd1na2vs0mg"},{"bike_id":"569e7639-0d2d-4483-b72d-c146ab3b52b9","system_id":"levelo_inurba_marseille","lat":43.30783,"lon":5.37669,"is_reserved":false,"is_disabled":false,"rental_uris":{"android":"levelo://app?vid=569e7639-0d2d-4483-b72d-c146ab3b52b9","ios":"levelo://app?vid=569e7639-0d2d-4483-b72d-c146ab3b52b9"},"vehicle_type_id":"4","last_reported":1738213738,"current_range_meters":27600,"station_id":"ce4bgv92rcd13ifvqcq0","pricing_plan_id":"cebpf4jnsgd1na2vs0mg"},{"bike_id":"249290d6-fb77-4c34-ae6f-ed216d1e79e3","system_id":"levelo_inurba_marseille","lat":43.28407,"lon":5.37514,"is_reserved":false,"is_disabled":false,"rental_uris":{"android":"levelo://app?vid=249290d6-fb77-4c34-ae6f-ed216d1e79e3","ios":"levelo://app?vid=249290d6-fb77-4c34-ae6f-ed216d1e79e3"},"vehicle_type_id":"4","last_reported":1738213738,"current_range_meters":26800,"station_id":"ce4bh412rcd13ifvqds0","pricing_plan_id":"cebpf4jnsgd1na2vs0mg"},{"bike_id":"35a5c402-13ca-468f-8a93-76197813b571","system_id":"levelo_inurba_marseille","lat":43.25934,"lon":5.40884,"is_reserved":false,"is_disabled":true,"rental_uris":{"android":"levelo://app?vid=35a5c402-13ca-468f-8a93-76197813b571","ios":"levelo://app?vid=35a5c402-13ca-468f-8a93-76197813b571"},"vehicle_type_id":"4","last_reported":1738213738,"current_range_meters":38000,"station_id":"ce4bhm92rcd13ifvqglg","pricing_plan_id":"cebpf4jnsgd1na2vs0mg"},{"bike_id":"1daddea9-bff4-4b6c-a2f5-a469b98ee771","system_id":"levelo_inurba_marseille","lat":43.31895,"lon":5.40723,"is_reserved":false,"is_disabled":false,"rental_uris":{"android":"levelo://app?vid=1daddea9-bff4-4b6c-a2f5-a469b98ee771","ios":"levelo://app?vid=1daddea9-bff4-4b6c-a2f5-a469b98ee771"},"vehicle_type_id":"4","last_reported":1738213738,"current_range_meters":38800,"station_id":"ce4bhq12rcd13ifvqhig","pricing_plan_id":"cebpf4jnsgd1na2vs0mg"},{"bike_id":"e3c5a10e-948d-477c-91ce-8c835a7fe362","system_id":"levelo_inurba_marseille","lat":43.28075,"lon":5.39656,"is_reserved":false,"is_disabled":true,"rental_uris":{"android":"levelo://app?vid=e3c5a10e-948d-477c-91ce-8c835a7fe362","ios":"levelo://app?vid=e3c5a10e-948d-477c-91ce-8c835a7fe362"},"vehicle_type_id":"4","last_reported":1738213738,"current_range_meters":0,"station_id":"ce4bho12rcd13ifvqh2g","pricing_plan_id":"cebpf4jnsgd1na2vs0mg"},{"bike_id":"f9d35a32-65b2-4842-bd83-8cbe10324274","system_id":"levelo_inurba_marseille","lat":43.28609,"lon":5.35146,"is_reserved":false,"is_disabled":false,"rental_uris":{"android":"levelo://app?vid=f9d35a32-65b2-4842-bd83-8cbe10324274","ios":"levelo://app?vid=f9d35a32-65b2-4842-bd83-8cbe10324274"},"vehicle_type_id":"4","last_reported":1738213738,"current_range_meters":19200,"station_id":"ce4bhch2rcd13ifvqeug","pricing_plan_id":"cebpf4jnsgd1na2vs0mg"},{"bike_id":"258c223c-46d6-47bb-80c4-3b4c4df01fd5","system_id":"levelo_inurba_marseille","lat":43.29255,"lon":5.38417,"is_reserved":false,"is_disabled":true,"rental_uris":{"android":"levelo://app?vid=258c223c-46d6-47bb-80c4-3b4c4df01fd5","ios":"levelo://app?vid=258c223c-46d6-47bb-80c4-3b4c4df01fd5"},"vehicle_type_id":"4","last_reported":1738213738,"current_range_meters":0,"station_id":"ce4bh692rcd13ifvqea0","pricing_plan_id":"cebpf4jnsgd1na2vs0mg"},{"bike_id":"79e99809-e2d5-467c-aa72-b4d7c9afae9f","system_id":"levelo_inurba_marseille","lat":43.28097,"lon":5.39668,"is_reserved":false,"is_disabled":false,"rental_uris":{"android":"levelo://app?vid=79e99809-e2d5-467c-aa72-b4d7c9afae9f","ios":"levelo://app?vid=79e99809-e2d5-467c-aa72-b4d7c9afae9f"},"vehicle_type_id":"4","last_reported":1738213738,"current_range_meters":38800,"station_id":"ce4bho12rcd13ifvqh2g","pricing_plan_id":"cebpf4jnsgd1na2vs0mg"},{"bike_id":"32d53ad4-b9aa-4eef-b1a2-62ae789f1e15","system_id":"levelo_inurba_marseille","lat":43.288413,"lon":5.39311,"is_reserved":false,"is_disabled":false,"rental_uris":{"android":"levelo://app?vid=32d53ad4-b9aa-4eef-b1a2-62ae789f1e15","ios":"levelo://app?vid=32d53ad4-b9aa-4eef-b1a2-62ae789f1e15"},"vehicle_type_id":"4","last_reported":1738213738,"current_range_meters":39200,"station_id":"ce4bh2p2rcd13ifvqdi0","pricing_plan_id":"cebpf4jnsgd1na2vs0mg"},{"bike_id":"557092c3-b142-4a52-a865-d8c9a87da7d2","system_id":"levelo_inurba_marseille","lat":43.246489,"lon":5.388946,"is_reserved":false,"is_disabled":false,"rental_uris":{"android":"levelo://app?vid=557092c3-b142-4a52-a865-d8c9a87da7d2","ios":"levelo://app?vid=557092c3-b142-4a52-a865-d8c9a87da7d2"},"vehicle_type_id":"4","last_reported":1738213738,"current_range_meters":38000,"station_id":"ce4bhg12rcd13ifvqf60","pricing_plan_id":"cebpf4jnsgd1na2vs0mg"},{"bike_id":"7ce82cd9-1a8a-43b4-b870-c37ab177e777","system_id":"levelo_inurba_marseille","lat":43.29526,"lon":5.39384,"is_reserved":false,"is_disabled":false,"rental_uris":{"android":"levelo://app?vid=7ce82cd9-1a8a-43b4-b870-c37ab177e777","ios":"levelo://app?vid=7ce82cd9-1a8a-43b4-b870-c37ab177e777"},"vehicle_type_id":"4","last_reported":1738213738,"current_range_meters":34800,"station_id":"ce4bh292rcd13ifvqdf0","pricing_plan_id":"cebpf4jnsgd1na2vs0mg"},{"bike_id":"8cef619f-6aaa-4952-b6e0-efdbfdacf21b","system_id":"levelo_inurba_marseille","lat":43.30936,"lon":5.40139,"is_reserved":false,"is_disabled":false,"rental_uris":{"android":"levelo://app?vid=8cef619f-6aaa-4952-b6e0-efdbfdacf21b","ios":"levelo://app?vid=8cef619f-6aaa-4952-b6e0-efdbfdacf21b"},"vehicle_type_id":"4","last_reported":1738213738,"current_range_meters":16800,"station_id":"ce4bgvp2rcd13ifvqct0","pricing_plan_id":"cebpf4jnsgd1na2vs0mg"},{"bike_id":"d543a3a0-6e69-4ea4-9d64-d6577a360668","system_id":"levelo_inurba_marseille","lat":43.303534,"lon":5.418788,"is_reserved":false,"is_disabled":false,"rental_uris":{"android":"levelo://app?vid=d543a3a0-6e69-4ea4-9d64-d6577a360668","ios":"levelo://app?vid=d543a3a0-6e69-4ea4-9d64-d6577a360668"},"vehicle_type_id":"4","last_reported":1738213738,"current_range_meters":38800,"station_id":"ce4bhop2rcd13ifvqh7g","pricing_plan_id":"cebpf4jnsgd1na2vs0mg"},{"bike_id":"e9033ef0-14ee-4847-a505-acd64cdbf9ec","system_id":"levelo_inurba_marseille","lat":43.31536,"lon":5.38014,"is_reserved":false,"is_disabled":false,"rental_uris":{"android":"levelo://app?vid=e9033ef0-14ee-4847-a505-acd64cdbf9ec","ios":"levelo://app?vid=e9033ef0-14ee-4847-a505-acd64cdbf9ec"},"vehicle_type_id":"4","last_reported":1738213738,"current_range_meters":6400,"station_id":"ce4bhsp2rcd13ifvqi50","pricing_plan_id":"cebpf4jnsgd1na2vs0mg"},{"bike_id":"659b4638-546a-4710-a48b-69c9eb02663e","system_id":"levelo_inurba_marseille","lat":43.305988,"lon":5.372211,"is_reserved":false,"is_disabled":false,"rental_uris":{"android":"levelo://app?vid=659b4638-546a-4710-a48b-69c9eb02663e","ios":"levelo://app?vid=659b4638-546a-4710-a48b-69c9eb02663e"},"vehicle_type_id":"4","last_reported":1738213738,"current_range_meters":38800,"station_id":"ce4bgqh2rcd13ifvqc4g","pricing_plan_id":"cebpf4jnsgd1na2vs0mg"},{"bike_id":"daa77b68-dd0f-4d8a-bf00-fd607cc44ed7","system_id":"levelo_inurba_marseille","lat":43.33613,"lon":5.41005,"is_reserved":false,"is_disabled":false,"rental_uris":{"android":"levelo://app?vid=daa77b68-dd0f-4d8a-bf00-fd607cc44ed7","ios":"levelo://app?vid=daa77b68-dd0f-4d8a-bf00-fd607cc44ed7"},"vehicle_type_id":"4","last_reported":1738213738,"current_range_meters":19200,"station_id":"ce4bhqh2rcd13ifvqhmg","pricing_plan_id":"cebpf4jnsgd1na2vs0mg"},{"bike_id":"6b639d07-a348-4934-af55-36f8424a445c","system_id":"levelo_inurba_marseille","lat":43.27497,"lon":5.4245,"is_reserved":false,"is_disabled":false,"rental_uris":{"android":"levelo://app?vid=6b639d07-a348-4934-af55-36f8424a445c","ios":"levelo://app?vid=6b639d07-a348-4934-af55-36f8424a445c"},"vehicle_type_id":"4","last_reported":1738213738,"current_range_meters":25600,"station_id":"ce4bhn92rcd13ifvqgrg","pricing_plan_id":"cebpf4jnsgd1na2vs0mg"},{"bike_id":"ccebac2e-dd56-4f7c-af56-6e5473a29f80","system_id":"levelo_inurba_marseille","lat":43.27973,"lon":5.41668,"is_reserved":false,"is_disabled":false,"rental_uris":{"android":"levelo://app?vid=ccebac2e-dd56-4f7c-af56-6e5473a29f80","ios":"levelo://app?vid=ccebac2e-dd56-4f7c-af56-6e5473a29f80"},"vehicle_type_id":"4","last_reported":1738213738,"current_range_meters":38800,"station_id":"ce4bho12rcd13ifvqh1g","pricing_plan_id":"cebpf4jnsgd1na2vs0mg"},{"bike_id":"1a83e08e-8773-420e-b998-03b98777c460","system_id":"levelo_inurba_marseille","lat":43.307702,"lon":5.380095,"is_reserved":false,"is_disabled":false,"rental_uris":{"android":"levelo://app?vid=1a83e08e-8773-420e-b998-03b98777c460","ios":"levelo://app?vid=1a83e08e-8773-420e-b998-03b98777c460"},"vehicle_type_id":"4","last_reported":1738213738,"current_range_meters":36400,"station_id":"","pricing_plan_id":"cebpf4jnsgd1na2vs0mg"},{"bike_id":"e3ca7f32-8d86-4e90-bd3c-4b65e42bd5fd","system_id":"levelo_inurba_marseille","lat":43.286601,"lon":5.363559,"is_reserved":false,"is_disabled":true,"rental_uris":{"android":"levelo://app?vid=e3ca7f32-8d86-4e90-bd3c-4b65e42bd5fd","ios":"levelo://app?vid=e3ca7f32-8d86-4e90-bd3c-4b65e42bd5fd"},"vehicle_type_id":"4","last_reported":1738213738,"current_range_meters":2000,"station_id":"ce4bhah2rcd13ifvqej0","pricing_plan_id":"cebpf4jnsgd1na2vs0mg"},{"bike_id":"3ad10b32-c1b1-4c7a-9f3c-30dcc350bc0c","system_id":"levelo_inurba_marseille","lat":43.27933,"lon":5.41016,"is_reserved":false,"is_disabled":false,"rental_uris":{"android":"levelo://app?vid=3ad10b32-c1b1-4c7a-9f3c-30dcc350bc0c","ios":"levelo://app?vid=3ad10b32-c1b1-4c7a-9f3c-30dcc350bc0c"},"vehicle_type_id":"4","last_reported":1738213738,"current_range_meters":8800,"station_id":"ce4bhnp2rcd13ifvqh0g","pricing_plan_id":"cebpf4jnsgd1na2vs0mg"},{"bike_id":"a74030f2-fc31-4c5b-95e4-ea9483148011","system_id":"levelo_inurba_marseille","lat":43.307854,"lon":5.376551,"is_reserved":false,"is_disabled":false,"rental_uris":{"android":"levelo://app?vid=a74030f2-fc31-4c5b-95e4-ea9483148011","ios":"levelo://app?vid=a74030f2-fc31-4c5b-95e4-ea9483148011"},"vehicle_type_id":"4","last_reported":1738213738,"current_range_meters":11200,"station_id":"ce4bgv92rcd13ifvqcq0","pricing_plan_id":"cebpf4jnsgd1na2vs0mg"},{"bike_id":"8382186f-0d25-40e6-beca-2632cc8590f2","system_id":"levelo_inurba_marseille","lat":43.295456,"lon":5.422768,"is_reserved":false,"is_disabled":true,"rental_uris":{"android":"levelo://app?vid=8382186f-0d25-40e6-beca-2632cc8590f2","ios":"levelo://app?vid=8382186f-0d25-40e6-beca-2632cc8590f2"},"vehicle_type_id":"4","last_reported":1738213738,"current_range_meters":9600,"station_id":"ce4bhph2rcd13ifvqhdg","pricing_plan_id":"cebpf4jnsgd1na2vs0mg"},{"bike_id":"c22553b8-e979-4a36-becf-dd2f233120b8","system_id":"levelo_inurba_marseille","lat":43.30681,"lon":5.40097,"is_reserved":false,"is_disabled":true,"rental_uris":{"android":"levelo://app?vid=c22553b8-e979-4a36-becf-dd2f233120b8","ios":"levelo://app?vid=c22553b8-e979-4a36-becf-dd2f233120b8"},"vehicle_type_id":"4","last_reported":1738213738,"current_range_meters":10000,"station_id":"ce4bh112rcd13ifvqda0","pricing_plan_id":"cebpf4jnsgd1na2vs0mg"},{"bike_id":"c2b2ab1c-6609-49aa-985b-495f6e0b0ef3","system_id":"levelo_inurba_marseille","lat":43.30474,"lon":5.37901,"is_reserved":false,"is_disabled":false,"rental_uris":{"android":"levelo://app?vid=c2b2ab1c-6609-49aa-985b-495f6e0b0ef3","ios":"levelo://app?vid=c2b2ab1c-6609-49aa-985b-495f6e0b0ef3"},"vehicle_type_id":"4","last_reported":1738213738,"current_range_meters":32000,"station_id":"ce4bgup2rcd13ifvqcn0","pricing_plan_id":"cebpf4jnsgd1na2vs0mg"},{"bike_id":"70f0c963-8c36-418f-a110-4edb8ff73131","system_id":"levelo_inurba_marseille","lat":43.29525,"lon":5.39392,"is_reserved":false,"is_disabled":true,"rental_uris":{"android":"levelo://app?vid=70f0c963-8c36-418f-a110-4edb8ff73131","ios":"levelo://app?vid=70f0c963-8c36-418f-a110-4edb8ff73131"},"vehicle_type_id":"4","last_reported":1738213738,"current_range_meters":34000,"station_id":"ce4bh292rcd13ifvqdf0","pricing_plan_id":"cebpf4jnsgd1na2vs0mg"},{"bike_id":"b6a6b106-c0a9-4afa-ad24-a5822ef23f96","system_id":"levelo_inurba_marseille","lat":43.28277,"lon":5.35082,"is_reserved":false,"is_disabled":false,"rental_uris":{"android":"levelo://app?vid=b6a6b106-c0a9-4afa-ad24-a5822ef23f96","ios":"levelo://app?vid=b6a6b106-c0a9-4afa-ad24-a5822ef23f96"},"vehicle_type_id":"4","last_reported":1738213738,"current_range_meters":38400,"station_id":"ce4bhbp2rcd13ifvqerg","pricing_plan_id":"cebpf4jnsgd1na2vs0mg"},{"bike_id":"d7948e25-84ea-46b8-8dd2-fbdb2a4b3d83","system_id":"levelo_inurba_marseille","lat":43.29307,"lon":5.3744,"is_reserved":false,"is_disabled":true,"rental_uris":{"android":"levelo://app?vid=d7948e25-84ea-46b8-8dd2-fbdb2a4b3d83","ios":"levelo://app?vid=d7948e25-84ea-46b8-8dd2-fbdb2a4b3d83"},"vehicle_type_id":"4","last_reported":1738213738,"current_range_meters":4400,"station_id":"ce4bgi12rcd13ifvqb70","pricing_plan_id":"cebpf4jnsgd1na2vs0mg"},{"bike_id":"df7d8f6a-5b66-47de-b5fc-4c59f37d7e14","system_id":"levelo_inurba_marseille","lat":43.29185,"lon":5.358111,"is_reserved":false,"is_disabled":false,"rental_uris":{"android":"levelo://app?vid=df7d8f6a-5b66-47de-b5fc-4c59f37d7e14","ios":"levelo://app?vid=df7d8f6a-5b66-47de-b5fc-4c59f37d7e14"},"vehicle_type_id":"4","last_reported":1738213738,"current_range_meters":38000,"station_id":"ce4bhb12rcd13ifvqel0","pricing_plan_id":"cebpf4jnsgd1na2vs0mg"},{"bike_id":"8a3ec8f9-6043-4136-98e0-7ea9b4dfbb3c","system_id":"levelo_inurba_marseille","lat":43.27836,"lon":5.39205,"is_reserved":false,"is_disabled":false,"rental_uris":{"android":"levelo://app?vid=8a3ec8f9-6043-4136-98e0-7ea9b4dfbb3c","ios":"levelo://app?vid=8a3ec8f9-6043-4136-98e0-7ea9b4dfbb3c"},"vehicle_type_id":"4","last_reported":1738213738,"current_range_meters":39200,"station_id":"ce4bhjp2rcd13ifvqga0","pricing_plan_id":"cebpf4jnsgd1na2vs0mg"},{"bike_id":"7f311075-b0f5-401e-baad-9d24e71a2a9a","system_id":"levelo_inurba_marseille","lat":43.33044,"lon":5.39025,"is_reserved":false,"is_disabled":false,"rental_uris":{"android":"levelo://app?vid=7f311075-b0f5-401e-baad-9d24e71a2a9a","ios":"levelo://app?vid=7f311075-b0f5-401e-baad-9d24e71a2a9a"},"vehicle_type_id":"4","last_reported":1738213738,"current_range_meters":38800,"station_id":"ce4bhr92rcd13ifvqhrg","pricing_plan_id":"cebpf4jnsgd1na2vs0mg"},{"bike_id":"26a7be3b-618e-488d-a9b6-8d123c7e0a10","system_id":"levelo_inurba_marseille","lat":43.243998,"lon":5.370623,"is_reserved":false,"is_disabled":false,"rental_uris":{"android":"levelo://app?vid=26a7be3b-618e-488d-a9b6-8d123c7e0a10","ios":"levelo://app?vid=26a7be3b-618e-488d-a9b6-8d123c7e0a10"},"vehicle_type_id":"4","last_reported":1738213738,"current_range_meters":34000,"station_id":"ce4bhhh2rcd13ifvqfk0","pricing_plan_id":"cebpf4jnsgd1na2vs0mg"},{"bike_id":"9bddc4fe-b4fa-4430-ba17-d16f517bd037","system_id":"levelo_inurba_marseille","lat":43.30318,"lon":5.40429,"is_reserved":false,"is_disabled":false,"rental_uris":{"android":"levelo://app?vid=9bddc4fe-b4fa-4430-ba17-d16f517bd037","ios":"levelo://app?vid=9bddc4fe-b4fa-4430-ba17-d16f517bd037"},"vehicle_type_id":"4","last_reported":1738213738,"current_range_meters":30000,"station_id":"ce4bh012rcd13ifvqd10","pricing_plan_id":"cebpf4jnsgd1na2vs0mg"},{"bike_id":"f2cd1694-cbcf-4b6f-9463-8b28ee8d6f4b","system_id":"levelo_inurba_marseille","lat":43.23056,"lon":5.35492,"is_reserved":false,"is_disabled":false,"rental_uris":{"android":"levelo://app?vid=f2cd1694-cbcf-4b6f-9463-8b28ee8d6f4b","ios":"levelo://app?vid=f2cd1694-cbcf-4b6f-9463-8b28ee8d6f4b"},"vehicle_type_id":"4","last_reported":1738213738,"current_range_meters":19200,"station_id":"cpo3342slgdg3j2ifvpg","pricing_plan_id":"cebpf4jnsgd1na2vs0mg"},{"bike_id":"0a2fd205-d616-4064-aa75-d4d529957d90","system_id":"levelo_inurba_marseille","lat":43.23072,"lon":5.35486,"is_reserved":false,"is_disabled":false,"rental_uris":{"android":"levelo://app?vid=0a2fd205-d616-4064-aa75-d4d529957d90","ios":"levelo://app?vid=0a2fd205-d616-4064-aa75-d4d529957d90"},"vehicle_type_id":"4","last_reported":1738213738,"current_range_meters":26000,"station_id":"cpo3342slgdg3j2ifvpg","pricing_plan_id":"cebpf4jnsgd1na2vs0mg"},{"bike_id":"ccbcae0b-b4d3-4cf9-93a1-471748f49ad3","system_id":"levelo_inurba_marseille","lat":43.29183,"lon":5.3584,"is_reserved":false,"is_disabled":false,"rental_uris":{"android":"levelo://app?vid=ccbcae0b-b4d3-4cf9-93a1-471748f49ad3","ios":"levelo://app?vid=ccbcae0b-b4d3-4cf9-93a1-471748f49ad3"},"vehicle_type_id":"4","last_reported":1738213738,"current_range_meters":38800,"station_id":"ce4bhb12rcd13ifvqel0","pricing_plan_id":"cebpf4jnsgd1na2vs0mg"},