{"last_updated":1710894800,"ttl":30,"version":"2.2","data":{"bikes":[{"bike_id":"646b343d-cb61-43f8-b7b8-9b348ccf2529","system_id":"levelo_inurba_marseille","lat":43.31223,"lon":5.36859,"is_reserved":false,"is_disabled":false,"rental_uris":{"android":"levelo://app?vid=646b343d-cb61-43f8-b7b8-9b348ccf2529","ios":"levelo://app?vid=646b343d-cb61-43f8-b7b8-9b348ccf2529"},"vehicle_type_id":"4","last_reported":1710894800,"current_range_meters":11200,"station_id":"ce4bgl92rcd13ifvqbq0","pricing_plan_id":"cebpf4jnsgd1na2vs0mg"},{"bike_id":"f01eeefd-50a1-49b5-9e97-34283ac8e703","system_id":"levelo_inurba_marseille","lat":43.309091,"lon":5.368497,"is_reserved":false,"is_disabled":false,"rental_uris":{"android":"levelo://app?vid=f01eeefd-50a1-49b5-9e97-34283ac8e703","ios":"levelo://app?vid=f01eeefd-50a1-49b5-9e97-34283ac8e703"},"vehicle_type_id":"4","last_reported":1710894800,"current_range_meters":6000,"station_id":"ce4bgn92rcd13ifvqbvg","pricing_plan_id":"cebpf4jnsgd1na2vs0mg"},{"bike_id":"87d3e767-4b78-4e61-9f39-820d82034029","system_id":"levelo_inurba_marseille","lat":43.314768,"lon":5.371836,"is_reserved":false,"is_disabled":false,"rental_uris":{"android":"levelo://app?vid=87d3e767-4b78-4e61-9f39-820d82034029","ios":"levelo://app?vid=87d3e767-4b78-4e61-9f39-820d82034029"},"vehicle_type_id":"4","last_reported":1710894800,"current_range_meters":17200,"station_id":"","pricing_plan_id":"cebpf4jnsgd1na2vs0mg"},{"bike_id":"df8e0c27-dfed-469f-a38e-37c53095b8f1","system_id":"levelo_inurba_marseille","lat":43.314811,"lon":5.373103,"is_reserved":false,"is_disabled":false,"rental_uris":{"android":"levelo://app?vid=df8e0c27-dfed-469f-a38e-37c53095b8f1","ios":"levelo://app?vid=df8e0c27-dfed-469f-a38e-37c53095b8f1"},"vehicle_type_id":"4","last_reported":1710894800,"current_range_meters":10000,"station_id":"ce4bgt12rcd13ifvqcd0","pricing_plan_id":"cebpf4jnsgd1na2vs0mg"},{"bike_id":"3b5f9334-a1a5-4eb8-8ffa-c8c7603cd1e2","system_id":"levelo_inurba_marseille","lat":43.314811,"lon":5.373104,"is_reserved":false,"is_disabled":false,"rental_uris":{"android":"levelo://app?vid=3b5f9334-a1a5-4eb8-8ffa-c8c7603cd1e2","ios":"levelo://app?vid=3b5f9334-a1a5-4eb8-8ffa-c8c7603cd1e2"},"vehicle_type_id":"4","last_reported":1710894800,"current_range_meters":18000,"station_id":"ce4bgt12rcd13ifvqcd0","pricing_plan_id":"cebpf4jnsgd1na2vs0mg"},{"bike_id":"23afaf13-46cd-46fc-9a05-663e30909d0d","system_id":"levelo_inurba_marseille","lat":43.314811,"lon":5.373103,"is_reserved":false,"is_disabled":false,"rental_uris":{"android":"levelo://app?vid=23afaf13-46cd-46fc-9a05-663e30909d0d","ios":"levelo://app?vid=23afaf13-46cd-46fc-9a05-663e30909d0d"},"vehicle_type_id":"4","last_reported":1710894800,"current_range_meters":17600,"station_id":"ce4bgt12rcd13ifvqcd0","pricing_plan_id":"cebpf4jnsgd1na2vs0mg"},{"bike_id":"9dba0939-1c5d-439d-955d-d0ef882f0007","system_id":"levelo_inurba_marseille","lat":43.314811,"lon":5.373103,"is_reserved":false,"is_disabled":false,"rental_uris":{"android":"levelo://app?vid=9dba0939-1c5d-439d-955d-d0ef882f0007","ios":"levelo://app?vid=9dba0939-1c5d-439d-955d-d0ef882f0007"},"vehicle_type_id":"4","last_reported":1710894800,"current_range_meters":2400,"station_id":"ce4bgt12rcd13ifvqcd0","pricing_plan_id":"cebpf4jnsgd1na2vs0mg"},{"bike_id":"8b104ccd-84a2-4df6-bd9e-4b950306c72c","system_id":"levelo_inurba_marseille","lat":43.314811,"lon":5.373103,"is_reserved":false,"is_disabled":false,"rental_uris":{"android":"levelo://app?vid=8b104ccd-84a2-4df6-bd9e-4b950306c72c","ios":"levelo://app?vid=8b104ccd-84a2-4df6-bd9e-4b950306c72c"},"vehicle_type_id":"4","last_reported":1710894800,"current_range_meters":10800,"station_id":"ce4bgt12rcd13ifvqcd0","pricing_plan_id":"cebpf4jnsgd1na2vs0mg"},{"bike_id":"07a463a4-4f6c-47c0-9476-fbef81ef646d","system_id":"levelo_inurba_marseille","lat":43.314811,"lon":5.373104,"is_reserved":false,"is_disabled":false,"rental_uris":{"android":"levelo://app?vid=07a463a4-4f6c-47c0-9476-fbef81ef646d","ios":"levelo://app?vid=07a463a4-4f6c-47c0-9476-fbef81ef646d"},"vehicle_type_id":"4","last_reported":1710894800,"current_range_meters":20400,"station_id":"ce4bgt12rcd13ifvqcd0","pricing_plan_id":"cebpf4jnsgd1na2vs0mg"},{"bike_id":"84753bf4-eab8-4b5d-b1d6-4586c98dc782","system_id":"levelo_inurba_marseille","lat":43.314811,"lon":5.373104,"is_reserved":false,"is_disabled":false,"rental_uris":{"android":"levelo://app?vid=84753bf4-eab8-4b5d-b1d6-4586c98dc782","ios":"levelo://app?vid=84753bf4-eab8-4b5d-b1d6-4586c98dc782"},"vehicle_type_id":"4","last_reported":1710894800,"current_range_meters":3200,"station_id":"ce4bgt12rcd13ifvqcd0","pricing_plan_id":"cebpf4jnsgd1na2vs0mg"},{"bike_id":"b6d1d513-16d2-4306-88b4-98cc391b6af9","system_id":"levelo_inurba_marseille","lat":43.305368,"lon":5.367343,"is_reserved":false,"is_disabled":false,"rental_uris":{"android":"levelo://app?vid=b6d1d513-16d2-4306-88b4-98cc391b6af9","ios":"levelo://app?vid=b6d1d513-16d2-4306-88b4-98cc391b6af9"},"vehicle_type_id":"4","last_reported":1710894800,"current_range_meters":20400,"station_id":"ce4bgrp2rcd13ifvqc9g","pricing_plan_id":"cebpf4jnsgd1na2vs0mg"},{"bike_id":"bba93fac-c280-42ca-858c-cd250699118e","system_id":"levelo_inurba_marseille","lat":43.311131,"lon":5.377651,"is_reserved":false,"is_disabled":false,"rental_uris":{"android":"levelo://app?vid=bba93fac-c280-42ca-858c-cd250699118e","ios":"levelo://app?vid=bba93fac-c280-42ca-858c-cd250699118e"},"vehicle_type_id":"4","last_reported":1710894800,"current_range_meters":11200,"station_id":"ce4bgt92rcd13ifvqcg0","pricing_plan_id":"cebpf4jnsgd1na2vs0mg"},{"bike_id":"274f044d-b200-4fa2-80bd-adcee44903e7","system_id":"levelo_inurba_marseille","lat":43.311131,"lon":5.377651,"is_reserved":false,"is_disabled":false,"rental_uris":{"android":"levelo://app?vid=274f044d-b200-4fa2-80bd-adcee44903e7","ios":"levelo://app?vid=274f044d-b200-4fa2-80bd-adcee44903e7"},"vehicle_type_id":"4","last_reported":1710894800,"current_range_meters":18800,"station_id":"ce4bgt92rcd13ifvqcg0","pricing_plan_id":"cebpf4jnsgd1na2vs0mg"},{"bike_id":"727dfdc8-a58a-45de-8066-29edf798f6fa","system_id":"levelo_inurba_marseille","lat":43.311131,"lon":5.377651,"is_reserved":false,"is_disabled":false,"rental_uris":{"android":"levelo://app?vid=727dfdc8-a58a-45de-8066-29edf798f6fa","ios":"levelo://app?vid=727dfdc8-a58a-45de-8066-29edf798f6fa"},"vehicle_type_id":"4","last_reported":1710894800,"current_range_meters":20400,"station_id":"ce4bgt92rcd13ifvqcg0","pricing_plan_id":"cebpf4jnsgd1na2vs0mg"},{"bike_id":"a2e71919-d869-4cda-b165-d0ed8ed40e3a","system_id":"levelo_inurba_marseille","lat":43.311131,"lon":5.377651,"is_reserved":false,"is_disabled":false,"rental_uris":{"android":"levelo://app?vid=a2e71919-d869-4cda-b165-d0ed8ed40e3a","ios":"levelo://app?vid=a2e71919-d869-4cda-b165-d0ed8ed40e3a"},"vehicle_type_id":"4","last_reported":1710894800,"current_range_meters":24000,"station_id":"ce4bgt92rcd13ifvqcg0","pricing_plan_id":"cebpf4jnsgd1na2vs0mg"},{"bike_id":"35834acc-30b2-4f09-ab01-367b6c373fd3","system_id":"levelo_inurba_marseille","lat":43.311131,"lon":5.377651,"is_reserved":false,"is_disabled":false,"rental_uris":{"android":"levelo://app?vid=35834acc-30b2-4f09-ab01-367b6c373fd3","ios":"levelo://app?vid=35834acc-30b2-4f09-ab01-367b6c373fd3"},"vehicle_type_id":"4","last_reported":1710894800,"current_range_meters":12000,"station_id":"ce4bgt92rcd13ifvqcg0","pricing_plan_id":"cebpf4jnsgd1na2vs0mg"},{"bike_id":"f1d3a61c-ba8e-4d62-bd76-302de9f49e66","system_id":"levelo_inurba_marseille","lat":43.311131,"lon":5.377651,"is_reserved":false,"is_disabled":false,"rental_uris":{"android":"levelo://app?vid=f1d3a61c-ba8e-4d62-bd76-302de9f49e66","ios":"levelo://app?vid=f1d3a61c-ba8e-4d62-bd76-302de9f49e66"},"vehicle_type_id":"4","last_reported":1710894800,"current_range_meters":21200,"station_id":"ce4bgt92rcd13ifvqcg0","pricing_plan_id":"cebpf4jnsgd1na2vs0mg"},{"bike_id":"2fd6987c-3622-4d02-b6f9-67ca8228485f","system_id":"levelo_inurba_marseille","lat":43.311125,"lon":5.377624,"is_reserved":false,"is_disabled":false,"rental_uris":{"android":"levelo://app?vid=2fd6987c-3622-4d02-b6f9-67ca8228485f","ios":"levelo://app?vid=2fd6987c-3622-4d02-b6f9-67ca8228485f"},"vehicle_type_id":"4","last_reported":1710894800,"current_range_meters":26000,"station_id":"ce4bgt92rcd13ifvqcg0","pricing_plan_id":"cebpf4jnsgd1na2vs0mg"},{"bike_id":"edbaa06f-8a4a-4ffe-8167-2d02172b4ca9","system_id":"levelo_inurba_marseille","lat":43.311125,"lon":5.377624,"is_reserved":false,"is_disabled":false,"rental_uris":{"android":"levelo://app?vid=edbaa06f-8a4a-4ffe-8167-2d02172b4ca9","ios":"levelo://app?vid=edbaa06f-8a4a-4ffe-8167-2d02172b4ca9"},"vehicle_type_id":"4","last_reported":1710894800,"current_range_meters":26400,"station_id":"ce4bgt92rcd13ifvqcg0","pricing_plan_id":"cebpf4jnsgd1na2vs0mg"},{"bike_id":"2d1982a6-93f4-4069-b66b-6ac04f9fc87e","system_id":"levelo_inurba_marseille","lat":43.307945,"lon":5.376487,"is_reserved":false,"is_disabled":false,"rental_uris":{"android":"levelo://app?vid=2d1982a6-93f4-4069-b66b-6ac04f9fc87e","ios":"levelo://app?vid=2d1982a6-93f4-4069-b66b-6ac04f9fc87e"},"vehicle_type_id":"4","last_reported":1710894800,"current_range_meters":26800,"station_id":"ce4bgv92rcd13ifvqcq0","pricing_plan_id":"cebpf4jnsgd1na2vs0mg"},{"bike_id":"a696075c-fde6-460f-8011-b1b9e4d7d9ce","system_id":"levelo_inurba_marseille","lat":43.307945,"lon":5.376487,"is_reserved":false,"is_disabled":false,"rental_uris":{"android":"levelo://app?vid=a696075c-fde6-460f-8011-b1b9e4d7d9ce","ios":"levelo://app?vid=a696075c-fde6-460f-8011-b1b9e4d7d9ce"},"vehicle_type_id":"4","last_reported":1710894800,"current_range_meters":31200,"station_id":"ce4bgv92rcd13ifvqcq0","pricing_plan_id":"cebpf4jnsgd1na2vs0mg"},{"bike_id":"034f204c-f3ad-4c2a-8104-d1ebe57243e4","system_id":"levelo_inurba_marseille","lat":43.307945,"lon":5.376487,"is_reserved":false,"is_disabled":false,"rental_uris":{"android":"levelo://app?vid=034f204c-f3ad-4c2a-8104-d1ebe57243e4","ios":"levelo://app?vid=034f204c-f3ad-4c2a-8104-d1ebe57243e4"},"vehicle_type_id":"4","last_reported":1710894800,"current_range_meters":29600,"station_id":"ce4bgv92rcd13ifvqcq0","pricing_plan_id":"cebpf4jnsgd1na2vs0mg"},{"bike_id":"6dab211f-b71d-445c-b48c-1e8072bec276","system_id":"levelo_inurba_marseille","lat":43.307945,"lon":5.376487,"is_reserved":false,"is_disabled":false,"rental_uris":{"android":"levelo://app?vid=6dab211f-b71d-445c-b48c-1e8072bec276","ios":"levelo://app?vid=6dab211f-b71d-445c-b48c-1e8072bec276"},"vehicle_type_id":"4","last_reported":1710894800,"current_range_meters":9600,"station_id":"ce4bgv92rcd13ifvqcq0","pricing_plan_id":"cebpf4jnsgd1na2vs0mg"},{"bike_id":"1f342fa6-2174-444e-bf0a-ee1becdd16d7","system_id":"levelo_inurba_marseille","lat":43.317075,"lon":5.377367,"is_reserved":false,"is_disabled":false,"rental_uris":{"android":"levelo://app?vid=1f342fa6-2174-444e-bf0a-ee1becdd16d7","ios":"levelo://app?vid=1f342fa6-2174-444e-bf0a-ee1becdd16d7"},"vehicle_type_id":"4","last_reported":1710894800,"current_range_meters":13600,"station_id":"ce4bgth2rcd13ifvqch0","pricing_plan_id":"cebpf4jnsgd1na2vs0mg"},{"bike_id":"f67449ba-e913-4b6e-bfff-4ae73c598d70","system_id":"levelo_inurba_marseille","lat":43.317075,"lon":5.377367,"is_reserved":false,"is_disabled":false,"rental_uris":{"android":"levelo://app?vid=f67449ba-e913-4b6e-bfff-4ae73c598d70","ios":"levelo://app?vid=f67449ba-e913-4b6e-bfff-4ae73c598d70"},"vehicle_type_id":"4","last_reported":1710894800,"current_range_meters":15600,"station_id":"ce4bgth2rcd13ifvqch0","pricing_plan_id":"cebpf4jnsgd1na2vs0mg"},{"bike_id":"d4e4216f-ef52-4e34-9740-d97e80cce41e","system_id":"levelo_inurba_marseille","lat":43.317075,"lon":5.377367,"is_reserved":false,"is_disabled":false,"rental_uris":{"android":"levelo://app?vid=d4e4216f-ef52-4e34-9740-d97e80cce41e","ios":"levelo://app?vid=d4e4216f-ef52-4e34-9740-d97e80cce41e"},"vehicle_type_id":"4","last_reported":1710894800,"current_range_meters":5200,"station_id":"ce4bgth2rcd13ifvqch0","pricing_plan_id":"cebpf4jnsgd1na2vs0mg"},{"bike_id":"3dade923-d49a-498b-a84a-7ecb87699f07","system_id":"levelo_inurba_marseille","lat":43.32088,"lon":5.37305,"is_reserved":false,"is_disabled":false,"rental_uris":{"android":"levelo://app?vid=3dade923-d49a-498b-a84a-7ecb87699f07","ios":"levelo://app?vid=3dade923-d49a-498b-a84a-7ecb87699f07"},"vehicle_type_id":"4","last_reported":1710894800,"current_range_meters":10000,"station_id":"","pricing_plan_id":"cebpf4jnsgd1na2vs0mg"},{"bike_id":"65b7911f-b1c0-4dd3-92e8-f8fb9facefaa","system_id":"levelo_inurba_marseille","lat":43.30304,"lon":5.368987,"is_reserved":false,"is_disabled":false,"rental_uris":{"android":"levelo://app?vid=65b7911f-b1c0-4dd3-92e8-f8fb9facefaa","ios":"levelo://app?vid=65b7911f-b1c0-4dd3-92e8-f8fb9facefaa"},"vehicle_type_id":"4","last_reported":1710894800,"current_range_meters":16400,"station_id":"ce4bgqh2rcd13ifvqc5g","pricing_plan_id":"cebpf4jnsgd1na2vs0mg"},{"bike_id":"d036cacc-961e-4ffe-a33c-5159ea8a7a53","system_id":"levelo_inurba_marseille","lat":43.315289,"lon":5.380349,"is_reserved":false,"is_disabled":false,"rental_uris":{"android":"levelo://app?vid=d036cacc-961e-4ffe-a33c-5159ea8a7a53","ios":"levelo://app?vid=d036cacc-961e-4ffe-a33c-5159ea8a7a53"},"vehicle_type_id":"4","last_reported":1710894800,"current_range_meters":10000,"station_id":"ce4bhsp2rcd13ifvqi50","pricing_plan_id":"cebpf4jnsgd1na2vs0mg"},{"bike_id":"059b292a-b012-47d8-9437-d762394516a5","system_id":"levelo_inurba_marseille","lat":43.315293,"lon":5.380349,"is_reserved":false,"is_disabled":false,"rental_uris":{"android":"levelo://app?vid=059b292a-b012-47d8-9437-d762394516a5","ios":"levelo://app?vid=059b292a-b012-47d8-9437-d762394516a5"},"vehicle_type_id":"4","last_reported":1710894800,"current_range_meters":19600,"station_id":"ce4bhsp2rcd13ifvqi50","pricing_plan_id":"cebpf4jnsgd1na2vs0mg"},{"bike_id":"87fb9d8e-1f81-4dc1-a922-48e46060faeb","system_id":"levelo_inurba_marseille","lat":43.315293,"lon":5.380349,"is_reserved":false,"is_disabled":false,"rental_uris":{"android":"levelo://app?vid=87fb9d8e-1f81-4dc1-a922-48e46060faeb","ios":"levelo://app?vid=87fb9d8e-1f81-4dc1-a922-48e46060faeb"},"vehicle_type_id":"4","last_reported":1710894800,"current_range_meters":5600,"station_id":"ce4bhsp2rcd13ifvqi50","pricing_plan_id":"cebpf4jnsgd1na2vs0mg"},{"bike_id":"c5c3eea8-b433-4577-9fc2-29faa758d1d1","system_id":"levelo_inurba_marseille","lat":43.315289,"lon":5.380349,"is_reserved":false,"is_disabled":false,"rental_uris":{"android":"levelo://app?vid=c5c3eea8-b433-4577-9fc2-29faa758d1d1","ios":"levelo://app?vid=c5c3eea8-b433-4577-9fc2-29faa758d1d1"},"vehicle_type_id":"4","last_reported":1710894800,"current_range_meters":13600,"station_id":"ce4bhsp2rcd13ifvqi50","pricing_plan_id":"cebpf4jnsgd1na2vs0mg"},{"bike_id":"2a099d2c-fd6c-42a1-be26-ca075a098416","system_id":"levelo_inurba_marseille","lat":43.315293,"lon":5.380349,"is_reserved":false,"is_disabled":false,"rental_uris":{"android":"levelo://app?vid=2a099d2c-fd6c-42a1-be26-ca075a098416","ios":"levelo://app?vid=2a099d2c-fd6c-42a1-be26-ca075a098416"},"vehicle_type_id":"4","last_reported":1710894800,"current_range_meters":27600,"station_id":"ce4bhsp2rcd13ifvqi50","pricing_plan_id":"cebpf4jnsgd1na2vs0mg"},{"bike_id":"7d3de5f6-96bd-4ae2-803d-2fcfd292d0df","system_id":"levelo_inurba_marseille","lat":43.30194,"lon":5.36634,"is_reserved":false,"is_disabled":false,"rental_uris":{"android":"levelo://app?vid=7d3de5f6-96bd-4ae2-803d-2fcfd292d0df","ios":"levelo://app?vid=7d3de5f6-96bd-4ae2-803d-2fcfd292d0df"},"vehicle_type_id":"4","last_reported":1710894800,"current_range_meters":16000,"station_id":"ce4bgrh2rcd13ifvqc8g","pricing_plan_id":"cebpf4jnsgd1na2vs0mg"},{"bike_id":"6621a23c-3cca-4b65-853c-76bad33454d0","system_id":"levelo_inurba_marseille","lat":43.308012,"lon":5.381511,"is_reserved":false,"is_disabled":false,"rental_uris":{"android":"levelo://app?vid=6621a23c-3cca-4b65-853c-76bad33454d0","ios":"levelo://app?vid=6621a23c-3cca-4b65-853c-76bad33454d0"},"vehicle_type_id":"4","last_reported":1710894800,"current_range_meters":14000,"station_id":"ce4bgt12rcd13ifvqce0","pricing_plan_id":"cebpf4jnsgd1na2vs0mg"},{"bike_id":"ffbc266d-85e8-4702-8ef7-cae05e167e72","system_id":"levelo_inurba_marseille","lat":43.308012,"lon":5.381511,"is_reserved":false,"is_disabled":false,"rental_uris":{"android":"levelo://app?vid=ffbc266d-85e8-4702-8ef7-cae05e167e72","ios":"levelo://app?vid=ffbc266d-85e8-4702-8ef7-cae05e167e72"},"vehicle_type_id":"4","last_reported":1710894800,"current_range_meters":16800,"station_id":"ce4bgt12rcd13ifvqce0","pricing_plan_id":"cebpf4jnsgd1na2vs0mg"},{"bike_id":"31933a4a-db87-42b0-8639-07006f81f2b8","system_id":"levelo_inurba_marseille","lat":43.308012,"lon":5.381511,"is_reserved":false,"is_disabled":false,"rental_uris":{"android":"levelo://app?vid=31933a4a-db87-42b0-8639-07006f81f2b8","ios":"levelo://app?vid=31933a4a-db87-42b0-8639-07006f81f2b8"},"vehicle_type_id":"4","last_reported":1710894800,"current_range_meters":11200,"station_id":"ce4bgt12rcd13ifvqce0","pricing_plan_id":"cebpf4jnsgd1na2vs0mg"},{"bike_id":"24464f5c-d81f-49c0-bac7-a44468d7cdaa","system_id":"levelo_inurba_marseille","lat":43.308012,"lon":5.381511,"is_reserved":false,"is_disabled":false,"rental_uris":{"android":"levelo://app?vid=24464f5c-d81f-49c0-bac7-a44468d7cdaa","ios":"levelo://app?vid=24464f5c-d81f-49c0-bac7-a44468d7cdaa"},"vehicle_type_id":"4","last_reported":1710894800,"current_range_meters":25600,"station_id":"ce4bgt12rcd13ifvqce0","pricing_plan_id":"cebpf4jnsgd1na2vs0mg"},{"bike_id":"c14ab8b6-0be8-4c6a-ae98-8a2b5e813492","system_id":"levelo_inurba_marseille","lat":43.308012,"lon":5.381511,"is_reserved":false,"is_disabled":false,"rental_uris":{"android":"levelo://app?vid=c14ab8b6-0be8-4c6a-ae98-8a2b5e813492","ios":"levelo://app?vid=c14ab8b6-0be8-4c6a-ae98-8a2b5e813492"},"vehicle_type_id":"4","last_reported":1710894800,"current_range_meters":0,"station_id":"ce4bgt12rcd13ifvqce0","pricing_plan_id":"cebpf4jnsgd1na2vs0mg"},{"bike_id":"8c85f356-60e9-47f6-858b-b518a7f0ffe5","system_id":"levelo_inurba_marseille","lat":43.308012,"lon":5.381511,"is_reserved":false,"is_disabled":false,"rental_uris":{"android":"levelo://app?vid=8c85f356-60e9-47f6-858b-b518a7f0ffe5","ios":"levelo://app?vid=8c85f356-60e9-47f6-858b-b518a7f0ffe5"},"vehicle_type_id":"4","last_reported":1710894800,"current_range_meters":8000,"station_id":"ce4bgt12rcd13ifvqce0","pricing_plan_id":"cebpf4jnsgd1na2vs0mg"},{"bike_id":"689af9aa-0fa4-4116-a572-f19cd15abb9e","system_id":"levelo_inurba_marseille","lat":43.308012,"lon":5.381511,"is_reserved":false,"is_disabled":false,"rental_uris":{"android":"levelo://app?vid=689af9aa-0fa4-4116-a572-f19cd15abb9e","ios":"levelo://app?vid=689af9aa-0fa4-4116-a572-f19cd15abb9e"},"vehicle_type_id":"4","last_reported":1710894800,"current_range_meters":24800,"station_id":"ce4bgt12rcd13ifvqce0","pricing_plan_id":"cebpf4jnsgd1na2vs0mg"},{"bike_id":"e2ddb4fc-b0c9-4d33-b415-1f98d69b5bb8","system_id":"levelo_inurba_marseille","lat":43.324771,"lon":5.36557,"is_reserved":false,"is_disabled":false,"rental_uris":{"android":"levelo://app?vid=e2ddb4fc-b0c9-4d33-b415-1f98d69b5bb8","ios":"levelo://app?vid=e2ddb4fc-b0c9-4d33-b415-1f98d69b5bb8"},"vehicle_type_id":"4","last_reported":1710894800,"current_range_meters":15600,"station_id":"ce4bhs12rcd13ifvqhvg","pricing_plan_id":"cebpf4jnsgd1na2vs0mg"},{"bike_id":"1bd4942d-a6ee-47f2-b0eb-7b019f50f5ca","system_id":"levelo_inurba_marseille","lat":43.324771,"lon":5.36557,"is_reserved":false,"is_disabled":false,"rental_uris":{"android":"levelo://app?vid=1bd4942d-a6ee-47f2-b0eb-7b019f50f5ca","ios":"levelo://app?vid=1bd4942d-a6ee-47f2-b0eb-7b019f50f5ca"},"vehicle_type_id":"4","last_reported":1710894800,"current_range_meters":1200,"station_id":"ce4bhs12rcd13ifvqhvg","pricing_plan_id":"cebpf4jnsgd1na2vs0mg"},{"bike_id":"78035174-21d1-4135-b9d3-4451b7739307","system_id":"levelo_inurba_marseille","lat":43.324771,"lon":5.36557,"is_reserved":false,"is_disabled":false,"rental_uris":{"android":"levelo://app?vid=78035174-21d1-4135-b9d3-4451b7739307","ios":"levelo://app?vid=78035174-21d1-4135-b9d3-4451b7739307"},"vehicle_type_id":"4","last_reported":1710894800,"current_range_meters":6400,"station_id":"ce4bhs12rcd13ifvqhvg","pricing_plan_id":"cebpf4jnsgd1na2vs0mg"},{"bike_id":"2e3fb9e7-1f93-4eeb-932d-7631c96cb308","system_id":"levelo_inurba_marseille","lat":43.324771,"lon":5.36557,"is_reserved":false,"is_disabled":false,"rental_uris":{"android":"levelo://app?vid=2e3fb9e7-1f93-4eeb-932d-7631c96cb308","ios":"levelo://app?vid=2e3fb9e7-1f93-4eeb-932d-7631c96cb308"},"vehicle_type_id":"4","last_reported":1710894800,"current_range_meters":1600,"station_id":"ce4bhs12rcd13ifvqhvg","pricing_plan_id":"cebpf4jnsgd1na2vs0mg"},{"bike_id":"d8638a15-dd12-49ad-a0d1-a12405f695be","system_id":"levelo_inurba_marseille","lat":43.324771,"lon":5.36557,"is_reserved":false,"is_disabled":false,"rental_uris":{"android":"levelo://app?vid=d8638a15-dd12-49ad-a0d1-a12405f695be","ios":"levelo://app?vid=d8638a15-dd12-49ad-a0d1-a12405f695be"},"vehicle_type_id":"4","last_reported":1710894800,"current_range_meters":1200,"station_id":"ce4bhs12rcd13ifvqhvg","pricing_plan_id":"cebpf4jnsgd1na2vs0mg"},{"bike_id":"578b4115-6e9e-4c6d-a2e8-d17e58d1b65b","system_id":"levelo_inurba_marseille","lat":43.32485,"lon":5.36563,"is_reserved":false,"is_disabled":false,"rental_uris":{"android":"levelo://app?vid=578b4115-6e9e-4c6d-a2e8-d17e58d1b65b","ios":"levelo://app?vid=578b4115-6e9e-4c6d-a2e8-d17e58d1b65b"},"vehicle_type_id":"4","last_reported":1710894800,"current_range_meters":12400,"station_id":"ce4bhs12rcd13ifvqhvg","pricing_plan_id":"cebpf4jnsgd1na2vs0mg"},{"bike_id":"1d39258a-f28b-4365-bfde-15bf09b2ec85","system_id":"levelo_inurba_marseille","lat":43.324771,"lon":5.36557,"is_reserved":false,"is_disabled":false,"rental_uris":{"android":"levelo://app?vid=1d39258a-f28b-4365-bfde-15bf09b2ec85","ios":"levelo://app?vid=1d39258a-f28b-4365-bfde-15bf09b2ec85"},"vehicle_type_id":"4","last_reported":1710894800,"current_range_meters":13200,"station_id":"ce4bhs12rcd13ifvqhvg","pricing_plan_id":"cebpf4jnsgd1na2vs0mg"},{"bike_id":"c56abe9e-fc19-466b-bdf4-4cfcb46f0dd3","system_id":"levelo_inurba_marseille","lat":43.324771,"lon":5.36557,"is_reserved":false,"is_disabled":false,"rental_uris":{"android":"levelo://app?vid=c56abe9e-fc19-466b-bdf4-4cfcb46f0dd3","ios":"levelo://app?vid=c56abe9e-fc19-466b-bdf4-4cfcb46f0dd3"},"vehicle_type_id":"4","last_reported":1710894800,"current_range_meters":4800,"station_id":"ce4bhs12rcd13ifvqhvg","pricing_plan_id":"cebpf4jnsgd1na2vs0mg"},{"bike_id":"3f2a626d-c45a-45d8-a6b4-0209018950bb","system_id":"levelo_inurba_marseille","lat":43.3249,"lon":5.3656,"is_reserved":false,"is_disabled":false,"rental_uris":{"android":"levelo://app?vid=3f2a626d-c45a-45d8-a6b4-0209018950bb","ios":"levelo://app?vid=3f2a626d-c45a-45d8-a6b4-0209018950bb"},"vehicle_type_id":"4","last_reported":1710894800,"current_range_meters":26400,"station_id":"ce4bhs12rcd13ifvqhvg","pricing_plan_id":"cebpf4jnsgd1na2vs0mg"},{"bike_id":"4107dd61-d16e-48f1-924d-0ba0714cc309","system_id":"levelo_inurba_marseille","lat":43.310804,"lon":5.38359,"is_reserved":false,"is_disabled":false,"rental_uris":{"android":"levelo://app?vid=4107dd61-d16e-48f1-924d-0ba0714cc309","ios":"levelo://app?vid=4107dd61-d16e-48f1-924d-0ba0714cc309"},"vehicle_type_id":"4","last_reported":1710894800,"current_range_meters":23600,"station_id":"ce4bgv92rcd13ifvqcr0","pricing_plan_id":"cebpf4jnsgd1na2vs0mg"},{"bike_id":"5eefe0ca-6757-4cd5-b65c-bfe7c2722862","system_id":"levelo_inurba_marseille","lat":43.310804,"lon":5.38359,"is_reserved":false,"is_disabled":false,"rental_uris":{"android":"levelo://app?vid=5eefe0ca-6757-4cd5-b65c-bfe7c2722862","ios":"levelo://app?vid=5eefe0ca-6757-4cd5-b65c-bfe7c2722862"},"vehicle_type_id":"4","last_reported":1710894800,"current_range_meters":0,"station_id":"ce4bgv92rcd13ifvqcr0","pricing_plan_id":"cebpf4jnsgd1na2vs0mg"},{"bike_id":"fb52cfb3-a142-4515-bdea-73eef794cd03","system_id":"levelo_inurba_marseille","lat":43.310663,"lon":5.38354,"is_reserved":false,"is_disabled":false,"rental_uris":{"android":"levelo://app?vid=fb52cfb3-a142-4515-bdea-73eef794cd03","ios":"levelo://app?vid=fb52cfb3-a142-4515-bdea-73eef794cd03"},"vehicle_type_id":"4","last_reported":1710894800,"current_range_meters":17600,"station_id":"","pricing_plan_id":"cebpf4jnsgd1na2vs0mg"},{"bike_id":"2ce09b40-2f9c-4744-8e1a-c6a8b3e4a3d6","system_id":"levelo_inurba_marseille","lat":43.310804,"lon":5.38359,"is_reserved":false,"is_disabled":false,"rental_uris":{"android":"levelo://app?vid=2ce09b40-2f9c-4744-8e1a-c6a8b3e4a3d6","ios":"levelo://app?vid=2ce09b40-2f9c-4744-8e1a-c6a8b3e4a3d6"},"vehicle_type_id":"4","last_reported":1710894800,"current_range_meters":4800,"station_id":"ce4bgv92rcd13ifvqcr0","pricing_plan_id":"cebpf4jnsgd1na2vs0mg"},{"bike_id":"f594fa0e-841c-4ad0-8038-9b7f2e3a6443","system_id":"levelo_inurba_marseille","lat":43.310804,"lon":5.38359,"is_reserved":false,"is_disabled":false,"rental_uris":{"android":"levelo://app?vid=f594fa0e-841c-4ad0-8038-9b7f2e3a6443","ios":"levelo://app?vid=f594fa0e-841c-4ad0-8038-9b7f2e3a6443"},"vehicle_type_id":"4","last_reported":1710894800,"current_range_meters":17600,"station_id":"ce4bgv92rcd13ifvqcr0","pricing_plan_id":"cebpf4jnsgd1na2vs0mg"},{"bike_id":"e3b28582-90b2-429b-aa73-17220100bb2b","system_id":"levelo_inurba_marseille","lat":43.301525,"lon":5.3742,"is_reserved":false,"is_disabled":false,"rental_uris":{"android":"levelo://app?vid=e3b28582-90b2-429b-aa73-17220100bb2b","ios":"levelo://app?vid=e3b28582-90b2-429b-aa73-17220100bb2b"},"vehicle_type_id":"4","last_reported":1710894800,"current_range_meters":0,"station_id":"ce4bgs92rcd13ifvqcc0","pricing_plan_id":"cebpf4jnsgd1na2vs0mg"},{"bike_id":"cdb95dd2-35b9-4776-b19a-e60aa28e24ba","system_id":"levelo_inurba_marseille","lat":43.30143,"lon":5.37413,"is_reserved":false,"is_disabled":false,"rental_uris":{"android":"levelo://app?vid=cdb95dd2-35b9-4776-b19a-e60aa28e24ba","ios":"levelo://app?vid=cdb95dd2-35b9-4776-b19a-e60aa28e24ba"},"vehicle_type_id":"4","last_reported":1710894800,"current_range_meters":24400,"station_id":"ce4bgs92rcd13ifvqcc0","pricing_plan_id":"cebpf4jnsgd1na2vs0mg"},{"bike_id":"f6937ea8-564d-4455-902b-7a9b68c73fb2","system_id":"levelo_inurba_marseille","lat":43.30144,"lon":5.37411,"is_reserved":false,"is_disabled":false,"rental_uris":{"android":"levelo://app?vid=f6937ea8-564d-4455-902b-7a9b68c73fb2","ios":"levelo://app?vid=f6937ea8-564d-4455-902b-7a9b68c73fb2"},"vehicle_type_id":"4","last_reported":1710894800,"current_range_meters":21600,"station_id":"ce4bgs92rcd13ifvqcc0","pricing_plan_id":"cebpf4jnsgd1na2vs0mg"},{"bike_id":"00ec65a8-602e-41e1-b5c9-3caa85f111cf","system_id":"levelo_inurba_marseille","lat":43.30143,"lon":5.37413,"is_reserved":false,"is_disabled":false,"rental_uris":{"android":"levelo://app?vid=00ec65a8-602e-41e1-b5c9-3caa85f111cf","ios":"levelo://app?vid=00ec65a8-602e-41e1-b5c9-3caa85f111cf"},"vehicle_type_id":"4","last_reported":1710894800,"current_range_meters":28800,"station_id":"ce4bgs92rcd13ifvqcc0","pricing_plan_id":"cebpf4jnsgd1na2vs0mg"},{"bike_id":"7f6985e2-be88-47e2-ad53-5f69ccaf1d52","system_id":"levelo_inurba_marseille","lat":43.3014,"lon":5.374215,"is_reserved":false,"is_disabled":false,"rental_uris":{"android":"levelo://app?vid=7f6985e2-be88-47e2-ad53-5f69ccaf1d52","ios":"levelo://app?vid=7f6985e2-be88-47e2-ad53-5f69ccaf1d52"},"vehicle_type_id":"4","last_reported":1710894800,"current_range_meters":22000,"station_id":"ce4bgs92rcd13ifvqcc0","pricing_plan_id":"cebpf4jnsgd1na2vs0mg"},{"bike_id":"59b83d62-1d91-4918-8b47-9a9a1d917eb3","system_id":"levelo_inurba_marseille","lat":43.319935,"lon":5.381699,"is_reserved":false,"is_disabled":false,"rental_uris":{"android":"levelo://app?vid=59b83d62-1d91-4918-8b47-9a9a1d917eb3","ios":"levelo://app?vid=59b83d62-1d91-4918-8b47-9a9a1d917eb3"},"vehicle_type_id":"4","last_reported":1710894800,"current_range_meters":6800,"station_id":"ce4bhr12rcd13ifvqhpg","pricing_plan_id":"cebpf4jnsgd1na2vs0mg"},{"bike_id":"3bf418cf-8c93-441a-80ae-e4e659e91213","system_id":"levelo_inurba_marseille","lat":43.31992,"lon":5.381496,"is_reserved":false,"is_disabled":false,"rental_uris":{"android":"levelo://app?vid=3bf418cf-8c93-441a-80ae-e4e659e91213","ios":"levelo://app?vid=3bf418cf-8c93-441a-80ae-e4e659e91213"},"vehicle_type_id":"4","last_reported":1710894800,"current_range_meters":12800,"station_id":"ce4bhr12rcd13ifvqhpg","pricing_plan_id":"cebpf4jnsgd1na2vs0mg"},{"bike_id":"652ab8f5-04d5-4b3c-9479-97e3d0427748","system_id":"levelo_inurba_marseille","lat":43.319935,"lon":5.381699,"is_reserved":false,"is_disabled":false,"rental_uris":{"android":"levelo://app?vid=652ab8f5-04d5-4b3c-9479-97e3d0427748","ios":"levelo://app?vid=652ab8f5-04d5-4b3c-9479-97e3d0427748"},"vehicle_type_id":"4","last_reported":1710894800,"current_range_meters":18800,"station_id":"ce4bhr12rcd13ifvqhpg","pricing_plan_id":"cebpf4jnsgd1na2vs0mg"},{"bike_id":"e6634cf6-29a9-4f1f-8487-418450787096","system_id":"levelo_inurba_marseille","lat":43.319935,"lon":5.381699,"is_reserved":false,"is_disabled":false,"rental_uris":{"android":"levelo://app?vid=e6634cf6-29a9-4f1f-8487-418450787096","ios":"levelo://app?vid=e6634cf6-29a9-4f1f-8487-418450787096"},"vehicle_type_id":"4","last_reported":1710894800,"current_range_meters":3600,"station_id":"ce4bhr12rcd13ifvqhpg","pricing_plan_id":"cebpf4jnsgd1na2vs0mg"},{"bike_id":"56deea52-3409-4459-bbcc-ac4bede94f11","system_id":"levelo_inurba_marseille","lat":43.319935,"lon":5.381699,"is_reserved":false,"is_disabled":false,"rental_uris":{"android":"levelo://app?vid=56deea52-3409-4459-bbcc-ac4bede94f11","ios":"levelo://app?vid=56deea52-3409-4459-bbcc-ac4bede94f11"},"vehicle_type_id":"4","last_reported":1710894800,"current_range_meters":28800,"station_id":"ce4bhr12rcd13ifvqhpg","pricing_plan_id":"cebpf4jnsgd1na2vs0mg"},{"bike_id":"1d88780d-f1c4-41b5-8b98-17c48fd33c14","system_id":"levelo_inurba_marseille","lat":43.319935,"lon":5.381699,"is_reserved":false,"is_disabled":false,"rental_uris":{"android":"levelo://app?vid=1d88780d-f1c4-41b5-8b98-17c48fd33c14","ios":"levelo://app?vid=1d88780d-f1c4-41b5-8b98-17c48fd33c14"},"vehicle_type_id":"4","last_reported":1710894800,"current_range_meters":6000,"station_id":"ce4bhr12rcd13ifvqhpg","pricing_plan_id":"cebpf4jnsgd1na2vs0mg"},{"bike_id":"be83824f-cd7e-44ed-bda3-89905b40ab1f","system_id":"levelo_inurba_marseille","lat":43.319982,"lon":5.381491,"is_reserved":false,"is_disabled":false,"rental_uris":{"android":"levelo://app?vid=be83824f-cd7e-44ed-bda3-89905b40ab1f","ios":"levelo://app?vid=be83824f-cd7e-44ed-bda3-89905b40ab1f"},"vehicle_type_id":"4","last_reported":1710894800,"current_range_meters":5200,"station_id":"ce4bhr12rcd13ifvqhpg","pricing_plan_id":"cebpf4jnsgd1na2vs0mg"},{"bike_id":"90f8a9e8-274f-4ad0-9d3d-5cd343f7045b","system_id":"levelo_inurba_marseille","lat":43.319935,"lon":5.381699,"is_reserved":false,"is_disabled":false,"rental_uris":{"android":"levelo://app?vid=90f8a9e8-274f-4ad0-9d3d-5cd343f7045b","ios":"levelo://app?vid=90f8a9e8-274f-4ad0-9d3d-5cd343f7045b"},"vehicle_type_id":"4","last_reported":1710894800,"current_range_meters":10800,"station_id":"ce4bhr12rcd13ifvqhpg","pricing_plan_id":"cebpf4jnsgd1na2vs0mg"},{"bike_id":"3a2e0ea9-0656-42c8-b911-ee19a4dbbf8e","system_id":"levelo_inurba_marseille","lat":43.319935,"lon":5.381699,"is_reserved":false,"is_disabled":false,"rental_uris":{"android":"levelo://app?vid=3a2e0ea9-0656-42c8-b911-ee19a4dbbf8e","ios":"levelo://app?vid=3a2e0ea9-0656-42c8-b911-ee19a4dbbf8e"},"vehicle_type_id":"4","last_reported":1710894800,"current_range_meters":16000,"station_id":"ce4bhr12rcd13ifvqhpg","pricing_plan_id":"cebpf4jnsgd1na2vs0mg"},{"bike_id":"0e82884d-ff12-4098-8d8d-de8f0df6fb87","system_id":"levelo_inurba_marseille","lat":43.319935,"lon":5.381699,"is_reserved":false,"is_disabled":false,"rental_uris":{"android":"levelo://app?vid=0e82884d-ff12-4098-8d8d-de8f0df6fb87","ios":"levelo://app?vid=0e82884d-ff12-4098-8d8d-de8f0df6fb87"},"vehicle_type_id":"4","last_reported":1710894800,"current_range_meters":17200,"station_id":"ce4bhr12rcd13ifvqhpg","pricing_plan_id":"cebpf4jnsgd1na2vs0mg"},{"bike_id":"fc78fd27-db7c-4bc1-a717-46f8dcbb5855","system_id":"levelo_inurba_marseille","lat":43.32006,"lon":5.38154,"is_reserved":false,"is_disabled":false,"rental_uris":{"android":"levelo://app?vid=fc78fd27-db7c-4bc1-a717-46f8dcbb5855","ios":"levelo://app?vid=fc78fd27-db7c-4bc1-a717-46f8dcbb5855"},"vehicle_type_id":"4","last_reported":1710894800,"current_range_meters":19600,"station_id":"ce4bhr12rcd13ifvqhpg","pricing_plan_id":"cebpf4jnsgd1na2vs0mg"},{"bike_id":"13695f02-6bcb-47f1-949b-9fe32518df3a","system_id":"levelo_inurba_marseille","lat":43.319935,"lon":5.381699,"is_reserved":false,"is_disabled":false,"rental_uris":{"android":"levelo://app?vid=13695f02-6bcb-47f1-949b-9fe32518df3a","ios":"levelo://app?vid=13695f02-6bcb-47f1-949b-9fe32518df3a"},"vehicle_type_id":"4","last_reported":1710894800,"current_range_meters":14000,"station_id":"ce4bhr12rcd13ifvqhpg","pricing_plan_id":"cebpf4jnsgd1na2vs0mg"},{"bike_id":"d0db2d9b-54da-472f-b92a-eededd5507b0","system_id":"levelo_inurba_marseille","lat":43.313571,"lon":5.384829,"is_reserved":false,"is_disabled":false,"rental_uris":{"android":"levelo://app?vid=d0db2d9b-54da-472f-b92a-eededd5507b0","ios":"levelo://app?vid=d0db2d9b-54da-472f-b92a-eededd5507b0"},"vehicle_type_id":"4","last_reported":1710894800,"current_range_meters":27200,"station_id":"ce4bgt92rcd13ifvqcf0","pricing_plan_id":"cebpf4jnsgd1na2vs0mg"},{"bike_id":"cf81f418-d1f2-4496-9faf-53e77cfa58b3","system_id":"levelo_inurba_marseille","lat":43.313571,"lon":5.384829,"is_reserved":false,"is_disabled":false,"rental_uris":{"android":"levelo://app?vid=cf81f418-d1f2-4496-9faf-53e77cfa58b3","ios":"levelo://app?vid=cf81f418-d1f2-4496-9faf-53e77cfa58b3"},"vehicle_type_id":"4","last_reported":1710894800,"current_range_meters":28000,"station_id":"ce4bgt92rcd13ifvqcf0","pricing_plan_id":"cebpf4jnsgd1na2vs0mg"},{"bike_id":"b2d27b76-f7f4-4619-9499-33dcb6b78f0e","system_id":"levelo_inurba_marseille","lat":43.313571,"lon":5.384829,"is_reserved":false,"is_disabled":false,"rental_uris":{"android":"levelo://app?vid=b2d27b76-f7f4-4619-9499-33dcb6b78f0e","ios":"levelo://app?vid=b2d27b76-f7f4-4619-9499-33dcb6b78f0e"},"vehicle_type_id":"4","last_reported":1710894800,"current_range_meters":10000,"station_id":"ce4bgt92rcd13ifvqcf0","pricing_plan_id":"cebpf4jnsgd1na2vs0mg"},{"bike_id":"a840b457-6d1e-4fc8-a31b-b6fd29861943","system_id":"levelo_inurba_marseille","lat":43.313571,"lon":5.384829,"is_reserved":false,"is_disabled":false,"rental_uris":{"android":"levelo://app?vid=a840b457-6d1e-4fc8-a31b-b6fd29861943","ios":"levelo://app?vid=a840b457-6d1e-4fc8-a31b-b6fd29861943"},"vehicle_type_id":"4","last_reported":1710894800,"current_range_meters":23600,"station_id":"ce4bgt92rcd13ifvqcf0","pricing_plan_id":"cebpf4jnsgd1na2vs0mg"},{"bike_id":"c83071a0-7a86-409f-ac47-7da645705794","system_id":"levelo_inurba_marseille","lat":43.299222,"lon":5.365554,"is_reserved":false,"is_disabled":false,"rental_uris":{"android":"levelo://app?vid=c83071a0-7a86-409f-ac47-7da645705794","ios":"levelo://app?vid=c83071a0-7a86-409f-ac47-7da645705794"},"vehicle_type_id":"4","last_reported":1710894800,"current_range_meters":1600,"station_id":"ce4bgm92rcd13ifvqbr0","pricing_plan_id":"cebpf4jnsgd1na2vs0mg"},{"bike_id":"869e49a4-4430-461b-909c-8d308af945fa","system_id":"levelo_inurba_marseille","lat":43.299724,"lon":5.371829,"is_reserved":false,"is_disabled":false,"rental_uris":{"android":"levelo://app?vid=869e49a4-4430-461b-909c-8d308af945fa","ios":"levelo://app?vid=869e49a4-4430-461b-909c-8d308af945fa"},"vehicle_type_id":"4","last_reported":1710894800,"current_range_meters":12800,"station_id":"ce4bgr92rcd13ifvqc7g","pricing_plan_id":"cebpf4jnsgd1na2vs0mg"},{"bike_id":"c3829e92-dc41-4fe2-8d41-e0af9d57aca4","system_id":"levelo_inurba_marseille","lat":43.305364,"lon":5.384119,"is_reserved":false,"is_disabled":false,"rental_uris":{"android":"levelo://app?vid=c3829e92-dc41-4fe2-8d41-e0af9d57aca4","ios":"levelo://app?vid=c3829e92-dc41-4fe2-8d41-e0af9d57aca4"},"vehicle_type_id":"4","last_reported":1710894800,"current_range_meters":24000,"station_id":"ce4bgg92rcd13ifvqb30","pricing_plan_id":"cebpf4jnsgd1na2vs0mg"},{"bike_id":"bb36d89c-71d5-425d-a692-c59fce0d7e3e","system_id":"levelo_inurba_marseille","lat":43.305364,"lon":5.384119,"is_reserved":false,"is_disabled":false,"rental_uris":{"android":"levelo://app?vid=bb36d89c-71d5-425d-a692-c59fce0d7e3e","ios":"levelo://app?vid=bb36d89c-71d5-425d-a692-c59fce0d7e3e"},"vehicle_type_id":"4","last_reported":1710894800,"current_range_meters":26000,"station_id":"ce4bgg92rcd13ifvqb30","pricing_plan_id":"cebpf4jnsgd1na2vs0mg"},{"bike_id":"4f1a25d6-2c86-4750-b17c-4dc523da943b","system_id":"levelo_inurba_marseille","lat":43.299243,"lon":5.374807,"is_reserved":false,"is_disabled":false,"rental_uris":{"android":"levelo://app?vid=4f1a25d6-2c86-4750-b17c-4dc523da943b","ios":"levelo://app?vid=4f1a25d6-2c86-4750-b17c-4dc523da943b"},"vehicle_type_id":"4","last_reported":1710894800,"current_range_meters":28400,"station_id":"ce4bgjh2rcd13ifvqbg0","pricing_plan_id":"cebpf4jnsgd1na2vs0mg"},{"bike_id":"74baa172-1d91-464a-b135-3f6cda5e45b0","system_id":"levelo_inurba_marseille","lat":43.311722,"lon":5.387247,"is_reserved":false,"is_disabled":false,"rental_uris":{"android":"levelo://app?vid=74baa172-1d91-464a-b135-3f6cda5e45b0","ios":"levelo://app?vid=74baa172-1d91-464a-b135-3f6cda5e45b0"},"vehicle_type_id":"4","last_reported":1710894800,"current_range_meters":20400,"station_id":"ce4bgv12rcd13ifvqcp0","pricing_plan_id":"cebpf4jnsgd1na2vs0mg"},{"bike_id":"26bf3f8d-ecec-41d0-a742-e4698d2370d1","system_id":"levelo_inurba_marseille","lat":43.311722,"lon":5.387247,"is_reserved":false,"is_disabled":false,"rental_uris":{"android":"levelo://app?vid=26bf3f8d-ecec-41d0-a742-e4698d2370d1","ios":"levelo://app?vid=26bf3f8d-ecec-41d0-a742-e4698d2370d1"},"vehicle_type_id":"4","last_reported":1710894800,"current_range_meters":16000,"station_id":"ce4bgv12rcd13ifvqcp0","pricing_plan_id":"cebpf4jnsgd1na2vs0mg"},{"bike_id":"4236bec5-4638-4c02-9ed0-541ad7dba0b5","system_id":"levelo_inurba_marseille","lat":43.311722,"lon":5.387247,"is_reserved":false,"is_disabled":false,"rental_uris":{"android":"levelo://app?vid=4236bec5-4638-4c02-9ed0-541ad7dba0b5","ios":"levelo://app?vid=4236bec5-4638-4c02-9ed0-541ad7dba0b5"},"vehicle_type_id":"4","last_reported":1710894800,"current_range_meters":14800,"station_id":"ce4bgv12rcd13ifvqcp0","pricing_plan_id":"cebpf4jnsgd1na2vs0mg"},{"bike_id":"50c24b02-11c8-46a0-bed9-c645233a3f60","system_id":"levelo_inurba_marseille","lat":43.311722,"lon":5.387247,"is_reserved":false,"is_disabled":false,"rental_uris":{"android":"levelo://app?vid=50c24b02-11c8-46a0-bed9-c645233a3f60","ios":"levelo://app?vid=50c24b02-11c8-46a0-bed9-c645233a3f60"},"vehicle_type_id":"4","last_reported":1710894800,"current_range_meters":27200,"station_id":"ce4bgv12rcd13ifvqcp0","pricing_plan_id":"cebpf4jnsgd1na2vs0mg"},{"bike_id":"6ad8227b-3ac8-4643-9a0d-599bfca79dc4","system_id":"levelo_inurba_marseille","lat":43.311722,"lon":5.387247,"is_reserved":false,"is_disabled":false,"rental_uris":{"android":"levelo://app?vid=6ad8227b-3ac8-4643-9a0d-599bfca79dc4","ios":"levelo://app?vid=6ad8227b-3ac8-4643-9a0d-599bfca79dc4"},"vehicle_type_id":"4","last_reported":1710894800,"current_range_meters":16800,"station_id":"ce4bgv12rcd13ifvqcp0","pricing_plan_id":"cebpf4jnsgd1na2vs0mg"},{"bike_id":"26d7716e-b16c-456f-849b-20c16721eb41","system_id":"levelo_inurba_marseille","lat":43.311722,"lon":5.387247,"is_reserved":false,"is_disabled":false,"rental_uris":{"android":"levelo://app?vid=26d7716e-b16c-456f-849b-20c16721eb41","ios":"levelo://app?vid=26d7716e-b16c-456f-849b-20c16721eb41"},"vehicle_type_id":"4","last_reported":1710894800,"current_range_meters":26400,"station_id":"ce4bgv12rcd13ifvqcp0","pricing_plan_id":"cebpf4jnsgd1na2vs0mg"},{"bike_id":"7c35de13-2f20-41b8-8a65-e29bd545e781","system_id":"levelo_inurba_marseille","lat":43.311722,"lon":5.387247,"is_reserved":false,"is_disabled":false,"rental_uris":{"android":"levelo://app?vid=7c35de13-2f20-41b8-8a65-e29bd545e781","ios":"levelo://app?vid=7c35de13-2f20-41b8-8a65-e29bd545e781"},"vehicle_type_id":"4","last_reported":1710894800,"current_range_meters":15600,"station_id":"ce4bgv12rcd13ifvqcp0","pricing_plan_id":"cebpf4jnsgd1na2vs0mg"},{"bike_id":"eb7ca94f-98ac-49ee-b589-9a128b8831de","system_id":"levelo_inurba_marseille","lat":43.311722,"lon":5.387247,"is_reserved":false,"is_disabled":false,"rental_uris":{"android":"levelo://app?vid=eb7ca94f-98ac-49ee-b589-9a128b8831de","ios":"levelo://app?vid=eb7ca94f-98ac-49ee-b589-9a128b8831de"},"vehicle_type_id":"4","last_reported":1710894800,"current_range_meters":29200,"station_id":"ce4bgv12rcd13ifvqcp0","pricing_plan_id":"cebpf4jnsgd1na2vs0mg"},{"bike_id":"d4b9619c-99d6-4d3b-8cc7-567aeb018f5f","system_id":"levelo_inurba_marseille","lat":43.311722,"lon":5.387247,"is_reserved":false,"is_disabled":false,"rental_uris":{"android":"levelo://app?vid=d4b9619c-99d6-4d3b-8cc7-567aeb018f5f","ios":"levelo://app?vid=d4b9619c-99d6-4d3b-8cc7-567aeb018f5f"},"vehicle_type_id":"4","last_reported":1710894800,"current_range_meters":30800,"station_id":"ce4bgv12rcd13ifvqcp0","pricing_plan_id":"cebpf4jnsgd1na2vs0mg"},{"bike_id":"3061239f-3e00-4037-aad0-9cda9b96c5be","system_id":"levelo_inurba_marseille","lat":43.311722,"lon":5.387247,"is_reserved":false,"is_disabled":false,"rental_uris":{"android":"levelo://app?vid=3061239f-3e00-4037-aad0-9cda9b96c5be","ios":"levelo://app?vid=3061239f-3e00-4037-aad0-9cda9b96c5be"},"vehicle_type_id":"4","last_reported":1710894800,"current_range_meters":4000,"station_id":"ce4bgv12rcd13ifvqcp0","pricing_plan_id":"cebpf4jnsgd1na2vs0mg"},{"bike_id":"d8c7fcfb-914b-44da-91f2-4eaa9c1fa16a","system_id":"levelo_inurba_marseille","lat":43.297927,"lon":5.370863,"is_reserved":false,"is_disabled":false,"rental_uris":{"android":"levelo://app?vid=d8c7fcfb-914b-44da-91f2-4eaa9c1fa16a","ios":"levelo://app?vid=d8c7fcfb-914b-44da-91f2-4eaa9c1fa16a"},"vehicle_type_id":"4","last_reported":1710894800,"current_range_meters":11600,"station_id":"ce4bgop2rcd13ifvqc1g","pricing_plan_id":"cebpf4jnsgd1na2vs0mg"},{"bike_id":"feead7e7-9cee-4c57-94a6-da647512767c","system_id":"levelo_inurba_marseille","lat":43.322896,"lon":5.382515,"is_reserved":false,"is_disabled":false,"rental_uris":{"android":"levelo://app?vid=feead7e7-9cee-4c57-94a6-da647512767c","ios":"levelo://app?vid=feead7e7-9cee-4c57-94a6-da647512767c"},"vehicle_type_id":"4","last_reported":1710894800,"current_range_meters":20800,"station_id":"ce4bhr12rcd13ifvqhqg","pricing_plan_id":"cebpf4jnsgd1na2vs0mg"},{"bike_id":"6069cbd6-6c9d-4c56-b3bf-dc2501b09e9d","system_id":"levelo_inurba_marseille","lat":43.297794,"lon":5.370888,"is_reserved":false,"is_disabled":false,"rental_uris":{"android":"levelo://app?vid=6069cbd6-6c9d-4c56-b3bf-dc2501b09e9d","ios":"levelo://app?vid=6069cbd6-6c9d-4c56-b3bf-dc2501b09e9d"},"vehicle_type_id":"4","last_reported":1710894800,"current_range_meters":16400,"station_id":"ce4bgop2rcd13ifvqc1g","pricing_plan_id":"cebpf4jnsgd1na2vs0mg"},{"bike_id":"5f8b4803-e4ba-4452-a9f1-55c7a87b5d2b","system_id":"levelo_inurba_marseille","lat":43.32289,"lon":5.38261,"is_reserved":false,"is_disabled":false,"rental_uris":{"android":"levelo://app?vid=5f8b4803-e4ba-4452-a9f1-55c7a87b5d2b","ios":"levelo://app?vid=5f8b4803-e4ba-4452-a9f1-55c7a87b5d2b"},"vehicle_type_id":"4","last_reported":1710894800,"current_range_meters":15600,"station_id":"ce4bhr12rcd13ifvqhqg","pricing_plan_id":"cebpf4jnsgd1na2vs0mg"},{"bike_id":"40920d67-a293-48ed-a3d6-e0e6bc1e2c92","system_id":"levelo_inurba_marseille","lat":43.322893,"lon":5.382612,"is_reserved":false,"is_disabled":false,"rental_uris":{"android":"levelo://app?vid=40920d67-a293-48ed-a3d6-e0e6bc1e2c92","ios":"levelo://app?vid=40920d67-a293-48ed-a3d6-e0e6bc1e2c92"},"vehicle_type_id":"4","last_reported":1710894800,"current_range_meters":4800,"station_id":"ce4bhr12rcd13ifvqhqg","pricing_plan_id":"cebpf4jnsgd1na2vs0mg"},{"bike_id":"f32c3800-2880-49c9-b647-144d107e7f9a","system_id":"levelo_inurba_marseille","lat":43.32288,"lon":5.38263,"is_reserved":false,"is_disabled":false,"rental_uris":{"android":"levelo://app?vid=f32c3800-2880-49c9-b647-144d107e7f9a","ios":"levelo://app?vid=f32c3800-2880-49c9-b647-144d107e7f9a"},"vehicle_type_id":"4","last_reported":1710894800,"current_range_meters":24800,"station_id":"ce4bhr12rcd13ifvqhqg","pricing_plan_id":"cebpf4jnsgd1na2vs0mg"},{"bike_id":"62e90e97-975b-4b7d-879f-5a0c84df8cc7","system_id":"levelo_inurba_marseille","lat":43.322909,"lon":5.382614,"is_reserved":false,"is_disabled":false,"rental_uris":{"android":"levelo://app?vid=62e90e97-975b-4b7d-879f-5a0c84df8cc7","ios":"levelo://app?vid=62e90e97-975b-4b7d-879f-5a0c84df8cc7"},"vehicle_type_id":"4","last_reported":1710894800,"current_range_meters":5200,"station_id":"ce4bhr12rcd13ifvqhqg","pricing_plan_id":"cebpf4jnsgd1na2vs0mg"},{"bike_id":"8805e5c2-5ebc-4d17-aa66-b7acbedf72f2","system_id":"levelo_inurba_marseille","lat":43.32291,"lon":5.38262,"is_reserved":false,"is_disabled":false,"rental_uris":{"android":"levelo://app?vid=8805e5c2-5ebc-4d17-aa66-b7acbedf72f2","ios":"levelo://app?vid=8805e5c2-5ebc-4d17-aa66-b7acbedf72f2"},"vehicle_type_id":"4","last_reported":1710894800,"current_range_meters":2800,"station_id":"ce4bhr12rcd13ifvqhqg","pricing_plan_id":"cebpf4jnsgd1na2vs0mg"},{"bike_id":"bd6b6545-b45a-4dc0-b743-d330ab6c2563","system_id":"levelo_inurba_marseille","lat":43.32291,"lon":5.38264,"is_reserved":false,"is_disabled":false,"rental_uris":{"android":"levelo://app?vid=bd6b6545-b45a-4dc0-b743-d330ab6c2563","ios":"levelo://app?vid=bd6b6545-b45a-4dc0-b743-d330ab6c2563"},"vehicle_type_id":"4","last_reported":1710894800,"current_range_meters":29200,"station_id":"ce4bhr12rcd13ifvqhqg","pricing_plan_id":"cebpf4jnsgd1na2vs0mg"},{"bike_id":"fe2c0272-b23e-47ab-9983-08819dc287f5","system_id":"levelo_inurba_marseille","lat":43.322872,"lon":5.382756,"is_reserved":false,"is_disabled":false,"rental_uris":{"android":"levelo://app?vid=fe2c0272-b23e-47ab-9983-08819dc287f5","ios":"levelo://app?vid=fe2c0272-b23e-47ab-9983-08819dc287f5"},"vehicle_type_id":"4","last_reported":1710894800,"current_range_meters":12000,"station_id":"ce4bhr12rcd13ifvqhqg","pricing_plan_id":"cebpf4jnsgd1na2vs0mg"},{"bike_id":"accb2f69-ca20-4b2f-9b54-89cf5f810bdd","system_id":"levelo_inurba_marseille","lat":43.32293,"lon":5.38263,"is_reserved":false,"is_disabled":false,"rental_uris":{"android":"levelo://app?vid=accb2f69-ca20-4b2f-9b54-89cf5f810bdd","ios":"levelo://app?vid=accb2f69-ca20-4b2f-9b54-89cf5f810bdd"},"vehicle_type_id":"4","last_reported":1710894800,"current_range_meters":23200,"station_id":"ce4bhr12rcd13ifvqhqg","pricing_plan_id":"cebpf4jnsgd1na2vs0mg"},{"bike_id":"36727d06-0af4-4c64-88de-4193d3d2494b","system_id":"levelo_inurba_marseille","lat":43.322875,"lon":5.382703,"is_reserved":false,"is_disabled":false,"rental_uris":{"android":"levelo://app?vid=36727d06-0af4-4c64-88de-4193d3d2494b","ios":"levelo://app?vid=36727d06-0af4-4c64-88de-4193d3d2494b"},"vehicle_type_id":"4","last_reported":1710894800,"current_range_meters":14800,"station_id":"ce4bhr12rcd13ifvqhqg","pricing_plan_id":"cebpf4jnsgd1na2vs0mg"},{"bike_id":"3ff125a5-dff1-4591-b6cc-449dc2424878","system_id":"levelo_inurba_marseille","lat":43.32289,"lon":5.38269,"is_reserved":false,"is_disabled":false,"rental_uris":{"android":"levelo://app?vid=3ff125a5-dff1-4591-b6cc-449dc2424878","ios":"levelo://app?vid=3ff125a5-dff1-4591-b6cc-449dc2424878"},"vehicle_type_id":"4","last_reported":1710894800,"current_range_meters":17200,"station_id":"ce4bhr12rcd13ifvqhqg","pricing_plan_id":"cebpf4jnsgd1na2vs0mg"},{"bike_id":"4f4a75fa-11e1-4b9c-9fc5-7e2938322638","system_id":"levelo_inurba_marseille","lat":43.32292,"lon":5.38267,"is_reserved":false,"is_disabled":false,"rental_uris":{"android":"levelo://app?vid=4f4a75fa-11e1-4b9c-9fc5-7e2938322638","ios":"levelo://app?vid=4f4a75fa-11e1-4b9c-9fc5-7e2938322638"},"vehicle_type_id":"4","last_reported":1710894800,"current_range_meters":25200,"station_id":"ce4bhr12rcd13ifvqhqg","pricing_plan_id":"cebpf4jnsgd1na2vs0mg"},{"bike_id":"eddeac31-d118-4f00-9fae-66dd1f398919","system_id":"levelo_inurba_marseille","lat":43.32287,"lon":5.38275,"is_reserved":false,"is_disabled":false,"rental_uris":{"android":"levelo://app?vid=eddeac31-d118-4f00-9fae-66dd1f398919","ios":"levelo://app?vid=eddeac31-d118-4f00-9fae-66dd1f398919"},"vehicle_type_id":"4","last_reported":1710894800,"current_range_meters":6000,"station_id":"ce4bhr12rcd13ifvqhqg","pricing_plan_id":"cebpf4jnsgd1na2vs0mg"},{"bike_id":"f0516476-e3a2-4c66-b71c-c566b7ec1fc0","system_id":"levelo_inurba_marseille","lat":43.32288,"lon":5.38275,"is_reserved":false,"is_disabled":false,"rental_uris":{"android":"levelo://app?vid=f0516476-e3a2-4c66-b71c-c566b7ec1fc0","ios":"levelo://app?vid=f0516476-e3a2-4c66-b71c-c566b7ec1fc0"},"vehicle_type_id":"4","last_reported":1710894800,"current_range_meters":26400,"station_id":"ce4bhr12rcd13ifvqhqg","pricing_plan_id":"cebpf4jnsgd1na2vs0mg"},{"bike_id":"ba23170a-19ea-4496-9826-26157cb68722","system_id":"levelo_inurba_marseille","lat":43.322872,"lon":5.382756,"is_reserved":false,"is_disabled":false,"rental_uris":{"android":"levelo://app?vid=ba23170a-19ea-4496-9826-26157cb68722","ios":"levelo://app?vid=ba23170a-19ea-4496-9826-26157cb68722"},"vehicle_type_id":"4","last_reported":1710894800,"current_range_meters":25200,"station_id":"ce4bhr12rcd13ifvqhqg","pricing_plan_id":"cebpf4jnsgd1na2vs0mg"},{"bike_id":"f15b0355-2112-4631-980d-d37c34e26c81","system_id":"levelo_inurba_marseille","lat":43.322872,"lon":5.382756,"is_reserved":false,"is_disabled":false,"rental_uris":{"android":"levelo://app?vid=f15b0355-2112-4631-980d-d37c34e26c81","ios":"levelo://app?vid=f15b0355-2112-4631-980d-d37c34e26c81"},"vehicle_type_id":"4","last_reported":1710894800,"current_range_meters":23600,"station_id":"ce4bhr12rcd13ifvqhqg","pricing_plan_id":"cebpf4jnsgd1na2vs0mg"},{"bike_id":"85d4d71c-b2c1-426a-b0b8-be8461195f7e","system_id":"levelo_inurba_marseille","lat":43.322872,"lon":5.382756,"is_reserved":false,"is_disabled":false,"rental_uris":{"android":"levelo://app?vid=85d4d71c-b2c1-426a-b0b8-be8461195f7e","ios":"levelo://app?vid=85d4d71c-b2c1-426a-b0b8-be8461195f7e"},"vehicle_type_id":"4","last_reported":1710894800,"current_range_meters":31600,"station_id":"ce4bhr12rcd13ifvqhqg","pricing_plan_id":"cebpf4jnsgd1na2vs0mg"},{"bike_id":"91866b6c-0f1d-4595-a374-74c3f3fe3718","system_id":"levelo_inurba_marseille","lat":43.32291,"lon":5.38272,"is_reserved":false,"is_disabled":false,"rental_uris":{"android":"levelo://app?vid=91866b6c-0f1d-4595-a374-74c3f3fe3718","ios":"levelo://app?vid=91866b6c-0f1d-4595-a374-74c3f3fe3718"},"vehicle_type_id":"4","last_reported":1710894800,"current_range_meters":3200,"station_id":"ce4bhr12rcd13ifvqhqg","pricing_plan_id":"cebpf4jnsgd1na2vs0mg"},{"bike_id":"3f897b5a-cdff-4477-8cbe-02af1e3040aa","system_id":"levelo_inurba_marseille","lat":43.3229,"lon":5.382758,"is_reserved":false,"is_disabled":false,"rental_uris":{"android":"levelo://app?vid=3f897b5a-cdff-4477-8cbe-02af1e3040aa","ios":"levelo://app?vid=3f897b5a-cdff-4477-8cbe-02af1e3040aa"},"vehicle_type_id":"4","last_reported":1710894800,"current_range_meters":2800,"station_id":"ce4bhr12rcd13ifvqhqg","pricing_plan_id":"cebpf4jnsgd1na2vs0mg"},{"bike_id":"d973e1be-c59c-4a7a-9767-9f08aeeb1cd4","system_id":"levelo_inurba_marseille","lat":43.29716,"lon":5.36614,"is_reserved":false,"is_disabled":false,"rental_uris":{"android":"levelo://app?vid=d973e1be-c59c-4a7a-9767-9f08aeeb1cd4","ios":"levelo://app?vid=d973e1be-c59c-4a7a-9767-9f08aeeb1cd4"},"vehicle_type_id":"4","last_reported":1710894800,"current_range_meters":4800,"station_id":"ce4bgn12rcd13ifvqbt0","pricing_plan_id":"cebpf4jnsgd1na2vs0mg"},{"bike_id":"056bdc40-7aa0-43f7-9d21-61296d613901","system_id":"levelo_inurba_marseille","lat":43.297163,"lon":5.365866,"is_reserved":false,"is_disabled":false,"rental_uris":{"android":"levelo://app?vid=056bdc40-7aa0-43f7-9d21-61296d613901","ios":"levelo://app?vid=056bdc40-7aa0-43f7-9d21-61296d613901"},"vehicle_type_id":"4","last_reported":1710894800,"current_range_meters":24000,"station_id":"ce4bgn12rcd13ifvqbt0","pricing_plan_id":"cebpf4jnsgd1na2vs0mg"},{"bike_id":"6cf7d7bf-87ff-4a64-97e9-9c5f66005a39","system_id":"levelo_inurba_marseille","lat":43.297163,"lon":5.365866,"is_reserved":false,"is_disabled":false,"rental_uris":{"android":"levelo://app?vid=6cf7d7bf-87ff-4a64-97e9-9c5f66005a39","ios":"levelo://app?vid=6cf7d7bf-87ff-4a64-97e9-9c5f66005a39"},"vehicle_type_id":"4","last_reported":1710894800,"current_range_meters":23600,"station_id":"ce4bgn12rcd13ifvqbt0","pricing_plan_id":"cebpf4jnsgd1na2vs0mg"},{"bike_id":"cd2dacc8-6b85-4884-921f-a0fc2a3b0a0d","system_id":"levelo_inurba_marseille","lat":43.2968,"lon":5.37291,"is_reserved":false,"is_disabled":false,"rental_uris":{"android":"levelo://app?vid=cd2dacc8-6b85-4884-921f-a0fc2a3b0a0d","ios":"levelo://app?vid=cd2dacc8-6b85-4884-921f-a0fc2a3b0a0d"},"vehicle_type_id":"4","last_reported":1710894800,"current_range_meters":19200,"station_id":"ce4bgk12rcd13ifvqbj0","pricing_plan_id":"cebpf4jnsgd1na2vs0mg"},{"bike_id":"2e3cfbc4-2591-412d-946c-a756b7107de3","system_id":"levelo_inurba_marseille","lat":43.2968,"lon":5.37291,"is_reserved":false,"is_disabled":false,"rental_uris":{"android":"levelo://app?vid=2e3cfbc4-2591-412d-946c-a756b7107de3","ios":"levelo://app?vid=2e3cfbc4-2591-412d-946c-a756b7107de3"},"vehicle_type_id":"4","last_reported":1710894800,"current_range_meters":26000,"station_id":"ce4bgk12rcd13ifvqbj0","pricing_plan_id":"cebpf4jnsgd1na2vs0mg"},{"bike_id":"5b51eebf-25e0-4ae9-86d9-5775450c8082","system_id":"levelo_inurba_marseille","lat":43.309589,"lon":5.390258,"is_reserved":false,"is_disabled":false,"rental_uris":{"android":"levelo://app?vid=5b51eebf-25e0-4ae9-86d9-5775450c8082","ios":"levelo://app?vid=5b51eebf-25e0-4ae9-86d9-5775450c8082"},"vehicle_type_id":"4","last_reported":1710894800,"current_range_meters":6800,"station_id":"ce4bgup2rcd13ifvqco0","pricing_plan_id":"cebpf4jnsgd1na2vs0mg"},{"bike_id":"a61e11ca-64df-4f04-9566-2021784349e0","system_id":"levelo_inurba_marseille","lat":43.309589,"lon":5.390258,"is_reserved":false,"is_disabled":false,"rental_uris":{"android":"levelo://app?vid=a61e11ca-64df-4f04-9566-2021784349e0","ios":"levelo://app?vid=a61e11ca-64df-4f04-9566-2021784349e0"},"vehicle_type_id":"4","last_reported":1710894800,"current_range_meters":6000,"station_id":"ce4bgup2rcd13ifvqco0","pricing_plan_id":"cebpf4jnsgd1na2vs0mg"},{"bike_id":"b1f366b9-7096-481f-8a49-85f691258a9f","system_id":"levelo_inurba_marseille","lat":43.309589,"lon":5.390258,"is_reserved":false,"is_disabled":false,"rental_uris":{"android":"levelo://app?vid=b1f366b9-7096-481f-8a49-85f691258a9f","ios":"levelo://app?vid=b1f366b9-7096-481f-8a49-85f691258a9f"},"vehicle_type_id":"4","last_reported":1710894800,"current_range_meters":10800,"station_id":"ce4bgup2rcd13ifvqco0","pricing_plan_id":"cebpf4jnsgd1na2vs0mg"},{"bike_id":"1706af1f-ebdd-4b2a-b6d6-4c87f030ae7d","system_id":"levelo_inurba_marseille","lat":43.309589,"lon":5.390258,"is_reserved":false,"is_disabled":false,"rental_uris":{"android":"levelo://app?vid=1706af1f-ebdd-4b2a-b6d6-4c87f030ae7d","ios":"levelo://app?vid=1706af1f-ebdd-4b2a-b6d6-4c87f030ae7d"},"vehicle_type_id":"4","last_reported":1710894800,"current_range_meters":14800,"station_id":"ce4bgup2rcd13ifvqco0","pricing_plan_id":"cebpf4jnsgd1na2vs0mg"},{"bike_id":"853db477-f31a-466e-8ad9-0832a1e41cb2","system_id":"levelo_inurba_marseille","lat":43.317557,"lon":5.390173,"is_reserved":false,"is_disabled":false,"rental_uris":{"android":"levelo://app?vid=853db477-f31a-466e-8ad9-0832a1e41cb2","ios":"levelo://app?vid=853db477-f31a-466e-8ad9-0832a1e41cb2"},"vehicle_type_id":"4","last_reported":1710894800,"current_range_meters":29200,"station_id":"ce4bhqp2rcd13ifvqhng","pricing_plan_id":"cebpf4jnsgd1na2vs0mg"},{"bike_id":"d953640e-f2c8-4259-b6c4-199d9789e936","system_id":"levelo_inurba_marseille","lat":43.317557,"lon":5.390173,"is_reserved":false,"is_disabled":false,"rental_uris":{"android":"levelo://app?vid=d953640e-f2c8-4259-b6c4-199d9789e936","ios":"levelo://app?vid=d953640e-f2c8-4259-b6c4-199d9789e936"},"vehicle_type_id":"4","last_reported":1710894800,"current_range_meters":8000,"station_id":"ce4bhqp2rcd13ifvqhng","pricing_plan_id":"cebpf4jnsgd1na2vs0mg"},{"bike_id":"add7f8ca-ceb2-4a3d-b852-c4ebd3cce13c","system_id":"levelo_inurba_marseille","lat":43.31753,"lon":5.39017,"is_reserved":false,"is_disabled":false,"rental_uris":{"android":"levelo://app?vid=add7f8ca-ceb2-4a3d-b852-c4ebd3cce13c","ios":"levelo://app?vid=add7f8ca-ceb2-4a3d-b852-c4ebd3cce13c"},"vehicle_type_id":"4","last_reported":1710894800,"current_range_meters":8800,"station_id":"ce4bhqp2rcd13ifvqhng","pricing_plan_id":"cebpf4jnsgd1na2vs0mg"},{"bike_id":"abfcce25-6301-4e4f-abdb-06281e7cafdf","system_id":"levelo_inurba_marseille","lat":43.317557,"lon":5.390173,"is_reserved":false,"is_disabled":false,"rental_uris":{"android":"levelo://app?vid=abfcce25-6301-4e4f-abdb-06281e7cafdf","ios":"levelo://app?vid=abfcce25-6301-4e4f-abdb-06281e7cafdf"},"vehicle_type_id":"4","last_reported":1710894800,"current_range_meters":1600,"station_id":"ce4bhqp2rcd13ifvqhng","pricing_plan_id":"cebpf4jnsgd1na2vs0mg"},{"bike_id":"ca944068-2655-453d-8f07-5da02e5def12","system_id":"levelo_inurba_marseille","lat":43.317557,"lon":5.390173,"is_reserved":false,"is_disabled":false,"rental_uris":{"android":"levelo://app?vid=ca944068-2655-453d-8f07-5da02e5def12","ios":"levelo://app?vid=ca944068-2655-453d-8f07-5da02e5def12"},"vehicle_type_id":"4","last_reported":1710894800,"current_range_meters":31200,"station_id":"ce4bhqp2rcd13ifvqhng","pricing_plan_id":"cebpf4jnsgd1na2vs0mg"},{"bike_id":"379c24a9-8b39-4998-b57a-e7bc51d2ee41","system_id":"levelo_inurba_marseille","lat":43.317557,"lon":5.390173,"is_reserved":false,"is_disabled":false,"rental_uris":{"android":"levelo://app?vid=379c24a9-8b39-4998-b57a-e7bc51d2ee41","ios":"levelo://app?vid=379c24a9-8b39-4998-b57a-e7bc51d2ee41"},"vehicle_type_id":"4","last_reported":1710894800,"current_range_meters":2000,"station_id":"ce4bhqp2rcd13ifvqhng","pricing_plan_id":"cebpf4jnsgd1na2vs0mg"},{"bike_id":"ba7fb15e-941b-4dd0-8924-dfb2cd68f7b2","system_id":"levelo_inurba_marseille","lat":43.317557,"lon":5.390173,"is_reserved":false,"is_disabled":false,"rental_uris":{"android":"levelo://app?vid=ba7fb15e-941b-4dd0-8924-dfb2cd68f7b2","ios":"levelo://app?vid=ba7fb15e-941b-4dd0-8924-dfb2cd68f7b2"},"vehicle_type_id":"4","last_reported":1710894800,"current_range_meters":0,"station_id":"ce4bhqp2rcd13ifvqhng","pricing_plan_id":"cebpf4jnsgd1na2vs0mg"},{"bike_id":"2d7068cb-04d8-45aa-ac53-fc15dc0220e2","system_id":"levelo_inurba_marseille","lat":43.295748,"lon":5.37522,"is_reserved":false,"is_disabled":false,"rental_uris":{"android":"levelo://app?vid=2d7068cb-04d8-45aa-ac53-fc15dc0220e2","ios":"levelo://app?vid=2d7068cb-04d8-45aa-ac53-fc15dc0220e2"},"vehicle_type_id":"4","last_reported":1710894800,"current_range_meters":0,"station_id":"ce4bgh92rcd13ifvqb50","pricing_plan_id":"cebpf4jnsgd1na2vs0mg"},{"bike_id":"ac50a14c-a94f-4f1b-a93d-aae3a00752c0","system_id":"levelo_inurba_marseille","lat":43.295748,"lon":5.37522,"is_reserved":false,"is_disabled":false,"rental_uris":{"android":"levelo://app?vid=ac50a14c-a94f-4f1b-a93d-aae3a00752c0","ios":"levelo://app?vid=ac50a14c-a94f-4f1b-a93d-aae3a00752c0"},"vehicle_type_id":"4","last_reported":1710894800,"current_range_meters":7600,"station_id":"ce4bgh92rcd13ifvqb50","pricing_plan_id":"cebpf4jnsgd1na2vs0mg"},{"bike_id":"6125e59e-7926-4e98-b800-ab9d42042e15","system_id":"levelo_inurba_marseille","lat":43.304416,"lon":5.388845,"is_reserved":false,"is_disabled":false,"rental_uris":{"android":"levelo://app?vid=6125e59e-7926-4e98-b800-ab9d42042e15","ios":"levelo://app?vid=6125e59e-7926-4e98-b800-ab9d42042e15"},"vehicle_type_id":"4","last_reported":1710894800,"current_range_meters":30400,"station_id":"ce4bgk12rcd13ifvqbi0","pricing_plan_id":"cebpf4jnsgd1na2vs0mg"},{"bike_id":"ea834482-a810-430f-8cc3-10a666447f54","system_id":"levelo_inurba_marseille","lat":43.30433,"lon":5.3888,"is_reserved":false,"is_disabled":false,"rental_uris":{"android":"levelo://app?vid=ea834482-a810-430f-8cc3-10a666447f54","ios":"levelo://app?vid=ea834482-a810-430f-8cc3-10a666447f54"},"vehicle_type_id":"4","last_reported":1710894800,"current_range_meters":21200,"station_id":"ce4bgk12rcd13ifvqbi0","pricing_plan_id":"cebpf4jnsgd1na2vs0mg"},{"bike_id":"6228a129-b8ee-439c-9879-8f13fa4e4b06","system_id":"levelo_inurba_marseille","lat":43.304404,"lon":5.388862,"is_reserved":false,"is_disabled":false,"rental_uris":{"android":"levelo://app?vid=6228a129-b8ee-439c-9879-8f13fa4e4b06","ios":"levelo://app?vid=6228a129-b8ee-439c-9879-8f13fa4e4b06"},"vehicle_type_id":"4","last_reported":1710894800,"current_range_meters":30000,"station_id":"ce4bgk12rcd13ifvqbi0","pricing_plan_id":"cebpf4jnsgd1na2vs0mg"},{"bike_id":"c9bc6ff4-27e4-4273-b0d7-7a63ce6218af","system_id":"levelo_inurba_marseille","lat":43.304278,"lon":5.388868,"is_reserved":false,"is_disabled":false,"rental_uris":{"android":"levelo://app?vid=c9bc6ff4-27e4-4273-b0d7-7a63ce6218af","ios":"levelo://app?vid=c9bc6ff4-27e4-4273-b0d7-7a63ce6218af"},"vehicle_type_id":"4","last_reported":1710894800,"current_range_meters":27600,"station_id":"ce4bgk12rcd13ifvqbi0","pricing_plan_id":"cebpf4jnsgd1na2vs0mg"},{"bike_id":"b7b14a15-f54e-4a4a-baa4-2dfc781a70cc","system_id":"levelo_inurba_marseille","lat":43.30434,"lon":5.38883,"is_reserved":false,"is_disabled":false,"rental_uris":{"android":"levelo://app?vid=b7b14a15-f54e-4a4a-baa4-2dfc781a70cc","ios":"levelo://app?vid=b7b14a15-f54e-4a4a-baa4-2dfc781a70cc"},"vehicle_type_id":"4","last_reported":1710894800,"current_range_meters":6400,"station_id":"ce4bgk12rcd13ifvqbi0","pricing_plan_id":"cebpf4jnsgd1na2vs0mg"},{"bike_id":"48f6435e-09d6-49ab-ac1b-eb0f6672591b","system_id":"levelo_inurba_marseille","lat":43.304278,"lon":5.388868,"is_reserved":false,"is_disabled":false,"rental_uris":{"android":"levelo://app?vid=48f6435e-09d6-49ab-ac1b-eb0f6672591b","ios":"levelo://app?vid=48f6435e-09d6-49ab-ac1b-eb0f6672591b"},"vehicle_type_id":"4","last_reported":1710894800,"current_range_meters":5200,"station_id":"ce4bgk12rcd13ifvqbi0","pricing_plan_id":"cebpf4jnsgd1na2vs0mg"},{"bike_id":"c36847ad-5c0d-4b9b-bd80-2ced0cf8a1c1","system_id":"levelo_inurba_marseille","lat":43.304278,"lon":5.388868,"is_reserved":false,"is_disabled":false,"rental_uris":{"android":"levelo://app?vid=c36847ad-5c0d-4b9b-bd80-2ced0cf8a1c1","ios":"levelo://app?vid=c36847ad-5c0d-4b9b-bd80-2ced0cf8a1c1"},"vehicle_type_id":"4","last_reported":1710894800,"current_range_meters":30800,"station_id":"ce4bgk12rcd13ifvqbi0","pricing_plan_id":"cebpf4jnsgd1na2vs0mg"},{"bike_id":"39e5705c-7294-4b0a-bbb9-6382df8e86ea","system_id":"levelo_inurba_marseille","lat":43.304278,"lon":5.388868,"is_reserved":false,"is_disabled":false,"rental_uris":{"android":"levelo://app?vid=39e5705c-7294-4b0a-bbb9-6382df8e86ea","ios":"levelo://app?vid=39e5705c-7294-4b0a-bbb9-6382df8e86ea"},"vehicle_type_id":"4","last_reported":1710894800,"current_range_meters":15600,"station_id":"ce4bgk12rcd13ifvqbi0","pricing_plan_id":"cebpf4jnsgd1na2vs0mg"},{"bike_id":"8faeec85-3a0e-408f-9911-9a30af793fd4","system_id":"levelo_inurba_marseille","lat":43.30433,"lon":5.38889,"is_reserved":false,"is_disabled":false,"rental_uris":{"android":"levelo://app?vid=8faeec85-3a0e-408f-9911-9a30af793fd4","ios":"levelo://app?vid=8faeec85-3a0e-408f-9911-9a30af793fd4"},"vehicle_type_id":"4","last_reported":1710894800,"current_range_meters":800,"station_id":"ce4bgk12rcd13ifvqbi0","pricing_plan_id":"cebpf4jnsgd1na2vs0mg"},{"bike_id":"99c89b05-60fb-443b-a639-be65c234fe2a","system_id":"levelo_inurba_marseille","lat":43.304278,"lon":5.388868,"is_reserved":false,"is_disabled":false,"rental_uris":{"android":"levelo://app?vid=99c89b05-60fb-443b-a639-be65c234fe2a","ios":"levelo://app?vid=99c89b05-60fb-443b-a639-be65c234fe2a"},"vehicle_type_id":"4","last_reported":1710894800,"current_range_meters":12800,"station_id":"ce4bgk12rcd13ifvqbi0","pricing_plan_id":"cebpf4jnsgd1na2vs0mg"},{"bike_id":"e5e2e68d-dcb8-4650-bfca-8ff246732b70","system_id":"levelo_inurba_marseille","lat":43.30437,"lon":5.38893,"is_reserved":false,"is_disabled":false,"rental_uris":{"android":"levelo://app?vid=e5e2e68d-dcb8-4650-bfca-8ff246732b70","ios":"levelo://app?vid=e5e2e68d-dcb8-4650-bfca-8ff246732b70"},"vehicle_type_id":"4","last_reported":1710894800,"current_range_meters":7600,"station_id":"ce4bgk12rcd13ifvqbi0","pricing_plan_id":"cebpf4jnsgd1na2vs0mg"},{"bike_id":"d093c175-02bf-4aee-bc1c-139c9289adc4","system_id":"levelo_inurba_marseille","lat":43.304278,"lon":5.388868,"is_reserved":false,"is_disabled":false,"rental_uris":{"android":"levelo://app?vid=d093c175-02bf-4aee-bc1c-139c9289adc4","ios":"levelo://app?vid=d093c175-02bf-4aee-bc1c-139c9289adc4"},"vehicle_type_id":"4","last_reported":1710894800,"current_range_meters":22400,"station_id":"ce4bgk12rcd13ifvqbi0","pricing_plan_id":"cebpf4jnsgd1na2vs0mg"},{"bike_id":"16d76994-487f-4109-bae4-e5e6cd7533c0","system_id":"levelo_inurba_marseille","lat":43.296277,"lon":5.377108,"is_reserved":false,"is_disabled":false,"rental_uris":{"android":"levelo://app?vid=16d76994-487f-4109-bae4-e5e6cd7533c0","ios":"levelo://app?vid=16d76994-487f-4109-bae4-e5e6cd7533c0"},"vehicle_type_id":"4","last_reported":1710894800,"current_range_meters":6000,"station_id":"ce4bgi92rcd13ifvqb90","pricing_plan_id":"cebpf4jnsgd1na2vs0mg"},{"bike_id":"27763e8c-63cd-4473-ab4d-302621925369","system_id":"levelo_inurba_marseille","lat":43.30422,"lon":5.38891,"is_reserved":false,"is_disabled":false,"rental_uris":{"android":"levelo://app?vid=27763e8c-63cd-4473-ab4d-302621925369","ios":"levelo://app?vid=27763e8c-63cd-4473-ab4d-302621925369"},"vehicle_type_id":"4","last_reported":1710894800,"current_range_meters":5600,"station_id":"ce4bgk12rcd13ifvqbi0","pricing_plan_id":"cebpf4jnsgd1na2vs0mg"},{"bike_id":"9cdd6368-95c9-4cc1-8ea4-3e58d3478d2a","system_id":"levelo_inurba_marseille","lat":43.304278,"lon":5.388868,"is_reserved":false,"is_disabled":false,"rental_uris":{"android":"levelo://app?vid=9cdd6368-95c9-4cc1-8ea4-3e58d3478d2a","ios":"levelo://app?vid=9cdd6368-95c9-4cc1-8ea4-3e58d3478d2a"},"vehicle_type_id":"4","last_reported":1710894800,"current_range_meters":9600,"station_id":"ce4bgk12rcd13ifvqbi0","pricing_plan_id":"cebpf4jnsgd1na2vs0mg"},{"bike_id":"617b0e6f-676e-40f0-bbaf-c9395e5b4dcd","system_id":"levelo_inurba_marseille","lat":43.3145,"lon":5.39314,"is_reserved":false,"is_disabled":false,"rental_uris":{"android":"levelo://app?vid=617b0e6f-676e-40f0-bbaf-c9395e5b4dcd","ios":"levelo://app?vid=617b0e6f-676e-40f0-bbaf-c9395e5b4dcd"},"vehicle_type_id":"4","last_reported":1710894800,"current_range_meters":27200,"station_id":"","pricing_plan_id":"cebpf4jnsgd1na2vs0mg"},{"bike_id":"15fc4921-5c0b-4728-bdd2-5ee3143549d2","system_id":"levelo_inurba_marseille","lat":43.32364,"lon":5.38877,"is_reserved":false,"is_disabled":false,"rental_uris":{"android":"levelo://app?vid=15fc4921-5c0b-4728-bdd2-5ee3143549d2","ios":"levelo://app?vid=15fc4921-5c0b-4728-bdd2-5ee3143549d2"},"vehicle_type_id":"4","last_reported":1710894800,"current_range_meters":0,"station_id":"ce4bhqp2rcd13ifvqhog","pricing_plan_id":"cebpf4jnsgd1na2vs0mg"},{"bike_id":"b754f7e6-8e5c-43b8-b933-43400991c1da","system_id":"levelo_inurba_marseille","lat":43.323666,"lon":5.388838,"is_reserved":false,"is_disabled":false,"rental_uris":{"android":"levelo://app?vid=b754f7e6-8e5c-43b8-b933-43400991c1da","ios":"levelo://app?vid=b754f7e6-8e5c-43b8-b933-43400991c1da"},"vehicle_type_id":"4","last_reported":1710894800,"current_range_meters":12800,"station_id":"ce4bhqp2rcd13ifvqhog","pricing_plan_id":"cebpf4jnsgd1na2vs0mg"},{"bike_id":"fa6652b9-0ab9-421f-9aeb-9561120c4d20","system_id":"levelo_inurba_marseille","lat":43.32368,"lon":5.38884,"is_reserved":false,"is_disabled":false,"rental_uris":{"android":"levelo://app?vid=fa6652b9-0ab9-421f-9aeb-9561120c4d20","ios":"levelo://app?vid=fa6652b9-0ab9-421f-9aeb-9561120c4d20"},"vehicle_type_id":"4","last_reported":1710894800,"current_range_meters":28400,"station_id":"ce4bhqp2rcd13ifvqhog","pricing_plan_id":"cebpf4jnsgd1na2vs0mg"},{"bike_id":"c9753313-ff05-4bc7-9209-6194355bacbb","system_id":"levelo_inurba_marseille","lat":43.323683,"lon":5.388841,"is_reserved":false,"is_disabled":false,"rental_uris":{"android":"levelo://app?vid=c9753313-ff05-4bc7-9209-6194355bacbb","ios":"levelo://app?vid=c9753313-ff05-4bc7-9209-6194355bacbb"},"vehicle_type_id":"4","last_reported":1710894800,"current_range_meters":0,"station_id":"ce4bhqp2rcd13ifvqhog","pricing_plan_id":"cebpf4jnsgd1na2vs0mg"},{"bike_id":"77d915da-b00f-431f-9fb4-10a630781629","system_id":"levelo_inurba_marseille","lat":43.32366,"lon":5.38888,"is_reserved":false,"is_disabled":false,"rental_uris":{"android":"levelo://app?vid=77d915da-b00f-431f-9fb4-10a630781629","ios":"levelo://app?vid=77d915da-b00f-431f-9fb4-10a630781629"},"vehicle_type_id":"4","last_reported":1710894800,"current_range_meters":21200,"station_id":"ce4bhqp2rcd13ifvqhog","pricing_plan_id":"cebpf4jnsgd1na2vs0mg"},{"bike_id":"8c5a09a7-6627-40b5-958f-7a7763e76ce2","system_id":"levelo_inurba_marseille","lat":43.32366,"lon":5.38888,"is_reserved":false,"is_disabled":false,"rental_uris":{"android":"levelo://app?vid=8c5a09a7-6627-40b5-958f-7a7763e76ce2","ios":"levelo://app?vid=8c5a09a7-6627-40b5-958f-7a7763e76ce2"},"vehicle_type_id":"4","last_reported":1710894800,"current_range_meters":14000,"station_id":"ce4bhqp2rcd13ifvqhog","pricing_plan_id":"cebpf4jnsgd1na2vs0mg"},{"bike_id":"80eb6f3c-7dad-4186-9ec8-bba5dd0c9f98","system_id":"levelo_inurba_marseille","lat":43.32365,"lon":5.38889,"is_reserved":false,"is_disabled":false,"rental_uris":{"android":"levelo://app?vid=80eb6f3c-7dad-4186-9ec8-bba5dd0c9f98","ios":"levelo://app?vid=80eb6f3c-7dad-4186-9ec8-bba5dd0c9f98"},"vehicle_type_id":"4","last_reported":1710894800,"current_range_meters":26400,"station_id":"ce4bhqp2rcd13ifvqhog","pricing_plan_id":"cebpf4jnsgd1na2vs0mg"},{"bike_id":"d1c473ef-8f57-4a45-a518-f2821a73640e","system_id":"levelo_inurba_marseille","lat":43.323624,"lon":5.388921,"is_reserved":false,"is_disabled":false,"rental_uris":{"android":"levelo://app?vid=d1c473ef-8f57-4a45-a518-f2821a73640e","ios":"levelo://app?vid=d1c473ef-8f57-4a45-a518-f2821a73640e"},"vehicle_type_id":"4","last_reported":1710894800,"current_range_meters":13200,"station_id":"ce4bhqp2rcd13ifvqhog","pricing_plan_id":"cebpf4jnsgd1na2vs0mg"},{"bike_id":"e37c32ea-6d8c-404c-81bf-a340e415fa51","system_id":"levelo_inurba_marseille","lat":43.32367,"lon":5.388836,"is_reserved":false,"is_disabled":false,"rental_uris":{"android":"levelo://app?vid=e37c32ea-6d8c-404c-81bf-a340e415fa51","ios":"levelo://app?vid=e37c32ea-6d8c-404c-81bf-a340e415fa51"},"vehicle_type_id":"4","last_reported":1710894800,"current_range_meters":26400,"station_id":"ce4bhqp2rcd13ifvqhog","pricing_plan_id":"cebpf4jnsgd1na2vs0mg"},{"bike_id":"9b43ae9f-97c3-4da0-938b-50afec46d2a5","system_id":"levelo_inurba_marseille","lat":43.32365,"lon":5.38891,"is_reserved":false,"is_disabled":false,"rental_uris":{"android":"levelo://app?vid=9b43ae9f-97c3-4da0-938b-50afec46d2a5","ios":"levelo://app?vid=9b43ae9f-97c3-4da0-938b-50afec46d2a5"},"vehicle_type_id":"4","last_reported":1710894800,"current_range_meters":16000,"station_id":"ce4bhqp2rcd13ifvqhog","pricing_plan_id":"cebpf4jnsgd1na2vs0mg"},{"bike_id":"28d032b9-6d9a-4cd4-9b78-a4ab91172b41","system_id":"levelo_inurba_marseille","lat":43.32364,"lon":5.38892,"is_reserved":false,"is_disabled":false,"rental_uris":{"android":"levelo://app?vid=28d032b9-6d9a-4cd4-9b78-a4ab91172b41","ios":"levelo://app?vid=28d032b9-6d9a-4cd4-9b78-a4ab91172b41"},"vehicle_type_id":"4","last_reported":1710894800,"current_range_meters":1200,"station_id":"ce4bhqp2rcd13ifvqhog","pricing_plan_id":"cebpf4jnsgd1na2vs0mg"},{"bike_id":"3b03bf20-78c9-4f5f-8559-507ea971bc2e","system_id":"levelo_inurba_marseille","lat":43.3237,"lon":5.388872,"is_reserved":false,"is_disabled":false,"rental_uris":{"android":"levelo://app?vid=3b03bf20-78c9-4f5f-8559-507ea971bc2e","ios":"levelo://app?vid=3b03bf20-78c9-4f5f-8559-507ea971bc2e"},"vehicle_type_id":"4","last_reported":1710894800,"current_range_meters":9200,"station_id":"ce4bhqp2rcd13ifvqhog","pricing_plan_id":"cebpf4jnsgd1na2vs0mg"},{"bike_id":"88c09819-0132-49e1-a848-b83c3e55111a","system_id":"levelo_inurba_marseille","lat":43.32367,"lon":5.388836,"is_reserved":false,"is_disabled":false,"rental_uris":{"android":"levelo://app?vid=88c09819-0132-49e1-a848-b83c3e55111a","ios":"levelo://app?vid=88c09819-0132-49e1-a848-b83c3e55111a"},"vehicle_type_id":"4","last_reported":1710894800,"current_range_meters":19200,"station_id":"ce4bhqp2rcd13ifvqhog","pricing_plan_id":"cebpf4jnsgd1na2vs0mg"},{"bike_id":"e200aebf-5329-4531-b72e-181699b5be48","system_id":"levelo_inurba_marseille","lat":43.32365,"lon":5.38896,"is_reserved":false,"is_disabled":false,"rental_uris":{"android":"levelo://app?vid=e200aebf-5329-4531-b72e-181699b5be48","ios":"levelo://app?vid=e200aebf-5329-4531-b72e-181699b5be48"},"vehicle_type_id":"4","last_reported":1710894800,"current_range_meters":0,"station_id":"ce4bhqp2rcd13ifvqhog","pricing_plan_id":"cebpf4jnsgd1na2vs0mg"},{"bike_id":"bf568cb2-95a2-479d-a71d-9c2387d1508c","system_id":"levelo_inurba_marseille","lat":43.29601,"lon":5.381084,"is_reserved":false,"is_disabled":false,"rental_uris":{"android":"levelo://app?vid=bf568cb2-95a2-479d-a71d-9c2387d1508c","ios":"levelo://app?vid=bf568cb2-95a2-479d-a71d-9c2387d1508c"},"vehicle_type_id":"4","last_reported":1710894800,"current_range_meters":24000,"station_id":"ce4bgl12rcd13ifvqbo0","pricing_plan_id":"cebpf4jnsgd1na2vs0mg"},{"bike_id":"f7e40c54-4d37-462c-874d-c1f6b99a3291","system_id":"levelo_inurba_marseille","lat":43.295952,"lon":5.381048,"is_reserved":false,"is_disabled":false,"rental_uris":{"android":"levelo://app?vid=f7e40c54-4d37-462c-874d-c1f6b99a3291","ios":"levelo://app?vid=f7e40c54-4d37-462c-874d-c1f6b99a3291"},"vehicle_type_id":"4","last_reported":1710894800,"current_range_meters":0,"station_id":"ce4bgl12rcd13ifvqbo0","pricing_plan_id":"cebpf4jnsgd1na2vs0mg"},{"bike_id":"88cfd007-d73c-4ac2-adcf-fdfdc6381592","system_id":"levelo_inurba_marseille","lat":43.30603,"lon":5.39354,"is_reserved":false,"is_disabled":false,"rental_uris":{"android":"levelo://app?vid=88cfd007-d73c-4ac2-adcf-fdfdc6381592","ios":"levelo://app?vid=88cfd007-d73c-4ac2-adcf-fdfdc6381592"},"vehicle_type_id":"4","last_reported":1710894800,"current_range_meters":19200,"station_id":"ce4bh0p2rcd13ifvqd80","pricing_plan_id":"cebpf4jnsgd1na2vs0mg"},{"bike_id":"4df7184a-379c-4947-b9a6-5eeb4071a49d","system_id":"levelo_inurba_marseille","lat":43.305994,"lon":5.393687,"is_reserved":false,"is_disabled":false,"rental_uris":{"android":"levelo://app?vid=4df7184a-379c-4947-b9a6-5eeb4071a49d","ios":"levelo://app?vid=4df7184a-379c-4947-b9a6-5eeb4071a49d"},"vehicle_type_id":"4","last_reported":1710894800,"current_range_meters":4400,"station_id":"ce4bh0p2rcd13ifvqd80","pricing_plan_id":"cebpf4jnsgd1na2vs0mg"},{"bike_id":"dfc55c27-56df-4a08-a083-895399289ef7","system_id":"levelo_inurba_marseille","lat":43.305994,"lon":5.393687,"is_reserved":false,"is_disabled":false,"rental_uris":{"android":"levelo://app?vid=dfc55c27-56df-4a08-a083-895399289ef7","ios":"levelo://app?vid=dfc55c27-56df-4a08-a083-895399289ef7"},"vehicle_type_id":"4","last_reported":1710894800,"current_range_meters":27600,"station_id":"ce4bh0p2rcd13ifvqd80","pricing_plan_id":"cebpf4jnsgd1na2vs0mg"},{"bike_id":"611228bb-9c5a-44e6-91dd-473e95bc3fb3","system_id":"levelo_inurba_marseille","lat":43.305994,"lon":5.393687,"is_reserved":false,"is_disabled":false,"rental_uris":{"android":"levelo://app?vid=611228bb-9c5a-44e6-91dd-473e95bc3fb3","ios":"levelo://app?vid=611228bb-9c5a-44e6-91dd-473e95bc3fb3"},"vehicle_type_id":"4","last_reported":1710894800,"current_range_meters":19200,"station_id":"ce4bh0p2rcd13ifvqd80","pricing_plan_id":"cebpf4jnsgd1na2vs0mg"},{"bike_id":"0e5304e5-3cef-42bb-94e5-96a704e330d4","system_id":"levelo_inurba_marseille","lat":43.305994,"lon":5.393687,"is_reserved":false,"is_disabled":false,"rental_uris":{"android":"levelo://app?vid=0e5304e5-3cef-42bb-94e5-96a704e330d4","ios":"levelo://app?vid=0e5304e5-3cef-42bb-94e5-96a704e330d4"},"vehicle_type_id":"4","last_reported":1710894800,"current_range_meters":20800,"station_id":"ce4bh0p2rcd13ifvqd80","pricing_plan_id":"cebpf4jnsgd1na2vs0mg"},{"bike_id":"a9a70f34-90b2-47d9-83ef-6f0f0f6eee5d","system_id":"levelo_inurba_marseille","lat":43.30314,"lon":5.39213,"is_reserved":false,"is_disabled":false,"rental_uris":{"android":"levelo://app?vid=a9a70f34-90b2-47d9-83ef-6f0f0f6eee5d","ios":"levelo://app?vid=a9a70f34-90b2-47d9-83ef-6f0f0f6eee5d"},"vehicle_type_id":"4","last_reported":1710894800,"current_range_meters":7600,"station_id":"ce4bgkh2rcd13ifvqbk0","pricing_plan_id":"cebpf4jnsgd1na2vs0mg"},{"bike_id":"cce4cbc8-a30f-4096-a7f1-f4baed5bf0bc","system_id":"levelo_inurba_marseille","lat":43.2936,"lon":5.37835,"is_reserved":false,"is_disabled":false,"rental_uris":{"android":"levelo://app?vid=cce4cbc8-a30f-4096-a7f1-f4baed5bf0bc","ios":"levelo://app?vid=cce4cbc8-a30f-4096-a7f1-f4baed5bf0bc"},"vehicle_type_id":"4","last_reported":1710894800,"current_range_meters":13600,"station_id":"ce4bgjh2rcd13ifvqbf0","pricing_plan_id":"cebpf4jnsgd1na2vs0mg"},{"bike_id":"b917f1fc-6458-4618-abd1-270fc93d676e","system_id":"levelo_inurba_marseille","lat":43.29219,"lon":5.373514,"is_reserved":false,"is_disabled":false,"rental_uris":{"android":"levelo://app?vid=b917f1fc-6458-4618-abd1-270fc93d676e","ios":"levelo://app?vid=b917f1fc-6458-4618-abd1-270fc93d676e"},"vehicle_type_id":"4","last_reported":1710894800,"current_range_meters":17200,"station_id":"","pricing_plan_id":"cebpf4jnsgd1na2vs0mg"},{"bike_id":"a46d04eb-3dd2-4f7a-8229-ce65bee63710","system_id":"levelo_inurba_marseille","lat":43.298764,"lon":5.388973,"is_reserved":false,"is_disabled":false,"rental_uris":{"android":"levelo://app?vid=a46d04eb-3dd2-4f7a-8229-ce65bee63710","ios":"levelo://app?vid=a46d04eb-3dd2-4f7a-8229-ce65bee63710"},"vehicle_type_id":"4","last_reported":1710894800,"current_range_meters":12000,"station_id":"ce4bh392rcd13ifvqdl0","pricing_plan_id":"cebpf4jnsgd1na2vs0mg"},{"bike_id":"310b0f23-b6d4-454e-90d0-0b514b72c7c7","system_id":"levelo_inurba_marseille","lat":43.298764,"lon":5.388973,"is_reserved":false,"is_disabled":false,"rental_uris":{"android":"levelo://app?vid=310b0f23-b6d4-454e-90d0-0b514b72c7c7","ios":"levelo://app?vid=310b0f23-b6d4-454e-90d0-0b514b72c7c7"},"vehicle_type_id":"4","last_reported":1710894800,"current_range_meters":12000,"station_id":"ce4bh392rcd13ifvqdl0","pricing_plan_id":"cebpf4jnsgd1na2vs0mg"},{"bike_id":"9d28de2f-61e5-4281-830f-1592e63e86c6","system_id":"levelo_inurba_marseille","lat":43.298764,"lon":5.388973,"is_reserved":false,"is_disabled":false,"rental_uris":{"android":"levelo://app?vid=9d28de2f-61e5-4281-830f-1592e63e86c6","ios":"levelo://app?vid=9d28de2f-61e5-4281-830f-1592e63e86c6"},"vehicle_type_id":"4","last_reported":1710894800,"current_range_meters":2800,"station_id":"ce4bh392rcd13ifvqdl0","pricing_plan_id":"cebpf4jnsgd1na2vs0mg"},{"bike_id":"f9b7b6b8-0c09-433b-8f85-e06c1cb786ab","system_id":"levelo_inurba_marseille","lat":43.298764,"lon":5.388973,"is_reserved":false,"is_disabled":false,"rental_uris":{"android":"levelo://app?vid=f9b7b6b8-0c09-433b-8f85-e06c1cb786ab","ios":"levelo://app?vid=f9b7b6b8-0c09-433b-8f85-e06c1cb786ab"},"vehicle_type_id":"4","last_reported":1710894800,"current_range_meters":20000,"station_id":"ce4bh392rcd13ifvqdl0","pricing_plan_id":"cebpf4jnsgd1na2vs0mg"},{"bike_id":"fc060662-1060-4350-b35b-ba0c076dfecf","system_id":"levelo_inurba_marseille","lat":43.298764,"lon":5.388973,"is_reserved":false,"is_disabled":false,"rental_uris":{"android":"levelo://app?vid=fc060662-1060-4350-b35b-ba0c076dfecf","ios":"levelo://app?vid=fc060662-1060-4350-b35b-ba0c076dfecf"},"vehicle_type_id":"4","last_reported":1710894800,"current_range_meters":28400,"station_id":"ce4bh392rcd13ifvqdl0","pricing_plan_id":"cebpf4jnsgd1na2vs0mg"},{"bike_id":"2ca4657e-49d6-4a4b-a8f2-1283517a9148","system_id":"levelo_inurba_marseille","lat":43.298764,"lon":5.388973,"is_reserved":false,"is_disabled":false,"rental_uris":{"android":"levelo://app?vid=2ca4657e-49d6-4a4b-a8f2-1283517a9148","ios":"levelo://app?vid=2ca4657e-49d6-4a4b-a8f2-1283517a9148"},"vehicle_type_id":"4","last_reported":1710894800,"current_range_meters":15600,"station_id":"ce4bh392rcd13ifvqdl0","pricing_plan_id":"cebpf4jnsgd1na2vs0mg"},{"bike_id":"63f6114e-0bf9-4713-9d84-9724a3661b2e","system_id":"levelo_inurba_marseille","lat":43.30896,"lon":5.3963,"is_reserved":false,"is_disabled":false,"rental_uris":{"android":"levelo://app?vid=63f6114e-0bf9-4713-9d84-9724a3661b2e","ios":"levelo://app?vid=63f6114e-0bf9-4713-9d84-9724a3661b2e"},"vehicle_type_id":"4","last_reported":1710894800,"current_range_meters":7600,"station_id":"ce4bh012rcd13ifvqcv0","pricing_plan_id":"cebpf4jnsgd1na2vs0mg"},{"bike_id":"86f48e37-0d84-4ef0-965e-256ef456bf43","system_id":"levelo_inurba_marseille","lat":43.30892,"lon":5.39632,"is_reserved":false,"is_disabled":false,"rental_uris":{"android":"levelo://app?vid=86f48e37-0d84-4ef0-965e-256ef456bf43","ios":"levelo://app?vid=86f48e37-0d84-4ef0-965e-256ef456bf43"},"vehicle_type_id":"4","last_reported":1710894800,"current_range_meters":10800,"station_id":"ce4bh012rcd13ifvqcv0","pricing_plan_id":"cebpf4jnsgd1na2vs0mg"},{"bike_id":"8318f990-fd14-47c0-a781-d1753bf797ea","system_id":"levelo_inurba_marseille","lat":43.30888,"lon":5.39632,"is_reserved":false,"is_disabled":false,"rental_uris":{"android":"levelo://app?vid=8318f990-fd14-47c0-a781-d1753bf797ea","ios":"levelo://app?vid=8318f990-fd14-47c0-a781-d1753bf797ea"},"vehicle_type_id":"4","last_reported":1710894800,"current_range_meters":2800,"station_id":"ce4bh012rcd13ifvqcv0","pricing_plan_id":"cebpf4jnsgd1na2vs0mg"},{"bike_id":"a05899e7-3c9b-49aa-bfa8-ff0d2846778e","system_id":"levelo_inurba_marseille","lat":43.309038,"lon":5.396546,"is_reserved":false,"is_disabled":false,"rental_uris":{"android":"levelo://app?vid=a05899e7-3c9b-49aa-bfa8-ff0d2846778e","ios":"levelo://app?vid=a05899e7-3c9b-49aa-bfa8-ff0d2846778e"},"vehicle_type_id":"4","last_reported":1710894800,"current_range_meters":31200,"station_id":"ce4bh012rcd13ifvqcv0","pricing_plan_id":"cebpf4jnsgd1na2vs0mg"},{"bike_id":"19a0d3b7-08bd-4d8f-88cd-240d3ea2fc2d","system_id":"levelo_inurba_marseille","lat":43.309038,"lon":5.396546,"is_reserved":false,"is_disabled":false,"rental_uris":{"android":"levelo://app?vid=19a0d3b7-08bd-4d8f-88cd-240d3ea2fc2d","ios":"levelo://app?vid=19a0d3b7-08bd-4d8f-88cd-240d3ea2fc2d"},"vehicle_type_id":"4","last_reported":1710894800,"current_range_meters":21200,"station_id":"ce4bh012rcd13ifvqcv0","pricing_plan_id":"cebpf4jnsgd1na2vs0mg"},{"bike_id":"9ea260fc-b874-4dfa-84f7-4bec5236e446","system_id":"levelo_inurba_marseille","lat":43.308886,"lon":5.396345,"is_reserved":false,"is_disabled":false,"rental_uris":{"android":"levelo://app?vid=9ea260fc-b874-4dfa-84f7-4bec5236e446","ios":"levelo://app?vid=9ea260fc-b874-4dfa-84f7-4bec5236e446"},"vehicle_type_id":"4","last_reported":1710894800,"current_range_meters":31200,"station_id":"ce4bh012rcd13ifvqcv0","pricing_plan_id":"cebpf4jnsgd1na2vs0mg"},{"bike_id":"b1953e0a-0583-4b82-8c71-e10004e1613d","system_id":"levelo_inurba_marseille","lat":43.291994,"lon":5.357886,"is_reserved":false,"is_disabled":false,"rental_uris":{"android":"levelo://app?vid=b1953e0a-0583-4b82-8c71-e10004e1613d","ios":"levelo://app?vid=b1953e0a-0583-4b82-8c71-e10004e1613d"},"vehicle_type_id":"4","last_reported":1710894800,"current_range_meters":14400,"station_id":"ce4bhb12rcd13ifvqel0","pricing_plan_id":"cebpf4jnsgd1na2vs0mg"},{"bike_id":"e6c85b82-cb02-4dde-83b0-21bcd64ec166","system_id":"levelo_inurba_marseille","lat":43.308892,"lon":5.396374,"is_reserved":false,"is_disabled":false,"rental_uris":{"android":"levelo://app?vid=e6c85b82-cb02-4dde-83b0-21bcd64ec166","ios":"levelo://app?vid=e6c85b82-cb02-4dde-83b0-21bcd64ec166"},"vehicle_type_id":"4","last_reported":1710894800,"current_range_meters":21200,"station_id":"ce4bh012rcd13ifvqcv0","pricing_plan_id":"cebpf4jnsgd1na2vs0mg"},{"bike_id":"22ce8fb2-92d8-4b77-8b22-64ce36d9b1f1","system_id":"levelo_inurba_marseille","lat":43.291994,"lon":5.357886,"is_reserved":false,"is_disabled":false,"rental_uris":{"android":"levelo://app?vid=22ce8fb2-92d8-4b77-8b22-64ce36d9b1f1","ios":"levelo://app?vid=22ce8fb2-92d8-4b77-8b22-64ce36d9b1f1"},"vehicle_type_id":"4","last_reported":1710894800,"current_range_meters":3600,"station_id":"ce4bhb12rcd13ifvqel0","pricing_plan_id":"cebpf4jnsgd1na2vs0mg"},{"bike_id":"a9c7f721-f7b6-4e56-877c-8994075ad201","system_id":"levelo_inurba_marseille","lat":43.313291,"lon":5.396838,"is_reserved":false,"is_disabled":false,"rental_uris":{"android":"levelo://app?vid=a9c7f721-f7b6-4e56-877c-8994075ad201","ios":"levelo://app?vid=a9c7f721-f7b6-4e56-877c-8994075ad201"},"vehicle_type_id":"4","last_reported":1710894800,"current_range_meters":6400,"station_id":"ce4bgvp2rcd13ifvqcu0","pricing_plan_id":"cebpf4jnsgd1na2vs0mg"},{"bike_id":"40d92724-3f65-4e29-bd02-ce945e11f4f1","system_id":"levelo_inurba_marseille","lat":43.3089,"lon":5.39639,"is_reserved":false,"is_disabled":false,"rental_uris":{"android":"levelo://app?vid=40d92724-3f65-4e29-bd02-ce945e11f4f1","ios":"levelo://app?vid=40d92724-3f65-4e29-bd02-ce945e11f4f1"},"vehicle_type_id":"4","last_reported":1710894800,"current_range_meters":17600,"station_id":"ce4bh012rcd13ifvqcv0","pricing_plan_id":"cebpf4jnsgd1na2vs0mg"},{"bike_id":"cb583b84-e4e7-462e-98ef-b9bef2c2f7ad","system_id":"levelo_inurba_marseille","lat":43.30889,"lon":5.3964,"is_reserved":false,"is_disabled":false,"rental_uris":{"android":"levelo://app?vid=cb583b84-e4e7-462e-98ef-b9bef2c2f7ad","ios":"levelo://app?vid=cb583b84-e4e7-462e-98ef-b9bef2c2f7ad"},"vehicle_type_id":"4","last_reported":1710894800,"current_range_meters":17600,"station_id":"ce4bh012rcd13ifvqcv0","pricing_plan_id":"cebpf4jnsgd1na2vs0mg"},{"bike_id":"084c7708-6521-4ee6-9e81-bff5ef45da27","system_id":"levelo_inurba_marseille","lat":43.313291,"lon":5.396838,"is_reserved":false,"is_disabled":false,"rental_uris":{"android":"levelo://app?vid=084c7708-6521-4ee6-9e81-bff5ef45da27","ios":"levelo://app?vid=084c7708-6521-4ee6-9e81-bff5ef45da27"},"vehicle_type_id":"4","last_reported":1710894800,"current_range_meters":20000,"station_id":"ce4bgvp2rcd13ifvqcu0","pricing_plan_id":"cebpf4jnsgd1na2vs0mg"},{"bike_id":"a1e8dd5c-113a-4a74-bda4-9b3f72cd5cf3","system_id":"levelo_inurba_marseille","lat":43.308862,"lon":5.396407,"is_reserved":false,"is_disabled":false,"rental_uris":{"android":"levelo://app?vid=a1e8dd5c-113a-4a74-bda4-9b3f72cd5cf3","ios":"levelo://app?vid=a1e8dd5c-113a-4a74-bda4-9b3f72cd5cf3"},"vehicle_type_id":"4","last_reported":1710894800,"current_range_meters":17600,"station_id":"ce4bh012rcd13ifvqcv0","pricing_plan_id":"cebpf4jnsgd1na2vs0mg"},{"bike_id":"93182ffd-314b-4904-be44-4e65b7691e76","system_id":"levelo_inurba_marseille","lat":43.309038,"lon":5.396546,"is_reserved":false,"is_disabled":false,"rental_uris":{"android":"levelo://app?vid=93182ffd-314b-4904-be44-4e65b7691e76","ios":"levelo://app?vid=93182ffd-314b-4904-be44-4e65b7691e76"},"vehicle_type_id":"4","last_reported":1710894800,"current_range_meters":27200,"station_id":"ce4bh012rcd13ifvqcv0","pricing_plan_id":"cebpf4jnsgd1na2vs0mg"},{"bike_id":"fd95327b-fbd5-464e-8944-961be4e96dbc","system_id":"levelo_inurba_marseille","lat":43.30887,"lon":5.396415,"is_reserved":false,"is_disabled":false,"rental_uris":{"android":"levelo://app?vid=fd95327b-fbd5-464e-8944-961be4e96dbc","ios":"levelo://app?vid=fd95327b-fbd5-464e-8944-961be4e96dbc"},"vehicle_type_id":"4","last_reported":1710894800,"current_range_meters":19600,"station_id":"ce4bh012rcd13ifvqcv0","pricing_plan_id":"cebpf4jnsgd1na2vs0mg"},{"bike_id":"8ef51bb4-a3d5-44ad-a524-8f338e3612f6","system_id":"levelo_inurba_marseille","lat":43.313291,"lon":5.396838,"is_reserved":false,"is_disabled":false,"rental_uris":{"android":"levelo://app?vid=8ef51bb4-a3d5-44ad-a524-8f338e3612f6","ios":"levelo://app?vid=8ef51bb4-a3d5-44ad-a524-8f338e3612f6"},"vehicle_type_id":"4","last_reported":1710894800,"current_range_meters":27200,"station_id":"ce4bgvp2rcd13ifvqcu0","pricing_plan_id":"cebpf4jnsgd1na2vs0mg"},{"bike_id":"8f8795b1-965d-4b3e-b739-57ed3cab6c03","system_id":"levelo_inurba_marseille","lat":43.313291,"lon":5.396838,"is_reserved":false,"is_disabled":false,"rental_uris":{"android":"levelo://app?vid=8f8795b1-965d-4b3e-b739-57ed3cab6c03","ios":"levelo://app?vid=8f8795b1-965d-4b3e-b739-57ed3cab6c03"},"vehicle_type_id":"4","last_reported":1710894800,"current_range_meters":30400,"station_id":"ce4bgvp2rcd13ifvqcu0","pricing_plan_id":"cebpf4jnsgd1na2vs0mg"},{"bike_id":"78f8462b-c17a-4525-8cb3-20c05e56b7a4","system_id":"levelo_inurba_marseille","lat":43.308886,"lon":5.396432,"is_reserved":false,"is_disabled":false,"rental_uris":{"android":"levelo://app?vid=78f8462b-c17a-4525-8cb3-20c05e56b7a4","ios":"levelo://app?vid=78f8462b-c17a-4525-8cb3-20c05e56b7a4"},"vehicle_type_id":"4","last_reported":1710894800,"current_range_meters":7200,"station_id":"ce4bh012rcd13ifvqcv0","pricing_plan_id":"cebpf4jnsgd1na2vs0mg"},{"bike_id":"81b3302a-5077-4623-9fef-4d5bccf3020a","system_id":"levelo_inurba_marseille","lat":43.309047,"lon":5.396551,"is_reserved":false,"is_disabled":false,"rental_uris":{"android":"levelo://app?vid=81b3302a-5077-4623-9fef-4d5bccf3020a","ios":"levelo://app?vid=81b3302a-5077-4623-9fef-4d5bccf3020a"},"vehicle_type_id":"4","last_reported":1710894800,"current_range_meters":23200,"station_id":"ce4bh012rcd13ifvqcv0","pricing_plan_id":"cebpf4jnsgd1na2vs0mg"},{"bike_id":"ae729094-85f0-448d-86bf-cd7f0ed8c51a","system_id":"levelo_inurba_marseille","lat":43.309047,"lon":5.396551,"is_reserved":false,"is_disabled":false,"rental_uris":{"android":"levelo://app?vid=ae729094-85f0-448d-86bf-cd7f0ed8c51a","ios":"levelo://app?vid=ae729094-85f0-448d-86bf-cd7f0ed8c51a"},"vehicle_type_id":"4","last_reported":1710894800,"current_range_meters":11600,"station_id":"ce4bh012rcd13ifvqcv0","pricing_plan_id":"cebpf4jnsgd1na2vs0mg"},{"bike_id":"a7ed0b21-9fba-4b4e-8ba5-e3bf735c6c7a","system_id":"levelo_inurba_marseille","lat":43.308856,"lon":5.396461,"is_reserved":false,"is_disabled":false,"rental_uris":{"android":"levelo://app?vid=a7ed0b21-9fba-4b4e-8ba5-e3bf735c6c7a","ios":"levelo://app?vid=a7ed0b21-9fba-4b4e-8ba5-e3bf735c6c7a"},"vehicle_type_id":"4","last_reported":1710894800,"current_range_meters":5600,"station_id":"ce4bh012rcd13ifvqcv0","pricing_plan_id":"cebpf4jnsgd1na2vs0mg"},{"bike_id":"0d703fe5-4bda-49fa-add5-8dec9c61849f","system_id":"levelo_inurba_marseille","lat":43.313291,"lon":5.396838,"is_reserved":false,"is_disabled":false,"rental_uris":{"android":"levelo://app?vid=0d703fe5-4bda-49fa-add5-8dec9c61849f","ios":"levelo://app?vid=0d703fe5-4bda-49fa-add5-8dec9c61849f"},"vehicle_type_id":"4","last_reported":1710894800,"current_range_meters":27600,"station_id":"ce4bgvp2rcd13ifvqcu0","pricing_plan_id":"cebpf4jnsgd1na2vs0mg"},{"bike_id":"8b99f704-bd25-48f8-8ba9-2bada9084e4b","system_id":"levelo_inurba_marseille","lat":43.309047,"lon":5.396551,"is_reserved":false,"is_disabled":false,"rental_uris":{"android":"levelo://app?vid=8b99f704-bd25-48f8-8ba9-2bada9084e4b","ios":"levelo://app?vid=8b99f704-bd25-48f8-8ba9-2bada9084e4b"},"vehicle_type_id":"4","last_reported":1710894800,"current_range_meters":30800,"station_id":"ce4bh012rcd13ifvqcv0","pricing_plan_id":"cebpf4jnsgd1na2vs0mg"},{"bike_id":"41a2fcba-090b-4d49-bf7b-835b5917ebf9","system_id":"levelo_inurba_marseille","lat":43.313291,"lon":5.396838,"is_reserved":false,"is_disabled":false,"rental_uris":{"android":"levelo://app?vid=41a2fcba-090b-4d49-bf7b-835b5917ebf9","ios":"levelo://app?vid=41a2fcba-090b-4d49-bf7b-835b5917ebf9"},"vehicle_type_id":"4","last_reported":1710894800,"current_range_meters":24800,"station_id":"ce4bgvp2rcd13ifvqcu0","pricing_plan_id":"cebpf4jnsgd1na2vs0mg"},{"bike_id":"8335b2ee-e188-4ec3-a047-0a1777d9cfac","system_id":"levelo_inurba_marseille","lat":43.308864,"lon":5.396497,"is_reserved":false,"is_disabled":false,"rental_uris":{"android":"levelo://app?vid=8335b2ee-e188-4ec3-a047-0a1777d9cfac","ios":"levelo://app?vid=8335b2ee-e188-4ec3-a047-0a1777d9cfac"},"vehicle_type_id":"4","last_reported":1710894800,"current_range_meters":30000,"station_id":"ce4bh012rcd13ifvqcv0","pricing_plan_id":"cebpf4jnsgd1na2vs0mg"},{"bike_id":"ebecd739-813e-4d43-8589-b3db540133e1","system_id":"levelo_inurba_marseille","lat":43.313291,"lon":5.396838,"is_reserved":false,"is_disabled":false,"rental_uris":{"android":"levelo://app?vid=ebecd739-813e-4d43-8589-b3db540133e1","ios":"levelo://app?vid=ebecd739-813e-4d43-8589-b3db540133e1"},"vehicle_type_id":"4","last_reported":1710894800,"current_range_meters":3200,"station_id":"ce4bgvp2rcd13ifvqcu0","pricing_plan_id":"cebpf4jnsgd1na2vs0mg"},{"bike_id":"921b1e2c-6989-4bf6-bc8d-70138ab3adff","system_id":"levelo_inurba_marseille","lat":43.313291,"lon":5.396838,"is_reserved":false,"is_disabled":false,"rental_uris":{"android":"levelo://app?vid=921b1e2c-6989-4bf6-bc8d-70138ab3adff","ios":"levelo://app?vid=921b1e2c-6989-4bf6-bc8d-70138ab3adff"},"vehicle_type_id":"4","last_reported":1710894800,"current_range_meters":23600,"station_id":"ce4bgvp2rcd13ifvqcu0","pricing_plan_id":"cebpf4jnsgd1na2vs0mg"},{"bike_id":"5d5fd77d-f933-475c-bfa2-4600b58b0dc6","system_id":"levelo_inurba_marseille","lat":43.313291,"lon":5.396838,"is_reserved":false,"is_disabled":false,"rental_uris":{"android":"levelo://app?vid=5d5fd77d-f933-475c-bfa2-4600b58b0dc6","ios":"levelo://app?vid=5d5fd77d-f933-475c-bfa2-4600b58b0dc6"},"vehicle_type_id":"4","last_reported":1710894800,"current_range_meters":16800,"station_id":"ce4bgvp2rcd13ifvqcu0","pricing_plan_id":"cebpf4jnsgd1na2vs0mg"},{"bike_id":"c6357bc8-2f02-453d-99e8-1041a659effd","system_id":"levelo_inurba_marseille","lat":43.309038,"lon":5.396546,"is_reserved":false,"is_disabled":false,"rental_uris":{"android":"levelo://app?vid=c6357bc8-2f02-453d-99e8-1041a659effd","ios":"levelo://app?vid=c6357bc8-2f02-453d-99e8-1041a659effd"},"vehicle_type_id":"4","last_reported":1710894800,"current_range_meters":30000,"station_id":"ce4bh012rcd13ifvqcv0","pricing_plan_id":"cebpf4jnsgd1na2vs0mg"},{"bike_id":"b32544b3-b912-4684-b972-3f289ebbe0c9","system_id":"levelo_inurba_marseille","lat":43.31349,"lon":5.39698,"is_reserved":false,"is_disabled":false,"rental_uris":{"android":"levelo://app?vid=b32544b3-b912-4684-b972-3f289ebbe0c9","ios":"levelo://app?vid=b32544b3-b912-4684-b972-3f289ebbe0c9"},"vehicle_type_id":"4","last_reported":1710894800,"current_range_meters":6000,"station_id":"ce4bgvp2rcd13ifvqcu0","pricing_plan_id":"cebpf4jnsgd1na2vs0mg"},{"bike_id":"944ae07e-1917-4207-ad5b-dd6d0105869b","system_id":"levelo_inurba_marseille","lat":43.313291,"lon":5.396838,"is_reserved":false,"is_disabled":false,"rental_uris":{"android":"levelo://app?vid=944ae07e-1917-4207-ad5b-dd6d0105869b","ios":"levelo://app?vid=944ae07e-1917-4207-ad5b-dd6d0105869b"},"vehicle_type_id":"4","last_reported":1710894800,"current_range_meters":14000,"station_id":"ce4bgvp2rcd13ifvqcu0","pricing_plan_id":"cebpf4jnsgd1na2vs0mg"},{"bike_id":"adc009fd-29f6-4c70-ab29-79d55df947a1","system_id":"levelo_inurba_marseille","lat":43.313291,"lon":5.396838,"is_reserved":false,"is_disabled":false,"rental_uris":{"android":"levelo://app?vid=adc009fd-29f6-4c70-ab29-79d55df947a1","ios":"levelo://app?vid=adc009fd-29f6-4c70-ab29-79d55df947a1"},"vehicle_type_id":"4","last_reported":1710894800,"current_range_meters":31200,"station_id":"ce4bgvp2rcd13ifvqcu0","pricing_plan_id":"cebpf4jnsgd1na2vs0mg"},{"bike_id":"11aa79ac-dca6-444f-842c-9c53f9e64f1a","system_id":"levelo_inurba_marseille","lat":43.313291,"lon":5.396838,"is_reserved":false,"is_disabled":false,"rental_uris":{"android":"levelo://app?vid=11aa79ac-dca6-444f-842c-9c53f9e64f1a","ios":"levelo://app?vid=11aa79ac-dca6-444f-842c-9c53f9e64f1a"},"vehicle_type_id":"4","last_reported":1710894800,"current_range_meters":32000,"station_id":"ce4bgvp2rcd13ifvqcu0","pricing_plan_id":"cebpf4jnsgd1na2vs0mg"},{"bike_id":"bbd17e35-2e6f-485a-a4b5-897d529c7f0b","system_id":"levelo_inurba_marseille","lat":43.309038,"lon":5.396546,"is_reserved":false,"is_disabled":false,"rental_uris":{"android":"levelo://app?vid=bbd17e35-2e6f-485a-a4b5-897d529c7f0b","ios":"levelo://app?vid=bbd17e35-2e6f-485a-a4b5-897d529c7f0b"},"vehicle_type_id":"4","last_reported":1710894800,"current_range_meters":4400,"station_id":"ce4bh012rcd13ifvqcv0","pricing_plan_id":"cebpf4jnsgd1na2vs0mg"},{"bike_id":"20c959bd-2a7a-4c6b-a3e2-c6c6d4cbd2d2","system_id":"levelo_inurba_marseille","lat":43.3089,"lon":5.39659,"is_reserved":false,"is_disabled":false,"rental_uris":{"android":"levelo://app?vid=20c959bd-2a7a-4c6b-a3e2-c6c6d4cbd2d2","ios":"levelo://app?vid=20c959bd-2a7a-4c6b-a3e2-c6c6d4cbd2d2"},"vehicle_type_id":"4","last_reported":1710894800,"current_range_meters":25600,"station_id":"ce4bh012rcd13ifvqcv0","pricing_plan_id":"cebpf4jnsgd1na2vs0mg"},{"bike_id":"abdfe4ed-34fc-49bc-95af-0b152b7eba6b","system_id":"levelo_inurba_marseille","lat":43.29529,"lon":5.385581,"is_reserved":false,"is_disabled":false,"rental_uris":{"android":"levelo://app?vid=abdfe4ed-34fc-49bc-95af-0b152b7eba6b","ios":"levelo://app?vid=abdfe4ed-34fc-49bc-95af-0b152b7eba6b"},"vehicle_type_id":"4","last_reported":1710894800,"current_range_meters":27200,"station_id":"ce4bgih2rcd13ifvqba0","pricing_plan_id":"cebpf4jnsgd1na2vs0mg"},{"bike_id":"31439721-c253-40b7-961b-7bc8009984a2","system_id":"levelo_inurba_marseille","lat":43.291426,"lon":5.37769,"is_reserved":false,"is_disabled":false,"rental_uris":{"android":"levelo://app?vid=31439721-c253-40b7-961b-7bc8009984a2","ios":"levelo://app?vid=31439721-c253-40b7-961b-7bc8009984a2"},"vehicle_type_id":"4","last_reported":1710894800,"current_range_meters":29600,"station_id":"","pricing_plan_id":"cebpf4jnsgd1na2vs0mg"},{"bike_id":"bcbb2c8b-c4eb-428e-9c0f-02d21b4e5375","system_id":"levelo_inurba_marseille","lat":43.302008,"lon":5.394694,"is_reserved":false,"is_disabled":false,"rental_uris":{"android":"levelo://app?vid=bcbb2c8b-c4eb-428e-9c0f-02d21b4e5375","ios":"levelo://app?vid=bcbb2c8b-c4eb-428e-9c0f-02d21b4e5375"},"vehicle_type_id":"4","last_reported":1710894800,"current_range_meters":20400,"station_id":"ce4bh0p2rcd13ifvqd70","pricing_plan_id":"cebpf4jnsgd1na2vs0mg"},{"bike_id":"ad01d2d9-0e0c-468e-938c-df778391b9e8","system_id":"levelo_inurba_marseille","lat":43.302008,"lon":5.394694,"is_reserved":false,"is_disabled":false,"rental_uris":{"android":"levelo://app?vid=ad01d2d9-0e0c-468e-938c-df778391b9e8","ios":"levelo://app?vid=ad01d2d9-0e0c-468e-938c-df778391b9e8"},"vehicle_type_id":"4","last_reported":1710894800,"current_range_meters":2800,"station_id":"ce4bh0p2rcd13ifvqd70","pricing_plan_id":"cebpf4jnsgd1na2vs0mg"},{"bike_id":"14f5f7f2-a0b9-4678-b810-60f3476d4218","system_id":"levelo_inurba_marseille","lat":43.302008,"lon":5.394694,"is_reserved":false,"is_disabled":false,"rental_uris":{"android":"levelo://app?vid=14f5f7f2-a0b9-4678-b810-60f3476d4218","ios":"levelo://app?vid=14f5f7f2-a0b9-4678-b810-60f3476d4218"},"vehicle_type_id":"4","last_reported":1710894800,"current_range_meters":18800,"station_id":"ce4bh0p2rcd13ifvqd70","pricing_plan_id":"cebpf4jnsgd1na2vs0mg"},{"bike_id":"8a8362af-b2d6-416c-b2bd-4a90bf4c122e","system_id":"levelo_inurba_marseille","lat":43.302008,"lon":5.394694,"is_reserved":false,"is_disabled":false,"rental_uris":{"android":"levelo://app?vid=8a8362af-b2d6-416c-b2bd-4a90bf4c122e","ios":"levelo://app?vid=8a8362af-b2d6-416c-b2bd-4a90bf4c122e"},"vehicle_type_id":"4","last_reported":1710894800,"current_range_meters":21200,"station_id":"ce4bh0p2rcd13ifvqd70","pricing_plan_id":"cebpf4jnsgd1na2vs0mg"},