{"last_updated":1701519091,"ttl":30,"version":"2.2","data":{"bikes":[{"bike_id":"ab1a45bc-5c86-4dc9-86c5-b3cdd9eb5b1a","system_id":"levelo_inurba_marseille","lat":43.31776,"lon":5.36854,"is_reserved":false,"is_disabled":false,"rental_uris":{"android":"levelo://app?vid=ab1a45bc-5c86-4dc9-86c5-b3cdd9eb5b1a","ios":"levelo://app?vid=ab1a45bc-5c86-4dc9-86c5-b3cdd9eb5b1a"},"vehicle_type_id":"4","last_reported":1701519092,"current_range_meters":0,"station_id":"","pricing_plan_id":"free"},{"bike_id":"fb051bb0-a45e-431f-bfbf-c7b8fc030d3d","system_id":"levelo_inurba_marseille","lat":43.305714,"lon":5.365633,"is_reserved":false,"is_disabled":false,"rental_uris":{"android":"levelo://app?vid=fb051bb0-a45e-431f-bfbf-c7b8fc030d3d","ios":"levelo://app?vid=fb051bb0-a45e-431f-bfbf-c7b8fc030d3d"},"vehicle_type_id":"4","last_reported":1701519092,"current_range_meters":23600,"station_id":"ce4bgs12rcd13ifvqcag","pricing_plan_id":"free"},{"bike_id":"1e77f73a-4e68-4bed-bde8-3c07753704ec","system_id":"levelo_inurba_marseille","lat":43.305423,"lon":5.36531,"is_reserved":false,"is_disabled":false,"rental_uris":{"android":"levelo://app?vid=1e77f73a-4e68-4bed-bde8-3c07753704ec","ios":"levelo://app?vid=1e77f73a-4e68-4bed-bde8-3c07753704ec"},"vehicle_type_id":"4","last_reported":1701519092,"current_range_meters":31200,"station_id":"ce4bgs12rcd13ifvqcag","pricing_plan_id":"free"},{"bike_id":"9736dc4e-dd28-4b59-aecb-181cb6b5279f","system_id":"levelo_inurba_marseille","lat":43.30539,"lon":5.36525,"is_reserved":false,"is_disabled":false,"rental_uris":{"android":"levelo://app?vid=9736dc4e-dd28-4b59-aecb-181cb6b5279f","ios":"levelo://app?vid=9736dc4e-dd28-4b59-aecb-181cb6b5279f"},"vehicle_type_id":"4","last_reported":1701519092,"current_range_meters":0,"station_id":"ce4bgs12rcd13ifvqcag","pricing_plan_id":"free"},{"bike_id":"f9d995fa-83bf-464f-a2e7-c03d5115e3a8","system_id":"levelo_inurba_marseille","lat":43.305989,"lon":5.37225,"is_reserved":false,"is_disabled":false,"rental_uris":{"android":"levelo://app?vid=f9d995fa-83bf-464f-a2e7-c03d5115e3a8","ios":"levelo://app?vid=f9d995fa-83bf-464f-a2e7-c03d5115e3a8"},"vehicle_type_id":"4","last_reported":1701519092,"current_range_meters":2800,"station_id":"ce4bgqh2rcd13ifvqc4g","pricing_plan_id":"free"},{"bike_id":"bda5f488-c6db-4bb5-a98f-ab9916f162b7","system_id":"levelo_inurba_marseille","lat":43.31119,"lon":5.37764,"is_reserved":false,"is_disabled":false,"rental_uris":{"android":"levelo://app?vid=bda5f488-c6db-4bb5-a98f-ab9916f162b7","ios":"levelo://app?vid=bda5f488-c6db-4bb5-a98f-ab9916f162b7"},"vehicle_type_id":"4","last_reported":1701519092,"current_range_meters":11200,"station_id":"ce4bgt92rcd13ifvqcg0","pricing_plan_id":"free"},{"bike_id":"cfd3bb51-5657-4943-be4a-4ca2f802bb01","system_id":"levelo_inurba_marseille","lat":43.308154,"lon":5.376604,"is_reserved":false,"is_disabled":false,"rental_uris":{"android":"levelo://app?vid=cfd3bb51-5657-4943-be4a-4ca2f802bb01","ios":"levelo://app?vid=cfd3bb51-5657-4943-be4a-4ca2f802bb01"},"vehicle_type_id":"4","last_reported":1701519092,"current_range_meters":10800,"station_id":"ce4bgv92rcd13ifvqcq0","pricing_plan_id":"free"},{"bike_id":"f427a2c3-6e4a-446b-ae2f-9be8aa7f4122","system_id":"levelo_inurba_marseille","lat":43.31719,"lon":5.376813,"is_reserved":false,"is_disabled":false,"rental_uris":{"android":"levelo://app?vid=f427a2c3-6e4a-446b-ae2f-9be8aa7f4122","ios":"levelo://app?vid=f427a2c3-6e4a-446b-ae2f-9be8aa7f4122"},"vehicle_type_id":"4","last_reported":1701519092,"current_range_meters":0,"station_id":"","pricing_plan_id":"free"},{"bike_id":"e913f328-1e31-4c22-bd87-f809ea246de4","system_id":"levelo_inurba_marseille","lat":43.317168,"lon":5.376883,"is_reserved":false,"is_disabled":false,"rental_uris":{"android":"levelo://app?vid=e913f328-1e31-4c22-bd87-f809ea246de4","ios":"levelo://app?vid=e913f328-1e31-4c22-bd87-f809ea246de4"},"vehicle_type_id":"4","last_reported":1701519092,"current_range_meters":400,"station_id":"","pricing_plan_id":"free"},{"bike_id":"c65d31cd-1967-4352-a1f0-a1b7ae66d4f9","system_id":"levelo_inurba_marseille","lat":43.317075,"lon":5.377367,"is_reserved":false,"is_disabled":false,"rental_uris":{"android":"levelo://app?vid=c65d31cd-1967-4352-a1f0-a1b7ae66d4f9","ios":"levelo://app?vid=c65d31cd-1967-4352-a1f0-a1b7ae66d4f9"},"vehicle_type_id":"4","last_reported":1701519092,"current_range_meters":24400,"station_id":"ce4bgth2rcd13ifvqch0","pricing_plan_id":"free"},{"bike_id":"92d8af04-b91c-4fe9-87f2-3d7cc202feb7","system_id":"levelo_inurba_marseille","lat":43.317075,"lon":5.377367,"is_reserved":false,"is_disabled":false,"rental_uris":{"android":"levelo://app?vid=92d8af04-b91c-4fe9-87f2-3d7cc202feb7","ios":"levelo://app?vid=92d8af04-b91c-4fe9-87f2-3d7cc202feb7"},"vehicle_type_id":"4","last_reported":1701519092,"current_range_meters":28800,"station_id":"ce4bgth2rcd13ifvqch0","pricing_plan_id":"free"},{"bike_id":"fb6fd937-527b-4585-9058-0dfdc6436ac8","system_id":"levelo_inurba_marseille","lat":43.31351,"lon":5.37909,"is_reserved":false,"is_disabled":false,"rental_uris":{"android":"levelo://app?vid=fb6fd937-527b-4585-9058-0dfdc6436ac8","ios":"levelo://app?vid=fb6fd937-527b-4585-9058-0dfdc6436ac8"},"vehicle_type_id":"4","last_reported":1701519092,"current_range_meters":22000,"station_id":"","pricing_plan_id":"free"},{"bike_id":"e22ae6fe-aa5e-461e-a42e-024b0c10ccd5","system_id":"levelo_inurba_marseille","lat":43.303046,"lon":5.368981,"is_reserved":false,"is_disabled":false,"rental_uris":{"android":"levelo://app?vid=e22ae6fe-aa5e-461e-a42e-024b0c10ccd5","ios":"levelo://app?vid=e22ae6fe-aa5e-461e-a42e-024b0c10ccd5"},"vehicle_type_id":"4","last_reported":1701519092,"current_range_meters":26400,"station_id":"ce4bgqh2rcd13ifvqc5g","pricing_plan_id":"free"},{"bike_id":"e56c4c03-d6ac-416d-8380-bbaf7fb49559","system_id":"levelo_inurba_marseille","lat":43.324771,"lon":5.36557,"is_reserved":false,"is_disabled":false,"rental_uris":{"android":"levelo://app?vid=e56c4c03-d6ac-416d-8380-bbaf7fb49559","ios":"levelo://app?vid=e56c4c03-d6ac-416d-8380-bbaf7fb49559"},"vehicle_type_id":"4","last_reported":1701519092,"current_range_meters":2800,"station_id":"ce4bhs12rcd13ifvqhvg","pricing_plan_id":"free"},{"bike_id":"bc8eac31-4b5b-48b3-aa99-5c3fdd18d82e","system_id":"levelo_inurba_marseille","lat":43.32486,"lon":5.36568,"is_reserved":false,"is_disabled":false,"rental_uris":{"android":"levelo://app?vid=bc8eac31-4b5b-48b3-aa99-5c3fdd18d82e","ios":"levelo://app?vid=bc8eac31-4b5b-48b3-aa99-5c3fdd18d82e"},"vehicle_type_id":"4","last_reported":1701519092,"current_range_meters":18800,"station_id":"ce4bhs12rcd13ifvqhvg","pricing_plan_id":"free"},{"bike_id":"bbe518ed-cb90-4018-9b02-4cd263726c2d","system_id":"levelo_inurba_marseille","lat":43.301429,"lon":5.37413,"is_reserved":false,"is_disabled":false,"rental_uris":{"android":"levelo://app?vid=bbe518ed-cb90-4018-9b02-4cd263726c2d","ios":"levelo://app?vid=bbe518ed-cb90-4018-9b02-4cd263726c2d"},"vehicle_type_id":"4","last_reported":1701519092,"current_range_meters":29600,"station_id":"ce4bgs92rcd13ifvqcc0","pricing_plan_id":"free"},{"bike_id":"12eb5be8-1c7b-429b-a9b5-797cad84a50a","system_id":"levelo_inurba_marseille","lat":43.301429,"lon":5.37413,"is_reserved":false,"is_disabled":false,"rental_uris":{"android":"levelo://app?vid=12eb5be8-1c7b-429b-a9b5-797cad84a50a","ios":"levelo://app?vid=12eb5be8-1c7b-429b-a9b5-797cad84a50a"},"vehicle_type_id":"4","last_reported":1701519092,"current_range_meters":18000,"station_id":"ce4bgs92rcd13ifvqcc0","pricing_plan_id":"free"},{"bike_id":"02a419bb-fa53-4aa3-8767-cd48761b8d68","system_id":"levelo_inurba_marseille","lat":43.30143,"lon":5.37413,"is_reserved":false,"is_disabled":false,"rental_uris":{"android":"levelo://app?vid=02a419bb-fa53-4aa3-8767-cd48761b8d68","ios":"levelo://app?vid=02a419bb-fa53-4aa3-8767-cd48761b8d68"},"vehicle_type_id":"4","last_reported":1701519092,"current_range_meters":26400,"station_id":"ce4bgs92rcd13ifvqcc0","pricing_plan_id":"free"},{"bike_id":"2275aca5-3158-4c2c-8022-ca5d2714bc86","system_id":"levelo_inurba_marseille","lat":43.319997,"lon":5.381594,"is_reserved":false,"is_disabled":false,"rental_uris":{"android":"levelo://app?vid=2275aca5-3158-4c2c-8022-ca5d2714bc86","ios":"levelo://app?vid=2275aca5-3158-4c2c-8022-ca5d2714bc86"},"vehicle_type_id":"4","last_reported":1701519092,"current_range_meters":15600,"station_id":"ce4bhr12rcd13ifvqhpg","pricing_plan_id":"free"},{"bike_id":"9fdb7f97-586d-42d2-befd-15216ba2e422","system_id":"levelo_inurba_marseille","lat":43.31183,"lon":5.38523,"is_reserved":false,"is_disabled":false,"rental_uris":{"android":"levelo://app?vid=9fdb7f97-586d-42d2-befd-15216ba2e422","ios":"levelo://app?vid=9fdb7f97-586d-42d2-befd-15216ba2e422"},"vehicle_type_id":"4","last_reported":1701519092,"current_range_meters":1600,"station_id":"","pricing_plan_id":"free"},{"bike_id":"b7d1638b-49db-4337-a41a-3acfd38e3aa4","system_id":"levelo_inurba_marseille","lat":43.299724,"lon":5.371829,"is_reserved":false,"is_disabled":false,"rental_uris":{"android":"levelo://app?vid=b7d1638b-49db-4337-a41a-3acfd38e3aa4","ios":"levelo://app?vid=b7d1638b-49db-4337-a41a-3acfd38e3aa4"},"vehicle_type_id":"4","last_reported":1701519092,"current_range_meters":29600,"station_id":"ce4bgr92rcd13ifvqc7g","pricing_plan_id":"free"},{"bike_id":"748d12ab-8e09-4ecd-b2d2-cbe0ea9624f6","system_id":"levelo_inurba_marseille","lat":43.298526,"lon":5.367613,"is_reserved":false,"is_disabled":false,"rental_uris":{"android":"levelo://app?vid=748d12ab-8e09-4ecd-b2d2-cbe0ea9624f6","ios":"levelo://app?vid=748d12ab-8e09-4ecd-b2d2-cbe0ea9624f6"},"vehicle_type_id":"4","last_reported":1701519092,"current_range_meters":6400,"station_id":"","pricing_plan_id":"free"},{"bike_id":"fa1d12be-748c-4c2f-9027-69dad1092d5f","system_id":"levelo_inurba_marseille","lat":43.299243,"lon":5.374807,"is_reserved":false,"is_disabled":false,"rental_uris":{"android":"levelo://app?vid=fa1d12be-748c-4c2f-9027-69dad1092d5f","ios":"levelo://app?vid=fa1d12be-748c-4c2f-9027-69dad1092d5f"},"vehicle_type_id":"4","last_reported":1701519092,"current_range_meters":4400,"station_id":"ce4bgjh2rcd13ifvqbg0","pricing_plan_id":"free"},{"bike_id":"524163ce-b117-494f-8223-a4d19d253717","system_id":"levelo_inurba_marseille","lat":43.299243,"lon":5.37481,"is_reserved":false,"is_disabled":false,"rental_uris":{"android":"levelo://app?vid=524163ce-b117-494f-8223-a4d19d253717","ios":"levelo://app?vid=524163ce-b117-494f-8223-a4d19d253717"},"vehicle_type_id":"4","last_reported":1701519092,"current_range_meters":27200,"station_id":"ce4bgjh2rcd13ifvqbg0","pricing_plan_id":"free"},{"bike_id":"3777795a-2897-43b3-ab74-b63c8b7aff54","system_id":"levelo_inurba_marseille","lat":43.297774,"lon":5.370875,"is_reserved":false,"is_disabled":false,"rental_uris":{"android":"levelo://app?vid=3777795a-2897-43b3-ab74-b63c8b7aff54","ios":"levelo://app?vid=3777795a-2897-43b3-ab74-b63c8b7aff54"},"vehicle_type_id":"4","last_reported":1701519092,"current_range_meters":26400,"station_id":"ce4bgop2rcd13ifvqc1g","pricing_plan_id":"free"},{"bike_id":"65073be3-64d5-4947-9113-fd11101b78dd","system_id":"levelo_inurba_marseille","lat":43.322872,"lon":5.382756,"is_reserved":false,"is_disabled":false,"rental_uris":{"android":"levelo://app?vid=65073be3-64d5-4947-9113-fd11101b78dd","ios":"levelo://app?vid=65073be3-64d5-4947-9113-fd11101b78dd"},"vehicle_type_id":"4","last_reported":1701519092,"current_range_meters":9200,"station_id":"ce4bhr12rcd13ifvqhqg","pricing_plan_id":"free"},{"bike_id":"863e68e6-f678-4404-9035-1f0c001016cb","system_id":"levelo_inurba_marseille","lat":43.328276,"lon":5.366817,"is_reserved":false,"is_disabled":false,"rental_uris":{"android":"levelo://app?vid=863e68e6-f678-4404-9035-1f0c001016cb","ios":"levelo://app?vid=863e68e6-f678-4404-9035-1f0c001016cb"},"vehicle_type_id":"4","last_reported":1701519092,"current_range_meters":17200,"station_id":"ce4bhs92rcd13ifvqi0g","pricing_plan_id":"free"},{"bike_id":"c0284961-478e-4ccd-b43e-321d6e4c5580","system_id":"levelo_inurba_marseille","lat":43.328371,"lon":5.366909,"is_reserved":false,"is_disabled":false,"rental_uris":{"android":"levelo://app?vid=c0284961-478e-4ccd-b43e-321d6e4c5580","ios":"levelo://app?vid=c0284961-478e-4ccd-b43e-321d6e4c5580"},"vehicle_type_id":"4","last_reported":1701519092,"current_range_meters":3600,"station_id":"ce4bhs92rcd13ifvqi0g","pricing_plan_id":"free"},{"bike_id":"ea037b6c-e8d6-4282-a1ee-9f7910e7f9ab","system_id":"levelo_inurba_marseille","lat":43.32831,"lon":5.36681,"is_reserved":false,"is_disabled":false,"rental_uris":{"android":"levelo://app?vid=ea037b6c-e8d6-4282-a1ee-9f7910e7f9ab","ios":"levelo://app?vid=ea037b6c-e8d6-4282-a1ee-9f7910e7f9ab"},"vehicle_type_id":"4","last_reported":1701519092,"current_range_meters":13200,"station_id":"ce4bhs92rcd13ifvqi0g","pricing_plan_id":"free"},{"bike_id":"3c6eacad-63e8-42f7-9988-09cf64b64dd8","system_id":"levelo_inurba_marseille","lat":43.328371,"lon":5.366909,"is_reserved":false,"is_disabled":false,"rental_uris":{"android":"levelo://app?vid=3c6eacad-63e8-42f7-9988-09cf64b64dd8","ios":"levelo://app?vid=3c6eacad-63e8-42f7-9988-09cf64b64dd8"},"vehicle_type_id":"4","last_reported":1701519092,"current_range_meters":8000,"station_id":"ce4bhs92rcd13ifvqi0g","pricing_plan_id":"free"},{"bike_id":"7adcd94b-08f9-46ef-9183-0420f8c39d35","system_id":"levelo_inurba_marseille","lat":43.32832,"lon":5.36679,"is_reserved":false,"is_disabled":false,"rental_uris":{"android":"levelo://app?vid=7adcd94b-08f9-46ef-9183-0420f8c39d35","ios":"levelo://app?vid=7adcd94b-08f9-46ef-9183-0420f8c39d35"},"vehicle_type_id":"4","last_reported":1701519092,"current_range_meters":26000,"station_id":"ce4bhs92rcd13ifvqi0g","pricing_plan_id":"free"},{"bike_id":"5c26bdfb-7b7c-43fb-8a01-250128a1a6f8","system_id":"levelo_inurba_marseille","lat":43.328329,"lon":5.366871,"is_reserved":false,"is_disabled":false,"rental_uris":{"android":"levelo://app?vid=5c26bdfb-7b7c-43fb-8a01-250128a1a6f8","ios":"levelo://app?vid=5c26bdfb-7b7c-43fb-8a01-250128a1a6f8"},"vehicle_type_id":"4","last_reported":1701519092,"current_range_meters":21200,"station_id":"ce4bhs92rcd13ifvqi0g","pricing_plan_id":"free"},{"bike_id":"163496fb-e189-41b5-86b5-1e080959a570","system_id":"levelo_inurba_marseille","lat":43.2968,"lon":5.37291,"is_reserved":false,"is_disabled":false,"rental_uris":{"android":"levelo://app?vid=163496fb-e189-41b5-86b5-1e080959a570","ios":"levelo://app?vid=163496fb-e189-41b5-86b5-1e080959a570"},"vehicle_type_id":"4","last_reported":1701519092,"current_range_meters":20400,"station_id":"ce4bgk12rcd13ifvqbj0","pricing_plan_id":"free"},{"bike_id":"eaa0e7e7-2390-47fa-909b-7b240952cbef","system_id":"levelo_inurba_marseille","lat":43.31653,"lon":5.38957,"is_reserved":false,"is_disabled":false,"rental_uris":{"android":"levelo://app?vid=eaa0e7e7-2390-47fa-909b-7b240952cbef","ios":"levelo://app?vid=eaa0e7e7-2390-47fa-909b-7b240952cbef"},"vehicle_type_id":"4","last_reported":1701519092,"current_range_meters":17200,"station_id":"","pricing_plan_id":"free"},{"bike_id":"d3e72826-724e-40f3-a822-5a14dd090d0b","system_id":"levelo_inurba_marseille","lat":43.29719,"lon":5.37692,"is_reserved":false,"is_disabled":false,"rental_uris":{"android":"levelo://app?vid=d3e72826-724e-40f3-a822-5a14dd090d0b","ios":"levelo://app?vid=d3e72826-724e-40f3-a822-5a14dd090d0b"},"vehicle_type_id":"4","last_reported":1701519092,"current_range_meters":13200,"station_id":"ce4bgkh2rcd13ifvqbl0","pricing_plan_id":"free"},{"bike_id":"c5a9d2c0-459a-4c75-8746-c844e1cef1d6","system_id":"levelo_inurba_marseille","lat":43.299028,"lon":5.381509,"is_reserved":false,"is_disabled":false,"rental_uris":{"android":"levelo://app?vid=c5a9d2c0-459a-4c75-8746-c844e1cef1d6","ios":"levelo://app?vid=c5a9d2c0-459a-4c75-8746-c844e1cef1d6"},"vehicle_type_id":"4","last_reported":1701519092,"current_range_meters":12400,"station_id":"ce4bgj12rcd13ifvqbc0","pricing_plan_id":"free"},{"bike_id":"9e9dad87-e51c-4468-aa6d-e62c81967be9","system_id":"levelo_inurba_marseille","lat":43.296935,"lon":5.376544,"is_reserved":false,"is_disabled":false,"rental_uris":{"android":"levelo://app?vid=9e9dad87-e51c-4468-aa6d-e62c81967be9","ios":"levelo://app?vid=9e9dad87-e51c-4468-aa6d-e62c81967be9"},"vehicle_type_id":"4","last_reported":1701519092,"current_range_meters":14800,"station_id":"ce4bgkh2rcd13ifvqbl0","pricing_plan_id":"free"},{"bike_id":"c879f0b0-7a11-4a05-abff-7d8d46dc95b3","system_id":"levelo_inurba_marseille","lat":43.299028,"lon":5.381509,"is_reserved":false,"is_disabled":false,"rental_uris":{"android":"levelo://app?vid=c879f0b0-7a11-4a05-abff-7d8d46dc95b3","ios":"levelo://app?vid=c879f0b0-7a11-4a05-abff-7d8d46dc95b3"},"vehicle_type_id":"4","last_reported":1701519092,"current_range_meters":11200,"station_id":"ce4bgj12rcd13ifvqbc0","pricing_plan_id":"free"},{"bike_id":"f8f2a95a-4c52-4976-8071-9b8db7b6b917","system_id":"levelo_inurba_marseille","lat":43.296935,"lon":5.376544,"is_reserved":false,"is_disabled":false,"rental_uris":{"android":"levelo://app?vid=f8f2a95a-4c52-4976-8071-9b8db7b6b917","ios":"levelo://app?vid=f8f2a95a-4c52-4976-8071-9b8db7b6b917"},"vehicle_type_id":"4","last_reported":1701519092,"current_range_meters":21200,"station_id":"ce4bgkh2rcd13ifvqbl0","pricing_plan_id":"free"},{"bike_id":"3debf942-ad76-40cf-9da5-b7fae1868cdd","system_id":"levelo_inurba_marseille","lat":43.304274,"lon":5.388873,"is_reserved":false,"is_disabled":false,"rental_uris":{"android":"levelo://app?vid=3debf942-ad76-40cf-9da5-b7fae1868cdd","ios":"levelo://app?vid=3debf942-ad76-40cf-9da5-b7fae1868cdd"},"vehicle_type_id":"4","last_reported":1701519092,"current_range_meters":20400,"station_id":"ce4bgk12rcd13ifvqbi0","pricing_plan_id":"free"},{"bike_id":"fdfc3070-f0be-42cb-9dd9-a3bc651b5779","system_id":"levelo_inurba_marseille","lat":43.296263,"lon":5.377094,"is_reserved":false,"is_disabled":false,"rental_uris":{"android":"levelo://app?vid=fdfc3070-f0be-42cb-9dd9-a3bc651b5779","ios":"levelo://app?vid=fdfc3070-f0be-42cb-9dd9-a3bc651b5779"},"vehicle_type_id":"4","last_reported":1701519092,"current_range_meters":14400,"station_id":"ce4bgi92rcd13ifvqb90","pricing_plan_id":"free"},{"bike_id":"f8f25c7c-71cc-4a2d-9e6d-9052a358d513","system_id":"levelo_inurba_marseille","lat":43.296263,"lon":5.377094,"is_reserved":false,"is_disabled":false,"rental_uris":{"android":"levelo://app?vid=f8f25c7c-71cc-4a2d-9e6d-9052a358d513","ios":"levelo://app?vid=f8f25c7c-71cc-4a2d-9e6d-9052a358d513"},"vehicle_type_id":"4","last_reported":1701519092,"current_range_meters":22400,"station_id":"ce4bgi92rcd13ifvqb90","pricing_plan_id":"free"},{"bike_id":"13ca97e5-82b5-4e06-8d78-e9793b7e594e","system_id":"levelo_inurba_marseille","lat":43.297142,"lon":5.379705,"is_reserved":false,"is_disabled":false,"rental_uris":{"android":"levelo://app?vid=13ca97e5-82b5-4e06-8d78-e9793b7e594e","ios":"levelo://app?vid=13ca97e5-82b5-4e06-8d78-e9793b7e594e"},"vehicle_type_id":"4","last_reported":1701519092,"current_range_meters":19200,"station_id":"","pricing_plan_id":"free"},{"bike_id":"69823fd5-20c7-46ce-85a1-885ebc795c1e","system_id":"levelo_inurba_marseille","lat":43.296263,"lon":5.377094,"is_reserved":false,"is_disabled":false,"rental_uris":{"android":"levelo://app?vid=69823fd5-20c7-46ce-85a1-885ebc795c1e","ios":"levelo://app?vid=69823fd5-20c7-46ce-85a1-885ebc795c1e"},"vehicle_type_id":"4","last_reported":1701519092,"current_range_meters":22400,"station_id":"ce4bgi92rcd13ifvqb90","pricing_plan_id":"free"},{"bike_id":"0efd870a-0317-4fbd-9c65-aed4fee17a5e","system_id":"levelo_inurba_marseille","lat":43.299707,"lon":5.384859,"is_reserved":false,"is_disabled":false,"rental_uris":{"android":"levelo://app?vid=0efd870a-0317-4fbd-9c65-aed4fee17a5e","ios":"levelo://app?vid=0efd870a-0317-4fbd-9c65-aed4fee17a5e"},"vehicle_type_id":"4","last_reported":1701519092,"current_range_meters":28400,"station_id":"ce4bgj92rcd13ifvqbd0","pricing_plan_id":"free"},{"bike_id":"8dba526a-b332-4bf3-aed3-dafb4d55fc41","system_id":"levelo_inurba_marseille","lat":43.299707,"lon":5.384859,"is_reserved":false,"is_disabled":false,"rental_uris":{"android":"levelo://app?vid=8dba526a-b332-4bf3-aed3-dafb4d55fc41","ios":"levelo://app?vid=8dba526a-b332-4bf3-aed3-dafb4d55fc41"},"vehicle_type_id":"4","last_reported":1701519092,"current_range_meters":21200,"station_id":"ce4bgj92rcd13ifvqbd0","pricing_plan_id":"free"},{"bike_id":"4aaf18ac-8654-4f2f-a8d8-5e9d8a28c28f","system_id":"levelo_inurba_marseille","lat":43.299717,"lon":5.384845,"is_reserved":false,"is_disabled":false,"rental_uris":{"android":"levelo://app?vid=4aaf18ac-8654-4f2f-a8d8-5e9d8a28c28f","ios":"levelo://app?vid=4aaf18ac-8654-4f2f-a8d8-5e9d8a28c28f"},"vehicle_type_id":"4","last_reported":1701519092,"current_range_meters":20400,"station_id":"ce4bgj92rcd13ifvqbd0","pricing_plan_id":"free"},{"bike_id":"130bf4f4-8d6e-4cd7-888a-f4b8f3e93659","system_id":"levelo_inurba_marseille","lat":43.295279,"lon":5.375048,"is_reserved":false,"is_disabled":false,"rental_uris":{"android":"levelo://app?vid=130bf4f4-8d6e-4cd7-888a-f4b8f3e93659","ios":"levelo://app?vid=130bf4f4-8d6e-4cd7-888a-f4b8f3e93659"},"vehicle_type_id":"4","last_reported":1701519092,"current_range_meters":13200,"station_id":"ce4bgkp2rcd13ifvqbmg","pricing_plan_id":"free"},{"bike_id":"acaa8013-d240-497e-bf91-60f03d6ccf04","system_id":"levelo_inurba_marseille","lat":43.299724,"lon":5.384848,"is_reserved":false,"is_disabled":false,"rental_uris":{"android":"levelo://app?vid=acaa8013-d240-497e-bf91-60f03d6ccf04","ios":"levelo://app?vid=acaa8013-d240-497e-bf91-60f03d6ccf04"},"vehicle_type_id":"4","last_reported":1701519092,"current_range_meters":5600,"station_id":"ce4bgj92rcd13ifvqbd0","pricing_plan_id":"free"},{"bike_id":"567a69da-b5b2-4630-ae3f-fae9aa7ca8d4","system_id":"levelo_inurba_marseille","lat":43.299028,"lon":5.381509,"is_reserved":false,"is_disabled":false,"rental_uris":{"android":"levelo://app?vid=567a69da-b5b2-4630-ae3f-fae9aa7ca8d4","ios":"levelo://app?vid=567a69da-b5b2-4630-ae3f-fae9aa7ca8d4"},"vehicle_type_id":"4","last_reported":1701519092,"current_range_meters":28000,"station_id":"ce4bgj12rcd13ifvqbc0","pricing_plan_id":"free"},{"bike_id":"096af47a-685e-4761-a68c-2934e0c55476","system_id":"levelo_inurba_marseille","lat":43.293259,"lon":5.371586,"is_reserved":false,"is_disabled":false,"rental_uris":{"android":"levelo://app?vid=096af47a-685e-4761-a68c-2934e0c55476","ios":"levelo://app?vid=096af47a-685e-4761-a68c-2934e0c55476"},"vehicle_type_id":"4","last_reported":1701519092,"current_range_meters":19200,"station_id":"ce4bgh92rcd13ifvqb40","pricing_plan_id":"free"},{"bike_id":"e169e80d-feeb-4403-9fe9-d81cb7f37e72","system_id":"levelo_inurba_marseille","lat":43.292749,"lon":5.368402,"is_reserved":false,"is_disabled":false,"rental_uris":{"android":"levelo://app?vid=e169e80d-feeb-4403-9fe9-d81cb7f37e72","ios":"levelo://app?vid=e169e80d-feeb-4403-9fe9-d81cb7f37e72"},"vehicle_type_id":"4","last_reported":1701519092,"current_range_meters":0,"station_id":"ce4bhbp2rcd13ifvqesg","pricing_plan_id":"free"},{"bike_id":"e1bdea2a-1eb6-4663-a0fa-aa8480c66340","system_id":"levelo_inurba_marseille","lat":43.293249,"lon":5.371578,"is_reserved":false,"is_disabled":false,"rental_uris":{"android":"levelo://app?vid=e1bdea2a-1eb6-4663-a0fa-aa8480c66340","ios":"levelo://app?vid=e1bdea2a-1eb6-4663-a0fa-aa8480c66340"},"vehicle_type_id":"4","last_reported":1701519092,"current_range_meters":0,"station_id":"ce4bgh92rcd13ifvqb40","pricing_plan_id":"free"},{"bike_id":"ad9d6f5b-9d95-4a84-b1c9-ae4ec087f206","system_id":"levelo_inurba_marseille","lat":43.293009,"lon":5.374584,"is_reserved":false,"is_disabled":false,"rental_uris":{"android":"levelo://app?vid=ad9d6f5b-9d95-4a84-b1c9-ae4ec087f206","ios":"levelo://app?vid=ad9d6f5b-9d95-4a84-b1c9-ae4ec087f206"},"vehicle_type_id":"4","last_reported":1701519092,"current_range_meters":14400,"station_id":"ce4bgi12rcd13ifvqb70","pricing_plan_id":"free"},{"bike_id":"48fdb8e2-5c99-4544-921d-a9dfa37c7aef","system_id":"levelo_inurba_marseille","lat":43.305994,"lon":5.393687,"is_reserved":false,"is_disabled":false,"rental_uris":{"android":"levelo://app?vid=48fdb8e2-5c99-4544-921d-a9dfa37c7aef","ios":"levelo://app?vid=48fdb8e2-5c99-4544-921d-a9dfa37c7aef"},"vehicle_type_id":"4","last_reported":1701519092,"current_range_meters":6000,"station_id":"ce4bh0p2rcd13ifvqd80","pricing_plan_id":"free"},{"bike_id":"460c72c6-c4f9-4e9e-87b8-44f389b236f7","system_id":"levelo_inurba_marseille","lat":43.293824,"lon":5.378559,"is_reserved":false,"is_disabled":false,"rental_uris":{"android":"levelo://app?vid=460c72c6-c4f9-4e9e-87b8-44f389b236f7","ios":"levelo://app?vid=460c72c6-c4f9-4e9e-87b8-44f389b236f7"},"vehicle_type_id":"4","last_reported":1701519092,"current_range_meters":29600,"station_id":"ce4bgjh2rcd13ifvqbf0","pricing_plan_id":"free"},{"bike_id":"95f144f2-bbf6-4d89-a029-ddb7772e9233","system_id":"levelo_inurba_marseille","lat":43.303002,"lon":5.392142,"is_reserved":false,"is_disabled":false,"rental_uris":{"android":"levelo://app?vid=95f144f2-bbf6-4d89-a029-ddb7772e9233","ios":"levelo://app?vid=95f144f2-bbf6-4d89-a029-ddb7772e9233"},"vehicle_type_id":"4","last_reported":1701519092,"current_range_meters":9600,"station_id":"ce4bgkh2rcd13ifvqbk0","pricing_plan_id":"free"},{"bike_id":"f3b364e6-b7d4-4a7b-b889-c4b9c9dce1e3","system_id":"levelo_inurba_marseille","lat":43.292311,"lon":5.360731,"is_reserved":false,"is_disabled":false,"rental_uris":{"android":"levelo://app?vid=f3b364e6-b7d4-4a7b-b889-c4b9c9dce1e3","ios":"levelo://app?vid=f3b364e6-b7d4-4a7b-b889-c4b9c9dce1e3"},"vehicle_type_id":"4","last_reported":1701519092,"current_range_meters":4800,"station_id":"ce4bhbh2rcd13ifvqeqg","pricing_plan_id":"free"},{"bike_id":"62faff46-2399-4f6e-9d9d-31b960fcafcd","system_id":"levelo_inurba_marseille","lat":43.30085,"lon":5.390856,"is_reserved":false,"is_disabled":false,"rental_uris":{"android":"levelo://app?vid=62faff46-2399-4f6e-9d9d-31b960fcafcd","ios":"levelo://app?vid=62faff46-2399-4f6e-9d9d-31b960fcafcd"},"vehicle_type_id":"4","last_reported":1701519092,"current_range_meters":24000,"station_id":"ce4bh192rcd13ifvqdb0","pricing_plan_id":"free"},{"bike_id":"00f5067f-a4f8-4eb2-ba7c-667a52cd79a2","system_id":"levelo_inurba_marseille","lat":43.30085,"lon":5.390856,"is_reserved":false,"is_disabled":false,"rental_uris":{"android":"levelo://app?vid=00f5067f-a4f8-4eb2-ba7c-667a52cd79a2","ios":"levelo://app?vid=00f5067f-a4f8-4eb2-ba7c-667a52cd79a2"},"vehicle_type_id":"4","last_reported":1701519092,"current_range_meters":24800,"station_id":"ce4bh192rcd13ifvqdb0","pricing_plan_id":"free"},{"bike_id":"7c98f5c5-dd07-4357-ad4a-d1248f38fec6","system_id":"levelo_inurba_marseille","lat":43.30085,"lon":5.390856,"is_reserved":false,"is_disabled":false,"rental_uris":{"android":"levelo://app?vid=7c98f5c5-dd07-4357-ad4a-d1248f38fec6","ios":"levelo://app?vid=7c98f5c5-dd07-4357-ad4a-d1248f38fec6"},"vehicle_type_id":"4","last_reported":1701519092,"current_range_meters":21600,"station_id":"ce4bh192rcd13ifvqdb0","pricing_plan_id":"free"},{"bike_id":"cfa25986-c46a-4b26-8008-42aab59e81ef","system_id":"levelo_inurba_marseille","lat":43.291671,"lon":5.371575,"is_reserved":false,"is_disabled":false,"rental_uris":{"android":"levelo://app?vid=cfa25986-c46a-4b26-8008-42aab59e81ef","ios":"levelo://app?vid=cfa25986-c46a-4b26-8008-42aab59e81ef"},"vehicle_type_id":"4","last_reported":1701519092,"current_range_meters":5600,"station_id":"ce4bha92rcd13ifvqeh0","pricing_plan_id":"free"},{"bike_id":"c91e2acc-9649-4fd3-9f25-5bc27e028ee4","system_id":"levelo_inurba_marseille","lat":43.291671,"lon":5.371575,"is_reserved":false,"is_disabled":false,"rental_uris":{"android":"levelo://app?vid=c91e2acc-9649-4fd3-9f25-5bc27e028ee4","ios":"levelo://app?vid=c91e2acc-9649-4fd3-9f25-5bc27e028ee4"},"vehicle_type_id":"4","last_reported":1701519092,"current_range_meters":18400,"station_id":"ce4bha92rcd13ifvqeh0","pricing_plan_id":"free"},{"bike_id":"ace7a274-8291-49b8-9af0-f4364538d0ab","system_id":"levelo_inurba_marseille","lat":43.290779,"lon":5.371482,"is_reserved":false,"is_disabled":false,"rental_uris":{"android":"levelo://app?vid=ace7a274-8291-49b8-9af0-f4364538d0ab","ios":"levelo://app?vid=ace7a274-8291-49b8-9af0-f4364538d0ab"},"vehicle_type_id":"4","last_reported":1701519092,"current_range_meters":8000,"station_id":"ce4bh5p2rcd13ifvqe4g","pricing_plan_id":"free"},{"bike_id":"a90a3383-4aac-4630-99d3-5800fb7706b7","system_id":"levelo_inurba_marseille","lat":43.294153,"lon":5.386305,"is_reserved":false,"is_disabled":false,"rental_uris":{"android":"levelo://app?vid=a90a3383-4aac-4630-99d3-5800fb7706b7","ios":"levelo://app?vid=a90a3383-4aac-4630-99d3-5800fb7706b7"},"vehicle_type_id":"4","last_reported":1701519092,"current_range_meters":0,"station_id":"ce4bh2h2rcd13ifvqdh0","pricing_plan_id":"free"},{"bike_id":"04301beb-6851-4ea2-bacc-8a426388bdd2","system_id":"levelo_inurba_marseille","lat":43.292644,"lon":5.384257,"is_reserved":false,"is_disabled":false,"rental_uris":{"android":"levelo://app?vid=04301beb-6851-4ea2-bacc-8a426388bdd2","ios":"levelo://app?vid=04301beb-6851-4ea2-bacc-8a426388bdd2"},"vehicle_type_id":"4","last_reported":1701519092,"current_range_meters":22400,"station_id":"ce4bh692rcd13ifvqea0","pricing_plan_id":"free"},{"bike_id":"a6468dd2-6632-46da-be39-0cc8552c84c7","system_id":"levelo_inurba_marseille","lat":43.33041,"lon":5.3892,"is_reserved":false,"is_disabled":false,"rental_uris":{"android":"levelo://app?vid=a6468dd2-6632-46da-be39-0cc8552c84c7","ios":"levelo://app?vid=a6468dd2-6632-46da-be39-0cc8552c84c7"},"vehicle_type_id":"4","last_reported":1701519092,"current_range_meters":28800,"station_id":"ce4bhr92rcd13ifvqhrg","pricing_plan_id":"free"},{"bike_id":"8ccb7084-0ab1-47b9-ba1a-4f5d0b6f14c6","system_id":"levelo_inurba_marseille","lat":43.290103,"lon":5.356114,"is_reserved":false,"is_disabled":false,"rental_uris":{"android":"levelo://app?vid=8ccb7084-0ab1-47b9-ba1a-4f5d0b6f14c6","ios":"levelo://app?vid=8ccb7084-0ab1-47b9-ba1a-4f5d0b6f14c6"},"vehicle_type_id":"4","last_reported":1701519092,"current_range_meters":0,"station_id":"ce4bhb92rcd13ifvqen0","pricing_plan_id":"free"},{"bike_id":"b38135b0-bb14-4c25-bf29-b49d406cc922","system_id":"levelo_inurba_marseille","lat":43.33044,"lon":5.38925,"is_reserved":false,"is_disabled":false,"rental_uris":{"android":"levelo://app?vid=b38135b0-bb14-4c25-bf29-b49d406cc922","ios":"levelo://app?vid=b38135b0-bb14-4c25-bf29-b49d406cc922"},"vehicle_type_id":"4","last_reported":1701519092,"current_range_meters":800,"station_id":"ce4bhr92rcd13ifvqhrg","pricing_plan_id":"free"},{"bike_id":"89414d7e-6244-4fd7-9a7f-feacfada60a1","system_id":"levelo_inurba_marseille","lat":43.290103,"lon":5.356114,"is_reserved":false,"is_disabled":false,"rental_uris":{"android":"levelo://app?vid=89414d7e-6244-4fd7-9a7f-feacfada60a1","ios":"levelo://app?vid=89414d7e-6244-4fd7-9a7f-feacfada60a1"},"vehicle_type_id":"4","last_reported":1701519092,"current_range_meters":24800,"station_id":"ce4bhb92rcd13ifvqen0","pricing_plan_id":"free"},{"bike_id":"9e63fae7-97da-4378-82e0-78bd2dfb6939","system_id":"levelo_inurba_marseille","lat":43.295169,"lon":5.390426,"is_reserved":false,"is_disabled":false,"rental_uris":{"android":"levelo://app?vid=9e63fae7-97da-4378-82e0-78bd2dfb6939","ios":"levelo://app?vid=9e63fae7-97da-4378-82e0-78bd2dfb6939"},"vehicle_type_id":"4","last_reported":1701519092,"current_range_meters":11600,"station_id":"ce4bh3p2rcd13ifvqdp0","pricing_plan_id":"free"},{"bike_id":"125485a5-5797-4389-9622-c87036818813","system_id":"levelo_inurba_marseille","lat":43.295169,"lon":5.390426,"is_reserved":false,"is_disabled":false,"rental_uris":{"android":"levelo://app?vid=125485a5-5797-4389-9622-c87036818813","ios":"levelo://app?vid=125485a5-5797-4389-9622-c87036818813"},"vehicle_type_id":"4","last_reported":1701519092,"current_range_meters":10400,"station_id":"ce4bh3p2rcd13ifvqdp0","pricing_plan_id":"free"},{"bike_id":"5c282972-64a0-4fd1-8fdc-6a38e620fb8a","system_id":"levelo_inurba_marseille","lat":43.312609,"lon":5.401662,"is_reserved":false,"is_disabled":false,"rental_uris":{"android":"levelo://app?vid=5c282972-64a0-4fd1-8fdc-6a38e620fb8a","ios":"levelo://app?vid=5c282972-64a0-4fd1-8fdc-6a38e620fb8a"},"vehicle_type_id":"4","last_reported":1701519092,"current_range_meters":20800,"station_id":"ce4bh092rcd13ifvqd30","pricing_plan_id":"free"},{"bike_id":"573ad2f1-9df2-4d63-85a6-e9c011daa2f5","system_id":"levelo_inurba_marseille","lat":43.309371,"lon":5.401449,"is_reserved":false,"is_disabled":false,"rental_uris":{"android":"levelo://app?vid=573ad2f1-9df2-4d63-85a6-e9c011daa2f5","ios":"levelo://app?vid=573ad2f1-9df2-4d63-85a6-e9c011daa2f5"},"vehicle_type_id":"4","last_reported":1701519092,"current_range_meters":0,"station_id":"ce4bgvp2rcd13ifvqct0","pricing_plan_id":"free"},{"bike_id":"61e668b5-1d41-431c-9321-9b47ec3db05e","system_id":"levelo_inurba_marseille","lat":43.30642,"lon":5.401031,"is_reserved":false,"is_disabled":false,"rental_uris":{"android":"levelo://app?vid=61e668b5-1d41-431c-9321-9b47ec3db05e","ios":"levelo://app?vid=61e668b5-1d41-431c-9321-9b47ec3db05e"},"vehicle_type_id":"4","last_reported":1701519092,"current_range_meters":24800,"station_id":"ce4bh112rcd13ifvqda0","pricing_plan_id":"free"},{"bike_id":"c7ed2eb5-0e65-4e1a-b84a-2aa756c404d2","system_id":"levelo_inurba_marseille","lat":43.30642,"lon":5.401031,"is_reserved":false,"is_disabled":false,"rental_uris":{"android":"levelo://app?vid=c7ed2eb5-0e65-4e1a-b84a-2aa756c404d2","ios":"levelo://app?vid=c7ed2eb5-0e65-4e1a-b84a-2aa756c404d2"},"vehicle_type_id":"4","last_reported":1701519092,"current_range_meters":2400,"station_id":"ce4bh112rcd13ifvqda0","pricing_plan_id":"free"},{"bike_id":"7d66d434-88de-49b6-a655-1a7944d742d6","system_id":"levelo_inurba_marseille","lat":43.301117,"lon":5.398795,"is_reserved":false,"is_disabled":false,"rental_uris":{"android":"levelo://app?vid=7d66d434-88de-49b6-a655-1a7944d742d6","ios":"levelo://app?vid=7d66d434-88de-49b6-a655-1a7944d742d6"},"vehicle_type_id":"4","last_reported":1701519092,"current_range_meters":12000,"station_id":"ce4bh0h2rcd13ifvqd40","pricing_plan_id":"free"},{"bike_id":"ab7f3df7-a31d-41a3-b104-a2aab40b4c6e","system_id":"levelo_inurba_marseille","lat":43.30138,"lon":5.39869,"is_reserved":false,"is_disabled":false,"rental_uris":{"android":"levelo://app?vid=ab7f3df7-a31d-41a3-b104-a2aab40b4c6e","ios":"levelo://app?vid=ab7f3df7-a31d-41a3-b104-a2aab40b4c6e"},"vehicle_type_id":"4","last_reported":1701519092,"current_range_meters":21200,"station_id":"ce4bh0h2rcd13ifvqd40","pricing_plan_id":"free"},{"bike_id":"66039bfb-efb5-4832-a7ec-9fa8c7f62f51","system_id":"levelo_inurba_marseille","lat":43.301297,"lon":5.398663,"is_reserved":false,"is_disabled":false,"rental_uris":{"android":"levelo://app?vid=66039bfb-efb5-4832-a7ec-9fa8c7f62f51","ios":"levelo://app?vid=66039bfb-efb5-4832-a7ec-9fa8c7f62f51"},"vehicle_type_id":"4","last_reported":1701519092,"current_range_meters":29200,"station_id":"ce4bh0h2rcd13ifvqd40","pricing_plan_id":"free"},{"bike_id":"59f2d4fa-4081-4b37-9e39-4fdd8d6bd7cb","system_id":"levelo_inurba_marseille","lat":43.301117,"lon":5.398795,"is_reserved":false,"is_disabled":false,"rental_uris":{"android":"levelo://app?vid=59f2d4fa-4081-4b37-9e39-4fdd8d6bd7cb","ios":"levelo://app?vid=59f2d4fa-4081-4b37-9e39-4fdd8d6bd7cb"},"vehicle_type_id":"4","last_reported":1701519092,"current_range_meters":24000,"station_id":"ce4bh0h2rcd13ifvqd40","pricing_plan_id":"free"},{"bike_id":"3579df4d-2146-4b61-8971-ebe9b5352ef1","system_id":"levelo_inurba_marseille","lat":43.286961,"lon":5.373785,"is_reserved":false,"is_disabled":false,"rental_uris":{"android":"levelo://app?vid=3579df4d-2146-4b61-8971-ebe9b5352ef1","ios":"levelo://app?vid=3579df4d-2146-4b61-8971-ebe9b5352ef1"},"vehicle_type_id":"4","last_reported":1701519092,"current_range_meters":21200,"station_id":"ce4bh3p2rcd13ifvqdq0","pricing_plan_id":"free"},{"bike_id":"fff08b32-4f51-43d1-acc2-615004482cd9","system_id":"levelo_inurba_marseille","lat":43.286961,"lon":5.373785,"is_reserved":false,"is_disabled":false,"rental_uris":{"android":"levelo://app?vid=fff08b32-4f51-43d1-acc2-615004482cd9","ios":"levelo://app?vid=fff08b32-4f51-43d1-acc2-615004482cd9"},"vehicle_type_id":"4","last_reported":1701519092,"current_range_meters":21200,"station_id":"ce4bh3p2rcd13ifvqdq0","pricing_plan_id":"free"},{"bike_id":"1ef09340-7237-41e1-9cf7-33fe09b0ab78","system_id":"levelo_inurba_marseille","lat":43.29518,"lon":5.39401,"is_reserved":false,"is_disabled":false,"rental_uris":{"android":"levelo://app?vid=1ef09340-7237-41e1-9cf7-33fe09b0ab78","ios":"levelo://app?vid=1ef09340-7237-41e1-9cf7-33fe09b0ab78"},"vehicle_type_id":"4","last_reported":1701519092,"current_range_meters":0,"station_id":"ce4bh292rcd13ifvqdf0","pricing_plan_id":"free"},{"bike_id":"7b62414f-0b2a-4538-aeb0-c32300be273e","system_id":"levelo_inurba_marseille","lat":43.289307,"lon":5.38406,"is_reserved":false,"is_disabled":false,"rental_uris":{"android":"levelo://app?vid=7b62414f-0b2a-4538-aeb0-c32300be273e","ios":"levelo://app?vid=7b62414f-0b2a-4538-aeb0-c32300be273e"},"vehicle_type_id":"4","last_reported":1701519092,"current_range_meters":23600,"station_id":"ce4bh612rcd13ifvqe6g","pricing_plan_id":"free"},{"bike_id":"5ffc400f-750d-4d9b-b5a6-2cfaafcfe2c6","system_id":"levelo_inurba_marseille","lat":43.286039,"lon":5.370679,"is_reserved":false,"is_disabled":false,"rental_uris":{"android":"levelo://app?vid=5ffc400f-750d-4d9b-b5a6-2cfaafcfe2c6","ios":"levelo://app?vid=5ffc400f-750d-4d9b-b5a6-2cfaafcfe2c6"},"vehicle_type_id":"4","last_reported":1701519092,"current_range_meters":28800,"station_id":"ce4bht12rcd13ifvqi60","pricing_plan_id":"free"},{"bike_id":"abdf7621-70da-4425-b07a-0e4b2eaaefd9","system_id":"levelo_inurba_marseille","lat":43.28609,"lon":5.37063,"is_reserved":false,"is_disabled":false,"rental_uris":{"android":"levelo://app?vid=abdf7621-70da-4425-b07a-0e4b2eaaefd9","ios":"levelo://app?vid=abdf7621-70da-4425-b07a-0e4b2eaaefd9"},"vehicle_type_id":"4","last_reported":1701519092,"current_range_meters":4800,"station_id":"ce4bht12rcd13ifvqi60","pricing_plan_id":"free"},{"bike_id":"94b45bc8-6fc4-4b1a-aa8c-61fc503c43cc","system_id":"levelo_inurba_marseille","lat":43.287185,"lon":5.379373,"is_reserved":false,"is_disabled":false,"rental_uris":{"android":"levelo://app?vid=94b45bc8-6fc4-4b1a-aa8c-61fc503c43cc","ios":"levelo://app?vid=94b45bc8-6fc4-4b1a-aa8c-61fc503c43cc"},"vehicle_type_id":"4","last_reported":1701519092,"current_range_meters":11600,"station_id":"ce4bh9p2rcd13ifvqec0","pricing_plan_id":"free"},{"bike_id":"8d43b7c5-ec1d-4e09-8fa3-04de2d98cf15","system_id":"levelo_inurba_marseille","lat":43.31645,"lon":5.40433,"is_reserved":false,"is_disabled":false,"rental_uris":{"android":"levelo://app?vid=8d43b7c5-ec1d-4e09-8fa3-04de2d98cf15","ios":"levelo://app?vid=8d43b7c5-ec1d-4e09-8fa3-04de2d98cf15"},"vehicle_type_id":"4","last_reported":1701519092,"current_range_meters":13200,"station_id":"ce4bh012rcd13ifvqd00","pricing_plan_id":"free"},{"bike_id":"d00f8335-7ec8-40f7-9d1f-35eb0e867a27","system_id":"levelo_inurba_marseille","lat":43.284534,"lon":5.358662,"is_reserved":false,"is_disabled":false,"rental_uris":{"android":"levelo://app?vid=d00f8335-7ec8-40f7-9d1f-35eb0e867a27","ios":"levelo://app?vid=d00f8335-7ec8-40f7-9d1f-35eb0e867a27"},"vehicle_type_id":"4","last_reported":1701519092,"current_range_meters":14800,"station_id":"ce4bhah2rcd13ifvqei0","pricing_plan_id":"free"},{"bike_id":"f21b84d4-95bd-41b2-ba9c-eab25ba4ae49","system_id":"levelo_inurba_marseille","lat":43.285856,"lon":5.350771,"is_reserved":false,"is_disabled":false,"rental_uris":{"android":"levelo://app?vid=f21b84d4-95bd-41b2-ba9c-eab25ba4ae49","ios":"levelo://app?vid=f21b84d4-95bd-41b2-ba9c-eab25ba4ae49"},"vehicle_type_id":"4","last_reported":1701519092,"current_range_meters":22400,"station_id":"ce4bhch2rcd13ifvqeug","pricing_plan_id":"free"},{"bike_id":"febd4a4e-db1b-4c75-9e01-728722cb9fa8","system_id":"levelo_inurba_marseille","lat":43.283998,"lon":5.375062,"is_reserved":false,"is_disabled":false,"rental_uris":{"android":"levelo://app?vid=febd4a4e-db1b-4c75-9e01-728722cb9fa8","ios":"levelo://app?vid=febd4a4e-db1b-4c75-9e01-728722cb9fa8"},"vehicle_type_id":"4","last_reported":1701519092,"current_range_meters":20400,"station_id":"ce4bh412rcd13ifvqds0","pricing_plan_id":"free"},{"bike_id":"33d4dc76-0e7e-4a2f-90a9-17c6aee1355d","system_id":"levelo_inurba_marseille","lat":43.285848,"lon":5.350787,"is_reserved":false,"is_disabled":false,"rental_uris":{"android":"levelo://app?vid=33d4dc76-0e7e-4a2f-90a9-17c6aee1355d","ios":"levelo://app?vid=33d4dc76-0e7e-4a2f-90a9-17c6aee1355d"},"vehicle_type_id":"4","last_reported":1701519092,"current_range_meters":25600,"station_id":"ce4bhch2rcd13ifvqeug","pricing_plan_id":"free"},{"bike_id":"bf44bb9c-a7f4-4bc8-b9ed-872f5b7eaa07","system_id":"levelo_inurba_marseille","lat":43.283998,"lon":5.375062,"is_reserved":false,"is_disabled":false,"rental_uris":{"android":"levelo://app?vid=bf44bb9c-a7f4-4bc8-b9ed-872f5b7eaa07","ios":"levelo://app?vid=bf44bb9c-a7f4-4bc8-b9ed-872f5b7eaa07"},"vehicle_type_id":"4","last_reported":1701519092,"current_range_meters":6000,"station_id":"ce4bh412rcd13ifvqds0","pricing_plan_id":"free"},{"bike_id":"494573bb-f10e-4072-93d3-d1a4905304ce","system_id":"levelo_inurba_marseille","lat":43.283998,"lon":5.375062,"is_reserved":false,"is_disabled":false,"rental_uris":{"android":"levelo://app?vid=494573bb-f10e-4072-93d3-d1a4905304ce","ios":"levelo://app?vid=494573bb-f10e-4072-93d3-d1a4905304ce"},"vehicle_type_id":"4","last_reported":1701519092,"current_range_meters":400,"station_id":"ce4bh412rcd13ifvqds0","pricing_plan_id":"free"},{"bike_id":"846e6cee-4f27-454d-a311-83f74a1459ed","system_id":"levelo_inurba_marseille","lat":43.283998,"lon":5.375062,"is_reserved":false,"is_disabled":false,"rental_uris":{"android":"levelo://app?vid=846e6cee-4f27-454d-a311-83f74a1459ed","ios":"levelo://app?vid=846e6cee-4f27-454d-a311-83f74a1459ed"},"vehicle_type_id":"4","last_reported":1701519092,"current_range_meters":14000,"station_id":"ce4bh412rcd13ifvqds0","pricing_plan_id":"free"},{"bike_id":"be70094a-06b8-44db-9941-1965ff8f05ef","system_id":"levelo_inurba_marseille","lat":43.283998,"lon":5.375062,"is_reserved":false,"is_disabled":false,"rental_uris":{"android":"levelo://app?vid=be70094a-06b8-44db-9941-1965ff8f05ef","ios":"levelo://app?vid=be70094a-06b8-44db-9941-1965ff8f05ef"},"vehicle_type_id":"4","last_reported":1701519092,"current_range_meters":18400,"station_id":"ce4bh412rcd13ifvqds0","pricing_plan_id":"free"},{"bike_id":"2bcfc01a-a9aa-46b8-bfed-256fe54c3c08","system_id":"levelo_inurba_marseille","lat":43.295713,"lon":5.399639,"is_reserved":false,"is_disabled":false,"rental_uris":{"android":"levelo://app?vid=2bcfc01a-a9aa-46b8-bfed-256fe54c3c08","ios":"levelo://app?vid=2bcfc01a-a9aa-46b8-bfed-256fe54c3c08"},"vehicle_type_id":"4","last_reported":1701519092,"current_range_meters":7600,"station_id":"ce4bh312rcd13ifvqdj0","pricing_plan_id":"free"},{"bike_id":"0d5d7ab8-9ae7-432f-9189-bf46aad59761","system_id":"levelo_inurba_marseille","lat":43.319179,"lon":5.407725,"is_reserved":false,"is_disabled":false,"rental_uris":{"android":"levelo://app?vid=0d5d7ab8-9ae7-432f-9189-bf46aad59761","ios":"levelo://app?vid=0d5d7ab8-9ae7-432f-9189-bf46aad59761"},"vehicle_type_id":"4","last_reported":1701519092,"current_range_meters":31200,"station_id":"ce4bhq12rcd13ifvqhig","pricing_plan_id":"free"},{"bike_id":"f99fc4d8-709b-4cee-a32c-2cdd6f1e8b1e","system_id":"levelo_inurba_marseille","lat":43.337168,"lon":5.391825,"is_reserved":false,"is_disabled":false,"rental_uris":{"android":"levelo://app?vid=f99fc4d8-709b-4cee-a32c-2cdd6f1e8b1e","ios":"levelo://app?vid=f99fc4d8-709b-4cee-a32c-2cdd6f1e8b1e"},"vehicle_type_id":"4","last_reported":1701519092,"current_range_meters":26400,"station_id":"ce4bhr92rcd13ifvqhsg","pricing_plan_id":"free"},{"bike_id":"4714f7cd-5ff4-41d0-870b-3e9261538b58","system_id":"levelo_inurba_marseille","lat":43.323464,"lon":5.406297,"is_reserved":false,"is_disabled":false,"rental_uris":{"android":"levelo://app?vid=4714f7cd-5ff4-41d0-870b-3e9261538b58","ios":"levelo://app?vid=4714f7cd-5ff4-41d0-870b-3e9261538b58"},"vehicle_type_id":"4","last_reported":1701519092,"current_range_meters":27200,"station_id":"ce4bhq92rcd13ifvqhjg","pricing_plan_id":"free"},{"bike_id":"4092b413-a8f0-49fd-8cc3-69bf3f509a40","system_id":"levelo_inurba_marseille","lat":43.32339,"lon":5.40634,"is_reserved":false,"is_disabled":false,"rental_uris":{"android":"levelo://app?vid=4092b413-a8f0-49fd-8cc3-69bf3f509a40","ios":"levelo://app?vid=4092b413-a8f0-49fd-8cc3-69bf3f509a40"},"vehicle_type_id":"4","last_reported":1701519092,"current_range_meters":10400,"station_id":"ce4bhq92rcd13ifvqhjg","pricing_plan_id":"free"},{"bike_id":"c1b63376-22d5-4c1d-9864-33ad2ede2b58","system_id":"levelo_inurba_marseille","lat":43.297946,"lon":5.404063,"is_reserved":false,"is_disabled":false,"rental_uris":{"android":"levelo://app?vid=c1b63376-22d5-4c1d-9864-33ad2ede2b58","ios":"levelo://app?vid=c1b63376-22d5-4c1d-9864-33ad2ede2b58"},"vehicle_type_id":"4","last_reported":1701519092,"current_range_meters":16800,"station_id":"ce4bh112rcd13ifvqd90","pricing_plan_id":"free"},{"bike_id":"e5a50bc2-d426-4d68-92c1-c1f63055eec9","system_id":"levelo_inurba_marseille","lat":43.29795,"lon":5.404086,"is_reserved":false,"is_disabled":false,"rental_uris":{"android":"levelo://app?vid=e5a50bc2-d426-4d68-92c1-c1f63055eec9","ios":"levelo://app?vid=e5a50bc2-d426-4d68-92c1-c1f63055eec9"},"vehicle_type_id":"4","last_reported":1701519092,"current_range_meters":25200,"station_id":"ce4bh112rcd13ifvqd90","pricing_plan_id":"free"},{"bike_id":"374ebd9b-d557-4058-ac3c-f516ff79809d","system_id":"levelo_inurba_marseille","lat":43.284217,"lon":5.349697,"is_reserved":false,"is_disabled":false,"rental_uris":{"android":"levelo://app?vid=374ebd9b-d557-4058-ac3c-f516ff79809d","ios":"levelo://app?vid=374ebd9b-d557-4058-ac3c-f516ff79809d"},"vehicle_type_id":"4","last_reported":1701519092,"current_range_meters":26000,"station_id":"ce4bhbh2rcd13ifvqepg","pricing_plan_id":"free"},{"bike_id":"7cc43093-0784-4b41-9f4d-38bc38b19ddb","system_id":"levelo_inurba_marseille","lat":43.292724,"lon":5.401131,"is_reserved":false,"is_disabled":false,"rental_uris":{"android":"levelo://app?vid=7cc43093-0784-4b41-9f4d-38bc38b19ddb","ios":"levelo://app?vid=7cc43093-0784-4b41-9f4d-38bc38b19ddb"},"vehicle_type_id":"4","last_reported":1701519092,"current_range_meters":23600,"station_id":"ce4bh312rcd13ifvqdk0","pricing_plan_id":"free"},{"bike_id":"810da89c-313f-4537-9c62-e8eda877354d","system_id":"levelo_inurba_marseille","lat":43.28039,"lon":5.369297,"is_reserved":false,"is_disabled":false,"rental_uris":{"android":"levelo://app?vid=810da89c-313f-4537-9c62-e8eda877354d","ios":"levelo://app?vid=810da89c-313f-4537-9c62-e8eda877354d"},"vehicle_type_id":"4","last_reported":1701519092,"current_range_meters":28400,"station_id":"ce4bha12rcd13ifvqef0","pricing_plan_id":"free"},{"bike_id":"ed4aee3d-987b-4af7-bf5e-1a5df14073fc","system_id":"levelo_inurba_marseille","lat":43.296263,"lon":5.40601,"is_reserved":false,"is_disabled":false,"rental_uris":{"android":"levelo://app?vid=ed4aee3d-987b-4af7-bf5e-1a5df14073fc","ios":"levelo://app?vid=ed4aee3d-987b-4af7-bf5e-1a5df14073fc"},"vehicle_type_id":"4","last_reported":1701519092,"current_range_meters":21200,"station_id":"ce4bh0h2rcd13ifvqd60","pricing_plan_id":"free"},{"bike_id":"fc198c9f-7bc6-4b18-b48a-78822c0a8ea3","system_id":"levelo_inurba_marseille","lat":43.284462,"lon":5.392121,"is_reserved":false,"is_disabled":false,"rental_uris":{"android":"levelo://app?vid=fc198c9f-7bc6-4b18-b48a-78822c0a8ea3","ios":"levelo://app?vid=fc198c9f-7bc6-4b18-b48a-78822c0a8ea3"},"vehicle_type_id":"4","last_reported":1701519092,"current_range_meters":30000,"station_id":"ce4bhoh2rcd13ifvqh5g","pricing_plan_id":"free"},{"bike_id":"62ff7d4b-ee60-440c-9f08-f0da86151f1d","system_id":"levelo_inurba_marseille","lat":43.28573,"lon":5.394992,"is_reserved":false,"is_disabled":false,"rental_uris":{"android":"levelo://app?vid=62ff7d4b-ee60-440c-9f08-f0da86151f1d","ios":"levelo://app?vid=62ff7d4b-ee60-440c-9f08-f0da86151f1d"},"vehicle_type_id":"4","last_reported":1701519092,"current_range_meters":29600,"station_id":"ce4bh292rcd13ifvqdg0","pricing_plan_id":"free"},{"bike_id":"c1f4160d-50ec-48fb-bf57-f0f78b070827","system_id":"levelo_inurba_marseille","lat":43.279087,"lon":5.380114,"is_reserved":false,"is_disabled":false,"rental_uris":{"android":"levelo://app?vid=c1f4160d-50ec-48fb-bf57-f0f78b070827","ios":"levelo://app?vid=c1f4160d-50ec-48fb-bf57-f0f78b070827"},"vehicle_type_id":"4","last_reported":1701519092,"current_range_meters":30400,"station_id":"ce4bhf92rcd13ifvqf50","pricing_plan_id":"free"},{"bike_id":"a1111c64-6284-4f2e-9efa-40b61137aaca","system_id":"levelo_inurba_marseille","lat":43.287154,"lon":5.399979,"is_reserved":false,"is_disabled":false,"rental_uris":{"android":"levelo://app?vid=a1111c64-6284-4f2e-9efa-40b61137aaca","ios":"levelo://app?vid=a1111c64-6284-4f2e-9efa-40b61137aaca"},"vehicle_type_id":"4","last_reported":1701519092,"current_range_meters":1600,"station_id":"ce4bho92rcd13ifvqh3g","pricing_plan_id":"free"},{"bike_id":"7eb8c9b0-b960-49ca-ac79-6bb7737c1bb4","system_id":"levelo_inurba_marseille","lat":43.287154,"lon":5.399979,"is_reserved":false,"is_disabled":false,"rental_uris":{"android":"levelo://app?vid=7eb8c9b0-b960-49ca-ac79-6bb7737c1bb4","ios":"levelo://app?vid=7eb8c9b0-b960-49ca-ac79-6bb7737c1bb4"},"vehicle_type_id":"4","last_reported":1701519092,"current_range_meters":29600,"station_id":"ce4bho92rcd13ifvqh3g","pricing_plan_id":"free"},{"bike_id":"2a48ec58-a18d-49d2-9fda-72b787fa06c4","system_id":"levelo_inurba_marseille","lat":43.28698,"lon":5.3998,"is_reserved":false,"is_disabled":false,"rental_uris":{"android":"levelo://app?vid=2a48ec58-a18d-49d2-9fda-72b787fa06c4","ios":"levelo://app?vid=2a48ec58-a18d-49d2-9fda-72b787fa06c4"},"vehicle_type_id":"4","last_reported":1701519092,"current_range_meters":0,"station_id":"","pricing_plan_id":"free"},{"bike_id":"1a957205-055f-4983-a426-5c5014ee5074","system_id":"levelo_inurba_marseille","lat":43.320045,"lon":5.415046,"is_reserved":false,"is_disabled":false,"rental_uris":{"android":"levelo://app?vid=1a957205-055f-4983-a426-5c5014ee5074","ios":"levelo://app?vid=1a957205-055f-4983-a426-5c5014ee5074"},"vehicle_type_id":"4","last_reported":1701519092,"current_range_meters":19200,"station_id":"ce4bhq92rcd13ifvqhkg","pricing_plan_id":"free"},{"bike_id":"97209419-73c6-4656-9c00-2d7ec198c9a2","system_id":"levelo_inurba_marseille","lat":43.320045,"lon":5.415046,"is_reserved":false,"is_disabled":false,"rental_uris":{"android":"levelo://app?vid=97209419-73c6-4656-9c00-2d7ec198c9a2","ios":"levelo://app?vid=97209419-73c6-4656-9c00-2d7ec198c9a2"},"vehicle_type_id":"4","last_reported":1701519092,"current_range_meters":28800,"station_id":"ce4bhq92rcd13ifvqhkg","pricing_plan_id":"free"},{"bike_id":"50e49625-7903-4759-92f0-d2ab2d777088","system_id":"levelo_inurba_marseille","lat":43.299577,"lon":5.413277,"is_reserved":false,"is_disabled":false,"rental_uris":{"android":"levelo://app?vid=50e49625-7903-4759-92f0-d2ab2d777088","ios":"levelo://app?vid=50e49625-7903-4759-92f0-d2ab2d777088"},"vehicle_type_id":"4","last_reported":1701519092,"current_range_meters":17200,"station_id":"ce4bhp12rcd13ifvqh9g","pricing_plan_id":"free"},{"bike_id":"3168f798-276e-469f-9ca3-fa4793bfc3ce","system_id":"levelo_inurba_marseille","lat":43.292571,"lon":5.409107,"is_reserved":false,"is_disabled":false,"rental_uris":{"android":"levelo://app?vid=3168f798-276e-469f-9ca3-fa4793bfc3ce","ios":"levelo://app?vid=3168f798-276e-469f-9ca3-fa4793bfc3ce"},"vehicle_type_id":"4","last_reported":1701519092,"current_range_meters":31200,"station_id":"ce4bh192rcd13ifvqdc0","pricing_plan_id":"free"},{"bike_id":"94ab3754-d186-47d2-a53b-3d904610e14a","system_id":"levelo_inurba_marseille","lat":43.292571,"lon":5.409107,"is_reserved":false,"is_disabled":false,"rental_uris":{"android":"levelo://app?vid=94ab3754-d186-47d2-a53b-3d904610e14a","ios":"levelo://app?vid=94ab3754-d186-47d2-a53b-3d904610e14a"},"vehicle_type_id":"4","last_reported":1701519092,"current_range_meters":5200,"station_id":"ce4bh192rcd13ifvqdc0","pricing_plan_id":"free"},{"bike_id":"84b9469e-662f-49ed-9119-09b74453ef70","system_id":"levelo_inurba_marseille","lat":43.292571,"lon":5.409107,"is_reserved":false,"is_disabled":false,"rental_uris":{"android":"levelo://app?vid=84b9469e-662f-49ed-9119-09b74453ef70","ios":"levelo://app?vid=84b9469e-662f-49ed-9119-09b74453ef70"},"vehicle_type_id":"4","last_reported":1701519092,"current_range_meters":16800,"station_id":"ce4bh192rcd13ifvqdc0","pricing_plan_id":"free"},{"bike_id":"54549465-6366-4fc2-b0f4-fa1ef73d7ecf","system_id":"levelo_inurba_marseille","lat":43.292571,"lon":5.409107,"is_reserved":false,"is_disabled":false,"rental_uris":{"android":"levelo://app?vid=54549465-6366-4fc2-b0f4-fa1ef73d7ecf","ios":"levelo://app?vid=54549465-6366-4fc2-b0f4-fa1ef73d7ecf"},"vehicle_type_id":"4","last_reported":1701519092,"current_range_meters":17200,"station_id":"ce4bh192rcd13ifvqdc0","pricing_plan_id":"free"},{"bike_id":"450db66d-8347-4d8e-8a69-491b2270470e","system_id":"levelo_inurba_marseille","lat":43.29258,"lon":5.40905,"is_reserved":false,"is_disabled":false,"rental_uris":{"android":"levelo://app?vid=450db66d-8347-4d8e-8a69-491b2270470e","ios":"levelo://app?vid=450db66d-8347-4d8e-8a69-491b2270470e"},"vehicle_type_id":"4","last_reported":1701519092,"current_range_meters":11600,"station_id":"ce4bh192rcd13ifvqdc0","pricing_plan_id":"free"},{"bike_id":"63dc52bc-1842-4fdb-bcac-f708c83100b1","system_id":"levelo_inurba_marseille","lat":43.325243,"lon":5.414326,"is_reserved":false,"is_disabled":false,"rental_uris":{"android":"levelo://app?vid=63dc52bc-1842-4fdb-bcac-f708c83100b1","ios":"levelo://app?vid=63dc52bc-1842-4fdb-bcac-f708c83100b1"},"vehicle_type_id":"4","last_reported":1701519092,"current_range_meters":30800,"station_id":"ce4bhq12rcd13ifvqhhg","pricing_plan_id":"free"},{"bike_id":"662d7ac0-b60c-4589-b775-59c466096683","system_id":"levelo_inurba_marseille","lat":43.325233,"lon":5.414318,"is_reserved":false,"is_disabled":false,"rental_uris":{"android":"levelo://app?vid=662d7ac0-b60c-4589-b775-59c466096683","ios":"levelo://app?vid=662d7ac0-b60c-4589-b775-59c466096683"},"vehicle_type_id":"4","last_reported":1701519092,"current_range_meters":31200,"station_id":"ce4bhq12rcd13ifvqhhg","pricing_plan_id":"free"},{"bike_id":"0e213d99-3509-4b22-8ea3-187711179b82","system_id":"levelo_inurba_marseille","lat":43.325233,"lon":5.414318,"is_reserved":false,"is_disabled":false,"rental_uris":{"android":"levelo://app?vid=0e213d99-3509-4b22-8ea3-187711179b82","ios":"levelo://app?vid=0e213d99-3509-4b22-8ea3-187711179b82"},"vehicle_type_id":"4","last_reported":1701519092,"current_range_meters":13600,"station_id":"ce4bhq12rcd13ifvqhhg","pricing_plan_id":"free"},{"bike_id":"bcdb50df-13be-4393-adc8-1a79a4e56c43","system_id":"levelo_inurba_marseille","lat":43.28619,"lon":5.40406,"is_reserved":false,"is_disabled":false,"rental_uris":{"android":"levelo://app?vid=bcdb50df-13be-4393-adc8-1a79a4e56c43","ios":"levelo://app?vid=bcdb50df-13be-4393-adc8-1a79a4e56c43"},"vehicle_type_id":"4","last_reported":1701519092,"current_range_meters":0,"station_id":"","pricing_plan_id":"free"},{"bike_id":"a842af7e-ec51-4b4d-b82f-4cbea8a90c44","system_id":"levelo_inurba_marseille","lat":43.280784,"lon":5.396622,"is_reserved":false,"is_disabled":false,"rental_uris":{"android":"levelo://app?vid=a842af7e-ec51-4b4d-b82f-4cbea8a90c44","ios":"levelo://app?vid=a842af7e-ec51-4b4d-b82f-4cbea8a90c44"},"vehicle_type_id":"4","last_reported":1701519092,"current_range_meters":30400,"station_id":"ce4bho12rcd13ifvqh2g","pricing_plan_id":"free"},{"bike_id":"5cc6494a-7c11-48ad-92c1-104e232af1fc","system_id":"levelo_inurba_marseille","lat":43.280784,"lon":5.396622,"is_reserved":false,"is_disabled":false,"rental_uris":{"android":"levelo://app?vid=5cc6494a-7c11-48ad-92c1-104e232af1fc","ios":"levelo://app?vid=5cc6494a-7c11-48ad-92c1-104e232af1fc"},"vehicle_type_id":"4","last_reported":1701519092,"current_range_meters":31200,"station_id":"ce4bho12rcd13ifvqh2g","pricing_plan_id":"free"},{"bike_id":"6d3aedb6-c06b-4d73-ab5f-39f415ff8516","system_id":"levelo_inurba_marseille","lat":43.280784,"lon":5.396622,"is_reserved":false,"is_disabled":false,"rental_uris":{"android":"levelo://app?vid=6d3aedb6-c06b-4d73-ab5f-39f415ff8516","ios":"levelo://app?vid=6d3aedb6-c06b-4d73-ab5f-39f415ff8516"},"vehicle_type_id":"4","last_reported":1701519092,"current_range_meters":30400,"station_id":"ce4bho12rcd13ifvqh2g","pricing_plan_id":"free"},{"bike_id":"2134634a-e430-4c23-95b9-d45e3121336e","system_id":"levelo_inurba_marseille","lat":43.303837,"lon":5.418724,"is_reserved":false,"is_disabled":false,"rental_uris":{"android":"levelo://app?vid=2134634a-e430-4c23-95b9-d45e3121336e","ios":"levelo://app?vid=2134634a-e430-4c23-95b9-d45e3121336e"},"vehicle_type_id":"4","last_reported":1701519092,"current_range_meters":15600,"station_id":"ce4bhop2rcd13ifvqh7g","pricing_plan_id":"free"},{"bike_id":"30c61c09-cc78-4bec-b446-133418e9b920","system_id":"levelo_inurba_marseille","lat":43.273613,"lon":5.362705,"is_reserved":false,"is_disabled":false,"rental_uris":{"android":"levelo://app?vid=30c61c09-cc78-4bec-b446-133418e9b920","ios":"levelo://app?vid=30c61c09-cc78-4bec-b446-133418e9b920"},"vehicle_type_id":"4","last_reported":1701519092,"current_range_meters":17600,"station_id":"ce4bhbh2rcd13ifvqeo0","pricing_plan_id":"free"},{"bike_id":"d5934ef7-1166-4100-9804-3dc5ca4ddeb0","system_id":"levelo_inurba_marseille","lat":43.275625,"lon":5.384392,"is_reserved":false,"is_disabled":false,"rental_uris":{"android":"levelo://app?vid=d5934ef7-1166-4100-9804-3dc5ca4ddeb0","ios":"levelo://app?vid=d5934ef7-1166-4100-9804-3dc5ca4ddeb0"},"vehicle_type_id":"4","last_reported":1701519092,"current_range_meters":25600,"station_id":"ce4bhh92rcd13ifvqfi0","pricing_plan_id":"free"},{"bike_id":"fcb6bee6-49f8-46af-ade1-f763061572f7","system_id":"levelo_inurba_marseille","lat":43.33612,"lon":5.410321,"is_reserved":false,"is_disabled":false,"rental_uris":{"android":"levelo://app?vid=fcb6bee6-49f8-46af-ade1-f763061572f7","ios":"levelo://app?vid=fcb6bee6-49f8-46af-ade1-f763061572f7"},"vehicle_type_id":"4","last_reported":1701519092,"current_range_meters":25200,"station_id":"ce4bhqh2rcd13ifvqhmg","pricing_plan_id":"free"},{"bike_id":"451e5711-912b-4e6f-ba92-14f20d0093e3","system_id":"levelo_inurba_marseille","lat":43.336158,"lon":5.410222,"is_reserved":false,"is_disabled":false,"rental_uris":{"android":"levelo://app?vid=451e5711-912b-4e6f-ba92-14f20d0093e3","ios":"levelo://app?vid=451e5711-912b-4e6f-ba92-14f20d0093e3"},"vehicle_type_id":"4","last_reported":1701519092,"current_range_meters":20400,"station_id":"ce4bhqh2rcd13ifvqhmg","pricing_plan_id":"free"},{"bike_id":"031638a0-bfc0-4060-8e2b-d5c6505097a4","system_id":"levelo_inurba_marseille","lat":43.33608,"lon":5.41032,"is_reserved":false,"is_disabled":false,"rental_uris":{"android":"levelo://app?vid=031638a0-bfc0-4060-8e2b-d5c6505097a4","ios":"levelo://app?vid=031638a0-bfc0-4060-8e2b-d5c6505097a4"},"vehicle_type_id":"4","last_reported":1701519092,"current_range_meters":8000,"station_id":"ce4bhqh2rcd13ifvqhmg","pricing_plan_id":"free"},{"bike_id":"1fcc700b-9878-48ff-82a6-4ebbbe2aa1db","system_id":"levelo_inurba_marseille","lat":43.279975,"lon":5.40009,"is_reserved":false,"is_disabled":false,"rental_uris":{"android":"levelo://app?vid=1fcc700b-9878-48ff-82a6-4ebbbe2aa1db","ios":"levelo://app?vid=1fcc700b-9878-48ff-82a6-4ebbbe2aa1db"},"vehicle_type_id":"4","last_reported":1701519092,"current_range_meters":30000,"station_id":"ce4bho92rcd13ifvqh4g","pricing_plan_id":"free"},{"bike_id":"50415618-e0c7-4c83-af76-e7d428c4b51d","system_id":"levelo_inurba_marseille","lat":43.279952,"lon":5.400085,"is_reserved":false,"is_disabled":false,"rental_uris":{"android":"levelo://app?vid=50415618-e0c7-4c83-af76-e7d428c4b51d","ios":"levelo://app?vid=50415618-e0c7-4c83-af76-e7d428c4b51d"},"vehicle_type_id":"4","last_reported":1701519092,"current_range_meters":30400,"station_id":"ce4bho92rcd13ifvqh4g","pricing_plan_id":"free"},{"bike_id":"894f6494-585b-4b1b-a39f-39b137cf17d0","system_id":"levelo_inurba_marseille","lat":43.310785,"lon":5.424305,"is_reserved":false,"is_disabled":false,"rental_uris":{"android":"levelo://app?vid=894f6494-585b-4b1b-a39f-39b137cf17d0","ios":"levelo://app?vid=894f6494-585b-4b1b-a39f-39b137cf17d0"},"vehicle_type_id":"4","last_reported":1701519092,"current_range_meters":10000,"station_id":"ce4bhp92rcd13ifvqhag","pricing_plan_id":"free"},{"bike_id":"ec8cda27-8133-4ca8-abd6-6a978c40f976","system_id":"levelo_inurba_marseille","lat":43.34141,"lon":5.40898,"is_reserved":false,"is_disabled":false,"rental_uris":{"android":"levelo://app?vid=ec8cda27-8133-4ca8-abd6-6a978c40f976","ios":"levelo://app?vid=ec8cda27-8133-4ca8-abd6-6a978c40f976"},"vehicle_type_id":"4","last_reported":1701519092,"current_range_meters":31200,"station_id":"ce4bhqh2rcd13ifvqhlg","pricing_plan_id":"free"},{"bike_id":"8b3579ab-35bc-4a35-8baa-38266321c4ae","system_id":"levelo_inurba_marseille","lat":43.273129,"lon":5.390725,"is_reserved":false,"is_disabled":false,"rental_uris":{"android":"levelo://app?vid=8b3579ab-35bc-4a35-8baa-38266321c4ae","ios":"levelo://app?vid=8b3579ab-35bc-4a35-8baa-38266321c4ae"},"vehicle_type_id":"4","last_reported":1701519092,"current_range_meters":24000,"station_id":"ce4bhgp2rcd13ifvqfe0","pricing_plan_id":"free"},{"bike_id":"c44a0174-07b3-4c74-85c5-d1b6d5258c1b","system_id":"levelo_inurba_marseille","lat":43.304139,"lon":5.425251,"is_reserved":false,"is_disabled":false,"rental_uris":{"android":"levelo://app?vid=c44a0174-07b3-4c74-85c5-d1b6d5258c1b","ios":"levelo://app?vid=c44a0174-07b3-4c74-85c5-d1b6d5258c1b"},"vehicle_type_id":"4","last_reported":1701519092,"current_range_meters":28000,"station_id":"ce4bhoh2rcd13ifvqh6g","pricing_plan_id":"free"},{"bike_id":"a3527c32-1fa7-4ebe-9b65-a997c7b104de","system_id":"levelo_inurba_marseille","lat":43.30415,"lon":5.42538,"is_reserved":false,"is_disabled":false,"rental_uris":{"android":"levelo://app?vid=a3527c32-1fa7-4ebe-9b65-a997c7b104de","ios":"levelo://app?vid=a3527c32-1fa7-4ebe-9b65-a997c7b104de"},"vehicle_type_id":"4","last_reported":1701519092,"current_range_meters":14400,"station_id":"ce4bhoh2rcd13ifvqh6g","pricing_plan_id":"free"},{"bike_id":"ceafb40a-f653-49c2-9496-bde372a5f440","system_id":"levelo_inurba_marseille","lat":43.30415,"lon":5.42543,"is_reserved":false,"is_disabled":false,"rental_uris":{"android":"levelo://app?vid=ceafb40a-f653-49c2-9496-bde372a5f440","ios":"levelo://app?vid=ceafb40a-f653-49c2-9496-bde372a5f440"},"vehicle_type_id":"4","last_reported":1701519092,"current_range_meters":10400,"station_id":"ce4bhoh2rcd13ifvqh6g","pricing_plan_id":"free"},{"bike_id":"87741a5e-3e91-4ee0-88c9-e2e7a99b37de","system_id":"levelo_inurba_marseille","lat":43.278128,"lon":5.407195,"is_reserved":false,"is_disabled":false,"rental_uris":{"android":"levelo://app?vid=87741a5e-3e91-4ee0-88c9-e2e7a99b37de","ios":"levelo://app?vid=87741a5e-3e91-4ee0-88c9-e2e7a99b37de"},"vehicle_type_id":"4","last_reported":1701519092,"current_range_meters":12000,"station_id":"ce4bhnh2rcd13ifvqgtg","pricing_plan_id":"free"},{"bike_id":"275a0514-61f1-4bd1-9bda-e7bd9402272e","system_id":"levelo_inurba_marseille","lat":43.27812,"lon":5.40707,"is_reserved":false,"is_disabled":false,"rental_uris":{"android":"levelo://app?vid=275a0514-61f1-4bd1-9bda-e7bd9402272e","ios":"levelo://app?vid=275a0514-61f1-4bd1-9bda-e7bd9402272e"},"vehicle_type_id":"4","last_reported":1701519092,"current_range_meters":21600,"station_id":"ce4bhnh2rcd13ifvqgtg","pricing_plan_id":"free"},{"bike_id":"ece981b1-a2c8-40fe-bfb3-c2f268f1221b","system_id":"levelo_inurba_marseille","lat":43.278128,"lon":5.407195,"is_reserved":false,"is_disabled":false,"rental_uris":{"android":"levelo://app?vid=ece981b1-a2c8-40fe-bfb3-c2f268f1221b","ios":"levelo://app?vid=ece981b1-a2c8-40fe-bfb3-c2f268f1221b"},"vehicle_type_id":"4","last_reported":1701519092,"current_range_meters":12800,"station_id":"ce4bhnh2rcd13ifvqgtg","pricing_plan_id":"free"},{"bike_id":"28c156c8-b334-4b6e-912d-07eb8c566eb1","system_id":"levelo_inurba_marseille","lat":43.26183,"lon":5.37447,"is_reserved":false,"is_disabled":false,"rental_uris":{"android":"levelo://app?vid=28c156c8-b334-4b6e-912d-07eb8c566eb1","ios":"levelo://app?vid=28c156c8-b334-4b6e-912d-07eb8c566eb1"},"vehicle_type_id":"4","last_reported":1701519092,"current_range_meters":27200,"station_id":"ce4bhgp2rcd13ifvqfc0","pricing_plan_id":"free"},{"bike_id":"67704ef3-ca54-4d3f-9715-4faeac5f986e","system_id":"levelo_inurba_marseille","lat":43.261782,"lon":5.374515,"is_reserved":false,"is_disabled":false,"rental_uris":{"android":"levelo://app?vid=67704ef3-ca54-4d3f-9715-4faeac5f986e","ios":"levelo://app?vid=67704ef3-ca54-4d3f-9715-4faeac5f986e"},"vehicle_type_id":"4","last_reported":1701519092,"current_range_meters":31200,"station_id":"ce4bhgp2rcd13ifvqfc0","pricing_plan_id":"free"},{"bike_id":"237bb99d-fece-43f1-9f85-62d271b67d3c","system_id":"levelo_inurba_marseille","lat":43.2618,"lon":5.37447,"is_reserved":false,"is_disabled":false,"rental_uris":{"android":"levelo://app?vid=237bb99d-fece-43f1-9f85-62d271b67d3c","ios":"levelo://app?vid=237bb99d-fece-43f1-9f85-62d271b67d3c"},"vehicle_type_id":"4","last_reported":1701519092,"current_range_meters":1600,"station_id":"ce4bhgp2rcd13ifvqfc0","pricing_plan_id":"free"},{"bike_id":"c71160fc-c7b7-4c0b-8b7c-da5014dcb825","system_id":"levelo_inurba_marseille","lat":43.31712,"lon":5.43711,"is_reserved":false,"is_disabled":false,"rental_uris":{"android":"levelo://app?vid=c71160fc-c7b7-4c0b-8b7c-da5014dcb825","ios":"levelo://app?vid=c71160fc-c7b7-4c0b-8b7c-da5014dcb825"},"vehicle_type_id":"4","last_reported":1701519092,"current_range_meters":30800,"station_id":"ce4bhp92rcd13ifvqhcg","pricing_plan_id":"free"},{"bike_id":"5370e7c7-72e4-4184-907c-66330e837323","system_id":"levelo_inurba_marseille","lat":43.271388,"lon":5.409269,"is_reserved":false,"is_disabled":false,"rental_uris":{"android":"levelo://app?vid=5370e7c7-72e4-4184-907c-66330e837323","ios":"levelo://app?vid=5370e7c7-72e4-4184-907c-66330e837323"},"vehicle_type_id":"4","last_reported":1701519092,"current_range_meters":28400,"station_id":"ce4bhl12rcd13ifvqgf0","pricing_plan_id":"free"},{"bike_id":"7a2a8f4e-1d80-4245-9b59-69d522866531","system_id":"levelo_inurba_marseille","lat":43.26202,"lon":5.379299,"is_reserved":false,"is_disabled":false,"rental_uris":{"android":"levelo://app?vid=7a2a8f4e-1d80-4245-9b59-69d522866531","ios":"levelo://app?vid=7a2a8f4e-1d80-4245-9b59-69d522866531"},"vehicle_type_id":"4","last_reported":1701519092,"current_range_meters":11600,"station_id":"ce4bhjp2rcd13ifvqg90","pricing_plan_id":"free"},{"bike_id":"7f32f468-8585-44fa-86be-b7b17f36c846","system_id":"levelo_inurba_marseille","lat":43.26202,"lon":5.379299,"is_reserved":false,"is_disabled":false,"rental_uris":{"android":"levelo://app?vid=7f32f468-8585-44fa-86be-b7b17f36c846","ios":"levelo://app?vid=7f32f468-8585-44fa-86be-b7b17f36c846"},"vehicle_type_id":"4","last_reported":1701519092,"current_range_meters":800,"station_id":"ce4bhjp2rcd13ifvqg90","pricing_plan_id":"free"},{"bike_id":"888c3ff8-34c8-4001-a130-1dcf49bb0c14","system_id":"levelo_inurba_marseille","lat":43.28159,"lon":5.42633,"is_reserved":false,"is_disabled":false,"rental_uris":{"android":"levelo://app?vid=888c3ff8-34c8-4001-a130-1dcf49bb0c14","ios":"levelo://app?vid=888c3ff8-34c8-4001-a130-1dcf49bb0c14"},"vehicle_type_id":"4","last_reported":1701519092,"current_range_meters":30400,"station_id":"ce4bhnh2rcd13ifvqgug","pricing_plan_id":"free"},{"bike_id":"5f9ed990-f7e5-42ce-970c-56ec5f74b839","system_id":"levelo_inurba_marseille","lat":43.281548,"lon":5.42643,"is_reserved":false,"is_disabled":false,"rental_uris":{"android":"levelo://app?vid=5f9ed990-f7e5-42ce-970c-56ec5f74b839","ios":"levelo://app?vid=5f9ed990-f7e5-42ce-970c-56ec5f74b839"},"vehicle_type_id":"4","last_reported":1701519092,"current_range_meters":13200,"station_id":"ce4bhnh2rcd13ifvqgug","pricing_plan_id":"free"},{"bike_id":"3532a786-7312-4db1-88be-2e5e8a274941","system_id":"levelo_inurba_marseille","lat":43.281551,"lon":5.426531,"is_reserved":false,"is_disabled":false,"rental_uris":{"android":"levelo://app?vid=3532a786-7312-4db1-88be-2e5e8a274941","ios":"levelo://app?vid=3532a786-7312-4db1-88be-2e5e8a274941"},"vehicle_type_id":"4","last_reported":1701519092,"current_range_meters":23600,"station_id":"ce4bhnh2rcd13ifvqgug","pricing_plan_id":"free"},{"bike_id":"81f4f34a-8d36-4c09-961e-e42c57ef3483","system_id":"levelo_inurba_marseille","lat":43.2815,"lon":5.4265,"is_reserved":false,"is_disabled":false,"rental_uris":{"android":"levelo://app?vid=81f4f34a-8d36-4c09-961e-e42c57ef3483","ios":"levelo://app?vid=81f4f34a-8d36-4c09-961e-e42c57ef3483"},"vehicle_type_id":"4","last_reported":1701519092,"current_range_meters":0,"station_id":"ce4bhnh2rcd13ifvqgug","pricing_plan_id":"free"},{"bike_id":"dc679395-d5dc-4dde-ab61-f61c3a5974b5","system_id":"levelo_inurba_marseille","lat":43.258224,"lon":5.394369,"is_reserved":false,"is_disabled":false,"rental_uris":{"android":"levelo://app?vid=dc679395-d5dc-4dde-ab61-f61c3a5974b5","ios":"levelo://app?vid=dc679395-d5dc-4dde-ab61-f61c3a5974b5"},"vehicle_type_id":"4","last_reported":1701519092,"current_range_meters":29200,"station_id":"ce4bhip2rcd13ifvqft0","pricing_plan_id":"free"},{"bike_id":"f7e6f8a5-7397-4fae-84c9-fc8068586f9c","system_id":"levelo_inurba_marseille","lat":43.255756,"lon":5.382303,"is_reserved":false,"is_disabled":false,"rental_uris":{"android":"levelo://app?vid=f7e6f8a5-7397-4fae-84c9-fc8068586f9c","ios":"levelo://app?vid=f7e6f8a5-7397-4fae-84c9-fc8068586f9c"},"vehicle_type_id":"4","last_reported":1701519092,"current_range_meters":15200,"station_id":"ce4bhih2rcd13ifvqfs0","pricing_plan_id":"free"},{"bike_id":"5c0f8e0f-5196-4886-99ee-6bb1efd8cd0f","system_id":"levelo_inurba_marseille","lat":43.258224,"lon":5.394369,"is_reserved":false,"is_disabled":false,"rental_uris":{"android":"levelo://app?vid=5c0f8e0f-5196-4886-99ee-6bb1efd8cd0f","ios":"levelo://app?vid=5c0f8e0f-5196-4886-99ee-6bb1efd8cd0f"},"vehicle_type_id":"4","last_reported":1701519092,"current_range_meters":25200,"station_id":"ce4bhip2rcd13ifvqft0","pricing_plan_id":"free"},{"bike_id":"9674e8f8-f952-4f67-9e19-2055063310fa","system_id":"levelo_inurba_marseille","lat":43.258224,"lon":5.394369,"is_reserved":false,"is_disabled":false,"rental_uris":{"android":"levelo://app?vid=9674e8f8-f952-4f67-9e19-2055063310fa","ios":"levelo://app?vid=9674e8f8-f952-4f67-9e19-2055063310fa"},"vehicle_type_id":"4","last_reported":1701519092,"current_range_meters":17600,"station_id":"ce4bhip2rcd13ifvqft0","pricing_plan_id":"free"},{"bike_id":"962b74e7-03ef-4247-b9e1-285f2c85cf56","system_id":"levelo_inurba_marseille","lat":43.258224,"lon":5.394369,"is_reserved":false,"is_disabled":false,"rental_uris":{"android":"levelo://app?vid=962b74e7-03ef-4247-b9e1-285f2c85cf56","ios":"levelo://app?vid=962b74e7-03ef-4247-b9e1-285f2c85cf56"},"vehicle_type_id":"4","last_reported":1701519092,"current_range_meters":30000,"station_id":"ce4bhip2rcd13ifvqft0","pricing_plan_id":"free"},{"bike_id":"17e7339a-b3b6-432a-8fb3-b505eec10997","system_id":"levelo_inurba_marseille","lat":43.27073,"lon":5.42286,"is_reserved":false,"is_disabled":false,"rental_uris":{"android":"levelo://app?vid=17e7339a-b3b6-432a-8fb3-b505eec10997","ios":"levelo://app?vid=17e7339a-b3b6-432a-8fb3-b505eec10997"},"vehicle_type_id":"4","last_reported":1701519092,"current_range_meters":0,"station_id":"ce4bhk92rcd13ifvqgb0","pricing_plan_id":"free"},{"bike_id":"c14b295b-4946-4f08-b86f-22b70d927e0f","system_id":"levelo_inurba_marseille","lat":43.258562,"lon":5.398915,"is_reserved":false,"is_disabled":false,"rental_uris":{"android":"levelo://app?vid=c14b295b-4946-4f08-b86f-22b70d927e0f","ios":"levelo://app?vid=c14b295b-4946-4f08-b86f-22b70d927e0f"},"vehicle_type_id":"4","last_reported":1701519092,"current_range_meters":29600,"station_id":"ce4bhl92rcd13ifvqghg","pricing_plan_id":"free"},{"bike_id":"bdc72d7c-9d46-4016-8a92-851cd50823f9","system_id":"levelo_inurba_marseille","lat":43.259009,"lon":5.40929,"is_reserved":false,"is_disabled":false,"rental_uris":{"android":"levelo://app?vid=bdc72d7c-9d46-4016-8a92-851cd50823f9","ios":"levelo://app?vid=bdc72d7c-9d46-4016-8a92-851cd50823f9"},"vehicle_type_id":"4","last_reported":1701519092,"current_range_meters":29600,"station_id":"ce4bhm92rcd13ifvqglg","pricing_plan_id":"free"},{"bike_id":"d3da93f7-ba2e-4c49-b20f-ed910f1466e5","system_id":"levelo_inurba_marseille","lat":43.25726,"lon":5.41107,"is_reserved":false,"is_disabled":false,"rental_uris":{"android":"levelo://app?vid=d3da93f7-ba2e-4c49-b20f-ed910f1466e5","ios":"levelo://app?vid=d3da93f7-ba2e-4c49-b20f-ed910f1466e5"},"vehicle_type_id":"4","last_reported":1701519092,"current_range_meters":29200,"station_id":"ce4bhkp2rcd13ifvqgd0","pricing_plan_id":"free"},{"bike_id":"99ee76bf-253b-45b6-98c6-870f3c2c3282","system_id":"levelo_inurba_marseille","lat":43.25725,"lon":5.41111,"is_reserved":false,"is_disabled":false,"rental_uris":{"android":"levelo://app?vid=99ee76bf-253b-45b6-98c6-870f3c2c3282","ios":"levelo://app?vid=99ee76bf-253b-45b6-98c6-870f3c2c3282"},"vehicle_type_id":"4","last_reported":1701519092,"current_range_meters":28000,"station_id":"ce4bhkp2rcd13ifvqgd0","pricing_plan_id":"free"},{"bike_id":"7ae9d20b-20b6-494e-b650-d8d4514463c2","system_id":"levelo_inurba_marseille","lat":43.250966,"lon":5.395186,"is_reserved":false,"is_disabled":false,"rental_uris":{"android":"levelo://app?vid=7ae9d20b-20b6-494e-b650-d8d4514463c2","ios":"levelo://app?vid=7ae9d20b-20b6-494e-b650-d8d4514463c2"},"vehicle_type_id":"4","last_reported":1701519092,"current_range_meters":24800,"station_id":"ce4bhm12rcd13ifvqgkg","pricing_plan_id":"free"},{"bike_id":"299a91cc-575e-4138-bd9a-ea3370e1ebf7","system_id":"levelo_inurba_marseille","lat":43.250966,"lon":5.395186,"is_reserved":false,"is_disabled":false,"rental_uris":{"android":"levelo://app?vid=299a91cc-575e-4138-bd9a-ea3370e1ebf7","ios":"levelo://app?vid=299a91cc-575e-4138-bd9a-ea3370e1ebf7"},"vehicle_type_id":"4","last_reported":1701519092,"current_range_meters":30800,"station_id":"ce4bhm12rcd13ifvqgkg","pricing_plan_id":"free"},{"bike_id":"49cf244f-8449-45b4-b1a6-e6c185352436","system_id":"levelo_inurba_marseille","lat":43.24693,"lon":5.382096,"is_reserved":false,"is_disabled":false,"rental_uris":{"android":"levelo://app?vid=49cf244f-8449-45b4-b1a6-e6c185352436","ios":"levelo://app?vid=49cf244f-8449-45b4-b1a6-e6c185352436"},"vehicle_type_id":"4","last_reported":1701519092,"current_range_meters":8000,"station_id":"ce4bhih2rcd13ifvqfr0","pricing_plan_id":"free"},{"bike_id":"bff08cdb-adb9-42f1-a1d8-d220c80d630b","system_id":"levelo_inurba_marseille","lat":43.24394,"lon":5.37066,"is_reserved":false,"is_disabled":false,"rental_uris":{"android":"levelo://app?vid=bff08cdb-adb9-42f1-a1d8-d220c80d630b","ios":"levelo://app?vid=bff08cdb-adb9-42f1-a1d8-d220c80d630b"},"vehicle_type_id":"4","last_reported":1701519092,"current_range_meters":17600,"station_id":"ce4bhhh2rcd13ifvqfk0","pricing_plan_id":"free"},{"bike_id":"69f1bff5-758b-4ced-b763-896e81f472be","system_id":"levelo_inurba_marseille","lat":43.243884,"lon":5.370736,"is_reserved":false,"is_disabled":false,"rental_uris":{"android":"levelo://app?vid=69f1bff5-758b-4ced-b763-896e81f472be","ios":"levelo://app?vid=69f1bff5-758b-4ced-b763-896e81f472be"},"vehicle_type_id":"4","last_reported":1701519092,"current_range_meters":31600,"station_id":"ce4bhhh2rcd13ifvqfk0","pricing_plan_id":"free"},{"bike_id":"1524a7d2-a7b4-4eec-a912-244da3bea6df","system_id":"levelo_inurba_marseille","lat":43.243884,"lon":5.370736,"is_reserved":false,"is_disabled":false,"rental_uris":{"android":"levelo://app?vid=1524a7d2-a7b4-4eec-a912-244da3bea6df","ios":"levelo://app?vid=1524a7d2-a7b4-4eec-a912-244da3bea6df"},"vehicle_type_id":"4","last_reported":1701519092,"current_range_meters":24400,"station_id":"ce4bhhh2rcd13ifvqfk0","pricing_plan_id":"free"},{"bike_id":"0c00f1f7-91b0-4c50-948b-6ce70c0f8465","system_id":"levelo_inurba_marseille","lat":43.243884,"lon":5.370736,"is_reserved":false,"is_disabled":false,"rental_uris":{"android":"levelo://app?vid=0c00f1f7-91b0-4c50-948b-6ce70c0f8465","ios":"levelo://app?vid=0c00f1f7-91b0-4c50-948b-6ce70c0f8465"},"vehicle_type_id":"4","last_reported":1701519092,"current_range_meters":30000,"station_id":"ce4bhhh2rcd13ifvqfk0","pricing_plan_id":"free"},{"bike_id":"6c8cb8f2-78a6-4550-afbc-0685fd23a735","system_id":"levelo_inurba_marseille","lat":43.243884,"lon":5.370736,"is_reserved":false,"is_disabled":false,"rental_uris":{"android":"levelo://app?vid=6c8cb8f2-78a6-4550-afbc-0685fd23a735","ios":"levelo://app?vid=6c8cb8f2-78a6-4550-afbc-0685fd23a735"},"vehicle_type_id":"4","last_reported":1701519092,"current_range_meters":12800,"station_id":"ce4bhhh2rcd13ifvqfk0","pricing_plan_id":"free"},{"bike_id":"0b646662-7b3b-4d1f-af1e-8a73df809df7","system_id":"levelo_inurba_marseille","lat":43.245581,"lon":5.395069,"is_reserved":false,"is_disabled":false,"rental_uris":{"android":"levelo://app?vid=0b646662-7b3b-4d1f-af1e-8a73df809df7","ios":"levelo://app?vid=0b646662-7b3b-4d1f-af1e-8a73df809df7"},"vehicle_type_id":"4","last_reported":1701519092,"current_range_meters":12400,"station_id":"ce4bhlp2rcd13ifvqgjg","pricing_plan_id":"free"},{"bike_id":"7c10843f-66c0-4831-8891-f7c2fb890597","system_id":"levelo_inurba_marseille","lat":43.245447,"lon":5.395237,"is_reserved":false,"is_disabled":false,"rental_uris":{"android":"levelo://app?vid=7c10843f-66c0-4831-8891-f7c2fb890597","ios":"levelo://app?vid=7c10843f-66c0-4831-8891-f7c2fb890597"},"vehicle_type_id":"4","last_reported":1701519092,"current_range_meters":30800,"station_id":"ce4bhlp2rcd13ifvqgjg","pricing_plan_id":"free"},{"bike_id":"14637921-8532-48ff-9ea6-d122e591480f","system_id":"levelo_inurba_marseille","lat":43.23969,"lon":5.36618,"is_reserved":false,"is_disabled":false,"rental_uris":{"android":"levelo://app?vid=14637921-8532-48ff-9ea6-d122e591480f","ios":"levelo://app?vid=14637921-8532-48ff-9ea6-d122e591480f"},"vehicle_type_id":"4","last_reported":1701519092,"current_range_meters":16800,"station_id":"ce4bhi12rcd13ifvqfp0","pricing_plan_id":"free"},{"bike_id":"c0197cd5-5a74-447c-ab71-94860d861299","system_id":"levelo_inurba_marseille","lat":43.239588,"lon":5.366238,"is_reserved":false,"is_disabled":false,"rental_uris":{"android":"levelo://app?vid=c0197cd5-5a74-447c-ab71-94860d861299","ios":"levelo://app?vid=c0197cd5-5a74-447c-ab71-94860d861299"},"vehicle_type_id":"4","last_reported":1701519092,"current_range_meters":31200,"station_id":"ce4bhi12rcd13ifvqfp0","pricing_plan_id":"free"},{"bike_id":"b9849de8-3287-44d6-9d9e-1e3fdd66ae3e","system_id":"levelo_inurba_marseille","lat":43.239588,"lon":5.366238,"is_reserved":false,"is_disabled":false,"rental_uris":{"android":"levelo://app?vid=b9849de8-3287-44d6-9d9e-1e3fdd66ae3e","ios":"levelo://app?vid=b9849de8-3287-44d6-9d9e-1e3fdd66ae3e"},"vehicle_type_id":"4","last_reported":1701519092,"current_range_meters":31200,"station_id":"ce4bhi12rcd13ifvqfp0","pricing_plan_id":"free"},{"bike_id":"b101f295-ac85-402a-8afe-c635c176f114","system_id":"levelo_inurba_marseille","lat":43.28527,"lon":5.46058,"is_reserved":false,"is_disabled":false,"rental_uris":{"android":"levelo://app?vid=b101f295-ac85-402a-8afe-c635c176f114","ios":"levelo://app?vid=b101f295-ac85-402a-8afe-c635c176f114"},"vehicle_type_id":"4","last_reported":1701519092,"current_range_meters":24000,"station_id":"","pricing_plan_id":"free"},{"bike_id":"4bb7783e-3418-44df-bf36-eb9259dc4a55","system_id":"levelo_inurba_marseille","lat":43.241782,"lon":5.397261,"is_reserved":false,"is_disabled":false,"rental_uris":{"android":"levelo://app?vid=4bb7783e-3418-44df-bf36-eb9259dc4a55","ios":"levelo://app?vid=4bb7783e-3418-44df-bf36-eb9259dc4a55"},"vehicle_type_id":"4","last_reported":1701519092,"current_range_meters":13600,"station_id":"ce4bhn12rcd13ifvqgpg","pricing_plan_id":"free"},{"bike_id":"6462fbc5-ceb8-47e3-b56d-fc1e69bef19f","system_id":"levelo_inurba_marseille","lat":43.231919,"lon":5.355532,"is_reserved":false,"is_disabled":false,"rental_uris":{"android":"levelo://app?vid=6462fbc5-ceb8-47e3-b56d-fc1e69bef19f","ios":"levelo://app?vid=6462fbc5-ceb8-47e3-b56d-fc1e69bef19f"},"vehicle_type_id":"4","last_reported":1701519092,"current_range_meters":29600,"station_id":"ce4bhu92rcd13ifvqi70","pricing_plan_id":"free"},{"bike_id":"6382809b-45d0-4ad2-8be7-697249f82077","system_id":"levelo_inurba_marseille","lat":43.231919,"lon":5.355532,"is_reserved":false,"is_disabled":false,"rental_uris":{"android":"levelo://app?vid=6382809b-45d0-4ad2-8be7-697249f82077","ios":"levelo://app?vid=6382809b-45d0-4ad2-8be7-697249f82077"},"vehicle_type_id":"4","last_reported":1701519092,"current_range_meters":31200,"station_id":"ce4bhu92rcd13ifvqi70","pricing_plan_id":"free"},{"bike_id":"c07b0be8-3ec1-4f51-b661-de25758a5a36","system_id":"levelo_inurba_marseille","lat":43.231919,"lon":5.355532,"is_reserved":false,"is_disabled":false,"rental_uris":{"android":"levelo://app?vid=c07b0be8-3ec1-4f51-b661-de25758a5a36","ios":"levelo://app?vid=c07b0be8-3ec1-4f51-b661-de25758a5a36"},"vehicle_type_id":"4","last_reported":1701519092,"current_range_meters":15600,"station_id":"ce4bhu92rcd13ifvqi70","pricing_plan_id":"free"},{"bike_id":"dc03c4db-7fa1-40b2-b6c4-6e2c35355c9e","system_id":"levelo_inurba_marseille","lat":43.231919,"lon":5.355532,"is_reserved":false,"is_disabled":false,"rental_uris":{"android":"levelo://app?vid=dc03c4db-7fa1-40b2-b6c4-6e2c35355c9e","ios":"levelo://app?vid=dc03c4db-7fa1-40b2-b6c4-6e2c35355c9e"},"vehicle_type_id":"4","last_reported":1701519092,"current_range_meters":19600,"station_id":"ce4bhu92rcd13ifvqi70","pricing_plan_id":"free"},{"bike_id":"cf3102c4-88e0-4a41-86b7-69a76932d3e6","system_id":"levelo_inurba_marseille","lat":43.231923,"lon":5.355545,"is_reserved":false,"is_disabled":false,"rental_uris":{"android":"levelo://app?vid=cf3102c4-88e0-4a41-86b7-69a76932d3e6","ios":"levelo://app?vid=cf3102c4-88e0-4a41-86b7-69a76932d3e6"},"vehicle_type_id":"4","last_reported":1701519092,"current_range_meters":31200,"station_id":"ce4bhu92rcd13ifvqi70","pricing_plan_id":"free"},{"bike_id":"2b04708e-eed8-4471-916a-9fdeea01eec7","system_id":"levelo_inurba_marseille","lat":43.231923,"lon":5.355545,"is_reserved":false,"is_disabled":false,"rental_uris":{"android":"levelo://app?vid=2b04708e-eed8-4471-916a-9fdeea01eec7","ios":"levelo://app?vid=2b04708e-eed8-4471-916a-9fdeea01eec7"},"vehicle_type_id":"4","last_reported":1701519092,"current_range_meters":14400,"station_id":"ce4bhu92rcd13ifvqi70","pricing_plan_id":"free"},{"bike_id":"b8f295a9-10f8-4746-b4a0-4491480d1fc4","system_id":"levelo_inurba_marseille","lat":43.231919,"lon":5.355532,"is_reserved":false,"is_disabled":false,"rental_uris":{"android":"levelo://app?vid=b8f295a9-10f8-4746-b4a0-4491480d1fc4","ios":"levelo://app?vid=b8f295a9-10f8-4746-b4a0-4491480d1fc4"},"vehicle_type_id":"4","last_reported":1701519092,"current_range_meters":24800,"station_id":"ce4bhu92rcd13ifvqi70","pricing_plan_id":"free"},{"bike_id":"9e01ee59-41e6-425c-ae1f-3e33312fefcd","system_id":"levelo_inurba_marseille","lat":43.231923,"lon":5.355545,"is_reserved":false,"is_disabled":false,"rental_uris":{"android":"levelo://app?vid=9e01ee59-41e6-425c-ae1f-3e33312fefcd","ios":"levelo://app?vid=9e01ee59-41e6-425c-ae1f-3e33312fefcd"},"vehicle_type_id":"4","last_reported":1701519092,"current_range_meters":20800,"station_id":"ce4bhu92rcd13ifvqi70","pricing_plan_id":"free"},{"bike_id":"9dc97c96-8e15-4d34-bc42-2b10dd83e9f4","system_id":"levelo_inurba_marseille","lat":43.23194,"lon":5.3555,"is_reserved":false,"is_disabled":false,"rental_uris":{"android":"levelo://app?vid=9dc97c96-8e15-4d34-bc42-2b10dd83e9f4","ios":"levelo://app?vid=9dc97c96-8e15-4d34-bc42-2b10dd83e9f4"},"vehicle_type_id":"4","last_reported":1701519092,"current_range_meters":19600,"station_id":"ce4bhu92rcd13ifvqi70","pricing_plan_id":"free"},{"bike_id":"8d32c52d-9c9c-458e-b295-d4c6432bf0b1","system_id":"levelo_inurba_marseille","lat":43.23192,"lon":5.35547,"is_reserved":false,"is_disabled":false,"rental_uris":{"android":"levelo://app?vid=8d32c52d-9c9c-458e-b295-d4c6432bf0b1","ios":"levelo://app?vid=8d32c52d-9c9c-458e-b295-d4c6432bf0b1"},"vehicle_type_id":"4","last_reported":1701519092,"current_range_meters":10000,"station_id":"ce4bhu92rcd13ifvqi70","pricing_plan_id":"free"},{"bike_id":"177a82e2-68da-4975-a68b-b32649f3d1f2","system_id":"levelo_inurba_marseille","lat":43.231923,"lon":5.355545,"is_reserved":false,"is_disabled":false,"rental_uris":{"android":"levelo://app?vid=177a82e2-68da-4975-a68b-b32649f3d1f2","ios":"levelo://app?vid=177a82e2-68da-4975-a68b-b32649f3d1f2"},"vehicle_type_id":"4","last_reported":1701519092,"current_range_meters":14400,"station_id":"ce4bhu92rcd13ifvqi70","pricing_plan_id":"free"},{"bike_id":"6bd9f065-50d9-4657-9ca0-a006f413d305","system_id":"levelo_inurba_marseille","lat":43.231794,"lon":5.400052,"is_reserved":false,"is_disabled":false,"rental_uris":{"android":"levelo://app?vid=6bd9f065-50d9-4657-9ca0-a006f413d305","ios":"levelo://app?vid=6bd9f065-50d9-4657-9ca0-a006f413d305"},"vehicle_type_id":"4","last_reported":1701519092,"current_range_meters":31200,"station_id":"ce4bhn12rcd13ifvqgqg","pricing_plan_id":"free"},{"bike_id":"22bd98e3-c33f-4c44-ae2b-f96729d36f4f","system_id":"levelo_inurba_marseille","lat":43.23189,"lon":5.39989,"is_reserved":false,"is_disabled":false,"rental_uris":{"android":"levelo://app?vid=22bd98e3-c33f-4c44-ae2b-f96729d36f4f","ios":"levelo://app?vid=22bd98e3-c33f-4c44-ae2b-f96729d36f4f"},"vehicle_type_id":"4","last_reported":1701519092,"current_range_meters":28800,"station_id":"ce4bhn12rcd13ifvqgqg","pricing_plan_id":"free"},{"bike_id":"a926f4bb-1e59-4822-80ea-1d5ff6f2a5c5","system_id":"levelo_inurba_marseille","lat":43.231855,"lon":5.399813,"is_reserved":false,"is_disabled":false,"rental_uris":{"android":"levelo://app?vid=a926f4bb-1e59-4822-80ea-1d5ff6f2a5c5","ios":"levelo://app?vid=a926f4bb-1e59-4822-80ea-1d5ff6f2a5c5"},"vehicle_type_id":"4","last_reported":1701519092,"current_range_meters":19200,"station_id":"ce4bhn12rcd13ifvqgqg","pricing_plan_id":"free"},{"bike_id":"c2189b33-a31e-4851-9831-001d4716dec5","system_id":"levelo_inurba_marseille","lat":43.231794,"lon":5.400052,"is_reserved":false,"is_disabled":false,"rental_uris":{"android":"levelo://app?vid=c2189b33-a31e-4851-9831-001d4716dec5","ios":"levelo://app?vid=c2189b33-a31e-4851-9831-001d4716dec5"},"vehicle_type_id":"4","last_reported":1701519092,"current_range_meters":14800,"station_id":"ce4bhn12rcd13ifvqgqg","pricing_plan_id":"free"},{"bike_id":"1eeab9a5-d341-4bc8-8d21-ee151ff9d9b2","system_id":"levelo_inurba_marseille","lat":43.23187,"lon":5.399889,"is_reserved":false,"is_disabled":false,"rental_uris":{"android":"levelo://app?vid=1eeab9a5-d341-4bc8-8d21-ee151ff9d9b2","ios":"levelo://app?vid=1eeab9a5-d341-4bc8-8d21-ee151ff9d9b2"},"vehicle_type_id":"4","last_reported":1701519092,"current_range_meters":16000,"station_id":"ce4bhn12rcd13ifvqgqg","pricing_plan_id":"free"},{"bike_id":"d0b35396-6769-42d4-8160-8b44cb829902","system_id":"levelo_inurba_marseille","lat":43.231793,"lon":5.400044,"is_reserved":false,"is_disabled":false,"rental_uris":{"android":"levelo://app?vid=d0b35396-6769-42d4-8160-8b44cb829902","ios":"levelo://app?vid=d0b35396-6769-42d4-8160-8b44cb829902"},"vehicle_type_id":"4","last_reported":1701519092,"current_range_meters":31200,"station_id":"ce4bhn12rcd13ifvqgqg","pricing_plan_id":"free"},{"bike_id":"152a97d8-dbcd-46a9-a438-857d2761add4","system_id":"levelo_inurba_marseille","lat":43.231794,"lon":5.400052,"is_reserved":false,"is_disabled":false,"rental_uris":{"android":"levelo://app?vid=152a97d8-dbcd-46a9-a438-857d2761add4","ios":"levelo://app?vid=152a97d8-dbcd-46a9-a438-857d2761add4"},"vehicle_type_id":"4","last_reported":1701519092,"current_range_meters":8000,"station_id":"ce4bhn12rcd13ifvqgqg","pricing_plan_id":"free"},{"bike_id":"4971a817-c21b-4382-b171-1e3133ca51bb","system_id":"levelo_inurba_marseille","lat":43.2318,"lon":5.39993,"is_reserved":false,"is_disabled":false,"rental_uris":{"android":"levelo://app?vid=4971a817-c21b-4382-b171-1e3133ca51bb","ios":"levelo://app?vid=4971a817-c21b-4382-b171-1e3133ca51bb"},"vehicle_type_id":"4","last_reported":1701519092,"current_range_meters":22400,"station_id":"ce4bhn12rcd13ifvqgqg","pricing_plan_id":"free"},{"bike_id":"457c552c-8af5-4b7b-9f6b-8c901265a623","system_id":"levelo_inurba_marseille","lat":43.231793,"lon":5.400044,"is_reserved":false,"is_disabled":false,"rental_uris":{"android":"levelo://app?vid=457c552c-8af5-4b7b-9f6b-8c901265a623","ios":"levelo://app?vid=457c552c-8af5-4b7b-9f6b-8c901265a623"},"vehicle_type_id":"4","last_reported":1701519092,"current_range_meters":31200,"station_id":"ce4bhn12rcd13ifvqgqg","pricing_plan_id":"free"},{"bike_id":"8a513cfb-2a22-4eaf-90eb-23484384c4e8","system_id":"levelo_inurba_marseille","lat":43.23179,"lon":5.3999,"is_reserved":false,"is_disabled":false,"rental_uris":{"android":"levelo://app?vid=8a513cfb-2a22-4eaf-90eb-23484384c4e8","ios":"levelo://app?vid=8a513cfb-2a22-4eaf-90eb-23484384c4e8"},"vehicle_type_id":"4","last_reported":1701519092,"current_range_meters":7200,"station_id":"ce4bhn12rcd13ifvqgqg","pricing_plan_id":"free"},{"bike_id":"27852c29-47dc-4826-817e-c88bd3a0386e","system_id":"levelo_inurba_marseille","lat":43.23177,"lon":5.39995,"is_reserved":false,"is_disabled":false,"rental_uris":{"android":"levelo://app?vid=27852c29-47dc-4826-817e-c88bd3a0386e","ios":"levelo://app?vid=27852c29-47dc-4826-817e-c88bd3a0386e"},"vehicle_type_id":"4","last_reported":1701519092,"current_range_meters":22400,"station_id":"ce4bhn12rcd13ifvqgqg","pricing_plan_id":"free"},{"bike_id":"a71b0469-b7f0-46ed-b8d8-9469f177123e","system_id":"levelo_inurba_marseille","lat":43.231562,"lon":5.436933,"is_reserved":false,"is_disabled":false,"rental_uris":{"android":"levelo://app?vid=a71b0469-b7f0-46ed-b8d8-9469f177123e","ios":"levelo://app?vid=a71b0469-b7f0-46ed-b8d8-9469f177123e"},"vehicle_type_id":"4","last_reported":1701519092,"current_range_meters":16000,"station_id":"ce4bhmp2rcd13ifvqgog","pricing_plan_id":"free"},{"bike_id":"f50c292b-cc74-4220-88ff-ce7e4d6e67ca","system_id":"levelo_inurba_marseille","lat":43.231562,"lon":5.436933,"is_reserved":false,"is_disabled":false,"rental_uris":{"android":"levelo://app?vid=f50c292b-cc74-4220-88ff-ce7e4d6e67ca","ios":"levelo://app?vid=f50c292b-cc74-4220-88ff-ce7e4d6e67ca"},"vehicle_type_id":"4","last_reported":1701519092,"current_range_meters":4800,"station_id":"ce4bhmp2rcd13ifvqgog","pricing_plan_id":"free"},{"bike_id":"ea0b6868-3337-42dd-a4b5-9db45260014a","system_id":"levelo_inurba_marseille","lat":43.231562,"lon":5.436933,"is_reserved":false,"is_disabled":false,"rental_uris":{"android":"levelo://app?vid=ea0b6868-3337-42dd-a4b5-9db45260014a","ios":"levelo://app?vid=ea0b6868-3337-42dd-a4b5-9db45260014a"},"vehicle_type_id":"4","last_reported":1701519092,"current_range_meters":17200,"station_id":"ce4bhmp2rcd13ifvqgog","pricing_plan_id":"free"}]}}