{"last_updated":1699819606,"ttl":30,"version":"2.2","data":{"bikes":[{"bike_id":"8b0c2599-5283-44f4-b1dd-d7e87defdd6d","system_id":"levelo_inurba_marseille","lat":43.312239,"lon":5.368562,"is_reserved":false,"is_disabled":false,"rental_uris":{"android":"levelo://app?vid=8b0c2599-5283-44f4-b1dd-d7e87defdd6d","ios":"levelo://app?vid=8b0c2599-5283-44f4-b1dd-d7e87defdd6d"},"vehicle_type_id":"4","last_reported":1699819606,"current_range_meters":24800,"station_id":"ce4bgl92rcd13ifvqbq0","pricing_plan_id":"free"},{"bike_id":"8610a0cc-050e-478b-8487-a89ffa55a641","system_id":"levelo_inurba_marseille","lat":43.309076,"lon":5.368465,"is_reserved":false,"is_disabled":false,"rental_uris":{"android":"levelo://app?vid=8610a0cc-050e-478b-8487-a89ffa55a641","ios":"levelo://app?vid=8610a0cc-050e-478b-8487-a89ffa55a641"},"vehicle_type_id":"4","last_reported":1699819606,"current_range_meters":19600,"station_id":"ce4bgn92rcd13ifvqbvg","pricing_plan_id":"free"},{"bike_id":"72400630-41d1-430a-9d82-8ca429c0f94c","system_id":"levelo_inurba_marseille","lat":43.309076,"lon":5.368465,"is_reserved":false,"is_disabled":false,"rental_uris":{"android":"levelo://app?vid=72400630-41d1-430a-9d82-8ca429c0f94c","ios":"levelo://app?vid=72400630-41d1-430a-9d82-8ca429c0f94c"},"vehicle_type_id":"4","last_reported":1699819606,"current_range_meters":18000,"station_id":"ce4bgn92rcd13ifvqbvg","pricing_plan_id":"free"},{"bike_id":"99e86685-13e6-4242-abb5-481ed0c1aed5","system_id":"levelo_inurba_marseille","lat":43.30897,"lon":5.37193,"is_reserved":false,"is_disabled":false,"rental_uris":{"android":"levelo://app?vid=99e86685-13e6-4242-abb5-481ed0c1aed5","ios":"levelo://app?vid=99e86685-13e6-4242-abb5-481ed0c1aed5"},"vehicle_type_id":"4","last_reported":1699819606,"current_range_meters":26400,"station_id":"ce4bguh2rcd13ifvqckg","pricing_plan_id":"free"},{"bike_id":"76b359af-c20b-45d0-a1df-78f4c9a6553a","system_id":"levelo_inurba_marseille","lat":43.30543,"lon":5.36527,"is_reserved":false,"is_disabled":false,"rental_uris":{"android":"levelo://app?vid=76b359af-c20b-45d0-a1df-78f4c9a6553a","ios":"levelo://app?vid=76b359af-c20b-45d0-a1df-78f4c9a6553a"},"vehicle_type_id":"4","last_reported":1699819606,"current_range_meters":13200,"station_id":"ce4bgs12rcd13ifvqcag","pricing_plan_id":"free"},{"bike_id":"7c41a57b-064d-4e36-8334-5bfcaf0ebf40","system_id":"levelo_inurba_marseille","lat":43.305989,"lon":5.37225,"is_reserved":false,"is_disabled":false,"rental_uris":{"android":"levelo://app?vid=7c41a57b-064d-4e36-8334-5bfcaf0ebf40","ios":"levelo://app?vid=7c41a57b-064d-4e36-8334-5bfcaf0ebf40"},"vehicle_type_id":"4","last_reported":1699819606,"current_range_meters":6400,"station_id":"ce4bgqh2rcd13ifvqc4g","pricing_plan_id":"free"},{"bike_id":"cbc71747-df8d-4784-a28e-ea2c810fb35e","system_id":"levelo_inurba_marseille","lat":43.307945,"lon":5.376487,"is_reserved":false,"is_disabled":false,"rental_uris":{"android":"levelo://app?vid=cbc71747-df8d-4784-a28e-ea2c810fb35e","ios":"levelo://app?vid=cbc71747-df8d-4784-a28e-ea2c810fb35e"},"vehicle_type_id":"4","last_reported":1699819606,"current_range_meters":400,"station_id":"ce4bgv92rcd13ifvqcq0","pricing_plan_id":"free"},{"bike_id":"534403e4-0e25-4ae2-bd40-045f3a53269b","system_id":"levelo_inurba_marseille","lat":43.307945,"lon":5.376487,"is_reserved":false,"is_disabled":false,"rental_uris":{"android":"levelo://app?vid=534403e4-0e25-4ae2-bd40-045f3a53269b","ios":"levelo://app?vid=534403e4-0e25-4ae2-bd40-045f3a53269b"},"vehicle_type_id":"4","last_reported":1699819606,"current_range_meters":2800,"station_id":"ce4bgv92rcd13ifvqcq0","pricing_plan_id":"free"},{"bike_id":"57053367-5328-4d78-8951-737f56b37ed9","system_id":"levelo_inurba_marseille","lat":43.319924,"lon":5.373389,"is_reserved":false,"is_disabled":false,"rental_uris":{"android":"levelo://app?vid=57053367-5328-4d78-8951-737f56b37ed9","ios":"levelo://app?vid=57053367-5328-4d78-8951-737f56b37ed9"},"vehicle_type_id":"4","last_reported":1699819606,"current_range_meters":13600,"station_id":"","pricing_plan_id":"free"},{"bike_id":"3569e4a6-5bd1-4542-9936-6599a38ea729","system_id":"levelo_inurba_marseille","lat":43.317075,"lon":5.377367,"is_reserved":false,"is_disabled":false,"rental_uris":{"android":"levelo://app?vid=3569e4a6-5bd1-4542-9936-6599a38ea729","ios":"levelo://app?vid=3569e4a6-5bd1-4542-9936-6599a38ea729"},"vehicle_type_id":"4","last_reported":1699819606,"current_range_meters":28800,"station_id":"ce4bgth2rcd13ifvqch0","pricing_plan_id":"free"},{"bike_id":"9159ac0f-cfcd-4036-88ad-8a6cce2504cd","system_id":"levelo_inurba_marseille","lat":43.30293,"lon":5.36902,"is_reserved":false,"is_disabled":false,"rental_uris":{"android":"levelo://app?vid=9159ac0f-cfcd-4036-88ad-8a6cce2504cd","ios":"levelo://app?vid=9159ac0f-cfcd-4036-88ad-8a6cce2504cd"},"vehicle_type_id":"4","last_reported":1699819606,"current_range_meters":22400,"station_id":"ce4bgqh2rcd13ifvqc5g","pricing_plan_id":"free"},{"bike_id":"e0674c52-253d-4f5e-a7ef-abe85625cb41","system_id":"levelo_inurba_marseille","lat":43.301939,"lon":5.366286,"is_reserved":false,"is_disabled":false,"rental_uris":{"android":"levelo://app?vid=e0674c52-253d-4f5e-a7ef-abe85625cb41","ios":"levelo://app?vid=e0674c52-253d-4f5e-a7ef-abe85625cb41"},"vehicle_type_id":"4","last_reported":1699819606,"current_range_meters":21600,"station_id":"ce4bgrh2rcd13ifvqc8g","pricing_plan_id":"free"},{"bike_id":"7781c119-6648-4607-ad9d-c813fe3c845d","system_id":"levelo_inurba_marseille","lat":43.30803,"lon":5.38142,"is_reserved":false,"is_disabled":false,"rental_uris":{"android":"levelo://app?vid=7781c119-6648-4607-ad9d-c813fe3c845d","ios":"levelo://app?vid=7781c119-6648-4607-ad9d-c813fe3c845d"},"vehicle_type_id":"4","last_reported":1699819606,"current_range_meters":4800,"station_id":"ce4bgt12rcd13ifvqce0","pricing_plan_id":"free"},{"bike_id":"0e348319-4395-4d93-a86c-855c94b159ae","system_id":"levelo_inurba_marseille","lat":43.308017,"lon":5.381434,"is_reserved":false,"is_disabled":false,"rental_uris":{"android":"levelo://app?vid=0e348319-4395-4d93-a86c-855c94b159ae","ios":"levelo://app?vid=0e348319-4395-4d93-a86c-855c94b159ae"},"vehicle_type_id":"4","last_reported":1699819606,"current_range_meters":8800,"station_id":"","pricing_plan_id":"free"},{"bike_id":"a26a672c-8f86-40f5-9e8e-9856cf399a24","system_id":"levelo_inurba_marseille","lat":43.308018,"lon":5.381465,"is_reserved":false,"is_disabled":false,"rental_uris":{"android":"levelo://app?vid=a26a672c-8f86-40f5-9e8e-9856cf399a24","ios":"levelo://app?vid=a26a672c-8f86-40f5-9e8e-9856cf399a24"},"vehicle_type_id":"4","last_reported":1699819606,"current_range_meters":21600,"station_id":"ce4bgt12rcd13ifvqce0","pricing_plan_id":"free"},{"bike_id":"3fb4984a-6013-4ebb-8773-c308071699ec","system_id":"levelo_inurba_marseille","lat":43.32474,"lon":5.36559,"is_reserved":false,"is_disabled":false,"rental_uris":{"android":"levelo://app?vid=3fb4984a-6013-4ebb-8773-c308071699ec","ios":"levelo://app?vid=3fb4984a-6013-4ebb-8773-c308071699ec"},"vehicle_type_id":"4","last_reported":1699819606,"current_range_meters":20000,"station_id":"ce4bhs12rcd13ifvqhvg","pricing_plan_id":"free"},{"bike_id":"3819deec-fe3d-41c7-8346-2b107cb07054","system_id":"levelo_inurba_marseille","lat":43.315237,"lon":5.383797,"is_reserved":false,"is_disabled":false,"rental_uris":{"android":"levelo://app?vid=3819deec-fe3d-41c7-8346-2b107cb07054","ios":"levelo://app?vid=3819deec-fe3d-41c7-8346-2b107cb07054"},"vehicle_type_id":"4","last_reported":1699819606,"current_range_meters":0,"station_id":"","pricing_plan_id":"free"},{"bike_id":"69166d53-ec8e-4a0a-864c-7a29f7650dd8","system_id":"levelo_inurba_marseille","lat":43.321099,"lon":5.380065,"is_reserved":false,"is_disabled":false,"rental_uris":{"android":"levelo://app?vid=69166d53-ec8e-4a0a-864c-7a29f7650dd8","ios":"levelo://app?vid=69166d53-ec8e-4a0a-864c-7a29f7650dd8"},"vehicle_type_id":"4","last_reported":1699819606,"current_range_meters":13200,"station_id":"","pricing_plan_id":"free"},{"bike_id":"cbc1afb7-f33e-480e-bd23-3a85578bc30d","system_id":"levelo_inurba_marseille","lat":43.31995,"lon":5.38153,"is_reserved":false,"is_disabled":false,"rental_uris":{"android":"levelo://app?vid=cbc1afb7-f33e-480e-bd23-3a85578bc30d","ios":"levelo://app?vid=cbc1afb7-f33e-480e-bd23-3a85578bc30d"},"vehicle_type_id":"4","last_reported":1699819606,"current_range_meters":16800,"station_id":"ce4bhr12rcd13ifvqhpg","pricing_plan_id":"free"},{"bike_id":"13d78257-2559-4a10-97b8-aaa7032179bc","system_id":"levelo_inurba_marseille","lat":43.319975,"lon":5.381519,"is_reserved":false,"is_disabled":false,"rental_uris":{"android":"levelo://app?vid=13d78257-2559-4a10-97b8-aaa7032179bc","ios":"levelo://app?vid=13d78257-2559-4a10-97b8-aaa7032179bc"},"vehicle_type_id":"4","last_reported":1699819606,"current_range_meters":0,"station_id":"","pricing_plan_id":"free"},{"bike_id":"3ebc842a-cb95-4cc1-b823-82514d1705d9","system_id":"levelo_inurba_marseille","lat":43.31997,"lon":5.38156,"is_reserved":false,"is_disabled":false,"rental_uris":{"android":"levelo://app?vid=3ebc842a-cb95-4cc1-b823-82514d1705d9","ios":"levelo://app?vid=3ebc842a-cb95-4cc1-b823-82514d1705d9"},"vehicle_type_id":"4","last_reported":1699819606,"current_range_meters":5200,"station_id":"ce4bhr12rcd13ifvqhpg","pricing_plan_id":"free"},{"bike_id":"a38ad7eb-f3a5-4222-9c1e-04f49ae1337a","system_id":"levelo_inurba_marseille","lat":43.32001,"lon":5.38166,"is_reserved":false,"is_disabled":false,"rental_uris":{"android":"levelo://app?vid=a38ad7eb-f3a5-4222-9c1e-04f49ae1337a","ios":"levelo://app?vid=a38ad7eb-f3a5-4222-9c1e-04f49ae1337a"},"vehicle_type_id":"4","last_reported":1699819606,"current_range_meters":21200,"station_id":"ce4bhr12rcd13ifvqhpg","pricing_plan_id":"free"},{"bike_id":"e9aa889d-14f7-4aab-937d-1ce086ae86f7","system_id":"levelo_inurba_marseille","lat":43.29935,"lon":5.365475,"is_reserved":false,"is_disabled":false,"rental_uris":{"android":"levelo://app?vid=e9aa889d-14f7-4aab-937d-1ce086ae86f7","ios":"levelo://app?vid=e9aa889d-14f7-4aab-937d-1ce086ae86f7"},"vehicle_type_id":"4","last_reported":1699819606,"current_range_meters":5200,"station_id":"ce4bgm92rcd13ifvqbr0","pricing_plan_id":"free"},{"bike_id":"b1360e59-ec1c-4bcc-87a5-4eb8a546158c","system_id":"levelo_inurba_marseille","lat":43.305364,"lon":5.384119,"is_reserved":false,"is_disabled":false,"rental_uris":{"android":"levelo://app?vid=b1360e59-ec1c-4bcc-87a5-4eb8a546158c","ios":"levelo://app?vid=b1360e59-ec1c-4bcc-87a5-4eb8a546158c"},"vehicle_type_id":"4","last_reported":1699819606,"current_range_meters":0,"station_id":"ce4bgg92rcd13ifvqb30","pricing_plan_id":"free"},{"bike_id":"573d194b-d5ac-49a5-8d22-3aeef01a2848","system_id":"levelo_inurba_marseille","lat":43.30535,"lon":5.384297,"is_reserved":false,"is_disabled":false,"rental_uris":{"android":"levelo://app?vid=573d194b-d5ac-49a5-8d22-3aeef01a2848","ios":"levelo://app?vid=573d194b-d5ac-49a5-8d22-3aeef01a2848"},"vehicle_type_id":"4","last_reported":1699819606,"current_range_meters":0,"station_id":"ce4bgg92rcd13ifvqb30","pricing_plan_id":"free"},{"bike_id":"90a6cda6-ce5c-4e65-bd16-d0f2f495fa60","system_id":"levelo_inurba_marseille","lat":43.32691,"lon":5.36176,"is_reserved":false,"is_disabled":false,"rental_uris":{"android":"levelo://app?vid=90a6cda6-ce5c-4e65-bd16-d0f2f495fa60","ios":"levelo://app?vid=90a6cda6-ce5c-4e65-bd16-d0f2f495fa60"},"vehicle_type_id":"4","last_reported":1699819606,"current_range_meters":17600,"station_id":"","pricing_plan_id":"free"},{"bike_id":"8950f55a-e75d-4fac-9a7c-f529bc0580a5","system_id":"levelo_inurba_marseille","lat":43.320464,"lon":5.384144,"is_reserved":false,"is_disabled":false,"rental_uris":{"android":"levelo://app?vid=8950f55a-e75d-4fac-9a7c-f529bc0580a5","ios":"levelo://app?vid=8950f55a-e75d-4fac-9a7c-f529bc0580a5"},"vehicle_type_id":"4","last_reported":1699819606,"current_range_meters":8400,"station_id":"","pricing_plan_id":"free"},{"bike_id":"74856dc7-2a28-47f1-aee2-c130d267f007","system_id":"levelo_inurba_marseille","lat":43.31172,"lon":5.38711,"is_reserved":false,"is_disabled":false,"rental_uris":{"android":"levelo://app?vid=74856dc7-2a28-47f1-aee2-c130d267f007","ios":"levelo://app?vid=74856dc7-2a28-47f1-aee2-c130d267f007"},"vehicle_type_id":"4","last_reported":1699819606,"current_range_meters":2800,"station_id":"ce4bgv12rcd13ifvqcp0","pricing_plan_id":"free"},{"bike_id":"95ebce38-b380-41b3-91f1-8684abb6a0f2","system_id":"levelo_inurba_marseille","lat":43.311722,"lon":5.387247,"is_reserved":false,"is_disabled":false,"rental_uris":{"android":"levelo://app?vid=95ebce38-b380-41b3-91f1-8684abb6a0f2","ios":"levelo://app?vid=95ebce38-b380-41b3-91f1-8684abb6a0f2"},"vehicle_type_id":"4","last_reported":1699819606,"current_range_meters":23200,"station_id":"ce4bgv12rcd13ifvqcp0","pricing_plan_id":"free"},{"bike_id":"53d3f7c6-61b5-4687-b899-0009dde1d985","system_id":"levelo_inurba_marseille","lat":43.32629,"lon":5.3752,"is_reserved":false,"is_disabled":false,"rental_uris":{"android":"levelo://app?vid=53d3f7c6-61b5-4687-b899-0009dde1d985","ios":"levelo://app?vid=53d3f7c6-61b5-4687-b899-0009dde1d985"},"vehicle_type_id":"4","last_reported":1699819606,"current_range_meters":5200,"station_id":"","pricing_plan_id":"free"},{"bike_id":"5b7fd5f5-ba46-441e-91cc-add8e282d240","system_id":"levelo_inurba_marseille","lat":43.311722,"lon":5.387247,"is_reserved":false,"is_disabled":false,"rental_uris":{"android":"levelo://app?vid=5b7fd5f5-ba46-441e-91cc-add8e282d240","ios":"levelo://app?vid=5b7fd5f5-ba46-441e-91cc-add8e282d240"},"vehicle_type_id":"4","last_reported":1699819606,"current_range_meters":28000,"station_id":"ce4bgv12rcd13ifvqcp0","pricing_plan_id":"free"},{"bike_id":"5cfecf85-b051-48fc-8193-6aa8002faa77","system_id":"levelo_inurba_marseille","lat":43.297794,"lon":5.370888,"is_reserved":false,"is_disabled":false,"rental_uris":{"android":"levelo://app?vid=5cfecf85-b051-48fc-8193-6aa8002faa77","ios":"levelo://app?vid=5cfecf85-b051-48fc-8193-6aa8002faa77"},"vehicle_type_id":"4","last_reported":1699819606,"current_range_meters":30400,"station_id":"ce4bgop2rcd13ifvqc1g","pricing_plan_id":"free"},{"bike_id":"b55171a9-64bf-4107-ac3a-e3ce88edd6e8","system_id":"levelo_inurba_marseille","lat":43.322872,"lon":5.382756,"is_reserved":false,"is_disabled":false,"rental_uris":{"android":"levelo://app?vid=b55171a9-64bf-4107-ac3a-e3ce88edd6e8","ios":"levelo://app?vid=b55171a9-64bf-4107-ac3a-e3ce88edd6e8"},"vehicle_type_id":"4","last_reported":1699819606,"current_range_meters":27200,"station_id":"ce4bhr12rcd13ifvqhqg","pricing_plan_id":"free"},{"bike_id":"c8c4f75f-0852-499c-a4b4-1b04b6f5dd47","system_id":"levelo_inurba_marseille","lat":43.322872,"lon":5.382756,"is_reserved":false,"is_disabled":false,"rental_uris":{"android":"levelo://app?vid=c8c4f75f-0852-499c-a4b4-1b04b6f5dd47","ios":"levelo://app?vid=c8c4f75f-0852-499c-a4b4-1b04b6f5dd47"},"vehicle_type_id":"4","last_reported":1699819606,"current_range_meters":8400,"station_id":"ce4bhr12rcd13ifvqhqg","pricing_plan_id":"free"},{"bike_id":"ae335c2e-bf77-4e54-90f9-eb8725aa58bf","system_id":"levelo_inurba_marseille","lat":43.32824,"lon":5.36695,"is_reserved":false,"is_disabled":false,"rental_uris":{"android":"levelo://app?vid=ae335c2e-bf77-4e54-90f9-eb8725aa58bf","ios":"levelo://app?vid=ae335c2e-bf77-4e54-90f9-eb8725aa58bf"},"vehicle_type_id":"4","last_reported":1699819606,"current_range_meters":18000,"station_id":"ce4bhs92rcd13ifvqi0g","pricing_plan_id":"free"},{"bike_id":"8ea3526a-c988-40ce-bc15-be0b171d079a","system_id":"levelo_inurba_marseille","lat":43.32829,"lon":5.36683,"is_reserved":false,"is_disabled":false,"rental_uris":{"android":"levelo://app?vid=8ea3526a-c988-40ce-bc15-be0b171d079a","ios":"levelo://app?vid=8ea3526a-c988-40ce-bc15-be0b171d079a"},"vehicle_type_id":"4","last_reported":1699819606,"current_range_meters":800,"station_id":"ce4bhs92rcd13ifvqi0g","pricing_plan_id":"free"},{"bike_id":"0cd876df-eda8-4c69-8f93-d68dc6eb1348","system_id":"levelo_inurba_marseille","lat":43.328371,"lon":5.366909,"is_reserved":false,"is_disabled":false,"rental_uris":{"android":"levelo://app?vid=0cd876df-eda8-4c69-8f93-d68dc6eb1348","ios":"levelo://app?vid=0cd876df-eda8-4c69-8f93-d68dc6eb1348"},"vehicle_type_id":"4","last_reported":1699819606,"current_range_meters":7600,"station_id":"ce4bhs92rcd13ifvqi0g","pricing_plan_id":"free"},{"bike_id":"0bcc107b-5afb-45ba-8703-7708a9cd9772","system_id":"levelo_inurba_marseille","lat":43.297163,"lon":5.365866,"is_reserved":false,"is_disabled":false,"rental_uris":{"android":"levelo://app?vid=0bcc107b-5afb-45ba-8703-7708a9cd9772","ios":"levelo://app?vid=0bcc107b-5afb-45ba-8703-7708a9cd9772"},"vehicle_type_id":"4","last_reported":1699819606,"current_range_meters":25600,"station_id":"ce4bgn12rcd13ifvqbt0","pricing_plan_id":"free"},{"bike_id":"fce347ec-f8db-4ac8-a171-e7b033c41a62","system_id":"levelo_inurba_marseille","lat":43.297163,"lon":5.365866,"is_reserved":false,"is_disabled":false,"rental_uris":{"android":"levelo://app?vid=fce347ec-f8db-4ac8-a171-e7b033c41a62","ios":"levelo://app?vid=fce347ec-f8db-4ac8-a171-e7b033c41a62"},"vehicle_type_id":"4","last_reported":1699819606,"current_range_meters":400,"station_id":"ce4bgn12rcd13ifvqbt0","pricing_plan_id":"free"},{"bike_id":"9caec048-a3aa-428b-9d1e-66ad6c2d8e58","system_id":"levelo_inurba_marseille","lat":43.32153,"lon":5.38613,"is_reserved":false,"is_disabled":false,"rental_uris":{"android":"levelo://app?vid=9caec048-a3aa-428b-9d1e-66ad6c2d8e58","ios":"levelo://app?vid=9caec048-a3aa-428b-9d1e-66ad6c2d8e58"},"vehicle_type_id":"4","last_reported":1699819606,"current_range_meters":20000,"station_id":"","pricing_plan_id":"free"},{"bike_id":"f0812d0f-256a-478f-9681-2e0e9d074993","system_id":"levelo_inurba_marseille","lat":43.29601,"lon":5.36819,"is_reserved":false,"is_disabled":false,"rental_uris":{"android":"levelo://app?vid=f0812d0f-256a-478f-9681-2e0e9d074993","ios":"levelo://app?vid=f0812d0f-256a-478f-9681-2e0e9d074993"},"vehicle_type_id":"4","last_reported":1699819606,"current_range_meters":26400,"station_id":"","pricing_plan_id":"free"},{"bike_id":"d447991a-59b4-4778-a190-7d2b0920a414","system_id":"levelo_inurba_marseille","lat":43.32215,"lon":5.38613,"is_reserved":false,"is_disabled":false,"rental_uris":{"android":"levelo://app?vid=d447991a-59b4-4778-a190-7d2b0920a414","ios":"levelo://app?vid=d447991a-59b4-4778-a190-7d2b0920a414"},"vehicle_type_id":"4","last_reported":1699819606,"current_range_meters":15600,"station_id":"","pricing_plan_id":"free"},{"bike_id":"408e1bba-ac1b-479c-ad30-32026784c873","system_id":"levelo_inurba_marseille","lat":43.2966,"lon":5.37463,"is_reserved":false,"is_disabled":false,"rental_uris":{"android":"levelo://app?vid=408e1bba-ac1b-479c-ad30-32026784c873","ios":"levelo://app?vid=408e1bba-ac1b-479c-ad30-32026784c873"},"vehicle_type_id":"4","last_reported":1699819606,"current_range_meters":10400,"station_id":"","pricing_plan_id":"free"},{"bike_id":"2e6842a2-79e2-466e-a635-2070deb1a0d0","system_id":"levelo_inurba_marseille","lat":43.299028,"lon":5.381509,"is_reserved":false,"is_disabled":false,"rental_uris":{"android":"levelo://app?vid=2e6842a2-79e2-466e-a635-2070deb1a0d0","ios":"levelo://app?vid=2e6842a2-79e2-466e-a635-2070deb1a0d0"},"vehicle_type_id":"4","last_reported":1699819606,"current_range_meters":1600,"station_id":"ce4bgj12rcd13ifvqbc0","pricing_plan_id":"free"},{"bike_id":"16b2af9c-867e-41ac-be82-1e66b9b65b60","system_id":"levelo_inurba_marseille","lat":43.309589,"lon":5.390258,"is_reserved":false,"is_disabled":false,"rental_uris":{"android":"levelo://app?vid=16b2af9c-867e-41ac-be82-1e66b9b65b60","ios":"levelo://app?vid=16b2af9c-867e-41ac-be82-1e66b9b65b60"},"vehicle_type_id":"4","last_reported":1699819606,"current_range_meters":30400,"station_id":"ce4bgup2rcd13ifvqco0","pricing_plan_id":"free"},{"bike_id":"d8c453ed-ac65-4a68-9ceb-363ac1df8725","system_id":"levelo_inurba_marseille","lat":43.309589,"lon":5.390258,"is_reserved":false,"is_disabled":false,"rental_uris":{"android":"levelo://app?vid=d8c453ed-ac65-4a68-9ceb-363ac1df8725","ios":"levelo://app?vid=d8c453ed-ac65-4a68-9ceb-363ac1df8725"},"vehicle_type_id":"4","last_reported":1699819606,"current_range_meters":14800,"station_id":"ce4bgup2rcd13ifvqco0","pricing_plan_id":"free"},{"bike_id":"33ad3c0f-66bd-47e3-9410-0e87927f2751","system_id":"levelo_inurba_marseille","lat":43.309589,"lon":5.390258,"is_reserved":false,"is_disabled":false,"rental_uris":{"android":"levelo://app?vid=33ad3c0f-66bd-47e3-9410-0e87927f2751","ios":"levelo://app?vid=33ad3c0f-66bd-47e3-9410-0e87927f2751"},"vehicle_type_id":"4","last_reported":1699819606,"current_range_meters":11200,"station_id":"ce4bgup2rcd13ifvqco0","pricing_plan_id":"free"},{"bike_id":"1651f8c9-0d65-42be-94b1-12a534f58ffa","system_id":"levelo_inurba_marseille","lat":43.30951,"lon":5.39047,"is_reserved":false,"is_disabled":false,"rental_uris":{"android":"levelo://app?vid=1651f8c9-0d65-42be-94b1-12a534f58ffa","ios":"levelo://app?vid=1651f8c9-0d65-42be-94b1-12a534f58ffa"},"vehicle_type_id":"4","last_reported":1699819606,"current_range_meters":15600,"station_id":"ce4bgup2rcd13ifvqco0","pricing_plan_id":"free"},{"bike_id":"feff7d8e-9456-4b4b-b917-4f91bb23e023","system_id":"levelo_inurba_marseille","lat":43.3175,"lon":5.39022,"is_reserved":false,"is_disabled":false,"rental_uris":{"android":"levelo://app?vid=feff7d8e-9456-4b4b-b917-4f91bb23e023","ios":"levelo://app?vid=feff7d8e-9456-4b4b-b917-4f91bb23e023"},"vehicle_type_id":"4","last_reported":1699819606,"current_range_meters":13600,"station_id":"","pricing_plan_id":"free"},{"bike_id":"25e9ad11-2f09-46b8-a1d8-ae6074d48f39","system_id":"levelo_inurba_marseille","lat":43.3176,"lon":5.39019,"is_reserved":false,"is_disabled":false,"rental_uris":{"android":"levelo://app?vid=25e9ad11-2f09-46b8-a1d8-ae6074d48f39","ios":"levelo://app?vid=25e9ad11-2f09-46b8-a1d8-ae6074d48f39"},"vehicle_type_id":"4","last_reported":1699819606,"current_range_meters":0,"station_id":"ce4bhqp2rcd13ifvqhng","pricing_plan_id":"free"},{"bike_id":"6dd66e0d-845e-4e72-9985-08241a2dd274","system_id":"levelo_inurba_marseille","lat":43.298037,"lon":5.381066,"is_reserved":false,"is_disabled":false,"rental_uris":{"android":"levelo://app?vid=6dd66e0d-845e-4e72-9985-08241a2dd274","ios":"levelo://app?vid=6dd66e0d-845e-4e72-9985-08241a2dd274"},"vehicle_type_id":"4","last_reported":1699819606,"current_range_meters":2800,"station_id":"ce4bgip2rcd13ifvqbb0","pricing_plan_id":"free"},{"bike_id":"fd645f9f-62d0-4b9a-bb4e-2e29b859f542","system_id":"levelo_inurba_marseille","lat":43.304278,"lon":5.388868,"is_reserved":false,"is_disabled":false,"rental_uris":{"android":"levelo://app?vid=fd645f9f-62d0-4b9a-bb4e-2e29b859f542","ios":"levelo://app?vid=fd645f9f-62d0-4b9a-bb4e-2e29b859f542"},"vehicle_type_id":"4","last_reported":1699819606,"current_range_meters":6000,"station_id":"ce4bgk12rcd13ifvqbi0","pricing_plan_id":"free"},{"bike_id":"5691b5b7-067a-4422-9f0c-a6907daf74a4","system_id":"levelo_inurba_marseille","lat":43.32931,"lon":5.35636,"is_reserved":false,"is_disabled":false,"rental_uris":{"android":"levelo://app?vid=5691b5b7-067a-4422-9f0c-a6907daf74a4","ios":"levelo://app?vid=5691b5b7-067a-4422-9f0c-a6907daf74a4"},"vehicle_type_id":"4","last_reported":1699819606,"current_range_meters":4000,"station_id":"","pricing_plan_id":"free"},{"bike_id":"67c4022e-75f7-4029-bdab-a44b2e813270","system_id":"levelo_inurba_marseille","lat":43.32369,"lon":5.38886,"is_reserved":false,"is_disabled":false,"rental_uris":{"android":"levelo://app?vid=67c4022e-75f7-4029-bdab-a44b2e813270","ios":"levelo://app?vid=67c4022e-75f7-4029-bdab-a44b2e813270"},"vehicle_type_id":"4","last_reported":1699819606,"current_range_meters":10800,"station_id":"ce4bhqp2rcd13ifvqhog","pricing_plan_id":"free"},{"bike_id":"bf023614-6302-4430-ba6a-d2e99fe27430","system_id":"levelo_inurba_marseille","lat":43.29287,"lon":5.3687,"is_reserved":false,"is_disabled":false,"rental_uris":{"android":"levelo://app?vid=bf023614-6302-4430-ba6a-d2e99fe27430","ios":"levelo://app?vid=bf023614-6302-4430-ba6a-d2e99fe27430"},"vehicle_type_id":"4","last_reported":1699819606,"current_range_meters":0,"station_id":"ce4bgrp2rcd13ifvqc9g","pricing_plan_id":"free"},{"bike_id":"1f2edeec-835f-4188-b75a-b19c37bb1dac","system_id":"levelo_inurba_marseille","lat":43.30109,"lon":5.3894,"is_reserved":false,"is_disabled":false,"rental_uris":{"android":"levelo://app?vid=1f2edeec-835f-4188-b75a-b19c37bb1dac","ios":"levelo://app?vid=1f2edeec-835f-4188-b75a-b19c37bb1dac"},"vehicle_type_id":"4","last_reported":1699819606,"current_range_meters":400,"station_id":"","pricing_plan_id":"free"},{"bike_id":"6965bc4e-057a-46ab-beef-e9d9e5a8763f","system_id":"levelo_inurba_marseille","lat":43.306005,"lon":5.3936,"is_reserved":false,"is_disabled":false,"rental_uris":{"android":"levelo://app?vid=6965bc4e-057a-46ab-beef-e9d9e5a8763f","ios":"levelo://app?vid=6965bc4e-057a-46ab-beef-e9d9e5a8763f"},"vehicle_type_id":"4","last_reported":1699819606,"current_range_meters":10000,"station_id":"ce4bh0p2rcd13ifvqd80","pricing_plan_id":"free"},{"bike_id":"b75bcfd2-b994-4eb7-8765-321a1055cf32","system_id":"levelo_inurba_marseille","lat":43.303002,"lon":5.392142,"is_reserved":false,"is_disabled":false,"rental_uris":{"android":"levelo://app?vid=b75bcfd2-b994-4eb7-8765-321a1055cf32","ios":"levelo://app?vid=b75bcfd2-b994-4eb7-8765-321a1055cf32"},"vehicle_type_id":"4","last_reported":1699819606,"current_range_meters":4400,"station_id":"ce4bgkh2rcd13ifvqbk0","pricing_plan_id":"free"},{"bike_id":"2c2c082c-1c1e-4f41-979e-e8bd88c975c8","system_id":"levelo_inurba_marseille","lat":43.300852,"lon":5.390859,"is_reserved":false,"is_disabled":false,"rental_uris":{"android":"levelo://app?vid=2c2c082c-1c1e-4f41-979e-e8bd88c975c8","ios":"levelo://app?vid=2c2c082c-1c1e-4f41-979e-e8bd88c975c8"},"vehicle_type_id":"4","last_reported":1699819606,"current_range_meters":7200,"station_id":"ce4bh192rcd13ifvqdb0","pricing_plan_id":"free"},{"bike_id":"81710f78-e153-4a7f-94dd-018c68536562","system_id":"levelo_inurba_marseille","lat":43.2936,"lon":5.37835,"is_reserved":false,"is_disabled":false,"rental_uris":{"android":"levelo://app?vid=81710f78-e153-4a7f-94dd-018c68536562","ios":"levelo://app?vid=81710f78-e153-4a7f-94dd-018c68536562"},"vehicle_type_id":"4","last_reported":1699819606,"current_range_meters":19600,"station_id":"ce4bgjh2rcd13ifvqbf0","pricing_plan_id":"free"},{"bike_id":"252b67bd-33c0-4e42-9eff-141ba96c65fa","system_id":"levelo_inurba_marseille","lat":43.300852,"lon":5.390859,"is_reserved":false,"is_disabled":false,"rental_uris":{"android":"levelo://app?vid=252b67bd-33c0-4e42-9eff-141ba96c65fa","ios":"levelo://app?vid=252b67bd-33c0-4e42-9eff-141ba96c65fa"},"vehicle_type_id":"4","last_reported":1699819606,"current_range_meters":14800,"station_id":"ce4bh192rcd13ifvqdb0","pricing_plan_id":"free"},{"bike_id":"a5ecedcb-ee36-400e-8633-91b7b20bbb61","system_id":"levelo_inurba_marseille","lat":43.298764,"lon":5.388973,"is_reserved":false,"is_disabled":false,"rental_uris":{"android":"levelo://app?vid=a5ecedcb-ee36-400e-8633-91b7b20bbb61","ios":"levelo://app?vid=a5ecedcb-ee36-400e-8633-91b7b20bbb61"},"vehicle_type_id":"4","last_reported":1699819606,"current_range_meters":4400,"station_id":"ce4bh392rcd13ifvqdl0","pricing_plan_id":"free"},{"bike_id":"527fa83c-b585-41e5-b8cf-6a29ce429942","system_id":"levelo_inurba_marseille","lat":43.311317,"lon":5.396127,"is_reserved":false,"is_disabled":false,"rental_uris":{"android":"levelo://app?vid=527fa83c-b585-41e5-b8cf-6a29ce429942","ios":"levelo://app?vid=527fa83c-b585-41e5-b8cf-6a29ce429942"},"vehicle_type_id":"4","last_reported":1699819606,"current_range_meters":26000,"station_id":"","pricing_plan_id":"free"},{"bike_id":"07fc3ac8-7b18-4d9b-9bcb-927fdbc6c6dc","system_id":"levelo_inurba_marseille","lat":43.298782,"lon":5.389121,"is_reserved":false,"is_disabled":false,"rental_uris":{"android":"levelo://app?vid=07fc3ac8-7b18-4d9b-9bcb-927fdbc6c6dc","ios":"levelo://app?vid=07fc3ac8-7b18-4d9b-9bcb-927fdbc6c6dc"},"vehicle_type_id":"4","last_reported":1699819606,"current_range_meters":19200,"station_id":"ce4bh392rcd13ifvqdl0","pricing_plan_id":"free"},{"bike_id":"5600f2f7-0eec-47e9-aee5-107b08e8dfd2","system_id":"levelo_inurba_marseille","lat":43.29206,"lon":5.35917,"is_reserved":false,"is_disabled":false,"rental_uris":{"android":"levelo://app?vid=5600f2f7-0eec-47e9-aee5-107b08e8dfd2","ios":"levelo://app?vid=5600f2f7-0eec-47e9-aee5-107b08e8dfd2"},"vehicle_type_id":"4","last_reported":1699819606,"current_range_meters":21200,"station_id":"","pricing_plan_id":"free"},{"bike_id":"f05efe8a-6d59-4ed4-ab39-f82390363452","system_id":"levelo_inurba_marseille","lat":43.309038,"lon":5.396546,"is_reserved":false,"is_disabled":false,"rental_uris":{"android":"levelo://app?vid=f05efe8a-6d59-4ed4-ab39-f82390363452","ios":"levelo://app?vid=f05efe8a-6d59-4ed4-ab39-f82390363452"},"vehicle_type_id":"4","last_reported":1699819606,"current_range_meters":2000,"station_id":"ce4bh012rcd13ifvqcv0","pricing_plan_id":"free"},{"bike_id":"6e2d17b6-fc54-4585-985f-8c52808cffcd","system_id":"levelo_inurba_marseille","lat":43.31332,"lon":5.39696,"is_reserved":false,"is_disabled":false,"rental_uris":{"android":"levelo://app?vid=6e2d17b6-fc54-4585-985f-8c52808cffcd","ios":"levelo://app?vid=6e2d17b6-fc54-4585-985f-8c52808cffcd"},"vehicle_type_id":"4","last_reported":1699819606,"current_range_meters":2400,"station_id":"ce4bgvp2rcd13ifvqcu0","pricing_plan_id":"free"},{"bike_id":"6119537c-7ed5-4afe-a587-edac36af6bf3","system_id":"levelo_inurba_marseille","lat":43.31324,"lon":5.39697,"is_reserved":false,"is_disabled":false,"rental_uris":{"android":"levelo://app?vid=6119537c-7ed5-4afe-a587-edac36af6bf3","ios":"levelo://app?vid=6119537c-7ed5-4afe-a587-edac36af6bf3"},"vehicle_type_id":"4","last_reported":1699819606,"current_range_meters":16400,"station_id":"ce4bgvp2rcd13ifvqcu0","pricing_plan_id":"free"},{"bike_id":"c961464a-f7b1-4b66-b99c-2834fb8aaf4e","system_id":"levelo_inurba_marseille","lat":43.313275,"lon":5.397015,"is_reserved":false,"is_disabled":false,"rental_uris":{"android":"levelo://app?vid=c961464a-f7b1-4b66-b99c-2834fb8aaf4e","ios":"levelo://app?vid=c961464a-f7b1-4b66-b99c-2834fb8aaf4e"},"vehicle_type_id":"4","last_reported":1699819606,"current_range_meters":0,"station_id":"ce4bgvp2rcd13ifvqcu0","pricing_plan_id":"free"},{"bike_id":"0c68512e-4e98-438a-991c-a994957f75d7","system_id":"levelo_inurba_marseille","lat":43.31328,"lon":5.39702,"is_reserved":false,"is_disabled":false,"rental_uris":{"android":"levelo://app?vid=0c68512e-4e98-438a-991c-a994957f75d7","ios":"levelo://app?vid=0c68512e-4e98-438a-991c-a994957f75d7"},"vehicle_type_id":"4","last_reported":1699819606,"current_range_meters":800,"station_id":"ce4bgvp2rcd13ifvqcu0","pricing_plan_id":"free"},{"bike_id":"b39d24c6-4dec-4ffb-86b9-c2128151223b","system_id":"levelo_inurba_marseille","lat":43.309038,"lon":5.396546,"is_reserved":false,"is_disabled":false,"rental_uris":{"android":"levelo://app?vid=b39d24c6-4dec-4ffb-86b9-c2128151223b","ios":"levelo://app?vid=b39d24c6-4dec-4ffb-86b9-c2128151223b"},"vehicle_type_id":"4","last_reported":1699819606,"current_range_meters":6000,"station_id":"ce4bh012rcd13ifvqcv0","pricing_plan_id":"free"},{"bike_id":"0d0024eb-ac5e-406c-8c38-a3eb9b487406","system_id":"levelo_inurba_marseille","lat":43.309038,"lon":5.396546,"is_reserved":false,"is_disabled":false,"rental_uris":{"android":"levelo://app?vid=0d0024eb-ac5e-406c-8c38-a3eb9b487406","ios":"levelo://app?vid=0d0024eb-ac5e-406c-8c38-a3eb9b487406"},"vehicle_type_id":"4","last_reported":1699819606,"current_range_meters":8000,"station_id":"ce4bh012rcd13ifvqcv0","pricing_plan_id":"free"},{"bike_id":"c813650f-afd8-4c06-84b1-c14f3f3a5143","system_id":"levelo_inurba_marseille","lat":43.290779,"lon":5.371482,"is_reserved":false,"is_disabled":false,"rental_uris":{"android":"levelo://app?vid=c813650f-afd8-4c06-84b1-c14f3f3a5143","ios":"levelo://app?vid=c813650f-afd8-4c06-84b1-c14f3f3a5143"},"vehicle_type_id":"4","last_reported":1699819606,"current_range_meters":24800,"station_id":"ce4bh5p2rcd13ifvqe4g","pricing_plan_id":"free"},{"bike_id":"b0d6ddfa-f5fb-4577-a978-80c7174351e2","system_id":"levelo_inurba_marseille","lat":43.29036,"lon":5.37574,"is_reserved":false,"is_disabled":false,"rental_uris":{"android":"levelo://app?vid=b0d6ddfa-f5fb-4577-a978-80c7174351e2","ios":"levelo://app?vid=b0d6ddfa-f5fb-4577-a978-80c7174351e2"},"vehicle_type_id":"4","last_reported":1699819606,"current_range_meters":0,"station_id":"ce4bh692rcd13ifvqe90","pricing_plan_id":"free"},{"bike_id":"d3e1f490-2472-4f44-b291-69e0af0e7a4d","system_id":"levelo_inurba_marseille","lat":43.294162,"lon":5.386292,"is_reserved":false,"is_disabled":false,"rental_uris":{"android":"levelo://app?vid=d3e1f490-2472-4f44-b291-69e0af0e7a4d","ios":"levelo://app?vid=d3e1f490-2472-4f44-b291-69e0af0e7a4d"},"vehicle_type_id":"4","last_reported":1699819606,"current_range_meters":0,"station_id":"ce4bh2h2rcd13ifvqdh0","pricing_plan_id":"free"},{"bike_id":"69998f06-7ef1-4225-9c69-feef58055d5b","system_id":"levelo_inurba_marseille","lat":43.290293,"lon":5.37562,"is_reserved":false,"is_disabled":false,"rental_uris":{"android":"levelo://app?vid=69998f06-7ef1-4225-9c69-feef58055d5b","ios":"levelo://app?vid=69998f06-7ef1-4225-9c69-feef58055d5b"},"vehicle_type_id":"4","last_reported":1699819606,"current_range_meters":28000,"station_id":"ce4bh692rcd13ifvqe90","pricing_plan_id":"free"},{"bike_id":"b8f41d94-0800-41ad-bb83-e2f4dd0e54bc","system_id":"levelo_inurba_marseille","lat":43.294162,"lon":5.386292,"is_reserved":false,"is_disabled":false,"rental_uris":{"android":"levelo://app?vid=b8f41d94-0800-41ad-bb83-e2f4dd0e54bc","ios":"levelo://app?vid=b8f41d94-0800-41ad-bb83-e2f4dd0e54bc"},"vehicle_type_id":"4","last_reported":1699819606,"current_range_meters":9600,"station_id":"ce4bh2h2rcd13ifvqdh0","pricing_plan_id":"free"},{"bike_id":"438c6a40-94c4-4db9-9e6a-a6fa1e2e271c","system_id":"levelo_inurba_marseille","lat":43.289184,"lon":5.366408,"is_reserved":false,"is_disabled":false,"rental_uris":{"android":"levelo://app?vid=438c6a40-94c4-4db9-9e6a-a6fa1e2e271c","ios":"levelo://app?vid=438c6a40-94c4-4db9-9e6a-a6fa1e2e271c"},"vehicle_type_id":"4","last_reported":1699819606,"current_range_meters":16400,"station_id":"ce4bhap2rcd13ifvqek0","pricing_plan_id":"free"},{"bike_id":"17bc68a2-acfb-4c72-a4c2-c279c7d9f779","system_id":"levelo_inurba_marseille","lat":43.292714,"lon":5.384444,"is_reserved":false,"is_disabled":false,"rental_uris":{"android":"levelo://app?vid=17bc68a2-acfb-4c72-a4c2-c279c7d9f779","ios":"levelo://app?vid=17bc68a2-acfb-4c72-a4c2-c279c7d9f779"},"vehicle_type_id":"4","last_reported":1699819606,"current_range_meters":24800,"station_id":"","pricing_plan_id":"free"},{"bike_id":"e138888a-f437-4dbe-abaa-5b74b230a60c","system_id":"levelo_inurba_marseille","lat":43.29713,"lon":5.391537,"is_reserved":false,"is_disabled":false,"rental_uris":{"android":"levelo://app?vid=e138888a-f437-4dbe-abaa-5b74b230a60c","ios":"levelo://app?vid=e138888a-f437-4dbe-abaa-5b74b230a60c"},"vehicle_type_id":"4","last_reported":1699819606,"current_range_meters":14000,"station_id":"","pricing_plan_id":"free"},{"bike_id":"32559404-cbb7-4190-a062-b51a40255222","system_id":"levelo_inurba_marseille","lat":43.304274,"lon":5.397513,"is_reserved":false,"is_disabled":false,"rental_uris":{"android":"levelo://app?vid=32559404-cbb7-4190-a062-b51a40255222","ios":"levelo://app?vid=32559404-cbb7-4190-a062-b51a40255222"},"vehicle_type_id":"4","last_reported":1699819606,"current_range_meters":16400,"station_id":"ce4bh092rcd13ifvqd20","pricing_plan_id":"free"},{"bike_id":"4b2a1be9-6422-4b3b-a0c6-d0ed90657d52","system_id":"levelo_inurba_marseille","lat":43.292644,"lon":5.384257,"is_reserved":false,"is_disabled":false,"rental_uris":{"android":"levelo://app?vid=4b2a1be9-6422-4b3b-a0c6-d0ed90657d52","ios":"levelo://app?vid=4b2a1be9-6422-4b3b-a0c6-d0ed90657d52"},"vehicle_type_id":"4","last_reported":1699819606,"current_range_meters":7200,"station_id":"ce4bh692rcd13ifvqea0","pricing_plan_id":"free"},{"bike_id":"961a8133-1a92-440e-8f4d-2119b43b5dfe","system_id":"levelo_inurba_marseille","lat":43.292644,"lon":5.384257,"is_reserved":false,"is_disabled":false,"rental_uris":{"android":"levelo://app?vid=961a8133-1a92-440e-8f4d-2119b43b5dfe","ios":"levelo://app?vid=961a8133-1a92-440e-8f4d-2119b43b5dfe"},"vehicle_type_id":"4","last_reported":1699819606,"current_range_meters":8400,"station_id":"ce4bh692rcd13ifvqea0","pricing_plan_id":"free"},{"bike_id":"0ff2906d-6373-44fb-b88d-bf3b8a386618","system_id":"levelo_inurba_marseille","lat":43.290995,"lon":5.381361,"is_reserved":false,"is_disabled":false,"rental_uris":{"android":"levelo://app?vid=0ff2906d-6373-44fb-b88d-bf3b8a386618","ios":"levelo://app?vid=0ff2906d-6373-44fb-b88d-bf3b8a386618"},"vehicle_type_id":"4","last_reported":1699819606,"current_range_meters":7600,"station_id":"ce4bh512rcd13ifvqe2g","pricing_plan_id":"free"},{"bike_id":"844884a3-4c90-4137-a096-ede83dc3202e","system_id":"levelo_inurba_marseille","lat":43.290995,"lon":5.381361,"is_reserved":false,"is_disabled":false,"rental_uris":{"android":"levelo://app?vid=844884a3-4c90-4137-a096-ede83dc3202e","ios":"levelo://app?vid=844884a3-4c90-4137-a096-ede83dc3202e"},"vehicle_type_id":"4","last_reported":1699819606,"current_range_meters":2800,"station_id":"ce4bh512rcd13ifvqe2g","pricing_plan_id":"free"},{"bike_id":"92fbaedb-8f42-484d-804e-b69a3a21903c","system_id":"levelo_inurba_marseille","lat":43.289002,"lon":5.373018,"is_reserved":false,"is_disabled":false,"rental_uris":{"android":"levelo://app?vid=92fbaedb-8f42-484d-804e-b69a3a21903c","ios":"levelo://app?vid=92fbaedb-8f42-484d-804e-b69a3a21903c"},"vehicle_type_id":"4","last_reported":1699819606,"current_range_meters":0,"station_id":"","pricing_plan_id":"free"},{"bike_id":"bfe89f9d-fb50-44ee-a6b6-b342d3b710c0","system_id":"levelo_inurba_marseille","lat":43.290995,"lon":5.381361,"is_reserved":false,"is_disabled":false,"rental_uris":{"android":"levelo://app?vid=bfe89f9d-fb50-44ee-a6b6-b342d3b710c0","ios":"levelo://app?vid=bfe89f9d-fb50-44ee-a6b6-b342d3b710c0"},"vehicle_type_id":"4","last_reported":1699819606,"current_range_meters":21200,"station_id":"ce4bh512rcd13ifvqe2g","pricing_plan_id":"free"},{"bike_id":"a8f5b4f2-0da7-462c-8ca6-4b45af601e80","system_id":"levelo_inurba_marseille","lat":43.289741,"lon":5.378306,"is_reserved":false,"is_disabled":false,"rental_uris":{"android":"levelo://app?vid=a8f5b4f2-0da7-462c-8ca6-4b45af601e80","ios":"levelo://app?vid=a8f5b4f2-0da7-462c-8ca6-4b45af601e80"},"vehicle_type_id":"4","last_reported":1699819606,"current_range_meters":2400,"station_id":"ce4bh9p2rcd13ifvqed0","pricing_plan_id":"free"},{"bike_id":"7a1356b5-2437-4bfa-bb34-cf55b7f00bb1","system_id":"levelo_inurba_marseille","lat":43.33063,"lon":5.39051,"is_reserved":false,"is_disabled":false,"rental_uris":{"android":"levelo://app?vid=7a1356b5-2437-4bfa-bb34-cf55b7f00bb1","ios":"levelo://app?vid=7a1356b5-2437-4bfa-bb34-cf55b7f00bb1"},"vehicle_type_id":"4","last_reported":1699819606,"current_range_meters":9600,"station_id":"","pricing_plan_id":"free"},{"bike_id":"57fbea04-7dd1-41f2-b97a-6bf950049453","system_id":"levelo_inurba_marseille","lat":43.290094,"lon":5.381264,"is_reserved":false,"is_disabled":false,"rental_uris":{"android":"levelo://app?vid=57fbea04-7dd1-41f2-b97a-6bf950049453","ios":"levelo://app?vid=57fbea04-7dd1-41f2-b97a-6bf950049453"},"vehicle_type_id":"4","last_reported":1699819606,"current_range_meters":16400,"station_id":"ce4bh4p2rcd13ifvqe1g","pricing_plan_id":"free"},{"bike_id":"c6b68585-5252-4b14-9835-29bc2d5dec2f","system_id":"levelo_inurba_marseille","lat":43.30939,"lon":5.40144,"is_reserved":false,"is_disabled":false,"rental_uris":{"android":"levelo://app?vid=c6b68585-5252-4b14-9835-29bc2d5dec2f","ios":"levelo://app?vid=c6b68585-5252-4b14-9835-29bc2d5dec2f"},"vehicle_type_id":"4","last_reported":1699819606,"current_range_meters":13200,"station_id":"ce4bgvp2rcd13ifvqct0","pricing_plan_id":"free"},{"bike_id":"e137a7b6-7f58-4ef4-9094-c9ab66702111","system_id":"levelo_inurba_marseille","lat":43.30934,"lon":5.40148,"is_reserved":false,"is_disabled":false,"rental_uris":{"android":"levelo://app?vid=e137a7b6-7f58-4ef4-9094-c9ab66702111","ios":"levelo://app?vid=e137a7b6-7f58-4ef4-9094-c9ab66702111"},"vehicle_type_id":"4","last_reported":1699819606,"current_range_meters":4400,"station_id":"ce4bgvp2rcd13ifvqct0","pricing_plan_id":"free"},{"bike_id":"df37540a-c592-4935-bc9e-279d42292494","system_id":"levelo_inurba_marseille","lat":43.306412,"lon":5.401035,"is_reserved":false,"is_disabled":false,"rental_uris":{"android":"levelo://app?vid=df37540a-c592-4935-bc9e-279d42292494","ios":"levelo://app?vid=df37540a-c592-4935-bc9e-279d42292494"},"vehicle_type_id":"4","last_reported":1699819606,"current_range_meters":22400,"station_id":"ce4bh112rcd13ifvqda0","pricing_plan_id":"free"},{"bike_id":"ce999cbf-c5c5-47bf-9778-e9a75b71235e","system_id":"levelo_inurba_marseille","lat":43.306412,"lon":5.401035,"is_reserved":false,"is_disabled":false,"rental_uris":{"android":"levelo://app?vid=ce999cbf-c5c5-47bf-9778-e9a75b71235e","ios":"levelo://app?vid=ce999cbf-c5c5-47bf-9778-e9a75b71235e"},"vehicle_type_id":"4","last_reported":1699819606,"current_range_meters":21600,"station_id":"ce4bh112rcd13ifvqda0","pricing_plan_id":"free"},{"bike_id":"de86e3d1-a596-40c7-ba28-8077c5a08266","system_id":"levelo_inurba_marseille","lat":43.33763,"lon":5.37491,"is_reserved":false,"is_disabled":false,"rental_uris":{"android":"levelo://app?vid=de86e3d1-a596-40c7-ba28-8077c5a08266","ios":"levelo://app?vid=de86e3d1-a596-40c7-ba28-8077c5a08266"},"vehicle_type_id":"4","last_reported":1699819606,"current_range_meters":28000,"station_id":"","pricing_plan_id":"free"},{"bike_id":"c036b23d-3380-448c-b024-4613650f489f","system_id":"levelo_inurba_marseille","lat":43.30642,"lon":5.401031,"is_reserved":false,"is_disabled":false,"rental_uris":{"android":"levelo://app?vid=c036b23d-3380-448c-b024-4613650f489f","ios":"levelo://app?vid=c036b23d-3380-448c-b024-4613650f489f"},"vehicle_type_id":"4","last_reported":1699819606,"current_range_meters":17600,"station_id":"ce4bh112rcd13ifvqda0","pricing_plan_id":"free"},{"bike_id":"cd1a5ab7-9a5c-496b-b9fb-b859466a9c8a","system_id":"levelo_inurba_marseille","lat":43.301117,"lon":5.398795,"is_reserved":false,"is_disabled":false,"rental_uris":{"android":"levelo://app?vid=cd1a5ab7-9a5c-496b-b9fb-b859466a9c8a","ios":"levelo://app?vid=cd1a5ab7-9a5c-496b-b9fb-b859466a9c8a"},"vehicle_type_id":"4","last_reported":1699819606,"current_range_meters":0,"station_id":"ce4bh0h2rcd13ifvqd40","pricing_plan_id":"free"},{"bike_id":"743f3bc5-43c9-45a3-8965-b67b169c6c30","system_id":"levelo_inurba_marseille","lat":43.30513,"lon":5.40077,"is_reserved":false,"is_disabled":false,"rental_uris":{"android":"levelo://app?vid=743f3bc5-43c9-45a3-8965-b67b169c6c30","ios":"levelo://app?vid=743f3bc5-43c9-45a3-8965-b67b169c6c30"},"vehicle_type_id":"4","last_reported":1699819606,"current_range_meters":6000,"station_id":"","pricing_plan_id":"free"},{"bike_id":"388db035-208e-43fb-9237-9b5aac08acb4","system_id":"levelo_inurba_marseille","lat":43.28727,"lon":5.36078,"is_reserved":false,"is_disabled":false,"rental_uris":{"android":"levelo://app?vid=388db035-208e-43fb-9237-9b5aac08acb4","ios":"levelo://app?vid=388db035-208e-43fb-9237-9b5aac08acb4"},"vehicle_type_id":"4","last_reported":1699819606,"current_range_meters":16400,"station_id":"cki0cbj6b192h4jlfktg","pricing_plan_id":"free"},{"bike_id":"e6635629-8d19-482c-9490-93fe8eb553bc","system_id":"levelo_inurba_marseille","lat":43.298681,"lon":5.397225,"is_reserved":false,"is_disabled":false,"rental_uris":{"android":"levelo://app?vid=e6635629-8d19-482c-9490-93fe8eb553bc","ios":"levelo://app?vid=e6635629-8d19-482c-9490-93fe8eb553bc"},"vehicle_type_id":"4","last_reported":1699819606,"current_range_meters":0,"station_id":"ce4bh0h2rcd13ifvqd50","pricing_plan_id":"free"},{"bike_id":"0a7055ef-8856-4612-a991-f016f0c4c524","system_id":"levelo_inurba_marseille","lat":43.298681,"lon":5.397225,"is_reserved":false,"is_disabled":false,"rental_uris":{"android":"levelo://app?vid=0a7055ef-8856-4612-a991-f016f0c4c524","ios":"levelo://app?vid=0a7055ef-8856-4612-a991-f016f0c4c524"},"vehicle_type_id":"4","last_reported":1699819606,"current_range_meters":10800,"station_id":"ce4bh0h2rcd13ifvqd50","pricing_plan_id":"free"},{"bike_id":"9a58da6d-b8d5-40db-ac24-7f7388dbc137","system_id":"levelo_inurba_marseille","lat":43.298681,"lon":5.397225,"is_reserved":false,"is_disabled":false,"rental_uris":{"android":"levelo://app?vid=9a58da6d-b8d5-40db-ac24-7f7388dbc137","ios":"levelo://app?vid=9a58da6d-b8d5-40db-ac24-7f7388dbc137"},"vehicle_type_id":"4","last_reported":1699819606,"current_range_meters":8400,"station_id":"ce4bh0h2rcd13ifvqd50","pricing_plan_id":"free"},{"bike_id":"10cce94c-3924-4d3a-b7dd-eeaa9a063960","system_id":"levelo_inurba_marseille","lat":43.286593,"lon":5.363346,"is_reserved":false,"is_disabled":false,"rental_uris":{"android":"levelo://app?vid=10cce94c-3924-4d3a-b7dd-eeaa9a063960","ios":"levelo://app?vid=10cce94c-3924-4d3a-b7dd-eeaa9a063960"},"vehicle_type_id":"4","last_reported":1699819606,"current_range_meters":6800,"station_id":"ce4bhah2rcd13ifvqej0","pricing_plan_id":"free"},{"bike_id":"c953b67a-ef6b-4a2a-b9bf-82b3dfd517ff","system_id":"levelo_inurba_marseille","lat":43.286961,"lon":5.373785,"is_reserved":false,"is_disabled":false,"rental_uris":{"android":"levelo://app?vid=c953b67a-ef6b-4a2a-b9bf-82b3dfd517ff","ios":"levelo://app?vid=c953b67a-ef6b-4a2a-b9bf-82b3dfd517ff"},"vehicle_type_id":"4","last_reported":1699819606,"current_range_meters":0,"station_id":"ce4bh3p2rcd13ifvqdq0","pricing_plan_id":"free"},{"bike_id":"99608949-facd-49b4-89c1-ec9d8cfaa540","system_id":"levelo_inurba_marseille","lat":43.295196,"lon":5.39397,"is_reserved":false,"is_disabled":false,"rental_uris":{"android":"levelo://app?vid=99608949-facd-49b4-89c1-ec9d8cfaa540","ios":"levelo://app?vid=99608949-facd-49b4-89c1-ec9d8cfaa540"},"vehicle_type_id":"4","last_reported":1699819606,"current_range_meters":14400,"station_id":"ce4bh292rcd13ifvqdf0","pricing_plan_id":"free"},{"bike_id":"eabf133b-85a4-48a5-8d41-2bdcac4ac496","system_id":"levelo_inurba_marseille","lat":43.289307,"lon":5.38406,"is_reserved":false,"is_disabled":false,"rental_uris":{"android":"levelo://app?vid=eabf133b-85a4-48a5-8d41-2bdcac4ac496","ios":"levelo://app?vid=eabf133b-85a4-48a5-8d41-2bdcac4ac496"},"vehicle_type_id":"4","last_reported":1699819606,"current_range_meters":23200,"station_id":"ce4bh612rcd13ifvqe6g","pricing_plan_id":"free"},{"bike_id":"f4b70fdc-e818-4ad6-a88e-ffcb505b0b68","system_id":"levelo_inurba_marseille","lat":43.302425,"lon":5.400755,"is_reserved":false,"is_disabled":false,"rental_uris":{"android":"levelo://app?vid=f4b70fdc-e818-4ad6-a88e-ffcb505b0b68","ios":"levelo://app?vid=f4b70fdc-e818-4ad6-a88e-ffcb505b0b68"},"vehicle_type_id":"4","last_reported":1699819606,"current_range_meters":8800,"station_id":"ce4bgvh2rcd13ifvqcs0","pricing_plan_id":"free"},{"bike_id":"1719f67c-1f8f-411d-9c23-b7888ccf61c8","system_id":"levelo_inurba_marseille","lat":43.302759,"lon":5.400793,"is_reserved":false,"is_disabled":false,"rental_uris":{"android":"levelo://app?vid=1719f67c-1f8f-411d-9c23-b7888ccf61c8","ios":"levelo://app?vid=1719f67c-1f8f-411d-9c23-b7888ccf61c8"},"vehicle_type_id":"4","last_reported":1699819606,"current_range_meters":27600,"station_id":"ce4bgvh2rcd13ifvqcs0","pricing_plan_id":"free"},{"bike_id":"35227aa4-e441-4c4b-8dfb-a38a0e1180e2","system_id":"levelo_inurba_marseille","lat":43.302405,"lon":5.400838,"is_reserved":false,"is_disabled":false,"rental_uris":{"android":"levelo://app?vid=35227aa4-e441-4c4b-8dfb-a38a0e1180e2","ios":"levelo://app?vid=35227aa4-e441-4c4b-8dfb-a38a0e1180e2"},"vehicle_type_id":"4","last_reported":1699819606,"current_range_meters":20400,"station_id":"ce4bgvh2rcd13ifvqcs0","pricing_plan_id":"free"},{"bike_id":"cfdbb7bc-e5ab-4155-8c81-64c2add9be0d","system_id":"levelo_inurba_marseille","lat":43.28609,"lon":5.3706,"is_reserved":false,"is_disabled":false,"rental_uris":{"android":"levelo://app?vid=cfdbb7bc-e5ab-4155-8c81-64c2add9be0d","ios":"levelo://app?vid=cfdbb7bc-e5ab-4155-8c81-64c2add9be0d"},"vehicle_type_id":"4","last_reported":1699819606,"current_range_meters":30000,"station_id":"ce4bht12rcd13ifvqi60","pricing_plan_id":"free"},{"bike_id":"3962c799-f128-4e7a-8ba7-b343809d1c50","system_id":"levelo_inurba_marseille","lat":43.31658,"lon":5.4044,"is_reserved":false,"is_disabled":false,"rental_uris":{"android":"levelo://app?vid=3962c799-f128-4e7a-8ba7-b343809d1c50","ios":"levelo://app?vid=3962c799-f128-4e7a-8ba7-b343809d1c50"},"vehicle_type_id":"4","last_reported":1699819606,"current_range_meters":0,"station_id":"ce4bh012rcd13ifvqd00","pricing_plan_id":"free"},{"bike_id":"b631772a-6856-4dcd-80e8-7fc650467073","system_id":"levelo_inurba_marseille","lat":43.29459,"lon":5.39565,"is_reserved":false,"is_disabled":false,"rental_uris":{"android":"levelo://app?vid=b631772a-6856-4dcd-80e8-7fc650467073","ios":"levelo://app?vid=b631772a-6856-4dcd-80e8-7fc650467073"},"vehicle_type_id":"4","last_reported":1699819606,"current_range_meters":24000,"station_id":"","pricing_plan_id":"free"},{"bike_id":"e57449c2-d088-47cf-8bf2-271593713c89","system_id":"levelo_inurba_marseille","lat":43.328576,"lon":5.398841,"is_reserved":false,"is_disabled":false,"rental_uris":{"android":"levelo://app?vid=e57449c2-d088-47cf-8bf2-271593713c89","ios":"levelo://app?vid=e57449c2-d088-47cf-8bf2-271593713c89"},"vehicle_type_id":"4","last_reported":1699819606,"current_range_meters":3200,"station_id":"","pricing_plan_id":"free"},{"bike_id":"2e60c04f-edd0-4d93-b5aa-71c210fc030f","system_id":"levelo_inurba_marseille","lat":43.291994,"lon":5.392907,"is_reserved":false,"is_disabled":false,"rental_uris":{"android":"levelo://app?vid=2e60c04f-edd0-4d93-b5aa-71c210fc030f","ios":"levelo://app?vid=2e60c04f-edd0-4d93-b5aa-71c210fc030f"},"vehicle_type_id":"4","last_reported":1699819606,"current_range_meters":28800,"station_id":"ce4bh192rcd13ifvqdd0","pricing_plan_id":"free"},{"bike_id":"b860e289-9987-494c-ae7c-05309f444201","system_id":"levelo_inurba_marseille","lat":43.284558,"lon":5.35895,"is_reserved":false,"is_disabled":false,"rental_uris":{"android":"levelo://app?vid=b860e289-9987-494c-ae7c-05309f444201","ios":"levelo://app?vid=b860e289-9987-494c-ae7c-05309f444201"},"vehicle_type_id":"4","last_reported":1699819606,"current_range_meters":0,"station_id":"ce4bhah2rcd13ifvqei0","pricing_plan_id":"free"},{"bike_id":"c72b4d0d-e7d1-4b0a-8f5a-936a384c03fb","system_id":"levelo_inurba_marseille","lat":43.294314,"lon":5.397498,"is_reserved":false,"is_disabled":false,"rental_uris":{"android":"levelo://app?vid=c72b4d0d-e7d1-4b0a-8f5a-936a384c03fb","ios":"levelo://app?vid=c72b4d0d-e7d1-4b0a-8f5a-936a384c03fb"},"vehicle_type_id":"4","last_reported":1699819606,"current_range_meters":1600,"station_id":"ce4bh3h2rcd13ifvqdo0","pricing_plan_id":"free"},{"bike_id":"d9c27785-09f5-4bf3-8574-e6ff3c209dc4","system_id":"levelo_inurba_marseille","lat":43.283998,"lon":5.375062,"is_reserved":false,"is_disabled":false,"rental_uris":{"android":"levelo://app?vid=d9c27785-09f5-4bf3-8574-e6ff3c209dc4","ios":"levelo://app?vid=d9c27785-09f5-4bf3-8574-e6ff3c209dc4"},"vehicle_type_id":"4","last_reported":1699819606,"current_range_meters":15200,"station_id":"ce4bh412rcd13ifvqds0","pricing_plan_id":"free"},{"bike_id":"8916cfb5-ef8e-4397-ac44-4d0fca558025","system_id":"levelo_inurba_marseille","lat":43.295713,"lon":5.399639,"is_reserved":false,"is_disabled":false,"rental_uris":{"android":"levelo://app?vid=8916cfb5-ef8e-4397-ac44-4d0fca558025","ios":"levelo://app?vid=8916cfb5-ef8e-4397-ac44-4d0fca558025"},"vehicle_type_id":"4","last_reported":1699819606,"current_range_meters":2400,"station_id":"ce4bh312rcd13ifvqdj0","pricing_plan_id":"free"},{"bike_id":"dc766dd3-ecb8-4e6f-bff7-267eceaf8abe","system_id":"levelo_inurba_marseille","lat":43.319179,"lon":5.407725,"is_reserved":false,"is_disabled":false,"rental_uris":{"android":"levelo://app?vid=dc766dd3-ecb8-4e6f-bff7-267eceaf8abe","ios":"levelo://app?vid=dc766dd3-ecb8-4e6f-bff7-267eceaf8abe"},"vehicle_type_id":"4","last_reported":1699819606,"current_range_meters":18400,"station_id":"ce4bhq12rcd13ifvqhig","pricing_plan_id":"free"},{"bike_id":"030625bd-f8ba-4389-9944-df2973894a22","system_id":"levelo_inurba_marseille","lat":43.325731,"lon":5.404186,"is_reserved":false,"is_disabled":false,"rental_uris":{"android":"levelo://app?vid=030625bd-f8ba-4389-9944-df2973894a22","ios":"levelo://app?vid=030625bd-f8ba-4389-9944-df2973894a22"},"vehicle_type_id":"4","last_reported":1699819606,"current_range_meters":0,"station_id":"","pricing_plan_id":"free"},{"bike_id":"6be23060-1692-4ac1-9f98-95bdac6f72ad","system_id":"levelo_inurba_marseille","lat":43.33717,"lon":5.391857,"is_reserved":false,"is_disabled":false,"rental_uris":{"android":"levelo://app?vid=6be23060-1692-4ac1-9f98-95bdac6f72ad","ios":"levelo://app?vid=6be23060-1692-4ac1-9f98-95bdac6f72ad"},"vehicle_type_id":"4","last_reported":1699819606,"current_range_meters":27200,"station_id":"ce4bhr92rcd13ifvqhsg","pricing_plan_id":"free"},{"bike_id":"fd4453ca-443e-40fb-8cb1-027f379fdf21","system_id":"levelo_inurba_marseille","lat":43.33717,"lon":5.391857,"is_reserved":false,"is_disabled":false,"rental_uris":{"android":"levelo://app?vid=fd4453ca-443e-40fb-8cb1-027f379fdf21","ios":"levelo://app?vid=fd4453ca-443e-40fb-8cb1-027f379fdf21"},"vehicle_type_id":"4","last_reported":1699819606,"current_range_meters":31200,"station_id":"ce4bhr92rcd13ifvqhsg","pricing_plan_id":"free"},{"bike_id":"dcdaa1e1-4909-46b4-8da4-f2b0beba29ce","system_id":"levelo_inurba_marseille","lat":43.32339,"lon":5.40621,"is_reserved":false,"is_disabled":false,"rental_uris":{"android":"levelo://app?vid=dcdaa1e1-4909-46b4-8da4-f2b0beba29ce","ios":"levelo://app?vid=dcdaa1e1-4909-46b4-8da4-f2b0beba29ce"},"vehicle_type_id":"4","last_reported":1699819606,"current_range_meters":0,"station_id":"ce4bhq92rcd13ifvqhjg","pricing_plan_id":"free"},{"bike_id":"b5a050e7-d102-43f5-b8be-d3cae732b8e4","system_id":"levelo_inurba_marseille","lat":43.319179,"lon":5.407725,"is_reserved":false,"is_disabled":false,"rental_uris":{"android":"levelo://app?vid=b5a050e7-d102-43f5-b8be-d3cae732b8e4","ios":"levelo://app?vid=b5a050e7-d102-43f5-b8be-d3cae732b8e4"},"vehicle_type_id":"4","last_reported":1699819606,"current_range_meters":8000,"station_id":"ce4bhq12rcd13ifvqhig","pricing_plan_id":"free"},{"bike_id":"1469f492-e74b-47fb-b749-1e072f56b315","system_id":"levelo_inurba_marseille","lat":43.269467,"lon":5.386439,"is_reserved":false,"is_disabled":false,"rental_uris":{"android":"levelo://app?vid=1469f492-e74b-47fb-b749-1e072f56b315","ios":"levelo://app?vid=1469f492-e74b-47fb-b749-1e072f56b315"},"vehicle_type_id":"4","last_reported":1699819606,"current_range_meters":30000,"station_id":"ce4bhh92rcd13ifvqfh0","pricing_plan_id":"free"},{"bike_id":"da2fd650-5dfe-45e5-a0c9-12ca16e00585","system_id":"levelo_inurba_marseille","lat":43.288501,"lon":5.393087,"is_reserved":false,"is_disabled":false,"rental_uris":{"android":"levelo://app?vid=da2fd650-5dfe-45e5-a0c9-12ca16e00585","ios":"levelo://app?vid=da2fd650-5dfe-45e5-a0c9-12ca16e00585"},"vehicle_type_id":"4","last_reported":1699819606,"current_range_meters":0,"station_id":"ce4bh2p2rcd13ifvqdi0","pricing_plan_id":"free"},{"bike_id":"694cc18d-6823-481a-9d09-67d990c2d197","system_id":"levelo_inurba_marseille","lat":43.324289,"lon":5.407562,"is_reserved":false,"is_disabled":false,"rental_uris":{"android":"levelo://app?vid=694cc18d-6823-481a-9d09-67d990c2d197","ios":"levelo://app?vid=694cc18d-6823-481a-9d09-67d990c2d197"},"vehicle_type_id":"4","last_reported":1699819606,"current_range_meters":0,"station_id":"","pricing_plan_id":"free"},{"bike_id":"3c1d2216-dc25-4ca9-9467-a8aa53c1dc34","system_id":"levelo_inurba_marseille","lat":43.33824,"lon":5.3939,"is_reserved":false,"is_disabled":false,"rental_uris":{"android":"levelo://app?vid=3c1d2216-dc25-4ca9-9467-a8aa53c1dc34","ios":"levelo://app?vid=3c1d2216-dc25-4ca9-9467-a8aa53c1dc34"},"vehicle_type_id":"4","last_reported":1699819606,"current_range_meters":29200,"station_id":"","pricing_plan_id":"free"},{"bike_id":"3e7a424f-7a9c-4abb-9809-b22b7112b800","system_id":"levelo_inurba_marseille","lat":43.28039,"lon":5.369297,"is_reserved":false,"is_disabled":false,"rental_uris":{"android":"levelo://app?vid=3e7a424f-7a9c-4abb-9809-b22b7112b800","ios":"levelo://app?vid=3e7a424f-7a9c-4abb-9809-b22b7112b800"},"vehicle_type_id":"4","last_reported":1699819606,"current_range_meters":26000,"station_id":"ce4bha12rcd13ifvqef0","pricing_plan_id":"free"},{"bike_id":"e920cec9-29b6-4505-a0e3-b578f0190f62","system_id":"levelo_inurba_marseille","lat":43.283502,"lon":5.386471,"is_reserved":false,"is_disabled":false,"rental_uris":{"android":"levelo://app?vid=e920cec9-29b6-4505-a0e3-b578f0190f62","ios":"levelo://app?vid=e920cec9-29b6-4505-a0e3-b578f0190f62"},"vehicle_type_id":"4","last_reported":1699819606,"current_range_meters":2000,"station_id":"ce4bh492rcd13ifvqdvg","pricing_plan_id":"free"},{"bike_id":"2d817461-c69a-4cbd-b707-0e4b76b807f8","system_id":"levelo_inurba_marseille","lat":43.281044,"lon":5.378308,"is_reserved":false,"is_disabled":false,"rental_uris":{"android":"levelo://app?vid=2d817461-c69a-4cbd-b707-0e4b76b807f8","ios":"levelo://app?vid=2d817461-c69a-4cbd-b707-0e4b76b807f8"},"vehicle_type_id":"4","last_reported":1699819606,"current_range_meters":31200,"station_id":"ce4bha12rcd13ifvqee0","pricing_plan_id":"free"},{"bike_id":"a559ba1a-05cd-4557-a27a-cbe021c6385a","system_id":"levelo_inurba_marseille","lat":43.281044,"lon":5.378308,"is_reserved":false,"is_disabled":false,"rental_uris":{"android":"levelo://app?vid=a559ba1a-05cd-4557-a27a-cbe021c6385a","ios":"levelo://app?vid=a559ba1a-05cd-4557-a27a-cbe021c6385a"},"vehicle_type_id":"4","last_reported":1699819606,"current_range_meters":31200,"station_id":"ce4bha12rcd13ifvqee0","pricing_plan_id":"free"},{"bike_id":"bf1dda2b-9dd4-4250-8f81-b890a4710215","system_id":"levelo_inurba_marseille","lat":43.281044,"lon":5.378308,"is_reserved":false,"is_disabled":false,"rental_uris":{"android":"levelo://app?vid=bf1dda2b-9dd4-4250-8f81-b890a4710215","ios":"levelo://app?vid=bf1dda2b-9dd4-4250-8f81-b890a4710215"},"vehicle_type_id":"4","last_reported":1699819606,"current_range_meters":30800,"station_id":"ce4bha12rcd13ifvqee0","pricing_plan_id":"free"},{"bike_id":"968cdb68-baef-456e-9abc-c82351a48936","system_id":"levelo_inurba_marseille","lat":43.296263,"lon":5.40601,"is_reserved":false,"is_disabled":false,"rental_uris":{"android":"levelo://app?vid=968cdb68-baef-456e-9abc-c82351a48936","ios":"levelo://app?vid=968cdb68-baef-456e-9abc-c82351a48936"},"vehicle_type_id":"4","last_reported":1699819606,"current_range_meters":12400,"station_id":"ce4bh0h2rcd13ifvqd60","pricing_plan_id":"free"},{"bike_id":"da922573-24f7-4078-8272-7eba38f186de","system_id":"levelo_inurba_marseille","lat":43.281044,"lon":5.378308,"is_reserved":false,"is_disabled":false,"rental_uris":{"android":"levelo://app?vid=da922573-24f7-4078-8272-7eba38f186de","ios":"levelo://app?vid=da922573-24f7-4078-8272-7eba38f186de"},"vehicle_type_id":"4","last_reported":1699819606,"current_range_meters":9600,"station_id":"ce4bha12rcd13ifvqee0","pricing_plan_id":"free"},{"bike_id":"8a5a8df1-cd7b-4a4f-b199-c40e777058ca","system_id":"levelo_inurba_marseille","lat":43.281044,"lon":5.378308,"is_reserved":false,"is_disabled":false,"rental_uris":{"android":"levelo://app?vid=8a5a8df1-cd7b-4a4f-b199-c40e777058ca","ios":"levelo://app?vid=8a5a8df1-cd7b-4a4f-b199-c40e777058ca"},"vehicle_type_id":"4","last_reported":1699819606,"current_range_meters":12400,"station_id":"ce4bha12rcd13ifvqee0","pricing_plan_id":"free"},{"bike_id":"3c27eeae-e3cc-44c1-a46f-78f53a923e78","system_id":"levelo_inurba_marseille","lat":43.280983,"lon":5.378289,"is_reserved":false,"is_disabled":false,"rental_uris":{"android":"levelo://app?vid=3c27eeae-e3cc-44c1-a46f-78f53a923e78","ios":"levelo://app?vid=3c27eeae-e3cc-44c1-a46f-78f53a923e78"},"vehicle_type_id":"4","last_reported":1699819606,"current_range_meters":28400,"station_id":"ce4bha12rcd13ifvqee0","pricing_plan_id":"free"},{"bike_id":"ec80e436-b013-4e05-ac1c-1d8cd230fec6","system_id":"levelo_inurba_marseille","lat":43.296263,"lon":5.40601,"is_reserved":false,"is_disabled":false,"rental_uris":{"android":"levelo://app?vid=ec80e436-b013-4e05-ac1c-1d8cd230fec6","ios":"levelo://app?vid=ec80e436-b013-4e05-ac1c-1d8cd230fec6"},"vehicle_type_id":"4","last_reported":1699819606,"current_range_meters":10000,"station_id":"ce4bh0h2rcd13ifvqd60","pricing_plan_id":"free"},{"bike_id":"90556e0c-957f-463f-a467-f770fa4f97d7","system_id":"levelo_inurba_marseille","lat":43.28096,"lon":5.37848,"is_reserved":false,"is_disabled":false,"rental_uris":{"android":"levelo://app?vid=90556e0c-957f-463f-a467-f770fa4f97d7","ios":"levelo://app?vid=90556e0c-957f-463f-a467-f770fa4f97d7"},"vehicle_type_id":"4","last_reported":1699819606,"current_range_meters":31200,"station_id":"ce4bha12rcd13ifvqee0","pricing_plan_id":"free"},{"bike_id":"2d93e3ad-4f91-4709-9f87-d447ebb78ec3","system_id":"levelo_inurba_marseille","lat":43.28092,"lon":5.37842,"is_reserved":false,"is_disabled":false,"rental_uris":{"android":"levelo://app?vid=2d93e3ad-4f91-4709-9f87-d447ebb78ec3","ios":"levelo://app?vid=2d93e3ad-4f91-4709-9f87-d447ebb78ec3"},"vehicle_type_id":"4","last_reported":1699819606,"current_range_meters":30800,"station_id":"ce4bha12rcd13ifvqee0","pricing_plan_id":"free"},{"bike_id":"c5269fde-c094-4163-a2ac-a6350e774e3c","system_id":"levelo_inurba_marseille","lat":43.323447,"lon":5.41003,"is_reserved":false,"is_disabled":false,"rental_uris":{"android":"levelo://app?vid=c5269fde-c094-4163-a2ac-a6350e774e3c","ios":"levelo://app?vid=c5269fde-c094-4163-a2ac-a6350e774e3c"},"vehicle_type_id":"4","last_reported":1699819606,"current_range_meters":400,"station_id":"","pricing_plan_id":"free"},{"bike_id":"9042e460-8045-4344-8c31-d52e7d1bafd7","system_id":"levelo_inurba_marseille","lat":43.28435,"lon":5.391823,"is_reserved":false,"is_disabled":false,"rental_uris":{"android":"levelo://app?vid=9042e460-8045-4344-8c31-d52e7d1bafd7","ios":"levelo://app?vid=9042e460-8045-4344-8c31-d52e7d1bafd7"},"vehicle_type_id":"4","last_reported":1699819606,"current_range_meters":18400,"station_id":"ce4bhoh2rcd13ifvqh5g","pricing_plan_id":"free"},{"bike_id":"5f800b2e-4fa7-442b-a1af-385e3d6c3002","system_id":"levelo_inurba_marseille","lat":43.284462,"lon":5.392121,"is_reserved":false,"is_disabled":false,"rental_uris":{"android":"levelo://app?vid=5f800b2e-4fa7-442b-a1af-385e3d6c3002","ios":"levelo://app?vid=5f800b2e-4fa7-442b-a1af-385e3d6c3002"},"vehicle_type_id":"4","last_reported":1699819606,"current_range_meters":20400,"station_id":"ce4bhoh2rcd13ifvqh5g","pricing_plan_id":"free"},{"bike_id":"ccf9b17e-2fb6-47d5-b5cb-73ea08fcb6e5","system_id":"levelo_inurba_marseille","lat":43.28575,"lon":5.39498,"is_reserved":false,"is_disabled":false,"rental_uris":{"android":"levelo://app?vid=ccf9b17e-2fb6-47d5-b5cb-73ea08fcb6e5","ios":"levelo://app?vid=ccf9b17e-2fb6-47d5-b5cb-73ea08fcb6e5"},"vehicle_type_id":"4","last_reported":1699819606,"current_range_meters":22800,"station_id":"ce4bh292rcd13ifvqdg0","pricing_plan_id":"free"},{"bike_id":"99681ab0-002b-49c0-98ee-32f14b0c6020","system_id":"levelo_inurba_marseille","lat":43.28573,"lon":5.394992,"is_reserved":false,"is_disabled":false,"rental_uris":{"android":"levelo://app?vid=99681ab0-002b-49c0-98ee-32f14b0c6020","ios":"levelo://app?vid=99681ab0-002b-49c0-98ee-32f14b0c6020"},"vehicle_type_id":"4","last_reported":1699819606,"current_range_meters":6000,"station_id":"ce4bh292rcd13ifvqdg0","pricing_plan_id":"free"},{"bike_id":"20b426ae-780d-4a0d-961a-6415c1d2d1a5","system_id":"levelo_inurba_marseille","lat":43.28486,"lon":5.39419,"is_reserved":false,"is_disabled":false,"rental_uris":{"android":"levelo://app?vid=20b426ae-780d-4a0d-961a-6415c1d2d1a5","ios":"levelo://app?vid=20b426ae-780d-4a0d-961a-6415c1d2d1a5"},"vehicle_type_id":"4","last_reported":1699819606,"current_range_meters":0,"station_id":"","pricing_plan_id":"free"},{"bike_id":"44f87d45-4c30-4be0-a61d-c795b7b0ad56","system_id":"levelo_inurba_marseille","lat":43.30418,"lon":5.41289,"is_reserved":false,"is_disabled":false,"rental_uris":{"android":"levelo://app?vid=44f87d45-4c30-4be0-a61d-c795b7b0ad56","ios":"levelo://app?vid=44f87d45-4c30-4be0-a61d-c795b7b0ad56"},"vehicle_type_id":"4","last_reported":1699819606,"current_range_meters":0,"station_id":"ce4bhop2rcd13ifvqh8g","pricing_plan_id":"free"},{"bike_id":"feca28d2-7019-4e39-96be-d7938cc29597","system_id":"levelo_inurba_marseille","lat":43.32435,"lon":5.4137,"is_reserved":false,"is_disabled":false,"rental_uris":{"android":"levelo://app?vid=feca28d2-7019-4e39-96be-d7938cc29597","ios":"levelo://app?vid=feca28d2-7019-4e39-96be-d7938cc29597"},"vehicle_type_id":"4","last_reported":1699819606,"current_range_meters":16400,"station_id":"","pricing_plan_id":"free"},{"bike_id":"507d601e-311a-4c5f-abbd-0b0368a3a7be","system_id":"levelo_inurba_marseille","lat":43.320045,"lon":5.415046,"is_reserved":false,"is_disabled":false,"rental_uris":{"android":"levelo://app?vid=507d601e-311a-4c5f-abbd-0b0368a3a7be","ios":"levelo://app?vid=507d601e-311a-4c5f-abbd-0b0368a3a7be"},"vehicle_type_id":"4","last_reported":1699819606,"current_range_meters":800,"station_id":"ce4bhq92rcd13ifvqhkg","pricing_plan_id":"free"},{"bike_id":"ff18391b-c06b-480d-b998-51332e928800","system_id":"levelo_inurba_marseille","lat":43.279742,"lon":5.38744,"is_reserved":false,"is_disabled":false,"rental_uris":{"android":"levelo://app?vid=ff18391b-c06b-480d-b998-51332e928800","ios":"levelo://app?vid=ff18391b-c06b-480d-b998-51332e928800"},"vehicle_type_id":"4","last_reported":1699819606,"current_range_meters":26800,"station_id":"ce4bhg12rcd13ifvqf80","pricing_plan_id":"free"},{"bike_id":"877ab32d-1e62-4bcb-85d7-f962e0a119c5","system_id":"levelo_inurba_marseille","lat":43.279742,"lon":5.38744,"is_reserved":false,"is_disabled":false,"rental_uris":{"android":"levelo://app?vid=877ab32d-1e62-4bcb-85d7-f962e0a119c5","ios":"levelo://app?vid=877ab32d-1e62-4bcb-85d7-f962e0a119c5"},"vehicle_type_id":"4","last_reported":1699819606,"current_range_meters":31600,"station_id":"ce4bhg12rcd13ifvqf80","pricing_plan_id":"free"},{"bike_id":"22af7a98-e53f-486d-ae1c-b0437af23ee0","system_id":"levelo_inurba_marseille","lat":43.279742,"lon":5.38744,"is_reserved":false,"is_disabled":false,"rental_uris":{"android":"levelo://app?vid=22af7a98-e53f-486d-ae1c-b0437af23ee0","ios":"levelo://app?vid=22af7a98-e53f-486d-ae1c-b0437af23ee0"},"vehicle_type_id":"4","last_reported":1699819606,"current_range_meters":30000,"station_id":"ce4bhg12rcd13ifvqf80","pricing_plan_id":"free"},{"bike_id":"15988bd8-c593-4766-a448-17b9550bf979","system_id":"levelo_inurba_marseille","lat":43.299579,"lon":5.413255,"is_reserved":false,"is_disabled":false,"rental_uris":{"android":"levelo://app?vid=15988bd8-c593-4766-a448-17b9550bf979","ios":"levelo://app?vid=15988bd8-c593-4766-a448-17b9550bf979"},"vehicle_type_id":"4","last_reported":1699819606,"current_range_meters":30000,"station_id":"ce4bhp12rcd13ifvqh9g","pricing_plan_id":"free"},{"bike_id":"53059404-70ba-4fa4-8212-a7639c29202a","system_id":"levelo_inurba_marseille","lat":43.299577,"lon":5.413277,"is_reserved":false,"is_disabled":false,"rental_uris":{"android":"levelo://app?vid=53059404-70ba-4fa4-8212-a7639c29202a","ios":"levelo://app?vid=53059404-70ba-4fa4-8212-a7639c29202a"},"vehicle_type_id":"4","last_reported":1699819606,"current_range_meters":29600,"station_id":"ce4bhp12rcd13ifvqh9g","pricing_plan_id":"free"},{"bike_id":"bb131c0d-6582-42b2-b76a-de7d6286ffe9","system_id":"levelo_inurba_marseille","lat":43.279742,"lon":5.38744,"is_reserved":false,"is_disabled":false,"rental_uris":{"android":"levelo://app?vid=bb131c0d-6582-42b2-b76a-de7d6286ffe9","ios":"levelo://app?vid=bb131c0d-6582-42b2-b76a-de7d6286ffe9"},"vehicle_type_id":"4","last_reported":1699819606,"current_range_meters":31200,"station_id":"ce4bhg12rcd13ifvqf80","pricing_plan_id":"free"},{"bike_id":"5d2c6e43-016f-434c-8709-19ca55415589","system_id":"levelo_inurba_marseille","lat":43.279742,"lon":5.38744,"is_reserved":false,"is_disabled":false,"rental_uris":{"android":"levelo://app?vid=5d2c6e43-016f-434c-8709-19ca55415589","ios":"levelo://app?vid=5d2c6e43-016f-434c-8709-19ca55415589"},"vehicle_type_id":"4","last_reported":1699819606,"current_range_meters":5200,"station_id":"ce4bhg12rcd13ifvqf80","pricing_plan_id":"free"},{"bike_id":"fed9c799-7f53-43fb-947e-d7b392ceca56","system_id":"levelo_inurba_marseille","lat":43.320286,"lon":5.415755,"is_reserved":false,"is_disabled":false,"rental_uris":{"android":"levelo://app?vid=fed9c799-7f53-43fb-947e-d7b392ceca56","ios":"levelo://app?vid=fed9c799-7f53-43fb-947e-d7b392ceca56"},"vehicle_type_id":"4","last_reported":1699819606,"current_range_meters":0,"station_id":"ce4bhq92rcd13ifvqhkg","pricing_plan_id":"free"},{"bike_id":"5f7f8625-e00e-488d-8275-ba4da73c03d6","system_id":"levelo_inurba_marseille","lat":43.292571,"lon":5.409107,"is_reserved":false,"is_disabled":false,"rental_uris":{"android":"levelo://app?vid=5f7f8625-e00e-488d-8275-ba4da73c03d6","ios":"levelo://app?vid=5f7f8625-e00e-488d-8275-ba4da73c03d6"},"vehicle_type_id":"4","last_reported":1699819606,"current_range_meters":8000,"station_id":"ce4bh192rcd13ifvqdc0","pricing_plan_id":"free"},{"bike_id":"840fbf52-1160-4d44-b302-1422b6ae8669","system_id":"levelo_inurba_marseille","lat":43.325233,"lon":5.414318,"is_reserved":false,"is_disabled":false,"rental_uris":{"android":"levelo://app?vid=840fbf52-1160-4d44-b302-1422b6ae8669","ios":"levelo://app?vid=840fbf52-1160-4d44-b302-1422b6ae8669"},"vehicle_type_id":"4","last_reported":1699819606,"current_range_meters":15200,"station_id":"ce4bhq12rcd13ifvqhhg","pricing_plan_id":"free"},{"bike_id":"63baf3ba-558d-4d56-8d6d-906c9ff91a74","system_id":"levelo_inurba_marseille","lat":43.280784,"lon":5.396622,"is_reserved":false,"is_disabled":false,"rental_uris":{"android":"levelo://app?vid=63baf3ba-558d-4d56-8d6d-906c9ff91a74","ios":"levelo://app?vid=63baf3ba-558d-4d56-8d6d-906c9ff91a74"},"vehicle_type_id":"4","last_reported":1699819606,"current_range_meters":5600,"station_id":"ce4bho12rcd13ifvqh2g","pricing_plan_id":"free"},{"bike_id":"6acc87fb-1695-481c-9df7-25f68cfc2634","system_id":"levelo_inurba_marseille","lat":43.278401,"lon":5.392152,"is_reserved":false,"is_disabled":false,"rental_uris":{"android":"levelo://app?vid=6acc87fb-1695-481c-9df7-25f68cfc2634","ios":"levelo://app?vid=6acc87fb-1695-481c-9df7-25f68cfc2634"},"vehicle_type_id":"4","last_reported":1699819606,"current_range_meters":14800,"station_id":"ce4bhjp2rcd13ifvqga0","pricing_plan_id":"free"},{"bike_id":"49695ef2-e6a6-4f51-991d-10b26dc52ea0","system_id":"levelo_inurba_marseille","lat":43.278399,"lon":5.392139,"is_reserved":false,"is_disabled":false,"rental_uris":{"android":"levelo://app?vid=49695ef2-e6a6-4f51-991d-10b26dc52ea0","ios":"levelo://app?vid=49695ef2-e6a6-4f51-991d-10b26dc52ea0"},"vehicle_type_id":"4","last_reported":1699819606,"current_range_meters":16800,"station_id":"ce4bhjp2rcd13ifvqga0","pricing_plan_id":"free"},{"bike_id":"1be15253-f3e5-4bee-ba8b-f0d2af409127","system_id":"levelo_inurba_marseille","lat":43.278399,"lon":5.392139,"is_reserved":false,"is_disabled":false,"rental_uris":{"android":"levelo://app?vid=1be15253-f3e5-4bee-ba8b-f0d2af409127","ios":"levelo://app?vid=1be15253-f3e5-4bee-ba8b-f0d2af409127"},"vehicle_type_id":"4","last_reported":1699819606,"current_range_meters":17600,"station_id":"ce4bhjp2rcd13ifvqga0","pricing_plan_id":"free"},{"bike_id":"e1eadfba-1458-43a5-9e97-06b87711e2af","system_id":"levelo_inurba_marseille","lat":43.276771,"lon":5.388799,"is_reserved":false,"is_disabled":false,"rental_uris":{"android":"levelo://app?vid=e1eadfba-1458-43a5-9e97-06b87711e2af","ios":"levelo://app?vid=e1eadfba-1458-43a5-9e97-06b87711e2af"},"vehicle_type_id":"4","last_reported":1699819606,"current_range_meters":31200,"station_id":"ce4bhi12rcd13ifvqfo0","pricing_plan_id":"free"},{"bike_id":"8d81838e-dc2e-4e52-ac2a-e02a18be5542","system_id":"levelo_inurba_marseille","lat":43.276769,"lon":5.388787,"is_reserved":false,"is_disabled":false,"rental_uris":{"android":"levelo://app?vid=8d81838e-dc2e-4e52-ac2a-e02a18be5542","ios":"levelo://app?vid=8d81838e-dc2e-4e52-ac2a-e02a18be5542"},"vehicle_type_id":"4","last_reported":1699819606,"current_range_meters":31200,"station_id":"ce4bhi12rcd13ifvqfo0","pricing_plan_id":"free"},{"bike_id":"fd9bedd4-6f10-46d5-9ff2-7a887c5e8ebe","system_id":"levelo_inurba_marseille","lat":43.29826,"lon":5.41905,"is_reserved":false,"is_disabled":false,"rental_uris":{"android":"levelo://app?vid=fd9bedd4-6f10-46d5-9ff2-7a887c5e8ebe","ios":"levelo://app?vid=fd9bedd4-6f10-46d5-9ff2-7a887c5e8ebe"},"vehicle_type_id":"4","last_reported":1699819606,"current_range_meters":14000,"station_id":"","pricing_plan_id":"free"},{"bike_id":"f6e400c1-a691-4744-adc6-c2c837428005","system_id":"levelo_inurba_marseille","lat":43.279952,"lon":5.400085,"is_reserved":false,"is_disabled":false,"rental_uris":{"android":"levelo://app?vid=f6e400c1-a691-4744-adc6-c2c837428005","ios":"levelo://app?vid=f6e400c1-a691-4744-adc6-c2c837428005"},"vehicle_type_id":"4","last_reported":1699819606,"current_range_meters":31200,"station_id":"ce4bho92rcd13ifvqh4g","pricing_plan_id":"free"},{"bike_id":"ff98e144-160a-4c1e-892c-f941970edfb7","system_id":"levelo_inurba_marseille","lat":43.340804,"lon":5.410219,"is_reserved":false,"is_disabled":false,"rental_uris":{"android":"levelo://app?vid=ff98e144-160a-4c1e-892c-f941970edfb7","ios":"levelo://app?vid=ff98e144-160a-4c1e-892c-f941970edfb7"},"vehicle_type_id":"4","last_reported":1699819606,"current_range_meters":22400,"station_id":"ce4bhqh2rcd13ifvqhlg","pricing_plan_id":"free"},{"bike_id":"a5f97c79-5f7d-401b-b9aa-59a0d17cd4f6","system_id":"levelo_inurba_marseille","lat":43.274103,"lon":5.394016,"is_reserved":false,"is_disabled":false,"rental_uris":{"android":"levelo://app?vid=a5f97c79-5f7d-401b-b9aa-59a0d17cd4f6","ios":"levelo://app?vid=a5f97c79-5f7d-401b-b9aa-59a0d17cd4f6"},"vehicle_type_id":"4","last_reported":1699819606,"current_range_meters":22400,"station_id":"ce4bhdp2rcd13ifvqf20","pricing_plan_id":"free"},{"bike_id":"272107bc-add3-448b-818c-2ceff32f54bd","system_id":"levelo_inurba_marseille","lat":43.274099,"lon":5.394019,"is_reserved":false,"is_disabled":false,"rental_uris":{"android":"levelo://app?vid=272107bc-add3-448b-818c-2ceff32f54bd","ios":"levelo://app?vid=272107bc-add3-448b-818c-2ceff32f54bd"},"vehicle_type_id":"4","last_reported":1699819606,"current_range_meters":27200,"station_id":"ce4bhdp2rcd13ifvqf20","pricing_plan_id":"free"},{"bike_id":"f60a6620-b220-4861-83c1-af0a208e6fac","system_id":"levelo_inurba_marseille","lat":43.295523,"lon":5.422926,"is_reserved":false,"is_disabled":false,"rental_uris":{"android":"levelo://app?vid=f60a6620-b220-4861-83c1-af0a208e6fac","ios":"levelo://app?vid=f60a6620-b220-4861-83c1-af0a208e6fac"},"vehicle_type_id":"4","last_reported":1699819606,"current_range_meters":23600,"station_id":"ce4bhph2rcd13ifvqhdg","pricing_plan_id":"free"},{"bike_id":"56fc6c2c-64c4-4cbc-b368-c965f0c371ee","system_id":"levelo_inurba_marseille","lat":43.295523,"lon":5.422926,"is_reserved":false,"is_disabled":false,"rental_uris":{"android":"levelo://app?vid=56fc6c2c-64c4-4cbc-b368-c965f0c371ee","ios":"levelo://app?vid=56fc6c2c-64c4-4cbc-b368-c965f0c371ee"},"vehicle_type_id":"4","last_reported":1699819606,"current_range_meters":31600,"station_id":"ce4bhph2rcd13ifvqhdg","pricing_plan_id":"free"},{"bike_id":"4aa2e5ec-9993-463f-9603-2c9f0a0bea8a","system_id":"levelo_inurba_marseille","lat":43.295511,"lon":5.422926,"is_reserved":false,"is_disabled":false,"rental_uris":{"android":"levelo://app?vid=4aa2e5ec-9993-463f-9603-2c9f0a0bea8a","ios":"levelo://app?vid=4aa2e5ec-9993-463f-9603-2c9f0a0bea8a"},"vehicle_type_id":"4","last_reported":1699819606,"current_range_meters":14000,"station_id":"ce4bhph2rcd13ifvqhdg","pricing_plan_id":"free"},{"bike_id":"fc23ceec-b45a-4766-9c80-384d82439159","system_id":"levelo_inurba_marseille","lat":43.295511,"lon":5.422926,"is_reserved":false,"is_disabled":false,"rental_uris":{"android":"levelo://app?vid=fc23ceec-b45a-4766-9c80-384d82439159","ios":"levelo://app?vid=fc23ceec-b45a-4766-9c80-384d82439159"},"vehicle_type_id":"4","last_reported":1699819606,"current_range_meters":27600,"station_id":"ce4bhph2rcd13ifvqhdg","pricing_plan_id":"free"},{"bike_id":"6d9289d7-7903-4242-90a4-d291f4ed4153","system_id":"levelo_inurba_marseille","lat":43.27216,"lon":5.39256,"is_reserved":false,"is_disabled":false,"rental_uris":{"android":"levelo://app?vid=6d9289d7-7903-4242-90a4-d291f4ed4153","ios":"levelo://app?vid=6d9289d7-7903-4242-90a4-d291f4ed4153"},"vehicle_type_id":"4","last_reported":1699819606,"current_range_meters":10800,"station_id":"","pricing_plan_id":"free"},{"bike_id":"9c86b824-2168-4f46-b290-9c226cef33eb","system_id":"levelo_inurba_marseille","lat":43.27192,"lon":5.39228,"is_reserved":false,"is_disabled":false,"rental_uris":{"android":"levelo://app?vid=9c86b824-2168-4f46-b290-9c226cef33eb","ios":"levelo://app?vid=9c86b824-2168-4f46-b290-9c226cef33eb"},"vehicle_type_id":"4","last_reported":1699819606,"current_range_meters":27600,"station_id":"ce4bhhp2rcd13ifvqfm0","pricing_plan_id":"free"},{"bike_id":"fe75077d-42bf-43ae-8fa2-44109df3d40a","system_id":"levelo_inurba_marseille","lat":43.27203,"lon":5.39295,"is_reserved":false,"is_disabled":false,"rental_uris":{"android":"levelo://app?vid=fe75077d-42bf-43ae-8fa2-44109df3d40a","ios":"levelo://app?vid=fe75077d-42bf-43ae-8fa2-44109df3d40a"},"vehicle_type_id":"4","last_reported":1699819606,"current_range_meters":14000,"station_id":"","pricing_plan_id":"free"},{"bike_id":"f05c8540-8d0e-4ef9-b12b-37f30ddb77fe","system_id":"levelo_inurba_marseille","lat":43.278128,"lon":5.407195,"is_reserved":false,"is_disabled":false,"rental_uris":{"android":"levelo://app?vid=f05c8540-8d0e-4ef9-b12b-37f30ddb77fe","ios":"levelo://app?vid=f05c8540-8d0e-4ef9-b12b-37f30ddb77fe"},"vehicle_type_id":"4","last_reported":1699819606,"current_range_meters":6800,"station_id":"ce4bhnh2rcd13ifvqgtg","pricing_plan_id":"free"},{"bike_id":"93eb5247-5b48-47bf-9718-b0b83b911145","system_id":"levelo_inurba_marseille","lat":43.26559,"lon":5.37283,"is_reserved":false,"is_disabled":false,"rental_uris":{"android":"levelo://app?vid=93eb5247-5b48-47bf-9718-b0b83b911145","ios":"levelo://app?vid=93eb5247-5b48-47bf-9718-b0b83b911145"},"vehicle_type_id":"4","last_reported":1699819606,"current_range_meters":8800,"station_id":"ce4bhg12rcd13ifvqf70","pricing_plan_id":"free"},{"bike_id":"64820e71-49b6-4c7a-b6a2-deec6c3daad7","system_id":"levelo_inurba_marseille","lat":43.265714,"lon":5.372891,"is_reserved":false,"is_disabled":false,"rental_uris":{"android":"levelo://app?vid=64820e71-49b6-4c7a-b6a2-deec6c3daad7","ios":"levelo://app?vid=64820e71-49b6-4c7a-b6a2-deec6c3daad7"},"vehicle_type_id":"4","last_reported":1699819606,"current_range_meters":29200,"station_id":"ce4bhg12rcd13ifvqf70","pricing_plan_id":"free"},{"bike_id":"575ca992-e936-4074-b7c6-852b3c666dc2","system_id":"levelo_inurba_marseille","lat":43.308051,"lon":5.43527,"is_reserved":false,"is_disabled":false,"rental_uris":{"android":"levelo://app?vid=575ca992-e936-4074-b7c6-852b3c666dc2","ios":"levelo://app?vid=575ca992-e936-4074-b7c6-852b3c666dc2"},"vehicle_type_id":"4","last_reported":1699819606,"current_range_meters":30000,"station_id":"ce4bhph2rcd13ifvqheg","pricing_plan_id":"free"},{"bike_id":"f39776f8-e338-4e5d-8296-2a44b065e822","system_id":"levelo_inurba_marseille","lat":43.30799,"lon":5.43527,"is_reserved":false,"is_disabled":false,"rental_uris":{"android":"levelo://app?vid=f39776f8-e338-4e5d-8296-2a44b065e822","ios":"levelo://app?vid=f39776f8-e338-4e5d-8296-2a44b065e822"},"vehicle_type_id":"4","last_reported":1699819606,"current_range_meters":30000,"station_id":"ce4bhph2rcd13ifvqheg","pricing_plan_id":"free"},{"bike_id":"033771a6-1055-48d2-9826-6454c9f5b3f7","system_id":"levelo_inurba_marseille","lat":43.307948,"lon":5.435287,"is_reserved":false,"is_disabled":false,"rental_uris":{"android":"levelo://app?vid=033771a6-1055-48d2-9826-6454c9f5b3f7","ios":"levelo://app?vid=033771a6-1055-48d2-9826-6454c9f5b3f7"},"vehicle_type_id":"4","last_reported":1699819606,"current_range_meters":0,"station_id":"ce4bhph2rcd13ifvqheg","pricing_plan_id":"free"},{"bike_id":"2aa6c4b1-a67d-43b7-9eb1-fe5b5bec91bf","system_id":"levelo_inurba_marseille","lat":43.32903,"lon":5.43282,"is_reserved":false,"is_disabled":false,"rental_uris":{"android":"levelo://app?vid=2aa6c4b1-a67d-43b7-9eb1-fe5b5bec91bf","ios":"levelo://app?vid=2aa6c4b1-a67d-43b7-9eb1-fe5b5bec91bf"},"vehicle_type_id":"4","last_reported":1699819606,"current_range_meters":8400,"station_id":"","pricing_plan_id":"free"},{"bike_id":"cfbf6d8d-381c-43fe-9ed8-d6c956f5fbdb","system_id":"levelo_inurba_marseille","lat":43.317104,"lon":5.436818,"is_reserved":false,"is_disabled":false,"rental_uris":{"android":"levelo://app?vid=cfbf6d8d-381c-43fe-9ed8-d6c956f5fbdb","ios":"levelo://app?vid=cfbf6d8d-381c-43fe-9ed8-d6c956f5fbdb"},"vehicle_type_id":"4","last_reported":1699819606,"current_range_meters":27600,"station_id":"ce4bhp92rcd13ifvqhcg","pricing_plan_id":"free"},{"bike_id":"b2d49cda-f49e-4bbf-bbac-372e27fe7e4f","system_id":"levelo_inurba_marseille","lat":43.271368,"lon":5.40928,"is_reserved":false,"is_disabled":false,"rental_uris":{"android":"levelo://app?vid=b2d49cda-f49e-4bbf-bbac-372e27fe7e4f","ios":"levelo://app?vid=b2d49cda-f49e-4bbf-bbac-372e27fe7e4f"},"vehicle_type_id":"4","last_reported":1699819606,"current_range_meters":25200,"station_id":"ce4bhl12rcd13ifvqgf0","pricing_plan_id":"free"},{"bike_id":"982f2640-dc83-4b0c-ac35-458c9efcd9e1","system_id":"levelo_inurba_marseille","lat":43.271368,"lon":5.40928,"is_reserved":false,"is_disabled":false,"rental_uris":{"android":"levelo://app?vid=982f2640-dc83-4b0c-ac35-458c9efcd9e1","ios":"levelo://app?vid=982f2640-dc83-4b0c-ac35-458c9efcd9e1"},"vehicle_type_id":"4","last_reported":1699819606,"current_range_meters":17600,"station_id":"ce4bhl12rcd13ifvqgf0","pricing_plan_id":"free"},{"bike_id":"37f830c7-7ef2-48bf-a546-636135f99c0d","system_id":"levelo_inurba_marseille","lat":43.271388,"lon":5.409269,"is_reserved":false,"is_disabled":false,"rental_uris":{"android":"levelo://app?vid=37f830c7-7ef2-48bf-a546-636135f99c0d","ios":"levelo://app?vid=37f830c7-7ef2-48bf-a546-636135f99c0d"},"vehicle_type_id":"4","last_reported":1699819606,"current_range_meters":32000,"station_id":"ce4bhl12rcd13ifvqgf0","pricing_plan_id":"free"},{"bike_id":"e3431aef-33d7-4a96-bc9f-00e1c07f5ea1","system_id":"levelo_inurba_marseille","lat":43.271388,"lon":5.409269,"is_reserved":false,"is_disabled":false,"rental_uris":{"android":"levelo://app?vid=e3431aef-33d7-4a96-bc9f-00e1c07f5ea1","ios":"levelo://app?vid=e3431aef-33d7-4a96-bc9f-00e1c07f5ea1"},"vehicle_type_id":"4","last_reported":1699819606,"current_range_meters":17600,"station_id":"ce4bhl12rcd13ifvqgf0","pricing_plan_id":"free"},{"bike_id":"3a17f1e6-fc5e-4ea6-8e27-5b38260ca458","system_id":"levelo_inurba_marseille","lat":43.267959,"lon":5.402687,"is_reserved":false,"is_disabled":false,"rental_uris":{"android":"levelo://app?vid=3a17f1e6-fc5e-4ea6-8e27-5b38260ca458","ios":"levelo://app?vid=3a17f1e6-fc5e-4ea6-8e27-5b38260ca458"},"vehicle_type_id":"4","last_reported":1699819606,"current_range_meters":30000,"station_id":"ce501612rcd8frsf0b60","pricing_plan_id":"free"},{"bike_id":"e4a2ea1e-0cba-46fc-8713-2d85f148df36","system_id":"levelo_inurba_marseille","lat":43.27457,"lon":5.41529,"is_reserved":false,"is_disabled":false,"rental_uris":{"android":"levelo://app?vid=e4a2ea1e-0cba-46fc-8713-2d85f148df36","ios":"levelo://app?vid=e4a2ea1e-0cba-46fc-8713-2d85f148df36"},"vehicle_type_id":"4","last_reported":1699819606,"current_range_meters":2400,"station_id":"","pricing_plan_id":"free"},{"bike_id":"a13c7f78-1111-4a67-b445-29e3bdbafa23","system_id":"levelo_inurba_marseille","lat":43.29898,"lon":5.4366,"is_reserved":false,"is_disabled":false,"rental_uris":{"android":"levelo://app?vid=a13c7f78-1111-4a67-b445-29e3bdbafa23","ios":"levelo://app?vid=a13c7f78-1111-4a67-b445-29e3bdbafa23"},"vehicle_type_id":"4","last_reported":1699819606,"current_range_meters":29200,"station_id":"ce4bhpp2rcd13ifvqhfg","pricing_plan_id":"free"},{"bike_id":"40d56399-8859-4a30-8413-a099043eaef7","system_id":"levelo_inurba_marseille","lat":43.298768,"lon":5.43643,"is_reserved":false,"is_disabled":false,"rental_uris":{"android":"levelo://app?vid=40d56399-8859-4a30-8413-a099043eaef7","ios":"levelo://app?vid=40d56399-8859-4a30-8413-a099043eaef7"},"vehicle_type_id":"4","last_reported":1699819606,"current_range_meters":27200,"station_id":"ce4bhpp2rcd13ifvqhfg","pricing_plan_id":"free"},{"bike_id":"c4ee7394-2d21-4371-9e56-e750e1428694","system_id":"levelo_inurba_marseille","lat":43.260219,"lon":5.37546,"is_reserved":false,"is_disabled":false,"rental_uris":{"android":"levelo://app?vid=c4ee7394-2d21-4371-9e56-e750e1428694","ios":"levelo://app?vid=c4ee7394-2d21-4371-9e56-e750e1428694"},"vehicle_type_id":"4","last_reported":1699819606,"current_range_meters":26400,"station_id":"ce4bhgh2rcd13ifvqfa0","pricing_plan_id":"free"},{"bike_id":"4f6880f4-3164-4fc2-9cf7-3c1358040f10","system_id":"levelo_inurba_marseille","lat":43.290501,"lon":5.433305,"is_reserved":false,"is_disabled":false,"rental_uris":{"android":"levelo://app?vid=4f6880f4-3164-4fc2-9cf7-3c1358040f10","ios":"levelo://app?vid=4f6880f4-3164-4fc2-9cf7-3c1358040f10"},"vehicle_type_id":"4","last_reported":1699819606,"current_range_meters":14800,"station_id":"","pricing_plan_id":"free"},{"bike_id":"4b5a0676-50d0-46c4-9db0-c5e96c669a87","system_id":"levelo_inurba_marseille","lat":43.281548,"lon":5.42643,"is_reserved":false,"is_disabled":false,"rental_uris":{"android":"levelo://app?vid=4b5a0676-50d0-46c4-9db0-c5e96c669a87","ios":"levelo://app?vid=4b5a0676-50d0-46c4-9db0-c5e96c669a87"},"vehicle_type_id":"4","last_reported":1699819606,"current_range_meters":14000,"station_id":"ce4bhnh2rcd13ifvqgug","pricing_plan_id":"free"},{"bike_id":"63718dfa-4c43-4b68-bbf4-70bc2c3c0c1d","system_id":"levelo_inurba_marseille","lat":43.2607,"lon":5.393983,"is_reserved":false,"is_disabled":false,"rental_uris":{"android":"levelo://app?vid=63718dfa-4c43-4b68-bbf4-70bc2c3c0c1d","ios":"levelo://app?vid=63718dfa-4c43-4b68-bbf4-70bc2c3c0c1d"},"vehicle_type_id":"4","last_reported":1699819606,"current_range_meters":26000,"station_id":"ce4bhh92rcd13ifvqfj0","pricing_plan_id":"free"},{"bike_id":"39b50ce2-616e-4d24-9a66-7f25ce523b5d","system_id":"levelo_inurba_marseille","lat":43.27493,"lon":5.42455,"is_reserved":false,"is_disabled":false,"rental_uris":{"android":"levelo://app?vid=39b50ce2-616e-4d24-9a66-7f25ce523b5d","ios":"levelo://app?vid=39b50ce2-616e-4d24-9a66-7f25ce523b5d"},"vehicle_type_id":"4","last_reported":1699819606,"current_range_meters":0,"station_id":"ce4bhn92rcd13ifvqgrg","pricing_plan_id":"free"},{"bike_id":"f2307a4c-7611-4db6-b58a-5736d1e13606","system_id":"levelo_inurba_marseille","lat":43.2583,"lon":5.39434,"is_reserved":false,"is_disabled":false,"rental_uris":{"android":"levelo://app?vid=f2307a4c-7611-4db6-b58a-5736d1e13606","ios":"levelo://app?vid=f2307a4c-7611-4db6-b58a-5736d1e13606"},"vehicle_type_id":"4","last_reported":1699819606,"current_range_meters":20400,"station_id":"ce4bhip2rcd13ifvqft0","pricing_plan_id":"free"},{"bike_id":"04c6f8eb-106b-4fcf-999c-48017586cb65","system_id":"levelo_inurba_marseille","lat":43.25579,"lon":5.38242,"is_reserved":false,"is_disabled":false,"rental_uris":{"android":"levelo://app?vid=04c6f8eb-106b-4fcf-999c-48017586cb65","ios":"levelo://app?vid=04c6f8eb-106b-4fcf-999c-48017586cb65"},"vehicle_type_id":"4","last_reported":1699819606,"current_range_meters":15200,"station_id":"ce4bhih2rcd13ifvqfs0","pricing_plan_id":"free"},{"bike_id":"69e90556-1136-4b9d-af9a-8e7cc2ceace7","system_id":"levelo_inurba_marseille","lat":43.258224,"lon":5.394369,"is_reserved":false,"is_disabled":false,"rental_uris":{"android":"levelo://app?vid=69e90556-1136-4b9d-af9a-8e7cc2ceace7","ios":"levelo://app?vid=69e90556-1136-4b9d-af9a-8e7cc2ceace7"},"vehicle_type_id":"4","last_reported":1699819606,"current_range_meters":5600,"station_id":"ce4bhip2rcd13ifvqft0","pricing_plan_id":"free"},{"bike_id":"09fb4565-53dc-4aea-b5c5-1e9781581ac0","system_id":"levelo_inurba_marseille","lat":43.258224,"lon":5.394369,"is_reserved":false,"is_disabled":false,"rental_uris":{"android":"levelo://app?vid=09fb4565-53dc-4aea-b5c5-1e9781581ac0","ios":"levelo://app?vid=09fb4565-53dc-4aea-b5c5-1e9781581ac0"},"vehicle_type_id":"4","last_reported":1699819606,"current_range_meters":27200,"station_id":"ce4bhip2rcd13ifvqft0","pricing_plan_id":"free"},{"bike_id":"d1be4948-3db8-46c6-a0e9-4eb9877553a6","system_id":"levelo_inurba_marseille","lat":43.25498,"lon":5.37655,"is_reserved":false,"is_disabled":false,"rental_uris":{"android":"levelo://app?vid=d1be4948-3db8-46c6-a0e9-4eb9877553a6","ios":"levelo://app?vid=d1be4948-3db8-46c6-a0e9-4eb9877553a6"},"vehicle_type_id":"4","last_reported":1699819606,"current_range_meters":18400,"station_id":"ce4bhh12rcd13ifvqff0","pricing_plan_id":"free"},{"bike_id":"10b76d9f-9a56-4d4a-9914-775d3f83d3aa","system_id":"levelo_inurba_marseille","lat":43.254947,"lon":5.376454,"is_reserved":false,"is_disabled":false,"rental_uris":{"android":"levelo://app?vid=10b76d9f-9a56-4d4a-9914-775d3f83d3aa","ios":"levelo://app?vid=10b76d9f-9a56-4d4a-9914-775d3f83d3aa"},"vehicle_type_id":"4","last_reported":1699819606,"current_range_meters":22400,"station_id":"ce4bhh12rcd13ifvqff0","pricing_plan_id":"free"},{"bike_id":"cce421c9-cbad-426a-b834-a86a3411f32e","system_id":"levelo_inurba_marseille","lat":43.259013,"lon":5.409301,"is_reserved":false,"is_disabled":false,"rental_uris":{"android":"levelo://app?vid=cce421c9-cbad-426a-b834-a86a3411f32e","ios":"levelo://app?vid=cce421c9-cbad-426a-b834-a86a3411f32e"},"vehicle_type_id":"4","last_reported":1699819606,"current_range_meters":7200,"station_id":"ce4bhm92rcd13ifvqglg","pricing_plan_id":"free"},{"bike_id":"7db02a47-f10e-4ef9-b04e-f8faa3c33cca","system_id":"levelo_inurba_marseille","lat":43.25937,"lon":5.4091,"is_reserved":false,"is_disabled":false,"rental_uris":{"android":"levelo://app?vid=7db02a47-f10e-4ef9-b04e-f8faa3c33cca","ios":"levelo://app?vid=7db02a47-f10e-4ef9-b04e-f8faa3c33cca"},"vehicle_type_id":"4","last_reported":1699819606,"current_range_meters":21600,"station_id":"ce4bhm92rcd13ifvqglg","pricing_plan_id":"free"},{"bike_id":"78ae59a3-2b4c-4e3d-8c5c-d320d66437b9","system_id":"levelo_inurba_marseille","lat":43.25932,"lon":5.40912,"is_reserved":false,"is_disabled":false,"rental_uris":{"android":"levelo://app?vid=78ae59a3-2b4c-4e3d-8c5c-d320d66437b9","ios":"levelo://app?vid=78ae59a3-2b4c-4e3d-8c5c-d320d66437b9"},"vehicle_type_id":"4","last_reported":1699819606,"current_range_meters":13600,"station_id":"ce4bhm92rcd13ifvqglg","pricing_plan_id":"free"},{"bike_id":"33ba2cdb-552c-40c8-a6b1-cf2b7653bf7f","system_id":"levelo_inurba_marseille","lat":43.259291,"lon":5.409122,"is_reserved":false,"is_disabled":false,"rental_uris":{"android":"levelo://app?vid=33ba2cdb-552c-40c8-a6b1-cf2b7653bf7f","ios":"levelo://app?vid=33ba2cdb-552c-40c8-a6b1-cf2b7653bf7f"},"vehicle_type_id":"4","last_reported":1699819606,"current_range_meters":400,"station_id":"ce4bhm92rcd13ifvqglg","pricing_plan_id":"free"},{"bike_id":"61eb8050-b458-46cd-83ba-67a164399a1d","system_id":"levelo_inurba_marseille","lat":43.257079,"lon":5.411051,"is_reserved":false,"is_disabled":false,"rental_uris":{"android":"levelo://app?vid=61eb8050-b458-46cd-83ba-67a164399a1d","ios":"levelo://app?vid=61eb8050-b458-46cd-83ba-67a164399a1d"},"vehicle_type_id":"4","last_reported":1699819606,"current_range_meters":26000,"station_id":"ce4bhkp2rcd13ifvqgd0","pricing_plan_id":"free"},{"bike_id":"9d5c4843-a2b6-46a3-a089-1beb7e614d91","system_id":"levelo_inurba_marseille","lat":43.2479,"lon":5.374457,"is_reserved":false,"is_disabled":false,"rental_uris":{"android":"levelo://app?vid=9d5c4843-a2b6-46a3-a089-1beb7e614d91","ios":"levelo://app?vid=9d5c4843-a2b6-46a3-a089-1beb7e614d91"},"vehicle_type_id":"4","last_reported":1699819606,"current_range_meters":24400,"station_id":"ce4bhgh2rcd13ifvqfb0","pricing_plan_id":"free"},{"bike_id":"dae8844e-8f77-4bfc-be48-aa5e7466caae","system_id":"levelo_inurba_marseille","lat":43.24994,"lon":5.38933,"is_reserved":false,"is_disabled":false,"rental_uris":{"android":"levelo://app?vid=dae8844e-8f77-4bfc-be48-aa5e7466caae","ios":"levelo://app?vid=dae8844e-8f77-4bfc-be48-aa5e7466caae"},"vehicle_type_id":"4","last_reported":1699819606,"current_range_meters":0,"station_id":"ce4bhgp2rcd13ifvqfd0","pricing_plan_id":"free"},{"bike_id":"b661997c-3652-4ea6-a0b1-4085c4cf071c","system_id":"levelo_inurba_marseille","lat":43.2479,"lon":5.374457,"is_reserved":false,"is_disabled":false,"rental_uris":{"android":"levelo://app?vid=b661997c-3652-4ea6-a0b1-4085c4cf071c","ios":"levelo://app?vid=b661997c-3652-4ea6-a0b1-4085c4cf071c"},"vehicle_type_id":"4","last_reported":1699819606,"current_range_meters":6800,"station_id":"ce4bhgh2rcd13ifvqfb0","pricing_plan_id":"free"},{"bike_id":"0a61f338-5ad1-4b59-9775-45cdc502078f","system_id":"levelo_inurba_marseille","lat":43.2479,"lon":5.374457,"is_reserved":false,"is_disabled":false,"rental_uris":{"android":"levelo://app?vid=0a61f338-5ad1-4b59-9775-45cdc502078f","ios":"levelo://app?vid=0a61f338-5ad1-4b59-9775-45cdc502078f"},"vehicle_type_id":"4","last_reported":1699819606,"current_range_meters":16400,"station_id":"ce4bhgh2rcd13ifvqfb0","pricing_plan_id":"free"},{"bike_id":"c5d4f1f1-158a-4450-b652-42c20c0ea935","system_id":"levelo_inurba_marseille","lat":43.2479,"lon":5.374457,"is_reserved":false,"is_disabled":false,"rental_uris":{"android":"levelo://app?vid=c5d4f1f1-158a-4450-b652-42c20c0ea935","ios":"levelo://app?vid=c5d4f1f1-158a-4450-b652-42c20c0ea935"},"vehicle_type_id":"4","last_reported":1699819606,"current_range_meters":7200,"station_id":"ce4bhgh2rcd13ifvqfb0","pricing_plan_id":"free"},{"bike_id":"8dd5a5dd-7bdc-4fa9-b4b6-d3ca8f639788","system_id":"levelo_inurba_marseille","lat":43.25092,"lon":5.39514,"is_reserved":false,"is_disabled":false,"rental_uris":{"android":"levelo://app?vid=8dd5a5dd-7bdc-4fa9-b4b6-d3ca8f639788","ios":"levelo://app?vid=8dd5a5dd-7bdc-4fa9-b4b6-d3ca8f639788"},"vehicle_type_id":"4","last_reported":1699819606,"current_range_meters":0,"station_id":"ce4bhm12rcd13ifvqgkg","pricing_plan_id":"free"},{"bike_id":"62fa1369-a457-41b6-8335-4717139987b4","system_id":"levelo_inurba_marseille","lat":43.250892,"lon":5.395151,"is_reserved":false,"is_disabled":false,"rental_uris":{"android":"levelo://app?vid=62fa1369-a457-41b6-8335-4717139987b4","ios":"levelo://app?vid=62fa1369-a457-41b6-8335-4717139987b4"},"vehicle_type_id":"4","last_reported":1699819606,"current_range_meters":20000,"station_id":"ce4bhm12rcd13ifvqgkg","pricing_plan_id":"free"},{"bike_id":"70e7b146-b543-45b0-b7d1-09c9ccb26bcb","system_id":"levelo_inurba_marseille","lat":43.250966,"lon":5.395186,"is_reserved":false,"is_disabled":false,"rental_uris":{"android":"levelo://app?vid=70e7b146-b543-45b0-b7d1-09c9ccb26bcb","ios":"levelo://app?vid=70e7b146-b543-45b0-b7d1-09c9ccb26bcb"},"vehicle_type_id":"4","last_reported":1699819606,"current_range_meters":31200,"station_id":"ce4bhm12rcd13ifvqgkg","pricing_plan_id":"free"},{"bike_id":"684b13d1-fe6f-4f2d-b1c8-13bd8d03bc75","system_id":"levelo_inurba_marseille","lat":43.246764,"lon":5.381648,"is_reserved":false,"is_disabled":false,"rental_uris":{"android":"levelo://app?vid=684b13d1-fe6f-4f2d-b1c8-13bd8d03bc75","ios":"levelo://app?vid=684b13d1-fe6f-4f2d-b1c8-13bd8d03bc75"},"vehicle_type_id":"4","last_reported":1699819606,"current_range_meters":30400,"station_id":"ce4bhih2rcd13ifvqfr0","pricing_plan_id":"free"},{"bike_id":"496ba75f-e40d-4eff-9d9c-a5945a559922","system_id":"levelo_inurba_marseille","lat":43.2512,"lon":5.40319,"is_reserved":false,"is_disabled":false,"rental_uris":{"android":"levelo://app?vid=496ba75f-e40d-4eff-9d9c-a5945a559922","ios":"levelo://app?vid=496ba75f-e40d-4eff-9d9c-a5945a559922"},"vehicle_type_id":"4","last_reported":1699819606,"current_range_meters":0,"station_id":"ce4bhlh2rcd13ifvqgig","pricing_plan_id":"free"},{"bike_id":"c4a10ebc-05db-4cc6-9d02-56bf19318466","system_id":"levelo_inurba_marseille","lat":43.25102,"lon":5.403214,"is_reserved":false,"is_disabled":false,"rental_uris":{"android":"levelo://app?vid=c4a10ebc-05db-4cc6-9d02-56bf19318466","ios":"levelo://app?vid=c4a10ebc-05db-4cc6-9d02-56bf19318466"},"vehicle_type_id":"4","last_reported":1699819606,"current_range_meters":17200,"station_id":"ce4bhlh2rcd13ifvqgig","pricing_plan_id":"free"},{"bike_id":"f606d215-c3e4-4e5b-b768-5b0af98abe46","system_id":"levelo_inurba_marseille","lat":43.25117,"lon":5.40318,"is_reserved":false,"is_disabled":false,"rental_uris":{"android":"levelo://app?vid=f606d215-c3e4-4e5b-b768-5b0af98abe46","ios":"levelo://app?vid=f606d215-c3e4-4e5b-b768-5b0af98abe46"},"vehicle_type_id":"4","last_reported":1699819606,"current_range_meters":25200,"station_id":"ce4bhlh2rcd13ifvqgig","pricing_plan_id":"free"},{"bike_id":"51fb86e4-4f9b-4f48-b62e-7ccc4d349430","system_id":"levelo_inurba_marseille","lat":43.25115,"lon":5.40317,"is_reserved":false,"is_disabled":false,"rental_uris":{"android":"levelo://app?vid=51fb86e4-4f9b-4f48-b62e-7ccc4d349430","ios":"levelo://app?vid=51fb86e4-4f9b-4f48-b62e-7ccc4d349430"},"vehicle_type_id":"4","last_reported":1699819606,"current_range_meters":17600,"station_id":"ce4bhlh2rcd13ifvqgig","pricing_plan_id":"free"},{"bike_id":"0adef68c-f09f-4e0c-ae96-55897cb46be5","system_id":"levelo_inurba_marseille","lat":43.25102,"lon":5.403214,"is_reserved":false,"is_disabled":false,"rental_uris":{"android":"levelo://app?vid=0adef68c-f09f-4e0c-ae96-55897cb46be5","ios":"levelo://app?vid=0adef68c-f09f-4e0c-ae96-55897cb46be5"},"vehicle_type_id":"4","last_reported":1699819606,"current_range_meters":3600,"station_id":"ce4bhlh2rcd13ifvqgig","pricing_plan_id":"free"},{"bike_id":"86270756-7f27-449d-a206-89de41d75666","system_id":"levelo_inurba_marseille","lat":43.25102,"lon":5.403214,"is_reserved":false,"is_disabled":false,"rental_uris":{"android":"levelo://app?vid=86270756-7f27-449d-a206-89de41d75666","ios":"levelo://app?vid=86270756-7f27-449d-a206-89de41d75666"},"vehicle_type_id":"4","last_reported":1699819606,"current_range_meters":11600,"station_id":"ce4bhlh2rcd13ifvqgig","pricing_plan_id":"free"},{"bike_id":"9e36aff8-283c-490c-a563-898ccdf07939","system_id":"levelo_inurba_marseille","lat":43.25102,"lon":5.403214,"is_reserved":false,"is_disabled":false,"rental_uris":{"android":"levelo://app?vid=9e36aff8-283c-490c-a563-898ccdf07939","ios":"levelo://app?vid=9e36aff8-283c-490c-a563-898ccdf07939"},"vehicle_type_id":"4","last_reported":1699819606,"current_range_meters":0,"station_id":"ce4bhlh2rcd13ifvqgig","pricing_plan_id":"free"},{"bike_id":"dfb98506-f267-4b2b-997c-a6a7e03e86de","system_id":"levelo_inurba_marseille","lat":43.25102,"lon":5.403214,"is_reserved":false,"is_disabled":false,"rental_uris":{"android":"levelo://app?vid=dfb98506-f267-4b2b-997c-a6a7e03e86de","ios":"levelo://app?vid=dfb98506-f267-4b2b-997c-a6a7e03e86de"},"vehicle_type_id":"4","last_reported":1699819606,"current_range_meters":25600,"station_id":"ce4bhlh2rcd13ifvqgig","pricing_plan_id":"free"},{"bike_id":"95fb2891-9335-4cd4-86b1-aa83f9e676f8","system_id":"levelo_inurba_marseille","lat":43.25102,"lon":5.403214,"is_reserved":false,"is_disabled":false,"rental_uris":{"android":"levelo://app?vid=95fb2891-9335-4cd4-86b1-aa83f9e676f8","ios":"levelo://app?vid=95fb2891-9335-4cd4-86b1-aa83f9e676f8"},"vehicle_type_id":"4","last_reported":1699819606,"current_range_meters":7200,"station_id":"ce4bhlh2rcd13ifvqgig","pricing_plan_id":"free"},{"bike_id":"0a4107cc-7ae8-4016-967f-071365196ca8","system_id":"levelo_inurba_marseille","lat":43.24651,"lon":5.38898,"is_reserved":false,"is_disabled":false,"rental_uris":{"android":"levelo://app?vid=0a4107cc-7ae8-4016-967f-071365196ca8","ios":"levelo://app?vid=0a4107cc-7ae8-4016-967f-071365196ca8"},"vehicle_type_id":"4","last_reported":1699819606,"current_range_meters":30000,"station_id":"ce4bhg12rcd13ifvqf60","pricing_plan_id":"free"},