{"last_updated":1679580440,"ttl":30,"version":"2.2","data":{"bikes":[{"bike_id":"a94c7dc4-9b17-41da-93a0-6dcc83bc9af4","system_id":"levelo_inurba_marseille","lat":43.312239,"lon":5.368562,"is_reserved":false,"is_disabled":false,"rental_uris":{"android":"levelo://app?vid=a94c7dc4-9b17-41da-93a0-6dcc83bc9af4","ios":"levelo://app?vid=a94c7dc4-9b17-41da-93a0-6dcc83bc9af4"},"vehicle_type_id":"4","last_reported":1679580445,"current_range_meters":0,"station_id":"ce4bgl92rcd13ifvqbq0","pricing_plan_id":"free"},{"bike_id":"6c3c7bb2-5cc0-40b6-9e51-2f892c87036a","system_id":"levelo_inurba_marseille","lat":43.312239,"lon":5.368562,"is_reserved":false,"is_disabled":false,"rental_uris":{"android":"levelo://app?vid=6c3c7bb2-5cc0-40b6-9e51-2f892c87036a","ios":"levelo://app?vid=6c3c7bb2-5cc0-40b6-9e51-2f892c87036a"},"vehicle_type_id":"4","last_reported":1679580445,"current_range_meters":0,"station_id":"ce4bgl92rcd13ifvqbq0","pricing_plan_id":"free"},{"bike_id":"c82a6926-1e52-4775-a841-8dd07227de5a","system_id":"levelo_inurba_marseille","lat":43.290104,"lon":5.356111,"is_reserved":false,"is_disabled":false,"rental_uris":{"android":"levelo://app?vid=c82a6926-1e52-4775-a841-8dd07227de5a","ios":"levelo://app?vid=c82a6926-1e52-4775-a841-8dd07227de5a"},"vehicle_type_id":"4","last_reported":1679580445,"current_range_meters":19600,"station_id":"ce4bhb92rcd13ifvqen0","pricing_plan_id":"free"},{"bike_id":"733a25d3-c759-4af4-96ef-295c3058470b","system_id":"levelo_inurba_marseille","lat":43.314094,"lon":5.375658,"is_reserved":false,"is_disabled":false,"rental_uris":{"android":"levelo://app?vid=733a25d3-c759-4af4-96ef-295c3058470b","ios":"levelo://app?vid=733a25d3-c759-4af4-96ef-295c3058470b"},"vehicle_type_id":"4","last_reported":1679580445,"current_range_meters":0,"station_id":"","pricing_plan_id":"free"},{"bike_id":"a993c2c7-bb9c-40ff-b767-9a90fec87f3f","system_id":"levelo_inurba_marseille","lat":43.30545,"lon":5.367031,"is_reserved":false,"is_disabled":false,"rental_uris":{"android":"levelo://app?vid=a993c2c7-bb9c-40ff-b767-9a90fec87f3f","ios":"levelo://app?vid=a993c2c7-bb9c-40ff-b767-9a90fec87f3f"},"vehicle_type_id":"4","last_reported":1679580445,"current_range_meters":0,"station_id":"","pricing_plan_id":"free"},{"bike_id":"fed166e9-06cb-4adb-bb12-2d89ddf15ada","system_id":"levelo_inurba_marseille","lat":43.30538,"lon":5.36706,"is_reserved":false,"is_disabled":false,"rental_uris":{"android":"levelo://app?vid=fed166e9-06cb-4adb-bb12-2d89ddf15ada","ios":"levelo://app?vid=fed166e9-06cb-4adb-bb12-2d89ddf15ada"},"vehicle_type_id":"4","last_reported":1679580445,"current_range_meters":21200,"station_id":"","pricing_plan_id":"free"},{"bike_id":"2b927b98-341f-46ab-938e-198e18002913","system_id":"levelo_inurba_marseille","lat":43.305989,"lon":5.37225,"is_reserved":false,"is_disabled":false,"rental_uris":{"android":"levelo://app?vid=2b927b98-341f-46ab-938e-198e18002913","ios":"levelo://app?vid=2b927b98-341f-46ab-938e-198e18002913"},"vehicle_type_id":"4","last_reported":1679580445,"current_range_meters":6400,"station_id":"ce4bgqh2rcd13ifvqc4g","pricing_plan_id":"free"},{"bike_id":"1c3cc869-60d6-49ec-81ca-df9ca23f486d","system_id":"levelo_inurba_marseille","lat":43.317075,"lon":5.377367,"is_reserved":false,"is_disabled":false,"rental_uris":{"android":"levelo://app?vid=1c3cc869-60d6-49ec-81ca-df9ca23f486d","ios":"levelo://app?vid=1c3cc869-60d6-49ec-81ca-df9ca23f486d"},"vehicle_type_id":"4","last_reported":1679580445,"current_range_meters":19600,"station_id":"ce4bgth2rcd13ifvqch0","pricing_plan_id":"free"},{"bike_id":"d343fdc2-ae42-4829-9cff-a8ff638b2eda","system_id":"levelo_inurba_marseille","lat":43.31704,"lon":5.37752,"is_reserved":false,"is_disabled":false,"rental_uris":{"android":"levelo://app?vid=d343fdc2-ae42-4829-9cff-a8ff638b2eda","ios":"levelo://app?vid=d343fdc2-ae42-4829-9cff-a8ff638b2eda"},"vehicle_type_id":"4","last_reported":1679580445,"current_range_meters":19600,"station_id":"","pricing_plan_id":"free"},{"bike_id":"aca1a365-e7c5-4eff-b01a-ba62d3cdc572","system_id":"levelo_inurba_marseille","lat":43.317152,"lon":5.377543,"is_reserved":false,"is_disabled":false,"rental_uris":{"android":"levelo://app?vid=aca1a365-e7c5-4eff-b01a-ba62d3cdc572","ios":"levelo://app?vid=aca1a365-e7c5-4eff-b01a-ba62d3cdc572"},"vehicle_type_id":"4","last_reported":1679580445,"current_range_meters":20400,"station_id":"ce4bgth2rcd13ifvqch0","pricing_plan_id":"free"},{"bike_id":"c14de938-e79d-4645-874a-2dc29e894fc7","system_id":"levelo_inurba_marseille","lat":43.301939,"lon":5.366286,"is_reserved":false,"is_disabled":false,"rental_uris":{"android":"levelo://app?vid=c14de938-e79d-4645-874a-2dc29e894fc7","ios":"levelo://app?vid=c14de938-e79d-4645-874a-2dc29e894fc7"},"vehicle_type_id":"4","last_reported":1679580445,"current_range_meters":8000,"station_id":"ce4bgrh2rcd13ifvqc8g","pricing_plan_id":"free"},{"bike_id":"08e920d1-d451-4aae-8997-8d3855bd351f","system_id":"levelo_inurba_marseille","lat":43.30183,"lon":5.36617,"is_reserved":false,"is_disabled":false,"rental_uris":{"android":"levelo://app?vid=08e920d1-d451-4aae-8997-8d3855bd351f","ios":"levelo://app?vid=08e920d1-d451-4aae-8997-8d3855bd351f"},"vehicle_type_id":"4","last_reported":1679580445,"current_range_meters":0,"station_id":"","pricing_plan_id":"free"},{"bike_id":"6a87304e-5ed2-4e1f-95e1-aa5563ceae36","system_id":"levelo_inurba_marseille","lat":43.30181,"lon":5.36617,"is_reserved":false,"is_disabled":false,"rental_uris":{"android":"levelo://app?vid=6a87304e-5ed2-4e1f-95e1-aa5563ceae36","ios":"levelo://app?vid=6a87304e-5ed2-4e1f-95e1-aa5563ceae36"},"vehicle_type_id":"4","last_reported":1679580445,"current_range_meters":18000,"station_id":"","pricing_plan_id":"free"},{"bike_id":"0100c097-4f49-4029-a1b5-1954c3c17a14","system_id":"levelo_inurba_marseille","lat":43.304606,"lon":5.379026,"is_reserved":false,"is_disabled":false,"rental_uris":{"android":"levelo://app?vid=0100c097-4f49-4029-a1b5-1954c3c17a14","ios":"levelo://app?vid=0100c097-4f49-4029-a1b5-1954c3c17a14"},"vehicle_type_id":"4","last_reported":1679580445,"current_range_meters":32000,"station_id":"ce4bgup2rcd13ifvqcn0","pricing_plan_id":"free"},{"bike_id":"fe9a82d0-6314-4767-b15b-5b9aff038c22","system_id":"levelo_inurba_marseille","lat":43.304606,"lon":5.379026,"is_reserved":false,"is_disabled":false,"rental_uris":{"android":"levelo://app?vid=fe9a82d0-6314-4767-b15b-5b9aff038c22","ios":"levelo://app?vid=fe9a82d0-6314-4767-b15b-5b9aff038c22"},"vehicle_type_id":"4","last_reported":1679580445,"current_range_meters":26800,"station_id":"ce4bgup2rcd13ifvqcn0","pricing_plan_id":"free"},{"bike_id":"594ca9e9-f0e4-4453-b34c-88e081f70955","system_id":"levelo_inurba_marseille","lat":43.304602,"lon":5.379043,"is_reserved":false,"is_disabled":false,"rental_uris":{"android":"levelo://app?vid=594ca9e9-f0e4-4453-b34c-88e081f70955","ios":"levelo://app?vid=594ca9e9-f0e4-4453-b34c-88e081f70955"},"vehicle_type_id":"4","last_reported":1679580445,"current_range_meters":2400,"station_id":"","pricing_plan_id":"free"},{"bike_id":"18c27730-bfe4-4201-976f-ce130db8452e","system_id":"levelo_inurba_marseille","lat":43.304606,"lon":5.379026,"is_reserved":false,"is_disabled":false,"rental_uris":{"android":"levelo://app?vid=18c27730-bfe4-4201-976f-ce130db8452e","ios":"levelo://app?vid=18c27730-bfe4-4201-976f-ce130db8452e"},"vehicle_type_id":"4","last_reported":1679580445,"current_range_meters":2400,"station_id":"ce4bgup2rcd13ifvqcn0","pricing_plan_id":"free"},{"bike_id":"40ded0d9-587f-4b89-84bc-f328ae2e137a","system_id":"levelo_inurba_marseille","lat":43.304606,"lon":5.379026,"is_reserved":false,"is_disabled":false,"rental_uris":{"android":"levelo://app?vid=40ded0d9-587f-4b89-84bc-f328ae2e137a","ios":"levelo://app?vid=40ded0d9-587f-4b89-84bc-f328ae2e137a"},"vehicle_type_id":"4","last_reported":1679580445,"current_range_meters":28400,"station_id":"ce4bgup2rcd13ifvqcn0","pricing_plan_id":"free"},{"bike_id":"276f8eeb-4974-4fbf-9cb1-269061ff0a6d","system_id":"levelo_inurba_marseille","lat":43.304606,"lon":5.379026,"is_reserved":false,"is_disabled":false,"rental_uris":{"android":"levelo://app?vid=276f8eeb-4974-4fbf-9cb1-269061ff0a6d","ios":"levelo://app?vid=276f8eeb-4974-4fbf-9cb1-269061ff0a6d"},"vehicle_type_id":"4","last_reported":1679580445,"current_range_meters":30000,"station_id":"ce4bgup2rcd13ifvqcn0","pricing_plan_id":"free"},{"bike_id":"39a45d59-4637-4e4d-9441-85e69fd911f9","system_id":"levelo_inurba_marseille","lat":43.304606,"lon":5.379026,"is_reserved":false,"is_disabled":false,"rental_uris":{"android":"levelo://app?vid=39a45d59-4637-4e4d-9441-85e69fd911f9","ios":"levelo://app?vid=39a45d59-4637-4e4d-9441-85e69fd911f9"},"vehicle_type_id":"4","last_reported":1679580445,"current_range_meters":27600,"station_id":"ce4bgup2rcd13ifvqcn0","pricing_plan_id":"free"},{"bike_id":"68856d2e-5b85-4da9-9631-4dbc7f38a87e","system_id":"levelo_inurba_marseille","lat":43.304606,"lon":5.379026,"is_reserved":false,"is_disabled":false,"rental_uris":{"android":"levelo://app?vid=68856d2e-5b85-4da9-9631-4dbc7f38a87e","ios":"levelo://app?vid=68856d2e-5b85-4da9-9631-4dbc7f38a87e"},"vehicle_type_id":"4","last_reported":1679580445,"current_range_meters":31600,"station_id":"ce4bgup2rcd13ifvqcn0","pricing_plan_id":"free"},{"bike_id":"58697190-ec51-47e9-ac44-5c6e3be0419f","system_id":"levelo_inurba_marseille","lat":43.31372,"lon":5.38499,"is_reserved":false,"is_disabled":false,"rental_uris":{"android":"levelo://app?vid=58697190-ec51-47e9-ac44-5c6e3be0419f","ios":"levelo://app?vid=58697190-ec51-47e9-ac44-5c6e3be0419f"},"vehicle_type_id":"4","last_reported":1679580445,"current_range_meters":0,"station_id":"","pricing_plan_id":"free"},{"bike_id":"071ede2d-01c8-4f4d-b06f-27ae7afd1dd9","system_id":"levelo_inurba_marseille","lat":43.30546,"lon":5.38414,"is_reserved":false,"is_disabled":false,"rental_uris":{"android":"levelo://app?vid=071ede2d-01c8-4f4d-b06f-27ae7afd1dd9","ios":"levelo://app?vid=071ede2d-01c8-4f4d-b06f-27ae7afd1dd9"},"vehicle_type_id":"4","last_reported":1679580445,"current_range_meters":3200,"station_id":"ce4bgg92rcd13ifvqb30","pricing_plan_id":"free"},{"bike_id":"64c579eb-65e7-4f94-9737-a079f9cce67f","system_id":"levelo_inurba_marseille","lat":43.3054,"lon":5.3842,"is_reserved":false,"is_disabled":false,"rental_uris":{"android":"levelo://app?vid=64c579eb-65e7-4f94-9737-a079f9cce67f","ios":"levelo://app?vid=64c579eb-65e7-4f94-9737-a079f9cce67f"},"vehicle_type_id":"4","last_reported":1679580445,"current_range_meters":29200,"station_id":"ce4bgg92rcd13ifvqb30","pricing_plan_id":"free"},{"bike_id":"003c30e4-c7a0-4f45-abfa-45c822d1d3bf","system_id":"levelo_inurba_marseille","lat":43.30543,"lon":5.38428,"is_reserved":false,"is_disabled":false,"rental_uris":{"android":"levelo://app?vid=003c30e4-c7a0-4f45-abfa-45c822d1d3bf","ios":"levelo://app?vid=003c30e4-c7a0-4f45-abfa-45c822d1d3bf"},"vehicle_type_id":"4","last_reported":1679580445,"current_range_meters":13600,"station_id":"ce4bgg92rcd13ifvqb30","pricing_plan_id":"free"},{"bike_id":"df0716a9-e372-4651-a116-63bec85919c6","system_id":"levelo_inurba_marseille","lat":43.311722,"lon":5.387247,"is_reserved":false,"is_disabled":false,"rental_uris":{"android":"levelo://app?vid=df0716a9-e372-4651-a116-63bec85919c6","ios":"levelo://app?vid=df0716a9-e372-4651-a116-63bec85919c6"},"vehicle_type_id":"4","last_reported":1679580445,"current_range_meters":11600,"station_id":"ce4bgv12rcd13ifvqcp0","pricing_plan_id":"free"},{"bike_id":"4db7459f-30d6-45d1-8a50-5e7e95a25faa","system_id":"levelo_inurba_marseille","lat":43.313484,"lon":5.38744,"is_reserved":false,"is_disabled":false,"rental_uris":{"android":"levelo://app?vid=4db7459f-30d6-45d1-8a50-5e7e95a25faa","ios":"levelo://app?vid=4db7459f-30d6-45d1-8a50-5e7e95a25faa"},"vehicle_type_id":"4","last_reported":1679580445,"current_range_meters":28000,"station_id":"","pricing_plan_id":"free"},{"bike_id":"1e249984-e53a-46da-945a-e23f3c26bf9a","system_id":"levelo_inurba_marseille","lat":43.29794,"lon":5.371,"is_reserved":false,"is_disabled":false,"rental_uris":{"android":"levelo://app?vid=1e249984-e53a-46da-945a-e23f3c26bf9a","ios":"levelo://app?vid=1e249984-e53a-46da-945a-e23f3c26bf9a"},"vehicle_type_id":"4","last_reported":1679580445,"current_range_meters":21200,"station_id":"","pricing_plan_id":"free"},{"bike_id":"4ab39da9-3747-43dc-90ce-e759cbde6eb7","system_id":"levelo_inurba_marseille","lat":43.328371,"lon":5.366912,"is_reserved":false,"is_disabled":false,"rental_uris":{"android":"levelo://app?vid=4ab39da9-3747-43dc-90ce-e759cbde6eb7","ios":"levelo://app?vid=4ab39da9-3747-43dc-90ce-e759cbde6eb7"},"vehicle_type_id":"4","last_reported":1679580445,"current_range_meters":15600,"station_id":"ce4bhs92rcd13ifvqi0g","pricing_plan_id":"free"},{"bike_id":"ef8b5fe7-19d6-49a8-b775-b6d2710b7942","system_id":"levelo_inurba_marseille","lat":43.309589,"lon":5.390258,"is_reserved":false,"is_disabled":false,"rental_uris":{"android":"levelo://app?vid=ef8b5fe7-19d6-49a8-b775-b6d2710b7942","ios":"levelo://app?vid=ef8b5fe7-19d6-49a8-b775-b6d2710b7942"},"vehicle_type_id":"4","last_reported":1679580445,"current_range_meters":18000,"station_id":"ce4bgup2rcd13ifvqco0","pricing_plan_id":"free"},{"bike_id":"995a3f30-252c-4bec-8b1c-782acec27459","system_id":"levelo_inurba_marseille","lat":43.309589,"lon":5.390258,"is_reserved":false,"is_disabled":false,"rental_uris":{"android":"levelo://app?vid=995a3f30-252c-4bec-8b1c-782acec27459","ios":"levelo://app?vid=995a3f30-252c-4bec-8b1c-782acec27459"},"vehicle_type_id":"4","last_reported":1679580445,"current_range_meters":29200,"station_id":"ce4bgup2rcd13ifvqco0","pricing_plan_id":"free"},{"bike_id":"91331081-4b51-4aef-a870-2e65d4d8fd78","system_id":"levelo_inurba_marseille","lat":43.309589,"lon":5.390258,"is_reserved":false,"is_disabled":false,"rental_uris":{"android":"levelo://app?vid=91331081-4b51-4aef-a870-2e65d4d8fd78","ios":"levelo://app?vid=91331081-4b51-4aef-a870-2e65d4d8fd78"},"vehicle_type_id":"4","last_reported":1679580445,"current_range_meters":31600,"station_id":"ce4bgup2rcd13ifvqco0","pricing_plan_id":"free"},{"bike_id":"f484113d-5b6a-4277-b198-5d6d31eaaf56","system_id":"levelo_inurba_marseille","lat":43.317573,"lon":5.390243,"is_reserved":false,"is_disabled":false,"rental_uris":{"android":"levelo://app?vid=f484113d-5b6a-4277-b198-5d6d31eaaf56","ios":"levelo://app?vid=f484113d-5b6a-4277-b198-5d6d31eaaf56"},"vehicle_type_id":"4","last_reported":1679580445,"current_range_meters":21200,"station_id":"ce4bhqp2rcd13ifvqhng","pricing_plan_id":"free"},{"bike_id":"7b602778-683e-4a6e-a091-143467797630","system_id":"levelo_inurba_marseille","lat":43.297224,"lon":5.378926,"is_reserved":false,"is_disabled":false,"rental_uris":{"android":"levelo://app?vid=7b602778-683e-4a6e-a091-143467797630","ios":"levelo://app?vid=7b602778-683e-4a6e-a091-143467797630"},"vehicle_type_id":"4","last_reported":1679580445,"current_range_meters":0,"station_id":"","pricing_plan_id":"free"},{"bike_id":"7c11dd29-096b-4c4d-b941-c808c0e3fe83","system_id":"levelo_inurba_marseille","lat":43.295748,"lon":5.37522,"is_reserved":false,"is_disabled":false,"rental_uris":{"android":"levelo://app?vid=7c11dd29-096b-4c4d-b941-c808c0e3fe83","ios":"levelo://app?vid=7c11dd29-096b-4c4d-b941-c808c0e3fe83"},"vehicle_type_id":"4","last_reported":1679580445,"current_range_meters":800,"station_id":"ce4bgh92rcd13ifvqb50","pricing_plan_id":"free"},{"bike_id":"b0acfe67-d401-409c-b299-17aebb56fd52","system_id":"levelo_inurba_marseille","lat":43.298037,"lon":5.381066,"is_reserved":false,"is_disabled":false,"rental_uris":{"android":"levelo://app?vid=b0acfe67-d401-409c-b299-17aebb56fd52","ios":"levelo://app?vid=b0acfe67-d401-409c-b299-17aebb56fd52"},"vehicle_type_id":"4","last_reported":1679580445,"current_range_meters":0,"station_id":"ce4bgip2rcd13ifvqbb0","pricing_plan_id":"free"},{"bike_id":"2ab5a9eb-6e40-4880-9563-a79ce49a4d3d","system_id":"levelo_inurba_marseille","lat":43.298037,"lon":5.381066,"is_reserved":false,"is_disabled":false,"rental_uris":{"android":"levelo://app?vid=2ab5a9eb-6e40-4880-9563-a79ce49a4d3d","ios":"levelo://app?vid=2ab5a9eb-6e40-4880-9563-a79ce49a4d3d"},"vehicle_type_id":"4","last_reported":1679580445,"current_range_meters":30400,"station_id":"ce4bgip2rcd13ifvqbb0","pricing_plan_id":"free"},{"bike_id":"8227091a-5e90-41fd-9c5e-bb264db32ab0","system_id":"levelo_inurba_marseille","lat":43.298037,"lon":5.381066,"is_reserved":false,"is_disabled":false,"rental_uris":{"android":"levelo://app?vid=8227091a-5e90-41fd-9c5e-bb264db32ab0","ios":"levelo://app?vid=8227091a-5e90-41fd-9c5e-bb264db32ab0"},"vehicle_type_id":"4","last_reported":1679580445,"current_range_meters":6400,"station_id":"ce4bgip2rcd13ifvqbb0","pricing_plan_id":"free"},{"bike_id":"c0007094-7b04-443d-972c-f73ce8569d31","system_id":"levelo_inurba_marseille","lat":43.298037,"lon":5.381066,"is_reserved":false,"is_disabled":false,"rental_uris":{"android":"levelo://app?vid=c0007094-7b04-443d-972c-f73ce8569d31","ios":"levelo://app?vid=c0007094-7b04-443d-972c-f73ce8569d31"},"vehicle_type_id":"4","last_reported":1679580445,"current_range_meters":10800,"station_id":"ce4bgip2rcd13ifvqbb0","pricing_plan_id":"free"},{"bike_id":"5d285957-ca8c-4ccd-9577-537b9692f41b","system_id":"levelo_inurba_marseille","lat":43.299724,"lon":5.384848,"is_reserved":false,"is_disabled":false,"rental_uris":{"android":"levelo://app?vid=5d285957-ca8c-4ccd-9577-537b9692f41b","ios":"levelo://app?vid=5d285957-ca8c-4ccd-9577-537b9692f41b"},"vehicle_type_id":"4","last_reported":1679580445,"current_range_meters":13200,"station_id":"ce4bgj92rcd13ifvqbd0","pricing_plan_id":"free"},{"bike_id":"6daf38c4-3a68-4175-b829-7b1dc0d7d0f0","system_id":"levelo_inurba_marseille","lat":43.32366,"lon":5.38879,"is_reserved":false,"is_disabled":false,"rental_uris":{"android":"levelo://app?vid=6daf38c4-3a68-4175-b829-7b1dc0d7d0f0","ios":"levelo://app?vid=6daf38c4-3a68-4175-b829-7b1dc0d7d0f0"},"vehicle_type_id":"4","last_reported":1679580445,"current_range_meters":800,"station_id":"ce4bhqp2rcd13ifvqhog","pricing_plan_id":"free"},{"bike_id":"9ecf58dc-84f2-45fe-9813-323038e801bb","system_id":"levelo_inurba_marseille","lat":43.32367,"lon":5.38884,"is_reserved":false,"is_disabled":false,"rental_uris":{"android":"levelo://app?vid=9ecf58dc-84f2-45fe-9813-323038e801bb","ios":"levelo://app?vid=9ecf58dc-84f2-45fe-9813-323038e801bb"},"vehicle_type_id":"4","last_reported":1679580445,"current_range_meters":8400,"station_id":"","pricing_plan_id":"free"},{"bike_id":"e0e09a67-7154-4d96-a7f6-7735a41888f0","system_id":"levelo_inurba_marseille","lat":43.32366,"lon":5.38885,"is_reserved":false,"is_disabled":false,"rental_uris":{"android":"levelo://app?vid=e0e09a67-7154-4d96-a7f6-7735a41888f0","ios":"levelo://app?vid=e0e09a67-7154-4d96-a7f6-7735a41888f0"},"vehicle_type_id":"4","last_reported":1679580445,"current_range_meters":2400,"station_id":"","pricing_plan_id":"free"},{"bike_id":"fca2f8cc-4eef-400d-83f2-c22631d3bd61","system_id":"levelo_inurba_marseille","lat":43.32367,"lon":5.38887,"is_reserved":false,"is_disabled":false,"rental_uris":{"android":"levelo://app?vid=fca2f8cc-4eef-400d-83f2-c22631d3bd61","ios":"levelo://app?vid=fca2f8cc-4eef-400d-83f2-c22631d3bd61"},"vehicle_type_id":"4","last_reported":1679580445,"current_range_meters":0,"station_id":"","pricing_plan_id":"free"},{"bike_id":"c2a51757-2f5c-4654-95b7-4dcd7babb7aa","system_id":"levelo_inurba_marseille","lat":43.305994,"lon":5.393687,"is_reserved":false,"is_disabled":false,"rental_uris":{"android":"levelo://app?vid=c2a51757-2f5c-4654-95b7-4dcd7babb7aa","ios":"levelo://app?vid=c2a51757-2f5c-4654-95b7-4dcd7babb7aa"},"vehicle_type_id":"4","last_reported":1679580445,"current_range_meters":5200,"station_id":"ce4bh0p2rcd13ifvqd80","pricing_plan_id":"free"},{"bike_id":"656dd7f5-43f7-4c2c-84ef-513565c18b6f","system_id":"levelo_inurba_marseille","lat":43.305994,"lon":5.393687,"is_reserved":false,"is_disabled":false,"rental_uris":{"android":"levelo://app?vid=656dd7f5-43f7-4c2c-84ef-513565c18b6f","ios":"levelo://app?vid=656dd7f5-43f7-4c2c-84ef-513565c18b6f"},"vehicle_type_id":"4","last_reported":1679580445,"current_range_meters":19200,"station_id":"ce4bh0p2rcd13ifvqd80","pricing_plan_id":"free"},{"bike_id":"ab473d43-6b3e-4d2f-b75a-c61ac57bdcec","system_id":"levelo_inurba_marseille","lat":43.305994,"lon":5.393687,"is_reserved":false,"is_disabled":false,"rental_uris":{"android":"levelo://app?vid=ab473d43-6b3e-4d2f-b75a-c61ac57bdcec","ios":"levelo://app?vid=ab473d43-6b3e-4d2f-b75a-c61ac57bdcec"},"vehicle_type_id":"4","last_reported":1679580445,"current_range_meters":4000,"station_id":"ce4bh0p2rcd13ifvqd80","pricing_plan_id":"free"},{"bike_id":"7bafdd8d-7909-4e35-b694-10dbeadf622c","system_id":"levelo_inurba_marseille","lat":43.31843,"lon":5.394068,"is_reserved":false,"is_disabled":false,"rental_uris":{"android":"levelo://app?vid=7bafdd8d-7909-4e35-b694-10dbeadf622c","ios":"levelo://app?vid=7bafdd8d-7909-4e35-b694-10dbeadf622c"},"vehicle_type_id":"4","last_reported":1679580445,"current_range_meters":10800,"station_id":"","pricing_plan_id":"free"},{"bike_id":"1dd9aae3-0311-4786-bad9-45e4ce195345","system_id":"levelo_inurba_marseille","lat":43.293738,"lon":5.378504,"is_reserved":false,"is_disabled":false,"rental_uris":{"android":"levelo://app?vid=1dd9aae3-0311-4786-bad9-45e4ce195345","ios":"levelo://app?vid=1dd9aae3-0311-4786-bad9-45e4ce195345"},"vehicle_type_id":"4","last_reported":1679580445,"current_range_meters":6800,"station_id":"ce4bgjh2rcd13ifvqbf0","pricing_plan_id":"free"},{"bike_id":"41643386-13e0-4920-8dbe-d46559b86745","system_id":"levelo_inurba_marseille","lat":43.29256,"lon":5.359963,"is_reserved":false,"is_disabled":false,"rental_uris":{"android":"levelo://app?vid=41643386-13e0-4920-8dbe-d46559b86745","ios":"levelo://app?vid=41643386-13e0-4920-8dbe-d46559b86745"},"vehicle_type_id":"4","last_reported":1679580445,"current_range_meters":6400,"station_id":"","pricing_plan_id":"free"},{"bike_id":"b6e85e39-55ec-436a-85d9-4605352f74c3","system_id":"levelo_inurba_marseille","lat":43.29229,"lon":5.36074,"is_reserved":false,"is_disabled":false,"rental_uris":{"android":"levelo://app?vid=b6e85e39-55ec-436a-85d9-4605352f74c3","ios":"levelo://app?vid=b6e85e39-55ec-436a-85d9-4605352f74c3"},"vehicle_type_id":"4","last_reported":1679580445,"current_range_meters":18800,"station_id":"ce4bhbh2rcd13ifvqeqg","pricing_plan_id":"free"},{"bike_id":"5173b26f-5b9b-4989-b4e1-02bb85b1dc41","system_id":"levelo_inurba_marseille","lat":43.2923,"lon":5.36064,"is_reserved":false,"is_disabled":false,"rental_uris":{"android":"levelo://app?vid=5173b26f-5b9b-4989-b4e1-02bb85b1dc41","ios":"levelo://app?vid=5173b26f-5b9b-4989-b4e1-02bb85b1dc41"},"vehicle_type_id":"4","last_reported":1679580445,"current_range_meters":11200,"station_id":"ce4bhbh2rcd13ifvqeqg","pricing_plan_id":"free"},{"bike_id":"81bb0c09-112d-4dee-bc13-0be49616fd9f","system_id":"levelo_inurba_marseille","lat":43.291689,"lon":5.371594,"is_reserved":false,"is_disabled":false,"rental_uris":{"android":"levelo://app?vid=81bb0c09-112d-4dee-bc13-0be49616fd9f","ios":"levelo://app?vid=81bb0c09-112d-4dee-bc13-0be49616fd9f"},"vehicle_type_id":"4","last_reported":1679580445,"current_range_meters":0,"station_id":"ce4bha92rcd13ifvqeh0","pricing_plan_id":"free"},{"bike_id":"c06edf88-e2e5-465e-96f0-afc27fc21752","system_id":"levelo_inurba_marseille","lat":43.309038,"lon":5.396546,"is_reserved":false,"is_disabled":false,"rental_uris":{"android":"levelo://app?vid=c06edf88-e2e5-465e-96f0-afc27fc21752","ios":"levelo://app?vid=c06edf88-e2e5-465e-96f0-afc27fc21752"},"vehicle_type_id":"4","last_reported":1679580445,"current_range_meters":12000,"station_id":"ce4bh012rcd13ifvqcv0","pricing_plan_id":"free"},{"bike_id":"02ebfb03-cfc3-408c-b2c0-9a13dae59cad","system_id":"levelo_inurba_marseille","lat":43.313291,"lon":5.396838,"is_reserved":false,"is_disabled":false,"rental_uris":{"android":"levelo://app?vid=02ebfb03-cfc3-408c-b2c0-9a13dae59cad","ios":"levelo://app?vid=02ebfb03-cfc3-408c-b2c0-9a13dae59cad"},"vehicle_type_id":"4","last_reported":1679580445,"current_range_meters":18400,"station_id":"ce4bgvp2rcd13ifvqcu0","pricing_plan_id":"free"},{"bike_id":"4757d3a9-2a51-4e57-8d92-55390a4fc228","system_id":"levelo_inurba_marseille","lat":43.313291,"lon":5.396838,"is_reserved":false,"is_disabled":false,"rental_uris":{"android":"levelo://app?vid=4757d3a9-2a51-4e57-8d92-55390a4fc228","ios":"levelo://app?vid=4757d3a9-2a51-4e57-8d92-55390a4fc228"},"vehicle_type_id":"4","last_reported":1679580445,"current_range_meters":26800,"station_id":"ce4bgvp2rcd13ifvqcu0","pricing_plan_id":"free"},{"bike_id":"2733357f-a127-46d9-ab2d-4c806b804f56","system_id":"levelo_inurba_marseille","lat":43.313291,"lon":5.396838,"is_reserved":false,"is_disabled":false,"rental_uris":{"android":"levelo://app?vid=2733357f-a127-46d9-ab2d-4c806b804f56","ios":"levelo://app?vid=2733357f-a127-46d9-ab2d-4c806b804f56"},"vehicle_type_id":"4","last_reported":1679580445,"current_range_meters":31600,"station_id":"ce4bgvp2rcd13ifvqcu0","pricing_plan_id":"free"},{"bike_id":"05f56d03-5f6a-4816-a799-648d5de0292b","system_id":"levelo_inurba_marseille","lat":43.313291,"lon":5.396838,"is_reserved":false,"is_disabled":false,"rental_uris":{"android":"levelo://app?vid=05f56d03-5f6a-4816-a799-648d5de0292b","ios":"levelo://app?vid=05f56d03-5f6a-4816-a799-648d5de0292b"},"vehicle_type_id":"4","last_reported":1679580445,"current_range_meters":31200,"station_id":"ce4bgvp2rcd13ifvqcu0","pricing_plan_id":"free"},{"bike_id":"f97296ce-3ca6-46ae-8304-fed500fe25fc","system_id":"levelo_inurba_marseille","lat":43.313291,"lon":5.396838,"is_reserved":false,"is_disabled":false,"rental_uris":{"android":"levelo://app?vid=f97296ce-3ca6-46ae-8304-fed500fe25fc","ios":"levelo://app?vid=f97296ce-3ca6-46ae-8304-fed500fe25fc"},"vehicle_type_id":"4","last_reported":1679580445,"current_range_meters":29200,"station_id":"ce4bgvp2rcd13ifvqcu0","pricing_plan_id":"free"},{"bike_id":"2c5a9c35-a03c-462c-a482-3fe0a05c3cc3","system_id":"levelo_inurba_marseille","lat":43.309038,"lon":5.396546,"is_reserved":false,"is_disabled":false,"rental_uris":{"android":"levelo://app?vid=2c5a9c35-a03c-462c-a482-3fe0a05c3cc3","ios":"levelo://app?vid=2c5a9c35-a03c-462c-a482-3fe0a05c3cc3"},"vehicle_type_id":"4","last_reported":1679580445,"current_range_meters":20800,"station_id":"ce4bh012rcd13ifvqcv0","pricing_plan_id":"free"},{"bike_id":"d6239e71-6964-4deb-be81-d5a03d3549d2","system_id":"levelo_inurba_marseille","lat":43.313291,"lon":5.396838,"is_reserved":false,"is_disabled":false,"rental_uris":{"android":"levelo://app?vid=d6239e71-6964-4deb-be81-d5a03d3549d2","ios":"levelo://app?vid=d6239e71-6964-4deb-be81-d5a03d3549d2"},"vehicle_type_id":"4","last_reported":1679580445,"current_range_meters":24000,"station_id":"ce4bgvp2rcd13ifvqcu0","pricing_plan_id":"free"},{"bike_id":"222840e1-cc51-4fea-9bf5-7ef64b3c8d4a","system_id":"levelo_inurba_marseille","lat":43.313291,"lon":5.396838,"is_reserved":false,"is_disabled":false,"rental_uris":{"android":"levelo://app?vid=222840e1-cc51-4fea-9bf5-7ef64b3c8d4a","ios":"levelo://app?vid=222840e1-cc51-4fea-9bf5-7ef64b3c8d4a"},"vehicle_type_id":"4","last_reported":1679580445,"current_range_meters":29200,"station_id":"ce4bgvp2rcd13ifvqcu0","pricing_plan_id":"free"},{"bike_id":"453a3a6f-8aec-4396-9106-a8fab3f7a534","system_id":"levelo_inurba_marseille","lat":43.309038,"lon":5.396546,"is_reserved":false,"is_disabled":false,"rental_uris":{"android":"levelo://app?vid=453a3a6f-8aec-4396-9106-a8fab3f7a534","ios":"levelo://app?vid=453a3a6f-8aec-4396-9106-a8fab3f7a534"},"vehicle_type_id":"4","last_reported":1679580445,"current_range_meters":20000,"station_id":"ce4bh012rcd13ifvqcv0","pricing_plan_id":"free"},{"bike_id":"33cebcd4-e8e7-4925-966e-12fb988c05cb","system_id":"levelo_inurba_marseille","lat":43.29529,"lon":5.385581,"is_reserved":false,"is_disabled":false,"rental_uris":{"android":"levelo://app?vid=33cebcd4-e8e7-4925-966e-12fb988c05cb","ios":"levelo://app?vid=33cebcd4-e8e7-4925-966e-12fb988c05cb"},"vehicle_type_id":"4","last_reported":1679580445,"current_range_meters":1600,"station_id":"ce4bgih2rcd13ifvqba0","pricing_plan_id":"free"},{"bike_id":"9aceee67-7658-4fa4-8b0f-78a0fbc74b3d","system_id":"levelo_inurba_marseille","lat":43.29529,"lon":5.385581,"is_reserved":false,"is_disabled":false,"rental_uris":{"android":"levelo://app?vid=9aceee67-7658-4fa4-8b0f-78a0fbc74b3d","ios":"levelo://app?vid=9aceee67-7658-4fa4-8b0f-78a0fbc74b3d"},"vehicle_type_id":"4","last_reported":1679580445,"current_range_meters":0,"station_id":"ce4bgih2rcd13ifvqba0","pricing_plan_id":"free"},{"bike_id":"c8b1381b-8a40-4a01-8e46-15250b05afe8","system_id":"levelo_inurba_marseille","lat":43.30208,"lon":5.39471,"is_reserved":false,"is_disabled":false,"rental_uris":{"android":"levelo://app?vid=c8b1381b-8a40-4a01-8e46-15250b05afe8","ios":"levelo://app?vid=c8b1381b-8a40-4a01-8e46-15250b05afe8"},"vehicle_type_id":"4","last_reported":1679580445,"current_range_meters":25200,"station_id":"","pricing_plan_id":"free"},{"bike_id":"bdc0c8fc-b6b5-4085-8726-ca01bfdf4bd4","system_id":"levelo_inurba_marseille","lat":43.295169,"lon":5.390426,"is_reserved":false,"is_disabled":false,"rental_uris":{"android":"levelo://app?vid=bdc0c8fc-b6b5-4085-8726-ca01bfdf4bd4","ios":"levelo://app?vid=bdc0c8fc-b6b5-4085-8726-ca01bfdf4bd4"},"vehicle_type_id":"4","last_reported":1679580445,"current_range_meters":4400,"station_id":"ce4bh3p2rcd13ifvqdp0","pricing_plan_id":"free"},{"bike_id":"5f7cbe46-31c3-420f-98e0-ab6f3ae8fe1f","system_id":"levelo_inurba_marseille","lat":43.294153,"lon":5.386305,"is_reserved":false,"is_disabled":false,"rental_uris":{"android":"levelo://app?vid=5f7cbe46-31c3-420f-98e0-ab6f3ae8fe1f","ios":"levelo://app?vid=5f7cbe46-31c3-420f-98e0-ab6f3ae8fe1f"},"vehicle_type_id":"4","last_reported":1679580445,"current_range_meters":800,"station_id":"ce4bh2h2rcd13ifvqdh0","pricing_plan_id":"free"},{"bike_id":"2a33a42d-b482-4e96-8677-b339de7dc28a","system_id":"levelo_inurba_marseille","lat":43.294153,"lon":5.386305,"is_reserved":false,"is_disabled":false,"rental_uris":{"android":"levelo://app?vid=2a33a42d-b482-4e96-8677-b339de7dc28a","ios":"levelo://app?vid=2a33a42d-b482-4e96-8677-b339de7dc28a"},"vehicle_type_id":"4","last_reported":1679580445,"current_range_meters":20000,"station_id":"ce4bh2h2rcd13ifvqdh0","pricing_plan_id":"free"},{"bike_id":"27f04b6e-a56c-4e4e-ab26-a50fbb422562","system_id":"levelo_inurba_marseille","lat":43.294162,"lon":5.386292,"is_reserved":false,"is_disabled":false,"rental_uris":{"android":"levelo://app?vid=27f04b6e-a56c-4e4e-ab26-a50fbb422562","ios":"levelo://app?vid=27f04b6e-a56c-4e4e-ab26-a50fbb422562"},"vehicle_type_id":"4","last_reported":1679580445,"current_range_meters":17600,"station_id":"ce4bh2h2rcd13ifvqdh0","pricing_plan_id":"free"},{"bike_id":"1413825a-925f-4be5-90db-f12cd9d8ab10","system_id":"levelo_inurba_marseille","lat":43.29419,"lon":5.38625,"is_reserved":false,"is_disabled":false,"rental_uris":{"android":"levelo://app?vid=1413825a-925f-4be5-90db-f12cd9d8ab10","ios":"levelo://app?vid=1413825a-925f-4be5-90db-f12cd9d8ab10"},"vehicle_type_id":"4","last_reported":1679580445,"current_range_meters":19200,"station_id":"ce4bh2h2rcd13ifvqdh0","pricing_plan_id":"free"},{"bike_id":"0eb4f7f8-debb-4e91-9427-01c8c307e119","system_id":"levelo_inurba_marseille","lat":43.294162,"lon":5.386292,"is_reserved":false,"is_disabled":false,"rental_uris":{"android":"levelo://app?vid=0eb4f7f8-debb-4e91-9427-01c8c307e119","ios":"levelo://app?vid=0eb4f7f8-debb-4e91-9427-01c8c307e119"},"vehicle_type_id":"4","last_reported":1679580445,"current_range_meters":0,"station_id":"ce4bh2h2rcd13ifvqdh0","pricing_plan_id":"free"},{"bike_id":"5e07f9e3-bbf1-4039-a795-ec119e71b5ef","system_id":"levelo_inurba_marseille","lat":43.289184,"lon":5.366408,"is_reserved":false,"is_disabled":false,"rental_uris":{"android":"levelo://app?vid=5e07f9e3-bbf1-4039-a795-ec119e71b5ef","ios":"levelo://app?vid=5e07f9e3-bbf1-4039-a795-ec119e71b5ef"},"vehicle_type_id":"4","last_reported":1679580445,"current_range_meters":16400,"station_id":"ce4bhap2rcd13ifvqek0","pricing_plan_id":"free"},{"bike_id":"12fec15d-74e0-45b8-8e69-9b76ebe128f9","system_id":"levelo_inurba_marseille","lat":43.292659,"lon":5.384482,"is_reserved":false,"is_disabled":false,"rental_uris":{"android":"levelo://app?vid=12fec15d-74e0-45b8-8e69-9b76ebe128f9","ios":"levelo://app?vid=12fec15d-74e0-45b8-8e69-9b76ebe128f9"},"vehicle_type_id":"4","last_reported":1679580445,"current_range_meters":0,"station_id":"ce4bh692rcd13ifvqea0","pricing_plan_id":"free"},{"bike_id":"ff0d7934-d01f-4d44-9b71-6780902b4695","system_id":"levelo_inurba_marseille","lat":43.292644,"lon":5.384257,"is_reserved":false,"is_disabled":false,"rental_uris":{"android":"levelo://app?vid=ff0d7934-d01f-4d44-9b71-6780902b4695","ios":"levelo://app?vid=ff0d7934-d01f-4d44-9b71-6780902b4695"},"vehicle_type_id":"4","last_reported":1679580445,"current_range_meters":0,"station_id":"ce4bh692rcd13ifvqea0","pricing_plan_id":"free"},{"bike_id":"51f88fa0-cdbf-45f6-9675-1fc5965ff0d4","system_id":"levelo_inurba_marseille","lat":43.290104,"lon":5.356111,"is_reserved":false,"is_disabled":false,"rental_uris":{"android":"levelo://app?vid=51f88fa0-cdbf-45f6-9675-1fc5965ff0d4","ios":"levelo://app?vid=51f88fa0-cdbf-45f6-9675-1fc5965ff0d4"},"vehicle_type_id":"4","last_reported":1679580445,"current_range_meters":29200,"station_id":"ce4bhb92rcd13ifvqen0","pricing_plan_id":"free"},{"bike_id":"33cabe04-2cea-4ac5-bf18-f8191d586809","system_id":"levelo_inurba_marseille","lat":43.29105,"lon":5.38135,"is_reserved":false,"is_disabled":false,"rental_uris":{"android":"levelo://app?vid=33cabe04-2cea-4ac5-bf18-f8191d586809","ios":"levelo://app?vid=33cabe04-2cea-4ac5-bf18-f8191d586809"},"vehicle_type_id":"4","last_reported":1679580445,"current_range_meters":6000,"station_id":"","pricing_plan_id":"free"},{"bike_id":"e6927e8a-087b-4dec-8f36-c6f0134b4bea","system_id":"levelo_inurba_marseille","lat":43.290995,"lon":5.381361,"is_reserved":false,"is_disabled":false,"rental_uris":{"android":"levelo://app?vid=e6927e8a-087b-4dec-8f36-c6f0134b4bea","ios":"levelo://app?vid=e6927e8a-087b-4dec-8f36-c6f0134b4bea"},"vehicle_type_id":"4","last_reported":1679580445,"current_range_meters":400,"station_id":"ce4bh512rcd13ifvqe2g","pricing_plan_id":"free"},{"bike_id":"4e5f4399-adeb-4c87-a4ac-b08efaec87cf","system_id":"levelo_inurba_marseille","lat":43.301117,"lon":5.398795,"is_reserved":false,"is_disabled":false,"rental_uris":{"android":"levelo://app?vid=4e5f4399-adeb-4c87-a4ac-b08efaec87cf","ios":"levelo://app?vid=4e5f4399-adeb-4c87-a4ac-b08efaec87cf"},"vehicle_type_id":"4","last_reported":1679580445,"current_range_meters":14800,"station_id":"ce4bh0h2rcd13ifvqd40","pricing_plan_id":"free"},{"bike_id":"07e2c8d6-f1a5-491a-b273-d62465cdf180","system_id":"levelo_inurba_marseille","lat":43.298681,"lon":5.397225,"is_reserved":false,"is_disabled":false,"rental_uris":{"android":"levelo://app?vid=07e2c8d6-f1a5-491a-b273-d62465cdf180","ios":"levelo://app?vid=07e2c8d6-f1a5-491a-b273-d62465cdf180"},"vehicle_type_id":"4","last_reported":1679580445,"current_range_meters":12000,"station_id":"ce4bh0h2rcd13ifvqd50","pricing_plan_id":"free"},{"bike_id":"9a5246d1-7b3f-416c-8ad7-9199d59f9ebc","system_id":"levelo_inurba_marseille","lat":43.302759,"lon":5.400793,"is_reserved":false,"is_disabled":false,"rental_uris":{"android":"levelo://app?vid=9a5246d1-7b3f-416c-8ad7-9199d59f9ebc","ios":"levelo://app?vid=9a5246d1-7b3f-416c-8ad7-9199d59f9ebc"},"vehicle_type_id":"4","last_reported":1679580445,"current_range_meters":0,"station_id":"ce4bgvh2rcd13ifvqcs0","pricing_plan_id":"free"},{"bike_id":"94804382-6652-469a-b2e6-e4f1337b97f5","system_id":"levelo_inurba_marseille","lat":43.316486,"lon":5.404383,"is_reserved":false,"is_disabled":false,"rental_uris":{"android":"levelo://app?vid=94804382-6652-469a-b2e6-e4f1337b97f5","ios":"levelo://app?vid=94804382-6652-469a-b2e6-e4f1337b97f5"},"vehicle_type_id":"4","last_reported":1679580445,"current_range_meters":8800,"station_id":"ce4bh012rcd13ifvqd00","pricing_plan_id":"free"},{"bike_id":"28aeea27-5c84-4ee7-bb99-03ce4291d4e1","system_id":"levelo_inurba_marseille","lat":43.31642,"lon":5.40443,"is_reserved":false,"is_disabled":false,"rental_uris":{"android":"levelo://app?vid=28aeea27-5c84-4ee7-bb99-03ce4291d4e1","ios":"levelo://app?vid=28aeea27-5c84-4ee7-bb99-03ce4291d4e1"},"vehicle_type_id":"4","last_reported":1679580445,"current_range_meters":11200,"station_id":"","pricing_plan_id":"free"},{"bike_id":"6d57d93c-7278-4e79-8e42-6d5a43b9d03f","system_id":"levelo_inurba_marseille","lat":43.31642,"lon":5.40444,"is_reserved":false,"is_disabled":false,"rental_uris":{"android":"levelo://app?vid=6d57d93c-7278-4e79-8e42-6d5a43b9d03f","ios":"levelo://app?vid=6d57d93c-7278-4e79-8e42-6d5a43b9d03f"},"vehicle_type_id":"4","last_reported":1679580445,"current_range_meters":9600,"station_id":"","pricing_plan_id":"free"},{"bike_id":"8ea42180-e514-4289-8046-9c8580b024b0","system_id":"levelo_inurba_marseille","lat":43.28707,"lon":5.35204,"is_reserved":false,"is_disabled":false,"rental_uris":{"android":"levelo://app?vid=8ea42180-e514-4289-8046-9c8580b024b0","ios":"levelo://app?vid=8ea42180-e514-4289-8046-9c8580b024b0"},"vehicle_type_id":"4","last_reported":1679580445,"current_range_meters":3600,"station_id":"","pricing_plan_id":"free"},{"bike_id":"f082df38-2a79-4242-a13e-68ccdd413bb5","system_id":"levelo_inurba_marseille","lat":43.295578,"lon":5.397186,"is_reserved":false,"is_disabled":false,"rental_uris":{"android":"levelo://app?vid=f082df38-2a79-4242-a13e-68ccdd413bb5","ios":"levelo://app?vid=f082df38-2a79-4242-a13e-68ccdd413bb5"},"vehicle_type_id":"4","last_reported":1679580445,"current_range_meters":0,"station_id":"","pricing_plan_id":"free"},{"bike_id":"30921755-8541-4b98-9c1d-bfdebae50dcf","system_id":"levelo_inurba_marseille","lat":43.284534,"lon":5.358662,"is_reserved":false,"is_disabled":false,"rental_uris":{"android":"levelo://app?vid=30921755-8541-4b98-9c1d-bfdebae50dcf","ios":"levelo://app?vid=30921755-8541-4b98-9c1d-bfdebae50dcf"},"vehicle_type_id":"4","last_reported":1679580445,"current_range_meters":0,"station_id":"ce4bhah2rcd13ifvqei0","pricing_plan_id":"free"},{"bike_id":"2a8fc897-fbe0-4dcf-8293-b05290223ced","system_id":"levelo_inurba_marseille","lat":43.295699,"lon":5.399697,"is_reserved":false,"is_disabled":false,"rental_uris":{"android":"levelo://app?vid=2a8fc897-fbe0-4dcf-8293-b05290223ced","ios":"levelo://app?vid=2a8fc897-fbe0-4dcf-8293-b05290223ced"},"vehicle_type_id":"4","last_reported":1679580445,"current_range_meters":0,"station_id":"","pricing_plan_id":"free"},{"bike_id":"c0dc5fe8-080b-471d-a16a-eced85080cf5","system_id":"levelo_inurba_marseille","lat":43.29572,"lon":5.3998,"is_reserved":false,"is_disabled":false,"rental_uris":{"android":"levelo://app?vid=c0dc5fe8-080b-471d-a16a-eced85080cf5","ios":"levelo://app?vid=c0dc5fe8-080b-471d-a16a-eced85080cf5"},"vehicle_type_id":"4","last_reported":1679580445,"current_range_meters":24000,"station_id":"","pricing_plan_id":"free"},{"bike_id":"383a8db9-3087-41f9-aae9-1f951adf8a7d","system_id":"levelo_inurba_marseille","lat":43.32333,"lon":5.40624,"is_reserved":false,"is_disabled":false,"rental_uris":{"android":"levelo://app?vid=383a8db9-3087-41f9-aae9-1f951adf8a7d","ios":"levelo://app?vid=383a8db9-3087-41f9-aae9-1f951adf8a7d"},"vehicle_type_id":"4","last_reported":1679580445,"current_range_meters":11200,"station_id":"ce4bhq92rcd13ifvqhjg","pricing_plan_id":"free"},{"bike_id":"df86f16e-ffc6-4c40-a51f-b28183f956f7","system_id":"levelo_inurba_marseille","lat":43.283504,"lon":5.381031,"is_reserved":false,"is_disabled":false,"rental_uris":{"android":"levelo://app?vid=df86f16e-ffc6-4c40-a51f-b28183f956f7","ios":"levelo://app?vid=df86f16e-ffc6-4c40-a51f-b28183f956f7"},"vehicle_type_id":"4","last_reported":1679580445,"current_range_meters":0,"station_id":"","pricing_plan_id":"free"},{"bike_id":"5b2426fc-4656-445a-b10a-6e06c41af5a3","system_id":"levelo_inurba_marseille","lat":43.283508,"lon":5.381087,"is_reserved":false,"is_disabled":false,"rental_uris":{"android":"levelo://app?vid=5b2426fc-4656-445a-b10a-6e06c41af5a3","ios":"levelo://app?vid=5b2426fc-4656-445a-b10a-6e06c41af5a3"},"vehicle_type_id":"4","last_reported":1679580445,"current_range_meters":0,"station_id":"","pricing_plan_id":"free"},{"bike_id":"8e8afb6d-894c-4879-a453-b91ab286533f","system_id":"levelo_inurba_marseille","lat":43.284219,"lon":5.3497,"is_reserved":false,"is_disabled":false,"rental_uris":{"android":"levelo://app?vid=8e8afb6d-894c-4879-a453-b91ab286533f","ios":"levelo://app?vid=8e8afb6d-894c-4879-a453-b91ab286533f"},"vehicle_type_id":"4","last_reported":1679580445,"current_range_meters":10400,"station_id":"ce4bhbh2rcd13ifvqepg","pricing_plan_id":"free"},{"bike_id":"c6417cb9-778d-4b2d-8214-22b2eb09655a","system_id":"levelo_inurba_marseille","lat":43.284217,"lon":5.349697,"is_reserved":false,"is_disabled":false,"rental_uris":{"android":"levelo://app?vid=c6417cb9-778d-4b2d-8214-22b2eb09655a","ios":"levelo://app?vid=c6417cb9-778d-4b2d-8214-22b2eb09655a"},"vehicle_type_id":"4","last_reported":1679580445,"current_range_meters":14400,"station_id":"ce4bhbh2rcd13ifvqepg","pricing_plan_id":"free"},{"bike_id":"abef3932-4b53-4779-91f3-38d8ca8db9ba","system_id":"levelo_inurba_marseille","lat":43.284217,"lon":5.349697,"is_reserved":false,"is_disabled":false,"rental_uris":{"android":"levelo://app?vid=abef3932-4b53-4779-91f3-38d8ca8db9ba","ios":"levelo://app?vid=abef3932-4b53-4779-91f3-38d8ca8db9ba"},"vehicle_type_id":"4","last_reported":1679580445,"current_range_meters":0,"station_id":"ce4bhbh2rcd13ifvqepg","pricing_plan_id":"free"},{"bike_id":"da927837-a2c5-4120-9f0f-7f8c8d5db589","system_id":"levelo_inurba_marseille","lat":43.29287,"lon":5.40121,"is_reserved":false,"is_disabled":false,"rental_uris":{"android":"levelo://app?vid=da927837-a2c5-4120-9f0f-7f8c8d5db589","ios":"levelo://app?vid=da927837-a2c5-4120-9f0f-7f8c8d5db589"},"vehicle_type_id":"4","last_reported":1679580445,"current_range_meters":0,"station_id":"ce4bh312rcd13ifvqdk0","pricing_plan_id":"free"},{"bike_id":"4ff8d53f-5dee-457d-a6f4-9a0916c0ffc9","system_id":"levelo_inurba_marseille","lat":43.29285,"lon":5.40121,"is_reserved":false,"is_disabled":false,"rental_uris":{"android":"levelo://app?vid=4ff8d53f-5dee-457d-a6f4-9a0916c0ffc9","ios":"levelo://app?vid=4ff8d53f-5dee-457d-a6f4-9a0916c0ffc9"},"vehicle_type_id":"4","last_reported":1679580445,"current_range_meters":16400,"station_id":"","pricing_plan_id":"free"},{"bike_id":"eebe6cc7-87eb-428e-bf7e-653c4d4c2376","system_id":"levelo_inurba_marseille","lat":43.292724,"lon":5.401131,"is_reserved":false,"is_disabled":false,"rental_uris":{"android":"levelo://app?vid=eebe6cc7-87eb-428e-bf7e-653c4d4c2376","ios":"levelo://app?vid=eebe6cc7-87eb-428e-bf7e-653c4d4c2376"},"vehicle_type_id":"4","last_reported":1679580445,"current_range_meters":0,"station_id":"ce4bh312rcd13ifvqdk0","pricing_plan_id":"free"},{"bike_id":"c116e67d-60e6-47a7-ae3f-c16a1c0b8940","system_id":"levelo_inurba_marseille","lat":43.282744,"lon":5.350533,"is_reserved":false,"is_disabled":false,"rental_uris":{"android":"levelo://app?vid=c116e67d-60e6-47a7-ae3f-c16a1c0b8940","ios":"levelo://app?vid=c116e67d-60e6-47a7-ae3f-c16a1c0b8940"},"vehicle_type_id":"4","last_reported":1679580445,"current_range_meters":4400,"station_id":"ce4bhbp2rcd13ifvqerg","pricing_plan_id":"free"},{"bike_id":"ac01ab9a-da79-407c-b50e-384c6f9c8367","system_id":"levelo_inurba_marseille","lat":43.28273,"lon":5.35056,"is_reserved":false,"is_disabled":false,"rental_uris":{"android":"levelo://app?vid=ac01ab9a-da79-407c-b50e-384c6f9c8367","ios":"levelo://app?vid=ac01ab9a-da79-407c-b50e-384c6f9c8367"},"vehicle_type_id":"4","last_reported":1679580445,"current_range_meters":29600,"station_id":"ce4bhbp2rcd13ifvqerg","pricing_plan_id":"free"},{"bike_id":"8c9792a3-9a4c-47c2-afb4-7ffa2c35d120","system_id":"levelo_inurba_marseille","lat":43.28267,"lon":5.35066,"is_reserved":false,"is_disabled":false,"rental_uris":{"android":"levelo://app?vid=8c9792a3-9a4c-47c2-afb4-7ffa2c35d120","ios":"levelo://app?vid=8c9792a3-9a4c-47c2-afb4-7ffa2c35d120"},"vehicle_type_id":"4","last_reported":1679580445,"current_range_meters":2400,"station_id":"ce4bhbp2rcd13ifvqerg","pricing_plan_id":"free"},{"bike_id":"d24015d7-2bbf-4c9a-8832-d483f0ad9901","system_id":"levelo_inurba_marseille","lat":43.282754,"lon":5.350519,"is_reserved":false,"is_disabled":false,"rental_uris":{"android":"levelo://app?vid=d24015d7-2bbf-4c9a-8832-d483f0ad9901","ios":"levelo://app?vid=d24015d7-2bbf-4c9a-8832-d483f0ad9901"},"vehicle_type_id":"4","last_reported":1679580445,"current_range_meters":19600,"station_id":"ce4bhbp2rcd13ifvqerg","pricing_plan_id":"free"},{"bike_id":"6d2b03ab-0907-421a-ba13-95c9b7b133f9","system_id":"levelo_inurba_marseille","lat":43.28036,"lon":5.36936,"is_reserved":false,"is_disabled":false,"rental_uris":{"android":"levelo://app?vid=6d2b03ab-0907-421a-ba13-95c9b7b133f9","ios":"levelo://app?vid=6d2b03ab-0907-421a-ba13-95c9b7b133f9"},"vehicle_type_id":"4","last_reported":1679580445,"current_range_meters":15600,"station_id":"","pricing_plan_id":"free"},{"bike_id":"30d9c9f0-2157-4c41-a462-37121ac75d93","system_id":"levelo_inurba_marseille","lat":43.29041,"lon":5.399634,"is_reserved":false,"is_disabled":false,"rental_uris":{"android":"levelo://app?vid=30d9c9f0-2157-4c41-a462-37121ac75d93","ios":"levelo://app?vid=30d9c9f0-2157-4c41-a462-37121ac75d93"},"vehicle_type_id":"4","last_reported":1679580445,"current_range_meters":31600,"station_id":"ce4bh392rcd13ifvqdm0","pricing_plan_id":"free"},{"bike_id":"e7f9ca28-702a-4ab4-8ab4-c7acdb3ec912","system_id":"levelo_inurba_marseille","lat":43.29042,"lon":5.39957,"is_reserved":false,"is_disabled":false,"rental_uris":{"android":"levelo://app?vid=e7f9ca28-702a-4ab4-8ab4-c7acdb3ec912","ios":"levelo://app?vid=e7f9ca28-702a-4ab4-8ab4-c7acdb3ec912"},"vehicle_type_id":"4","last_reported":1679580445,"current_range_meters":31200,"station_id":"ce4bh392rcd13ifvqdm0","pricing_plan_id":"free"},{"bike_id":"76ffdd3d-cdae-4a6d-a752-2a3ee16bd532","system_id":"levelo_inurba_marseille","lat":43.29041,"lon":5.399634,"is_reserved":false,"is_disabled":false,"rental_uris":{"android":"levelo://app?vid=76ffdd3d-cdae-4a6d-a752-2a3ee16bd532","ios":"levelo://app?vid=76ffdd3d-cdae-4a6d-a752-2a3ee16bd532"},"vehicle_type_id":"4","last_reported":1679580445,"current_range_meters":22400,"station_id":"ce4bh392rcd13ifvqdm0","pricing_plan_id":"free"},{"bike_id":"1d42b085-2d05-4917-8141-bbdae7dce39c","system_id":"levelo_inurba_marseille","lat":43.28109,"lon":5.37832,"is_reserved":false,"is_disabled":false,"rental_uris":{"android":"levelo://app?vid=1d42b085-2d05-4917-8141-bbdae7dce39c","ios":"levelo://app?vid=1d42b085-2d05-4917-8141-bbdae7dce39c"},"vehicle_type_id":"4","last_reported":1679580445,"current_range_meters":15200,"station_id":"ce4bha12rcd13ifvqee0","pricing_plan_id":"free"},{"bike_id":"efb11158-b253-412f-8672-55439a72a9e5","system_id":"levelo_inurba_marseille","lat":43.28107,"lon":5.37835,"is_reserved":false,"is_disabled":false,"rental_uris":{"android":"levelo://app?vid=efb11158-b253-412f-8672-55439a72a9e5","ios":"levelo://app?vid=efb11158-b253-412f-8672-55439a72a9e5"},"vehicle_type_id":"4","last_reported":1679580445,"current_range_meters":3600,"station_id":"ce4bha12rcd13ifvqee0","pricing_plan_id":"free"},{"bike_id":"69ec7c1e-e9c6-4933-b1ff-b1711db6f0d4","system_id":"levelo_inurba_marseille","lat":43.28105,"lon":5.37833,"is_reserved":false,"is_disabled":false,"rental_uris":{"android":"levelo://app?vid=69ec7c1e-e9c6-4933-b1ff-b1711db6f0d4","ios":"levelo://app?vid=69ec7c1e-e9c6-4933-b1ff-b1711db6f0d4"},"vehicle_type_id":"4","last_reported":1679580445,"current_range_meters":4400,"station_id":"","pricing_plan_id":"free"},{"bike_id":"210d8057-6402-4e5d-8862-dc3d1b95d5be","system_id":"levelo_inurba_marseille","lat":43.28105,"lon":5.37837,"is_reserved":false,"is_disabled":false,"rental_uris":{"android":"levelo://app?vid=210d8057-6402-4e5d-8862-dc3d1b95d5be","ios":"levelo://app?vid=210d8057-6402-4e5d-8862-dc3d1b95d5be"},"vehicle_type_id":"4","last_reported":1679580445,"current_range_meters":800,"station_id":"ce4bha12rcd13ifvqee0","pricing_plan_id":"free"},{"bike_id":"62479324-6f83-47e9-81d5-44d26daef56a","system_id":"levelo_inurba_marseille","lat":43.28105,"lon":5.37838,"is_reserved":false,"is_disabled":false,"rental_uris":{"android":"levelo://app?vid=62479324-6f83-47e9-81d5-44d26daef56a","ios":"levelo://app?vid=62479324-6f83-47e9-81d5-44d26daef56a"},"vehicle_type_id":"4","last_reported":1679580445,"current_range_meters":14400,"station_id":"","pricing_plan_id":"free"},{"bike_id":"1692f876-369b-44f5-ac87-eee111c2f377","system_id":"levelo_inurba_marseille","lat":43.28103,"lon":5.378403,"is_reserved":false,"is_disabled":false,"rental_uris":{"android":"levelo://app?vid=1692f876-369b-44f5-ac87-eee111c2f377","ios":"levelo://app?vid=1692f876-369b-44f5-ac87-eee111c2f377"},"vehicle_type_id":"4","last_reported":1679580445,"current_range_meters":8400,"station_id":"ce4bha12rcd13ifvqee0","pricing_plan_id":"free"},{"bike_id":"9c87f6c8-c98a-4b83-958c-abce7fe2d996","system_id":"levelo_inurba_marseille","lat":43.29639,"lon":5.40599,"is_reserved":false,"is_disabled":false,"rental_uris":{"android":"levelo://app?vid=9c87f6c8-c98a-4b83-958c-abce7fe2d996","ios":"levelo://app?vid=9c87f6c8-c98a-4b83-958c-abce7fe2d996"},"vehicle_type_id":"4","last_reported":1679580445,"current_range_meters":28800,"station_id":"","pricing_plan_id":"free"},{"bike_id":"52e01e87-a588-4d25-b7b7-6e71fb96400a","system_id":"levelo_inurba_marseille","lat":43.296263,"lon":5.40601,"is_reserved":false,"is_disabled":false,"rental_uris":{"android":"levelo://app?vid=52e01e87-a588-4d25-b7b7-6e71fb96400a","ios":"levelo://app?vid=52e01e87-a588-4d25-b7b7-6e71fb96400a"},"vehicle_type_id":"4","last_reported":1679580445,"current_range_meters":9600,"station_id":"ce4bh0h2rcd13ifvqd60","pricing_plan_id":"free"},{"bike_id":"8869b8d7-07ee-4884-8bbf-e4727d31b2bf","system_id":"levelo_inurba_marseille","lat":43.280916,"lon":5.378446,"is_reserved":false,"is_disabled":false,"rental_uris":{"android":"levelo://app?vid=8869b8d7-07ee-4884-8bbf-e4727d31b2bf","ios":"levelo://app?vid=8869b8d7-07ee-4884-8bbf-e4727d31b2bf"},"vehicle_type_id":"4","last_reported":1679580445,"current_range_meters":14400,"station_id":"","pricing_plan_id":"free"},{"bike_id":"a17a2410-545a-44cb-804a-a9adf893c89f","system_id":"levelo_inurba_marseille","lat":43.284323,"lon":5.39191,"is_reserved":false,"is_disabled":false,"rental_uris":{"android":"levelo://app?vid=a17a2410-545a-44cb-804a-a9adf893c89f","ios":"levelo://app?vid=a17a2410-545a-44cb-804a-a9adf893c89f"},"vehicle_type_id":"4","last_reported":1679580445,"current_range_meters":19200,"station_id":"","pricing_plan_id":"free"},{"bike_id":"83295648-c416-48c9-b664-0008aec14dee","system_id":"levelo_inurba_marseille","lat":43.287154,"lon":5.399979,"is_reserved":false,"is_disabled":false,"rental_uris":{"android":"levelo://app?vid=83295648-c416-48c9-b664-0008aec14dee","ios":"levelo://app?vid=83295648-c416-48c9-b664-0008aec14dee"},"vehicle_type_id":"4","last_reported":1679580445,"current_range_meters":13600,"station_id":"ce4bho92rcd13ifvqh3g","pricing_plan_id":"free"},{"bike_id":"fc57297f-8107-489f-8c5e-8575e3cec71e","system_id":"levelo_inurba_marseille","lat":43.28679,"lon":5.399967,"is_reserved":false,"is_disabled":false,"rental_uris":{"android":"levelo://app?vid=fc57297f-8107-489f-8c5e-8575e3cec71e","ios":"levelo://app?vid=fc57297f-8107-489f-8c5e-8575e3cec71e"},"vehicle_type_id":"4","last_reported":1679580445,"current_range_meters":14400,"station_id":"ce4bho92rcd13ifvqh3g","pricing_plan_id":"free"},{"bike_id":"6b897ddf-5098-4809-b698-537bae75cefc","system_id":"levelo_inurba_marseille","lat":43.29963,"lon":5.41328,"is_reserved":false,"is_disabled":false,"rental_uris":{"android":"levelo://app?vid=6b897ddf-5098-4809-b698-537bae75cefc","ios":"levelo://app?vid=6b897ddf-5098-4809-b698-537bae75cefc"},"vehicle_type_id":"4","last_reported":1679580445,"current_range_meters":7200,"station_id":"ce4bhp12rcd13ifvqh9g","pricing_plan_id":"free"},{"bike_id":"e1569345-21a7-4a2f-b42d-aabd0dcc6f9f","system_id":"levelo_inurba_marseille","lat":43.292571,"lon":5.409107,"is_reserved":false,"is_disabled":false,"rental_uris":{"android":"levelo://app?vid=e1569345-21a7-4a2f-b42d-aabd0dcc6f9f","ios":"levelo://app?vid=e1569345-21a7-4a2f-b42d-aabd0dcc6f9f"},"vehicle_type_id":"4","last_reported":1679580445,"current_range_meters":2400,"station_id":"ce4bh192rcd13ifvqdc0","pricing_plan_id":"free"},{"bike_id":"f109900f-1374-41f5-80f3-1d51d1220618","system_id":"levelo_inurba_marseille","lat":43.3254,"lon":5.41424,"is_reserved":false,"is_disabled":false,"rental_uris":{"android":"levelo://app?vid=f109900f-1374-41f5-80f3-1d51d1220618","ios":"levelo://app?vid=f109900f-1374-41f5-80f3-1d51d1220618"},"vehicle_type_id":"4","last_reported":1679580445,"current_range_meters":13200,"station_id":"","pricing_plan_id":"free"},{"bike_id":"d21425ee-2bf6-46da-a332-38a8e37e0a45","system_id":"levelo_inurba_marseille","lat":43.29258,"lon":5.40905,"is_reserved":false,"is_disabled":false,"rental_uris":{"android":"levelo://app?vid=d21425ee-2bf6-46da-a332-38a8e37e0a45","ios":"levelo://app?vid=d21425ee-2bf6-46da-a332-38a8e37e0a45"},"vehicle_type_id":"4","last_reported":1679580445,"current_range_meters":0,"station_id":"","pricing_plan_id":"free"},{"bike_id":"5be19f76-22dc-452d-bc49-a994a39d5024","system_id":"levelo_inurba_marseille","lat":43.32547,"lon":5.414238,"is_reserved":false,"is_disabled":false,"rental_uris":{"android":"levelo://app?vid=5be19f76-22dc-452d-bc49-a994a39d5024","ios":"levelo://app?vid=5be19f76-22dc-452d-bc49-a994a39d5024"},"vehicle_type_id":"4","last_reported":1679580445,"current_range_meters":0,"station_id":"","pricing_plan_id":"free"},{"bike_id":"eae1c0b3-5c2c-4514-a479-e59c747d4e17","system_id":"levelo_inurba_marseille","lat":43.32536,"lon":5.4143,"is_reserved":false,"is_disabled":false,"rental_uris":{"android":"levelo://app?vid=eae1c0b3-5c2c-4514-a479-e59c747d4e17","ios":"levelo://app?vid=eae1c0b3-5c2c-4514-a479-e59c747d4e17"},"vehicle_type_id":"4","last_reported":1679580445,"current_range_meters":0,"station_id":"","pricing_plan_id":"free"},{"bike_id":"c7546b68-6871-4268-908b-7bf8a302f76c","system_id":"levelo_inurba_marseille","lat":43.32534,"lon":5.41432,"is_reserved":false,"is_disabled":false,"rental_uris":{"android":"levelo://app?vid=c7546b68-6871-4268-908b-7bf8a302f76c","ios":"levelo://app?vid=c7546b68-6871-4268-908b-7bf8a302f76c"},"vehicle_type_id":"4","last_reported":1679580445,"current_range_meters":0,"station_id":"","pricing_plan_id":"free"},{"bike_id":"f2037a7a-3e23-4cb1-b045-81d88cb669cb","system_id":"levelo_inurba_marseille","lat":43.27618,"lon":5.361009,"is_reserved":false,"is_disabled":false,"rental_uris":{"android":"levelo://app?vid=f2037a7a-3e23-4cb1-b045-81d88cb669cb","ios":"levelo://app?vid=f2037a7a-3e23-4cb1-b045-81d88cb669cb"},"vehicle_type_id":"4","last_reported":1679580445,"current_range_meters":6400,"station_id":"ce4bgj92rcd13ifvqbe0","pricing_plan_id":"free"},{"bike_id":"e0391a88-01fe-4364-8633-23e2afd96e22","system_id":"levelo_inurba_marseille","lat":43.276179,"lon":5.361009,"is_reserved":false,"is_disabled":false,"rental_uris":{"android":"levelo://app?vid=e0391a88-01fe-4364-8633-23e2afd96e22","ios":"levelo://app?vid=e0391a88-01fe-4364-8633-23e2afd96e22"},"vehicle_type_id":"4","last_reported":1679580445,"current_range_meters":4800,"station_id":"ce4bgj92rcd13ifvqbe0","pricing_plan_id":"free"},{"bike_id":"f9829a0d-b2c0-46b7-8652-cac84a848769","system_id":"levelo_inurba_marseille","lat":43.280784,"lon":5.396622,"is_reserved":false,"is_disabled":false,"rental_uris":{"android":"levelo://app?vid=f9829a0d-b2c0-46b7-8652-cac84a848769","ios":"levelo://app?vid=f9829a0d-b2c0-46b7-8652-cac84a848769"},"vehicle_type_id":"4","last_reported":1679580445,"current_range_meters":22800,"station_id":"ce4bho12rcd13ifvqh2g","pricing_plan_id":"free"},{"bike_id":"99956b79-41ee-4ad1-896d-1f53f81b85cb","system_id":"levelo_inurba_marseille","lat":43.280788,"lon":5.396616,"is_reserved":false,"is_disabled":false,"rental_uris":{"android":"levelo://app?vid=99956b79-41ee-4ad1-896d-1f53f81b85cb","ios":"levelo://app?vid=99956b79-41ee-4ad1-896d-1f53f81b85cb"},"vehicle_type_id":"4","last_reported":1679580445,"current_range_meters":5200,"station_id":"","pricing_plan_id":"free"},{"bike_id":"b37b623c-ec92-4633-9524-e2a3c5236eb8","system_id":"levelo_inurba_marseille","lat":43.273613,"lon":5.362705,"is_reserved":false,"is_disabled":false,"rental_uris":{"android":"levelo://app?vid=b37b623c-ec92-4633-9524-e2a3c5236eb8","ios":"levelo://app?vid=b37b623c-ec92-4633-9524-e2a3c5236eb8"},"vehicle_type_id":"4","last_reported":1679580445,"current_range_meters":31600,"station_id":"ce4bhbh2rcd13ifvqeo0","pricing_plan_id":"free"},{"bike_id":"8be6d4cc-f7c6-44f5-8ced-a4d8c833f7f5","system_id":"levelo_inurba_marseille","lat":43.273613,"lon":5.362705,"is_reserved":false,"is_disabled":false,"rental_uris":{"android":"levelo://app?vid=8be6d4cc-f7c6-44f5-8ced-a4d8c833f7f5","ios":"levelo://app?vid=8be6d4cc-f7c6-44f5-8ced-a4d8c833f7f5"},"vehicle_type_id":"4","last_reported":1679580445,"current_range_meters":12400,"station_id":"ce4bhbh2rcd13ifvqeo0","pricing_plan_id":"free"},{"bike_id":"c29900e5-6a60-4ad4-ab4e-196e5c2dcf27","system_id":"levelo_inurba_marseille","lat":43.273613,"lon":5.362705,"is_reserved":false,"is_disabled":false,"rental_uris":{"android":"levelo://app?vid=c29900e5-6a60-4ad4-ab4e-196e5c2dcf27","ios":"levelo://app?vid=c29900e5-6a60-4ad4-ab4e-196e5c2dcf27"},"vehicle_type_id":"4","last_reported":1679580445,"current_range_meters":27600,"station_id":"ce4bhbh2rcd13ifvqeo0","pricing_plan_id":"free"},{"bike_id":"c6bae198-27a8-4320-a691-5de08ac8fd0b","system_id":"levelo_inurba_marseille","lat":43.27374,"lon":5.36257,"is_reserved":false,"is_disabled":false,"rental_uris":{"android":"levelo://app?vid=c6bae198-27a8-4320-a691-5de08ac8fd0b","ios":"levelo://app?vid=c6bae198-27a8-4320-a691-5de08ac8fd0b"},"vehicle_type_id":"4","last_reported":1679580445,"current_range_meters":800,"station_id":"","pricing_plan_id":"free"},{"bike_id":"10cdcc7e-dfe0-44d3-9e03-21bd78465d3d","system_id":"levelo_inurba_marseille","lat":43.273613,"lon":5.362705,"is_reserved":false,"is_disabled":false,"rental_uris":{"android":"levelo://app?vid=10cdcc7e-dfe0-44d3-9e03-21bd78465d3d","ios":"levelo://app?vid=10cdcc7e-dfe0-44d3-9e03-21bd78465d3d"},"vehicle_type_id":"4","last_reported":1679580445,"current_range_meters":31600,"station_id":"ce4bhbh2rcd13ifvqeo0","pricing_plan_id":"free"},{"bike_id":"edf45057-e04d-492e-b2bf-2179fa9b25df","system_id":"levelo_inurba_marseille","lat":43.2737,"lon":5.3626,"is_reserved":false,"is_disabled":false,"rental_uris":{"android":"levelo://app?vid=edf45057-e04d-492e-b2bf-2179fa9b25df","ios":"levelo://app?vid=edf45057-e04d-492e-b2bf-2179fa9b25df"},"vehicle_type_id":"4","last_reported":1679580445,"current_range_meters":2400,"station_id":"","pricing_plan_id":"free"},{"bike_id":"5d52546d-0efe-4416-ac44-a3185b0979ed","system_id":"levelo_inurba_marseille","lat":43.33608,"lon":5.41037,"is_reserved":false,"is_disabled":false,"rental_uris":{"android":"levelo://app?vid=5d52546d-0efe-4416-ac44-a3185b0979ed","ios":"levelo://app?vid=5d52546d-0efe-4416-ac44-a3185b0979ed"},"vehicle_type_id":"4","last_reported":1679580445,"current_range_meters":5600,"station_id":"","pricing_plan_id":"free"},{"bike_id":"fa207a99-8a22-4b3b-9060-c3421ddd6d57","system_id":"levelo_inurba_marseille","lat":43.27669,"lon":5.38895,"is_reserved":false,"is_disabled":false,"rental_uris":{"android":"levelo://app?vid=fa207a99-8a22-4b3b-9060-c3421ddd6d57","ios":"levelo://app?vid=fa207a99-8a22-4b3b-9060-c3421ddd6d57"},"vehicle_type_id":"4","last_reported":1679580445,"current_range_meters":8800,"station_id":"ce4bhi12rcd13ifvqfo0","pricing_plan_id":"free"},{"bike_id":"28b68f45-4581-4700-9ab8-004f6d87ebc9","system_id":"levelo_inurba_marseille","lat":43.317121,"lon":5.423936,"is_reserved":false,"is_disabled":false,"rental_uris":{"android":"levelo://app?vid=28b68f45-4581-4700-9ab8-004f6d87ebc9","ios":"levelo://app?vid=28b68f45-4581-4700-9ab8-004f6d87ebc9"},"vehicle_type_id":"4","last_reported":1679580445,"current_range_meters":13200,"station_id":"ce4bhp92rcd13ifvqhbg","pricing_plan_id":"free"},{"bike_id":"0d7b26c3-df1c-47fa-bceb-fb2c7ca16cb8","system_id":"levelo_inurba_marseille","lat":43.274263,"lon":5.394041,"is_reserved":false,"is_disabled":false,"rental_uris":{"android":"levelo://app?vid=0d7b26c3-df1c-47fa-bceb-fb2c7ca16cb8","ios":"levelo://app?vid=0d7b26c3-df1c-47fa-bceb-fb2c7ca16cb8"},"vehicle_type_id":"4","last_reported":1679580445,"current_range_meters":0,"station_id":"","pricing_plan_id":"free"},{"bike_id":"ae584b2f-1f83-4fc2-9821-d7a7dd756104","system_id":"levelo_inurba_marseille","lat":43.304096,"lon":5.425385,"is_reserved":false,"is_disabled":false,"rental_uris":{"android":"levelo://app?vid=ae584b2f-1f83-4fc2-9821-d7a7dd756104","ios":"levelo://app?vid=ae584b2f-1f83-4fc2-9821-d7a7dd756104"},"vehicle_type_id":"4","last_reported":1679580445,"current_range_meters":14400,"station_id":"ce4bhoh2rcd13ifvqh6g","pricing_plan_id":"free"},{"bike_id":"571e6a43-08a9-434f-8a0e-d0dd06c94a05","system_id":"levelo_inurba_marseille","lat":43.304096,"lon":5.425385,"is_reserved":false,"is_disabled":false,"rental_uris":{"android":"levelo://app?vid=571e6a43-08a9-434f-8a0e-d0dd06c94a05","ios":"levelo://app?vid=571e6a43-08a9-434f-8a0e-d0dd06c94a05"},"vehicle_type_id":"4","last_reported":1679580445,"current_range_meters":24400,"station_id":"ce4bhoh2rcd13ifvqh6g","pricing_plan_id":"free"},{"bike_id":"e977d583-1f38-4a80-aff4-5ec2253182d8","system_id":"levelo_inurba_marseille","lat":43.295511,"lon":5.422926,"is_reserved":false,"is_disabled":false,"rental_uris":{"android":"levelo://app?vid=e977d583-1f38-4a80-aff4-5ec2253182d8","ios":"levelo://app?vid=e977d583-1f38-4a80-aff4-5ec2253182d8"},"vehicle_type_id":"4","last_reported":1679580445,"current_range_meters":4800,"station_id":"ce4bhph2rcd13ifvqhdg","pricing_plan_id":"free"},{"bike_id":"2a5663b4-c897-40e8-adf1-8a58d9784b68","system_id":"levelo_inurba_marseille","lat":43.272116,"lon":5.391747,"is_reserved":false,"is_disabled":false,"rental_uris":{"android":"levelo://app?vid=2a5663b4-c897-40e8-adf1-8a58d9784b68","ios":"levelo://app?vid=2a5663b4-c897-40e8-adf1-8a58d9784b68"},"vehicle_type_id":"4","last_reported":1679580445,"current_range_meters":800,"station_id":"ce4bhhp2rcd13ifvqfm0","pricing_plan_id":"free"},{"bike_id":"7c851714-809a-4544-9f55-f79c0eabd4a1","system_id":"levelo_inurba_marseille","lat":43.328238,"lon":5.425357,"is_reserved":false,"is_disabled":false,"rental_uris":{"android":"levelo://app?vid=7c851714-809a-4544-9f55-f79c0eabd4a1","ios":"levelo://app?vid=7c851714-809a-4544-9f55-f79c0eabd4a1"},"vehicle_type_id":"4","last_reported":1679580445,"current_range_meters":0,"station_id":"","pricing_plan_id":"free"},{"bike_id":"d112e727-4b1d-49fc-acaf-1825f018f8ba","system_id":"levelo_inurba_marseille","lat":43.278128,"lon":5.407195,"is_reserved":false,"is_disabled":false,"rental_uris":{"android":"levelo://app?vid=d112e727-4b1d-49fc-acaf-1825f018f8ba","ios":"levelo://app?vid=d112e727-4b1d-49fc-acaf-1825f018f8ba"},"vehicle_type_id":"4","last_reported":1679580445,"current_range_meters":11200,"station_id":"ce4bhnh2rcd13ifvqgtg","pricing_plan_id":"free"},{"bike_id":"60c79377-3684-4324-841b-d2ee828a8df1","system_id":"levelo_inurba_marseille","lat":43.278128,"lon":5.407195,"is_reserved":false,"is_disabled":false,"rental_uris":{"android":"levelo://app?vid=60c79377-3684-4324-841b-d2ee828a8df1","ios":"levelo://app?vid=60c79377-3684-4324-841b-d2ee828a8df1"},"vehicle_type_id":"4","last_reported":1679580445,"current_range_meters":20800,"station_id":"ce4bhnh2rcd13ifvqgtg","pricing_plan_id":"free"},{"bike_id":"179c4ca9-f1e7-4697-895a-395b360d6528","system_id":"levelo_inurba_marseille","lat":43.27817,"lon":5.40718,"is_reserved":false,"is_disabled":false,"rental_uris":{"android":"levelo://app?vid=179c4ca9-f1e7-4697-895a-395b360d6528","ios":"levelo://app?vid=179c4ca9-f1e7-4697-895a-395b360d6528"},"vehicle_type_id":"4","last_reported":1679580445,"current_range_meters":24400,"station_id":"ce4bhnh2rcd13ifvqgtg","pricing_plan_id":"free"},{"bike_id":"cf7aa0e5-9f43-47a3-8238-0837e5453502","system_id":"levelo_inurba_marseille","lat":43.278127,"lon":5.407133,"is_reserved":false,"is_disabled":false,"rental_uris":{"android":"levelo://app?vid=cf7aa0e5-9f43-47a3-8238-0837e5453502","ios":"levelo://app?vid=cf7aa0e5-9f43-47a3-8238-0837e5453502"},"vehicle_type_id":"4","last_reported":1679580445,"current_range_meters":11600,"station_id":"","pricing_plan_id":"free"},{"bike_id":"8c936e6f-47ce-4c46-80a6-5ce6148d0dff","system_id":"levelo_inurba_marseille","lat":43.278128,"lon":5.407195,"is_reserved":false,"is_disabled":false,"rental_uris":{"android":"levelo://app?vid=8c936e6f-47ce-4c46-80a6-5ce6148d0dff","ios":"levelo://app?vid=8c936e6f-47ce-4c46-80a6-5ce6148d0dff"},"vehicle_type_id":"4","last_reported":1679580445,"current_range_meters":11200,"station_id":"ce4bhnh2rcd13ifvqgtg","pricing_plan_id":"free"},{"bike_id":"6fe87f49-0fc5-4784-87a4-b6f5659de2af","system_id":"levelo_inurba_marseille","lat":43.324758,"lon":5.427562,"is_reserved":false,"is_disabled":false,"rental_uris":{"android":"levelo://app?vid=6fe87f49-0fc5-4784-87a4-b6f5659de2af","ios":"levelo://app?vid=6fe87f49-0fc5-4784-87a4-b6f5659de2af"},"vehicle_type_id":"4","last_reported":1679580445,"current_range_meters":0,"station_id":"","pricing_plan_id":"free"},{"bike_id":"4a599c21-391f-4cd2-9078-cc44977a8a06","system_id":"levelo_inurba_marseille","lat":43.26681,"lon":5.382694,"is_reserved":false,"is_disabled":false,"rental_uris":{"android":"levelo://app?vid=4a599c21-391f-4cd2-9078-cc44977a8a06","ios":"levelo://app?vid=4a599c21-391f-4cd2-9078-cc44977a8a06"},"vehicle_type_id":"4","last_reported":1679580445,"current_range_meters":2800,"station_id":"ce4bhg92rcd13ifvqf90","pricing_plan_id":"free"},{"bike_id":"29ee84d2-a2d2-4bf3-83fb-9da211fdef76","system_id":"levelo_inurba_marseille","lat":43.265564,"lon":5.372916,"is_reserved":false,"is_disabled":false,"rental_uris":{"android":"levelo://app?vid=29ee84d2-a2d2-4bf3-83fb-9da211fdef76","ios":"levelo://app?vid=29ee84d2-a2d2-4bf3-83fb-9da211fdef76"},"vehicle_type_id":"4","last_reported":1679580445,"current_range_meters":5200,"station_id":"ce4bhg12rcd13ifvqf70","pricing_plan_id":"free"},{"bike_id":"5392af40-6aef-4064-a76e-828d2b52f2cb","system_id":"levelo_inurba_marseille","lat":43.265513,"lon":5.373038,"is_reserved":false,"is_disabled":false,"rental_uris":{"android":"levelo://app?vid=5392af40-6aef-4064-a76e-828d2b52f2cb","ios":"levelo://app?vid=5392af40-6aef-4064-a76e-828d2b52f2cb"},"vehicle_type_id":"4","last_reported":1679580445,"current_range_meters":0,"station_id":"ce4bhg12rcd13ifvqf70","pricing_plan_id":"free"},{"bike_id":"3d37c2ca-d8a2-467f-a9f2-10d758180462","system_id":"levelo_inurba_marseille","lat":43.27996,"lon":5.416624,"is_reserved":false,"is_disabled":false,"rental_uris":{"android":"levelo://app?vid=3d37c2ca-d8a2-467f-a9f2-10d758180462","ios":"levelo://app?vid=3d37c2ca-d8a2-467f-a9f2-10d758180462"},"vehicle_type_id":"4","last_reported":1679580445,"current_range_meters":14800,"station_id":"ce4bho12rcd13ifvqh1g","pricing_plan_id":"free"},{"bike_id":"88a235d7-ccae-4a2c-a0fe-636211f807ae","system_id":"levelo_inurba_marseille","lat":43.27996,"lon":5.416624,"is_reserved":false,"is_disabled":false,"rental_uris":{"android":"levelo://app?vid=88a235d7-ccae-4a2c-a0fe-636211f807ae","ios":"levelo://app?vid=88a235d7-ccae-4a2c-a0fe-636211f807ae"},"vehicle_type_id":"4","last_reported":1679580445,"current_range_meters":9600,"station_id":"ce4bho12rcd13ifvqh1g","pricing_plan_id":"free"},{"bike_id":"0a584a77-3eb2-4c1a-93f5-8c0bac5f9bd9","system_id":"levelo_inurba_marseille","lat":43.27993,"lon":5.41661,"is_reserved":false,"is_disabled":false,"rental_uris":{"android":"levelo://app?vid=0a584a77-3eb2-4c1a-93f5-8c0bac5f9bd9","ios":"levelo://app?vid=0a584a77-3eb2-4c1a-93f5-8c0bac5f9bd9"},"vehicle_type_id":"4","last_reported":1679580445,"current_range_meters":12000,"station_id":"ce4bho12rcd13ifvqh1g","pricing_plan_id":"free"},{"bike_id":"04493026-75f9-4e04-93f6-3d957269ff4d","system_id":"levelo_inurba_marseille","lat":43.265569,"lon":5.390047,"is_reserved":false,"is_disabled":false,"rental_uris":{"android":"levelo://app?vid=04493026-75f9-4e04-93f6-3d957269ff4d","ios":"levelo://app?vid=04493026-75f9-4e04-93f6-3d957269ff4d"},"vehicle_type_id":"4","last_reported":1679580445,"current_range_meters":800,"station_id":"ce4bhe12rcd13ifvqf30","pricing_plan_id":"free"},{"bike_id":"a14de34e-5230-4355-9f77-b3f5e1378647","system_id":"levelo_inurba_marseille","lat":43.331821,"lon":5.431754,"is_reserved":false,"is_disabled":false,"rental_uris":{"android":"levelo://app?vid=a14de34e-5230-4355-9f77-b3f5e1378647","ios":"levelo://app?vid=a14de34e-5230-4355-9f77-b3f5e1378647"},"vehicle_type_id":"4","last_reported":1679580445,"current_range_meters":17600,"station_id":"","pricing_plan_id":"free"},{"bike_id":"3ae24c4e-3d91-4446-926d-bdcfcb6379ad","system_id":"levelo_inurba_marseille","lat":43.26207,"lon":5.3793,"is_reserved":false,"is_disabled":false,"rental_uris":{"android":"levelo://app?vid=3ae24c4e-3d91-4446-926d-bdcfcb6379ad","ios":"levelo://app?vid=3ae24c4e-3d91-4446-926d-bdcfcb6379ad"},"vehicle_type_id":"4","last_reported":1679580445,"current_range_meters":1600,"station_id":"ce4bhjp2rcd13ifvqg90","pricing_plan_id":"free"},{"bike_id":"f2fbdfc0-96b0-4076-b6b5-601198099d31","system_id":"levelo_inurba_marseille","lat":43.26804,"lon":5.40272,"is_reserved":false,"is_disabled":false,"rental_uris":{"android":"levelo://app?vid=f2fbdfc0-96b0-4076-b6b5-601198099d31","ios":"levelo://app?vid=f2fbdfc0-96b0-4076-b6b5-601198099d31"},"vehicle_type_id":"4","last_reported":1679580445,"current_range_meters":21200,"station_id":"ce501612rcd8frsf0b60","pricing_plan_id":"free"},{"bike_id":"5e6431a2-d99c-4bce-9b80-339fbe30a2be","system_id":"levelo_inurba_marseille","lat":43.260909,"lon":5.397591,"is_reserved":false,"is_disabled":false,"rental_uris":{"android":"levelo://app?vid=5e6431a2-d99c-4bce-9b80-339fbe30a2be","ios":"levelo://app?vid=5e6431a2-d99c-4bce-9b80-339fbe30a2be"},"vehicle_type_id":"4","last_reported":1679580445,"current_range_meters":30400,"station_id":"ce4bhi12rcd13ifvqfq0","pricing_plan_id":"free"},{"bike_id":"a6f8a18a-cde5-4c8c-b414-0c284f752395","system_id":"levelo_inurba_marseille","lat":43.260909,"lon":5.397591,"is_reserved":false,"is_disabled":false,"rental_uris":{"android":"levelo://app?vid=a6f8a18a-cde5-4c8c-b414-0c284f752395","ios":"levelo://app?vid=a6f8a18a-cde5-4c8c-b414-0c284f752395"},"vehicle_type_id":"4","last_reported":1679580445,"current_range_meters":20800,"station_id":"ce4bhi12rcd13ifvqfq0","pricing_plan_id":"free"},{"bike_id":"f00af016-9c35-4e58-9914-b66299ad8088","system_id":"levelo_inurba_marseille","lat":43.255756,"lon":5.382303,"is_reserved":false,"is_disabled":false,"rental_uris":{"android":"levelo://app?vid=f00af016-9c35-4e58-9914-b66299ad8088","ios":"levelo://app?vid=f00af016-9c35-4e58-9914-b66299ad8088"},"vehicle_type_id":"4","last_reported":1679580445,"current_range_meters":14400,"station_id":"ce4bhih2rcd13ifvqfs0","pricing_plan_id":"free"},{"bike_id":"18bc1357-9d68-4072-887e-3f9d54c8cd25","system_id":"levelo_inurba_marseille","lat":43.255756,"lon":5.382303,"is_reserved":false,"is_disabled":false,"rental_uris":{"android":"levelo://app?vid=18bc1357-9d68-4072-887e-3f9d54c8cd25","ios":"levelo://app?vid=18bc1357-9d68-4072-887e-3f9d54c8cd25"},"vehicle_type_id":"4","last_reported":1679580445,"current_range_meters":12000,"station_id":"ce4bhih2rcd13ifvqfs0","pricing_plan_id":"free"},{"bike_id":"f6b10a3f-173a-4747-842b-489dc89813a5","system_id":"levelo_inurba_marseille","lat":43.254947,"lon":5.376454,"is_reserved":false,"is_disabled":false,"rental_uris":{"android":"levelo://app?vid=f6b10a3f-173a-4747-842b-489dc89813a5","ios":"levelo://app?vid=f6b10a3f-173a-4747-842b-489dc89813a5"},"vehicle_type_id":"4","last_reported":1679580445,"current_range_meters":1200,"station_id":"ce4bhh12rcd13ifvqff0","pricing_plan_id":"free"},{"bike_id":"eab3b2a3-5391-4e17-a0ff-84ce13c59e20","system_id":"levelo_inurba_marseille","lat":43.24997,"lon":5.3893,"is_reserved":false,"is_disabled":false,"rental_uris":{"android":"levelo://app?vid=eab3b2a3-5391-4e17-a0ff-84ce13c59e20","ios":"levelo://app?vid=eab3b2a3-5391-4e17-a0ff-84ce13c59e20"},"vehicle_type_id":"4","last_reported":1679580445,"current_range_meters":2000,"station_id":"","pricing_plan_id":"free"},{"bike_id":"2e49371e-fcba-46d7-ab06-f039e7d54eab","system_id":"levelo_inurba_marseille","lat":43.24693,"lon":5.382096,"is_reserved":false,"is_disabled":false,"rental_uris":{"android":"levelo://app?vid=2e49371e-fcba-46d7-ab06-f039e7d54eab","ios":"levelo://app?vid=2e49371e-fcba-46d7-ab06-f039e7d54eab"},"vehicle_type_id":"4","last_reported":1679580445,"current_range_meters":3200,"station_id":"ce4bhih2rcd13ifvqfr0","pricing_plan_id":"free"},{"bike_id":"3e0f2867-0147-44de-a331-a48834d5f72c","system_id":"levelo_inurba_marseille","lat":43.251217,"lon":5.403235,"is_reserved":false,"is_disabled":false,"rental_uris":{"android":"levelo://app?vid=3e0f2867-0147-44de-a331-a48834d5f72c","ios":"levelo://app?vid=3e0f2867-0147-44de-a331-a48834d5f72c"},"vehicle_type_id":"4","last_reported":1679580445,"current_range_meters":0,"station_id":"ce4bhlh2rcd13ifvqgig","pricing_plan_id":"free"},{"bike_id":"6d2f8f2b-d62c-4a4e-a062-dac4dd735064","system_id":"levelo_inurba_marseille","lat":43.24661,"lon":5.38152,"is_reserved":false,"is_disabled":false,"rental_uris":{"android":"levelo://app?vid=6d2f8f2b-d62c-4a4e-a062-dac4dd735064","ios":"levelo://app?vid=6d2f8f2b-d62c-4a4e-a062-dac4dd735064"},"vehicle_type_id":"4","last_reported":1679580445,"current_range_meters":14400,"station_id":"","pricing_plan_id":"free"},{"bike_id":"f2e6ea61-61f3-4034-a49f-8e447091f016","system_id":"levelo_inurba_marseille","lat":43.246604,"lon":5.381565,"is_reserved":false,"is_disabled":false,"rental_uris":{"android":"levelo://app?vid=f2e6ea61-61f3-4034-a49f-8e447091f016","ios":"levelo://app?vid=f2e6ea61-61f3-4034-a49f-8e447091f016"},"vehicle_type_id":"4","last_reported":1679580445,"current_range_meters":7200,"station_id":"","pricing_plan_id":"free"},{"bike_id":"e1d726ae-686b-418a-89b9-49620c5a89ac","system_id":"levelo_inurba_marseille","lat":43.25111,"lon":5.40326,"is_reserved":false,"is_disabled":false,"rental_uris":{"android":"levelo://app?vid=e1d726ae-686b-418a-89b9-49620c5a89ac","ios":"levelo://app?vid=e1d726ae-686b-418a-89b9-49620c5a89ac"},"vehicle_type_id":"4","last_reported":1679580445,"current_range_meters":6400,"station_id":"ce4bhlh2rcd13ifvqgig","pricing_plan_id":"free"},{"bike_id":"c1e6cc92-ae34-49ec-946e-9e943285a865","system_id":"levelo_inurba_marseille","lat":43.2511,"lon":5.40324,"is_reserved":false,"is_disabled":false,"rental_uris":{"android":"levelo://app?vid=c1e6cc92-ae34-49ec-946e-9e943285a865","ios":"levelo://app?vid=c1e6cc92-ae34-49ec-946e-9e943285a865"},"vehicle_type_id":"4","last_reported":1679580445,"current_range_meters":0,"station_id":"ce4bhlh2rcd13ifvqgig","pricing_plan_id":"free"},{"bike_id":"2f4b4639-107b-42f0-90f9-cfd3b7c0d708","system_id":"levelo_inurba_marseille","lat":43.25109,"lon":5.40323,"is_reserved":false,"is_disabled":false,"rental_uris":{"android":"levelo://app?vid=2f4b4639-107b-42f0-90f9-cfd3b7c0d708","ios":"levelo://app?vid=2f4b4639-107b-42f0-90f9-cfd3b7c0d708"},"vehicle_type_id":"4","last_reported":1679580445,"current_range_meters":4400,"station_id":"","pricing_plan_id":"free"},{"bike_id":"e90949d7-a2ff-4727-a60e-dca9d6ba2d4d","system_id":"levelo_inurba_marseille","lat":43.24385,"lon":5.37057,"is_reserved":false,"is_disabled":false,"rental_uris":{"android":"levelo://app?vid=e90949d7-a2ff-4727-a60e-dca9d6ba2d4d","ios":"levelo://app?vid=e90949d7-a2ff-4727-a60e-dca9d6ba2d4d"},"vehicle_type_id":"4","last_reported":1679580445,"current_range_meters":2000,"station_id":"","pricing_plan_id":"free"},{"bike_id":"0a472cad-3aee-4ab8-a337-4bacab0f8b46","system_id":"levelo_inurba_marseille","lat":43.24385,"lon":5.37062,"is_reserved":false,"is_disabled":false,"rental_uris":{"android":"levelo://app?vid=0a472cad-3aee-4ab8-a337-4bacab0f8b46","ios":"levelo://app?vid=0a472cad-3aee-4ab8-a337-4bacab0f8b46"},"vehicle_type_id":"4","last_reported":1679580445,"current_range_meters":10400,"station_id":"ce4bhhh2rcd13ifvqfk0","pricing_plan_id":"free"},{"bike_id":"c04883bb-c3e0-432e-b8ad-dcb4dcb880b5","system_id":"levelo_inurba_marseille","lat":43.243884,"lon":5.370736,"is_reserved":false,"is_disabled":false,"rental_uris":{"android":"levelo://app?vid=c04883bb-c3e0-432e-b8ad-dcb4dcb880b5","ios":"levelo://app?vid=c04883bb-c3e0-432e-b8ad-dcb4dcb880b5"},"vehicle_type_id":"4","last_reported":1679580445,"current_range_meters":0,"station_id":"ce4bhhh2rcd13ifvqfk0","pricing_plan_id":"free"},{"bike_id":"7273b980-c1e1-4a4b-9054-b53ef3eb1ab1","system_id":"levelo_inurba_marseille","lat":43.240623,"lon":5.377642,"is_reserved":false,"is_disabled":false,"rental_uris":{"android":"levelo://app?vid=7273b980-c1e1-4a4b-9054-b53ef3eb1ab1","ios":"levelo://app?vid=7273b980-c1e1-4a4b-9054-b53ef3eb1ab1"},"vehicle_type_id":"4","last_reported":1679580445,"current_range_meters":0,"station_id":"ce4bhnp2rcd13ifvqgvg","pricing_plan_id":"free"},{"bike_id":"ff78fbc6-3fde-474f-bc80-8f8e23648746","system_id":"levelo_inurba_marseille","lat":43.240623,"lon":5.377642,"is_reserved":false,"is_disabled":false,"rental_uris":{"android":"levelo://app?vid=ff78fbc6-3fde-474f-bc80-8f8e23648746","ios":"levelo://app?vid=ff78fbc6-3fde-474f-bc80-8f8e23648746"},"vehicle_type_id":"4","last_reported":1679580445,"current_range_meters":16000,"station_id":"ce4bhnp2rcd13ifvqgvg","pricing_plan_id":"free"},{"bike_id":"fffaee80-5b3f-4460-afa8-b9cc8224c0f8","system_id":"levelo_inurba_marseille","lat":43.241782,"lon":5.397261,"is_reserved":false,"is_disabled":false,"rental_uris":{"android":"levelo://app?vid=fffaee80-5b3f-4460-afa8-b9cc8224c0f8","ios":"levelo://app?vid=fffaee80-5b3f-4460-afa8-b9cc8224c0f8"},"vehicle_type_id":"4","last_reported":1679580445,"current_range_meters":14000,"station_id":"ce4bhn12rcd13ifvqgpg","pricing_plan_id":"free"},{"bike_id":"01634779-18e4-4bdd-a2aa-904d31006e62","system_id":"levelo_inurba_marseille","lat":43.241782,"lon":5.397261,"is_reserved":false,"is_disabled":false,"rental_uris":{"android":"levelo://app?vid=01634779-18e4-4bdd-a2aa-904d31006e62","ios":"levelo://app?vid=01634779-18e4-4bdd-a2aa-904d31006e62"},"vehicle_type_id":"4","last_reported":1679580445,"current_range_meters":0,"station_id":"ce4bhn12rcd13ifvqgpg","pricing_plan_id":"free"},{"bike_id":"6f3d5520-6eb9-4a2a-bc58-b80c9f993d82","system_id":"levelo_inurba_marseille","lat":43.24176,"lon":5.39729,"is_reserved":false,"is_disabled":false,"rental_uris":{"android":"levelo://app?vid=6f3d5520-6eb9-4a2a-bc58-b80c9f993d82","ios":"levelo://app?vid=6f3d5520-6eb9-4a2a-bc58-b80c9f993d82"},"vehicle_type_id":"4","last_reported":1679580445,"current_range_meters":13600,"station_id":"","pricing_plan_id":"free"},{"bike_id":"108aa967-3521-463a-aee7-062a5c868cc6","system_id":"levelo_inurba_marseille","lat":43.231919,"lon":5.355532,"is_reserved":false,"is_disabled":false,"rental_uris":{"android":"levelo://app?vid=108aa967-3521-463a-aee7-062a5c868cc6","ios":"levelo://app?vid=108aa967-3521-463a-aee7-062a5c868cc6"},"vehicle_type_id":"4","last_reported":1679580445,"current_range_meters":31600,"station_id":"ce4bhu92rcd13ifvqi70","pricing_plan_id":"free"},{"bike_id":"6916cc09-ef2f-4e78-b019-f46de5fe537f","system_id":"levelo_inurba_marseille","lat":43.231919,"lon":5.355532,"is_reserved":false,"is_disabled":false,"rental_uris":{"android":"levelo://app?vid=6916cc09-ef2f-4e78-b019-f46de5fe537f","ios":"levelo://app?vid=6916cc09-ef2f-4e78-b019-f46de5fe537f"},"vehicle_type_id":"4","last_reported":1679580445,"current_range_meters":29200,"station_id":"ce4bhu92rcd13ifvqi70","pricing_plan_id":"free"},{"bike_id":"edee525f-2714-49aa-a829-5e5eccf3cf58","system_id":"levelo_inurba_marseille","lat":43.231923,"lon":5.355545,"is_reserved":false,"is_disabled":false,"rental_uris":{"android":"levelo://app?vid=edee525f-2714-49aa-a829-5e5eccf3cf58","ios":"levelo://app?vid=edee525f-2714-49aa-a829-5e5eccf3cf58"},"vehicle_type_id":"4","last_reported":1679580445,"current_range_meters":28800,"station_id":"ce4bhu92rcd13ifvqi70","pricing_plan_id":"free"}]}}