{"last_updated":1680210385,"ttl":30,"version":"2.2","data":{"bikes":[{"bike_id":"5678bef9-a822-4719-8222-0a8b69cd792d","system_id":"levelo_inurba_marseille","lat":43.30916,"lon":5.37309,"is_reserved":false,"is_disabled":false,"rental_uris":{"android":"levelo://app?vid=5678bef9-a822-4719-8222-0a8b69cd792d","ios":"levelo://app?vid=5678bef9-a822-4719-8222-0a8b69cd792d"},"vehicle_type_id":"4","last_reported":1680210386,"current_range_meters":400,"station_id":"","pricing_plan_id":"free"},{"bike_id":"73f5a525-2572-47c8-b251-e3189c2dfb6f","system_id":"levelo_inurba_marseille","lat":43.30543,"lon":5.36713,"is_reserved":false,"is_disabled":false,"rental_uris":{"android":"levelo://app?vid=73f5a525-2572-47c8-b251-e3189c2dfb6f","ios":"levelo://app?vid=73f5a525-2572-47c8-b251-e3189c2dfb6f"},"vehicle_type_id":"4","last_reported":1680210386,"current_range_meters":3200,"station_id":"ce4bgrp2rcd13ifvqc9g","pricing_plan_id":"free"},{"bike_id":"67eda8af-53b1-4b67-b44e-f12397937083","system_id":"levelo_inurba_marseille","lat":43.30621,"lon":5.37232,"is_reserved":false,"is_disabled":false,"rental_uris":{"android":"levelo://app?vid=67eda8af-53b1-4b67-b44e-f12397937083","ios":"levelo://app?vid=67eda8af-53b1-4b67-b44e-f12397937083"},"vehicle_type_id":"4","last_reported":1680210386,"current_range_meters":18000,"station_id":"ce4bgqh2rcd13ifvqc4g","pricing_plan_id":"free"},{"bike_id":"78708cac-3f2c-4f4e-8577-3c1ba7dbe05f","system_id":"levelo_inurba_marseille","lat":43.32117,"lon":5.36759,"is_reserved":false,"is_disabled":false,"rental_uris":{"android":"levelo://app?vid=78708cac-3f2c-4f4e-8577-3c1ba7dbe05f","ios":"levelo://app?vid=78708cac-3f2c-4f4e-8577-3c1ba7dbe05f"},"vehicle_type_id":"4","last_reported":1680210386,"current_range_meters":10000,"station_id":"","pricing_plan_id":"free"},{"bike_id":"832e3f01-bdde-4d51-8c9f-748d8f70f6dc","system_id":"levelo_inurba_marseille","lat":43.30983,"lon":5.3794,"is_reserved":false,"is_disabled":false,"rental_uris":{"android":"levelo://app?vid=832e3f01-bdde-4d51-8c9f-748d8f70f6dc","ios":"levelo://app?vid=832e3f01-bdde-4d51-8c9f-748d8f70f6dc"},"vehicle_type_id":"4","last_reported":1680210386,"current_range_meters":11600,"station_id":"","pricing_plan_id":"free"},{"bike_id":"7927eb61-1898-4a16-ae74-46161eb9b498","system_id":"levelo_inurba_marseille","lat":43.3032,"lon":5.36899,"is_reserved":false,"is_disabled":false,"rental_uris":{"android":"levelo://app?vid=7927eb61-1898-4a16-ae74-46161eb9b498","ios":"levelo://app?vid=7927eb61-1898-4a16-ae74-46161eb9b498"},"vehicle_type_id":"4","last_reported":1680210386,"current_range_meters":0,"station_id":"ce4bgqh2rcd13ifvqc5g","pricing_plan_id":"free"},{"bike_id":"aae217d7-5f99-42ba-a043-f0bc8c4ce610","system_id":"levelo_inurba_marseille","lat":43.31417,"lon":5.38024,"is_reserved":false,"is_disabled":false,"rental_uris":{"android":"levelo://app?vid=aae217d7-5f99-42ba-a043-f0bc8c4ce610","ios":"levelo://app?vid=aae217d7-5f99-42ba-a043-f0bc8c4ce610"},"vehicle_type_id":"4","last_reported":1680210386,"current_range_meters":2000,"station_id":"","pricing_plan_id":"free"},{"bike_id":"183b22df-a4d0-4378-9920-7ab171c2d3ef","system_id":"levelo_inurba_marseille","lat":43.304606,"lon":5.379026,"is_reserved":false,"is_disabled":false,"rental_uris":{"android":"levelo://app?vid=183b22df-a4d0-4378-9920-7ab171c2d3ef","ios":"levelo://app?vid=183b22df-a4d0-4378-9920-7ab171c2d3ef"},"vehicle_type_id":"4","last_reported":1680210386,"current_range_meters":14000,"station_id":"ce4bgup2rcd13ifvqcn0","pricing_plan_id":"free"},{"bike_id":"9ead4f7a-0bd3-4997-95d1-5628defb06ae","system_id":"levelo_inurba_marseille","lat":43.30143,"lon":5.37413,"is_reserved":false,"is_disabled":false,"rental_uris":{"android":"levelo://app?vid=9ead4f7a-0bd3-4997-95d1-5628defb06ae","ios":"levelo://app?vid=9ead4f7a-0bd3-4997-95d1-5628defb06ae"},"vehicle_type_id":"4","last_reported":1680210386,"current_range_meters":20000,"station_id":"ce4bgs92rcd13ifvqcc0","pricing_plan_id":"free"},{"bike_id":"813465e8-446f-43dd-9081-04c1313a2495","system_id":"levelo_inurba_marseille","lat":43.31323,"lon":5.38462,"is_reserved":false,"is_disabled":false,"rental_uris":{"android":"levelo://app?vid=813465e8-446f-43dd-9081-04c1313a2495","ios":"levelo://app?vid=813465e8-446f-43dd-9081-04c1313a2495"},"vehicle_type_id":"4","last_reported":1680210386,"current_range_meters":4800,"station_id":"","pricing_plan_id":"free"},{"bike_id":"72e8c1c8-2910-4f45-9eef-2819b14166f2","system_id":"levelo_inurba_marseille","lat":43.31359,"lon":5.38491,"is_reserved":false,"is_disabled":false,"rental_uris":{"android":"levelo://app?vid=72e8c1c8-2910-4f45-9eef-2819b14166f2","ios":"levelo://app?vid=72e8c1c8-2910-4f45-9eef-2819b14166f2"},"vehicle_type_id":"4","last_reported":1680210386,"current_range_meters":1200,"station_id":"ce4bgt92rcd13ifvqcf0","pricing_plan_id":"free"},{"bike_id":"9090d741-9c95-4db1-bbf6-c44317da2ca8","system_id":"levelo_inurba_marseille","lat":43.31355,"lon":5.38497,"is_reserved":false,"is_disabled":false,"rental_uris":{"android":"levelo://app?vid=9090d741-9c95-4db1-bbf6-c44317da2ca8","ios":"levelo://app?vid=9090d741-9c95-4db1-bbf6-c44317da2ca8"},"vehicle_type_id":"4","last_reported":1680210386,"current_range_meters":3600,"station_id":"ce4bgt92rcd13ifvqcf0","pricing_plan_id":"free"},{"bike_id":"3659f0ee-ade7-4e70-9ee5-e88b0cd94211","system_id":"levelo_inurba_marseille","lat":43.31364,"lon":5.38499,"is_reserved":false,"is_disabled":false,"rental_uris":{"android":"levelo://app?vid=3659f0ee-ade7-4e70-9ee5-e88b0cd94211","ios":"levelo://app?vid=3659f0ee-ade7-4e70-9ee5-e88b0cd94211"},"vehicle_type_id":"4","last_reported":1680210386,"current_range_meters":29600,"station_id":"ce4bgt92rcd13ifvqcf0","pricing_plan_id":"free"},{"bike_id":"68a9cc44-d888-4c8f-92ae-aa8c5ed2fd02","system_id":"levelo_inurba_marseille","lat":43.29852,"lon":5.36294,"is_reserved":false,"is_disabled":false,"rental_uris":{"android":"levelo://app?vid=68a9cc44-d888-4c8f-92ae-aa8c5ed2fd02","ios":"levelo://app?vid=68a9cc44-d888-4c8f-92ae-aa8c5ed2fd02"},"vehicle_type_id":"4","last_reported":1680210386,"current_range_meters":8800,"station_id":"ce4bgpp2rcd13ifvqc3g","pricing_plan_id":"free"},{"bike_id":"3c9bc9f2-ad1e-42ca-afbb-264f3349a96b","system_id":"levelo_inurba_marseille","lat":43.311722,"lon":5.387247,"is_reserved":false,"is_disabled":false,"rental_uris":{"android":"levelo://app?vid=3c9bc9f2-ad1e-42ca-afbb-264f3349a96b","ios":"levelo://app?vid=3c9bc9f2-ad1e-42ca-afbb-264f3349a96b"},"vehicle_type_id":"4","last_reported":1680210386,"current_range_meters":8400,"station_id":"ce4bgv12rcd13ifvqcp0","pricing_plan_id":"free"},{"bike_id":"aba8e98d-5879-4f5a-a127-c840d97c2809","system_id":"levelo_inurba_marseille","lat":43.32827,"lon":5.36687,"is_reserved":false,"is_disabled":false,"rental_uris":{"android":"levelo://app?vid=aba8e98d-5879-4f5a-a127-c840d97c2809","ios":"levelo://app?vid=aba8e98d-5879-4f5a-a127-c840d97c2809"},"vehicle_type_id":"4","last_reported":1680210386,"current_range_meters":400,"station_id":"ce4bhs92rcd13ifvqi0g","pricing_plan_id":"free"},{"bike_id":"976405e4-5fc1-4a20-9e36-91cb050f3b10","system_id":"levelo_inurba_marseille","lat":43.29573,"lon":5.367355,"is_reserved":false,"is_disabled":false,"rental_uris":{"android":"levelo://app?vid=976405e4-5fc1-4a20-9e36-91cb050f3b10","ios":"levelo://app?vid=976405e4-5fc1-4a20-9e36-91cb050f3b10"},"vehicle_type_id":"4","last_reported":1680210386,"current_range_meters":18000,"station_id":"ce4bgph2rcd13ifvqc2g","pricing_plan_id":"free"},{"bike_id":"1a2980ca-4865-4cc8-a9db-2912eb8561c6","system_id":"levelo_inurba_marseille","lat":43.29573,"lon":5.367355,"is_reserved":false,"is_disabled":false,"rental_uris":{"android":"levelo://app?vid=1a2980ca-4865-4cc8-a9db-2912eb8561c6","ios":"levelo://app?vid=1a2980ca-4865-4cc8-a9db-2912eb8561c6"},"vehicle_type_id":"4","last_reported":1680210386,"current_range_meters":4000,"station_id":"ce4bgph2rcd13ifvqc2g","pricing_plan_id":"free"},{"bike_id":"be1d8105-8880-49c8-9bbf-6bc0f20ffcb6","system_id":"levelo_inurba_marseille","lat":43.29573,"lon":5.367355,"is_reserved":false,"is_disabled":false,"rental_uris":{"android":"levelo://app?vid=be1d8105-8880-49c8-9bbf-6bc0f20ffcb6","ios":"levelo://app?vid=be1d8105-8880-49c8-9bbf-6bc0f20ffcb6"},"vehicle_type_id":"4","last_reported":1680210386,"current_range_meters":24000,"station_id":"ce4bgph2rcd13ifvqc2g","pricing_plan_id":"free"},{"bike_id":"503883e9-9dd0-4a6a-a2d1-3cd3605cb78b","system_id":"levelo_inurba_marseille","lat":43.29573,"lon":5.367355,"is_reserved":false,"is_disabled":false,"rental_uris":{"android":"levelo://app?vid=503883e9-9dd0-4a6a-a2d1-3cd3605cb78b","ios":"levelo://app?vid=503883e9-9dd0-4a6a-a2d1-3cd3605cb78b"},"vehicle_type_id":"4","last_reported":1680210386,"current_range_meters":26400,"station_id":"ce4bgph2rcd13ifvqc2g","pricing_plan_id":"free"},{"bike_id":"6c072e54-2793-4b16-90c9-4d0518195110","system_id":"levelo_inurba_marseille","lat":43.29573,"lon":5.367355,"is_reserved":false,"is_disabled":false,"rental_uris":{"android":"levelo://app?vid=6c072e54-2793-4b16-90c9-4d0518195110","ios":"levelo://app?vid=6c072e54-2793-4b16-90c9-4d0518195110"},"vehicle_type_id":"4","last_reported":1680210386,"current_range_meters":7200,"station_id":"ce4bgph2rcd13ifvqc2g","pricing_plan_id":"free"},{"bike_id":"12460471-646f-4cb7-9978-bdd85b5fa548","system_id":"levelo_inurba_marseille","lat":43.29573,"lon":5.367355,"is_reserved":false,"is_disabled":false,"rental_uris":{"android":"levelo://app?vid=12460471-646f-4cb7-9978-bdd85b5fa548","ios":"levelo://app?vid=12460471-646f-4cb7-9978-bdd85b5fa548"},"vehicle_type_id":"4","last_reported":1680210386,"current_range_meters":27200,"station_id":"ce4bgph2rcd13ifvqc2g","pricing_plan_id":"free"},{"bike_id":"5f8b20ec-796c-4f08-9680-6dd2317f9bba","system_id":"levelo_inurba_marseille","lat":43.29573,"lon":5.367355,"is_reserved":false,"is_disabled":false,"rental_uris":{"android":"levelo://app?vid=5f8b20ec-796c-4f08-9680-6dd2317f9bba","ios":"levelo://app?vid=5f8b20ec-796c-4f08-9680-6dd2317f9bba"},"vehicle_type_id":"4","last_reported":1680210386,"current_range_meters":30400,"station_id":"ce4bgph2rcd13ifvqc2g","pricing_plan_id":"free"},{"bike_id":"0e064afe-36ba-45d4-8969-55ec7655f9e9","system_id":"levelo_inurba_marseille","lat":43.29573,"lon":5.367355,"is_reserved":false,"is_disabled":false,"rental_uris":{"android":"levelo://app?vid=0e064afe-36ba-45d4-8969-55ec7655f9e9","ios":"levelo://app?vid=0e064afe-36ba-45d4-8969-55ec7655f9e9"},"vehicle_type_id":"4","last_reported":1680210386,"current_range_meters":29200,"station_id":"ce4bgph2rcd13ifvqc2g","pricing_plan_id":"free"},{"bike_id":"ad8f8951-3690-49b2-b360-4a1ac233e9fa","system_id":"levelo_inurba_marseille","lat":43.29573,"lon":5.367355,"is_reserved":false,"is_disabled":false,"rental_uris":{"android":"levelo://app?vid=ad8f8951-3690-49b2-b360-4a1ac233e9fa","ios":"levelo://app?vid=ad8f8951-3690-49b2-b360-4a1ac233e9fa"},"vehicle_type_id":"4","last_reported":1680210386,"current_range_meters":26000,"station_id":"ce4bgph2rcd13ifvqc2g","pricing_plan_id":"free"},{"bike_id":"1fed1c4b-03eb-4375-beea-97abeb38e267","system_id":"levelo_inurba_marseille","lat":43.29573,"lon":5.367355,"is_reserved":false,"is_disabled":false,"rental_uris":{"android":"levelo://app?vid=1fed1c4b-03eb-4375-beea-97abeb38e267","ios":"levelo://app?vid=1fed1c4b-03eb-4375-beea-97abeb38e267"},"vehicle_type_id":"4","last_reported":1680210386,"current_range_meters":21200,"station_id":"ce4bgph2rcd13ifvqc2g","pricing_plan_id":"free"},{"bike_id":"3b24aa8c-d1d8-4d7b-9a65-8d181d021aad","system_id":"levelo_inurba_marseille","lat":43.29573,"lon":5.367355,"is_reserved":false,"is_disabled":false,"rental_uris":{"android":"levelo://app?vid=3b24aa8c-d1d8-4d7b-9a65-8d181d021aad","ios":"levelo://app?vid=3b24aa8c-d1d8-4d7b-9a65-8d181d021aad"},"vehicle_type_id":"4","last_reported":1680210386,"current_range_meters":30000,"station_id":"ce4bgph2rcd13ifvqc2g","pricing_plan_id":"free"},{"bike_id":"95f6f8dc-ac73-46c1-ac1c-5c846d37fa4b","system_id":"levelo_inurba_marseille","lat":43.29573,"lon":5.367355,"is_reserved":false,"is_disabled":false,"rental_uris":{"android":"levelo://app?vid=95f6f8dc-ac73-46c1-ac1c-5c846d37fa4b","ios":"levelo://app?vid=95f6f8dc-ac73-46c1-ac1c-5c846d37fa4b"},"vehicle_type_id":"4","last_reported":1680210386,"current_range_meters":30000,"station_id":"ce4bgph2rcd13ifvqc2g","pricing_plan_id":"free"},{"bike_id":"ec68978a-d7b2-4cd5-b79a-29854b4a8a7b","system_id":"levelo_inurba_marseille","lat":43.29573,"lon":5.367355,"is_reserved":false,"is_disabled":false,"rental_uris":{"android":"levelo://app?vid=ec68978a-d7b2-4cd5-b79a-29854b4a8a7b","ios":"levelo://app?vid=ec68978a-d7b2-4cd5-b79a-29854b4a8a7b"},"vehicle_type_id":"4","last_reported":1680210386,"current_range_meters":30800,"station_id":"ce4bgph2rcd13ifvqc2g","pricing_plan_id":"free"},{"bike_id":"c73d3a80-a85f-4a4b-8b25-b936501410a0","system_id":"levelo_inurba_marseille","lat":43.296921,"lon":5.376579,"is_reserved":false,"is_disabled":false,"rental_uris":{"android":"levelo://app?vid=c73d3a80-a85f-4a4b-8b25-b936501410a0","ios":"levelo://app?vid=c73d3a80-a85f-4a4b-8b25-b936501410a0"},"vehicle_type_id":"4","last_reported":1680210386,"current_range_meters":0,"station_id":"ce4bgkh2rcd13ifvqbl0","pricing_plan_id":"free"},{"bike_id":"36680711-1e5e-45fd-bcb4-c5fd77722c51","system_id":"levelo_inurba_marseille","lat":43.29579,"lon":5.37503,"is_reserved":false,"is_disabled":false,"rental_uris":{"android":"levelo://app?vid=36680711-1e5e-45fd-bcb4-c5fd77722c51","ios":"levelo://app?vid=36680711-1e5e-45fd-bcb4-c5fd77722c51"},"vehicle_type_id":"4","last_reported":1680210386,"current_range_meters":0,"station_id":"ce4bgh92rcd13ifvqb50","pricing_plan_id":"free"},{"bike_id":"dea5b154-c34e-492a-b396-e350702e1b7a","system_id":"levelo_inurba_marseille","lat":43.29575,"lon":5.37516,"is_reserved":false,"is_disabled":false,"rental_uris":{"android":"levelo://app?vid=dea5b154-c34e-492a-b396-e350702e1b7a","ios":"levelo://app?vid=dea5b154-c34e-492a-b396-e350702e1b7a"},"vehicle_type_id":"4","last_reported":1680210386,"current_range_meters":26000,"station_id":"ce4bgh92rcd13ifvqb50","pricing_plan_id":"free"},{"bike_id":"9a7f50c5-d36c-4b2d-87cc-41d71d2670f7","system_id":"levelo_inurba_marseille","lat":43.30432,"lon":5.38899,"is_reserved":false,"is_disabled":false,"rental_uris":{"android":"levelo://app?vid=9a7f50c5-d36c-4b2d-87cc-41d71d2670f7","ios":"levelo://app?vid=9a7f50c5-d36c-4b2d-87cc-41d71d2670f7"},"vehicle_type_id":"4","last_reported":1680210386,"current_range_meters":0,"station_id":"ce4bgk12rcd13ifvqbi0","pricing_plan_id":"free"},{"bike_id":"77c14249-47a4-4cca-a3f9-74908e1006c5","system_id":"levelo_inurba_marseille","lat":43.293249,"lon":5.371578,"is_reserved":false,"is_disabled":false,"rental_uris":{"android":"levelo://app?vid=77c14249-47a4-4cca-a3f9-74908e1006c5","ios":"levelo://app?vid=77c14249-47a4-4cca-a3f9-74908e1006c5"},"vehicle_type_id":"4","last_reported":1680210386,"current_range_meters":0,"station_id":"ce4bgh92rcd13ifvqb40","pricing_plan_id":"free"},{"bike_id":"32e6d88f-d153-46cc-a877-4cb2ac3fe803","system_id":"levelo_inurba_marseille","lat":43.293811,"lon":5.378368,"is_reserved":false,"is_disabled":false,"rental_uris":{"android":"levelo://app?vid=32e6d88f-d153-46cc-a877-4cb2ac3fe803","ios":"levelo://app?vid=32e6d88f-d153-46cc-a877-4cb2ac3fe803"},"vehicle_type_id":"4","last_reported":1680210386,"current_range_meters":16800,"station_id":"ce4bh192rcd13ifvqdb0","pricing_plan_id":"free"},{"bike_id":"36bbe4c8-ffff-4c3a-98f5-63e6c725bc83","system_id":"levelo_inurba_marseille","lat":43.2936,"lon":5.37835,"is_reserved":false,"is_disabled":false,"rental_uris":{"android":"levelo://app?vid=36bbe4c8-ffff-4c3a-98f5-63e6c725bc83","ios":"levelo://app?vid=36bbe4c8-ffff-4c3a-98f5-63e6c725bc83"},"vehicle_type_id":"4","last_reported":1680210386,"current_range_meters":6000,"station_id":"ce4bgjh2rcd13ifvqbf0","pricing_plan_id":"free"},{"bike_id":"35a8d706-89fd-45e7-b4cf-5a0b80bebd13","system_id":"levelo_inurba_marseille","lat":43.289184,"lon":5.366408,"is_reserved":false,"is_disabled":false,"rental_uris":{"android":"levelo://app?vid=35a8d706-89fd-45e7-b4cf-5a0b80bebd13","ios":"levelo://app?vid=35a8d706-89fd-45e7-b4cf-5a0b80bebd13"},"vehicle_type_id":"4","last_reported":1680210386,"current_range_meters":3200,"station_id":"ce4bhap2rcd13ifvqek0","pricing_plan_id":"free"},{"bike_id":"1391d9ca-0609-4107-bb64-9c17465df9b3","system_id":"levelo_inurba_marseille","lat":43.289468,"lon":5.363719,"is_reserved":false,"is_disabled":false,"rental_uris":{"android":"levelo://app?vid=1391d9ca-0609-4107-bb64-9c17465df9b3","ios":"levelo://app?vid=1391d9ca-0609-4107-bb64-9c17465df9b3"},"vehicle_type_id":"4","last_reported":1680210386,"current_range_meters":2800,"station_id":"ce4bhc92rcd13ifvqetg","pricing_plan_id":"free"},{"bike_id":"5e286a27-7103-41bd-a49f-6e9642fc6776","system_id":"levelo_inurba_marseille","lat":43.290995,"lon":5.381361,"is_reserved":false,"is_disabled":false,"rental_uris":{"android":"levelo://app?vid=5e286a27-7103-41bd-a49f-6e9642fc6776","ios":"levelo://app?vid=5e286a27-7103-41bd-a49f-6e9642fc6776"},"vehicle_type_id":"4","last_reported":1680210386,"current_range_meters":5600,"station_id":"ce4bh512rcd13ifvqe2g","pricing_plan_id":"free"},{"bike_id":"e414d4e1-0e32-48b2-a861-6208ac0066e7","system_id":"levelo_inurba_marseille","lat":43.288935,"lon":5.361244,"is_reserved":false,"is_disabled":false,"rental_uris":{"android":"levelo://app?vid=e414d4e1-0e32-48b2-a861-6208ac0066e7","ios":"levelo://app?vid=e414d4e1-0e32-48b2-a861-6208ac0066e7"},"vehicle_type_id":"4","last_reported":1680210386,"current_range_meters":0,"station_id":"","pricing_plan_id":"free"},{"bike_id":"7b65c6f4-59de-44f9-b197-e1ae442f2f12","system_id":"levelo_inurba_marseille","lat":43.28856,"lon":5.358371,"is_reserved":false,"is_disabled":false,"rental_uris":{"android":"levelo://app?vid=7b65c6f4-59de-44f9-b197-e1ae442f2f12","ios":"levelo://app?vid=7b65c6f4-59de-44f9-b197-e1ae442f2f12"},"vehicle_type_id":"4","last_reported":1680210386,"current_range_meters":26000,"station_id":"ce4bhb12rcd13ifvqem0","pricing_plan_id":"free"},{"bike_id":"d5c80345-9752-4c5b-a446-e48285e22a61","system_id":"levelo_inurba_marseille","lat":43.33754,"lon":5.37437,"is_reserved":false,"is_disabled":false,"rental_uris":{"android":"levelo://app?vid=d5c80345-9752-4c5b-a446-e48285e22a61","ios":"levelo://app?vid=d5c80345-9752-4c5b-a446-e48285e22a61"},"vehicle_type_id":"4","last_reported":1680210386,"current_range_meters":25200,"station_id":"","pricing_plan_id":"free"},{"bike_id":"b1883a94-a5df-4f6e-bad7-6dc8f4fbfeda","system_id":"levelo_inurba_marseille","lat":43.30643,"lon":5.40094,"is_reserved":false,"is_disabled":false,"rental_uris":{"android":"levelo://app?vid=b1883a94-a5df-4f6e-bad7-6dc8f4fbfeda","ios":"levelo://app?vid=b1883a94-a5df-4f6e-bad7-6dc8f4fbfeda"},"vehicle_type_id":"4","last_reported":1680210386,"current_range_meters":0,"station_id":"ce4bh112rcd13ifvqda0","pricing_plan_id":"free"},{"bike_id":"7ea5c5d1-1599-49e2-821e-335cd8dda03b","system_id":"levelo_inurba_marseille","lat":43.33769,"lon":5.37449,"is_reserved":false,"is_disabled":false,"rental_uris":{"android":"levelo://app?vid=7ea5c5d1-1599-49e2-821e-335cd8dda03b","ios":"levelo://app?vid=7ea5c5d1-1599-49e2-821e-335cd8dda03b"},"vehicle_type_id":"4","last_reported":1680210386,"current_range_meters":0,"station_id":"","pricing_plan_id":"free"},{"bike_id":"eed0a0f8-6335-4d6c-a73f-915518f0b56d","system_id":"levelo_inurba_marseille","lat":43.286593,"lon":5.363346,"is_reserved":false,"is_disabled":false,"rental_uris":{"android":"levelo://app?vid=eed0a0f8-6335-4d6c-a73f-915518f0b56d","ios":"levelo://app?vid=eed0a0f8-6335-4d6c-a73f-915518f0b56d"},"vehicle_type_id":"4","last_reported":1680210386,"current_range_meters":16400,"station_id":"ce4bhah2rcd13ifvqej0","pricing_plan_id":"free"},{"bike_id":"40d495ad-2e49-4cf4-be3c-fa932a20ac3f","system_id":"levelo_inurba_marseille","lat":43.298681,"lon":5.397225,"is_reserved":false,"is_disabled":false,"rental_uris":{"android":"levelo://app?vid=40d495ad-2e49-4cf4-be3c-fa932a20ac3f","ios":"levelo://app?vid=40d495ad-2e49-4cf4-be3c-fa932a20ac3f"},"vehicle_type_id":"4","last_reported":1680210386,"current_range_meters":0,"station_id":"ce4bh0h2rcd13ifvqd50","pricing_plan_id":"free"},{"bike_id":"830d6f74-6ed6-415f-b4e7-b6e0cc612342","system_id":"levelo_inurba_marseille","lat":43.29029,"lon":5.38637,"is_reserved":false,"is_disabled":false,"rental_uris":{"android":"levelo://app?vid=830d6f74-6ed6-415f-b4e7-b6e0cc612342","ios":"levelo://app?vid=830d6f74-6ed6-415f-b4e7-b6e0cc612342"},"vehicle_type_id":"4","last_reported":1680210386,"current_range_meters":0,"station_id":"","pricing_plan_id":"free"},{"bike_id":"d1adbc69-109f-473a-a479-1ccdb5e84fdd","system_id":"levelo_inurba_marseille","lat":43.30248,"lon":5.4006,"is_reserved":false,"is_disabled":false,"rental_uris":{"android":"levelo://app?vid=d1adbc69-109f-473a-a479-1ccdb5e84fdd","ios":"levelo://app?vid=d1adbc69-109f-473a-a479-1ccdb5e84fdd"},"vehicle_type_id":"4","last_reported":1680210386,"current_range_meters":22000,"station_id":"","pricing_plan_id":"free"},{"bike_id":"4628ca05-0a2b-4327-b385-4e551c8b3f04","system_id":"levelo_inurba_marseille","lat":43.29529,"lon":5.385581,"is_reserved":false,"is_disabled":false,"rental_uris":{"android":"levelo://app?vid=4628ca05-0a2b-4327-b385-4e551c8b3f04","ios":"levelo://app?vid=4628ca05-0a2b-4327-b385-4e551c8b3f04"},"vehicle_type_id":"4","last_reported":1680210386,"current_range_meters":10400,"station_id":"ce4bgih2rcd13ifvqba0","pricing_plan_id":"free"},{"bike_id":"6b289ebe-ae9c-441a-b259-298884593d30","system_id":"levelo_inurba_marseille","lat":43.31636,"lon":5.40493,"is_reserved":false,"is_disabled":false,"rental_uris":{"android":"levelo://app?vid=6b289ebe-ae9c-441a-b259-298884593d30","ios":"levelo://app?vid=6b289ebe-ae9c-441a-b259-298884593d30"},"vehicle_type_id":"4","last_reported":1680210386,"current_range_meters":0,"station_id":"","pricing_plan_id":"free"},{"bike_id":"ff155176-d025-4759-80ea-7f5f075a2a13","system_id":"levelo_inurba_marseille","lat":43.284534,"lon":5.358662,"is_reserved":false,"is_disabled":false,"rental_uris":{"android":"levelo://app?vid=ff155176-d025-4759-80ea-7f5f075a2a13","ios":"levelo://app?vid=ff155176-d025-4759-80ea-7f5f075a2a13"},"vehicle_type_id":"4","last_reported":1680210386,"current_range_meters":26800,"station_id":"ce4bhah2rcd13ifvqei0","pricing_plan_id":"free"},{"bike_id":"a46db6af-105d-4207-9fed-d91e467b9aa4","system_id":"levelo_inurba_marseille","lat":43.284534,"lon":5.358662,"is_reserved":false,"is_disabled":false,"rental_uris":{"android":"levelo://app?vid=a46db6af-105d-4207-9fed-d91e467b9aa4","ios":"levelo://app?vid=a46db6af-105d-4207-9fed-d91e467b9aa4"},"vehicle_type_id":"4","last_reported":1680210386,"current_range_meters":12400,"station_id":"ce4bhah2rcd13ifvqei0","pricing_plan_id":"free"},{"bike_id":"355791f2-b124-4328-87d2-c861392f2623","system_id":"levelo_inurba_marseille","lat":43.295713,"lon":5.399639,"is_reserved":false,"is_disabled":false,"rental_uris":{"android":"levelo://app?vid=355791f2-b124-4328-87d2-c861392f2623","ios":"levelo://app?vid=355791f2-b124-4328-87d2-c861392f2623"},"vehicle_type_id":"4","last_reported":1680210386,"current_range_meters":2000,"station_id":"ce4bh312rcd13ifvqdj0","pricing_plan_id":"free"},{"bike_id":"3d6ec66a-340b-4765-94b3-263e8ce59256","system_id":"levelo_inurba_marseille","lat":43.323464,"lon":5.406297,"is_reserved":false,"is_disabled":false,"rental_uris":{"android":"levelo://app?vid=3d6ec66a-340b-4765-94b3-263e8ce59256","ios":"levelo://app?vid=3d6ec66a-340b-4765-94b3-263e8ce59256"},"vehicle_type_id":"4","last_reported":1680210386,"current_range_meters":400,"station_id":"ce4bhq92rcd13ifvqhjg","pricing_plan_id":"free"},{"bike_id":"ecbc96c7-8f0f-412f-afe9-756241e5a843","system_id":"levelo_inurba_marseille","lat":43.323464,"lon":5.406297,"is_reserved":false,"is_disabled":false,"rental_uris":{"android":"levelo://app?vid=ecbc96c7-8f0f-412f-afe9-756241e5a843","ios":"levelo://app?vid=ecbc96c7-8f0f-412f-afe9-756241e5a843"},"vehicle_type_id":"4","last_reported":1680210386,"current_range_meters":1600,"station_id":"ce4bhq92rcd13ifvqhjg","pricing_plan_id":"free"},{"bike_id":"ca63f092-2fdd-4ad2-9a3c-43ca99944b92","system_id":"levelo_inurba_marseille","lat":43.284787,"lon":5.384116,"is_reserved":false,"is_disabled":false,"rental_uris":{"android":"levelo://app?vid=ca63f092-2fdd-4ad2-9a3c-43ca99944b92","ios":"levelo://app?vid=ca63f092-2fdd-4ad2-9a3c-43ca99944b92"},"vehicle_type_id":"4","last_reported":1680210386,"current_range_meters":13200,"station_id":"ce4bh512rcd13ifvqe3g","pricing_plan_id":"free"},{"bike_id":"50b15282-e52f-4392-be3a-d8d7be4ed16f","system_id":"levelo_inurba_marseille","lat":43.288497,"lon":5.393089,"is_reserved":false,"is_disabled":false,"rental_uris":{"android":"levelo://app?vid=50b15282-e52f-4392-be3a-d8d7be4ed16f","ios":"levelo://app?vid=50b15282-e52f-4392-be3a-d8d7be4ed16f"},"vehicle_type_id":"4","last_reported":1680210386,"current_range_meters":4000,"station_id":"ce4bh2p2rcd13ifvqdi0","pricing_plan_id":"free"},{"bike_id":"7f52929f-a941-4267-9752-08abaa400f3d","system_id":"levelo_inurba_marseille","lat":43.288501,"lon":5.393087,"is_reserved":false,"is_disabled":false,"rental_uris":{"android":"levelo://app?vid=7f52929f-a941-4267-9752-08abaa400f3d","ios":"levelo://app?vid=7f52929f-a941-4267-9752-08abaa400f3d"},"vehicle_type_id":"4","last_reported":1680210386,"current_range_meters":24000,"station_id":"ce4bh2p2rcd13ifvqdi0","pricing_plan_id":"free"},{"bike_id":"5c6d4968-aff5-4cb3-83ae-6269cfbb66c2","system_id":"levelo_inurba_marseille","lat":43.28434,"lon":5.35004,"is_reserved":false,"is_disabled":false,"rental_uris":{"android":"levelo://app?vid=5c6d4968-aff5-4cb3-83ae-6269cfbb66c2","ios":"levelo://app?vid=5c6d4968-aff5-4cb3-83ae-6269cfbb66c2"},"vehicle_type_id":"4","last_reported":1680210386,"current_range_meters":7200,"station_id":"ce4bhbh2rcd13ifvqepg","pricing_plan_id":"free"},{"bike_id":"33412e70-1c2e-4666-9176-2bf614336aea","system_id":"levelo_inurba_marseille","lat":43.28357,"lon":5.38113,"is_reserved":false,"is_disabled":false,"rental_uris":{"android":"levelo://app?vid=33412e70-1c2e-4666-9176-2bf614336aea","ios":"levelo://app?vid=33412e70-1c2e-4666-9176-2bf614336aea"},"vehicle_type_id":"4","last_reported":1680210386,"current_range_meters":6400,"station_id":"","pricing_plan_id":"free"},{"bike_id":"3be6d7cd-8396-4771-9694-e6b74a4a5811","system_id":"levelo_inurba_marseille","lat":43.284219,"lon":5.3497,"is_reserved":false,"is_disabled":false,"rental_uris":{"android":"levelo://app?vid=3be6d7cd-8396-4771-9694-e6b74a4a5811","ios":"levelo://app?vid=3be6d7cd-8396-4771-9694-e6b74a4a5811"},"vehicle_type_id":"4","last_reported":1680210386,"current_range_meters":0,"station_id":"ce4bhbh2rcd13ifvqepg","pricing_plan_id":"free"},{"bike_id":"ed476d9d-ebc3-446e-878f-2d3d24dc86c6","system_id":"levelo_inurba_marseille","lat":43.32835,"lon":5.40507,"is_reserved":false,"is_disabled":false,"rental_uris":{"android":"levelo://app?vid=ed476d9d-ebc3-446e-878f-2d3d24dc86c6","ios":"levelo://app?vid=ed476d9d-ebc3-446e-878f-2d3d24dc86c6"},"vehicle_type_id":"4","last_reported":1680210386,"current_range_meters":800,"station_id":"","pricing_plan_id":"free"},{"bike_id":"a8de5756-d78f-4830-a1b1-f3e0b6468045","system_id":"levelo_inurba_marseille","lat":43.290412,"lon":5.399633,"is_reserved":false,"is_disabled":false,"rental_uris":{"android":"levelo://app?vid=a8de5756-d78f-4830-a1b1-f3e0b6468045","ios":"levelo://app?vid=a8de5756-d78f-4830-a1b1-f3e0b6468045"},"vehicle_type_id":"4","last_reported":1680210386,"current_range_meters":0,"station_id":"ce4bh392rcd13ifvqdm0","pricing_plan_id":"free"},{"bike_id":"e07284eb-bdf4-43bf-aade-76e9ad32a8a3","system_id":"levelo_inurba_marseille","lat":43.29041,"lon":5.399634,"is_reserved":false,"is_disabled":false,"rental_uris":{"android":"levelo://app?vid=e07284eb-bdf4-43bf-aade-76e9ad32a8a3","ios":"levelo://app?vid=e07284eb-bdf4-43bf-aade-76e9ad32a8a3"},"vehicle_type_id":"4","last_reported":1680210386,"current_range_meters":26800,"station_id":"ce4bh392rcd13ifvqdm0","pricing_plan_id":"free"},{"bike_id":"0a015001-d9fe-4e86-8ab0-dd575a4dc443","system_id":"levelo_inurba_marseille","lat":43.284462,"lon":5.392121,"is_reserved":false,"is_disabled":false,"rental_uris":{"android":"levelo://app?vid=0a015001-d9fe-4e86-8ab0-dd575a4dc443","ios":"levelo://app?vid=0a015001-d9fe-4e86-8ab0-dd575a4dc443"},"vehicle_type_id":"4","last_reported":1680210386,"current_range_meters":6800,"station_id":"ce4bhoh2rcd13ifvqh5g","pricing_plan_id":"free"},{"bike_id":"4ccc59c3-267d-4c03-8a94-a3b05af62549","system_id":"levelo_inurba_marseille","lat":43.27902,"lon":5.38028,"is_reserved":false,"is_disabled":false,"rental_uris":{"android":"levelo://app?vid=4ccc59c3-267d-4c03-8a94-a3b05af62549","ios":"levelo://app?vid=4ccc59c3-267d-4c03-8a94-a3b05af62549"},"vehicle_type_id":"4","last_reported":1680210386,"current_range_meters":0,"station_id":"","pricing_plan_id":"free"},{"bike_id":"91823072-44be-4d24-86f0-6f7372cfb77b","system_id":"levelo_inurba_marseille","lat":43.287154,"lon":5.399979,"is_reserved":false,"is_disabled":false,"rental_uris":{"android":"levelo://app?vid=91823072-44be-4d24-86f0-6f7372cfb77b","ios":"levelo://app?vid=91823072-44be-4d24-86f0-6f7372cfb77b"},"vehicle_type_id":"4","last_reported":1680210386,"current_range_meters":4400,"station_id":"ce4bho92rcd13ifvqh3g","pricing_plan_id":"free"},{"bike_id":"ad9ebe0e-861c-46bf-acd4-ee96bc5f93e4","system_id":"levelo_inurba_marseille","lat":43.287154,"lon":5.399979,"is_reserved":false,"is_disabled":false,"rental_uris":{"android":"levelo://app?vid=ad9ebe0e-861c-46bf-acd4-ee96bc5f93e4","ios":"levelo://app?vid=ad9ebe0e-861c-46bf-acd4-ee96bc5f93e4"},"vehicle_type_id":"4","last_reported":1680210386,"current_range_meters":0,"station_id":"ce4bho92rcd13ifvqh3g","pricing_plan_id":"free"},{"bike_id":"94114e6e-6cdf-4606-84aa-5e9116decb0d","system_id":"levelo_inurba_marseille","lat":43.287154,"lon":5.399979,"is_reserved":false,"is_disabled":false,"rental_uris":{"android":"levelo://app?vid=94114e6e-6cdf-4606-84aa-5e9116decb0d","ios":"levelo://app?vid=94114e6e-6cdf-4606-84aa-5e9116decb0d"},"vehicle_type_id":"4","last_reported":1680210386,"current_range_meters":4800,"station_id":"ce4bho92rcd13ifvqh3g","pricing_plan_id":"free"},{"bike_id":"afb9f3d1-87b8-4181-bdc5-470f203edb1c","system_id":"levelo_inurba_marseille","lat":43.320045,"lon":5.415048,"is_reserved":false,"is_disabled":false,"rental_uris":{"android":"levelo://app?vid=afb9f3d1-87b8-4181-bdc5-470f203edb1c","ios":"levelo://app?vid=afb9f3d1-87b8-4181-bdc5-470f203edb1c"},"vehicle_type_id":"4","last_reported":1680210386,"current_range_meters":0,"station_id":"ce4bhq92rcd13ifvqhkg","pricing_plan_id":"free"},{"bike_id":"eebda507-1887-46cc-b7ec-5735a8a3987e","system_id":"levelo_inurba_marseille","lat":43.276179,"lon":5.361009,"is_reserved":false,"is_disabled":false,"rental_uris":{"android":"levelo://app?vid=eebda507-1887-46cc-b7ec-5735a8a3987e","ios":"levelo://app?vid=eebda507-1887-46cc-b7ec-5735a8a3987e"},"vehicle_type_id":"4","last_reported":1680210386,"current_range_meters":22800,"station_id":"ce4bgj92rcd13ifvqbe0","pricing_plan_id":"free"},{"bike_id":"5a85cf15-cd30-4774-a74a-be17606ad087","system_id":"levelo_inurba_marseille","lat":43.273613,"lon":5.362705,"is_reserved":false,"is_disabled":false,"rental_uris":{"android":"levelo://app?vid=5a85cf15-cd30-4774-a74a-be17606ad087","ios":"levelo://app?vid=5a85cf15-cd30-4774-a74a-be17606ad087"},"vehicle_type_id":"4","last_reported":1680210386,"current_range_meters":0,"station_id":"ce4bhbh2rcd13ifvqeo0","pricing_plan_id":"free"},{"bike_id":"666115ce-0d43-44e3-aeb7-e2221f7fa2d6","system_id":"levelo_inurba_marseille","lat":43.274103,"lon":5.394016,"is_reserved":false,"is_disabled":false,"rental_uris":{"android":"levelo://app?vid=666115ce-0d43-44e3-aeb7-e2221f7fa2d6","ios":"levelo://app?vid=666115ce-0d43-44e3-aeb7-e2221f7fa2d6"},"vehicle_type_id":"4","last_reported":1680210386,"current_range_meters":7200,"station_id":"ce4bhdp2rcd13ifvqf20","pricing_plan_id":"free"},{"bike_id":"83ec6beb-3663-4d38-880b-3901f297363e","system_id":"levelo_inurba_marseille","lat":43.272,"lon":5.39093,"is_reserved":false,"is_disabled":false,"rental_uris":{"android":"levelo://app?vid=83ec6beb-3663-4d38-880b-3901f297363e","ios":"levelo://app?vid=83ec6beb-3663-4d38-880b-3901f297363e"},"vehicle_type_id":"4","last_reported":1680210386,"current_range_meters":18400,"station_id":"","pricing_plan_id":"free"},{"bike_id":"298ba2a3-00bc-4fce-81a9-7b8fd628cd7e","system_id":"levelo_inurba_marseille","lat":43.278128,"lon":5.407195,"is_reserved":false,"is_disabled":false,"rental_uris":{"android":"levelo://app?vid=298ba2a3-00bc-4fce-81a9-7b8fd628cd7e","ios":"levelo://app?vid=298ba2a3-00bc-4fce-81a9-7b8fd628cd7e"},"vehicle_type_id":"4","last_reported":1680210386,"current_range_meters":25600,"station_id":"ce4bhnh2rcd13ifvqgtg","pricing_plan_id":"free"},{"bike_id":"48d3e434-999f-4b7c-a1a8-08e18270eac8","system_id":"levelo_inurba_marseille","lat":43.3257,"lon":5.42713,"is_reserved":false,"is_disabled":false,"rental_uris":{"android":"levelo://app?vid=48d3e434-999f-4b7c-a1a8-08e18270eac8","ios":"levelo://app?vid=48d3e434-999f-4b7c-a1a8-08e18270eac8"},"vehicle_type_id":"4","last_reported":1680210386,"current_range_meters":19200,"station_id":"","pricing_plan_id":"free"},{"bike_id":"9808eb43-6f75-4be0-92b3-ecd749ef92a5","system_id":"levelo_inurba_marseille","lat":43.26684,"lon":5.3827,"is_reserved":false,"is_disabled":false,"rental_uris":{"android":"levelo://app?vid=9808eb43-6f75-4be0-92b3-ecd749ef92a5","ios":"levelo://app?vid=9808eb43-6f75-4be0-92b3-ecd749ef92a5"},"vehicle_type_id":"4","last_reported":1680210386,"current_range_meters":29200,"station_id":"ce4bhg92rcd13ifvqf90","pricing_plan_id":"free"},{"bike_id":"3f48d300-3a5a-4762-9c3c-e5bfe6052062","system_id":"levelo_inurba_marseille","lat":43.2838,"lon":5.42401,"is_reserved":false,"is_disabled":false,"rental_uris":{"android":"levelo://app?vid=3f48d300-3a5a-4762-9c3c-e5bfe6052062","ios":"levelo://app?vid=3f48d300-3a5a-4762-9c3c-e5bfe6052062"},"vehicle_type_id":"4","last_reported":1680210386,"current_range_meters":0,"station_id":"","pricing_plan_id":"free"},{"bike_id":"c8ea8206-901a-488c-ac4b-8b1e01485d14","system_id":"levelo_inurba_marseille","lat":43.331864,"lon":5.431794,"is_reserved":false,"is_disabled":false,"rental_uris":{"android":"levelo://app?vid=c8ea8206-901a-488c-ac4b-8b1e01485d14","ios":"levelo://app?vid=c8ea8206-901a-488c-ac4b-8b1e01485d14"},"vehicle_type_id":"4","last_reported":1680210386,"current_range_meters":0,"station_id":"","pricing_plan_id":"free"},{"bike_id":"4b31b6d3-878e-4aee-98c3-92b7c1d28053","system_id":"levelo_inurba_marseille","lat":43.261782,"lon":5.374515,"is_reserved":false,"is_disabled":false,"rental_uris":{"android":"levelo://app?vid=4b31b6d3-878e-4aee-98c3-92b7c1d28053","ios":"levelo://app?vid=4b31b6d3-878e-4aee-98c3-92b7c1d28053"},"vehicle_type_id":"4","last_reported":1680210386,"current_range_meters":4800,"station_id":"ce4bhgp2rcd13ifvqfc0","pricing_plan_id":"free"},{"bike_id":"ab16a43b-7655-474c-bea3-1b3c1243683c","system_id":"levelo_inurba_marseille","lat":43.261782,"lon":5.374515,"is_reserved":false,"is_disabled":false,"rental_uris":{"android":"levelo://app?vid=ab16a43b-7655-474c-bea3-1b3c1243683c","ios":"levelo://app?vid=ab16a43b-7655-474c-bea3-1b3c1243683c"},"vehicle_type_id":"4","last_reported":1680210386,"current_range_meters":11200,"station_id":"ce4bhgp2rcd13ifvqfc0","pricing_plan_id":"free"},{"bike_id":"0eeed12f-b9a6-40f1-a2ff-3d683166b257","system_id":"levelo_inurba_marseille","lat":43.26187,"lon":5.37444,"is_reserved":false,"is_disabled":false,"rental_uris":{"android":"levelo://app?vid=0eeed12f-b9a6-40f1-a2ff-3d683166b257","ios":"levelo://app?vid=0eeed12f-b9a6-40f1-a2ff-3d683166b257"},"vehicle_type_id":"4","last_reported":1680210386,"current_range_meters":17600,"station_id":"ce4bhgp2rcd13ifvqfc0","pricing_plan_id":"free"},{"bike_id":"9ab2de93-3823-46d5-98bf-d845d6a7526d","system_id":"levelo_inurba_marseille","lat":43.317104,"lon":5.436818,"is_reserved":false,"is_disabled":false,"rental_uris":{"android":"levelo://app?vid=9ab2de93-3823-46d5-98bf-d845d6a7526d","ios":"levelo://app?vid=9ab2de93-3823-46d5-98bf-d845d6a7526d"},"vehicle_type_id":"4","last_reported":1680210386,"current_range_meters":14400,"station_id":"ce4bhp92rcd13ifvqhcg","pricing_plan_id":"free"},{"bike_id":"fd726f37-c131-46bc-b622-7a0dbc682fe8","system_id":"levelo_inurba_marseille","lat":43.26848,"lon":5.40305,"is_reserved":false,"is_disabled":false,"rental_uris":{"android":"levelo://app?vid=fd726f37-c131-46bc-b622-7a0dbc682fe8","ios":"levelo://app?vid=fd726f37-c131-46bc-b622-7a0dbc682fe8"},"vehicle_type_id":"4","last_reported":1680210386,"current_range_meters":20800,"station_id":"","pricing_plan_id":"free"},{"bike_id":"fb4450cb-c1e0-418c-9294-aa536e64f294","system_id":"levelo_inurba_marseille","lat":43.267959,"lon":5.402687,"is_reserved":false,"is_disabled":false,"rental_uris":{"android":"levelo://app?vid=fb4450cb-c1e0-418c-9294-aa536e64f294","ios":"levelo://app?vid=fb4450cb-c1e0-418c-9294-aa536e64f294"},"vehicle_type_id":"4","last_reported":1680210386,"current_range_meters":12000,"station_id":"ce501612rcd8frsf0b60","pricing_plan_id":"free"},{"bike_id":"2bb73173-a41b-4285-8e20-043bcf72074b","system_id":"levelo_inurba_marseille","lat":43.298768,"lon":5.43643,"is_reserved":false,"is_disabled":false,"rental_uris":{"android":"levelo://app?vid=2bb73173-a41b-4285-8e20-043bcf72074b","ios":"levelo://app?vid=2bb73173-a41b-4285-8e20-043bcf72074b"},"vehicle_type_id":"4","last_reported":1680210386,"current_range_meters":0,"station_id":"ce4bhpp2rcd13ifvqhfg","pricing_plan_id":"free"},{"bike_id":"cea4ddaf-8356-40bb-baee-7b633b85dfbe","system_id":"levelo_inurba_marseille","lat":43.298768,"lon":5.43643,"is_reserved":false,"is_disabled":false,"rental_uris":{"android":"levelo://app?vid=cea4ddaf-8356-40bb-baee-7b633b85dfbe","ios":"levelo://app?vid=cea4ddaf-8356-40bb-baee-7b633b85dfbe"},"vehicle_type_id":"4","last_reported":1680210386,"current_range_meters":0,"station_id":"ce4bhpp2rcd13ifvqhfg","pricing_plan_id":"free"},{"bike_id":"a9412b7c-4780-442b-8e7f-5fc4b2161bd3","system_id":"levelo_inurba_marseille","lat":43.27289,"lon":5.41483,"is_reserved":false,"is_disabled":false,"rental_uris":{"android":"levelo://app?vid=a9412b7c-4780-442b-8e7f-5fc4b2161bd3","ios":"levelo://app?vid=a9412b7c-4780-442b-8e7f-5fc4b2161bd3"},"vehicle_type_id":"4","last_reported":1680210386,"current_range_meters":24800,"station_id":"","pricing_plan_id":"free"},{"bike_id":"6d047652-0f97-4d06-82d6-9fe2cfdf1afa","system_id":"levelo_inurba_marseille","lat":43.254947,"lon":5.376454,"is_reserved":false,"is_disabled":false,"rental_uris":{"android":"levelo://app?vid=6d047652-0f97-4d06-82d6-9fe2cfdf1afa","ios":"levelo://app?vid=6d047652-0f97-4d06-82d6-9fe2cfdf1afa"},"vehicle_type_id":"4","last_reported":1680210386,"current_range_meters":0,"station_id":"ce4bhh12rcd13ifvqff0","pricing_plan_id":"free"},{"bike_id":"0dcbed10-8a63-45cc-afdc-7027c8e2faf2","system_id":"levelo_inurba_marseille","lat":43.254947,"lon":5.376454,"is_reserved":false,"is_disabled":false,"rental_uris":{"android":"levelo://app?vid=0dcbed10-8a63-45cc-afdc-7027c8e2faf2","ios":"levelo://app?vid=0dcbed10-8a63-45cc-afdc-7027c8e2faf2"},"vehicle_type_id":"4","last_reported":1680210386,"current_range_meters":23600,"station_id":"ce4bhh12rcd13ifvqff0","pricing_plan_id":"free"},{"bike_id":"539e77d9-20dc-43ae-8f31-0c0151e529e4","system_id":"levelo_inurba_marseille","lat":43.270721,"lon":5.422764,"is_reserved":false,"is_disabled":false,"rental_uris":{"android":"levelo://app?vid=539e77d9-20dc-43ae-8f31-0c0151e529e4","ios":"levelo://app?vid=539e77d9-20dc-43ae-8f31-0c0151e529e4"},"vehicle_type_id":"4","last_reported":1680210386,"current_range_meters":31200,"station_id":"ce4bhk92rcd13ifvqgb0","pricing_plan_id":"free"},{"bike_id":"528ab8c6-e2c9-4efa-9b88-2948d288b403","system_id":"levelo_inurba_marseille","lat":43.270721,"lon":5.422764,"is_reserved":false,"is_disabled":false,"rental_uris":{"android":"levelo://app?vid=528ab8c6-e2c9-4efa-9b88-2948d288b403","ios":"levelo://app?vid=528ab8c6-e2c9-4efa-9b88-2948d288b403"},"vehicle_type_id":"4","last_reported":1680210386,"current_range_meters":31200,"station_id":"ce4bhk92rcd13ifvqgb0","pricing_plan_id":"free"},{"bike_id":"ca66d380-733a-4bf9-a692-8764840c005f","system_id":"levelo_inurba_marseille","lat":43.270721,"lon":5.422764,"is_reserved":false,"is_disabled":false,"rental_uris":{"android":"levelo://app?vid=ca66d380-733a-4bf9-a692-8764840c005f","ios":"levelo://app?vid=ca66d380-733a-4bf9-a692-8764840c005f"},"vehicle_type_id":"4","last_reported":1680210386,"current_range_meters":30400,"station_id":"ce4bhk92rcd13ifvqgb0","pricing_plan_id":"free"},{"bike_id":"a150f41c-2fff-49f8-abe6-60d8fc4fe6d3","system_id":"levelo_inurba_marseille","lat":43.270721,"lon":5.422764,"is_reserved":false,"is_disabled":false,"rental_uris":{"android":"levelo://app?vid=a150f41c-2fff-49f8-abe6-60d8fc4fe6d3","ios":"levelo://app?vid=a150f41c-2fff-49f8-abe6-60d8fc4fe6d3"},"vehicle_type_id":"4","last_reported":1680210386,"current_range_meters":31200,"station_id":"ce4bhk92rcd13ifvqgb0","pricing_plan_id":"free"},{"bike_id":"b4865f4b-cbf9-47be-a277-ba734b9ff88b","system_id":"levelo_inurba_marseille","lat":43.270721,"lon":5.422764,"is_reserved":false,"is_disabled":false,"rental_uris":{"android":"levelo://app?vid=b4865f4b-cbf9-47be-a277-ba734b9ff88b","ios":"levelo://app?vid=b4865f4b-cbf9-47be-a277-ba734b9ff88b"},"vehicle_type_id":"4","last_reported":1680210386,"current_range_meters":28800,"station_id":"ce4bhk92rcd13ifvqgb0","pricing_plan_id":"free"},{"bike_id":"f27f16d6-43a9-4dab-abb4-abef47da0a42","system_id":"levelo_inurba_marseille","lat":43.270721,"lon":5.422764,"is_reserved":false,"is_disabled":false,"rental_uris":{"android":"levelo://app?vid=f27f16d6-43a9-4dab-abb4-abef47da0a42","ios":"levelo://app?vid=f27f16d6-43a9-4dab-abb4-abef47da0a42"},"vehicle_type_id":"4","last_reported":1680210386,"current_range_meters":31200,"station_id":"ce4bhk92rcd13ifvqgb0","pricing_plan_id":"free"},{"bike_id":"29c4f653-4acf-4527-ba75-882d0504a320","system_id":"levelo_inurba_marseille","lat":43.24897,"lon":5.38172,"is_reserved":false,"is_disabled":false,"rental_uris":{"android":"levelo://app?vid=29c4f653-4acf-4527-ba75-882d0504a320","ios":"levelo://app?vid=29c4f653-4acf-4527-ba75-882d0504a320"},"vehicle_type_id":"4","last_reported":1680210386,"current_range_meters":12000,"station_id":"","pricing_plan_id":"free"},{"bike_id":"76b3dbc8-8421-425b-afa0-a8214b58fc5e","system_id":"levelo_inurba_marseille","lat":43.2479,"lon":5.374457,"is_reserved":false,"is_disabled":false,"rental_uris":{"android":"levelo://app?vid=76b3dbc8-8421-425b-afa0-a8214b58fc5e","ios":"levelo://app?vid=76b3dbc8-8421-425b-afa0-a8214b58fc5e"},"vehicle_type_id":"4","last_reported":1680210386,"current_range_meters":4000,"station_id":"ce4bhgh2rcd13ifvqfb0","pricing_plan_id":"free"},{"bike_id":"ade1c719-7b67-4f02-9c19-0aa6a84afe19","system_id":"levelo_inurba_marseille","lat":43.250966,"lon":5.395186,"is_reserved":false,"is_disabled":false,"rental_uris":{"android":"levelo://app?vid=ade1c719-7b67-4f02-9c19-0aa6a84afe19","ios":"levelo://app?vid=ade1c719-7b67-4f02-9c19-0aa6a84afe19"},"vehicle_type_id":"4","last_reported":1680210386,"current_range_meters":9600,"station_id":"ce4bhm12rcd13ifvqgkg","pricing_plan_id":"free"},{"bike_id":"7525f345-7b2b-4662-af98-cc5bb4774445","system_id":"levelo_inurba_marseille","lat":43.24693,"lon":5.382096,"is_reserved":false,"is_disabled":false,"rental_uris":{"android":"levelo://app?vid=7525f345-7b2b-4662-af98-cc5bb4774445","ios":"levelo://app?vid=7525f345-7b2b-4662-af98-cc5bb4774445"},"vehicle_type_id":"4","last_reported":1680210386,"current_range_meters":22000,"station_id":"ce4bhih2rcd13ifvqfr0","pricing_plan_id":"free"},{"bike_id":"08a3ce3b-b476-4c76-81d8-82423eb20a9d","system_id":"levelo_inurba_marseille","lat":43.24693,"lon":5.382096,"is_reserved":false,"is_disabled":false,"rental_uris":{"android":"levelo://app?vid=08a3ce3b-b476-4c76-81d8-82423eb20a9d","ios":"levelo://app?vid=08a3ce3b-b476-4c76-81d8-82423eb20a9d"},"vehicle_type_id":"4","last_reported":1680210386,"current_range_meters":31600,"station_id":"ce4bhih2rcd13ifvqfr0","pricing_plan_id":"free"},{"bike_id":"1497e66b-7323-4c33-a88c-295a380384d3","system_id":"levelo_inurba_marseille","lat":43.246461,"lon":5.389014,"is_reserved":false,"is_disabled":false,"rental_uris":{"android":"levelo://app?vid=1497e66b-7323-4c33-a88c-295a380384d3","ios":"levelo://app?vid=1497e66b-7323-4c33-a88c-295a380384d3"},"vehicle_type_id":"4","last_reported":1680210386,"current_range_meters":27200,"station_id":"ce4bhg12rcd13ifvqf60","pricing_plan_id":"free"},{"bike_id":"cd7d66c1-3cd2-4ee8-a665-beb69fee065c","system_id":"levelo_inurba_marseille","lat":43.246467,"lon":5.388984,"is_reserved":false,"is_disabled":false,"rental_uris":{"android":"levelo://app?vid=cd7d66c1-3cd2-4ee8-a665-beb69fee065c","ios":"levelo://app?vid=cd7d66c1-3cd2-4ee8-a665-beb69fee065c"},"vehicle_type_id":"4","last_reported":1680210386,"current_range_meters":31200,"station_id":"ce4bhg12rcd13ifvqf60","pricing_plan_id":"free"},{"bike_id":"9aae4b09-2f02-4c75-aac9-e296b1e8bb6c","system_id":"levelo_inurba_marseille","lat":43.246467,"lon":5.388984,"is_reserved":false,"is_disabled":false,"rental_uris":{"android":"levelo://app?vid=9aae4b09-2f02-4c75-aac9-e296b1e8bb6c","ios":"levelo://app?vid=9aae4b09-2f02-4c75-aac9-e296b1e8bb6c"},"vehicle_type_id":"4","last_reported":1680210386,"current_range_meters":7600,"station_id":"ce4bhg12rcd13ifvqf60","pricing_plan_id":"free"},{"bike_id":"e589ed64-3d5d-4f36-a5c0-6745ba9feb11","system_id":"levelo_inurba_marseille","lat":43.243884,"lon":5.370736,"is_reserved":false,"is_disabled":false,"rental_uris":{"android":"levelo://app?vid=e589ed64-3d5d-4f36-a5c0-6745ba9feb11","ios":"levelo://app?vid=e589ed64-3d5d-4f36-a5c0-6745ba9feb11"},"vehicle_type_id":"4","last_reported":1680210386,"current_range_meters":29600,"station_id":"ce4bhhh2rcd13ifvqfk0","pricing_plan_id":"free"},{"bike_id":"bb676628-076b-4dd3-93b1-6a9e3a1b1b27","system_id":"levelo_inurba_marseille","lat":43.245581,"lon":5.395069,"is_reserved":false,"is_disabled":false,"rental_uris":{"android":"levelo://app?vid=bb676628-076b-4dd3-93b1-6a9e3a1b1b27","ios":"levelo://app?vid=bb676628-076b-4dd3-93b1-6a9e3a1b1b27"},"vehicle_type_id":"4","last_reported":1680210386,"current_range_meters":17200,"station_id":"ce4bhlp2rcd13ifvqgjg","pricing_plan_id":"free"},{"bike_id":"efe6e80a-dc25-4525-8da5-9a6e423f535b","system_id":"levelo_inurba_marseille","lat":43.240623,"lon":5.377642,"is_reserved":false,"is_disabled":false,"rental_uris":{"android":"levelo://app?vid=efe6e80a-dc25-4525-8da5-9a6e423f535b","ios":"levelo://app?vid=efe6e80a-dc25-4525-8da5-9a6e423f535b"},"vehicle_type_id":"4","last_reported":1680210386,"current_range_meters":31200,"station_id":"ce4bhnp2rcd13ifvqgvg","pricing_plan_id":"free"},{"bike_id":"550f582b-494c-48d1-8eca-cb155a37f67c","system_id":"levelo_inurba_marseille","lat":43.240623,"lon":5.377642,"is_reserved":false,"is_disabled":false,"rental_uris":{"android":"levelo://app?vid=550f582b-494c-48d1-8eca-cb155a37f67c","ios":"levelo://app?vid=550f582b-494c-48d1-8eca-cb155a37f67c"},"vehicle_type_id":"4","last_reported":1680210386,"current_range_meters":16400,"station_id":"ce4bhnp2rcd13ifvqgvg","pricing_plan_id":"free"},{"bike_id":"0c24c4ce-20e1-41e4-b637-f753c25f0c0c","system_id":"levelo_inurba_marseille","lat":43.239588,"lon":5.366238,"is_reserved":false,"is_disabled":false,"rental_uris":{"android":"levelo://app?vid=0c24c4ce-20e1-41e4-b637-f753c25f0c0c","ios":"levelo://app?vid=0c24c4ce-20e1-41e4-b637-f753c25f0c0c"},"vehicle_type_id":"4","last_reported":1680210386,"current_range_meters":31200,"station_id":"ce4bhi12rcd13ifvqfp0","pricing_plan_id":"free"},{"bike_id":"aaeda10d-6058-456d-aaef-e9782220fe84","system_id":"levelo_inurba_marseille","lat":43.239588,"lon":5.366238,"is_reserved":false,"is_disabled":false,"rental_uris":{"android":"levelo://app?vid=aaeda10d-6058-456d-aaef-e9782220fe84","ios":"levelo://app?vid=aaeda10d-6058-456d-aaef-e9782220fe84"},"vehicle_type_id":"4","last_reported":1680210386,"current_range_meters":31200,"station_id":"ce4bhi12rcd13ifvqfp0","pricing_plan_id":"free"},{"bike_id":"a7ed803d-11e6-4853-b959-c018fc675501","system_id":"levelo_inurba_marseille","lat":43.239588,"lon":5.366238,"is_reserved":false,"is_disabled":false,"rental_uris":{"android":"levelo://app?vid=a7ed803d-11e6-4853-b959-c018fc675501","ios":"levelo://app?vid=a7ed803d-11e6-4853-b959-c018fc675501"},"vehicle_type_id":"4","last_reported":1680210386,"current_range_meters":31200,"station_id":"ce4bhi12rcd13ifvqfp0","pricing_plan_id":"free"},{"bike_id":"2553e504-d446-41c6-b318-5052bc8255c8","system_id":"levelo_inurba_marseille","lat":43.28498,"lon":5.45993,"is_reserved":false,"is_disabled":false,"rental_uris":{"android":"levelo://app?vid=2553e504-d446-41c6-b318-5052bc8255c8","ios":"levelo://app?vid=2553e504-d446-41c6-b318-5052bc8255c8"},"vehicle_type_id":"4","last_reported":1680210386,"current_range_meters":18400,"station_id":"","pricing_plan_id":"free"},{"bike_id":"31fdef81-b8e3-4166-830a-6658cff1cd1c","system_id":"levelo_inurba_marseille","lat":43.239588,"lon":5.366238,"is_reserved":false,"is_disabled":false,"rental_uris":{"android":"levelo://app?vid=31fdef81-b8e3-4166-830a-6658cff1cd1c","ios":"levelo://app?vid=31fdef81-b8e3-4166-830a-6658cff1cd1c"},"vehicle_type_id":"4","last_reported":1680210386,"current_range_meters":31200,"station_id":"ce4bhi12rcd13ifvqfp0","pricing_plan_id":"free"},{"bike_id":"c00bcb7e-9cb3-4370-9d1f-0ca705767621","system_id":"levelo_inurba_marseille","lat":43.241782,"lon":5.397264,"is_reserved":false,"is_disabled":false,"rental_uris":{"android":"levelo://app?vid=c00bcb7e-9cb3-4370-9d1f-0ca705767621","ios":"levelo://app?vid=c00bcb7e-9cb3-4370-9d1f-0ca705767621"},"vehicle_type_id":"4","last_reported":1680210386,"current_range_meters":0,"station_id":"ce4bhn12rcd13ifvqgpg","pricing_plan_id":"free"},{"bike_id":"cbe633fd-959f-41b1-b446-01799316d3ee","system_id":"levelo_inurba_marseille","lat":43.241782,"lon":5.397264,"is_reserved":false,"is_disabled":false,"rental_uris":{"android":"levelo://app?vid=cbe633fd-959f-41b1-b446-01799316d3ee","ios":"levelo://app?vid=cbe633fd-959f-41b1-b446-01799316d3ee"},"vehicle_type_id":"4","last_reported":1680210386,"current_range_meters":31200,"station_id":"ce4bhn12rcd13ifvqgpg","pricing_plan_id":"free"}]}}