{"last_updated":1700600809,"ttl":30,"version":"2.2","data":{"bikes":[{"bike_id":"eeef4dbc-7602-4f26-b2c1-c3771c9b5dae","system_id":"levelo_inurba_marseille","lat":43.3115,"lon":5.36889,"is_reserved":false,"is_disabled":false,"rental_uris":{"android":"levelo://app?vid=eeef4dbc-7602-4f26-b2c1-c3771c9b5dae","ios":"levelo://app?vid=eeef4dbc-7602-4f26-b2c1-c3771c9b5dae"},"vehicle_type_id":"4","last_reported":1700600810,"current_range_meters":0,"station_id":"","pricing_plan_id":"free"},{"bike_id":"12cf7965-fd0a-4d4e-87c8-33ff09aab0bf","system_id":"levelo_inurba_marseille","lat":43.309039,"lon":5.371797,"is_reserved":false,"is_disabled":false,"rental_uris":{"android":"levelo://app?vid=12cf7965-fd0a-4d4e-87c8-33ff09aab0bf","ios":"levelo://app?vid=12cf7965-fd0a-4d4e-87c8-33ff09aab0bf"},"vehicle_type_id":"4","last_reported":1700600810,"current_range_meters":26400,"station_id":"ce4bguh2rcd13ifvqckg","pricing_plan_id":"free"},{"bike_id":"19f43f17-b8ad-43de-a6cd-d499c2e08192","system_id":"levelo_inurba_marseille","lat":43.309039,"lon":5.371797,"is_reserved":false,"is_disabled":false,"rental_uris":{"android":"levelo://app?vid=19f43f17-b8ad-43de-a6cd-d499c2e08192","ios":"levelo://app?vid=19f43f17-b8ad-43de-a6cd-d499c2e08192"},"vehicle_type_id":"4","last_reported":1700600810,"current_range_meters":25200,"station_id":"ce4bguh2rcd13ifvqckg","pricing_plan_id":"free"},{"bike_id":"2bc311dc-da0b-403e-8cae-84f8764bc67c","system_id":"levelo_inurba_marseille","lat":43.30679,"lon":5.3679,"is_reserved":false,"is_disabled":false,"rental_uris":{"android":"levelo://app?vid=2bc311dc-da0b-403e-8cae-84f8764bc67c","ios":"levelo://app?vid=2bc311dc-da0b-403e-8cae-84f8764bc67c"},"vehicle_type_id":"4","last_reported":1700600810,"current_range_meters":2000,"station_id":"","pricing_plan_id":"free"},{"bike_id":"790d8068-0ca3-4ee2-ac94-5b1995eb78d3","system_id":"levelo_inurba_marseille","lat":43.319625,"lon":5.370642,"is_reserved":false,"is_disabled":false,"rental_uris":{"android":"levelo://app?vid=790d8068-0ca3-4ee2-ac94-5b1995eb78d3","ios":"levelo://app?vid=790d8068-0ca3-4ee2-ac94-5b1995eb78d3"},"vehicle_type_id":"4","last_reported":1700600810,"current_range_meters":0,"station_id":"","pricing_plan_id":"free"},{"bike_id":"06284047-1e80-4933-bc3c-a8606f20a4a9","system_id":"levelo_inurba_marseille","lat":43.308154,"lon":5.376529,"is_reserved":false,"is_disabled":false,"rental_uris":{"android":"levelo://app?vid=06284047-1e80-4933-bc3c-a8606f20a4a9","ios":"levelo://app?vid=06284047-1e80-4933-bc3c-a8606f20a4a9"},"vehicle_type_id":"4","last_reported":1700600810,"current_range_meters":18800,"station_id":"ce4bgv92rcd13ifvqcq0","pricing_plan_id":"free"},{"bike_id":"9a4e3653-8593-4a3a-a72d-0252508cc941","system_id":"levelo_inurba_marseille","lat":43.307945,"lon":5.376487,"is_reserved":false,"is_disabled":false,"rental_uris":{"android":"levelo://app?vid=9a4e3653-8593-4a3a-a72d-0252508cc941","ios":"levelo://app?vid=9a4e3653-8593-4a3a-a72d-0252508cc941"},"vehicle_type_id":"4","last_reported":1700600810,"current_range_meters":24800,"station_id":"ce4bgv92rcd13ifvqcq0","pricing_plan_id":"free"},{"bike_id":"07b3c161-e357-43af-bcf7-eee5965b408d","system_id":"levelo_inurba_marseille","lat":43.307945,"lon":5.376487,"is_reserved":false,"is_disabled":false,"rental_uris":{"android":"levelo://app?vid=07b3c161-e357-43af-bcf7-eee5965b408d","ios":"levelo://app?vid=07b3c161-e357-43af-bcf7-eee5965b408d"},"vehicle_type_id":"4","last_reported":1700600810,"current_range_meters":16000,"station_id":"ce4bgv92rcd13ifvqcq0","pricing_plan_id":"free"},{"bike_id":"062b335d-abb8-4a60-8451-39007cb58897","system_id":"levelo_inurba_marseille","lat":43.307945,"lon":5.376487,"is_reserved":false,"is_disabled":false,"rental_uris":{"android":"levelo://app?vid=062b335d-abb8-4a60-8451-39007cb58897","ios":"levelo://app?vid=062b335d-abb8-4a60-8451-39007cb58897"},"vehicle_type_id":"4","last_reported":1700600810,"current_range_meters":9200,"station_id":"ce4bgv92rcd13ifvqcq0","pricing_plan_id":"free"},{"bike_id":"b62ed121-09bb-454b-bee1-949b206251dd","system_id":"levelo_inurba_marseille","lat":43.301939,"lon":5.366286,"is_reserved":false,"is_disabled":false,"rental_uris":{"android":"levelo://app?vid=b62ed121-09bb-454b-bee1-949b206251dd","ios":"levelo://app?vid=b62ed121-09bb-454b-bee1-949b206251dd"},"vehicle_type_id":"4","last_reported":1700600810,"current_range_meters":13600,"station_id":"ce4bgrh2rcd13ifvqc8g","pricing_plan_id":"free"},{"bike_id":"0327687b-f51e-4077-bf49-2ec73a6de092","system_id":"levelo_inurba_marseille","lat":43.32233,"lon":5.375605,"is_reserved":false,"is_disabled":false,"rental_uris":{"android":"levelo://app?vid=0327687b-f51e-4077-bf49-2ec73a6de092","ios":"levelo://app?vid=0327687b-f51e-4077-bf49-2ec73a6de092"},"vehicle_type_id":"4","last_reported":1700600810,"current_range_meters":19200,"station_id":"","pricing_plan_id":"free"},{"bike_id":"0a5559e1-179d-4d75-8b73-c68130e7f5b9","system_id":"levelo_inurba_marseille","lat":43.308012,"lon":5.381511,"is_reserved":false,"is_disabled":false,"rental_uris":{"android":"levelo://app?vid=0a5559e1-179d-4d75-8b73-c68130e7f5b9","ios":"levelo://app?vid=0a5559e1-179d-4d75-8b73-c68130e7f5b9"},"vehicle_type_id":"4","last_reported":1700600810,"current_range_meters":0,"station_id":"ce4bgt12rcd13ifvqce0","pricing_plan_id":"free"},{"bike_id":"9228ac2c-515c-4b28-9e78-7d51b484165d","system_id":"levelo_inurba_marseille","lat":43.308012,"lon":5.381511,"is_reserved":false,"is_disabled":false,"rental_uris":{"android":"levelo://app?vid=9228ac2c-515c-4b28-9e78-7d51b484165d","ios":"levelo://app?vid=9228ac2c-515c-4b28-9e78-7d51b484165d"},"vehicle_type_id":"4","last_reported":1700600810,"current_range_meters":17600,"station_id":"ce4bgt12rcd13ifvqce0","pricing_plan_id":"free"},{"bike_id":"7660e7b5-32ab-41d0-9792-2b583e317e2e","system_id":"levelo_inurba_marseille","lat":43.304606,"lon":5.379026,"is_reserved":false,"is_disabled":false,"rental_uris":{"android":"levelo://app?vid=7660e7b5-32ab-41d0-9792-2b583e317e2e","ios":"levelo://app?vid=7660e7b5-32ab-41d0-9792-2b583e317e2e"},"vehicle_type_id":"4","last_reported":1700600810,"current_range_meters":25200,"station_id":"ce4bgup2rcd13ifvqcn0","pricing_plan_id":"free"},{"bike_id":"afa921fc-ca50-4532-aeb1-1de14ee2fe50","system_id":"levelo_inurba_marseille","lat":43.32476,"lon":5.3656,"is_reserved":false,"is_disabled":false,"rental_uris":{"android":"levelo://app?vid=afa921fc-ca50-4532-aeb1-1de14ee2fe50","ios":"levelo://app?vid=afa921fc-ca50-4532-aeb1-1de14ee2fe50"},"vehicle_type_id":"4","last_reported":1700600810,"current_range_meters":24800,"station_id":"ce4bhs12rcd13ifvqhvg","pricing_plan_id":"free"},{"bike_id":"a037806c-504f-410e-8380-5102d23eea79","system_id":"levelo_inurba_marseille","lat":43.324771,"lon":5.36557,"is_reserved":false,"is_disabled":false,"rental_uris":{"android":"levelo://app?vid=a037806c-504f-410e-8380-5102d23eea79","ios":"levelo://app?vid=a037806c-504f-410e-8380-5102d23eea79"},"vehicle_type_id":"4","last_reported":1700600810,"current_range_meters":29600,"station_id":"ce4bhs12rcd13ifvqhvg","pricing_plan_id":"free"},{"bike_id":"510d0105-b866-48bb-8bdb-59b0079c0d7a","system_id":"levelo_inurba_marseille","lat":43.319935,"lon":5.381699,"is_reserved":false,"is_disabled":false,"rental_uris":{"android":"levelo://app?vid=510d0105-b866-48bb-8bdb-59b0079c0d7a","ios":"levelo://app?vid=510d0105-b866-48bb-8bdb-59b0079c0d7a"},"vehicle_type_id":"4","last_reported":1700600810,"current_range_meters":25600,"station_id":"ce4bhr12rcd13ifvqhpg","pricing_plan_id":"free"},{"bike_id":"4b4fe3d7-722a-45a1-81fc-9a019167f268","system_id":"levelo_inurba_marseille","lat":43.31998,"lon":5.38157,"is_reserved":false,"is_disabled":false,"rental_uris":{"android":"levelo://app?vid=4b4fe3d7-722a-45a1-81fc-9a019167f268","ios":"levelo://app?vid=4b4fe3d7-722a-45a1-81fc-9a019167f268"},"vehicle_type_id":"4","last_reported":1700600810,"current_range_meters":24800,"station_id":"ce4bhr12rcd13ifvqhpg","pricing_plan_id":"free"},{"bike_id":"b6bef19b-9ba8-4d51-8b70-c38bf53a3315","system_id":"levelo_inurba_marseille","lat":43.31999,"lon":5.38157,"is_reserved":false,"is_disabled":false,"rental_uris":{"android":"levelo://app?vid=b6bef19b-9ba8-4d51-8b70-c38bf53a3315","ios":"levelo://app?vid=b6bef19b-9ba8-4d51-8b70-c38bf53a3315"},"vehicle_type_id":"4","last_reported":1700600810,"current_range_meters":10400,"station_id":"ce4bhr12rcd13ifvqhpg","pricing_plan_id":"free"},{"bike_id":"b4e7e8a5-429b-4fa9-b969-621639380068","system_id":"levelo_inurba_marseille","lat":43.313571,"lon":5.384829,"is_reserved":false,"is_disabled":false,"rental_uris":{"android":"levelo://app?vid=b4e7e8a5-429b-4fa9-b969-621639380068","ios":"levelo://app?vid=b4e7e8a5-429b-4fa9-b969-621639380068"},"vehicle_type_id":"4","last_reported":1700600810,"current_range_meters":1600,"station_id":"ce4bgt92rcd13ifvqcf0","pricing_plan_id":"free"},{"bike_id":"60b2ded0-d1a7-45db-9839-4414089d9055","system_id":"levelo_inurba_marseille","lat":43.313571,"lon":5.384829,"is_reserved":false,"is_disabled":false,"rental_uris":{"android":"levelo://app?vid=60b2ded0-d1a7-45db-9839-4414089d9055","ios":"levelo://app?vid=60b2ded0-d1a7-45db-9839-4414089d9055"},"vehicle_type_id":"4","last_reported":1700600810,"current_range_meters":24800,"station_id":"ce4bgt92rcd13ifvqcf0","pricing_plan_id":"free"},{"bike_id":"d44db64d-89f3-4e22-bc23-cdbd9c34a2b1","system_id":"levelo_inurba_marseille","lat":43.313571,"lon":5.384829,"is_reserved":false,"is_disabled":false,"rental_uris":{"android":"levelo://app?vid=d44db64d-89f3-4e22-bc23-cdbd9c34a2b1","ios":"levelo://app?vid=d44db64d-89f3-4e22-bc23-cdbd9c34a2b1"},"vehicle_type_id":"4","last_reported":1700600810,"current_range_meters":10000,"station_id":"ce4bgt92rcd13ifvqcf0","pricing_plan_id":"free"},{"bike_id":"75dbf869-f2eb-4cfe-aa7b-56dd6192ae47","system_id":"levelo_inurba_marseille","lat":43.299222,"lon":5.365554,"is_reserved":false,"is_disabled":false,"rental_uris":{"android":"levelo://app?vid=75dbf869-f2eb-4cfe-aa7b-56dd6192ae47","ios":"levelo://app?vid=75dbf869-f2eb-4cfe-aa7b-56dd6192ae47"},"vehicle_type_id":"4","last_reported":1700600810,"current_range_meters":0,"station_id":"ce4bgm92rcd13ifvqbr0","pricing_plan_id":"free"},{"bike_id":"b8aed77e-f226-41bb-b17c-07cbc117775e","system_id":"levelo_inurba_marseille","lat":43.29975,"lon":5.3718,"is_reserved":false,"is_disabled":false,"rental_uris":{"android":"levelo://app?vid=b8aed77e-f226-41bb-b17c-07cbc117775e","ios":"levelo://app?vid=b8aed77e-f226-41bb-b17c-07cbc117775e"},"vehicle_type_id":"4","last_reported":1700600810,"current_range_meters":20400,"station_id":"ce4bgr92rcd13ifvqc7g","pricing_plan_id":"free"},{"bike_id":"bf9a8755-33b5-41a0-b17d-7dd82d2f9f28","system_id":"levelo_inurba_marseille","lat":43.305364,"lon":5.384119,"is_reserved":false,"is_disabled":false,"rental_uris":{"android":"levelo://app?vid=bf9a8755-33b5-41a0-b17d-7dd82d2f9f28","ios":"levelo://app?vid=bf9a8755-33b5-41a0-b17d-7dd82d2f9f28"},"vehicle_type_id":"4","last_reported":1700600810,"current_range_meters":8400,"station_id":"ce4bgg92rcd13ifvqb30","pricing_plan_id":"free"},{"bike_id":"69301722-0346-4dea-93f8-0a56de63fd3a","system_id":"levelo_inurba_marseille","lat":43.305364,"lon":5.384119,"is_reserved":false,"is_disabled":false,"rental_uris":{"android":"levelo://app?vid=69301722-0346-4dea-93f8-0a56de63fd3a","ios":"levelo://app?vid=69301722-0346-4dea-93f8-0a56de63fd3a"},"vehicle_type_id":"4","last_reported":1700600810,"current_range_meters":12000,"station_id":"ce4bgg92rcd13ifvqb30","pricing_plan_id":"free"},{"bike_id":"c4d62be2-2c9f-411d-9f2f-5f836e1834e3","system_id":"levelo_inurba_marseille","lat":43.298433,"lon":5.362774,"is_reserved":false,"is_disabled":false,"rental_uris":{"android":"levelo://app?vid=c4d62be2-2c9f-411d-9f2f-5f836e1834e3","ios":"levelo://app?vid=c4d62be2-2c9f-411d-9f2f-5f836e1834e3"},"vehicle_type_id":"4","last_reported":1700600810,"current_range_meters":10000,"station_id":"ce4bgpp2rcd13ifvqc3g","pricing_plan_id":"free"},{"bike_id":"71b2aab1-81c2-4370-a0ce-f83b4b3193a1","system_id":"levelo_inurba_marseille","lat":43.31173,"lon":5.38706,"is_reserved":false,"is_disabled":false,"rental_uris":{"android":"levelo://app?vid=71b2aab1-81c2-4370-a0ce-f83b4b3193a1","ios":"levelo://app?vid=71b2aab1-81c2-4370-a0ce-f83b4b3193a1"},"vehicle_type_id":"4","last_reported":1700600810,"current_range_meters":11600,"station_id":"ce4bgv12rcd13ifvqcp0","pricing_plan_id":"free"},{"bike_id":"572a0db2-7ee4-49e3-bc13-bd5516e5135f","system_id":"levelo_inurba_marseille","lat":43.31173,"lon":5.38712,"is_reserved":false,"is_disabled":false,"rental_uris":{"android":"levelo://app?vid=572a0db2-7ee4-49e3-bc13-bd5516e5135f","ios":"levelo://app?vid=572a0db2-7ee4-49e3-bc13-bd5516e5135f"},"vehicle_type_id":"4","last_reported":1700600810,"current_range_meters":25200,"station_id":"ce4bgv12rcd13ifvqcp0","pricing_plan_id":"free"},{"bike_id":"7764c78b-ba47-45a6-adfc-da73a9e540b9","system_id":"levelo_inurba_marseille","lat":43.299243,"lon":5.37481,"is_reserved":false,"is_disabled":false,"rental_uris":{"android":"levelo://app?vid=7764c78b-ba47-45a6-adfc-da73a9e540b9","ios":"levelo://app?vid=7764c78b-ba47-45a6-adfc-da73a9e540b9"},"vehicle_type_id":"4","last_reported":1700600810,"current_range_meters":10000,"station_id":"ce4bgjh2rcd13ifvqbg0","pricing_plan_id":"free"},{"bike_id":"fba27455-dee1-4b26-877d-b9bd46efd025","system_id":"levelo_inurba_marseille","lat":43.311722,"lon":5.387247,"is_reserved":false,"is_disabled":false,"rental_uris":{"android":"levelo://app?vid=fba27455-dee1-4b26-877d-b9bd46efd025","ios":"levelo://app?vid=fba27455-dee1-4b26-877d-b9bd46efd025"},"vehicle_type_id":"4","last_reported":1700600810,"current_range_meters":12800,"station_id":"ce4bgv12rcd13ifvqcp0","pricing_plan_id":"free"},{"bike_id":"fa9d0a30-5ff5-4db8-88cb-95e64695ccc9","system_id":"levelo_inurba_marseille","lat":43.311722,"lon":5.387247,"is_reserved":false,"is_disabled":false,"rental_uris":{"android":"levelo://app?vid=fa9d0a30-5ff5-4db8-88cb-95e64695ccc9","ios":"levelo://app?vid=fa9d0a30-5ff5-4db8-88cb-95e64695ccc9"},"vehicle_type_id":"4","last_reported":1700600810,"current_range_meters":10400,"station_id":"ce4bgv12rcd13ifvqcp0","pricing_plan_id":"free"},{"bike_id":"242afdec-8816-4b02-9c0d-86bb22557330","system_id":"levelo_inurba_marseille","lat":43.311722,"lon":5.387247,"is_reserved":false,"is_disabled":false,"rental_uris":{"android":"levelo://app?vid=242afdec-8816-4b02-9c0d-86bb22557330","ios":"levelo://app?vid=242afdec-8816-4b02-9c0d-86bb22557330"},"vehicle_type_id":"4","last_reported":1700600810,"current_range_meters":2400,"station_id":"ce4bgv12rcd13ifvqcp0","pricing_plan_id":"free"},{"bike_id":"cf703e84-bf3d-4cf9-87a9-c8eb1c8ba608","system_id":"levelo_inurba_marseille","lat":43.297794,"lon":5.370888,"is_reserved":false,"is_disabled":false,"rental_uris":{"android":"levelo://app?vid=cf703e84-bf3d-4cf9-87a9-c8eb1c8ba608","ios":"levelo://app?vid=cf703e84-bf3d-4cf9-87a9-c8eb1c8ba608"},"vehicle_type_id":"4","last_reported":1700600810,"current_range_meters":13600,"station_id":"ce4bgop2rcd13ifvqc1g","pricing_plan_id":"free"},{"bike_id":"02e5d19a-9e76-457a-89b5-da160f5a5ac3","system_id":"levelo_inurba_marseille","lat":43.322872,"lon":5.382756,"is_reserved":false,"is_disabled":false,"rental_uris":{"android":"levelo://app?vid=02e5d19a-9e76-457a-89b5-da160f5a5ac3","ios":"levelo://app?vid=02e5d19a-9e76-457a-89b5-da160f5a5ac3"},"vehicle_type_id":"4","last_reported":1700600810,"current_range_meters":1200,"station_id":"ce4bhr12rcd13ifvqhqg","pricing_plan_id":"free"},{"bike_id":"24256210-dd9b-4e06-8284-ac9b4520be6f","system_id":"levelo_inurba_marseille","lat":43.328262,"lon":5.366846,"is_reserved":false,"is_disabled":false,"rental_uris":{"android":"levelo://app?vid=24256210-dd9b-4e06-8284-ac9b4520be6f","ios":"levelo://app?vid=24256210-dd9b-4e06-8284-ac9b4520be6f"},"vehicle_type_id":"4","last_reported":1700600810,"current_range_meters":0,"station_id":"ce4bhs92rcd13ifvqi0g","pricing_plan_id":"free"},{"bike_id":"dc5dbe73-6809-4d47-aa3a-e345949df22e","system_id":"levelo_inurba_marseille","lat":43.297163,"lon":5.365866,"is_reserved":false,"is_disabled":false,"rental_uris":{"android":"levelo://app?vid=dc5dbe73-6809-4d47-aa3a-e345949df22e","ios":"levelo://app?vid=dc5dbe73-6809-4d47-aa3a-e345949df22e"},"vehicle_type_id":"4","last_reported":1700600810,"current_range_meters":26800,"station_id":"ce4bgn12rcd13ifvqbt0","pricing_plan_id":"free"},{"bike_id":"dda427cb-e457-40de-b726-af9234973f62","system_id":"levelo_inurba_marseille","lat":43.29711,"lon":5.36609,"is_reserved":false,"is_disabled":false,"rental_uris":{"android":"levelo://app?vid=dda427cb-e457-40de-b726-af9234973f62","ios":"levelo://app?vid=dda427cb-e457-40de-b726-af9234973f62"},"vehicle_type_id":"4","last_reported":1700600810,"current_range_meters":14000,"station_id":"ce4bgn12rcd13ifvqbt0","pricing_plan_id":"free"},{"bike_id":"6ffdded5-6a25-42d3-93fb-f2d97af67cab","system_id":"levelo_inurba_marseille","lat":43.2968,"lon":5.37291,"is_reserved":false,"is_disabled":false,"rental_uris":{"android":"levelo://app?vid=6ffdded5-6a25-42d3-93fb-f2d97af67cab","ios":"levelo://app?vid=6ffdded5-6a25-42d3-93fb-f2d97af67cab"},"vehicle_type_id":"4","last_reported":1700600810,"current_range_meters":20000,"station_id":"ce4bgk12rcd13ifvqbj0","pricing_plan_id":"free"},{"bike_id":"9fb402a7-7a41-4473-81d2-1fec663a6035","system_id":"levelo_inurba_marseille","lat":43.305587,"lon":5.388698,"is_reserved":false,"is_disabled":false,"rental_uris":{"android":"levelo://app?vid=9fb402a7-7a41-4473-81d2-1fec663a6035","ios":"levelo://app?vid=9fb402a7-7a41-4473-81d2-1fec663a6035"},"vehicle_type_id":"4","last_reported":1700600810,"current_range_meters":28400,"station_id":"","pricing_plan_id":"free"},{"bike_id":"f5687d22-4f10-4dd8-8227-485b35abf619","system_id":"levelo_inurba_marseille","lat":43.317557,"lon":5.390173,"is_reserved":false,"is_disabled":false,"rental_uris":{"android":"levelo://app?vid=f5687d22-4f10-4dd8-8227-485b35abf619","ios":"levelo://app?vid=f5687d22-4f10-4dd8-8227-485b35abf619"},"vehicle_type_id":"4","last_reported":1700600810,"current_range_meters":23600,"station_id":"ce4bhqp2rcd13ifvqhng","pricing_plan_id":"free"},{"bike_id":"79dacdf6-a1f2-4eb4-8209-f5e43bda8af7","system_id":"levelo_inurba_marseille","lat":43.317557,"lon":5.390173,"is_reserved":false,"is_disabled":false,"rental_uris":{"android":"levelo://app?vid=79dacdf6-a1f2-4eb4-8209-f5e43bda8af7","ios":"levelo://app?vid=79dacdf6-a1f2-4eb4-8209-f5e43bda8af7"},"vehicle_type_id":"4","last_reported":1700600810,"current_range_meters":24000,"station_id":"ce4bhqp2rcd13ifvqhng","pricing_plan_id":"free"},{"bike_id":"10cd2a91-5eca-466d-b46b-7091adbbf554","system_id":"levelo_inurba_marseille","lat":43.304274,"lon":5.388873,"is_reserved":false,"is_disabled":false,"rental_uris":{"android":"levelo://app?vid=10cd2a91-5eca-466d-b46b-7091adbbf554","ios":"levelo://app?vid=10cd2a91-5eca-466d-b46b-7091adbbf554"},"vehicle_type_id":"4","last_reported":1700600810,"current_range_meters":22000,"station_id":"ce4bgk12rcd13ifvqbi0","pricing_plan_id":"free"},{"bike_id":"53708ff1-1e30-4a05-9bb9-f9c63d91fb67","system_id":"levelo_inurba_marseille","lat":43.29785,"lon":5.38111,"is_reserved":false,"is_disabled":false,"rental_uris":{"android":"levelo://app?vid=53708ff1-1e30-4a05-9bb9-f9c63d91fb67","ios":"levelo://app?vid=53708ff1-1e30-4a05-9bb9-f9c63d91fb67"},"vehicle_type_id":"4","last_reported":1700600810,"current_range_meters":0,"station_id":"ce4bgip2rcd13ifvqbb0","pricing_plan_id":"free"},{"bike_id":"3059d4c1-3d42-4321-a339-0fea9a03ef82","system_id":"levelo_inurba_marseille","lat":43.328154,"lon":5.380034,"is_reserved":false,"is_disabled":false,"rental_uris":{"android":"levelo://app?vid=3059d4c1-3d42-4321-a339-0fea9a03ef82","ios":"levelo://app?vid=3059d4c1-3d42-4321-a339-0fea9a03ef82"},"vehicle_type_id":"4","last_reported":1700600810,"current_range_meters":0,"station_id":"","pricing_plan_id":"free"},{"bike_id":"740734f0-9713-4b8a-8810-5364172e83f2","system_id":"levelo_inurba_marseille","lat":43.297547,"lon":5.381007,"is_reserved":false,"is_disabled":false,"rental_uris":{"android":"levelo://app?vid=740734f0-9713-4b8a-8810-5364172e83f2","ios":"levelo://app?vid=740734f0-9713-4b8a-8810-5364172e83f2"},"vehicle_type_id":"4","last_reported":1700600810,"current_range_meters":0,"station_id":"","pricing_plan_id":"free"},{"bike_id":"764ee586-ca08-47b4-8088-a0f165eb83ff","system_id":"levelo_inurba_marseille","lat":43.299707,"lon":5.384859,"is_reserved":false,"is_disabled":false,"rental_uris":{"android":"levelo://app?vid=764ee586-ca08-47b4-8088-a0f165eb83ff","ios":"levelo://app?vid=764ee586-ca08-47b4-8088-a0f165eb83ff"},"vehicle_type_id":"4","last_reported":1700600810,"current_range_meters":800,"station_id":"ce4bgj92rcd13ifvqbd0","pricing_plan_id":"free"},{"bike_id":"659d9b95-fe0a-431d-9d28-ce3b74f5b738","system_id":"levelo_inurba_marseille","lat":43.299707,"lon":5.384859,"is_reserved":false,"is_disabled":false,"rental_uris":{"android":"levelo://app?vid=659d9b95-fe0a-431d-9d28-ce3b74f5b738","ios":"levelo://app?vid=659d9b95-fe0a-431d-9d28-ce3b74f5b738"},"vehicle_type_id":"4","last_reported":1700600810,"current_range_meters":0,"station_id":"ce4bgj92rcd13ifvqbd0","pricing_plan_id":"free"},{"bike_id":"6b621983-5e9e-42f7-990d-ad5a093820d2","system_id":"levelo_inurba_marseille","lat":43.293801,"lon":5.363066,"is_reserved":false,"is_disabled":false,"rental_uris":{"android":"levelo://app?vid=6b621983-5e9e-42f7-990d-ad5a093820d2","ios":"levelo://app?vid=6b621983-5e9e-42f7-990d-ad5a093820d2"},"vehicle_type_id":"4","last_reported":1700600810,"current_range_meters":14800,"station_id":"","pricing_plan_id":"free"},{"bike_id":"a8278f43-2fa1-44bf-950c-bb3486f33882","system_id":"levelo_inurba_marseille","lat":43.32369,"lon":5.38879,"is_reserved":false,"is_disabled":false,"rental_uris":{"android":"levelo://app?vid=a8278f43-2fa1-44bf-950c-bb3486f33882","ios":"levelo://app?vid=a8278f43-2fa1-44bf-950c-bb3486f33882"},"vehicle_type_id":"4","last_reported":1700600810,"current_range_meters":0,"station_id":"ce4bhqp2rcd13ifvqhog","pricing_plan_id":"free"},{"bike_id":"4e4fe3b3-1944-48b4-b9da-2069b851783e","system_id":"levelo_inurba_marseille","lat":43.32367,"lon":5.38881,"is_reserved":false,"is_disabled":false,"rental_uris":{"android":"levelo://app?vid=4e4fe3b3-1944-48b4-b9da-2069b851783e","ios":"levelo://app?vid=4e4fe3b3-1944-48b4-b9da-2069b851783e"},"vehicle_type_id":"4","last_reported":1700600810,"current_range_meters":14800,"station_id":"ce4bhqp2rcd13ifvqhog","pricing_plan_id":"free"},{"bike_id":"9848a84a-e002-4f14-90ee-18e4e6536af8","system_id":"levelo_inurba_marseille","lat":43.32366,"lon":5.38887,"is_reserved":false,"is_disabled":false,"rental_uris":{"android":"levelo://app?vid=9848a84a-e002-4f14-90ee-18e4e6536af8","ios":"levelo://app?vid=9848a84a-e002-4f14-90ee-18e4e6536af8"},"vehicle_type_id":"4","last_reported":1700600810,"current_range_meters":0,"station_id":"ce4bhqp2rcd13ifvqhog","pricing_plan_id":"free"},{"bike_id":"18d12119-6832-40e8-a839-85af965c5a22","system_id":"levelo_inurba_marseille","lat":43.32369,"lon":5.38885,"is_reserved":false,"is_disabled":false,"rental_uris":{"android":"levelo://app?vid=18d12119-6832-40e8-a839-85af965c5a22","ios":"levelo://app?vid=18d12119-6832-40e8-a839-85af965c5a22"},"vehicle_type_id":"4","last_reported":1700600810,"current_range_meters":0,"station_id":"ce4bhqp2rcd13ifvqhog","pricing_plan_id":"free"},{"bike_id":"85f7f2a8-eaa2-45ff-b755-107ef7f57e64","system_id":"levelo_inurba_marseille","lat":43.29602,"lon":5.381084,"is_reserved":false,"is_disabled":false,"rental_uris":{"android":"levelo://app?vid=85f7f2a8-eaa2-45ff-b755-107ef7f57e64","ios":"levelo://app?vid=85f7f2a8-eaa2-45ff-b755-107ef7f57e64"},"vehicle_type_id":"4","last_reported":1700600810,"current_range_meters":13200,"station_id":"ce4bgl12rcd13ifvqbo0","pricing_plan_id":"free"},{"bike_id":"3b3b69b4-94e5-4d21-922a-c9a8050b7bd4","system_id":"levelo_inurba_marseille","lat":43.29601,"lon":5.381084,"is_reserved":false,"is_disabled":false,"rental_uris":{"android":"levelo://app?vid=3b3b69b4-94e5-4d21-922a-c9a8050b7bd4","ios":"levelo://app?vid=3b3b69b4-94e5-4d21-922a-c9a8050b7bd4"},"vehicle_type_id":"4","last_reported":1700600810,"current_range_meters":28400,"station_id":"ce4bgl12rcd13ifvqbo0","pricing_plan_id":"free"},{"bike_id":"d08f04bf-d1cb-49fb-9aa7-04e7f7676b3c","system_id":"levelo_inurba_marseille","lat":43.32337,"lon":5.38974,"is_reserved":false,"is_disabled":false,"rental_uris":{"android":"levelo://app?vid=d08f04bf-d1cb-49fb-9aa7-04e7f7676b3c","ios":"levelo://app?vid=d08f04bf-d1cb-49fb-9aa7-04e7f7676b3c"},"vehicle_type_id":"4","last_reported":1700600810,"current_range_meters":0,"station_id":"","pricing_plan_id":"free"},{"bike_id":"a8f196d4-0996-4d9d-b674-75d3a7153abe","system_id":"levelo_inurba_marseille","lat":43.298764,"lon":5.388973,"is_reserved":false,"is_disabled":false,"rental_uris":{"android":"levelo://app?vid=a8f196d4-0996-4d9d-b674-75d3a7153abe","ios":"levelo://app?vid=a8f196d4-0996-4d9d-b674-75d3a7153abe"},"vehicle_type_id":"4","last_reported":1700600810,"current_range_meters":26400,"station_id":"ce4bh392rcd13ifvqdl0","pricing_plan_id":"free"},{"bike_id":"fbfed483-aabb-48b3-a2ba-6b821d7fe5c9","system_id":"levelo_inurba_marseille","lat":43.309038,"lon":5.396546,"is_reserved":false,"is_disabled":false,"rental_uris":{"android":"levelo://app?vid=fbfed483-aabb-48b3-a2ba-6b821d7fe5c9","ios":"levelo://app?vid=fbfed483-aabb-48b3-a2ba-6b821d7fe5c9"},"vehicle_type_id":"4","last_reported":1700600810,"current_range_meters":6000,"station_id":"ce4bh012rcd13ifvqcv0","pricing_plan_id":"free"},{"bike_id":"f92a19e5-0f90-44dc-a5c5-efc441e3ba16","system_id":"levelo_inurba_marseille","lat":43.309038,"lon":5.396546,"is_reserved":false,"is_disabled":false,"rental_uris":{"android":"levelo://app?vid=f92a19e5-0f90-44dc-a5c5-efc441e3ba16","ios":"levelo://app?vid=f92a19e5-0f90-44dc-a5c5-efc441e3ba16"},"vehicle_type_id":"4","last_reported":1700600810,"current_range_meters":21600,"station_id":"ce4bh012rcd13ifvqcv0","pricing_plan_id":"free"},{"bike_id":"6d84f195-20fd-4657-b77a-d13c1b7a9220","system_id":"levelo_inurba_marseille","lat":43.309047,"lon":5.396551,"is_reserved":false,"is_disabled":false,"rental_uris":{"android":"levelo://app?vid=6d84f195-20fd-4657-b77a-d13c1b7a9220","ios":"levelo://app?vid=6d84f195-20fd-4657-b77a-d13c1b7a9220"},"vehicle_type_id":"4","last_reported":1700600810,"current_range_meters":1600,"station_id":"ce4bh012rcd13ifvqcv0","pricing_plan_id":"free"},{"bike_id":"c97c518b-be57-4af7-849e-2bbc2e971522","system_id":"levelo_inurba_marseille","lat":43.31332,"lon":5.39699,"is_reserved":false,"is_disabled":false,"rental_uris":{"android":"levelo://app?vid=c97c518b-be57-4af7-849e-2bbc2e971522","ios":"levelo://app?vid=c97c518b-be57-4af7-849e-2bbc2e971522"},"vehicle_type_id":"4","last_reported":1700600810,"current_range_meters":0,"station_id":"ce4bgvp2rcd13ifvqcu0","pricing_plan_id":"free"},{"bike_id":"56938589-587c-46c8-b9ae-1bb243dd044e","system_id":"levelo_inurba_marseille","lat":43.309047,"lon":5.396551,"is_reserved":false,"is_disabled":false,"rental_uris":{"android":"levelo://app?vid=56938589-587c-46c8-b9ae-1bb243dd044e","ios":"levelo://app?vid=56938589-587c-46c8-b9ae-1bb243dd044e"},"vehicle_type_id":"4","last_reported":1700600810,"current_range_meters":11600,"station_id":"ce4bh012rcd13ifvqcv0","pricing_plan_id":"free"},{"bike_id":"eca9d464-6432-40fc-a29a-36bcf5ef2c45","system_id":"levelo_inurba_marseille","lat":43.309038,"lon":5.396546,"is_reserved":false,"is_disabled":false,"rental_uris":{"android":"levelo://app?vid=eca9d464-6432-40fc-a29a-36bcf5ef2c45","ios":"levelo://app?vid=eca9d464-6432-40fc-a29a-36bcf5ef2c45"},"vehicle_type_id":"4","last_reported":1700600810,"current_range_meters":4400,"station_id":"ce4bh012rcd13ifvqcv0","pricing_plan_id":"free"},{"bike_id":"1d10a1b1-d55f-4279-928a-9c6858f32ca9","system_id":"levelo_inurba_marseille","lat":43.33231,"lon":5.380687,"is_reserved":false,"is_disabled":false,"rental_uris":{"android":"levelo://app?vid=1d10a1b1-d55f-4279-928a-9c6858f32ca9","ios":"levelo://app?vid=1d10a1b1-d55f-4279-928a-9c6858f32ca9"},"vehicle_type_id":"4","last_reported":1700600810,"current_range_meters":2400,"station_id":"","pricing_plan_id":"free"},{"bike_id":"a5f1f1c8-4ad5-4f62-ab5e-f8c3d1a58435","system_id":"levelo_inurba_marseille","lat":43.29529,"lon":5.385581,"is_reserved":false,"is_disabled":false,"rental_uris":{"android":"levelo://app?vid=a5f1f1c8-4ad5-4f62-ab5e-f8c3d1a58435","ios":"levelo://app?vid=a5f1f1c8-4ad5-4f62-ab5e-f8c3d1a58435"},"vehicle_type_id":"4","last_reported":1700600810,"current_range_meters":9200,"station_id":"ce4bgih2rcd13ifvqba0","pricing_plan_id":"free"},{"bike_id":"e8ae8422-2a6c-46f9-b171-6b47ab517277","system_id":"levelo_inurba_marseille","lat":43.293347,"lon":5.382443,"is_reserved":false,"is_disabled":false,"rental_uris":{"android":"levelo://app?vid=e8ae8422-2a6c-46f9-b171-6b47ab517277","ios":"levelo://app?vid=e8ae8422-2a6c-46f9-b171-6b47ab517277"},"vehicle_type_id":"4","last_reported":1700600810,"current_range_meters":0,"station_id":"","pricing_plan_id":"free"},{"bike_id":"66058901-7a57-481e-8d94-1cf150f1c151","system_id":"levelo_inurba_marseille","lat":43.29762,"lon":5.38973,"is_reserved":false,"is_disabled":false,"rental_uris":{"android":"levelo://app?vid=66058901-7a57-481e-8d94-1cf150f1c151","ios":"levelo://app?vid=66058901-7a57-481e-8d94-1cf150f1c151"},"vehicle_type_id":"4","last_reported":1700600810,"current_range_meters":14800,"station_id":"","pricing_plan_id":"free"},{"bike_id":"0d85ffb4-e67b-480d-bb1a-3afe2d7e4bd6","system_id":"levelo_inurba_marseille","lat":43.290624,"lon":5.359245,"is_reserved":false,"is_disabled":false,"rental_uris":{"android":"levelo://app?vid=0d85ffb4-e67b-480d-bb1a-3afe2d7e4bd6","ios":"levelo://app?vid=0d85ffb4-e67b-480d-bb1a-3afe2d7e4bd6"},"vehicle_type_id":"4","last_reported":1700600810,"current_range_meters":29200,"station_id":"ce4bha92rcd13ifvqeg0","pricing_plan_id":"free"},{"bike_id":"c4ef7b73-099f-4545-8ed1-be630e5842cb","system_id":"levelo_inurba_marseille","lat":43.289184,"lon":5.366408,"is_reserved":false,"is_disabled":false,"rental_uris":{"android":"levelo://app?vid=c4ef7b73-099f-4545-8ed1-be630e5842cb","ios":"levelo://app?vid=c4ef7b73-099f-4545-8ed1-be630e5842cb"},"vehicle_type_id":"4","last_reported":1700600810,"current_range_meters":14000,"station_id":"ce4bhap2rcd13ifvqek0","pricing_plan_id":"free"},{"bike_id":"5ce87cfa-c1b1-40e5-a452-e503d1fcba2a","system_id":"levelo_inurba_marseille","lat":43.289184,"lon":5.366408,"is_reserved":false,"is_disabled":false,"rental_uris":{"android":"levelo://app?vid=5ce87cfa-c1b1-40e5-a452-e503d1fcba2a","ios":"levelo://app?vid=5ce87cfa-c1b1-40e5-a452-e503d1fcba2a"},"vehicle_type_id":"4","last_reported":1700600810,"current_range_meters":6000,"station_id":"ce4bhap2rcd13ifvqek0","pricing_plan_id":"free"},{"bike_id":"89b29b5a-d802-43db-962f-ffe92f87d98e","system_id":"levelo_inurba_marseille","lat":43.29261,"lon":5.38427,"is_reserved":false,"is_disabled":false,"rental_uris":{"android":"levelo://app?vid=89b29b5a-d802-43db-962f-ffe92f87d98e","ios":"levelo://app?vid=89b29b5a-d802-43db-962f-ffe92f87d98e"},"vehicle_type_id":"4","last_reported":1700600810,"current_range_meters":20400,"station_id":"","pricing_plan_id":"free"},{"bike_id":"5ebbc3e2-b840-4cda-a6f2-a5370c963291","system_id":"levelo_inurba_marseille","lat":43.304274,"lon":5.397513,"is_reserved":false,"is_disabled":false,"rental_uris":{"android":"levelo://app?vid=5ebbc3e2-b840-4cda-a6f2-a5370c963291","ios":"levelo://app?vid=5ebbc3e2-b840-4cda-a6f2-a5370c963291"},"vehicle_type_id":"4","last_reported":1700600810,"current_range_meters":14400,"station_id":"ce4bh092rcd13ifvqd20","pricing_plan_id":"free"},{"bike_id":"d8be73c0-672b-4461-be5b-c63a50657c95","system_id":"levelo_inurba_marseille","lat":43.304296,"lon":5.397513,"is_reserved":false,"is_disabled":false,"rental_uris":{"android":"levelo://app?vid=d8be73c0-672b-4461-be5b-c63a50657c95","ios":"levelo://app?vid=d8be73c0-672b-4461-be5b-c63a50657c95"},"vehicle_type_id":"4","last_reported":1700600810,"current_range_meters":1600,"station_id":"ce4bh092rcd13ifvqd20","pricing_plan_id":"free"},{"bike_id":"9e24114e-7be2-49df-a055-f78abb181d95","system_id":"levelo_inurba_marseille","lat":43.290104,"lon":5.356111,"is_reserved":false,"is_disabled":false,"rental_uris":{"android":"levelo://app?vid=9e24114e-7be2-49df-a055-f78abb181d95","ios":"levelo://app?vid=9e24114e-7be2-49df-a055-f78abb181d95"},"vehicle_type_id":"4","last_reported":1700600810,"current_range_meters":16800,"station_id":"ce4bhb92rcd13ifvqen0","pricing_plan_id":"free"},{"bike_id":"c7882023-4d8b-4bbb-adc6-515c2e2b08dc","system_id":"levelo_inurba_marseille","lat":43.33043,"lon":5.38922,"is_reserved":false,"is_disabled":false,"rental_uris":{"android":"levelo://app?vid=c7882023-4d8b-4bbb-adc6-515c2e2b08dc","ios":"levelo://app?vid=c7882023-4d8b-4bbb-adc6-515c2e2b08dc"},"vehicle_type_id":"4","last_reported":1700600810,"current_range_meters":0,"station_id":"ce4bhr92rcd13ifvqhrg","pricing_plan_id":"free"},{"bike_id":"c0691913-4d43-42af-9fa5-975aa1a8621b","system_id":"levelo_inurba_marseille","lat":43.290927,"lon":5.38155,"is_reserved":false,"is_disabled":false,"rental_uris":{"android":"levelo://app?vid=c0691913-4d43-42af-9fa5-975aa1a8621b","ios":"levelo://app?vid=c0691913-4d43-42af-9fa5-975aa1a8621b"},"vehicle_type_id":"4","last_reported":1700600810,"current_range_meters":0,"station_id":"ce4bh512rcd13ifvqe2g","pricing_plan_id":"free"},{"bike_id":"afc59d3b-7325-407e-b413-b133a4e42f42","system_id":"levelo_inurba_marseille","lat":43.29782,"lon":5.39324,"is_reserved":false,"is_disabled":false,"rental_uris":{"android":"levelo://app?vid=afc59d3b-7325-407e-b413-b133a4e42f42","ios":"levelo://app?vid=afc59d3b-7325-407e-b413-b133a4e42f42"},"vehicle_type_id":"4","last_reported":1700600810,"current_range_meters":28400,"station_id":"chh1huq6cuj3fo74tm60","pricing_plan_id":"free"},{"bike_id":"6ffcc270-b8c3-448c-b29a-c483a3e1e879","system_id":"levelo_inurba_marseille","lat":43.29788,"lon":5.39333,"is_reserved":false,"is_disabled":false,"rental_uris":{"android":"levelo://app?vid=6ffcc270-b8c3-448c-b29a-c483a3e1e879","ios":"levelo://app?vid=6ffcc270-b8c3-448c-b29a-c483a3e1e879"},"vehicle_type_id":"4","last_reported":1700600810,"current_range_meters":7200,"station_id":"chh1huq6cuj3fo74tm60","pricing_plan_id":"free"},{"bike_id":"c6aebcf1-9924-4688-8956-4725818c5258","system_id":"levelo_inurba_marseille","lat":43.295258,"lon":5.390298,"is_reserved":false,"is_disabled":false,"rental_uris":{"android":"levelo://app?vid=c6aebcf1-9924-4688-8956-4725818c5258","ios":"levelo://app?vid=c6aebcf1-9924-4688-8956-4725818c5258"},"vehicle_type_id":"4","last_reported":1700600810,"current_range_meters":0,"station_id":"ce4bh3p2rcd13ifvqdp0","pricing_plan_id":"free"},{"bike_id":"90405ba4-f38e-4688-becd-afd361893a69","system_id":"levelo_inurba_marseille","lat":43.295169,"lon":5.390426,"is_reserved":false,"is_disabled":false,"rental_uris":{"android":"levelo://app?vid=90405ba4-f38e-4688-becd-afd361893a69","ios":"levelo://app?vid=90405ba4-f38e-4688-becd-afd361893a69"},"vehicle_type_id":"4","last_reported":1700600810,"current_range_meters":2000,"station_id":"ce4bh3p2rcd13ifvqdp0","pricing_plan_id":"free"},{"bike_id":"32f3fd4f-ff95-4eeb-aee4-9f285bcf3fd5","system_id":"levelo_inurba_marseille","lat":43.2901,"lon":5.381269,"is_reserved":false,"is_disabled":false,"rental_uris":{"android":"levelo://app?vid=32f3fd4f-ff95-4eeb-aee4-9f285bcf3fd5","ios":"levelo://app?vid=32f3fd4f-ff95-4eeb-aee4-9f285bcf3fd5"},"vehicle_type_id":"4","last_reported":1700600810,"current_range_meters":26400,"station_id":"ce4bh4p2rcd13ifvqe1g","pricing_plan_id":"free"},{"bike_id":"30b884ff-95b1-4155-be53-695d14cea439","system_id":"levelo_inurba_marseille","lat":43.31155,"lon":5.401197,"is_reserved":false,"is_disabled":false,"rental_uris":{"android":"levelo://app?vid=30b884ff-95b1-4155-be53-695d14cea439","ios":"levelo://app?vid=30b884ff-95b1-4155-be53-695d14cea439"},"vehicle_type_id":"4","last_reported":1700600810,"current_range_meters":8800,"station_id":"ce4bh092rcd13ifvqd30","pricing_plan_id":"free"},{"bike_id":"56ae1ae3-2366-4a70-8b2d-f5360d93553f","system_id":"levelo_inurba_marseille","lat":43.28856,"lon":5.358371,"is_reserved":false,"is_disabled":false,"rental_uris":{"android":"levelo://app?vid=56ae1ae3-2366-4a70-8b2d-f5360d93553f","ios":"levelo://app?vid=56ae1ae3-2366-4a70-8b2d-f5360d93553f"},"vehicle_type_id":"4","last_reported":1700600810,"current_range_meters":22800,"station_id":"ce4bhb12rcd13ifvqem0","pricing_plan_id":"free"},{"bike_id":"829fc099-d775-4717-987a-3874830507a8","system_id":"levelo_inurba_marseille","lat":43.28856,"lon":5.358371,"is_reserved":false,"is_disabled":false,"rental_uris":{"android":"levelo://app?vid=829fc099-d775-4717-987a-3874830507a8","ios":"levelo://app?vid=829fc099-d775-4717-987a-3874830507a8"},"vehicle_type_id":"4","last_reported":1700600810,"current_range_meters":2000,"station_id":"ce4bhb12rcd13ifvqem0","pricing_plan_id":"free"},{"bike_id":"c34173f9-5dd8-458e-8a79-9e9340d6ba55","system_id":"levelo_inurba_marseille","lat":43.28856,"lon":5.358371,"is_reserved":false,"is_disabled":false,"rental_uris":{"android":"levelo://app?vid=c34173f9-5dd8-458e-8a79-9e9340d6ba55","ios":"levelo://app?vid=c34173f9-5dd8-458e-8a79-9e9340d6ba55"},"vehicle_type_id":"4","last_reported":1700600810,"current_range_meters":9600,"station_id":"ce4bhb12rcd13ifvqem0","pricing_plan_id":"free"},{"bike_id":"aad9a792-6976-4183-919a-aef819ff2e25","system_id":"levelo_inurba_marseille","lat":43.31251,"lon":5.40162,"is_reserved":false,"is_disabled":false,"rental_uris":{"android":"levelo://app?vid=aad9a792-6976-4183-919a-aef819ff2e25","ios":"levelo://app?vid=aad9a792-6976-4183-919a-aef819ff2e25"},"vehicle_type_id":"4","last_reported":1700600810,"current_range_meters":2000,"station_id":"","pricing_plan_id":"free"},{"bike_id":"4166f851-581a-4a7f-944e-d13829034fa9","system_id":"levelo_inurba_marseille","lat":43.309313,"lon":5.401419,"is_reserved":false,"is_disabled":false,"rental_uris":{"android":"levelo://app?vid=4166f851-581a-4a7f-944e-d13829034fa9","ios":"levelo://app?vid=4166f851-581a-4a7f-944e-d13829034fa9"},"vehicle_type_id":"4","last_reported":1700600810,"current_range_meters":0,"station_id":"ce4bgvp2rcd13ifvqct0","pricing_plan_id":"free"},{"bike_id":"a8ed96ea-2aa3-4cb8-86ae-fea3787e127e","system_id":"levelo_inurba_marseille","lat":43.33755,"lon":5.37435,"is_reserved":false,"is_disabled":false,"rental_uris":{"android":"levelo://app?vid=a8ed96ea-2aa3-4cb8-86ae-fea3787e127e","ios":"levelo://app?vid=a8ed96ea-2aa3-4cb8-86ae-fea3787e127e"},"vehicle_type_id":"4","last_reported":1700600810,"current_range_meters":28800,"station_id":"","pricing_plan_id":"free"},{"bike_id":"3e80dcd8-a329-470b-b197-d74a5d021a25","system_id":"levelo_inurba_marseille","lat":43.33755,"lon":5.37461,"is_reserved":false,"is_disabled":false,"rental_uris":{"android":"levelo://app?vid=3e80dcd8-a329-470b-b197-d74a5d021a25","ios":"levelo://app?vid=3e80dcd8-a329-470b-b197-d74a5d021a25"},"vehicle_type_id":"4","last_reported":1700600810,"current_range_meters":31200,"station_id":"","pricing_plan_id":"free"},{"bike_id":"84e65a83-4377-4172-ac17-8190bbfa4555","system_id":"levelo_inurba_marseille","lat":43.33759,"lon":5.37453,"is_reserved":false,"is_disabled":false,"rental_uris":{"android":"levelo://app?vid=84e65a83-4377-4172-ac17-8190bbfa4555","ios":"levelo://app?vid=84e65a83-4377-4172-ac17-8190bbfa4555"},"vehicle_type_id":"4","last_reported":1700600810,"current_range_meters":8400,"station_id":"","pricing_plan_id":"free"},{"bike_id":"2bd2ca8f-5f8f-4fab-b1a6-2497741988f1","system_id":"levelo_inurba_marseille","lat":43.33764,"lon":5.37428,"is_reserved":false,"is_disabled":false,"rental_uris":{"android":"levelo://app?vid=2bd2ca8f-5f8f-4fab-b1a6-2497741988f1","ios":"levelo://app?vid=2bd2ca8f-5f8f-4fab-b1a6-2497741988f1"},"vehicle_type_id":"4","last_reported":1700600810,"current_range_meters":29200,"station_id":"","pricing_plan_id":"free"},{"bike_id":"9cd39201-5a49-4174-824c-419b775459f9","system_id":"levelo_inurba_marseille","lat":43.33766,"lon":5.37427,"is_reserved":false,"is_disabled":false,"rental_uris":{"android":"levelo://app?vid=9cd39201-5a49-4174-824c-419b775459f9","ios":"levelo://app?vid=9cd39201-5a49-4174-824c-419b775459f9"},"vehicle_type_id":"4","last_reported":1700600810,"current_range_meters":30400,"station_id":"","pricing_plan_id":"free"},{"bike_id":"04bb3993-7df0-4611-b671-63861d1ec3cc","system_id":"levelo_inurba_marseille","lat":43.33763,"lon":5.37472,"is_reserved":false,"is_disabled":false,"rental_uris":{"android":"levelo://app?vid=04bb3993-7df0-4611-b671-63861d1ec3cc","ios":"levelo://app?vid=04bb3993-7df0-4611-b671-63861d1ec3cc"},"vehicle_type_id":"4","last_reported":1700600810,"current_range_meters":26000,"station_id":"","pricing_plan_id":"free"},{"bike_id":"906843f4-dafc-4a00-8562-af0cc52b2c6b","system_id":"levelo_inurba_marseille","lat":43.30657,"lon":5.40098,"is_reserved":false,"is_disabled":false,"rental_uris":{"android":"levelo://app?vid=906843f4-dafc-4a00-8562-af0cc52b2c6b","ios":"levelo://app?vid=906843f4-dafc-4a00-8562-af0cc52b2c6b"},"vehicle_type_id":"4","last_reported":1700600810,"current_range_meters":0,"station_id":"ce4bh112rcd13ifvqda0","pricing_plan_id":"free"},{"bike_id":"7c0ffb5d-fbbe-4fd6-984f-fef0cc3500d0","system_id":"levelo_inurba_marseille","lat":43.3377,"lon":5.37436,"is_reserved":false,"is_disabled":false,"rental_uris":{"android":"levelo://app?vid=7c0ffb5d-fbbe-4fd6-984f-fef0cc3500d0","ios":"levelo://app?vid=7c0ffb5d-fbbe-4fd6-984f-fef0cc3500d0"},"vehicle_type_id":"4","last_reported":1700600810,"current_range_meters":29600,"station_id":"","pricing_plan_id":"free"},{"bike_id":"7a702ca4-f5c3-4ffe-9749-0398e6cda5e3","system_id":"levelo_inurba_marseille","lat":43.337692,"lon":5.37441,"is_reserved":false,"is_disabled":false,"rental_uris":{"android":"levelo://app?vid=7a702ca4-f5c3-4ffe-9749-0398e6cda5e3","ios":"levelo://app?vid=7a702ca4-f5c3-4ffe-9749-0398e6cda5e3"},"vehicle_type_id":"4","last_reported":1700600810,"current_range_meters":25600,"station_id":"","pricing_plan_id":"free"},{"bike_id":"34d79e5a-dca6-41fd-92e0-56a8fdd76781","system_id":"levelo_inurba_marseille","lat":43.306412,"lon":5.401035,"is_reserved":false,"is_disabled":false,"rental_uris":{"android":"levelo://app?vid=34d79e5a-dca6-41fd-92e0-56a8fdd76781","ios":"levelo://app?vid=34d79e5a-dca6-41fd-92e0-56a8fdd76781"},"vehicle_type_id":"4","last_reported":1700600810,"current_range_meters":25200,"station_id":"ce4bh112rcd13ifvqda0","pricing_plan_id":"free"},{"bike_id":"d6389510-6802-49ef-b98a-747986969890","system_id":"levelo_inurba_marseille","lat":43.337712,"lon":5.374356,"is_reserved":false,"is_disabled":false,"rental_uris":{"android":"levelo://app?vid=d6389510-6802-49ef-b98a-747986969890","ios":"levelo://app?vid=d6389510-6802-49ef-b98a-747986969890"},"vehicle_type_id":"4","last_reported":1700600810,"current_range_meters":28800,"station_id":"","pricing_plan_id":"free"},{"bike_id":"4c09723e-dac1-4a29-ae81-cfe55ee97129","system_id":"levelo_inurba_marseille","lat":43.33773,"lon":5.37434,"is_reserved":false,"is_disabled":false,"rental_uris":{"android":"levelo://app?vid=4c09723e-dac1-4a29-ae81-cfe55ee97129","ios":"levelo://app?vid=4c09723e-dac1-4a29-ae81-cfe55ee97129"},"vehicle_type_id":"4","last_reported":1700600810,"current_range_meters":27200,"station_id":"","pricing_plan_id":"free"},{"bike_id":"c23a038d-8fe5-437f-bbe5-513359d786e1","system_id":"levelo_inurba_marseille","lat":43.33766,"lon":5.37478,"is_reserved":false,"is_disabled":false,"rental_uris":{"android":"levelo://app?vid=c23a038d-8fe5-437f-bbe5-513359d786e1","ios":"levelo://app?vid=c23a038d-8fe5-437f-bbe5-513359d786e1"},"vehicle_type_id":"4","last_reported":1700600810,"current_range_meters":28800,"station_id":"","pricing_plan_id":"free"},{"bike_id":"059ddb7d-1142-4894-9b5a-c5a46ec41b02","system_id":"levelo_inurba_marseille","lat":43.33781,"lon":5.3742,"is_reserved":false,"is_disabled":false,"rental_uris":{"android":"levelo://app?vid=059ddb7d-1142-4894-9b5a-c5a46ec41b02","ios":"levelo://app?vid=059ddb7d-1142-4894-9b5a-c5a46ec41b02"},"vehicle_type_id":"4","last_reported":1700600810,"current_range_meters":29600,"station_id":"","pricing_plan_id":"free"},{"bike_id":"2b3f4cef-d88a-414c-b2cc-9d2a98e793f1","system_id":"levelo_inurba_marseille","lat":43.3377,"lon":5.3749,"is_reserved":false,"is_disabled":false,"rental_uris":{"android":"levelo://app?vid=2b3f4cef-d88a-414c-b2cc-9d2a98e793f1","ios":"levelo://app?vid=2b3f4cef-d88a-414c-b2cc-9d2a98e793f1"},"vehicle_type_id":"4","last_reported":1700600810,"current_range_meters":9600,"station_id":"","pricing_plan_id":"free"},{"bike_id":"dedd3e4f-e4e1-4fe0-afd5-fc320bdd5588","system_id":"levelo_inurba_marseille","lat":43.33772,"lon":5.37486,"is_reserved":false,"is_disabled":false,"rental_uris":{"android":"levelo://app?vid=dedd3e4f-e4e1-4fe0-afd5-fc320bdd5588","ios":"levelo://app?vid=dedd3e4f-e4e1-4fe0-afd5-fc320bdd5588"},"vehicle_type_id":"4","last_reported":1700600810,"current_range_meters":26800,"station_id":"","pricing_plan_id":"free"},{"bike_id":"8518efa9-9135-477f-ae54-6a751d585453","system_id":"levelo_inurba_marseille","lat":43.301253,"lon":5.398663,"is_reserved":false,"is_disabled":false,"rental_uris":{"android":"levelo://app?vid=8518efa9-9135-477f-ae54-6a751d585453","ios":"levelo://app?vid=8518efa9-9135-477f-ae54-6a751d585453"},"vehicle_type_id":"4","last_reported":1700600810,"current_range_meters":0,"station_id":"ce4bh0h2rcd13ifvqd40","pricing_plan_id":"free"},{"bike_id":"1e5f9b7c-ce69-4d52-80d0-edbd66d45f4f","system_id":"levelo_inurba_marseille","lat":43.28727,"lon":5.36078,"is_reserved":false,"is_disabled":false,"rental_uris":{"android":"levelo://app?vid=1e5f9b7c-ce69-4d52-80d0-edbd66d45f4f","ios":"levelo://app?vid=1e5f9b7c-ce69-4d52-80d0-edbd66d45f4f"},"vehicle_type_id":"4","last_reported":1700600810,"current_range_meters":30000,"station_id":"cki0cbj6b192h4jlfktg","pricing_plan_id":"free"},{"bike_id":"70bf1fd8-c051-4161-a10e-c760b71856cd","system_id":"levelo_inurba_marseille","lat":43.28724,"lon":5.36092,"is_reserved":false,"is_disabled":false,"rental_uris":{"android":"levelo://app?vid=70bf1fd8-c051-4161-a10e-c760b71856cd","ios":"levelo://app?vid=70bf1fd8-c051-4161-a10e-c760b71856cd"},"vehicle_type_id":"4","last_reported":1700600810,"current_range_meters":22000,"station_id":"cki0cbj6b192h4jlfktg","pricing_plan_id":"free"},{"bike_id":"5f629e66-2d6f-4932-afd9-ffad32418512","system_id":"levelo_inurba_marseille","lat":43.28724,"lon":5.36092,"is_reserved":false,"is_disabled":false,"rental_uris":{"android":"levelo://app?vid=5f629e66-2d6f-4932-afd9-ffad32418512","ios":"levelo://app?vid=5f629e66-2d6f-4932-afd9-ffad32418512"},"vehicle_type_id":"4","last_reported":1700600810,"current_range_meters":13600,"station_id":"cki0cbj6b192h4jlfktg","pricing_plan_id":"free"},{"bike_id":"5aa8ff98-98bc-4b95-a8fc-ba24aab95f38","system_id":"levelo_inurba_marseille","lat":43.287224,"lon":5.36079,"is_reserved":false,"is_disabled":false,"rental_uris":{"android":"levelo://app?vid=5aa8ff98-98bc-4b95-a8fc-ba24aab95f38","ios":"levelo://app?vid=5aa8ff98-98bc-4b95-a8fc-ba24aab95f38"},"vehicle_type_id":"4","last_reported":1700600810,"current_range_meters":9200,"station_id":"cki0cbj6b192h4jlfktg","pricing_plan_id":"free"},{"bike_id":"39708262-1435-437e-ad5e-1d060b4fbaa0","system_id":"levelo_inurba_marseille","lat":43.287199,"lon":5.360821,"is_reserved":false,"is_disabled":false,"rental_uris":{"android":"levelo://app?vid=39708262-1435-437e-ad5e-1d060b4fbaa0","ios":"levelo://app?vid=39708262-1435-437e-ad5e-1d060b4fbaa0"},"vehicle_type_id":"4","last_reported":1700600810,"current_range_meters":4800,"station_id":"cki0cbj6b192h4jlfktg","pricing_plan_id":"free"},{"bike_id":"54bafbc3-ecf7-48c0-a614-f8ace818ec52","system_id":"levelo_inurba_marseille","lat":43.28718,"lon":5.36091,"is_reserved":false,"is_disabled":false,"rental_uris":{"android":"levelo://app?vid=54bafbc3-ecf7-48c0-a614-f8ace818ec52","ios":"levelo://app?vid=54bafbc3-ecf7-48c0-a614-f8ace818ec52"},"vehicle_type_id":"4","last_reported":1700600810,"current_range_meters":4000,"station_id":"cki0cbj6b192h4jlfktg","pricing_plan_id":"free"},{"bike_id":"22ea8213-4d84-400c-aece-3f6fd6226cb1","system_id":"levelo_inurba_marseille","lat":43.286591,"lon":5.363346,"is_reserved":false,"is_disabled":false,"rental_uris":{"android":"levelo://app?vid=22ea8213-4d84-400c-aece-3f6fd6226cb1","ios":"levelo://app?vid=22ea8213-4d84-400c-aece-3f6fd6226cb1"},"vehicle_type_id":"4","last_reported":1700600810,"current_range_meters":20400,"station_id":"ce4bhah2rcd13ifvqej0","pricing_plan_id":"free"},{"bike_id":"67224049-3cd5-4944-9e80-cb5dedd88868","system_id":"levelo_inurba_marseille","lat":43.29873,"lon":5.39733,"is_reserved":false,"is_disabled":false,"rental_uris":{"android":"levelo://app?vid=67224049-3cd5-4944-9e80-cb5dedd88868","ios":"levelo://app?vid=67224049-3cd5-4944-9e80-cb5dedd88868"},"vehicle_type_id":"4","last_reported":1700600810,"current_range_meters":0,"station_id":"ce4bh0h2rcd13ifvqd50","pricing_plan_id":"free"},{"bike_id":"34b59785-c597-4fb5-94fe-0a149b62522d","system_id":"levelo_inurba_marseille","lat":43.286591,"lon":5.363346,"is_reserved":false,"is_disabled":false,"rental_uris":{"android":"levelo://app?vid=34b59785-c597-4fb5-94fe-0a149b62522d","ios":"levelo://app?vid=34b59785-c597-4fb5-94fe-0a149b62522d"},"vehicle_type_id":"4","last_reported":1700600810,"current_range_meters":17600,"station_id":"ce4bhah2rcd13ifvqej0","pricing_plan_id":"free"},{"bike_id":"aaf1849e-d4a6-41f6-a33a-58d19d921a70","system_id":"levelo_inurba_marseille","lat":43.286593,"lon":5.363346,"is_reserved":false,"is_disabled":false,"rental_uris":{"android":"levelo://app?vid=aaf1849e-d4a6-41f6-a33a-58d19d921a70","ios":"levelo://app?vid=aaf1849e-d4a6-41f6-a33a-58d19d921a70"},"vehicle_type_id":"4","last_reported":1700600810,"current_range_meters":24000,"station_id":"ce4bhah2rcd13ifvqej0","pricing_plan_id":"free"},{"bike_id":"cb9495c2-5520-4068-a36b-748139656237","system_id":"levelo_inurba_marseille","lat":43.286593,"lon":5.363346,"is_reserved":false,"is_disabled":false,"rental_uris":{"android":"levelo://app?vid=cb9495c2-5520-4068-a36b-748139656237","ios":"levelo://app?vid=cb9495c2-5520-4068-a36b-748139656237"},"vehicle_type_id":"4","last_reported":1700600810,"current_range_meters":22000,"station_id":"ce4bhah2rcd13ifvqej0","pricing_plan_id":"free"},{"bike_id":"a4500033-e3e4-4d88-935a-536b611e4210","system_id":"levelo_inurba_marseille","lat":43.286961,"lon":5.373785,"is_reserved":false,"is_disabled":false,"rental_uris":{"android":"levelo://app?vid=a4500033-e3e4-4d88-935a-536b611e4210","ios":"levelo://app?vid=a4500033-e3e4-4d88-935a-536b611e4210"},"vehicle_type_id":"4","last_reported":1700600810,"current_range_meters":24000,"station_id":"ce4bh3p2rcd13ifvqdq0","pricing_plan_id":"free"},{"bike_id":"142f6782-a082-4ef2-82c5-c9cbb0bd3444","system_id":"levelo_inurba_marseille","lat":43.295196,"lon":5.39397,"is_reserved":false,"is_disabled":false,"rental_uris":{"android":"levelo://app?vid=142f6782-a082-4ef2-82c5-c9cbb0bd3444","ios":"levelo://app?vid=142f6782-a082-4ef2-82c5-c9cbb0bd3444"},"vehicle_type_id":"4","last_reported":1700600810,"current_range_meters":0,"station_id":"ce4bh292rcd13ifvqdf0","pricing_plan_id":"free"},{"bike_id":"6d2c3ac9-bf4e-4bb7-95c5-3b477f242432","system_id":"levelo_inurba_marseille","lat":43.29035,"lon":5.38638,"is_reserved":false,"is_disabled":false,"rental_uris":{"android":"levelo://app?vid=6d2c3ac9-bf4e-4bb7-95c5-3b477f242432","ios":"levelo://app?vid=6d2c3ac9-bf4e-4bb7-95c5-3b477f242432"},"vehicle_type_id":"4","last_reported":1700600810,"current_range_meters":5200,"station_id":"ce4bh4p2rcd13ifvqe0g","pricing_plan_id":"free"},{"bike_id":"48f13903-06f4-49f7-9caa-772c15252d5b","system_id":"levelo_inurba_marseille","lat":43.289317,"lon":5.383983,"is_reserved":false,"is_disabled":false,"rental_uris":{"android":"levelo://app?vid=48f13903-06f4-49f7-9caa-772c15252d5b","ios":"levelo://app?vid=48f13903-06f4-49f7-9caa-772c15252d5b"},"vehicle_type_id":"4","last_reported":1700600810,"current_range_meters":5600,"station_id":"ce4bh612rcd13ifvqe6g","pricing_plan_id":"free"},{"bike_id":"142842b9-40ff-4f5d-8b8a-a03ecac2f30e","system_id":"levelo_inurba_marseille","lat":43.29028,"lon":5.38634,"is_reserved":false,"is_disabled":false,"rental_uris":{"android":"levelo://app?vid=142842b9-40ff-4f5d-8b8a-a03ecac2f30e","ios":"levelo://app?vid=142842b9-40ff-4f5d-8b8a-a03ecac2f30e"},"vehicle_type_id":"4","last_reported":1700600810,"current_range_meters":27600,"station_id":"ce4bh4p2rcd13ifvqe0g","pricing_plan_id":"free"},{"bike_id":"4220234c-8efa-4b6d-b6db-e4c7e7160ab7","system_id":"levelo_inurba_marseille","lat":43.29028,"lon":5.38636,"is_reserved":false,"is_disabled":false,"rental_uris":{"android":"levelo://app?vid=4220234c-8efa-4b6d-b6db-e4c7e7160ab7","ios":"levelo://app?vid=4220234c-8efa-4b6d-b6db-e4c7e7160ab7"},"vehicle_type_id":"4","last_reported":1700600810,"current_range_meters":0,"station_id":"ce4bh4p2rcd13ifvqe0g","pricing_plan_id":"free"},{"bike_id":"f98c98d9-a8a2-4b4e-88b8-37ccbcd03eb6","system_id":"levelo_inurba_marseille","lat":43.29031,"lon":5.386516,"is_reserved":false,"is_disabled":false,"rental_uris":{"android":"levelo://app?vid=f98c98d9-a8a2-4b4e-88b8-37ccbcd03eb6","ios":"levelo://app?vid=f98c98d9-a8a2-4b4e-88b8-37ccbcd03eb6"},"vehicle_type_id":"4","last_reported":1700600810,"current_range_meters":22400,"station_id":"ce4bh4p2rcd13ifvqe0g","pricing_plan_id":"free"},{"bike_id":"5a3914f8-6d02-4163-91fb-3288bc9a951d","system_id":"levelo_inurba_marseille","lat":43.29022,"lon":5.38636,"is_reserved":false,"is_disabled":false,"rental_uris":{"android":"levelo://app?vid=5a3914f8-6d02-4163-91fb-3288bc9a951d","ios":"levelo://app?vid=5a3914f8-6d02-4163-91fb-3288bc9a951d"},"vehicle_type_id":"4","last_reported":1700600810,"current_range_meters":14000,"station_id":"","pricing_plan_id":"free"},{"bike_id":"e4fe9bfe-c19c-4f53-810f-f315f80ec4be","system_id":"levelo_inurba_marseille","lat":43.29024,"lon":5.38642,"is_reserved":false,"is_disabled":false,"rental_uris":{"android":"levelo://app?vid=e4fe9bfe-c19c-4f53-810f-f315f80ec4be","ios":"levelo://app?vid=e4fe9bfe-c19c-4f53-810f-f315f80ec4be"},"vehicle_type_id":"4","last_reported":1700600810,"current_range_meters":29200,"station_id":"","pricing_plan_id":"free"},{"bike_id":"7f747f99-2551-4a7d-91bc-bd240437708e","system_id":"levelo_inurba_marseille","lat":43.29018,"lon":5.3863,"is_reserved":false,"is_disabled":false,"rental_uris":{"android":"levelo://app?vid=7f747f99-2551-4a7d-91bc-bd240437708e","ios":"levelo://app?vid=7f747f99-2551-4a7d-91bc-bd240437708e"},"vehicle_type_id":"4","last_reported":1700600810,"current_range_meters":16800,"station_id":"","pricing_plan_id":"free"},{"bike_id":"587797ad-7dfe-49a2-9404-a32255c8619a","system_id":"levelo_inurba_marseille","lat":43.286152,"lon":5.370623,"is_reserved":false,"is_disabled":false,"rental_uris":{"android":"levelo://app?vid=587797ad-7dfe-49a2-9404-a32255c8619a","ios":"levelo://app?vid=587797ad-7dfe-49a2-9404-a32255c8619a"},"vehicle_type_id":"4","last_reported":1700600810,"current_range_meters":22800,"station_id":"ce4bht12rcd13ifvqi60","pricing_plan_id":"free"},{"bike_id":"e20842cd-8eea-4741-8c73-0475dbb8d81a","system_id":"levelo_inurba_marseille","lat":43.286039,"lon":5.370679,"is_reserved":false,"is_disabled":false,"rental_uris":{"android":"levelo://app?vid=e20842cd-8eea-4741-8c73-0475dbb8d81a","ios":"levelo://app?vid=e20842cd-8eea-4741-8c73-0475dbb8d81a"},"vehicle_type_id":"4","last_reported":1700600810,"current_range_meters":30800,"station_id":"ce4bht12rcd13ifvqi60","pricing_plan_id":"free"},{"bike_id":"103037f0-b8c2-4b7e-bb4e-0c3ed55d65e6","system_id":"levelo_inurba_marseille","lat":43.286096,"lon":5.370617,"is_reserved":false,"is_disabled":false,"rental_uris":{"android":"levelo://app?vid=103037f0-b8c2-4b7e-bb4e-0c3ed55d65e6","ios":"levelo://app?vid=103037f0-b8c2-4b7e-bb4e-0c3ed55d65e6"},"vehicle_type_id":"4","last_reported":1700600810,"current_range_meters":17600,"station_id":"ce4bht12rcd13ifvqi60","pricing_plan_id":"free"},{"bike_id":"a91d9dc8-1480-4e77-b19f-849eb7c541d5","system_id":"levelo_inurba_marseille","lat":43.287185,"lon":5.379373,"is_reserved":false,"is_disabled":false,"rental_uris":{"android":"levelo://app?vid=a91d9dc8-1480-4e77-b19f-849eb7c541d5","ios":"levelo://app?vid=a91d9dc8-1480-4e77-b19f-849eb7c541d5"},"vehicle_type_id":"4","last_reported":1700600810,"current_range_meters":25600,"station_id":"ce4bh9p2rcd13ifvqec0","pricing_plan_id":"free"},{"bike_id":"6330ae62-b664-4e6f-b2b3-0c89ac44e1b5","system_id":"levelo_inurba_marseille","lat":43.316447,"lon":5.40437,"is_reserved":false,"is_disabled":false,"rental_uris":{"android":"levelo://app?vid=6330ae62-b664-4e6f-b2b3-0c89ac44e1b5","ios":"levelo://app?vid=6330ae62-b664-4e6f-b2b3-0c89ac44e1b5"},"vehicle_type_id":"4","last_reported":1700600810,"current_range_meters":21200,"station_id":"ce4bh012rcd13ifvqd00","pricing_plan_id":"free"},{"bike_id":"5fdd75fc-2301-4efa-a1a5-154211159a09","system_id":"levelo_inurba_marseille","lat":43.291994,"lon":5.392907,"is_reserved":false,"is_disabled":false,"rental_uris":{"android":"levelo://app?vid=5fdd75fc-2301-4efa-a1a5-154211159a09","ios":"levelo://app?vid=5fdd75fc-2301-4efa-a1a5-154211159a09"},"vehicle_type_id":"4","last_reported":1700600810,"current_range_meters":15600,"station_id":"ce4bh192rcd13ifvqdd0","pricing_plan_id":"free"},{"bike_id":"712e721b-a4f4-4beb-b810-500a2a4d0091","system_id":"levelo_inurba_marseille","lat":43.284654,"lon":5.35884,"is_reserved":false,"is_disabled":false,"rental_uris":{"android":"levelo://app?vid=712e721b-a4f4-4beb-b810-500a2a4d0091","ios":"levelo://app?vid=712e721b-a4f4-4beb-b810-500a2a4d0091"},"vehicle_type_id":"4","last_reported":1700600810,"current_range_meters":4400,"station_id":"ce4bhah2rcd13ifvqei0","pricing_plan_id":"free"},{"bike_id":"abb0ea22-75eb-4892-ab8a-b6710ca00125","system_id":"levelo_inurba_marseille","lat":43.28462,"lon":5.35893,"is_reserved":false,"is_disabled":false,"rental_uris":{"android":"levelo://app?vid=abb0ea22-75eb-4892-ab8a-b6710ca00125","ios":"levelo://app?vid=abb0ea22-75eb-4892-ab8a-b6710ca00125"},"vehicle_type_id":"4","last_reported":1700600810,"current_range_meters":31200,"station_id":"ce4bhah2rcd13ifvqei0","pricing_plan_id":"free"},{"bike_id":"c657ac86-030e-435d-9dcb-b0f1c15fc09d","system_id":"levelo_inurba_marseille","lat":43.284613,"lon":5.358921,"is_reserved":false,"is_disabled":false,"rental_uris":{"android":"levelo://app?vid=c657ac86-030e-435d-9dcb-b0f1c15fc09d","ios":"levelo://app?vid=c657ac86-030e-435d-9dcb-b0f1c15fc09d"},"vehicle_type_id":"4","last_reported":1700600810,"current_range_meters":24000,"station_id":"ce4bhah2rcd13ifvqei0","pricing_plan_id":"free"},{"bike_id":"8f32b0ce-57ff-44cb-9774-721f197214c2","system_id":"levelo_inurba_marseille","lat":43.28461,"lon":5.3589,"is_reserved":false,"is_disabled":false,"rental_uris":{"android":"levelo://app?vid=8f32b0ce-57ff-44cb-9774-721f197214c2","ios":"levelo://app?vid=8f32b0ce-57ff-44cb-9774-721f197214c2"},"vehicle_type_id":"4","last_reported":1700600810,"current_range_meters":25600,"station_id":"ce4bhah2rcd13ifvqei0","pricing_plan_id":"free"},{"bike_id":"278e215b-8d4d-4543-a0fb-76752307b930","system_id":"levelo_inurba_marseille","lat":43.28462,"lon":5.35879,"is_reserved":false,"is_disabled":false,"rental_uris":{"android":"levelo://app?vid=278e215b-8d4d-4543-a0fb-76752307b930","ios":"levelo://app?vid=278e215b-8d4d-4543-a0fb-76752307b930"},"vehicle_type_id":"4","last_reported":1700600810,"current_range_meters":30400,"station_id":"ce4bhah2rcd13ifvqei0","pricing_plan_id":"free"},{"bike_id":"15ddadbb-0047-44fb-8c71-ff7ebd3ae4d3","system_id":"levelo_inurba_marseille","lat":43.284534,"lon":5.358662,"is_reserved":false,"is_disabled":false,"rental_uris":{"android":"levelo://app?vid=15ddadbb-0047-44fb-8c71-ff7ebd3ae4d3","ios":"levelo://app?vid=15ddadbb-0047-44fb-8c71-ff7ebd3ae4d3"},"vehicle_type_id":"4","last_reported":1700600810,"current_range_meters":25600,"station_id":"ce4bhah2rcd13ifvqei0","pricing_plan_id":"free"},{"bike_id":"3c7792f7-7e92-4b8f-bd4a-9b98fdfc5346","system_id":"levelo_inurba_marseille","lat":43.28459,"lon":5.35895,"is_reserved":false,"is_disabled":false,"rental_uris":{"android":"levelo://app?vid=3c7792f7-7e92-4b8f-bd4a-9b98fdfc5346","ios":"levelo://app?vid=3c7792f7-7e92-4b8f-bd4a-9b98fdfc5346"},"vehicle_type_id":"4","last_reported":1700600810,"current_range_meters":29600,"station_id":"ce4bhah2rcd13ifvqei0","pricing_plan_id":"free"},{"bike_id":"453fab20-5e89-48c3-b143-9d8335682de2","system_id":"levelo_inurba_marseille","lat":43.284598,"lon":5.358863,"is_reserved":false,"is_disabled":false,"rental_uris":{"android":"levelo://app?vid=453fab20-5e89-48c3-b143-9d8335682de2","ios":"levelo://app?vid=453fab20-5e89-48c3-b143-9d8335682de2"},"vehicle_type_id":"4","last_reported":1700600810,"current_range_meters":31200,"station_id":"ce4bhah2rcd13ifvqei0","pricing_plan_id":"free"},{"bike_id":"c4899c4c-8199-4647-bf2c-fc8c8282ade6","system_id":"levelo_inurba_marseille","lat":43.28459,"lon":5.358832,"is_reserved":false,"is_disabled":false,"rental_uris":{"android":"levelo://app?vid=c4899c4c-8199-4647-bf2c-fc8c8282ade6","ios":"levelo://app?vid=c4899c4c-8199-4647-bf2c-fc8c8282ade6"},"vehicle_type_id":"4","last_reported":1700600810,"current_range_meters":30400,"station_id":"ce4bhah2rcd13ifvqei0","pricing_plan_id":"free"},{"bike_id":"1e3253fe-acc7-479d-b14a-1fe8a141183c","system_id":"levelo_inurba_marseille","lat":43.284534,"lon":5.358662,"is_reserved":false,"is_disabled":false,"rental_uris":{"android":"levelo://app?vid=1e3253fe-acc7-479d-b14a-1fe8a141183c","ios":"levelo://app?vid=1e3253fe-acc7-479d-b14a-1fe8a141183c"},"vehicle_type_id":"4","last_reported":1700600810,"current_range_meters":28800,"station_id":"ce4bhah2rcd13ifvqei0","pricing_plan_id":"free"},{"bike_id":"e726453c-f0df-48ae-913a-222f08f0c172","system_id":"levelo_inurba_marseille","lat":43.28458,"lon":5.35882,"is_reserved":false,"is_disabled":false,"rental_uris":{"android":"levelo://app?vid=e726453c-f0df-48ae-913a-222f08f0c172","ios":"levelo://app?vid=e726453c-f0df-48ae-913a-222f08f0c172"},"vehicle_type_id":"4","last_reported":1700600810,"current_range_meters":30800,"station_id":"ce4bhah2rcd13ifvqei0","pricing_plan_id":"free"},{"bike_id":"1230b657-e005-4dad-b234-311363cb0927","system_id":"levelo_inurba_marseille","lat":43.284534,"lon":5.358662,"is_reserved":false,"is_disabled":false,"rental_uris":{"android":"levelo://app?vid=1230b657-e005-4dad-b234-311363cb0927","ios":"levelo://app?vid=1230b657-e005-4dad-b234-311363cb0927"},"vehicle_type_id":"4","last_reported":1700600810,"current_range_meters":30000,"station_id":"ce4bhah2rcd13ifvqei0","pricing_plan_id":"free"},{"bike_id":"32d0c4b3-4975-4c54-b911-a5834e4d69b1","system_id":"levelo_inurba_marseille","lat":43.2845,"lon":5.35902,"is_reserved":false,"is_disabled":false,"rental_uris":{"android":"levelo://app?vid=32d0c4b3-4975-4c54-b911-a5834e4d69b1","ios":"levelo://app?vid=32d0c4b3-4975-4c54-b911-a5834e4d69b1"},"vehicle_type_id":"4","last_reported":1700600810,"current_range_meters":31200,"station_id":"ce4bhah2rcd13ifvqei0","pricing_plan_id":"free"},{"bike_id":"9ad725ba-8857-4107-98f3-7efac68c7d1d","system_id":"levelo_inurba_marseille","lat":43.285856,"lon":5.350771,"is_reserved":false,"is_disabled":false,"rental_uris":{"android":"levelo://app?vid=9ad725ba-8857-4107-98f3-7efac68c7d1d","ios":"levelo://app?vid=9ad725ba-8857-4107-98f3-7efac68c7d1d"},"vehicle_type_id":"4","last_reported":1700600810,"current_range_meters":31200,"station_id":"ce4bhch2rcd13ifvqeug","pricing_plan_id":"free"},{"bike_id":"ce6948d1-e0ba-432a-8972-6a74ab291470","system_id":"levelo_inurba_marseille","lat":43.28617,"lon":5.35108,"is_reserved":false,"is_disabled":false,"rental_uris":{"android":"levelo://app?vid=ce6948d1-e0ba-432a-8972-6a74ab291470","ios":"levelo://app?vid=ce6948d1-e0ba-432a-8972-6a74ab291470"},"vehicle_type_id":"4","last_reported":1700600810,"current_range_meters":30800,"station_id":"ce4bhch2rcd13ifvqeug","pricing_plan_id":"free"},{"bike_id":"36043778-724e-41cd-9ad0-4790e36fb65d","system_id":"levelo_inurba_marseille","lat":43.286177,"lon":5.351034,"is_reserved":false,"is_disabled":false,"rental_uris":{"android":"levelo://app?vid=36043778-724e-41cd-9ad0-4790e36fb65d","ios":"levelo://app?vid=36043778-724e-41cd-9ad0-4790e36fb65d"},"vehicle_type_id":"4","last_reported":1700600810,"current_range_meters":30400,"station_id":"ce4bhch2rcd13ifvqeug","pricing_plan_id":"free"},{"bike_id":"048c235f-0c9d-48d0-a580-8c9e0281cf7a","system_id":"levelo_inurba_marseille","lat":43.285856,"lon":5.350771,"is_reserved":false,"is_disabled":false,"rental_uris":{"android":"levelo://app?vid=048c235f-0c9d-48d0-a580-8c9e0281cf7a","ios":"levelo://app?vid=048c235f-0c9d-48d0-a580-8c9e0281cf7a"},"vehicle_type_id":"4","last_reported":1700600810,"current_range_meters":30800,"station_id":"ce4bhch2rcd13ifvqeug","pricing_plan_id":"free"},{"bike_id":"47d82943-55b7-4d5f-81f3-ba919299497b","system_id":"levelo_inurba_marseille","lat":43.28612,"lon":5.35103,"is_reserved":false,"is_disabled":false,"rental_uris":{"android":"levelo://app?vid=47d82943-55b7-4d5f-81f3-ba919299497b","ios":"levelo://app?vid=47d82943-55b7-4d5f-81f3-ba919299497b"},"vehicle_type_id":"4","last_reported":1700600810,"current_range_meters":30400,"station_id":"ce4bhch2rcd13ifvqeug","pricing_plan_id":"free"},{"bike_id":"93591452-78a8-4deb-aa6d-58319e661151","system_id":"levelo_inurba_marseille","lat":43.286086,"lon":5.351127,"is_reserved":false,"is_disabled":false,"rental_uris":{"android":"levelo://app?vid=93591452-78a8-4deb-aa6d-58319e661151","ios":"levelo://app?vid=93591452-78a8-4deb-aa6d-58319e661151"},"vehicle_type_id":"4","last_reported":1700600810,"current_range_meters":25600,"station_id":"ce4bhch2rcd13ifvqeug","pricing_plan_id":"free"},{"bike_id":"acbb3f08-be93-413a-ad05-d6bf3384633c","system_id":"levelo_inurba_marseille","lat":43.283998,"lon":5.375062,"is_reserved":false,"is_disabled":false,"rental_uris":{"android":"levelo://app?vid=acbb3f08-be93-413a-ad05-d6bf3384633c","ios":"levelo://app?vid=acbb3f08-be93-413a-ad05-d6bf3384633c"},"vehicle_type_id":"4","last_reported":1700600810,"current_range_meters":6800,"station_id":"ce4bh412rcd13ifvqds0","pricing_plan_id":"free"},{"bike_id":"baaa1484-4f37-4797-b5dc-d4900932e067","system_id":"levelo_inurba_marseille","lat":43.286595,"lon":5.386795,"is_reserved":false,"is_disabled":false,"rental_uris":{"android":"levelo://app?vid=baaa1484-4f37-4797-b5dc-d4900932e067","ios":"levelo://app?vid=baaa1484-4f37-4797-b5dc-d4900932e067"},"vehicle_type_id":"4","last_reported":1700600810,"current_range_meters":12400,"station_id":"ce4bh492rcd13ifvqdug","pricing_plan_id":"free"},{"bike_id":"be2e9053-6a07-4690-b43a-c38c714fe3c5","system_id":"levelo_inurba_marseille","lat":43.318879,"lon":5.407288,"is_reserved":false,"is_disabled":false,"rental_uris":{"android":"levelo://app?vid=be2e9053-6a07-4690-b43a-c38c714fe3c5","ios":"levelo://app?vid=be2e9053-6a07-4690-b43a-c38c714fe3c5"},"vehicle_type_id":"4","last_reported":1700600810,"current_range_meters":6400,"station_id":"ce4bhq12rcd13ifvqhig","pricing_plan_id":"free"},{"bike_id":"35b19955-8c3e-4374-b999-0b151664b0e8","system_id":"levelo_inurba_marseille","lat":43.33237,"lon":5.3985,"is_reserved":false,"is_disabled":false,"rental_uris":{"android":"levelo://app?vid=35b19955-8c3e-4374-b999-0b151664b0e8","ios":"levelo://app?vid=35b19955-8c3e-4374-b999-0b151664b0e8"},"vehicle_type_id":"4","last_reported":1700600810,"current_range_meters":0,"station_id":"","pricing_plan_id":"free"},{"bike_id":"641932c5-19e2-4901-9c84-b288f7cafb16","system_id":"levelo_inurba_marseille","lat":43.323464,"lon":5.406297,"is_reserved":false,"is_disabled":false,"rental_uris":{"android":"levelo://app?vid=641932c5-19e2-4901-9c84-b288f7cafb16","ios":"levelo://app?vid=641932c5-19e2-4901-9c84-b288f7cafb16"},"vehicle_type_id":"4","last_reported":1700600810,"current_range_meters":30000,"station_id":"ce4bhq92rcd13ifvqhjg","pricing_plan_id":"free"},{"bike_id":"b4319b18-5548-4691-90e2-2eac47989fae","system_id":"levelo_inurba_marseille","lat":43.323464,"lon":5.406297,"is_reserved":false,"is_disabled":false,"rental_uris":{"android":"levelo://app?vid=b4319b18-5548-4691-90e2-2eac47989fae","ios":"levelo://app?vid=b4319b18-5548-4691-90e2-2eac47989fae"},"vehicle_type_id":"4","last_reported":1700600810,"current_range_meters":31200,"station_id":"ce4bhq92rcd13ifvqhjg","pricing_plan_id":"free"},{"bike_id":"a49b642a-ddce-4054-9535-ebba069d2b5b","system_id":"levelo_inurba_marseille","lat":43.284793,"lon":5.384113,"is_reserved":false,"is_disabled":false,"rental_uris":{"android":"levelo://app?vid=a49b642a-ddce-4054-9535-ebba069d2b5b","ios":"levelo://app?vid=a49b642a-ddce-4054-9535-ebba069d2b5b"},"vehicle_type_id":"4","last_reported":1700600810,"current_range_meters":28000,"station_id":"ce4bh512rcd13ifvqe3g","pricing_plan_id":"free"},{"bike_id":"9b16b41a-970d-41c2-a616-7504e43eb9ce","system_id":"levelo_inurba_marseille","lat":43.288501,"lon":5.393087,"is_reserved":false,"is_disabled":false,"rental_uris":{"android":"levelo://app?vid=9b16b41a-970d-41c2-a616-7504e43eb9ce","ios":"levelo://app?vid=9b16b41a-970d-41c2-a616-7504e43eb9ce"},"vehicle_type_id":"4","last_reported":1700600810,"current_range_meters":0,"station_id":"ce4bh2p2rcd13ifvqdi0","pricing_plan_id":"free"},{"bike_id":"0a60cb73-7eb2-45b5-8a43-b80c6792df93","system_id":"levelo_inurba_marseille","lat":43.288501,"lon":5.393087,"is_reserved":false,"is_disabled":false,"rental_uris":{"android":"levelo://app?vid=0a60cb73-7eb2-45b5-8a43-b80c6792df93","ios":"levelo://app?vid=0a60cb73-7eb2-45b5-8a43-b80c6792df93"},"vehicle_type_id":"4","last_reported":1700600810,"current_range_meters":6400,"station_id":"ce4bh2p2rcd13ifvqdi0","pricing_plan_id":"free"},{"bike_id":"91844fa1-c6b6-42f2-a920-456e973a7656","system_id":"levelo_inurba_marseille","lat":43.288501,"lon":5.393087,"is_reserved":false,"is_disabled":false,"rental_uris":{"android":"levelo://app?vid=91844fa1-c6b6-42f2-a920-456e973a7656","ios":"levelo://app?vid=91844fa1-c6b6-42f2-a920-456e973a7656"},"vehicle_type_id":"4","last_reported":1700600810,"current_range_meters":25200,"station_id":"ce4bh2p2rcd13ifvqdi0","pricing_plan_id":"free"},{"bike_id":"4fa76ccc-754e-4c35-bbd0-9eef54ae9dc7","system_id":"levelo_inurba_marseille","lat":43.283498,"lon":5.380948,"is_reserved":false,"is_disabled":false,"rental_uris":{"android":"levelo://app?vid=4fa76ccc-754e-4c35-bbd0-9eef54ae9dc7","ios":"levelo://app?vid=4fa76ccc-754e-4c35-bbd0-9eef54ae9dc7"},"vehicle_type_id":"4","last_reported":1700600810,"current_range_meters":5200,"station_id":"ce4bh412rcd13ifvqdr0","pricing_plan_id":"free"},{"bike_id":"e57c9540-512f-4490-8f63-010ef0e8c825","system_id":"levelo_inurba_marseille","lat":43.284219,"lon":5.3497,"is_reserved":false,"is_disabled":false,"rental_uris":{"android":"levelo://app?vid=e57c9540-512f-4490-8f63-010ef0e8c825","ios":"levelo://app?vid=e57c9540-512f-4490-8f63-010ef0e8c825"},"vehicle_type_id":"4","last_reported":1700600810,"current_range_meters":28000,"station_id":"ce4bhbh2rcd13ifvqepg","pricing_plan_id":"free"},{"bike_id":"a915fd1c-9128-4c2f-bc4f-b0c446622785","system_id":"levelo_inurba_marseille","lat":43.284217,"lon":5.349697,"is_reserved":false,"is_disabled":false,"rental_uris":{"android":"levelo://app?vid=a915fd1c-9128-4c2f-bc4f-b0c446622785","ios":"levelo://app?vid=a915fd1c-9128-4c2f-bc4f-b0c446622785"},"vehicle_type_id":"4","last_reported":1700600810,"current_range_meters":25600,"station_id":"ce4bhbh2rcd13ifvqepg","pricing_plan_id":"free"},{"bike_id":"c8cfd9ab-d3bf-4c62-a1f3-f8793f300892","system_id":"levelo_inurba_marseille","lat":43.28416,"lon":5.349928,"is_reserved":false,"is_disabled":false,"rental_uris":{"android":"levelo://app?vid=c8cfd9ab-d3bf-4c62-a1f3-f8793f300892","ios":"levelo://app?vid=c8cfd9ab-d3bf-4c62-a1f3-f8793f300892"},"vehicle_type_id":"4","last_reported":1700600810,"current_range_meters":30000,"station_id":"ce4bhbh2rcd13ifvqepg","pricing_plan_id":"free"},{"bike_id":"d3d44255-b9b0-4f87-a1e0-5f21f6b8f276","system_id":"levelo_inurba_marseille","lat":43.292724,"lon":5.401131,"is_reserved":false,"is_disabled":false,"rental_uris":{"android":"levelo://app?vid=d3d44255-b9b0-4f87-a1e0-5f21f6b8f276","ios":"levelo://app?vid=d3d44255-b9b0-4f87-a1e0-5f21f6b8f276"},"vehicle_type_id":"4","last_reported":1700600810,"current_range_meters":10000,"station_id":"ce4bh312rcd13ifvqdk0","pricing_plan_id":"free"},{"bike_id":"6d068ae4-8aba-4958-a002-11c2ac3f318a","system_id":"levelo_inurba_marseille","lat":43.282754,"lon":5.350519,"is_reserved":false,"is_disabled":false,"rental_uris":{"android":"levelo://app?vid=6d068ae4-8aba-4958-a002-11c2ac3f318a","ios":"levelo://app?vid=6d068ae4-8aba-4958-a002-11c2ac3f318a"},"vehicle_type_id":"4","last_reported":1700600810,"current_range_meters":30800,"station_id":"ce4bhbp2rcd13ifvqerg","pricing_plan_id":"free"},{"bike_id":"0571e252-5acc-4741-aa6f-ba8321e320f8","system_id":"levelo_inurba_marseille","lat":43.282744,"lon":5.350533,"is_reserved":false,"is_disabled":false,"rental_uris":{"android":"levelo://app?vid=0571e252-5acc-4741-aa6f-ba8321e320f8","ios":"levelo://app?vid=0571e252-5acc-4741-aa6f-ba8321e320f8"},"vehicle_type_id":"4","last_reported":1700600810,"current_range_meters":31600,"station_id":"ce4bhbp2rcd13ifvqerg","pricing_plan_id":"free"},{"bike_id":"29b2d1ae-72bd-4a6b-9046-838ae37f2595","system_id":"levelo_inurba_marseille","lat":43.282754,"lon":5.350519,"is_reserved":false,"is_disabled":false,"rental_uris":{"android":"levelo://app?vid=29b2d1ae-72bd-4a6b-9046-838ae37f2595","ios":"levelo://app?vid=29b2d1ae-72bd-4a6b-9046-838ae37f2595"},"vehicle_type_id":"4","last_reported":1700600810,"current_range_meters":31200,"station_id":"ce4bhbp2rcd13ifvqerg","pricing_plan_id":"free"},{"bike_id":"f67f1079-4710-467e-8c34-9d2002a36f9b","system_id":"levelo_inurba_marseille","lat":43.282744,"lon":5.350533,"is_reserved":false,"is_disabled":false,"rental_uris":{"android":"levelo://app?vid=f67f1079-4710-467e-8c34-9d2002a36f9b","ios":"levelo://app?vid=f67f1079-4710-467e-8c34-9d2002a36f9b"},"vehicle_type_id":"4","last_reported":1700600810,"current_range_meters":24800,"station_id":"ce4bhbp2rcd13ifvqerg","pricing_plan_id":"free"},{"bike_id":"74e481aa-25b5-4f5b-b8cd-79b4a634f242","system_id":"levelo_inurba_marseille","lat":43.282674,"lon":5.350775,"is_reserved":false,"is_disabled":false,"rental_uris":{"android":"levelo://app?vid=74e481aa-25b5-4f5b-b8cd-79b4a634f242","ios":"levelo://app?vid=74e481aa-25b5-4f5b-b8cd-79b4a634f242"},"vehicle_type_id":"4","last_reported":1700600810,"current_range_meters":31200,"station_id":"ce4bhbp2rcd13ifvqerg","pricing_plan_id":"free"},{"bike_id":"49b4c011-618e-45f7-b321-5a2afe0f4e49","system_id":"levelo_inurba_marseille","lat":43.282754,"lon":5.350519,"is_reserved":false,"is_disabled":false,"rental_uris":{"android":"levelo://app?vid=49b4c011-618e-45f7-b321-5a2afe0f4e49","ios":"levelo://app?vid=49b4c011-618e-45f7-b321-5a2afe0f4e49"},"vehicle_type_id":"4","last_reported":1700600810,"current_range_meters":28800,"station_id":"ce4bhbp2rcd13ifvqerg","pricing_plan_id":"free"},{"bike_id":"aa4139f5-27aa-49e1-a8f1-fc54a1da2de8","system_id":"levelo_inurba_marseille","lat":43.280341,"lon":5.369546,"is_reserved":false,"is_disabled":false,"rental_uris":{"android":"levelo://app?vid=aa4139f5-27aa-49e1-a8f1-fc54a1da2de8","ios":"levelo://app?vid=aa4139f5-27aa-49e1-a8f1-fc54a1da2de8"},"vehicle_type_id":"4","last_reported":1700600810,"current_range_meters":15200,"station_id":"ce4bha12rcd13ifvqef0","pricing_plan_id":"free"},{"bike_id":"eace2be8-2781-4338-ba7d-44b9df37bcb4","system_id":"levelo_inurba_marseille","lat":43.28032,"lon":5.36946,"is_reserved":false,"is_disabled":false,"rental_uris":{"android":"levelo://app?vid=eace2be8-2781-4338-ba7d-44b9df37bcb4","ios":"levelo://app?vid=eace2be8-2781-4338-ba7d-44b9df37bcb4"},"vehicle_type_id":"4","last_reported":1700600810,"current_range_meters":31200,"station_id":"ce4bha12rcd13ifvqef0","pricing_plan_id":"free"},{"bike_id":"15c37d9f-ad9f-4b2e-a894-6fdc82fe94a9","system_id":"levelo_inurba_marseille","lat":43.290412,"lon":5.399633,"is_reserved":false,"is_disabled":false,"rental_uris":{"android":"levelo://app?vid=15c37d9f-ad9f-4b2e-a894-6fdc82fe94a9","ios":"levelo://app?vid=15c37d9f-ad9f-4b2e-a894-6fdc82fe94a9"},"vehicle_type_id":"4","last_reported":1700600810,"current_range_meters":0,"station_id":"ce4bh392rcd13ifvqdm0","pricing_plan_id":"free"},{"bike_id":"5eba4dee-ffd0-43cd-9b11-aff5fe48a5b6","system_id":"levelo_inurba_marseille","lat":43.281044,"lon":5.378308,"is_reserved":false,"is_disabled":false,"rental_uris":{"android":"levelo://app?vid=5eba4dee-ffd0-43cd-9b11-aff5fe48a5b6","ios":"levelo://app?vid=5eba4dee-ffd0-43cd-9b11-aff5fe48a5b6"},"vehicle_type_id":"4","last_reported":1700600810,"current_range_meters":30400,"station_id":"ce4bha12rcd13ifvqee0","pricing_plan_id":"free"},{"bike_id":"5645c4d2-5495-4568-9ae0-b4eb2965e68f","system_id":"levelo_inurba_marseille","lat":43.284462,"lon":5.392121,"is_reserved":false,"is_disabled":false,"rental_uris":{"android":"levelo://app?vid=5645c4d2-5495-4568-9ae0-b4eb2965e68f","ios":"levelo://app?vid=5645c4d2-5495-4568-9ae0-b4eb2965e68f"},"vehicle_type_id":"4","last_reported":1700600810,"current_range_meters":11600,"station_id":"ce4bhoh2rcd13ifvqh5g","pricing_plan_id":"free"},{"bike_id":"5d2f5558-0276-4c45-aa8c-e9772d542e57","system_id":"levelo_inurba_marseille","lat":43.279087,"lon":5.380114,"is_reserved":false,"is_disabled":false,"rental_uris":{"android":"levelo://app?vid=5d2f5558-0276-4c45-aa8c-e9772d542e57","ios":"levelo://app?vid=5d2f5558-0276-4c45-aa8c-e9772d542e57"},"vehicle_type_id":"4","last_reported":1700600810,"current_range_meters":20000,"station_id":"ce4bhf92rcd13ifvqf50","pricing_plan_id":"free"},{"bike_id":"910bc7b9-7625-489e-8b67-479a173a44fd","system_id":"levelo_inurba_marseille","lat":43.279087,"lon":5.380114,"is_reserved":false,"is_disabled":false,"rental_uris":{"android":"levelo://app?vid=910bc7b9-7625-489e-8b67-479a173a44fd","ios":"levelo://app?vid=910bc7b9-7625-489e-8b67-479a173a44fd"},"vehicle_type_id":"4","last_reported":1700600810,"current_range_meters":19600,"station_id":"ce4bhf92rcd13ifvqf50","pricing_plan_id":"free"},{"bike_id":"4e099e90-709e-4c69-b3ab-2311f879de30","system_id":"levelo_inurba_marseille","lat":43.279087,"lon":5.380114,"is_reserved":false,"is_disabled":false,"rental_uris":{"android":"levelo://app?vid=4e099e90-709e-4c69-b3ab-2311f879de30","ios":"levelo://app?vid=4e099e90-709e-4c69-b3ab-2311f879de30"},"vehicle_type_id":"4","last_reported":1700600810,"current_range_meters":6400,"station_id":"ce4bhf92rcd13ifvqf50","pricing_plan_id":"free"},{"bike_id":"cf7c6503-d761-4e4a-b826-f55f74848caf","system_id":"levelo_inurba_marseille","lat":43.34884,"lon":5.3751,"is_reserved":false,"is_disabled":false,"rental_uris":{"android":"levelo://app?vid=cf7c6503-d761-4e4a-b826-f55f74848caf","ios":"levelo://app?vid=cf7c6503-d761-4e4a-b826-f55f74848caf"},"vehicle_type_id":"4","last_reported":1700600810,"current_range_meters":8000,"station_id":"","pricing_plan_id":"free"},{"bike_id":"99910196-7961-4864-9b7f-aa855b0dbd3e","system_id":"levelo_inurba_marseille","lat":43.292571,"lon":5.409107,"is_reserved":false,"is_disabled":false,"rental_uris":{"android":"levelo://app?vid=99910196-7961-4864-9b7f-aa855b0dbd3e","ios":"levelo://app?vid=99910196-7961-4864-9b7f-aa855b0dbd3e"},"vehicle_type_id":"4","last_reported":1700600810,"current_range_meters":2400,"station_id":"ce4bh192rcd13ifvqdc0","pricing_plan_id":"free"},{"bike_id":"affa9838-1d34-49b1-9501-67e5b2e23ba1","system_id":"levelo_inurba_marseille","lat":43.292569,"lon":5.409107,"is_reserved":false,"is_disabled":false,"rental_uris":{"android":"levelo://app?vid=affa9838-1d34-49b1-9501-67e5b2e23ba1","ios":"levelo://app?vid=affa9838-1d34-49b1-9501-67e5b2e23ba1"},"vehicle_type_id":"4","last_reported":1700600810,"current_range_meters":9600,"station_id":"ce4bh192rcd13ifvqdc0","pricing_plan_id":"free"},{"bike_id":"736b1083-7c43-440b-ad19-86b49321d04b","system_id":"levelo_inurba_marseille","lat":43.27953,"lon":5.39318,"is_reserved":false,"is_disabled":false,"rental_uris":{"android":"levelo://app?vid=736b1083-7c43-440b-ad19-86b49321d04b","ios":"levelo://app?vid=736b1083-7c43-440b-ad19-86b49321d04b"},"vehicle_type_id":"4","last_reported":1700600810,"current_range_meters":0,"station_id":"","pricing_plan_id":"free"},{"bike_id":"094903b1-167e-41c9-983f-be2bb2c37b6e","system_id":"levelo_inurba_marseille","lat":43.280784,"lon":5.396622,"is_reserved":false,"is_disabled":false,"rental_uris":{"android":"levelo://app?vid=094903b1-167e-41c9-983f-be2bb2c37b6e","ios":"levelo://app?vid=094903b1-167e-41c9-983f-be2bb2c37b6e"},"vehicle_type_id":"4","last_reported":1700600810,"current_range_meters":20400,"station_id":"ce4bho12rcd13ifvqh2g","pricing_plan_id":"free"},{"bike_id":"d65ab4eb-afa9-4947-95aa-4d34d092c20d","system_id":"levelo_inurba_marseille","lat":43.280784,"lon":5.396622,"is_reserved":false,"is_disabled":false,"rental_uris":{"android":"levelo://app?vid=d65ab4eb-afa9-4947-95aa-4d34d092c20d","ios":"levelo://app?vid=d65ab4eb-afa9-4947-95aa-4d34d092c20d"},"vehicle_type_id":"4","last_reported":1700600810,"current_range_meters":21200,"station_id":"ce4bho12rcd13ifvqh2g","pricing_plan_id":"free"},{"bike_id":"f82a2d6f-bf3a-4360-8f4b-d5ede153ebff","system_id":"levelo_inurba_marseille","lat":43.280784,"lon":5.396622,"is_reserved":false,"is_disabled":false,"rental_uris":{"android":"levelo://app?vid=f82a2d6f-bf3a-4360-8f4b-d5ede153ebff","ios":"levelo://app?vid=f82a2d6f-bf3a-4360-8f4b-d5ede153ebff"},"vehicle_type_id":"4","last_reported":1700600810,"current_range_meters":13600,"station_id":"ce4bho12rcd13ifvqh2g","pricing_plan_id":"free"},{"bike_id":"b1a2ce96-1aae-47e8-bccb-bd9f82b39540","system_id":"levelo_inurba_marseille","lat":43.30355,"lon":5.41884,"is_reserved":false,"is_disabled":false,"rental_uris":{"android":"levelo://app?vid=b1a2ce96-1aae-47e8-bccb-bd9f82b39540","ios":"levelo://app?vid=b1a2ce96-1aae-47e8-bccb-bd9f82b39540"},"vehicle_type_id":"4","last_reported":1700600810,"current_range_meters":0,"station_id":"ce4bhop2rcd13ifvqh7g","pricing_plan_id":"free"},{"bike_id":"88fdd8f0-3689-4857-af04-f7263958a8f2","system_id":"levelo_inurba_marseille","lat":43.273609,"lon":5.362708,"is_reserved":false,"is_disabled":false,"rental_uris":{"android":"levelo://app?vid=88fdd8f0-3689-4857-af04-f7263958a8f2","ios":"levelo://app?vid=88fdd8f0-3689-4857-af04-f7263958a8f2"},"vehicle_type_id":"4","last_reported":1700600810,"current_range_meters":14800,"station_id":"ce4bhbh2rcd13ifvqeo0","pricing_plan_id":"free"},{"bike_id":"e1b55124-3678-4f35-bcd5-df0abc78cbb3","system_id":"levelo_inurba_marseille","lat":43.33612,"lon":5.410321,"is_reserved":false,"is_disabled":false,"rental_uris":{"android":"levelo://app?vid=e1b55124-3678-4f35-bcd5-df0abc78cbb3","ios":"levelo://app?vid=e1b55124-3678-4f35-bcd5-df0abc78cbb3"},"vehicle_type_id":"4","last_reported":1700600810,"current_range_meters":28000,"station_id":"ce4bhqh2rcd13ifvqhmg","pricing_plan_id":"free"},{"bike_id":"9f0c418d-62e7-45d4-87d2-6c8423eebd87","system_id":"levelo_inurba_marseille","lat":43.279952,"lon":5.400085,"is_reserved":false,"is_disabled":false,"rental_uris":{"android":"levelo://app?vid=9f0c418d-62e7-45d4-87d2-6c8423eebd87","ios":"levelo://app?vid=9f0c418d-62e7-45d4-87d2-6c8423eebd87"},"vehicle_type_id":"4","last_reported":1700600810,"current_range_meters":29600,"station_id":"ce4bho92rcd13ifvqh4g","pricing_plan_id":"free"},{"bike_id":"2d7d037c-a17b-4d67-b51b-478885809ba3","system_id":"levelo_inurba_marseille","lat":43.279952,"lon":5.400085,"is_reserved":false,"is_disabled":false,"rental_uris":{"android":"levelo://app?vid=2d7d037c-a17b-4d67-b51b-478885809ba3","ios":"levelo://app?vid=2d7d037c-a17b-4d67-b51b-478885809ba3"},"vehicle_type_id":"4","last_reported":1700600810,"current_range_meters":31200,"station_id":"ce4bho92rcd13ifvqh4g","pricing_plan_id":"free"},{"bike_id":"3bfa0976-7f7d-4d39-9c8b-5307944446d6","system_id":"levelo_inurba_marseille","lat":43.28002,"lon":5.40006,"is_reserved":false,"is_disabled":false,"rental_uris":{"android":"levelo://app?vid=3bfa0976-7f7d-4d39-9c8b-5307944446d6","ios":"levelo://app?vid=3bfa0976-7f7d-4d39-9c8b-5307944446d6"},"vehicle_type_id":"4","last_reported":1700600810,"current_range_meters":29200,"station_id":"ce4bho92rcd13ifvqh4g","pricing_plan_id":"free"},{"bike_id":"b5205dcc-29c6-40b2-8ad9-7dccfb0e095a","system_id":"levelo_inurba_marseille","lat":43.279952,"lon":5.400085,"is_reserved":false,"is_disabled":false,"rental_uris":{"android":"levelo://app?vid=b5205dcc-29c6-40b2-8ad9-7dccfb0e095a","ios":"levelo://app?vid=b5205dcc-29c6-40b2-8ad9-7dccfb0e095a"},"vehicle_type_id":"4","last_reported":1700600810,"current_range_meters":30800,"station_id":"ce4bho92rcd13ifvqh4g","pricing_plan_id":"free"},{"bike_id":"57c3f3f4-0cd5-4104-9546-deca7ce974c9","system_id":"levelo_inurba_marseille","lat":43.279952,"lon":5.400085,"is_reserved":false,"is_disabled":false,"rental_uris":{"android":"levelo://app?vid=57c3f3f4-0cd5-4104-9546-deca7ce974c9","ios":"levelo://app?vid=57c3f3f4-0cd5-4104-9546-deca7ce974c9"},"vehicle_type_id":"4","last_reported":1700600810,"current_range_meters":26000,"station_id":"ce4bho92rcd13ifvqh4g","pricing_plan_id":"free"},{"bike_id":"6f6071c9-3b55-43d1-b05c-e5b16dd91d1c","system_id":"levelo_inurba_marseille","lat":43.279952,"lon":5.400085,"is_reserved":false,"is_disabled":false,"rental_uris":{"android":"levelo://app?vid=6f6071c9-3b55-43d1-b05c-e5b16dd91d1c","ios":"levelo://app?vid=6f6071c9-3b55-43d1-b05c-e5b16dd91d1c"},"vehicle_type_id":"4","last_reported":1700600810,"current_range_meters":14400,"station_id":"ce4bho92rcd13ifvqh4g","pricing_plan_id":"free"},{"bike_id":"85bf9ec3-1169-48ae-88be-8caa8f1c3fa7","system_id":"levelo_inurba_marseille","lat":43.27998,"lon":5.40008,"is_reserved":false,"is_disabled":false,"rental_uris":{"android":"levelo://app?vid=85bf9ec3-1169-48ae-88be-8caa8f1c3fa7","ios":"levelo://app?vid=85bf9ec3-1169-48ae-88be-8caa8f1c3fa7"},"vehicle_type_id":"4","last_reported":1700600810,"current_range_meters":31200,"station_id":"ce4bho92rcd13ifvqh4g","pricing_plan_id":"free"},{"bike_id":"f592a8e4-d835-48a1-a603-e4deb75f98bb","system_id":"levelo_inurba_marseille","lat":43.27995,"lon":5.40012,"is_reserved":false,"is_disabled":false,"rental_uris":{"android":"levelo://app?vid=f592a8e4-d835-48a1-a603-e4deb75f98bb","ios":"levelo://app?vid=f592a8e4-d835-48a1-a603-e4deb75f98bb"},"vehicle_type_id":"4","last_reported":1700600810,"current_range_meters":16400,"station_id":"ce4bho92rcd13ifvqh4g","pricing_plan_id":"free"},{"bike_id":"d78c0502-53bb-4c6a-94b2-c73cd6f0904e","system_id":"levelo_inurba_marseille","lat":43.279952,"lon":5.400085,"is_reserved":false,"is_disabled":false,"rental_uris":{"android":"levelo://app?vid=d78c0502-53bb-4c6a-94b2-c73cd6f0904e","ios":"levelo://app?vid=d78c0502-53bb-4c6a-94b2-c73cd6f0904e"},"vehicle_type_id":"4","last_reported":1700600810,"current_range_meters":28800,"station_id":"ce4bho92rcd13ifvqh4g","pricing_plan_id":"free"},{"bike_id":"132963d4-79cc-40f4-81e8-9df7bcbc3078","system_id":"levelo_inurba_marseille","lat":43.27997,"lon":5.40018,"is_reserved":false,"is_disabled":false,"rental_uris":{"android":"levelo://app?vid=132963d4-79cc-40f4-81e8-9df7bcbc3078","ios":"levelo://app?vid=132963d4-79cc-40f4-81e8-9df7bcbc3078"},"vehicle_type_id":"4","last_reported":1700600810,"current_range_meters":31200,"station_id":"ce4bho92rcd13ifvqh4g","pricing_plan_id":"free"},{"bike_id":"dedd9891-c9b4-49e9-ace9-7c9c3068a2fe","system_id":"levelo_inurba_marseille","lat":43.279952,"lon":5.400085,"is_reserved":false,"is_disabled":false,"rental_uris":{"android":"levelo://app?vid=dedd9891-c9b4-49e9-ace9-7c9c3068a2fe","ios":"levelo://app?vid=dedd9891-c9b4-49e9-ace9-7c9c3068a2fe"},"vehicle_type_id":"4","last_reported":1700600810,"current_range_meters":30000,"station_id":"ce4bho92rcd13ifvqh4g","pricing_plan_id":"free"},{"bike_id":"b41d3944-bf97-4e30-8da0-36b4be7a9429","system_id":"levelo_inurba_marseille","lat":43.279952,"lon":5.400085,"is_reserved":false,"is_disabled":false,"rental_uris":{"android":"levelo://app?vid=b41d3944-bf97-4e30-8da0-36b4be7a9429","ios":"levelo://app?vid=b41d3944-bf97-4e30-8da0-36b4be7a9429"},"vehicle_type_id":"4","last_reported":1700600810,"current_range_meters":31200,"station_id":"ce4bho92rcd13ifvqh4g","pricing_plan_id":"free"},{"bike_id":"0b7925e1-ca23-4c79-bc2f-aa8ffbf6c4c4","system_id":"levelo_inurba_marseille","lat":43.279952,"lon":5.400085,"is_reserved":false,"is_disabled":false,"rental_uris":{"android":"levelo://app?vid=0b7925e1-ca23-4c79-bc2f-aa8ffbf6c4c4","ios":"levelo://app?vid=0b7925e1-ca23-4c79-bc2f-aa8ffbf6c4c4"},"vehicle_type_id":"4","last_reported":1700600810,"current_range_meters":28000,"station_id":"ce4bho92rcd13ifvqh4g","pricing_plan_id":"free"},{"bike_id":"685b64b8-b7bc-4da3-9f11-7c3d6189d529","system_id":"levelo_inurba_marseille","lat":43.310788,"lon":5.424274,"is_reserved":false,"is_disabled":false,"rental_uris":{"android":"levelo://app?vid=685b64b8-b7bc-4da3-9f11-7c3d6189d529","ios":"levelo://app?vid=685b64b8-b7bc-4da3-9f11-7c3d6189d529"},"vehicle_type_id":"4","last_reported":1700600810,"current_range_meters":0,"station_id":"ce4bhp92rcd13ifvqhag","pricing_plan_id":"free"},{"bike_id":"114187af-32af-4dba-9a5b-7cf8db15d20c","system_id":"levelo_inurba_marseille","lat":43.310785,"lon":5.424305,"is_reserved":false,"is_disabled":false,"rental_uris":{"android":"levelo://app?vid=114187af-32af-4dba-9a5b-7cf8db15d20c","ios":"levelo://app?vid=114187af-32af-4dba-9a5b-7cf8db15d20c"},"vehicle_type_id":"4","last_reported":1700600810,"current_range_meters":30400,"station_id":"ce4bhp92rcd13ifvqhag","pricing_plan_id":"free"},{"bike_id":"ac9bf6a1-c96f-4133-87a6-52d4b07e03ea","system_id":"levelo_inurba_marseille","lat":43.317121,"lon":5.423936,"is_reserved":false,"is_disabled":false,"rental_uris":{"android":"levelo://app?vid=ac9bf6a1-c96f-4133-87a6-52d4b07e03ea","ios":"levelo://app?vid=ac9bf6a1-c96f-4133-87a6-52d4b07e03ea"},"vehicle_type_id":"4","last_reported":1700600810,"current_range_meters":27600,"station_id":"ce4bhp92rcd13ifvqhbg","pricing_plan_id":"free"},{"bike_id":"046a1592-e371-4373-8640-74aebd7f5e72","system_id":"levelo_inurba_marseille","lat":43.340804,"lon":5.410219,"is_reserved":false,"is_disabled":false,"rental_uris":{"android":"levelo://app?vid=046a1592-e371-4373-8640-74aebd7f5e72","ios":"levelo://app?vid=046a1592-e371-4373-8640-74aebd7f5e72"},"vehicle_type_id":"4","last_reported":1700600810,"current_range_meters":11200,"station_id":"ce4bhqh2rcd13ifvqhlg","pricing_plan_id":"free"},{"bike_id":"f592bd96-cc29-4f0f-b6af-90518383de8e","system_id":"levelo_inurba_marseille","lat":43.340804,"lon":5.410219,"is_reserved":false,"is_disabled":false,"rental_uris":{"android":"levelo://app?vid=f592bd96-cc29-4f0f-b6af-90518383de8e","ios":"levelo://app?vid=f592bd96-cc29-4f0f-b6af-90518383de8e"},"vehicle_type_id":"4","last_reported":1700600810,"current_range_meters":18000,"station_id":"ce4bhqh2rcd13ifvqhlg","pricing_plan_id":"free"},{"bike_id":"61d6d11b-ac8b-4c81-8380-d0ef96302c3b","system_id":"levelo_inurba_marseille","lat":43.274103,"lon":5.394016,"is_reserved":false,"is_disabled":false,"rental_uris":{"android":"levelo://app?vid=61d6d11b-ac8b-4c81-8380-d0ef96302c3b","ios":"levelo://app?vid=61d6d11b-ac8b-4c81-8380-d0ef96302c3b"},"vehicle_type_id":"4","last_reported":1700600810,"current_range_meters":26000,"station_id":"ce4bhdp2rcd13ifvqf20","pricing_plan_id":"free"},{"bike_id":"d63f0213-db4d-4ade-9fb5-b0161bcbc51a","system_id":"levelo_inurba_marseille","lat":43.272214,"lon":5.392631,"is_reserved":false,"is_disabled":false,"rental_uris":{"android":"levelo://app?vid=d63f0213-db4d-4ade-9fb5-b0161bcbc51a","ios":"levelo://app?vid=d63f0213-db4d-4ade-9fb5-b0161bcbc51a"},"vehicle_type_id":"4","last_reported":1700600810,"current_range_meters":0,"station_id":"","pricing_plan_id":"free"},{"bike_id":"d0bb53f7-f1b8-4609-a668-27efdac67f66","system_id":"levelo_inurba_marseille","lat":43.27198,"lon":5.3925,"is_reserved":false,"is_disabled":false,"rental_uris":{"android":"levelo://app?vid=d0bb53f7-f1b8-4609-a668-27efdac67f66","ios":"levelo://app?vid=d0bb53f7-f1b8-4609-a668-27efdac67f66"},"vehicle_type_id":"4","last_reported":1700600810,"current_range_meters":0,"station_id":"","pricing_plan_id":"free"},{"bike_id":"cbc2fb9f-e1d7-438a-87af-611b36f7eeb3","system_id":"levelo_inurba_marseille","lat":43.271891,"lon":5.392412,"is_reserved":false,"is_disabled":false,"rental_uris":{"android":"levelo://app?vid=cbc2fb9f-e1d7-438a-87af-611b36f7eeb3","ios":"levelo://app?vid=cbc2fb9f-e1d7-438a-87af-611b36f7eeb3"},"vehicle_type_id":"4","last_reported":1700600810,"current_range_meters":0,"station_id":"","pricing_plan_id":"free"},{"bike_id":"38c8ef2a-9778-459e-bc44-4209d3ca8425","system_id":"levelo_inurba_marseille","lat":43.278128,"lon":5.407195,"is_reserved":false,"is_disabled":false,"rental_uris":{"android":"levelo://app?vid=38c8ef2a-9778-459e-bc44-4209d3ca8425","ios":"levelo://app?vid=38c8ef2a-9778-459e-bc44-4209d3ca8425"},"vehicle_type_id":"4","last_reported":1700600810,"current_range_meters":31200,"station_id":"ce4bhnh2rcd13ifvqgtg","pricing_plan_id":"free"},{"bike_id":"32d94b9f-116c-4ef2-8fde-7564ce1f654f","system_id":"levelo_inurba_marseille","lat":43.278128,"lon":5.407195,"is_reserved":false,"is_disabled":false,"rental_uris":{"android":"levelo://app?vid=32d94b9f-116c-4ef2-8fde-7564ce1f654f","ios":"levelo://app?vid=32d94b9f-116c-4ef2-8fde-7564ce1f654f"},"vehicle_type_id":"4","last_reported":1700600810,"current_range_meters":31200,"station_id":"ce4bhnh2rcd13ifvqgtg","pricing_plan_id":"free"},{"bike_id":"1572dbcb-5946-43d5-a4ce-858036952bd9","system_id":"levelo_inurba_marseille","lat":43.278128,"lon":5.407195,"is_reserved":false,"is_disabled":false,"rental_uris":{"android":"levelo://app?vid=1572dbcb-5946-43d5-a4ce-858036952bd9","ios":"levelo://app?vid=1572dbcb-5946-43d5-a4ce-858036952bd9"},"vehicle_type_id":"4","last_reported":1700600810,"current_range_meters":31200,"station_id":"ce4bhnh2rcd13ifvqgtg","pricing_plan_id":"free"},{"bike_id":"6fc9ab62-d9b2-4af4-9845-02af5df50bde","system_id":"levelo_inurba_marseille","lat":43.278128,"lon":5.407195,"is_reserved":false,"is_disabled":false,"rental_uris":{"android":"levelo://app?vid=6fc9ab62-d9b2-4af4-9845-02af5df50bde","ios":"levelo://app?vid=6fc9ab62-d9b2-4af4-9845-02af5df50bde"},"vehicle_type_id":"4","last_reported":1700600810,"current_range_meters":31200,"station_id":"ce4bhnh2rcd13ifvqgtg","pricing_plan_id":"free"},{"bike_id":"ec166817-0bff-49c5-bade-210bd2da7e7a","system_id":"levelo_inurba_marseille","lat":43.278188,"lon":5.407218,"is_reserved":false,"is_disabled":false,"rental_uris":{"android":"levelo://app?vid=ec166817-0bff-49c5-bade-210bd2da7e7a","ios":"levelo://app?vid=ec166817-0bff-49c5-bade-210bd2da7e7a"},"vehicle_type_id":"4","last_reported":1700600810,"current_range_meters":12800,"station_id":"ce4bhnh2rcd13ifvqgtg","pricing_plan_id":"free"},{"bike_id":"92017e91-4f9b-4304-a3bb-3eb9a46e72b7","system_id":"levelo_inurba_marseille","lat":43.278128,"lon":5.407195,"is_reserved":false,"is_disabled":false,"rental_uris":{"android":"levelo://app?vid=92017e91-4f9b-4304-a3bb-3eb9a46e72b7","ios":"levelo://app?vid=92017e91-4f9b-4304-a3bb-3eb9a46e72b7"},"vehicle_type_id":"4","last_reported":1700600810,"current_range_meters":31200,"station_id":"ce4bhnh2rcd13ifvqgtg","pricing_plan_id":"free"},{"bike_id":"60ca1b97-60e6-4d07-8bcb-938769ac789c","system_id":"levelo_inurba_marseille","lat":43.278128,"lon":5.407195,"is_reserved":false,"is_disabled":false,"rental_uris":{"android":"levelo://app?vid=60ca1b97-60e6-4d07-8bcb-938769ac789c","ios":"levelo://app?vid=60ca1b97-60e6-4d07-8bcb-938769ac789c"},"vehicle_type_id":"4","last_reported":1700600810,"current_range_meters":31200,"station_id":"ce4bhnh2rcd13ifvqgtg","pricing_plan_id":"free"},{"bike_id":"be19b6bc-3f21-490e-92b7-2ed7d476706b","system_id":"levelo_inurba_marseille","lat":43.26565,"lon":5.37287,"is_reserved":false,"is_disabled":false,"rental_uris":{"android":"levelo://app?vid=be19b6bc-3f21-490e-92b7-2ed7d476706b","ios":"levelo://app?vid=be19b6bc-3f21-490e-92b7-2ed7d476706b"},"vehicle_type_id":"4","last_reported":1700600810,"current_range_meters":22400,"station_id":"ce4bhg12rcd13ifvqf70","pricing_plan_id":"free"},{"bike_id":"28e8ce00-6b21-4e06-9930-c7c4408cc650","system_id":"levelo_inurba_marseille","lat":43.326174,"lon":5.430584,"is_reserved":false,"is_disabled":false,"rental_uris":{"android":"levelo://app?vid=28e8ce00-6b21-4e06-9930-c7c4408cc650","ios":"levelo://app?vid=28e8ce00-6b21-4e06-9930-c7c4408cc650"},"vehicle_type_id":"4","last_reported":1700600810,"current_range_meters":9200,"station_id":"","pricing_plan_id":"free"},{"bike_id":"626263bd-3c7a-4198-bb60-0269a9e90976","system_id":"levelo_inurba_marseille","lat":43.27995,"lon":5.41663,"is_reserved":false,"is_disabled":false,"rental_uris":{"android":"levelo://app?vid=626263bd-3c7a-4198-bb60-0269a9e90976","ios":"levelo://app?vid=626263bd-3c7a-4198-bb60-0269a9e90976"},"vehicle_type_id":"4","last_reported":1700600810,"current_range_meters":30800,"station_id":"ce4bho12rcd13ifvqh1g","pricing_plan_id":"free"},{"bike_id":"9db15eaa-bfe9-4b19-9f44-b4d9d8b18c48","system_id":"levelo_inurba_marseille","lat":43.2663,"lon":5.38993,"is_reserved":false,"is_disabled":false,"rental_uris":{"android":"levelo://app?vid=9db15eaa-bfe9-4b19-9f44-b4d9d8b18c48","ios":"levelo://app?vid=9db15eaa-bfe9-4b19-9f44-b4d9d8b18c48"},"vehicle_type_id":"4","last_reported":1700600810,"current_range_meters":26000,"station_id":"","pricing_plan_id":"free"},{"bike_id":"1f6b953e-5841-4f5b-9a7b-9e601ebef2cc","system_id":"levelo_inurba_marseille","lat":43.30802,"lon":5.43519,"is_reserved":false,"is_disabled":false,"rental_uris":{"android":"levelo://app?vid=1f6b953e-5841-4f5b-9a7b-9e601ebef2cc","ios":"levelo://app?vid=1f6b953e-5841-4f5b-9a7b-9e601ebef2cc"},"vehicle_type_id":"4","last_reported":1700600810,"current_range_meters":23600,"station_id":"ce4bhph2rcd13ifvqheg","pricing_plan_id":"free"},{"bike_id":"d5d21d9f-534b-4ecf-b092-ea0f0a9db776","system_id":"levelo_inurba_marseille","lat":43.317104,"lon":5.436818,"is_reserved":false,"is_disabled":false,"rental_uris":{"android":"levelo://app?vid=d5d21d9f-534b-4ecf-b092-ea0f0a9db776","ios":"levelo://app?vid=d5d21d9f-534b-4ecf-b092-ea0f0a9db776"},"vehicle_type_id":"4","last_reported":1700600810,"current_range_meters":30400,"station_id":"ce4bhp92rcd13ifvqhcg","pricing_plan_id":"free"},{"bike_id":"1b901329-a95c-4dd3-a509-146900733f8b","system_id":"levelo_inurba_marseille","lat":43.26202,"lon":5.379299,"is_reserved":false,"is_disabled":false,"rental_uris":{"android":"levelo://app?vid=1b901329-a95c-4dd3-a509-146900733f8b","ios":"levelo://app?vid=1b901329-a95c-4dd3-a509-146900733f8b"},"vehicle_type_id":"4","last_reported":1700600810,"current_range_meters":15200,"station_id":"ce4bhjp2rcd13ifvqg90","pricing_plan_id":"free"},{"bike_id":"cb16d7ee-4d8d-44c4-bc7a-142b1234ab63","system_id":"levelo_inurba_marseille","lat":43.31725,"lon":5.43786,"is_reserved":false,"is_disabled":false,"rental_uris":{"android":"levelo://app?vid=cb16d7ee-4d8d-44c4-bc7a-142b1234ab63","ios":"levelo://app?vid=cb16d7ee-4d8d-44c4-bc7a-142b1234ab63"},"vehicle_type_id":"4","last_reported":1700600810,"current_range_meters":5600,"station_id":"","pricing_plan_id":"free"},{"bike_id":"49a31422-5d81-4e67-953b-55705c98f239","system_id":"levelo_inurba_marseille","lat":43.279703,"lon":5.422371,"is_reserved":false,"is_disabled":false,"rental_uris":{"android":"levelo://app?vid=49a31422-5d81-4e67-953b-55705c98f239","ios":"levelo://app?vid=49a31422-5d81-4e67-953b-55705c98f239"},"vehicle_type_id":"4","last_reported":1700600810,"current_range_meters":28000,"station_id":"","pricing_plan_id":"free"},{"bike_id":"c521421c-191b-434d-a3fd-732c502af0ef","system_id":"levelo_inurba_marseille","lat":43.298768,"lon":5.43643,"is_reserved":false,"is_disabled":false,"rental_uris":{"android":"levelo://app?vid=c521421c-191b-434d-a3fd-732c502af0ef","ios":"levelo://app?vid=c521421c-191b-434d-a3fd-732c502af0ef"},"vehicle_type_id":"4","last_reported":1700600810,"current_range_meters":24000,"station_id":"ce4bhpp2rcd13ifvqhfg","pricing_plan_id":"free"},