{"last_updated":1729689491,"ttl":60,"version":"2.2","data":{"bikes":[{"bike_id":"4c1f2ca6-1a26-45da-8cf0-01368f180b38","system_id":"levelo_inurba_marseille","lat":43.2762,"lon":5.36111,"is_reserved":false,"is_disabled":false,"rental_uris":{"android":"levelo://app?vid=4c1f2ca6-1a26-45da-8cf0-01368f180b38","ios":"levelo://app?vid=4c1f2ca6-1a26-45da-8cf0-01368f180b38"},"vehicle_type_id":"4","last_reported":1729689492,"current_range_meters":8000,"station_id":"ce4bgj92rcd13ifvqbe0","pricing_plan_id":"cebpf4jnsgd1na2vs0mg"},{"bike_id":"a79a7ae3-b502-4d3b-ba05-7d0a6ea31ad7","system_id":"levelo_inurba_marseille","lat":43.29792,"lon":5.38095,"is_reserved":false,"is_disabled":false,"rental_uris":{"android":"levelo://app?vid=a79a7ae3-b502-4d3b-ba05-7d0a6ea31ad7","ios":"levelo://app?vid=a79a7ae3-b502-4d3b-ba05-7d0a6ea31ad7"},"vehicle_type_id":"4","last_reported":1729689492,"current_range_meters":30400,"station_id":"ce4bgip2rcd13ifvqbb0","pricing_plan_id":"cebpf4jnsgd1na2vs0mg"},{"bike_id":"9c841582-1b4a-4f92-b1d8-04977f5b940a","system_id":"levelo_inurba_marseille","lat":43.31323,"lon":5.3969,"is_reserved":false,"is_disabled":false,"rental_uris":{"android":"levelo://app?vid=9c841582-1b4a-4f92-b1d8-04977f5b940a","ios":"levelo://app?vid=9c841582-1b4a-4f92-b1d8-04977f5b940a"},"vehicle_type_id":"4","last_reported":1729689492,"current_range_meters":38400,"station_id":"ce4bgvp2rcd13ifvqcu0","pricing_plan_id":"cebpf4jnsgd1na2vs0mg"},{"bike_id":"94505a83-b206-4db0-aff0-8f5678e8c521","system_id":"levelo_inurba_marseille","lat":43.24074,"lon":5.37754,"is_reserved":false,"is_disabled":false,"rental_uris":{"android":"levelo://app?vid=94505a83-b206-4db0-aff0-8f5678e8c521","ios":"levelo://app?vid=94505a83-b206-4db0-aff0-8f5678e8c521"},"vehicle_type_id":"4","last_reported":1729689492,"current_range_meters":17200,"station_id":"ce4bhnp2rcd13ifvqgvg","pricing_plan_id":"cebpf4jnsgd1na2vs0mg"},{"bike_id":"a86b0b57-3d2d-4958-b76a-7b1d5b02ad08","system_id":"levelo_inurba_marseille","lat":43.28933,"lon":5.36635,"is_reserved":false,"is_disabled":false,"rental_uris":{"android":"levelo://app?vid=a86b0b57-3d2d-4958-b76a-7b1d5b02ad08","ios":"levelo://app?vid=a86b0b57-3d2d-4958-b76a-7b1d5b02ad08"},"vehicle_type_id":"4","last_reported":1729689492,"current_range_meters":12400,"station_id":"ce4bhap2rcd13ifvqek0","pricing_plan_id":"cebpf4jnsgd1na2vs0mg"},{"bike_id":"3535b5e1-b588-4d7b-b16c-76b8197912f9","system_id":"levelo_inurba_marseille","lat":43.2963,"lon":5.40598,"is_reserved":false,"is_disabled":false,"rental_uris":{"android":"levelo://app?vid=3535b5e1-b588-4d7b-b16c-76b8197912f9","ios":"levelo://app?vid=3535b5e1-b588-4d7b-b16c-76b8197912f9"},"vehicle_type_id":"4","last_reported":1729689492,"current_range_meters":38000,"station_id":"ce4bh0h2rcd13ifvqd60","pricing_plan_id":"cebpf4jnsgd1na2vs0mg"},{"bike_id":"064c4cf1-968c-4c8f-a2ac-547b8078fd03","system_id":"levelo_inurba_marseille","lat":43.29973,"lon":5.38499,"is_reserved":false,"is_disabled":false,"rental_uris":{"android":"levelo://app?vid=064c4cf1-968c-4c8f-a2ac-547b8078fd03","ios":"levelo://app?vid=064c4cf1-968c-4c8f-a2ac-547b8078fd03"},"vehicle_type_id":"4","last_reported":1729689492,"current_range_meters":11600,"station_id":"ce4bgj92rcd13ifvqbd0","pricing_plan_id":"cebpf4jnsgd1na2vs0mg"},{"bike_id":"8d60d63b-84b1-4443-906f-4ccfb582be42","system_id":"levelo_inurba_marseille","lat":43.30145,"lon":5.37426,"is_reserved":false,"is_disabled":false,"rental_uris":{"android":"levelo://app?vid=8d60d63b-84b1-4443-906f-4ccfb582be42","ios":"levelo://app?vid=8d60d63b-84b1-4443-906f-4ccfb582be42"},"vehicle_type_id":"4","last_reported":1729689492,"current_range_meters":38400,"station_id":"ce4bgs92rcd13ifvqcc0","pricing_plan_id":"cebpf4jnsgd1na2vs0mg"},{"bike_id":"da2545c0-1aa1-4252-83b4-6c3657ee2a36","system_id":"levelo_inurba_marseille","lat":43.29545,"lon":5.42278,"is_reserved":false,"is_disabled":false,"rental_uris":{"android":"levelo://app?vid=da2545c0-1aa1-4252-83b4-6c3657ee2a36","ios":"levelo://app?vid=da2545c0-1aa1-4252-83b4-6c3657ee2a36"},"vehicle_type_id":"4","last_reported":1729689492,"current_range_meters":28400,"station_id":"ce4bhph2rcd13ifvqhdg","pricing_plan_id":"cebpf4jnsgd1na2vs0mg"},{"bike_id":"b149ce4e-51e1-44d1-a677-e09dc3311ba7","system_id":"levelo_inurba_marseille","lat":43.24389,"lon":5.37052,"is_reserved":false,"is_disabled":false,"rental_uris":{"android":"levelo://app?vid=b149ce4e-51e1-44d1-a677-e09dc3311ba7","ios":"levelo://app?vid=b149ce4e-51e1-44d1-a677-e09dc3311ba7"},"vehicle_type_id":"4","last_reported":1729689492,"current_range_meters":39200,"station_id":"ce4bhhh2rcd13ifvqfk0","pricing_plan_id":"cebpf4jnsgd1na2vs0mg"},{"bike_id":"9900f94c-8b7a-407f-a750-dc9041fa2ba4","system_id":"levelo_inurba_marseille","lat":43.30546,"lon":5.36529,"is_reserved":false,"is_disabled":false,"rental_uris":{"android":"levelo://app?vid=9900f94c-8b7a-407f-a750-dc9041fa2ba4","ios":"levelo://app?vid=9900f94c-8b7a-407f-a750-dc9041fa2ba4"},"vehicle_type_id":"4","last_reported":1729689492,"current_range_meters":5600,"station_id":"ce4bgs12rcd13ifvqcag","pricing_plan_id":"cebpf4jnsgd1na2vs0mg"},{"bike_id":"a581c9ee-de6c-4ca2-adce-d873a10f1b7c","system_id":"levelo_inurba_marseille","lat":43.24078,"lon":5.37745,"is_reserved":false,"is_disabled":false,"rental_uris":{"android":"levelo://app?vid=a581c9ee-de6c-4ca2-adce-d873a10f1b7c","ios":"levelo://app?vid=a581c9ee-de6c-4ca2-adce-d873a10f1b7c"},"vehicle_type_id":"4","last_reported":1729689492,"current_range_meters":10800,"station_id":"ce4bhnp2rcd13ifvqgvg","pricing_plan_id":"cebpf4jnsgd1na2vs0mg"},{"bike_id":"33b2053d-bd1d-49f6-9dc6-9a0d8a900c29","system_id":"levelo_inurba_marseille","lat":43.24073,"lon":5.37752,"is_reserved":false,"is_disabled":false,"rental_uris":{"android":"levelo://app?vid=33b2053d-bd1d-49f6-9dc6-9a0d8a900c29","ios":"levelo://app?vid=33b2053d-bd1d-49f6-9dc6-9a0d8a900c29"},"vehicle_type_id":"4","last_reported":1729689492,"current_range_meters":19200,"station_id":"ce4bhnp2rcd13ifvqgvg","pricing_plan_id":"cebpf4jnsgd1na2vs0mg"},{"bike_id":"950cbcd5-63d2-4116-ad72-a2fc677b930e","system_id":"levelo_inurba_marseille","lat":43.29906,"lon":5.38151,"is_reserved":false,"is_disabled":false,"rental_uris":{"android":"levelo://app?vid=950cbcd5-63d2-4116-ad72-a2fc677b930e","ios":"levelo://app?vid=950cbcd5-63d2-4116-ad72-a2fc677b930e"},"vehicle_type_id":"4","last_reported":1729689492,"current_range_meters":35600,"station_id":"ce4bgj12rcd13ifvqbc0","pricing_plan_id":"cebpf4jnsgd1na2vs0mg"},{"bike_id":"23f6a80e-01a1-45d3-90db-23cad2a6029d","system_id":"levelo_inurba_marseille","lat":43.31992,"lon":5.38166,"is_reserved":false,"is_disabled":false,"rental_uris":{"android":"levelo://app?vid=23f6a80e-01a1-45d3-90db-23cad2a6029d","ios":"levelo://app?vid=23f6a80e-01a1-45d3-90db-23cad2a6029d"},"vehicle_type_id":"4","last_reported":1729689492,"current_range_meters":6800,"station_id":"ce4bhr12rcd13ifvqhpg","pricing_plan_id":"cebpf4jnsgd1na2vs0mg"},{"bike_id":"61f6cbe3-d9eb-4f33-935f-edbcd14942c8","system_id":"levelo_inurba_marseille","lat":43.24073,"lon":5.37747,"is_reserved":false,"is_disabled":false,"rental_uris":{"android":"levelo://app?vid=61f6cbe3-d9eb-4f33-935f-edbcd14942c8","ios":"levelo://app?vid=61f6cbe3-d9eb-4f33-935f-edbcd14942c8"},"vehicle_type_id":"4","last_reported":1729689492,"current_range_meters":38800,"station_id":"ce4bhnp2rcd13ifvqgvg","pricing_plan_id":"cebpf4jnsgd1na2vs0mg"},{"bike_id":"9413d072-e380-41d2-8dd9-7098a859ea7d","system_id":"levelo_inurba_marseille","lat":43.29198,"lon":5.39322,"is_reserved":false,"is_disabled":false,"rental_uris":{"android":"levelo://app?vid=9413d072-e380-41d2-8dd9-7098a859ea7d","ios":"levelo://app?vid=9413d072-e380-41d2-8dd9-7098a859ea7d"},"vehicle_type_id":"4","last_reported":1729689492,"current_range_meters":37600,"station_id":"ce4bh192rcd13ifvqdd0","pricing_plan_id":"cebpf4jnsgd1na2vs0mg"},{"bike_id":"759b0871-5a63-4dff-a146-e249b09130f3","system_id":"levelo_inurba_marseille","lat":43.29621,"lon":5.37171,"is_reserved":false,"is_disabled":false,"rental_uris":{"android":"levelo://app?vid=759b0871-5a63-4dff-a146-e249b09130f3","ios":"levelo://app?vid=759b0871-5a63-4dff-a146-e249b09130f3"},"vehicle_type_id":"4","last_reported":1729689492,"current_range_meters":3600,"station_id":"ce4bgnh2rcd13ifvqc0g","pricing_plan_id":"cebpf4jnsgd1na2vs0mg"},{"bike_id":"5751f2d0-cc91-48ad-85e6-c3ffc69194b3","system_id":"levelo_inurba_marseille","lat":43.27973,"lon":5.3872,"is_reserved":false,"is_disabled":false,"rental_uris":{"android":"levelo://app?vid=5751f2d0-cc91-48ad-85e6-c3ffc69194b3","ios":"levelo://app?vid=5751f2d0-cc91-48ad-85e6-c3ffc69194b3"},"vehicle_type_id":"4","last_reported":1729689492,"current_range_meters":29600,"station_id":"ce4bhg12rcd13ifvqf80","pricing_plan_id":"cebpf4jnsgd1na2vs0mg"},{"bike_id":"bc5570b0-116e-480f-9df3-7a8dff091c99","system_id":"levelo_inurba_marseille","lat":43.24077,"lon":5.37752,"is_reserved":false,"is_disabled":false,"rental_uris":{"android":"levelo://app?vid=bc5570b0-116e-480f-9df3-7a8dff091c99","ios":"levelo://app?vid=bc5570b0-116e-480f-9df3-7a8dff091c99"},"vehicle_type_id":"4","last_reported":1729689492,"current_range_meters":38800,"station_id":"ce4bhnp2rcd13ifvqgvg","pricing_plan_id":"cebpf4jnsgd1na2vs0mg"},{"bike_id":"ea6aeb14-5c14-479d-963a-1d7130056f6f","system_id":"levelo_inurba_marseille","lat":43.29912,"lon":5.38156,"is_reserved":false,"is_disabled":false,"rental_uris":{"android":"levelo://app?vid=ea6aeb14-5c14-479d-963a-1d7130056f6f","ios":"levelo://app?vid=ea6aeb14-5c14-479d-963a-1d7130056f6f"},"vehicle_type_id":"4","last_reported":1729689492,"current_range_meters":17200,"station_id":"ce4bgj12rcd13ifvqbc0","pricing_plan_id":"cebpf4jnsgd1na2vs0mg"},{"bike_id":"30625c6b-f7c2-4859-8995-c6cb6c18b3a5","system_id":"levelo_inurba_marseille","lat":43.29279,"lon":5.401185,"is_reserved":false,"is_disabled":false,"rental_uris":{"android":"levelo://app?vid=30625c6b-f7c2-4859-8995-c6cb6c18b3a5","ios":"levelo://app?vid=30625c6b-f7c2-4859-8995-c6cb6c18b3a5"},"vehicle_type_id":"4","last_reported":1729689492,"current_range_meters":30800,"station_id":"ce4bh292rcd13ifvqdg0","pricing_plan_id":"cebpf4jnsgd1na2vs0mg"},{"bike_id":"a5ec7780-e589-447b-8005-db28cb3e4830","system_id":"levelo_inurba_marseille","lat":43.28482,"lon":5.38555,"is_reserved":false,"is_disabled":false,"rental_uris":{"android":"levelo://app?vid=a5ec7780-e589-447b-8005-db28cb3e4830","ios":"levelo://app?vid=a5ec7780-e589-447b-8005-db28cb3e4830"},"vehicle_type_id":"4","last_reported":1729689492,"current_range_meters":36800,"station_id":"ce4bh8p2rcd13ifvqeb0","pricing_plan_id":"cebpf4jnsgd1na2vs0mg"},{"bike_id":"e9243ab1-f283-42d0-bcc5-655ea73eca58","system_id":"levelo_inurba_marseille","lat":43.28433,"lon":5.39198,"is_reserved":false,"is_disabled":false,"rental_uris":{"android":"levelo://app?vid=e9243ab1-f283-42d0-bcc5-655ea73eca58","ios":"levelo://app?vid=e9243ab1-f283-42d0-bcc5-655ea73eca58"},"vehicle_type_id":"4","last_reported":1729689492,"current_range_meters":24000,"station_id":"ce4bhoh2rcd13ifvqh5g","pricing_plan_id":"cebpf4jnsgd1na2vs0mg"},{"bike_id":"8b3c0faf-6685-4f0c-bcad-67675bd23c19","system_id":"levelo_inurba_marseille","lat":43.31716,"lon":5.43707,"is_reserved":false,"is_disabled":false,"rental_uris":{"android":"levelo://app?vid=8b3c0faf-6685-4f0c-bcad-67675bd23c19","ios":"levelo://app?vid=8b3c0faf-6685-4f0c-bcad-67675bd23c19"},"vehicle_type_id":"4","last_reported":1729689492,"current_range_meters":22000,"station_id":"ce4bhp92rcd13ifvqhcg","pricing_plan_id":"cebpf4jnsgd1na2vs0mg"},{"bike_id":"69bfec52-838f-439d-a124-9f89f6d8a323","system_id":"levelo_inurba_marseille","lat":43.29195,"lon":5.39319,"is_reserved":false,"is_disabled":false,"rental_uris":{"android":"levelo://app?vid=69bfec52-838f-439d-a124-9f89f6d8a323","ios":"levelo://app?vid=69bfec52-838f-439d-a124-9f89f6d8a323"},"vehicle_type_id":"4","last_reported":1729689492,"current_range_meters":32000,"station_id":"ce4bh192rcd13ifvqdd0","pricing_plan_id":"cebpf4jnsgd1na2vs0mg"},{"bike_id":"277c6240-4b00-4913-bd18-561260d0febe","system_id":"levelo_inurba_marseille","lat":43.29184,"lon":5.39322,"is_reserved":false,"is_disabled":false,"rental_uris":{"android":"levelo://app?vid=277c6240-4b00-4913-bd18-561260d0febe","ios":"levelo://app?vid=277c6240-4b00-4913-bd18-561260d0febe"},"vehicle_type_id":"4","last_reported":1729689492,"current_range_meters":16000,"station_id":"ce4bh192rcd13ifvqdd0","pricing_plan_id":"cebpf4jnsgd1na2vs0mg"},{"bike_id":"5c449356-4ac4-4d08-a405-c433fbe21a80","system_id":"levelo_inurba_marseille","lat":43.33737,"lon":5.37458,"is_reserved":false,"is_disabled":false,"rental_uris":{"android":"levelo://app?vid=5c449356-4ac4-4d08-a405-c433fbe21a80","ios":"levelo://app?vid=5c449356-4ac4-4d08-a405-c433fbe21a80"},"vehicle_type_id":"4","last_reported":1729689492,"current_range_meters":29600,"station_id":"","pricing_plan_id":"cebpf4jnsgd1na2vs0mg"},{"bike_id":"b2e91241-3bab-4c54-99be-b756556ca131","system_id":"levelo_inurba_marseille","lat":43.29438,"lon":5.39752,"is_reserved":false,"is_disabled":false,"rental_uris":{"android":"levelo://app?vid=b2e91241-3bab-4c54-99be-b756556ca131","ios":"levelo://app?vid=b2e91241-3bab-4c54-99be-b756556ca131"},"vehicle_type_id":"4","last_reported":1729689492,"current_range_meters":30000,"station_id":"ce4bh3h2rcd13ifvqdo0","pricing_plan_id":"cebpf4jnsgd1na2vs0mg"},{"bike_id":"530f3de5-0666-4848-a0bc-b2ca8214ca41","system_id":"levelo_inurba_marseille","lat":43.30892,"lon":5.37183,"is_reserved":false,"is_disabled":false,"rental_uris":{"android":"levelo://app?vid=530f3de5-0666-4848-a0bc-b2ca8214ca41","ios":"levelo://app?vid=530f3de5-0666-4848-a0bc-b2ca8214ca41"},"vehicle_type_id":"4","last_reported":1729689492,"current_range_meters":4400,"station_id":"ce4bguh2rcd13ifvqckg","pricing_plan_id":"cebpf4jnsgd1na2vs0mg"},{"bike_id":"afa93300-f37e-4cf9-ba93-89c9e807434b","system_id":"levelo_inurba_marseille","lat":43.28151,"lon":5.42643,"is_reserved":false,"is_disabled":false,"rental_uris":{"android":"levelo://app?vid=afa93300-f37e-4cf9-ba93-89c9e807434b","ios":"levelo://app?vid=afa93300-f37e-4cf9-ba93-89c9e807434b"},"vehicle_type_id":"4","last_reported":1729689492,"current_range_meters":4000,"station_id":"ce4bhnh2rcd13ifvqgug","pricing_plan_id":"cebpf4jnsgd1na2vs0mg"},{"bike_id":"0c6b11eb-50a7-4dc0-bff2-d8026011ec1d","system_id":"levelo_inurba_marseille","lat":43.24389,"lon":5.37057,"is_reserved":false,"is_disabled":false,"rental_uris":{"android":"levelo://app?vid=0c6b11eb-50a7-4dc0-bff2-d8026011ec1d","ios":"levelo://app?vid=0c6b11eb-50a7-4dc0-bff2-d8026011ec1d"},"vehicle_type_id":"4","last_reported":1729689492,"current_range_meters":39200,"station_id":"ce4bhhh2rcd13ifvqfk0","pricing_plan_id":"cebpf4jnsgd1na2vs0mg"},{"bike_id":"3571e33e-08e7-4c65-bcb7-4ff4abd18ba6","system_id":"levelo_inurba_marseille","lat":43.24165,"lon":5.36394,"is_reserved":false,"is_disabled":false,"rental_uris":{"android":"levelo://app?vid=3571e33e-08e7-4c65-bcb7-4ff4abd18ba6","ios":"levelo://app?vid=3571e33e-08e7-4c65-bcb7-4ff4abd18ba6"},"vehicle_type_id":"4","last_reported":1729689492,"current_range_meters":19600,"station_id":"cpo36qri1sfpv3e86is0","pricing_plan_id":"cebpf4jnsgd1na2vs0mg"},{"bike_id":"fbff0ca7-076b-493b-9140-d4fea10850e5","system_id":"levelo_inurba_marseille","lat":43.2795,"lon":5.41035,"is_reserved":false,"is_disabled":false,"rental_uris":{"android":"levelo://app?vid=fbff0ca7-076b-493b-9140-d4fea10850e5","ios":"levelo://app?vid=fbff0ca7-076b-493b-9140-d4fea10850e5"},"vehicle_type_id":"4","last_reported":1729689492,"current_range_meters":36400,"station_id":"ce4bhnp2rcd13ifvqh0g","pricing_plan_id":"cebpf4jnsgd1na2vs0mg"},{"bike_id":"fdd2bd7c-0766-4fdc-b057-8fb32fd199a0","system_id":"levelo_inurba_marseille","lat":43.2315,"lon":5.43716,"is_reserved":false,"is_disabled":false,"rental_uris":{"android":"levelo://app?vid=fdd2bd7c-0766-4fdc-b057-8fb32fd199a0","ios":"levelo://app?vid=fdd2bd7c-0766-4fdc-b057-8fb32fd199a0"},"vehicle_type_id":"4","last_reported":1729689492,"current_range_meters":10000,"station_id":"ce4bhmp2rcd13ifvqgog","pricing_plan_id":"cebpf4jnsgd1na2vs0mg"},{"bike_id":"c769be1b-4262-45e1-ae17-91133a0a1d6c","system_id":"levelo_inurba_marseille","lat":43.3053,"lon":5.36659,"is_reserved":false,"is_disabled":false,"rental_uris":{"android":"levelo://app?vid=c769be1b-4262-45e1-ae17-91133a0a1d6c","ios":"levelo://app?vid=c769be1b-4262-45e1-ae17-91133a0a1d6c"},"vehicle_type_id":"4","last_reported":1729689492,"current_range_meters":11600,"station_id":"","pricing_plan_id":"cebpf4jnsgd1na2vs0mg"},{"bike_id":"4882a116-5452-4f97-bdbd-13df4cccb9d6","system_id":"levelo_inurba_marseille","lat":43.30601,"lon":5.37232,"is_reserved":false,"is_disabled":false,"rental_uris":{"android":"levelo://app?vid=4882a116-5452-4f97-bdbd-13df4cccb9d6","ios":"levelo://app?vid=4882a116-5452-4f97-bdbd-13df4cccb9d6"},"vehicle_type_id":"4","last_reported":1729689492,"current_range_meters":28800,"station_id":"ce4bgqh2rcd13ifvqc4g","pricing_plan_id":"cebpf4jnsgd1na2vs0mg"},{"bike_id":"14faa0d7-0d75-4feb-b3a9-2fc09e338b27","system_id":"levelo_inurba_marseille","lat":43.30542,"lon":5.36719,"is_reserved":false,"is_disabled":false,"rental_uris":{"android":"levelo://app?vid=14faa0d7-0d75-4feb-b3a9-2fc09e338b27","ios":"levelo://app?vid=14faa0d7-0d75-4feb-b3a9-2fc09e338b27"},"vehicle_type_id":"4","last_reported":1729689492,"current_range_meters":24800,"station_id":"ce4bgrp2rcd13ifvqc9g","pricing_plan_id":"cebpf4jnsgd1na2vs0mg"},{"bike_id":"3389d5a8-8fd1-4df9-842d-69afacb795fe","system_id":"levelo_inurba_marseille","lat":43.30469,"lon":5.37906,"is_reserved":false,"is_disabled":false,"rental_uris":{"android":"levelo://app?vid=3389d5a8-8fd1-4df9-842d-69afacb795fe","ios":"levelo://app?vid=3389d5a8-8fd1-4df9-842d-69afacb795fe"},"vehicle_type_id":"4","last_reported":1729689492,"current_range_meters":35600,"station_id":"ce4bgup2rcd13ifvqcn0","pricing_plan_id":"cebpf4jnsgd1na2vs0mg"},{"bike_id":"23bab4d6-78d3-4d58-b9ba-f315bdd64cfa","system_id":"levelo_inurba_marseille","lat":43.28729,"lon":5.3794,"is_reserved":false,"is_disabled":false,"rental_uris":{"android":"levelo://app?vid=23bab4d6-78d3-4d58-b9ba-f315bdd64cfa","ios":"levelo://app?vid=23bab4d6-78d3-4d58-b9ba-f315bdd64cfa"},"vehicle_type_id":"4","last_reported":1729689492,"current_range_meters":33600,"station_id":"ce4bh9p2rcd13ifvqec0","pricing_plan_id":"cebpf4jnsgd1na2vs0mg"},{"bike_id":"0ee9c4d7-f07b-416d-a1f3-31ebfe564483","system_id":"levelo_inurba_marseille","lat":43.2319,"lon":5.39991,"is_reserved":false,"is_disabled":false,"rental_uris":{"android":"levelo://app?vid=0ee9c4d7-f07b-416d-a1f3-31ebfe564483","ios":"levelo://app?vid=0ee9c4d7-f07b-416d-a1f3-31ebfe564483"},"vehicle_type_id":"4","last_reported":1729689492,"current_range_meters":36000,"station_id":"ce4bhn12rcd13ifvqgqg","pricing_plan_id":"cebpf4jnsgd1na2vs0mg"},{"bike_id":"71ea797b-da06-4327-92dc-47c13ec265e2","system_id":"levelo_inurba_marseille","lat":43.30541,"lon":5.36535,"is_reserved":false,"is_disabled":false,"rental_uris":{"android":"levelo://app?vid=71ea797b-da06-4327-92dc-47c13ec265e2","ios":"levelo://app?vid=71ea797b-da06-4327-92dc-47c13ec265e2"},"vehicle_type_id":"4","last_reported":1729689492,"current_range_meters":38000,"station_id":"ce4bgs12rcd13ifvqcag","pricing_plan_id":"cebpf4jnsgd1na2vs0mg"},{"bike_id":"93f636f8-56f7-41de-b313-6a0046392223","system_id":"levelo_inurba_marseille","lat":43.28374,"lon":5.38639,"is_reserved":false,"is_disabled":false,"rental_uris":{"android":"levelo://app?vid=93f636f8-56f7-41de-b313-6a0046392223","ios":"levelo://app?vid=93f636f8-56f7-41de-b313-6a0046392223"},"vehicle_type_id":"4","last_reported":1729689492,"current_range_meters":28800,"station_id":"ce4bh492rcd13ifvqdvg","pricing_plan_id":"cebpf4jnsgd1na2vs0mg"},{"bike_id":"c1a27a77-806d-4118-adad-8f972464ee50","system_id":"levelo_inurba_marseille","lat":43.29962,"lon":5.38499,"is_reserved":false,"is_disabled":false,"rental_uris":{"android":"levelo://app?vid=c1a27a77-806d-4118-adad-8f972464ee50","ios":"levelo://app?vid=c1a27a77-806d-4118-adad-8f972464ee50"},"vehicle_type_id":"4","last_reported":1729689492,"current_range_meters":35600,"station_id":"ce4bgj92rcd13ifvqbd0","pricing_plan_id":"cebpf4jnsgd1na2vs0mg"},{"bike_id":"35d10533-dd3d-41c8-aebe-48df5241e257","system_id":"levelo_inurba_marseille","lat":43.30144,"lon":5.38074,"is_reserved":false,"is_disabled":false,"rental_uris":{"android":"levelo://app?vid=35d10533-dd3d-41c8-aebe-48df5241e257","ios":"levelo://app?vid=35d10533-dd3d-41c8-aebe-48df5241e257"},"vehicle_type_id":"4","last_reported":1729689492,"current_range_meters":3600,"station_id":"ce4bgjp2rcd13ifvqbh0","pricing_plan_id":"cebpf4jnsgd1na2vs0mg"},{"bike_id":"60701c45-5664-4c73-ae6b-d0efb1e5a3d5","system_id":"levelo_inurba_marseille","lat":43.29559,"lon":5.37529,"is_reserved":false,"is_disabled":false,"rental_uris":{"android":"levelo://app?vid=60701c45-5664-4c73-ae6b-d0efb1e5a3d5","ios":"levelo://app?vid=60701c45-5664-4c73-ae6b-d0efb1e5a3d5"},"vehicle_type_id":"4","last_reported":1729689492,"current_range_meters":11600,"station_id":"ce4bgh92rcd13ifvqb50","pricing_plan_id":"cebpf4jnsgd1na2vs0mg"},{"bike_id":"44354070-3524-4525-8b97-4bde360111a4","system_id":"levelo_inurba_marseille","lat":43.296875,"lon":5.373025,"is_reserved":false,"is_disabled":false,"rental_uris":{"android":"levelo://app?vid=44354070-3524-4525-8b97-4bde360111a4","ios":"levelo://app?vid=44354070-3524-4525-8b97-4bde360111a4"},"vehicle_type_id":"4","last_reported":1729689492,"current_range_meters":18000,"station_id":"ce4bgk12rcd13ifvqbj0","pricing_plan_id":"cebpf4jnsgd1na2vs0mg"},{"bike_id":"25c6da81-c9c7-4682-aa8b-74c27a93ff04","system_id":"levelo_inurba_marseille","lat":43.2847,"lon":5.38426,"is_reserved":false,"is_disabled":false,"rental_uris":{"android":"levelo://app?vid=25c6da81-c9c7-4682-aa8b-74c27a93ff04","ios":"levelo://app?vid=25c6da81-c9c7-4682-aa8b-74c27a93ff04"},"vehicle_type_id":"4","last_reported":1729689492,"current_range_meters":25600,"station_id":"ce4bh512rcd13ifvqe3g","pricing_plan_id":"cebpf4jnsgd1na2vs0mg"},{"bike_id":"36b67483-be36-4ca6-b1a5-421e3143f090","system_id":"levelo_inurba_marseille","lat":43.23152,"lon":5.43708,"is_reserved":false,"is_disabled":false,"rental_uris":{"android":"levelo://app?vid=36b67483-be36-4ca6-b1a5-421e3143f090","ios":"levelo://app?vid=36b67483-be36-4ca6-b1a5-421e3143f090"},"vehicle_type_id":"4","last_reported":1729689492,"current_range_meters":39200,"station_id":"ce4bhmp2rcd13ifvqgog","pricing_plan_id":"cebpf4jnsgd1na2vs0mg"},{"bike_id":"98b93916-0397-4a11-ae29-0222108895cf","system_id":"levelo_inurba_marseille","lat":43.24806,"lon":5.37459,"is_reserved":false,"is_disabled":false,"rental_uris":{"android":"levelo://app?vid=98b93916-0397-4a11-ae29-0222108895cf","ios":"levelo://app?vid=98b93916-0397-4a11-ae29-0222108895cf"},"vehicle_type_id":"4","last_reported":1729689492,"current_range_meters":12400,"station_id":"ce4bhgh2rcd13ifvqfb0","pricing_plan_id":"cebpf4jnsgd1na2vs0mg"},{"bike_id":"eed0bb81-1059-4a62-978f-40ddaaec815e","system_id":"levelo_inurba_marseille","lat":43.29785,"lon":5.37102,"is_reserved":false,"is_disabled":false,"rental_uris":{"android":"levelo://app?vid=eed0bb81-1059-4a62-978f-40ddaaec815e","ios":"levelo://app?vid=eed0bb81-1059-4a62-978f-40ddaaec815e"},"vehicle_type_id":"4","last_reported":1729689492,"current_range_meters":38800,"station_id":"ce4bgop2rcd13ifvqc1g","pricing_plan_id":"cebpf4jnsgd1na2vs0mg"},{"bike_id":"1786e6f3-e6fa-4812-bd59-dee9b5495362","system_id":"levelo_inurba_marseille","lat":43.25726,"lon":5.41095,"is_reserved":false,"is_disabled":false,"rental_uris":{"android":"levelo://app?vid=1786e6f3-e6fa-4812-bd59-dee9b5495362","ios":"levelo://app?vid=1786e6f3-e6fa-4812-bd59-dee9b5495362"},"vehicle_type_id":"4","last_reported":1729689492,"current_range_meters":36800,"station_id":"ce4bhkp2rcd13ifvqgd0","pricing_plan_id":"cebpf4jnsgd1na2vs0mg"},{"bike_id":"5513ceb3-5471-4974-8f9e-dc94e1341c0f","system_id":"levelo_inurba_marseille","lat":43.29418,"lon":5.38631,"is_reserved":false,"is_disabled":false,"rental_uris":{"android":"levelo://app?vid=5513ceb3-5471-4974-8f9e-dc94e1341c0f","ios":"levelo://app?vid=5513ceb3-5471-4974-8f9e-dc94e1341c0f"},"vehicle_type_id":"4","last_reported":1729689492,"current_range_meters":28800,"station_id":"ce4bh2h2rcd13ifvqdh0","pricing_plan_id":"cebpf4jnsgd1na2vs0mg"},{"bike_id":"5a59504c-55a3-45fd-8338-41ea7274dd22","system_id":"levelo_inurba_marseille","lat":43.23963,"lon":5.36629,"is_reserved":false,"is_disabled":false,"rental_uris":{"android":"levelo://app?vid=5a59504c-55a3-45fd-8338-41ea7274dd22","ios":"levelo://app?vid=5a59504c-55a3-45fd-8338-41ea7274dd22"},"vehicle_type_id":"4","last_reported":1729689492,"current_range_meters":25200,"station_id":"ce4bhi12rcd13ifvqfp0","pricing_plan_id":"cebpf4jnsgd1na2vs0mg"},{"bike_id":"98809efd-d966-43b2-afb4-49ed10965dcc","system_id":"levelo_inurba_marseille","lat":43.29942,"lon":5.36532,"is_reserved":false,"is_disabled":false,"rental_uris":{"android":"levelo://app?vid=98809efd-d966-43b2-afb4-49ed10965dcc","ios":"levelo://app?vid=98809efd-d966-43b2-afb4-49ed10965dcc"},"vehicle_type_id":"4","last_reported":1729689492,"current_range_meters":38800,"station_id":"ce4bgm92rcd13ifvqbr0","pricing_plan_id":"cebpf4jnsgd1na2vs0mg"},{"bike_id":"72c2b19a-cd24-48ff-9407-9a72529777d9","system_id":"levelo_inurba_marseille","lat":43.29646,"lon":5.39324,"is_reserved":false,"is_disabled":false,"rental_uris":{"android":"levelo://app?vid=72c2b19a-cd24-48ff-9407-9a72529777d9","ios":"levelo://app?vid=72c2b19a-cd24-48ff-9407-9a72529777d9"},"vehicle_type_id":"4","last_reported":1729689492,"current_range_meters":35600,"station_id":"chh1huq6cuj3fo74tm60","pricing_plan_id":"cebpf4jnsgd1na2vs0mg"},{"bike_id":"c7b1aa63-8194-4d90-8f0b-71e7c058662f","system_id":"levelo_inurba_marseille","lat":43.29544,"lon":5.39503,"is_reserved":false,"is_disabled":false,"rental_uris":{"android":"levelo://app?vid=c7b1aa63-8194-4d90-8f0b-71e7c058662f","ios":"levelo://app?vid=c7b1aa63-8194-4d90-8f0b-71e7c058662f"},"vehicle_type_id":"4","last_reported":1729689492,"current_range_meters":37600,"station_id":"","pricing_plan_id":"cebpf4jnsgd1na2vs0mg"},{"bike_id":"3be9e7cb-bdba-4887-8936-f83d964668b1","system_id":"levelo_inurba_marseille","lat":43.3019,"lon":5.36605,"is_reserved":false,"is_disabled":false,"rental_uris":{"android":"levelo://app?vid=3be9e7cb-bdba-4887-8936-f83d964668b1","ios":"levelo://app?vid=3be9e7cb-bdba-4887-8936-f83d964668b1"},"vehicle_type_id":"4","last_reported":1729689492,"current_range_meters":6000,"station_id":"ce4bgrh2rcd13ifvqc8g","pricing_plan_id":"cebpf4jnsgd1na2vs0mg"},{"bike_id":"db7fb395-80c3-427e-b5cc-0eec7c1d351f","system_id":"levelo_inurba_marseille","lat":43.28419,"lon":5.34986,"is_reserved":false,"is_disabled":false,"rental_uris":{"android":"levelo://app?vid=db7fb395-80c3-427e-b5cc-0eec7c1d351f","ios":"levelo://app?vid=db7fb395-80c3-427e-b5cc-0eec7c1d351f"},"vehicle_type_id":"4","last_reported":1729689492,"current_range_meters":38800,"station_id":"ce4bhbh2rcd13ifvqepg","pricing_plan_id":"cebpf4jnsgd1na2vs0mg"},{"bike_id":"d9a5e0a8-f9e4-4918-9f75-2aa36190b109","system_id":"levelo_inurba_marseille","lat":43.30464,"lon":5.37909,"is_reserved":false,"is_disabled":false,"rental_uris":{"android":"levelo://app?vid=d9a5e0a8-f9e4-4918-9f75-2aa36190b109","ios":"levelo://app?vid=d9a5e0a8-f9e4-4918-9f75-2aa36190b109"},"vehicle_type_id":"4","last_reported":1729689492,"current_range_meters":36400,"station_id":"ce4bgup2rcd13ifvqcn0","pricing_plan_id":"cebpf4jnsgd1na2vs0mg"},{"bike_id":"d349fab6-b06e-46c4-b3b0-8668fc4ad41b","system_id":"levelo_inurba_marseille","lat":43.23056,"lon":5.35489,"is_reserved":false,"is_disabled":false,"rental_uris":{"android":"levelo://app?vid=d349fab6-b06e-46c4-b3b0-8668fc4ad41b","ios":"levelo://app?vid=d349fab6-b06e-46c4-b3b0-8668fc4ad41b"},"vehicle_type_id":"4","last_reported":1729689492,"current_range_meters":16800,"station_id":"cpo3342slgdg3j2ifvpg","pricing_plan_id":"cebpf4jnsgd1na2vs0mg"},{"bike_id":"819bb256-a8c6-46d4-9651-951d304cf01f","system_id":"levelo_inurba_marseille","lat":43.28938,"lon":5.39627,"is_reserved":false,"is_disabled":false,"rental_uris":{"android":"levelo://app?vid=819bb256-a8c6-46d4-9651-951d304cf01f","ios":"levelo://app?vid=819bb256-a8c6-46d4-9651-951d304cf01f"},"vehicle_type_id":"4","last_reported":1729689492,"current_range_meters":24800,"station_id":"ce4bh3h2rcd13ifvqdn0","pricing_plan_id":"cebpf4jnsgd1na2vs0mg"},{"bike_id":"3d8d4ecf-c24d-4b70-a2a2-ceff9c7b249d","system_id":"levelo_inurba_marseille","lat":43.29099,"lon":5.38149,"is_reserved":false,"is_disabled":false,"rental_uris":{"android":"levelo://app?vid=3d8d4ecf-c24d-4b70-a2a2-ceff9c7b249d","ios":"levelo://app?vid=3d8d4ecf-c24d-4b70-a2a2-ceff9c7b249d"},"vehicle_type_id":"4","last_reported":1729689492,"current_range_meters":21600,"station_id":"ce4bh512rcd13ifvqe2g","pricing_plan_id":"cebpf4jnsgd1na2vs0mg"},{"bike_id":"d00b30a2-86fa-40d6-923a-16a6fb33dce8","system_id":"levelo_inurba_marseille","lat":43.2919,"lon":5.39308,"is_reserved":false,"is_disabled":false,"rental_uris":{"android":"levelo://app?vid=d00b30a2-86fa-40d6-923a-16a6fb33dce8","ios":"levelo://app?vid=d00b30a2-86fa-40d6-923a-16a6fb33dce8"},"vehicle_type_id":"4","last_reported":1729689492,"current_range_meters":36800,"station_id":"ce4bh192rcd13ifvqdd0","pricing_plan_id":"cebpf4jnsgd1na2vs0mg"},{"bike_id":"8487a3e6-8a12-4a47-8277-0d4988a4cd52","system_id":"levelo_inurba_marseille","lat":43.27045,"lon":5.40269,"is_reserved":false,"is_disabled":false,"rental_uris":{"android":"levelo://app?vid=8487a3e6-8a12-4a47-8277-0d4988a4cd52","ios":"levelo://app?vid=8487a3e6-8a12-4a47-8277-0d4988a4cd52"},"vehicle_type_id":"4","last_reported":1729689492,"current_range_meters":19600,"station_id":"ce4bhk92rcd13ifvqgc0","pricing_plan_id":"cebpf4jnsgd1na2vs0mg"},{"bike_id":"3e41417e-0b0c-4908-8670-c6d49ee292be","system_id":"levelo_inurba_marseille","lat":43.3377,"lon":5.37432,"is_reserved":false,"is_disabled":false,"rental_uris":{"android":"levelo://app?vid=3e41417e-0b0c-4908-8670-c6d49ee292be","ios":"levelo://app?vid=3e41417e-0b0c-4908-8670-c6d49ee292be"},"vehicle_type_id":"4","last_reported":1729689492,"current_range_meters":37600,"station_id":"","pricing_plan_id":"cebpf4jnsgd1na2vs0mg"},{"bike_id":"c0577493-6fdf-4288-93e2-1efb6212ffea","system_id":"levelo_inurba_marseille","lat":43.33021,"lon":5.39041,"is_reserved":false,"is_disabled":false,"rental_uris":{"android":"levelo://app?vid=c0577493-6fdf-4288-93e2-1efb6212ffea","ios":"levelo://app?vid=c0577493-6fdf-4288-93e2-1efb6212ffea"},"vehicle_type_id":"4","last_reported":1729689492,"current_range_meters":39200,"station_id":"ce4bhr92rcd13ifvqhrg","pricing_plan_id":"cebpf4jnsgd1na2vs0mg"},{"bike_id":"056ce170-be58-4841-8c8d-b76440abc31c","system_id":"levelo_inurba_marseille","lat":43.27679,"lon":5.38879,"is_reserved":false,"is_disabled":false,"rental_uris":{"android":"levelo://app?vid=056ce170-be58-4841-8c8d-b76440abc31c","ios":"levelo://app?vid=056ce170-be58-4841-8c8d-b76440abc31c"},"vehicle_type_id":"4","last_reported":1729689492,"current_range_meters":24000,"station_id":"ce4bhi12rcd13ifvqfo0","pricing_plan_id":"cebpf4jnsgd1na2vs0mg"},{"bike_id":"41d88964-dd53-43d5-850f-b9cd331ca310","system_id":"levelo_inurba_marseille","lat":43.25818,"lon":5.39434,"is_reserved":false,"is_disabled":false,"rental_uris":{"android":"levelo://app?vid=41d88964-dd53-43d5-850f-b9cd331ca310","ios":"levelo://app?vid=41d88964-dd53-43d5-850f-b9cd331ca310"},"vehicle_type_id":"4","last_reported":1729689492,"current_range_meters":9200,"station_id":"ce4bhip2rcd13ifvqft0","pricing_plan_id":"cebpf4jnsgd1na2vs0mg"},{"bike_id":"f5a53045-f9b0-4183-9fc6-73b35736d031","system_id":"levelo_inurba_marseille","lat":43.30273,"lon":5.37706,"is_reserved":false,"is_disabled":false,"rental_uris":{"android":"levelo://app?vid=f5a53045-f9b0-4183-9fc6-73b35736d031","ios":"levelo://app?vid=f5a53045-f9b0-4183-9fc6-73b35736d031"},"vehicle_type_id":"4","last_reported":1729689492,"current_range_meters":39200,"station_id":"ce4bguh2rcd13ifvqcj0","pricing_plan_id":"cebpf4jnsgd1na2vs0mg"},{"bike_id":"5c27dc31-8e2f-45d8-ae38-d4637db5c55c","system_id":"levelo_inurba_marseille","lat":43.23051,"lon":5.40102,"is_reserved":false,"is_disabled":false,"rental_uris":{"android":"levelo://app?vid=5c27dc31-8e2f-45d8-ae38-d4637db5c55c","ios":"levelo://app?vid=5c27dc31-8e2f-45d8-ae38-d4637db5c55c"},"vehicle_type_id":"4","last_reported":1729689492,"current_range_meters":19600,"station_id":"ce4bhn12rcd13ifvqgqg","pricing_plan_id":"cebpf4jnsgd1na2vs0mg"},{"bike_id":"cbe10c03-fb85-436f-9ae4-c9a8a717f05b","system_id":"levelo_inurba_marseille","lat":43.31226,"lon":5.36865,"is_reserved":false,"is_disabled":false,"rental_uris":{"android":"levelo://app?vid=cbe10c03-fb85-436f-9ae4-c9a8a717f05b","ios":"levelo://app?vid=cbe10c03-fb85-436f-9ae4-c9a8a717f05b"},"vehicle_type_id":"4","last_reported":1729689492,"current_range_meters":12400,"station_id":"ce4bgl92rcd13ifvqbq0","pricing_plan_id":"cebpf4jnsgd1na2vs0mg"},{"bike_id":"8c21a646-e407-4d61-9538-182ced2a93a9","system_id":"levelo_inurba_marseille","lat":43.268,"lon":5.4026,"is_reserved":false,"is_disabled":false,"rental_uris":{"android":"levelo://app?vid=8c21a646-e407-4d61-9538-182ced2a93a9","ios":"levelo://app?vid=8c21a646-e407-4d61-9538-182ced2a93a9"},"vehicle_type_id":"4","last_reported":1729689492,"current_range_meters":24000,"station_id":"ce501612rcd8frsf0b60","pricing_plan_id":"cebpf4jnsgd1na2vs0mg"},{"bike_id":"e4c01e63-57c9-42fd-abc8-1eaf29405462","system_id":"levelo_inurba_marseille","lat":43.28708,"lon":5.37379,"is_reserved":false,"is_disabled":false,"rental_uris":{"android":"levelo://app?vid=e4c01e63-57c9-42fd-abc8-1eaf29405462","ios":"levelo://app?vid=e4c01e63-57c9-42fd-abc8-1eaf29405462"},"vehicle_type_id":"4","last_reported":1729689492,"current_range_meters":19200,"station_id":"ce4bh3p2rcd13ifvqdq0","pricing_plan_id":"cebpf4jnsgd1na2vs0mg"},{"bike_id":"95483d55-6676-426a-9b35-531d8cb5c448","system_id":"levelo_inurba_marseille","lat":43.32658,"lon":5.4099,"is_reserved":false,"is_disabled":false,"rental_uris":{"android":"levelo://app?vid=95483d55-6676-426a-9b35-531d8cb5c448","ios":"levelo://app?vid=95483d55-6676-426a-9b35-531d8cb5c448"},"vehicle_type_id":"4","last_reported":1729689492,"current_range_meters":36000,"station_id":"ce4bhpp2rcd13ifvqhgg","pricing_plan_id":"cebpf4jnsgd1na2vs0mg"},{"bike_id":"e1b436f0-3489-4f4c-908e-ee19a97f4398","system_id":"levelo_inurba_marseille","lat":43.314925,"lon":5.373113,"is_reserved":false,"is_disabled":false,"rental_uris":{"android":"levelo://app?vid=e1b436f0-3489-4f4c-908e-ee19a97f4398","ios":"levelo://app?vid=e1b436f0-3489-4f4c-908e-ee19a97f4398"},"vehicle_type_id":"4","last_reported":1729689492,"current_range_meters":30800,"station_id":"ce4bgt12rcd13ifvqcd0","pricing_plan_id":"cebpf4jnsgd1na2vs0mg"},{"bike_id":"bdc10d94-19c7-4af1-bf5c-9b96cea2302d","system_id":"levelo_inurba_marseille","lat":43.305542,"lon":5.365275,"is_reserved":false,"is_disabled":false,"rental_uris":{"android":"levelo://app?vid=bdc10d94-19c7-4af1-bf5c-9b96cea2302d","ios":"levelo://app?vid=bdc10d94-19c7-4af1-bf5c-9b96cea2302d"},"vehicle_type_id":"4","last_reported":1729689492,"current_range_meters":32000,"station_id":"ce4bhr92rcd13ifvqhrg","pricing_plan_id":"cebpf4jnsgd1na2vs0mg"},{"bike_id":"52f95e33-56b7-4f95-bce7-7fd2e7f6cd16","system_id":"levelo_inurba_marseille","lat":43.33096,"lon":5.43171,"is_reserved":false,"is_disabled":false,"rental_uris":{"android":"levelo://app?vid=52f95e33-56b7-4f95-bce7-7fd2e7f6cd16","ios":"levelo://app?vid=52f95e33-56b7-4f95-bce7-7fd2e7f6cd16"},"vehicle_type_id":"4","last_reported":1729689492,"current_range_meters":28800,"station_id":"","pricing_plan_id":"cebpf4jnsgd1na2vs0mg"},{"bike_id":"4b1276f2-43a3-4e60-982e-cf22e9d71d41","system_id":"levelo_inurba_marseille","lat":43.2396,"lon":5.36642,"is_reserved":false,"is_disabled":false,"rental_uris":{"android":"levelo://app?vid=4b1276f2-43a3-4e60-982e-cf22e9d71d41","ios":"levelo://app?vid=4b1276f2-43a3-4e60-982e-cf22e9d71d41"},"vehicle_type_id":"4","last_reported":1729689492,"current_range_meters":2800,"station_id":"ce4bhi12rcd13ifvqfp0","pricing_plan_id":"cebpf4jnsgd1na2vs0mg"},{"bike_id":"26f903ce-b7d3-42f5-9cdc-b9284b7745bd","system_id":"levelo_inurba_marseille","lat":43.29622,"lon":5.406,"is_reserved":false,"is_disabled":false,"rental_uris":{"android":"levelo://app?vid=26f903ce-b7d3-42f5-9cdc-b9284b7745bd","ios":"levelo://app?vid=26f903ce-b7d3-42f5-9cdc-b9284b7745bd"},"vehicle_type_id":"4","last_reported":1729689492,"current_range_meters":38800,"station_id":"ce4bh0h2rcd13ifvqd60","pricing_plan_id":"cebpf4jnsgd1na2vs0mg"},{"bike_id":"2df57d9c-b025-4fc9-a0c0-a69158eb59f3","system_id":"levelo_inurba_marseille","lat":43.32111,"lon":5.36777,"is_reserved":false,"is_disabled":false,"rental_uris":{"android":"levelo://app?vid=2df57d9c-b025-4fc9-a0c0-a69158eb59f3","ios":"levelo://app?vid=2df57d9c-b025-4fc9-a0c0-a69158eb59f3"},"vehicle_type_id":"4","last_reported":1729689492,"current_range_meters":18800,"station_id":"ce4bhrh2rcd13ifvqhug","pricing_plan_id":"cebpf4jnsgd1na2vs0mg"},{"bike_id":"53d78d43-790e-42e4-9da9-6899a6ba8441","system_id":"levelo_inurba_marseille","lat":43.32111,"lon":5.36775,"is_reserved":false,"is_disabled":false,"rental_uris":{"android":"levelo://app?vid=53d78d43-790e-42e4-9da9-6899a6ba8441","ios":"levelo://app?vid=53d78d43-790e-42e4-9da9-6899a6ba8441"},"vehicle_type_id":"4","last_reported":1729689492,"current_range_meters":24400,"station_id":"ce4bhrh2rcd13ifvqhug","pricing_plan_id":"cebpf4jnsgd1na2vs0mg"},{"bike_id":"13772238-54d2-476b-85f7-1059bb3dc8a3","system_id":"levelo_inurba_marseille","lat":43.2768,"lon":5.38865,"is_reserved":false,"is_disabled":false,"rental_uris":{"android":"levelo://app?vid=13772238-54d2-476b-85f7-1059bb3dc8a3","ios":"levelo://app?vid=13772238-54d2-476b-85f7-1059bb3dc8a3"},"vehicle_type_id":"4","last_reported":1729689492,"current_range_meters":31200,"station_id":"ce4bhi12rcd13ifvqfo0","pricing_plan_id":"cebpf4jnsgd1na2vs0mg"},{"bike_id":"5bd8bc03-304a-43a5-8890-5ad8b254d5f9","system_id":"levelo_inurba_marseille","lat":43.29708,"lon":5.36603,"is_reserved":false,"is_disabled":false,"rental_uris":{"android":"levelo://app?vid=5bd8bc03-304a-43a5-8890-5ad8b254d5f9","ios":"levelo://app?vid=5bd8bc03-304a-43a5-8890-5ad8b254d5f9"},"vehicle_type_id":"4","last_reported":1729689492,"current_range_meters":27200,"station_id":"ce4bgn12rcd13ifvqbt0","pricing_plan_id":"cebpf4jnsgd1na2vs0mg"},{"bike_id":"06dd2ee9-7252-4e6e-a9d1-15a17d7a2cf0","system_id":"levelo_inurba_marseille","lat":43.30525,"lon":5.36531,"is_reserved":false,"is_disabled":false,"rental_uris":{"android":"levelo://app?vid=06dd2ee9-7252-4e6e-a9d1-15a17d7a2cf0","ios":"levelo://app?vid=06dd2ee9-7252-4e6e-a9d1-15a17d7a2cf0"},"vehicle_type_id":"4","last_reported":1729689492,"current_range_meters":14400,"station_id":"ce4bgs12rcd13ifvqcag","pricing_plan_id":"cebpf4jnsgd1na2vs0mg"},{"bike_id":"55da0b18-0d3d-47f9-acd3-b75661839685","system_id":"levelo_inurba_marseille","lat":43.29024,"lon":5.38129,"is_reserved":false,"is_disabled":false,"rental_uris":{"android":"levelo://app?vid=55da0b18-0d3d-47f9-acd3-b75661839685","ios":"levelo://app?vid=55da0b18-0d3d-47f9-acd3-b75661839685"},"vehicle_type_id":"4","last_reported":1729689492,"current_range_meters":12000,"station_id":"ce4bh4p2rcd13ifvqe1g","pricing_plan_id":"cebpf4jnsgd1na2vs0mg"},{"bike_id":"d11144d8-7dc9-4cd6-a909-199a15988c11","system_id":"levelo_inurba_marseille","lat":43.27321,"lon":5.3908,"is_reserved":false,"is_disabled":false,"rental_uris":{"android":"levelo://app?vid=d11144d8-7dc9-4cd6-a909-199a15988c11","ios":"levelo://app?vid=d11144d8-7dc9-4cd6-a909-199a15988c11"},"vehicle_type_id":"4","last_reported":1729689492,"current_range_meters":16800,"station_id":"ce4bhgp2rcd13ifvqfe0","pricing_plan_id":"cebpf4jnsgd1na2vs0mg"},{"bike_id":"6dd69329-5579-4944-b6a8-e4932f66ff5c","system_id":"levelo_inurba_marseille","lat":43.316864,"lon":5.404733,"is_reserved":false,"is_disabled":false,"rental_uris":{"android":"levelo://app?vid=6dd69329-5579-4944-b6a8-e4932f66ff5c","ios":"levelo://app?vid=6dd69329-5579-4944-b6a8-e4932f66ff5c"},"vehicle_type_id":"4","last_reported":1729689492,"current_range_meters":13600,"station_id":"ce4bh012rcd13ifvqd00","pricing_plan_id":"cebpf4jnsgd1na2vs0mg"},{"bike_id":"be9773f2-0210-449f-bdb9-515efac7263f","system_id":"levelo_inurba_marseille","lat":43.31326,"lon":5.39695,"is_reserved":false,"is_disabled":false,"rental_uris":{"android":"levelo://app?vid=be9773f2-0210-449f-bdb9-515efac7263f","ios":"levelo://app?vid=be9773f2-0210-449f-bdb9-515efac7263f"},"vehicle_type_id":"4","last_reported":1729689492,"current_range_meters":38800,"station_id":"ce4bgvp2rcd13ifvqcu0","pricing_plan_id":"cebpf4jnsgd1na2vs0mg"},{"bike_id":"b7393e49-91da-4125-a929-c292a93434a4","system_id":"levelo_inurba_marseille","lat":43.24076,"lon":5.37745,"is_reserved":false,"is_disabled":false,"rental_uris":{"android":"levelo://app?vid=b7393e49-91da-4125-a929-c292a93434a4","ios":"levelo://app?vid=b7393e49-91da-4125-a929-c292a93434a4"},"vehicle_type_id":"4","last_reported":1729689492,"current_range_meters":23200,"station_id":"ce4bhnp2rcd13ifvqgvg","pricing_plan_id":"cebpf4jnsgd1na2vs0mg"},{"bike_id":"ad3c3ac2-9976-4317-9f9b-263400531242","system_id":"levelo_inurba_marseille","lat":43.290056,"lon":5.356113,"is_reserved":false,"is_disabled":false,"rental_uris":{"android":"levelo://app?vid=ad3c3ac2-9976-4317-9f9b-263400531242","ios":"levelo://app?vid=ad3c3ac2-9976-4317-9f9b-263400531242"},"vehicle_type_id":"4","last_reported":1729689492,"current_range_meters":25600,"station_id":"ce4bhb92rcd13ifvqen0","pricing_plan_id":"cebpf4jnsgd1na2vs0mg"},{"bike_id":"0e7198cd-7129-4c46-995a-a820dcd7ee47","system_id":"levelo_inurba_marseille","lat":43.269556,"lon":5.388506,"is_reserved":false,"is_disabled":false,"rental_uris":{"android":"levelo://app?vid=0e7198cd-7129-4c46-995a-a820dcd7ee47","ios":"levelo://app?vid=0e7198cd-7129-4c46-995a-a820dcd7ee47"},"vehicle_type_id":"4","last_reported":1729689492,"current_range_meters":22400,"station_id":"ce4bhhh2rcd13ifvqfl0","pricing_plan_id":"cebpf4jnsgd1na2vs0mg"},{"bike_id":"9639bebd-201e-4b55-9187-2633b106e19c","system_id":"levelo_inurba_marseille","lat":43.3302,"lon":5.39034,"is_reserved":false,"is_disabled":false,"rental_uris":{"android":"levelo://app?vid=9639bebd-201e-4b55-9187-2633b106e19c","ios":"levelo://app?vid=9639bebd-201e-4b55-9187-2633b106e19c"},"vehicle_type_id":"4","last_reported":1729689492,"current_range_meters":39200,"station_id":"ce4bhr92rcd13ifvqhrg","pricing_plan_id":"cebpf4jnsgd1na2vs0mg"},{"bike_id":"99ae1072-103e-401d-afba-fb62ba57af61","system_id":"levelo_inurba_marseille","lat":43.28723,"lon":5.36097,"is_reserved":false,"is_disabled":false,"rental_uris":{"android":"levelo://app?vid=99ae1072-103e-401d-afba-fb62ba57af61","ios":"levelo://app?vid=99ae1072-103e-401d-afba-fb62ba57af61"},"vehicle_type_id":"4","last_reported":1729689492,"current_range_meters":16000,"station_id":"cki0cbj6b192h4jlfktg","pricing_plan_id":"cebpf4jnsgd1na2vs0mg"},{"bike_id":"b711bd15-347d-439d-b0c3-bc3d75bef70c","system_id":"levelo_inurba_marseille","lat":43.25714,"lon":5.41081,"is_reserved":false,"is_disabled":false,"rental_uris":{"android":"levelo://app?vid=b711bd15-347d-439d-b0c3-bc3d75bef70c","ios":"levelo://app?vid=b711bd15-347d-439d-b0c3-bc3d75bef70c"},"vehicle_type_id":"4","last_reported":1729689492,"current_range_meters":37600,"station_id":"ce4bhkp2rcd13ifvqgd0","pricing_plan_id":"cebpf4jnsgd1na2vs0mg"},{"bike_id":"ae2ce2d4-fc19-4d51-989f-983c86c83842","system_id":"levelo_inurba_marseille","lat":43.3302,"lon":5.39041,"is_reserved":false,"is_disabled":false,"rental_uris":{"android":"levelo://app?vid=ae2ce2d4-fc19-4d51-989f-983c86c83842","ios":"levelo://app?vid=ae2ce2d4-fc19-4d51-989f-983c86c83842"},"vehicle_type_id":"4","last_reported":1729689492,"current_range_meters":39200,"station_id":"ce4bhr92rcd13ifvqhrg","pricing_plan_id":"cebpf4jnsgd1na2vs0mg"},{"bike_id":"26544c47-13ba-40a0-affa-6c9daa374698","system_id":"levelo_inurba_marseille","lat":43.31464,"lon":5.37384,"is_reserved":false,"is_disabled":false,"rental_uris":{"android":"levelo://app?vid=26544c47-13ba-40a0-affa-6c9daa374698","ios":"levelo://app?vid=26544c47-13ba-40a0-affa-6c9daa374698"},"vehicle_type_id":"4","last_reported":1729689492,"current_range_meters":38800,"station_id":"","pricing_plan_id":"cebpf4jnsgd1na2vs0mg"},{"bike_id":"c2ce141d-6e76-44dc-931b-253d09157587","system_id":"levelo_inurba_marseille","lat":43.24998,"lon":5.38931,"is_reserved":false,"is_disabled":false,"rental_uris":{"android":"levelo://app?vid=c2ce141d-6e76-44dc-931b-253d09157587","ios":"levelo://app?vid=c2ce141d-6e76-44dc-931b-253d09157587"},"vehicle_type_id":"4","last_reported":1729689492,"current_range_meters":38000,"station_id":"ce4bhgp2rcd13ifvqfd0","pricing_plan_id":"cebpf4jnsgd1na2vs0mg"},{"bike_id":"96984c27-f0c4-4478-90f9-ffcf849a3347","system_id":"levelo_inurba_marseille","lat":43.273719,"lon":5.393333,"is_reserved":false,"is_disabled":false,"rental_uris":{"android":"levelo://app?vid=96984c27-f0c4-4478-90f9-ffcf849a3347","ios":"levelo://app?vid=96984c27-f0c4-4478-90f9-ffcf849a3347"},"vehicle_type_id":"4","last_reported":1729689492,"current_range_meters":22800,"station_id":"ce4bh192rcd13ifvqdc0","pricing_plan_id":"cebpf4jnsgd1na2vs0mg"},{"bike_id":"005222e6-3f57-462e-980c-0c87063d00fa","system_id":"levelo_inurba_marseille","lat":43.31079,"lon":5.38374,"is_reserved":false,"is_disabled":false,"rental_uris":{"android":"levelo://app?vid=005222e6-3f57-462e-980c-0c87063d00fa","ios":"levelo://app?vid=005222e6-3f57-462e-980c-0c87063d00fa"},"vehicle_type_id":"4","last_reported":1729689492,"current_range_meters":16800,"station_id":"ce4bgv92rcd13ifvqcr0","pricing_plan_id":"cebpf4jnsgd1na2vs0mg"},{"bike_id":"f5ede32b-5e29-4acd-8154-16151d063f45","system_id":"levelo_inurba_marseille","lat":43.29905,"lon":5.38153,"is_reserved":false,"is_disabled":false,"rental_uris":{"android":"levelo://app?vid=f5ede32b-5e29-4acd-8154-16151d063f45","ios":"levelo://app?vid=f5ede32b-5e29-4acd-8154-16151d063f45"},"vehicle_type_id":"4","last_reported":1729689492,"current_range_meters":38400,"station_id":"ce4bgj12rcd13ifvqbc0","pricing_plan_id":"cebpf4jnsgd1na2vs0mg"},{"bike_id":"7a942e2e-3f89-41b6-aa6e-24f40537faa3","system_id":"levelo_inurba_marseille","lat":43.25828,"lon":5.39429,"is_reserved":false,"is_disabled":false,"rental_uris":{"android":"levelo://app?vid=7a942e2e-3f89-41b6-aa6e-24f40537faa3","ios":"levelo://app?vid=7a942e2e-3f89-41b6-aa6e-24f40537faa3"},"vehicle_type_id":"4","last_reported":1729689492,"current_range_meters":6000,"station_id":"ce4bhip2rcd13ifvqft0","pricing_plan_id":"cebpf4jnsgd1na2vs0mg"},{"bike_id":"d0a2447a-a990-4228-bf62-fb82770be87b","system_id":"levelo_inurba_marseille","lat":43.299225,"lon":5.371768,"is_reserved":false,"is_disabled":false,"rental_uris":{"android":"levelo://app?vid=d0a2447a-a990-4228-bf62-fb82770be87b","ios":"levelo://app?vid=d0a2447a-a990-4228-bf62-fb82770be87b"},"vehicle_type_id":"4","last_reported":1729689492,"current_range_meters":36000,"station_id":"ce4bgop2rcd13ifvqc1g","pricing_plan_id":"cebpf4jnsgd1na2vs0mg"},{"bike_id":"f48211d9-2510-4f4a-8b04-e4a79ddbd7b1","system_id":"levelo_inurba_marseille","lat":43.314951,"lon":5.373123,"is_reserved":false,"is_disabled":false,"rental_uris":{"android":"levelo://app?vid=f48211d9-2510-4f4a-8b04-e4a79ddbd7b1","ios":"levelo://app?vid=f48211d9-2510-4f4a-8b04-e4a79ddbd7b1"},"vehicle_type_id":"4","last_reported":1729689492,"current_range_meters":28800,"station_id":"ce4bgt12rcd13ifvqcd0","pricing_plan_id":"cebpf4jnsgd1na2vs0mg"},{"bike_id":"f928823a-71eb-443f-9016-ed46a7160f5e","system_id":"levelo_inurba_marseille","lat":43.29636,"lon":5.40605,"is_reserved":false,"is_disabled":false,"rental_uris":{"android":"levelo://app?vid=f928823a-71eb-443f-9016-ed46a7160f5e","ios":"levelo://app?vid=f928823a-71eb-443f-9016-ed46a7160f5e"},"vehicle_type_id":"4","last_reported":1729689492,"current_range_meters":16400,"station_id":"ce4bh0h2rcd13ifvqd60","pricing_plan_id":"cebpf4jnsgd1na2vs0mg"},{"bike_id":"f483f593-b27a-45bc-a949-0596e90322bd","system_id":"levelo_inurba_marseille","lat":43.30557,"lon":5.36525,"is_reserved":false,"is_disabled":false,"rental_uris":{"android":"levelo://app?vid=f483f593-b27a-45bc-a949-0596e90322bd","ios":"levelo://app?vid=f483f593-b27a-45bc-a949-0596e90322bd"},"vehicle_type_id":"4","last_reported":1729689492,"current_range_meters":6000,"station_id":"ce4bgs12rcd13ifvqcag","pricing_plan_id":"cebpf4jnsgd1na2vs0mg"},{"bike_id":"927a9ca0-9f48-493a-8d09-f98c0f0c1f2a","system_id":"levelo_inurba_marseille","lat":43.26807,"lon":5.40262,"is_reserved":false,"is_disabled":false,"rental_uris":{"android":"levelo://app?vid=927a9ca0-9f48-493a-8d09-f98c0f0c1f2a","ios":"levelo://app?vid=927a9ca0-9f48-493a-8d09-f98c0f0c1f2a"},"vehicle_type_id":"4","last_reported":1729689492,"current_range_meters":39200,"station_id":"ce501612rcd8frsf0b60","pricing_plan_id":"cebpf4jnsgd1na2vs0mg"},{"bike_id":"f08adf56-3656-4832-b8b5-be891df678fc","system_id":"levelo_inurba_marseille","lat":43.298,"lon":5.38087,"is_reserved":false,"is_disabled":false,"rental_uris":{"android":"levelo://app?vid=f08adf56-3656-4832-b8b5-be891df678fc","ios":"levelo://app?vid=f08adf56-3656-4832-b8b5-be891df678fc"},"vehicle_type_id":"4","last_reported":1729689492,"current_range_meters":4000,"station_id":"ce4bgip2rcd13ifvqbb0","pricing_plan_id":"cebpf4jnsgd1na2vs0mg"},{"bike_id":"945ad10d-c951-4d28-b5ae-c14a3ffa3ffe","system_id":"levelo_inurba_marseille","lat":43.30543,"lon":5.36692,"is_reserved":false,"is_disabled":false,"rental_uris":{"android":"levelo://app?vid=945ad10d-c951-4d28-b5ae-c14a3ffa3ffe","ios":"levelo://app?vid=945ad10d-c951-4d28-b5ae-c14a3ffa3ffe"},"vehicle_type_id":"4","last_reported":1729689492,"current_range_meters":39200,"station_id":"ce4bgrp2rcd13ifvqc9g","pricing_plan_id":"cebpf4jnsgd1na2vs0mg"},{"bike_id":"e8a88410-dafc-44fc-9302-8a9ea29a82fa","system_id":"levelo_inurba_marseille","lat":43.2407,"lon":5.37754,"is_reserved":false,"is_disabled":false,"rental_uris":{"android":"levelo://app?vid=e8a88410-dafc-44fc-9302-8a9ea29a82fa","ios":"levelo://app?vid=e8a88410-dafc-44fc-9302-8a9ea29a82fa"},"vehicle_type_id":"4","last_reported":1729689492,"current_range_meters":8000,"station_id":"ce4bhnp2rcd13ifvqgvg","pricing_plan_id":"cebpf4jnsgd1na2vs0mg"},{"bike_id":"184b0eb9-d9a4-42d2-bdec-6087e7423df5","system_id":"levelo_inurba_marseille","lat":43.29253,"lon":5.40914,"is_reserved":false,"is_disabled":false,"rental_uris":{"android":"levelo://app?vid=184b0eb9-d9a4-42d2-bdec-6087e7423df5","ios":"levelo://app?vid=184b0eb9-d9a4-42d2-bdec-6087e7423df5"},"vehicle_type_id":"4","last_reported":1729689492,"current_range_meters":38800,"station_id":"ce4bh192rcd13ifvqdc0","pricing_plan_id":"cebpf4jnsgd1na2vs0mg"},{"bike_id":"a521c087-18c7-447f-8e24-cf248805e64a","system_id":"levelo_inurba_marseille","lat":43.27677,"lon":5.38904,"is_reserved":false,"is_disabled":false,"rental_uris":{"android":"levelo://app?vid=a521c087-18c7-447f-8e24-cf248805e64a","ios":"levelo://app?vid=a521c087-18c7-447f-8e24-cf248805e64a"},"vehicle_type_id":"4","last_reported":1729689492,"current_range_meters":26800,"station_id":"ce4bhi12rcd13ifvqfo0","pricing_plan_id":"cebpf4jnsgd1na2vs0mg"},{"bike_id":"0edd7bdb-6907-43af-825b-069034e94085","system_id":"levelo_inurba_marseille","lat":43.27499,"lon":5.4245,"is_reserved":false,"is_disabled":false,"rental_uris":{"android":"levelo://app?vid=0edd7bdb-6907-43af-825b-069034e94085","ios":"levelo://app?vid=0edd7bdb-6907-43af-825b-069034e94085"},"vehicle_type_id":"4","last_reported":1729689492,"current_range_meters":32000,"station_id":"ce4bhn92rcd13ifvqgrg","pricing_plan_id":"cebpf4jnsgd1na2vs0mg"},{"bike_id":"7d9bae66-75c0-414c-b6e5-1dae4af5c1cb","system_id":"levelo_inurba_marseille","lat":43.22929,"lon":5.35377,"is_reserved":false,"is_disabled":false,"rental_uris":{"android":"levelo://app?vid=7d9bae66-75c0-414c-b6e5-1dae4af5c1cb","ios":"levelo://app?vid=7d9bae66-75c0-414c-b6e5-1dae4af5c1cb"},"vehicle_type_id":"4","last_reported":1729689492,"current_range_meters":36800,"station_id":"cpo3532slgdg3j2ikp40","pricing_plan_id":"cebpf4jnsgd1na2vs0mg"},{"bike_id":"5b300e6e-4c95-44bb-a23b-97361144ade8","system_id":"levelo_inurba_marseille","lat":43.28265,"lon":5.35062,"is_reserved":false,"is_disabled":false,"rental_uris":{"android":"levelo://app?vid=5b300e6e-4c95-44bb-a23b-97361144ade8","ios":"levelo://app?vid=5b300e6e-4c95-44bb-a23b-97361144ade8"},"vehicle_type_id":"4","last_reported":1729689492,"current_range_meters":6800,"station_id":"ce4bhbp2rcd13ifvqerg","pricing_plan_id":"cebpf4jnsgd1na2vs0mg"},{"bike_id":"e48368c0-94b3-4b99-b196-7496a6c0293a","system_id":"levelo_inurba_marseille","lat":43.31074,"lon":5.38351,"is_reserved":false,"is_disabled":false,"rental_uris":{"android":"levelo://app?vid=e48368c0-94b3-4b99-b196-7496a6c0293a","ios":"levelo://app?vid=e48368c0-94b3-4b99-b196-7496a6c0293a"},"vehicle_type_id":"4","last_reported":1729689492,"current_range_meters":33600,"station_id":"ce4bgv92rcd13ifvqcr0","pricing_plan_id":"cebpf4jnsgd1na2vs0mg"},{"bike_id":"6a7c559a-999e-4fbe-bf60-29024c235332","system_id":"levelo_inurba_marseille","lat":43.3089,"lon":5.37196,"is_reserved":false,"is_disabled":false,"rental_uris":{"android":"levelo://app?vid=6a7c559a-999e-4fbe-bf60-29024c235332","ios":"levelo://app?vid=6a7c559a-999e-4fbe-bf60-29024c235332"},"vehicle_type_id":"4","last_reported":1729689492,"current_range_meters":34000,"station_id":"ce4bguh2rcd13ifvqckg","pricing_plan_id":"cebpf4jnsgd1na2vs0mg"},{"bike_id":"9998be2f-225a-4ab8-918b-5b5a1105a10b","system_id":"levelo_inurba_marseille","lat":43.297,"lon":5.366,"is_reserved":false,"is_disabled":false,"rental_uris":{"android":"levelo://app?vid=9998be2f-225a-4ab8-918b-5b5a1105a10b","ios":"levelo://app?vid=9998be2f-225a-4ab8-918b-5b5a1105a10b"},"vehicle_type_id":"4","last_reported":1729689492,"current_range_meters":40000,"station_id":"ce4bgn12rcd13ifvqbt0","pricing_plan_id":"cebpf4jnsgd1na2vs0mg"},{"bike_id":"f3bcae91-c388-4c54-9f03-56e0f2ade2bd","system_id":"levelo_inurba_marseille","lat":43.30948,"lon":5.39044,"is_reserved":false,"is_disabled":false,"rental_uris":{"android":"levelo://app?vid=f3bcae91-c388-4c54-9f03-56e0f2ade2bd","ios":"levelo://app?vid=f3bcae91-c388-4c54-9f03-56e0f2ade2bd"},"vehicle_type_id":"4","last_reported":1729689492,"current_range_meters":12800,"station_id":"ce4bgup2rcd13ifvqco0","pricing_plan_id":"cebpf4jnsgd1na2vs0mg"},{"bike_id":"4f6e48e1-d18c-4ef1-8739-6f3d76585a44","system_id":"levelo_inurba_marseille","lat":43.25004,"lon":5.38933,"is_reserved":false,"is_disabled":false,"rental_uris":{"android":"levelo://app?vid=4f6e48e1-d18c-4ef1-8739-6f3d76585a44","ios":"levelo://app?vid=4f6e48e1-d18c-4ef1-8739-6f3d76585a44"},"vehicle_type_id":"4","last_reported":1729689492,"current_range_meters":35200,"station_id":"ce4bhgp2rcd13ifvqfd0","pricing_plan_id":"cebpf4jnsgd1na2vs0mg"},{"bike_id":"c803187e-448f-4d8d-ad3a-ff36110a20d0","system_id":"levelo_inurba_marseille","lat":43.31357,"lon":5.36697,"is_reserved":false,"is_disabled":false,"rental_uris":{"android":"levelo://app?vid=c803187e-448f-4d8d-ad3a-ff36110a20d0","ios":"levelo://app?vid=c803187e-448f-4d8d-ad3a-ff36110a20d0"},"vehicle_type_id":"4","last_reported":1729689492,"current_range_meters":39200,"station_id":"ce4bgr92rcd13ifvqc6g","pricing_plan_id":"cebpf4jnsgd1na2vs0mg"},{"bike_id":"4d86af18-547a-488d-a7bd-17b227ec42e3","system_id":"levelo_inurba_marseille","lat":43.30892,"lon":5.39651,"is_reserved":false,"is_disabled":false,"rental_uris":{"android":"levelo://app?vid=4d86af18-547a-488d-a7bd-17b227ec42e3","ios":"levelo://app?vid=4d86af18-547a-488d-a7bd-17b227ec42e3"},"vehicle_type_id":"4","last_reported":1729689492,"current_range_meters":18000,"station_id":"ce4bh012rcd13ifvqcv0","pricing_plan_id":"cebpf4jnsgd1na2vs0mg"},{"bike_id":"a72e5119-7628-4ee5-9254-ac10d3fc81ff","system_id":"levelo_inurba_marseille","lat":43.245283,"lon":5.395113,"is_reserved":false,"is_disabled":false,"rental_uris":{"android":"levelo://app?vid=a72e5119-7628-4ee5-9254-ac10d3fc81ff","ios":"levelo://app?vid=a72e5119-7628-4ee5-9254-ac10d3fc81ff"},"vehicle_type_id":"4","last_reported":1729689492,"current_range_meters":16000,"station_id":"ce4bhlp2rcd13ifvqgjg","pricing_plan_id":"cebpf4jnsgd1na2vs0mg"},{"bike_id":"f4081b57-5292-412b-af63-f0b72c332691","system_id":"levelo_inurba_marseille","lat":43.24172,"lon":5.36398,"is_reserved":false,"is_disabled":false,"rental_uris":{"android":"levelo://app?vid=f4081b57-5292-412b-af63-f0b72c332691","ios":"levelo://app?vid=f4081b57-5292-412b-af63-f0b72c332691"},"vehicle_type_id":"4","last_reported":1729689492,"current_range_meters":29600,"station_id":"cpo36qri1sfpv3e86is0","pricing_plan_id":"cebpf4jnsgd1na2vs0mg"},{"bike_id":"8a2dd17a-483c-452c-ab34-1ed74942d8d5","system_id":"levelo_inurba_marseille","lat":43.28155,"lon":5.42651,"is_reserved":false,"is_disabled":false,"rental_uris":{"android":"levelo://app?vid=8a2dd17a-483c-452c-ab34-1ed74942d8d5","ios":"levelo://app?vid=8a2dd17a-483c-452c-ab34-1ed74942d8d5"},"vehicle_type_id":"4","last_reported":1729689492,"current_range_meters":32000,"station_id":"ce4bhnh2rcd13ifvqgug","pricing_plan_id":"cebpf4jnsgd1na2vs0mg"},{"bike_id":"b48f8c2d-a05e-4cee-bf57-4525735200ad","system_id":"levelo_inurba_marseille","lat":43.26672,"lon":5.38266,"is_reserved":false,"is_disabled":false,"rental_uris":{"android":"levelo://app?vid=b48f8c2d-a05e-4cee-bf57-4525735200ad","ios":"levelo://app?vid=b48f8c2d-a05e-4cee-bf57-4525735200ad"},"vehicle_type_id":"4","last_reported":1729689492,"current_range_meters":38800,"station_id":"ce4bhg92rcd13ifvqf90","pricing_plan_id":"cebpf4jnsgd1na2vs0mg"},{"bike_id":"e637874e-66d3-486d-8483-c432b93967e0","system_id":"levelo_inurba_marseille","lat":43.29687,"lon":5.3729,"is_reserved":false,"is_disabled":false,"rental_uris":{"android":"levelo://app?vid=e637874e-66d3-486d-8483-c432b93967e0","ios":"levelo://app?vid=e637874e-66d3-486d-8483-c432b93967e0"},"vehicle_type_id":"4","last_reported":1729689492,"current_range_meters":30000,"station_id":"ce4bgk12rcd13ifvqbj0","pricing_plan_id":"cebpf4jnsgd1na2vs0mg"},{"bike_id":"0e13864d-4d4b-42d1-bce3-43a4f40843b2","system_id":"levelo_inurba_marseille","lat":43.265,"lon":5.39538,"is_reserved":false,"is_disabled":false,"rental_uris":{"android":"levelo://app?vid=0e13864d-4d4b-42d1-bce3-43a4f40843b2","ios":"levelo://app?vid=0e13864d-4d4b-42d1-bce3-43a4f40843b2"},"vehicle_type_id":"4","last_reported":1729689492,"current_range_meters":25600,"station_id":"ce4bhi12rcd13ifvqfq0","pricing_plan_id":"cebpf4jnsgd1na2vs0mg"},{"bike_id":"0234403f-d52f-4790-a7d5-88474135a434","system_id":"levelo_inurba_marseille","lat":43.25585,"lon":5.38231,"is_reserved":false,"is_disabled":false,"rental_uris":{"android":"levelo://app?vid=0234403f-d52f-4790-a7d5-88474135a434","ios":"levelo://app?vid=0234403f-d52f-4790-a7d5-88474135a434"},"vehicle_type_id":"4","last_reported":1729689492,"current_range_meters":11200,"station_id":"ce4bhih2rcd13ifvqfs0","pricing_plan_id":"cebpf4jnsgd1na2vs0mg"},{"bike_id":"4cc31e6b-44f7-4f7a-bad5-d77b1b4983b3","system_id":"levelo_inurba_marseille","lat":43.22933,"lon":5.35377,"is_reserved":false,"is_disabled":false,"rental_uris":{"android":"levelo://app?vid=4cc31e6b-44f7-4f7a-bad5-d77b1b4983b3","ios":"levelo://app?vid=4cc31e6b-44f7-4f7a-bad5-d77b1b4983b3"},"vehicle_type_id":"4","last_reported":1729689492,"current_range_meters":17600,"station_id":"cpo3532slgdg3j2ikp40","pricing_plan_id":"cebpf4jnsgd1na2vs0mg"},{"bike_id":"401463c9-972f-4574-b9a9-6ba5aba81dc0","system_id":"levelo_inurba_marseille","lat":43.28556,"lon":5.35064,"is_reserved":false,"is_disabled":false,"rental_uris":{"android":"levelo://app?vid=401463c9-972f-4574-b9a9-6ba5aba81dc0","ios":"levelo://app?vid=401463c9-972f-4574-b9a9-6ba5aba81dc0"},"vehicle_type_id":"4","last_reported":1729689492,"current_range_meters":32800,"station_id":"","pricing_plan_id":"cebpf4jnsgd1na2vs0mg"},{"bike_id":"338a4565-cb6c-4b52-a66e-77502064337c","system_id":"levelo_inurba_marseille","lat":43.26567,"lon":5.39008,"is_reserved":false,"is_disabled":false,"rental_uris":{"android":"levelo://app?vid=338a4565-cb6c-4b52-a66e-77502064337c","ios":"levelo://app?vid=338a4565-cb6c-4b52-a66e-77502064337c"},"vehicle_type_id":"4","last_reported":1729689492,"current_range_meters":12800,"station_id":"ce4bhe12rcd13ifvqf30","pricing_plan_id":"cebpf4jnsgd1na2vs0mg"},{"bike_id":"4698da79-2391-4c46-b57e-cb24f0fdb890","system_id":"levelo_inurba_marseille","lat":43.29798,"lon":5.404,"is_reserved":false,"is_disabled":false,"rental_uris":{"android":"levelo://app?vid=4698da79-2391-4c46-b57e-cb24f0fdb890","ios":"levelo://app?vid=4698da79-2391-4c46-b57e-cb24f0fdb890"},"vehicle_type_id":"4","last_reported":1729689492,"current_range_meters":37600,"station_id":"ce4bh112rcd13ifvqd90","pricing_plan_id":"cebpf4jnsgd1na2vs0mg"},{"bike_id":"dd408a1b-ebf8-4821-97ae-2380768db906","system_id":"levelo_inurba_marseille","lat":43.29529,"lon":5.38557,"is_reserved":false,"is_disabled":false,"rental_uris":{"android":"levelo://app?vid=dd408a1b-ebf8-4821-97ae-2380768db906","ios":"levelo://app?vid=dd408a1b-ebf8-4821-97ae-2380768db906"},"vehicle_type_id":"4","last_reported":1729689492,"current_range_meters":14000,"station_id":"ce4bgih2rcd13ifvqba0","pricing_plan_id":"cebpf4jnsgd1na2vs0mg"},{"bike_id":"2fb12151-f142-4f51-9e89-af43958510af","system_id":"levelo_inurba_marseille","lat":43.25109,"lon":5.4032,"is_reserved":false,"is_disabled":false,"rental_uris":{"android":"levelo://app?vid=2fb12151-f142-4f51-9e89-af43958510af","ios":"levelo://app?vid=2fb12151-f142-4f51-9e89-af43958510af"},"vehicle_type_id":"4","last_reported":1729689492,"current_range_meters":24800,"station_id":"ce4bhlh2rcd13ifvqgig","pricing_plan_id":"cebpf4jnsgd1na2vs0mg"},{"bike_id":"958e1bfb-9f82-4431-8f89-1aea9645e31e","system_id":"levelo_inurba_marseille","lat":43.29615,"lon":5.37172,"is_reserved":false,"is_disabled":false,"rental_uris":{"android":"levelo://app?vid=958e1bfb-9f82-4431-8f89-1aea9645e31e","ios":"levelo://app?vid=958e1bfb-9f82-4431-8f89-1aea9645e31e"},"vehicle_type_id":"4","last_reported":1729689492,"current_range_meters":22000,"station_id":"ce4bgnh2rcd13ifvqc0g","pricing_plan_id":"cebpf4jnsgd1na2vs0mg"},{"bike_id":"0dc5fd65-6c08-45fc-b9d0-c856107da224","system_id":"levelo_inurba_marseille","lat":43.29579,"lon":5.36742,"is_reserved":false,"is_disabled":false,"rental_uris":{"android":"levelo://app?vid=0dc5fd65-6c08-45fc-b9d0-c856107da224","ios":"levelo://app?vid=0dc5fd65-6c08-45fc-b9d0-c856107da224"},"vehicle_type_id":"4","last_reported":1729689492,"current_range_meters":23200,"station_id":"ce4bgph2rcd13ifvqc2g","pricing_plan_id":"cebpf4jnsgd1na2vs0mg"},{"bike_id":"4145a2f9-e09c-4c66-bf90-de4da867398d","system_id":"levelo_inurba_marseille","lat":43.23152,"lon":5.43706,"is_reserved":false,"is_disabled":false,"rental_uris":{"android":"levelo://app?vid=4145a2f9-e09c-4c66-bf90-de4da867398d","ios":"levelo://app?vid=4145a2f9-e09c-4c66-bf90-de4da867398d"},"vehicle_type_id":"4","last_reported":1729689492,"current_range_meters":38800,"station_id":"ce4bhmp2rcd13ifvqgog","pricing_plan_id":"cebpf4jnsgd1na2vs0mg"},{"bike_id":"c04ab802-f35d-4e5d-8440-52e2f675fa64","system_id":"levelo_inurba_marseille","lat":43.23151,"lon":5.43702,"is_reserved":false,"is_disabled":false,"rental_uris":{"android":"levelo://app?vid=c04ab802-f35d-4e5d-8440-52e2f675fa64","ios":"levelo://app?vid=c04ab802-f35d-4e5d-8440-52e2f675fa64"},"vehicle_type_id":"4","last_reported":1729689492,"current_range_meters":26800,"station_id":"ce4bhmp2rcd13ifvqgog","pricing_plan_id":"cebpf4jnsgd1na2vs0mg"},{"bike_id":"1b8d756a-6cfa-44c8-a092-11e1f2fbde22","system_id":"levelo_inurba_marseille","lat":43.29092,"lon":5.38142,"is_reserved":false,"is_disabled":false,"rental_uris":{"android":"levelo://app?vid=1b8d756a-6cfa-44c8-a092-11e1f2fbde22","ios":"levelo://app?vid=1b8d756a-6cfa-44c8-a092-11e1f2fbde22"},"vehicle_type_id":"4","last_reported":1729689492,"current_range_meters":15200,"station_id":"ce4bh512rcd13ifvqe2g","pricing_plan_id":"cebpf4jnsgd1na2vs0mg"},{"bike_id":"70c0db28-8045-42ba-a534-2532b86d3455","system_id":"levelo_inurba_marseille","lat":43.22932,"lon":5.35374,"is_reserved":false,"is_disabled":false,"rental_uris":{"android":"levelo://app?vid=70c0db28-8045-42ba-a534-2532b86d3455","ios":"levelo://app?vid=70c0db28-8045-42ba-a534-2532b86d3455"},"vehicle_type_id":"4","last_reported":1729689492,"current_range_meters":17200,"station_id":"cpo3532slgdg3j2ikp40","pricing_plan_id":"cebpf4jnsgd1na2vs0mg"},{"bike_id":"aaef2d09-85f1-4711-93ea-ffc9a1eddbab","system_id":"levelo_inurba_marseille","lat":43.27987,"lon":5.40006,"is_reserved":false,"is_disabled":false,"rental_uris":{"android":"levelo://app?vid=aaef2d09-85f1-4711-93ea-ffc9a1eddbab","ios":"levelo://app?vid=aaef2d09-85f1-4711-93ea-ffc9a1eddbab"},"vehicle_type_id":"4","last_reported":1729689492,"current_range_meters":6000,"station_id":"ce4bho92rcd13ifvqh4g","pricing_plan_id":"cebpf4jnsgd1na2vs0mg"},{"bike_id":"fe269560-e2b9-488b-9e4b-72beadfad0e4","system_id":"levelo_inurba_marseille","lat":43.30273,"lon":5.37698,"is_reserved":false,"is_disabled":false,"rental_uris":{"android":"levelo://app?vid=fe269560-e2b9-488b-9e4b-72beadfad0e4","ios":"levelo://app?vid=fe269560-e2b9-488b-9e4b-72beadfad0e4"},"vehicle_type_id":"4","last_reported":1729689492,"current_range_meters":39200,"station_id":"ce4bguh2rcd13ifvqcj0","pricing_plan_id":"cebpf4jnsgd1na2vs0mg"},{"bike_id":"ec54b109-0e3e-40ca-a3d7-432d7a998283","system_id":"levelo_inurba_marseille","lat":43.29797,"lon":5.40393,"is_reserved":false,"is_disabled":false,"rental_uris":{"android":"levelo://app?vid=ec54b109-0e3e-40ca-a3d7-432d7a998283","ios":"levelo://app?vid=ec54b109-0e3e-40ca-a3d7-432d7a998283"},"vehicle_type_id":"4","last_reported":1729689492,"current_range_meters":28800,"station_id":"ce4bh112rcd13ifvqd90","pricing_plan_id":"cebpf4jnsgd1na2vs0mg"},{"bike_id":"f6b459b1-6063-4638-bf7f-bba1142b2a2c","system_id":"levelo_inurba_marseille","lat":43.28474,"lon":5.38401,"is_reserved":false,"is_disabled":false,"rental_uris":{"android":"levelo://app?vid=f6b459b1-6063-4638-bf7f-bba1142b2a2c","ios":"levelo://app?vid=f6b459b1-6063-4638-bf7f-bba1142b2a2c"},"vehicle_type_id":"4","last_reported":1729689492,"current_range_meters":38800,"station_id":"ce4bh512rcd13ifvqe3g","pricing_plan_id":"cebpf4jnsgd1na2vs0mg"},{"bike_id":"c8c77899-367c-494a-983d-8bcc157151a3","system_id":"levelo_inurba_marseille","lat":43.33729,"lon":5.39183,"is_reserved":false,"is_disabled":false,"rental_uris":{"android":"levelo://app?vid=c8c77899-367c-494a-983d-8bcc157151a3","ios":"levelo://app?vid=c8c77899-367c-494a-983d-8bcc157151a3"},"vehicle_type_id":"4","last_reported":1729689492,"current_range_meters":38000,"station_id":"ce4bhr92rcd13ifvqhsg","pricing_plan_id":"cebpf4jnsgd1na2vs0mg"},{"bike_id":"a958dd6f-1a6f-40c9-8eaf-bfef55877b0e","system_id":"levelo_inurba_marseille","lat":43.26685,"lon":5.38276,"is_reserved":false,"is_disabled":false,"rental_uris":{"android":"levelo://app?vid=a958dd6f-1a6f-40c9-8eaf-bfef55877b0e","ios":"levelo://app?vid=a958dd6f-1a6f-40c9-8eaf-bfef55877b0e"},"vehicle_type_id":"4","last_reported":1729689492,"current_range_meters":22800,"station_id":"ce4bhg92rcd13ifvqf90","pricing_plan_id":"cebpf4jnsgd1na2vs0mg"},{"bike_id":"6ce9344b-2a35-4b68-83a1-33981f2e1634","system_id":"levelo_inurba_marseille","lat":43.28486,"lon":5.38422,"is_reserved":false,"is_disabled":false,"rental_uris":{"android":"levelo://app?vid=6ce9344b-2a35-4b68-83a1-33981f2e1634","ios":"levelo://app?vid=6ce9344b-2a35-4b68-83a1-33981f2e1634"},"vehicle_type_id":"4","last_reported":1729689492,"current_range_meters":32800,"station_id":"ce4bh512rcd13ifvqe3g","pricing_plan_id":"cebpf4jnsgd1na2vs0mg"},{"bike_id":"23117283-fe08-4c81-b0f2-a493f181c969","system_id":"levelo_inurba_marseille","lat":43.27611,"lon":5.36119,"is_reserved":false,"is_disabled":false,"rental_uris":{"android":"levelo://app?vid=23117283-fe08-4c81-b0f2-a493f181c969","ios":"levelo://app?vid=23117283-fe08-4c81-b0f2-a493f181c969"},"vehicle_type_id":"4","last_reported":1729689492,"current_range_meters":6800,"station_id":"ce4bgj92rcd13ifvqbe0","pricing_plan_id":"cebpf4jnsgd1na2vs0mg"},{"bike_id":"e61f83e6-7b6c-46cd-a3ed-4571e1937882","system_id":"levelo_inurba_marseille","lat":43.30548,"lon":5.36525,"is_reserved":false,"is_disabled":false,"rental_uris":{"android":"levelo://app?vid=e61f83e6-7b6c-46cd-a3ed-4571e1937882","ios":"levelo://app?vid=e61f83e6-7b6c-46cd-a3ed-4571e1937882"},"vehicle_type_id":"4","last_reported":1729689492,"current_range_meters":38800,"station_id":"ce4bgs12rcd13ifvqcag","pricing_plan_id":"cebpf4jnsgd1na2vs0mg"},{"bike_id":"8f3c8070-bfe8-48e1-a3e8-5d1ca26856ed","system_id":"levelo_inurba_marseille","lat":43.23189,"lon":5.39982,"is_reserved":false,"is_disabled":false,"rental_uris":{"android":"levelo://app?vid=8f3c8070-bfe8-48e1-a3e8-5d1ca26856ed","ios":"levelo://app?vid=8f3c8070-bfe8-48e1-a3e8-5d1ca26856ed"},"vehicle_type_id":"4","last_reported":1729689492,"current_range_meters":10000,"station_id":"ce4bhn12rcd13ifvqgqg","pricing_plan_id":"cebpf4jnsgd1na2vs0mg"},{"bike_id":"d04a0a7b-a14a-4fa4-ae16-ffa470dfd5e1","system_id":"levelo_inurba_marseille","lat":43.32537,"lon":5.41457,"is_reserved":false,"is_disabled":false,"rental_uris":{"android":"levelo://app?vid=d04a0a7b-a14a-4fa4-ae16-ffa470dfd5e1","ios":"levelo://app?vid=d04a0a7b-a14a-4fa4-ae16-ffa470dfd5e1"},"vehicle_type_id":"4","last_reported":1729689492,"current_range_meters":8400,"station_id":"ce4bhq12rcd13ifvqhhg","pricing_plan_id":"cebpf4jnsgd1na2vs0mg"},{"bike_id":"c4c55d71-c8b4-4492-a7cd-2be5724c8305","system_id":"levelo_inurba_marseille","lat":43.29965,"lon":5.38487,"is_reserved":false,"is_disabled":false,"rental_uris":{"android":"levelo://app?vid=c4c55d71-c8b4-4492-a7cd-2be5724c8305","ios":"levelo://app?vid=c4c55d71-c8b4-4492-a7cd-2be5724c8305"},"vehicle_type_id":"4","last_reported":1729689492,"current_range_meters":33200,"station_id":"ce4bgj92rcd13ifvqbd0","pricing_plan_id":"cebpf4jnsgd1na2vs0mg"},{"bike_id":"26ebd71f-7bc7-4bad-bbb2-6d15881ecc4c","system_id":"levelo_inurba_marseille","lat":43.30664,"lon":5.39482,"is_reserved":false,"is_disabled":false,"rental_uris":{"android":"levelo://app?vid=26ebd71f-7bc7-4bad-bbb2-6d15881ecc4c","ios":"levelo://app?vid=26ebd71f-7bc7-4bad-bbb2-6d15881ecc4c"},"vehicle_type_id":"4","last_reported":1729689492,"current_range_meters":26800,"station_id":"","pricing_plan_id":"cebpf4jnsgd1na2vs0mg"},{"bike_id":"24c86f67-b3cb-402e-a155-be340585bdb5","system_id":"levelo_inurba_marseille","lat":43.2991,"lon":5.37466,"is_reserved":false,"is_disabled":false,"rental_uris":{"android":"levelo://app?vid=24c86f67-b3cb-402e-a155-be340585bdb5","ios":"levelo://app?vid=24c86f67-b3cb-402e-a155-be340585bdb5"},"vehicle_type_id":"4","last_reported":1729689492,"current_range_meters":38800,"station_id":"ce4bgjh2rcd13ifvqbg0","pricing_plan_id":"cebpf4jnsgd1na2vs0mg"},{"bike_id":"c0a53215-f99d-4c86-b8da-85dea09b544a","system_id":"levelo_inurba_marseille","lat":43.30544,"lon":5.36523,"is_reserved":false,"is_disabled":false,"rental_uris":{"android":"levelo://app?vid=c0a53215-f99d-4c86-b8da-85dea09b544a","ios":"levelo://app?vid=c0a53215-f99d-4c86-b8da-85dea09b544a"},"vehicle_type_id":"4","last_reported":1729689492,"current_range_meters":31200,"station_id":"ce4bgs12rcd13ifvqcag","pricing_plan_id":"cebpf4jnsgd1na2vs0mg"},{"bike_id":"2d68910a-9b11-4476-88d4-75b4547503f8","system_id":"levelo_inurba_marseille","lat":43.26679,"lon":5.38269,"is_reserved":false,"is_disabled":false,"rental_uris":{"android":"levelo://app?vid=2d68910a-9b11-4476-88d4-75b4547503f8","ios":"levelo://app?vid=2d68910a-9b11-4476-88d4-75b4547503f8"},"vehicle_type_id":"4","last_reported":1729689492,"current_range_meters":32400,"station_id":"ce4bhg92rcd13ifvqf90","pricing_plan_id":"cebpf4jnsgd1na2vs0mg"},{"bike_id":"c3945b60-e38d-4106-8f18-92c7f436cc4f","system_id":"levelo_inurba_marseille","lat":43.33765,"lon":5.37441,"is_reserved":false,"is_disabled":false,"rental_uris":{"android":"levelo://app?vid=c3945b60-e38d-4106-8f18-92c7f436cc4f","ios":"levelo://app?vid=c3945b60-e38d-4106-8f18-92c7f436cc4f"},"vehicle_type_id":"4","last_reported":1729689492,"current_range_meters":27200,"station_id":"","pricing_plan_id":"cebpf4jnsgd1na2vs0mg"},{"bike_id":"2c36932d-2745-4c68-80c0-3ec18d892679","system_id":"levelo_inurba_marseille","lat":43.31331,"lon":5.39683,"is_reserved":false,"is_disabled":false,"rental_uris":{"android":"levelo://app?vid=2c36932d-2745-4c68-80c0-3ec18d892679","ios":"levelo://app?vid=2c36932d-2745-4c68-80c0-3ec18d892679"},"vehicle_type_id":"4","last_reported":1729689492,"current_range_meters":11200,"station_id":"ce4bgvp2rcd13ifvqcu0","pricing_plan_id":"cebpf4jnsgd1na2vs0mg"},{"bike_id":"444ea86b-1f19-480b-bf73-ce5f3ebfbbab","system_id":"levelo_inurba_marseille","lat":43.28725,"lon":5.361,"is_reserved":false,"is_disabled":false,"rental_uris":{"android":"levelo://app?vid=444ea86b-1f19-480b-bf73-ce5f3ebfbbab","ios":"levelo://app?vid=444ea86b-1f19-480b-bf73-ce5f3ebfbbab"},"vehicle_type_id":"4","last_reported":1729689492,"current_range_meters":35600,"station_id":"cki0cbj6b192h4jlfktg","pricing_plan_id":"cebpf4jnsgd1na2vs0mg"},{"bike_id":"22de1d97-98d6-41f3-bf16-ab9c4b64aae1","system_id":"levelo_inurba_marseille","lat":43.2902,"lon":5.38135,"is_reserved":false,"is_disabled":false,"rental_uris":{"android":"levelo://app?vid=22de1d97-98d6-41f3-bf16-ab9c4b64aae1","ios":"levelo://app?vid=22de1d97-98d6-41f3-bf16-ab9c4b64aae1"},"vehicle_type_id":"4","last_reported":1729689492,"current_range_meters":15200,"station_id":"ce4bh4p2rcd13ifvqe1g","pricing_plan_id":"cebpf4jnsgd1na2vs0mg"},{"bike_id":"78018770-86ea-4404-8452-ce018255cd17","system_id":"levelo_inurba_marseille","lat":43.22936,"lon":5.3538,"is_reserved":false,"is_disabled":false,"rental_uris":{"android":"levelo://app?vid=78018770-86ea-4404-8452-ce018255cd17","ios":"levelo://app?vid=78018770-86ea-4404-8452-ce018255cd17"},"vehicle_type_id":"4","last_reported":1729689492,"current_range_meters":22800,"station_id":"cpo3532slgdg3j2ikp40","pricing_plan_id":"cebpf4jnsgd1na2vs0mg"},{"bike_id":"f062ffa9-117f-4061-947e-46227fcc5cf4","system_id":"levelo_inurba_marseille","lat":43.24551,"lon":5.41194,"is_reserved":false,"is_disabled":false,"rental_uris":{"android":"levelo://app?vid=f062ffa9-117f-4061-947e-46227fcc5cf4","ios":"levelo://app?vid=f062ffa9-117f-4061-947e-46227fcc5cf4"},"vehicle_type_id":"4","last_reported":1729689492,"current_range_meters":33200,"station_id":"","pricing_plan_id":"cebpf4jnsgd1na2vs0mg"},{"bike_id":"46a05292-202e-4e11-aff2-86d9f9ea8a69","system_id":"levelo_inurba_marseille","lat":43.30533,"lon":5.36536,"is_reserved":false,"is_disabled":false,"rental_uris":{"android":"levelo://app?vid=46a05292-202e-4e11-aff2-86d9f9ea8a69","ios":"levelo://app?vid=46a05292-202e-4e11-aff2-86d9f9ea8a69"},"vehicle_type_id":"4","last_reported":1729689492,"current_range_meters":31200,"station_id":"ce4bgs12rcd13ifvqcag","pricing_plan_id":"cebpf4jnsgd1na2vs0mg"},{"bike_id":"cec0febb-a5d7-4415-ba6b-dcdc9a65c10b","system_id":"levelo_inurba_marseille","lat":43.3027,"lon":5.37702,"is_reserved":false,"is_disabled":false,"rental_uris":{"android":"levelo://app?vid=cec0febb-a5d7-4415-ba6b-dcdc9a65c10b","ios":"levelo://app?vid=cec0febb-a5d7-4415-ba6b-dcdc9a65c10b"},"vehicle_type_id":"4","last_reported":1729689492,"current_range_meters":39200,"station_id":"ce4bguh2rcd13ifvqcj0","pricing_plan_id":"cebpf4jnsgd1na2vs0mg"},{"bike_id":"be09e01d-7c11-4a7f-89f3-d7b5414ad2b5","system_id":"levelo_inurba_marseille","lat":43.24175,"lon":5.3973,"is_reserved":false,"is_disabled":false,"rental_uris":{"android":"levelo://app?vid=be09e01d-7c11-4a7f-89f3-d7b5414ad2b5","ios":"levelo://app?vid=be09e01d-7c11-4a7f-89f3-d7b5414ad2b5"},"vehicle_type_id":"4","last_reported":1729689492,"current_range_meters":26800,"station_id":"ce4bhn12rcd13ifvqgpg","pricing_plan_id":"cebpf4jnsgd1na2vs0mg"},{"bike_id":"f2fdd284-8b8f-42c3-bed3-7fe2d8fea268","system_id":"levelo_inurba_marseille","lat":43.30911,"lon":5.36851,"is_reserved":false,"is_disabled":false,"rental_uris":{"android":"levelo://app?vid=f2fdd284-8b8f-42c3-bed3-7fe2d8fea268","ios":"levelo://app?vid=f2fdd284-8b8f-42c3-bed3-7fe2d8fea268"},"vehicle_type_id":"4","last_reported":1729689492,"current_range_meters":18800,"station_id":"ce4bgn92rcd13ifvqbvg","pricing_plan_id":"cebpf4jnsgd1na2vs0mg"},{"bike_id":"28caec95-9052-4be7-8633-7e810130a315","system_id":"levelo_inurba_marseille","lat":43.28153,"lon":5.42641,"is_reserved":false,"is_disabled":false,"rental_uris":{"android":"levelo://app?vid=28caec95-9052-4be7-8633-7e810130a315","ios":"levelo://app?vid=28caec95-9052-4be7-8633-7e810130a315"},"vehicle_type_id":"4","last_reported":1729689492,"current_range_meters":20400,"station_id":"ce4bhnh2rcd13ifvqgug","pricing_plan_id":"cebpf4jnsgd1na2vs0mg"},{"bike_id":"247c1539-097b-46dd-8c24-05380c7705d5","system_id":"levelo_inurba_marseille","lat":43.29582,"lon":5.3674,"is_reserved":false,"is_disabled":false,"rental_uris":{"android":"levelo://app?vid=247c1539-097b-46dd-8c24-05380c7705d5","ios":"levelo://app?vid=247c1539-097b-46dd-8c24-05380c7705d5"},"vehicle_type_id":"4","last_reported":1729689492,"current_range_meters":39200,"station_id":"ce4bgph2rcd13ifvqc2g","pricing_plan_id":"cebpf4jnsgd1na2vs0mg"},{"bike_id":"1d3c2354-bb06-46ef-82cb-7b20702826e7","system_id":"levelo_inurba_marseille","lat":43.313404,"lon":5.367148,"is_reserved":false,"is_disabled":false,"rental_uris":{"android":"levelo://app?vid=1d3c2354-bb06-46ef-82cb-7b20702826e7","ios":"levelo://app?vid=1d3c2354-bb06-46ef-82cb-7b20702826e7"},"vehicle_type_id":"4","last_reported":1729689492,"current_range_meters":39200,"station_id":"ce4bgr92rcd13ifvqc6g","pricing_plan_id":"cebpf4jnsgd1na2vs0mg"},{"bike_id":"e0f591a5-4a49-47dc-9aa6-eb75178c5760","system_id":"levelo_inurba_marseille","lat":43.22937,"lon":5.35381,"is_reserved":false,"is_disabled":false,"rental_uris":{"android":"levelo://app?vid=e0f591a5-4a49-47dc-9aa6-eb75178c5760","ios":"levelo://app?vid=e0f591a5-4a49-47dc-9aa6-eb75178c5760"},"vehicle_type_id":"4","last_reported":1729689492,"current_range_meters":36800,"station_id":"cpo3532slgdg3j2ikp40","pricing_plan_id":"cebpf4jnsgd1na2vs0mg"},{"bike_id":"3758e8e1-6774-4a6d-8d44-4f39d30cb7cf","system_id":"levelo_inurba_marseille","lat":43.22926,"lon":5.35382,"is_reserved":false,"is_disabled":false,"rental_uris":{"android":"levelo://app?vid=3758e8e1-6774-4a6d-8d44-4f39d30cb7cf","ios":"levelo://app?vid=3758e8e1-6774-4a6d-8d44-4f39d30cb7cf"},"vehicle_type_id":"4","last_reported":1729689492,"current_range_meters":36400,"station_id":"cpo3532slgdg3j2ikp40","pricing_plan_id":"cebpf4jnsgd1na2vs0mg"},{"bike_id":"b10663db-efb5-42a3-98a3-95823dae9d7f","system_id":"levelo_inurba_marseille","lat":43.30277,"lon":5.37692,"is_reserved":false,"is_disabled":false,"rental_uris":{"android":"levelo://app?vid=b10663db-efb5-42a3-98a3-95823dae9d7f","ios":"levelo://app?vid=b10663db-efb5-42a3-98a3-95823dae9d7f"},"vehicle_type_id":"4","last_reported":1729689492,"current_range_meters":35200,"station_id":"ce4bguh2rcd13ifvqcj0","pricing_plan_id":"cebpf4jnsgd1na2vs0mg"},{"bike_id":"04c8bb0b-1664-419f-b269-5592870b9716","system_id":"levelo_inurba_marseille","lat":43.2844,"lon":5.39192,"is_reserved":false,"is_disabled":false,"rental_uris":{"android":"levelo://app?vid=04c8bb0b-1664-419f-b269-5592870b9716","ios":"levelo://app?vid=04c8bb0b-1664-419f-b269-5592870b9716"},"vehicle_type_id":"4","last_reported":1729689492,"current_range_meters":8400,"station_id":"ce4bhoh2rcd13ifvqh5g","pricing_plan_id":"cebpf4jnsgd1na2vs0mg"},{"bike_id":"946611bd-808f-42aa-8d8e-3a209538d209","system_id":"levelo_inurba_marseille","lat":43.24072,"lon":5.3775,"is_reserved":false,"is_disabled":false,"rental_uris":{"android":"levelo://app?vid=946611bd-808f-42aa-8d8e-3a209538d209","ios":"levelo://app?vid=946611bd-808f-42aa-8d8e-3a209538d209"},"vehicle_type_id":"4","last_reported":1729689492,"current_range_meters":9200,"station_id":"ce4bhnp2rcd13ifvqgvg","pricing_plan_id":"cebpf4jnsgd1na2vs0mg"},{"bike_id":"39556aa9-e1e5-45f9-9ee1-e5414ac4c709","system_id":"levelo_inurba_marseille","lat":43.28168,"lon":5.404443,"is_reserved":false,"is_disabled":false,"rental_uris":{"android":"levelo://app?vid=39556aa9-e1e5-45f9-9ee1-e5414ac4c709","ios":"levelo://app?vid=39556aa9-e1e5-45f9-9ee1-e5414ac4c709"},"vehicle_type_id":"4","last_reported":1729689492,"current_range_meters":18000,"station_id":"","pricing_plan_id":"cebpf4jnsgd1na2vs0mg"},{"bike_id":"e8a5d168-6765-4fb9-b18d-11b59593eacb","system_id":"levelo_inurba_marseille","lat":43.30191,"lon":5.366,"is_reserved":false,"is_disabled":false,"rental_uris":{"android":"levelo://app?vid=e8a5d168-6765-4fb9-b18d-11b59593eacb","ios":"levelo://app?vid=e8a5d168-6765-4fb9-b18d-11b59593eacb"},"vehicle_type_id":"4","last_reported":1729689492,"current_range_meters":38800,"station_id":"ce4bgrh2rcd13ifvqc8g","pricing_plan_id":"cebpf4jnsgd1na2vs0mg"},{"bike_id":"985aafd7-c7e7-4f5e-829d-d0a7c3f370c0","system_id":"levelo_inurba_marseille","lat":43.28616,"lon":5.35103,"is_reserved":false,"is_disabled":false,"rental_uris":{"android":"levelo://app?vid=985aafd7-c7e7-4f5e-829d-d0a7c3f370c0","ios":"levelo://app?vid=985aafd7-c7e7-4f5e-829d-d0a7c3f370c0"},"vehicle_type_id":"4","last_reported":1729689492,"current_range_meters":32800,"station_id":"ce4bhch2rcd13ifvqeug","pricing_plan_id":"cebpf4jnsgd1na2vs0mg"},{"bike_id":"336cf461-c5c5-411c-9cfc-65722f7632be","system_id":"levelo_inurba_marseille","lat":43.30532,"lon":5.36726,"is_reserved":false,"is_disabled":false,"rental_uris":{"android":"levelo://app?vid=336cf461-c5c5-411c-9cfc-65722f7632be","ios":"levelo://app?vid=336cf461-c5c5-411c-9cfc-65722f7632be"},"vehicle_type_id":"4","last_reported":1729689492,"current_range_meters":25200,"station_id":"ce4bgrp2rcd13ifvqc9g","pricing_plan_id":"cebpf4jnsgd1na2vs0mg"},{"bike_id":"4a7abcc4-a1fa-417b-8ffa-a28e55985c43","system_id":"levelo_inurba_marseille","lat":43.24073,"lon":5.37752,"is_reserved":false,"is_disabled":false,"rental_uris":{"android":"levelo://app?vid=4a7abcc4-a1fa-417b-8ffa-a28e55985c43","ios":"levelo://app?vid=4a7abcc4-a1fa-417b-8ffa-a28e55985c43"},"vehicle_type_id":"4","last_reported":1729689492,"current_range_meters":36800,"station_id":"ce4bhnp2rcd13ifvqgvg","pricing_plan_id":"cebpf4jnsgd1na2vs0mg"},{"bike_id":"860423a3-40de-4cc8-b02f-36acef0fec79","system_id":"levelo_inurba_marseille","lat":43.27676,"lon":5.38901,"is_reserved":false,"is_disabled":false,"rental_uris":{"android":"levelo://app?vid=860423a3-40de-4cc8-b02f-36acef0fec79","ios":"levelo://app?vid=860423a3-40de-4cc8-b02f-36acef0fec79"},"vehicle_type_id":"4","last_reported":1729689492,"current_range_meters":39200,"station_id":"ce4bhi12rcd13ifvqfo0","pricing_plan_id":"cebpf4jnsgd1na2vs0mg"},{"bike_id":"484db4be-af89-4ce4-b8ca-a131e75b9c7e","system_id":"levelo_inurba_marseille","lat":43.30545,"lon":5.3669,"is_reserved":false,"is_disabled":false,"rental_uris":{"android":"levelo://app?vid=484db4be-af89-4ce4-b8ca-a131e75b9c7e","ios":"levelo://app?vid=484db4be-af89-4ce4-b8ca-a131e75b9c7e"},"vehicle_type_id":"4","last_reported":1729689492,"current_range_meters":38800,"station_id":"ce4bgrp2rcd13ifvqc9g","pricing_plan_id":"cebpf4jnsgd1na2vs0mg"},{"bike_id":"0dde08c2-327e-4c04-afb0-27f16e8979fb","system_id":"levelo_inurba_marseille","lat":43.29981,"lon":5.37177,"is_reserved":false,"is_disabled":false,"rental_uris":{"android":"levelo://app?vid=0dde08c2-327e-4c04-afb0-27f16e8979fb","ios":"levelo://app?vid=0dde08c2-327e-4c04-afb0-27f16e8979fb"},"vehicle_type_id":"4","last_reported":1729689492,"current_range_meters":36400,"station_id":"ce4bgr92rcd13ifvqc7g","pricing_plan_id":"cebpf4jnsgd1na2vs0mg"},{"bike_id":"19fe02a4-6c43-42a8-b978-35d90b3b89a6","system_id":"levelo_inurba_marseille","lat":43.26504,"lon":5.39535,"is_reserved":false,"is_disabled":false,"rental_uris":{"android":"levelo://app?vid=19fe02a4-6c43-42a8-b978-35d90b3b89a6","ios":"levelo://app?vid=19fe02a4-6c43-42a8-b978-35d90b3b89a6"},"vehicle_type_id":"4","last_reported":1729689492,"current_range_meters":32400,"station_id":"ce4bhi12rcd13ifvqfq0","pricing_plan_id":"cebpf4jnsgd1na2vs0mg"},{"bike_id":"fed29e3d-ded9-4536-b5e9-762e6c2a1343","system_id":"levelo_inurba_marseille","lat":43.29961,"lon":5.39187,"is_reserved":false,"is_disabled":false,"rental_uris":{"android":"levelo://app?vid=fed29e3d-ded9-4536-b5e9-762e6c2a1343","ios":"levelo://app?vid=fed29e3d-ded9-4536-b5e9-762e6c2a1343"},"vehicle_type_id":"4","last_reported":1729689492,"current_range_meters":12000,"station_id":"ce4bghh2rcd13ifvqb60","pricing_plan_id":"cebpf4jnsgd1na2vs0mg"},{"bike_id":"fbb5640b-7a55-428a-b976-023a4331cb86","system_id":"levelo_inurba_marseille","lat":43.29618,"lon":5.3774,"is_reserved":false,"is_disabled":false,"rental_uris":{"android":"levelo://app?vid=fbb5640b-7a55-428a-b976-023a4331cb86","ios":"levelo://app?vid=fbb5640b-7a55-428a-b976-023a4331cb86"},"vehicle_type_id":"4","last_reported":1729689492,"current_range_meters":16000,"station_id":"ce4bgi92rcd13ifvqb90","pricing_plan_id":"cebpf4jnsgd1na2vs0mg"},{"bike_id":"4e03e387-39af-4370-b5b5-32d00245680d","system_id":"levelo_inurba_marseille","lat":43.281677,"lon":5.42454,"is_reserved":false,"is_disabled":false,"rental_uris":{"android":"levelo://app?vid=4e03e387-39af-4370-b5b5-32d00245680d","ios":"levelo://app?vid=4e03e387-39af-4370-b5b5-32d00245680d"},"vehicle_type_id":"4","last_reported":1729689492,"current_range_meters":4400,"station_id":"","pricing_plan_id":"cebpf4jnsgd1na2vs0mg"},{"bike_id":"4d934c20-af0a-4134-af24-ca947af692a7","system_id":"levelo_inurba_marseille","lat":43.31068,"lon":5.38343,"is_reserved":false,"is_disabled":false,"rental_uris":{"android":"levelo://app?vid=4d934c20-af0a-4134-af24-ca947af692a7","ios":"levelo://app?vid=4d934c20-af0a-4134-af24-ca947af692a7"},"vehicle_type_id":"4","last_reported":1729689492,"current_range_meters":30400,"station_id":"ce4bgv92rcd13ifvqcr0","pricing_plan_id":"cebpf4jnsgd1na2vs0mg"},{"bike_id":"409c7d05-8bd8-48e6-a031-312baafe8037","system_id":"levelo_inurba_marseille","lat":43.2293,"lon":5.35377,"is_reserved":false,"is_disabled":false,"rental_uris":{"android":"levelo://app?vid=409c7d05-8bd8-48e6-a031-312baafe8037","ios":"levelo://app?vid=409c7d05-8bd8-48e6-a031-312baafe8037"},"vehicle_type_id":"4","last_reported":1729689492,"current_range_meters":8000,"station_id":"cpo3532slgdg3j2ikp40","pricing_plan_id":"cebpf4jnsgd1na2vs0mg"},{"bike_id":"75785403-c74a-4e7f-93be-ce09638be4c9","system_id":"levelo_inurba_marseille","lat":43.29257,"lon":5.40911,"is_reserved":false,"is_disabled":false,"rental_uris":{"android":"levelo://app?vid=75785403-c74a-4e7f-93be-ce09638be4c9","ios":"levelo://app?vid=75785403-c74a-4e7f-93be-ce09638be4c9"},"vehicle_type_id":"4","last_reported":1729689492,"current_range_meters":38400,"station_id":"ce4bh192rcd13ifvqdc0","pricing_plan_id":"cebpf4jnsgd1na2vs0mg"},{"bike_id":"61808643-9571-4471-8f8a-eac48365dceb","system_id":"levelo_inurba_marseille","lat":43.23966,"lon":5.36633,"is_reserved":false,"is_disabled":false,"rental_uris":{"android":"levelo://app?vid=61808643-9571-4471-8f8a-eac48365dceb","ios":"levelo://app?vid=61808643-9571-4471-8f8a-eac48365dceb"},"vehicle_type_id":"4","last_reported":1729689492,"current_range_meters":4800,"station_id":"ce4bhi12rcd13ifvqfp0","pricing_plan_id":"cebpf4jnsgd1na2vs0mg"},{"bike_id":"8c79de4e-20bb-43e9-9c15-6c86ce5ce78c","system_id":"levelo_inurba_marseille","lat":43.302808,"lon":5.376942,"is_reserved":false,"is_disabled":false,"rental_uris":{"android":"levelo://app?vid=8c79de4e-20bb-43e9-9c15-6c86ce5ce78c","ios":"levelo://app?vid=8c79de4e-20bb-43e9-9c15-6c86ce5ce78c"},"vehicle_type_id":"4","last_reported":1729689492,"current_range_meters":35600,"station_id":"ce4bguh2rcd13ifvqcj0","pricing_plan_id":"cebpf4jnsgd1na2vs0mg"},{"bike_id":"7aef475c-5cbd-4a27-bb8f-59662dfd1bbc","system_id":"levelo_inurba_marseille","lat":43.2649,"lon":5.39534,"is_reserved":false,"is_disabled":false,"rental_uris":{"android":"levelo://app?vid=7aef475c-5cbd-4a27-bb8f-59662dfd1bbc","ios":"levelo://app?vid=7aef475c-5cbd-4a27-bb8f-59662dfd1bbc"},"vehicle_type_id":"4","last_reported":1729689492,"current_range_meters":12800,"station_id":"ce4bhi12rcd13ifvqfq0","pricing_plan_id":"cebpf4jnsgd1na2vs0mg"},{"bike_id":"161d9d49-4915-4ebd-b4de-009e94f4f114","system_id":"levelo_inurba_marseille","lat":43.30548,"lon":5.36689,"is_reserved":false,"is_disabled":false,"rental_uris":{"android":"levelo://app?vid=161d9d49-4915-4ebd-b4de-009e94f4f114","ios":"levelo://app?vid=161d9d49-4915-4ebd-b4de-009e94f4f114"},"vehicle_type_id":"4","last_reported":1729689492,"current_range_meters":13600,"station_id":"ce4bgrp2rcd13ifvqc9g","pricing_plan_id":"cebpf4jnsgd1na2vs0mg"},{"bike_id":"9086ab6f-4b0f-40d1-acb2-a8b3250d4f06","system_id":"levelo_inurba_marseille","lat":43.3055,"lon":5.36694,"is_reserved":false,"is_disabled":false,"rental_uris":{"android":"levelo://app?vid=9086ab6f-4b0f-40d1-acb2-a8b3250d4f06","ios":"levelo://app?vid=9086ab6f-4b0f-40d1-acb2-a8b3250d4f06"},"vehicle_type_id":"4","last_reported":1729689492,"current_range_meters":38800,"station_id":"ce4bgrp2rcd13ifvqc9g","pricing_plan_id":"cebpf4jnsgd1na2vs0mg"},{"bike_id":"28b88b69-fb27-4091-bccd-5c6c4d0ff49c","system_id":"levelo_inurba_marseille","lat":43.29365,"lon":5.37835,"is_reserved":false,"is_disabled":false,"rental_uris":{"android":"levelo://app?vid=28b88b69-fb27-4091-bccd-5c6c4d0ff49c","ios":"levelo://app?vid=28b88b69-fb27-4091-bccd-5c6c4d0ff49c"},"vehicle_type_id":"4","last_reported":1729689492,"current_range_meters":38000,"station_id":"ce4bgjh2rcd13ifvqbf0","pricing_plan_id":"cebpf4jnsgd1na2vs0mg"},{"bike_id":"71bf9bd9-951b-414b-a7ca-7aafdd25de21","system_id":"levelo_inurba_marseille","lat":43.29046,"lon":5.35915,"is_reserved":false,"is_disabled":false,"rental_uris":{"android":"levelo://app?vid=71bf9bd9-951b-414b-a7ca-7aafdd25de21","ios":"levelo://app?vid=71bf9bd9-951b-414b-a7ca-7aafdd25de21"},"vehicle_type_id":"4","last_reported":1729689492,"current_range_meters":25600,"station_id":"ce4bha92rcd13ifvqeg0","pricing_plan_id":"cebpf4jnsgd1na2vs0mg"},{"bike_id":"93acdca4-aebf-4efe-999f-49f6555e53d0","system_id":"levelo_inurba_marseille","lat":43.30593,"lon":5.37228,"is_reserved":false,"is_disabled":false,"rental_uris":{"android":"levelo://app?vid=93acdca4-aebf-4efe-999f-49f6555e53d0","ios":"levelo://app?vid=93acdca4-aebf-4efe-999f-49f6555e53d0"},"vehicle_type_id":"4","last_reported":1729689492,"current_range_meters":20800,"station_id":"ce4bgqh2rcd13ifvqc4g","pricing_plan_id":"cebpf4jnsgd1na2vs0mg"},{"bike_id":"d8e865f9-6cd1-432a-a324-0f5819fd44e5","system_id":"levelo_inurba_marseille","lat":43.29097,"lon":5.38118,"is_reserved":false,"is_disabled":false,"rental_uris":{"android":"levelo://app?vid=d8e865f9-6cd1-432a-a324-0f5819fd44e5","ios":"levelo://app?vid=d8e865f9-6cd1-432a-a324-0f5819fd44e5"},"vehicle_type_id":"4","last_reported":1729689492,"current_range_meters":30400,"station_id":"ce4bh512rcd13ifvqe2g","pricing_plan_id":"cebpf4jnsgd1na2vs0mg"},{"bike_id":"815dd284-1bd2-4bb9-992a-b2116e2485bc","system_id":"levelo_inurba_marseille","lat":43.32667,"lon":5.36095,"is_reserved":false,"is_disabled":false,"rental_uris":{"android":"levelo://app?vid=815dd284-1bd2-4bb9-992a-b2116e2485bc","ios":"levelo://app?vid=815dd284-1bd2-4bb9-992a-b2116e2485bc"},"vehicle_type_id":"4","last_reported":1729689492,"current_range_meters":28800,"station_id":"","pricing_plan_id":"cebpf4jnsgd1na2vs0mg"},{"bike_id":"c6275880-d301-4fd6-86dc-0e1544c4345e","system_id":"levelo_inurba_marseille","lat":43.29578,"lon":5.36739,"is_reserved":false,"is_disabled":false,"rental_uris":{"android":"levelo://app?vid=c6275880-d301-4fd6-86dc-0e1544c4345e","ios":"levelo://app?vid=c6275880-d301-4fd6-86dc-0e1544c4345e"},"vehicle_type_id":"4","last_reported":1729689492,"current_range_meters":28800,"station_id":"ce4bgph2rcd13ifvqc2g","pricing_plan_id":"cebpf4jnsgd1na2vs0mg"},{"bike_id":"3589b16f-9af6-4732-8be5-0612e3704b16","system_id":"levelo_inurba_marseille","lat":43.29019,"lon":5.38131,"is_reserved":false,"is_disabled":false,"rental_uris":{"android":"levelo://app?vid=3589b16f-9af6-4732-8be5-0612e3704b16","ios":"levelo://app?vid=3589b16f-9af6-4732-8be5-0612e3704b16"},"vehicle_type_id":"4","last_reported":1729689492,"current_range_meters":33600,"station_id":"ce4bh4p2rcd13ifvqe1g","pricing_plan_id":"cebpf4jnsgd1na2vs0mg"},{"bike_id":"91eba0e6-c6f8-4d5c-a9dc-91c7969adcda","system_id":"levelo_inurba_marseille","lat":43.28402,"lon":5.37504,"is_reserved":false,"is_disabled":false,"rental_uris":{"android":"levelo://app?vid=91eba0e6-c6f8-4d5c-a9dc-91c7969adcda","ios":"levelo://app?vid=91eba0e6-c6f8-4d5c-a9dc-91c7969adcda"},"vehicle_type_id":"4","last_reported":1729689492,"current_range_meters":24400,"station_id":"ce4bh412rcd13ifvqds0","pricing_plan_id":"cebpf4jnsgd1na2vs0mg"},{"bike_id":"c246eea5-fa53-45ac-a259-4f38f29f91e4","system_id":"levelo_inurba_marseille","lat":43.3091,"lon":5.36852,"is_reserved":false,"is_disabled":false,"rental_uris":{"android":"levelo://app?vid=c246eea5-fa53-45ac-a259-4f38f29f91e4","ios":"levelo://app?vid=c246eea5-fa53-45ac-a259-4f38f29f91e4"},"vehicle_type_id":"4","last_reported":1729689492,"current_range_meters":7200,"station_id":"ce4bgn92rcd13ifvqbvg","pricing_plan_id":"cebpf4jnsgd1na2vs0mg"},{"bike_id":"f764948a-423b-4346-ba8b-c06aabe8ee1a","system_id":"levelo_inurba_marseille","lat":43.29908,"lon":5.3747,"is_reserved":false,"is_disabled":false,"rental_uris":{"android":"levelo://app?vid=f764948a-423b-4346-ba8b-c06aabe8ee1a","ios":"levelo://app?vid=f764948a-423b-4346-ba8b-c06aabe8ee1a"},"vehicle_type_id":"4","last_reported":1729689492,"current_range_meters":32400,"station_id":"ce4bgjh2rcd13ifvqbg0","pricing_plan_id":"cebpf4jnsgd1na2vs0mg"},{"bike_id":"dd6acc0e-bd79-4f8d-bfeb-3beb9044870f","system_id":"levelo_inurba_marseille","lat":43.29804,"lon":5.38078,"is_reserved":false,"is_disabled":false,"rental_uris":{"android":"levelo://app?vid=dd6acc0e-bd79-4f8d-bfeb-3beb9044870f","ios":"levelo://app?vid=dd6acc0e-bd79-4f8d-bfeb-3beb9044870f"},"vehicle_type_id":"4","last_reported":1729689492,"current_range_meters":39200,"station_id":"ce4bgip2rcd13ifvqbb0","pricing_plan_id":"cebpf4jnsgd1na2vs0mg"},{"bike_id":"e56c43a8-76af-4ea4-b90e-27b9382a6138","system_id":"levelo_inurba_marseille","lat":43.2769,"lon":5.38893,"is_reserved":false,"is_disabled":false,"rental_uris":{"android":"levelo://app?vid=e56c43a8-76af-4ea4-b90e-27b9382a6138","ios":"levelo://app?vid=e56c43a8-76af-4ea4-b90e-27b9382a6138"},"vehicle_type_id":"4","last_reported":1729689492,"current_range_meters":25200,"station_id":"ce4bhi12rcd13ifvqfo0","pricing_plan_id":"cebpf4jnsgd1na2vs0mg"},{"bike_id":"0a6b598d-01d6-41d4-b3f4-8b786b1436dd","system_id":"levelo_inurba_marseille","lat":43.305388,"lon":5.36713,"is_reserved":false,"is_disabled":false,"rental_uris":{"android":"levelo://app?vid=0a6b598d-01d6-41d4-b3f4-8b786b1436dd","ios":"levelo://app?vid=0a6b598d-01d6-41d4-b3f4-8b786b1436dd"},"vehicle_type_id":"4","last_reported":1729689492,"current_range_meters":38800,"station_id":"ce4bgrp2rcd13ifvqc9g","pricing_plan_id":"cebpf4jnsgd1na2vs0mg"},{"bike_id":"90b905f3-bf3d-44af-8b5a-dc5d20972c39","system_id":"levelo_inurba_marseille","lat":43.27205,"lon":5.39179,"is_reserved":false,"is_disabled":false,"rental_uris":{"android":"levelo://app?vid=90b905f3-bf3d-44af-8b5a-dc5d20972c39","ios":"levelo://app?vid=90b905f3-bf3d-44af-8b5a-dc5d20972c39"},"vehicle_type_id":"4","last_reported":1729689492,"current_range_meters":4400,"station_id":"ce4bhhp2rcd13ifvqfm0","pricing_plan_id":"cebpf4jnsgd1na2vs0mg"},{"bike_id":"627811a9-4978-496f-972a-e45837dda420","system_id":"levelo_inurba_marseille","lat":43.27495,"lon":5.42454,"is_reserved":false,"is_disabled":false,"rental_uris":{"android":"levelo://app?vid=627811a9-4978-496f-972a-e45837dda420","ios":"levelo://app?vid=627811a9-4978-496f-972a-e45837dda420"},"vehicle_type_id":"4","last_reported":1729689492,"current_range_meters":6400,"station_id":"ce4bhn92rcd13ifvqgrg","pricing_plan_id":"cebpf4jnsgd1na2vs0mg"},{"bike_id":"07c2576b-607e-4887-b80e-36889f16876e","system_id":"levelo_inurba_marseille","lat":43.32469,"lon":5.36553,"is_reserved":false,"is_disabled":false,"rental_uris":{"android":"levelo://app?vid=07c2576b-607e-4887-b80e-36889f16876e","ios":"levelo://app?vid=07c2576b-607e-4887-b80e-36889f16876e"},"vehicle_type_id":"4","last_reported":1729689492,"current_range_meters":30000,"station_id":"ce4bhs12rcd13ifvqhvg","pricing_plan_id":"cebpf4jnsgd1na2vs0mg"},{"bike_id":"d4fa5cb6-520d-43f8-9de2-76f18090c336","system_id":"levelo_inurba_marseille","lat":43.31236,"lon":5.36863,"is_reserved":false,"is_disabled":false,"rental_uris":{"android":"levelo://app?vid=d4fa5cb6-520d-43f8-9de2-76f18090c336","ios":"levelo://app?vid=d4fa5cb6-520d-43f8-9de2-76f18090c336"},"vehicle_type_id":"4","last_reported":1729689492,"current_range_meters":29600,"station_id":"ce4bgl92rcd13ifvqbq0","pricing_plan_id":"cebpf4jnsgd1na2vs0mg"},{"bike_id":"d52c6a35-1a60-499b-ba4e-e6cdebdfe29e","system_id":"levelo_inurba_marseille","lat":43.2842,"lon":5.34994,"is_reserved":false,"is_disabled":false,"rental_uris":{"android":"levelo://app?vid=d52c6a35-1a60-499b-ba4e-e6cdebdfe29e","ios":"levelo://app?vid=d52c6a35-1a60-499b-ba4e-e6cdebdfe29e"},"vehicle_type_id":"4","last_reported":1729689492,"current_range_meters":39200,"station_id":"ce4bhbh2rcd13ifvqepg","pricing_plan_id":"cebpf4jnsgd1na2vs0mg"},{"bike_id":"e7aad269-df61-4d1b-bae5-58b50d8fcd10","system_id":"levelo_inurba_marseille","lat":43.317,"lon":5.40474,"is_reserved":false,"is_disabled":false,"rental_uris":{"android":"levelo://app?vid=e7aad269-df61-4d1b-bae5-58b50d8fcd10","ios":"levelo://app?vid=e7aad269-df61-4d1b-bae5-58b50d8fcd10"},"vehicle_type_id":"4","last_reported":1729689492,"current_range_meters":38800,"station_id":"ce4bh012rcd13ifvqd00","pricing_plan_id":"cebpf4jnsgd1na2vs0mg"},{"bike_id":"c5fc17b9-71be-4397-9e7a-2b70c63c9eab","system_id":"levelo_inurba_marseille","lat":43.2861,"lon":5.3707,"is_reserved":false,"is_disabled":false,"rental_uris":{"android":"levelo://app?vid=c5fc17b9-71be-4397-9e7a-2b70c63c9eab","ios":"levelo://app?vid=c5fc17b9-71be-4397-9e7a-2b70c63c9eab"},"vehicle_type_id":"4","last_reported":1729689492,"current_range_meters":35200,"station_id":"ce4bht12rcd13ifvqi60","pricing_plan_id":"cebpf4jnsgd1na2vs0mg"},{"bike_id":"0ed1cd0c-195f-4f4c-a2d7-2b662b9b3173","system_id":"levelo_inurba_marseille","lat":43.30891,"lon":5.39645,"is_reserved":false,"is_disabled":false,"rental_uris":{"android":"levelo://app?vid=0ed1cd0c-195f-4f4c-a2d7-2b662b9b3173","ios":"levelo://app?vid=0ed1cd0c-195f-4f4c-a2d7-2b662b9b3173"},"vehicle_type_id":"4","last_reported":1729689492,"current_range_meters":38800,"station_id":"ce4bh012rcd13ifvqcv0","pricing_plan_id":"cebpf4jnsgd1na2vs0mg"},{"bike_id":"4ce5bde3-4773-452b-a6b6-79f9c8450f21","system_id":"levelo_inurba_marseille","lat":43.24386,"lon":5.37053,"is_reserved":false,"is_disabled":false,"rental_uris":{"android":"levelo://app?vid=4ce5bde3-4773-452b-a6b6-79f9c8450f21","ios":"levelo://app?vid=4ce5bde3-4773-452b-a6b6-79f9c8450f21"},"vehicle_type_id":"4","last_reported":1729689492,"current_range_meters":16800,"station_id":"ce4bhhh2rcd13ifvqfk0","pricing_plan_id":"cebpf4jnsgd1na2vs0mg"},{"bike_id":"38c75863-d2dc-4cd9-b1cc-d253137e7a41","system_id":"levelo_inurba_marseille","lat":43.29971,"lon":5.37172,"is_reserved":false,"is_disabled":false,"rental_uris":{"android":"levelo://app?vid=38c75863-d2dc-4cd9-b1cc-d253137e7a41","ios":"levelo://app?vid=38c75863-d2dc-4cd9-b1cc-d253137e7a41"},"vehicle_type_id":"4","last_reported":1729689492,"current_range_meters":40000,"station_id":"ce4bgr92rcd13ifvqc7g","pricing_plan_id":"cebpf4jnsgd1na2vs0mg"},{"bike_id":"68efdf49-5ffa-4337-95e8-06230b4bf309","system_id":"levelo_inurba_marseille","lat":43.30539,"lon":5.36532,"is_reserved":false,"is_disabled":false,"rental_uris":{"android":"levelo://app?vid=68efdf49-5ffa-4337-95e8-06230b4bf309","ios":"levelo://app?vid=68efdf49-5ffa-4337-95e8-06230b4bf309"},"vehicle_type_id":"4","last_reported":1729689492,"current_range_meters":38800,"station_id":"ce4bgs12rcd13ifvqcag","pricing_plan_id":"cebpf4jnsgd1na2vs0mg"},