{"last_updated":1725941445,"ttl":30,"version":"2.2","data":{"bikes":[{"bike_id":"e0302a40-58fe-42b9-bc26-7ecf10e0eb61","system_id":"levelo_inurba_marseille","lat":43.2837,"lon":5.38635,"is_reserved":false,"is_disabled":false,"rental_uris":{"android":"levelo://app?vid=e0302a40-58fe-42b9-bc26-7ecf10e0eb61","ios":"levelo://app?vid=e0302a40-58fe-42b9-bc26-7ecf10e0eb61"},"vehicle_type_id":"4","last_reported":1725941445,"current_range_meters":38800,"station_id":"ce4bh492rcd13ifvqdvg","pricing_plan_id":"cebpf4jnsgd1na2vs0mg"},{"bike_id":"3a3e6fed-53a7-430b-9c57-b4980f40c2a5","system_id":"levelo_inurba_marseille","lat":43.30934,"lon":5.40147,"is_reserved":false,"is_disabled":false,"rental_uris":{"android":"levelo://app?vid=3a3e6fed-53a7-430b-9c57-b4980f40c2a5","ios":"levelo://app?vid=3a3e6fed-53a7-430b-9c57-b4980f40c2a5"},"vehicle_type_id":"4","last_reported":1725941445,"current_range_meters":36000,"station_id":"ce4bgvp2rcd13ifvqct0","pricing_plan_id":"cebpf4jnsgd1na2vs0mg"},{"bike_id":"9cabc04a-d7e4-4477-a4a4-2f26cf83f95b","system_id":"levelo_inurba_marseille","lat":43.31172,"lon":5.38708,"is_reserved":false,"is_disabled":false,"rental_uris":{"android":"levelo://app?vid=9cabc04a-d7e4-4477-a4a4-2f26cf83f95b","ios":"levelo://app?vid=9cabc04a-d7e4-4477-a4a4-2f26cf83f95b"},"vehicle_type_id":"4","last_reported":1725941445,"current_range_meters":40000,"station_id":"ce4bgv12rcd13ifvqcp0","pricing_plan_id":"cebpf4jnsgd1na2vs0mg"},{"bike_id":"e62629a8-f83e-4869-8564-dc818f1c42a7","system_id":"levelo_inurba_marseille","lat":43.31174,"lon":5.38723,"is_reserved":false,"is_disabled":false,"rental_uris":{"android":"levelo://app?vid=e62629a8-f83e-4869-8564-dc818f1c42a7","ios":"levelo://app?vid=e62629a8-f83e-4869-8564-dc818f1c42a7"},"vehicle_type_id":"4","last_reported":1725941445,"current_range_meters":39200,"station_id":"ce4bgv12rcd13ifvqcp0","pricing_plan_id":"cebpf4jnsgd1na2vs0mg"},{"bike_id":"ab15ccba-e0d3-4d14-9a2e-22ac51455d0a","system_id":"levelo_inurba_marseille","lat":43.23204,"lon":5.39968,"is_reserved":false,"is_disabled":false,"rental_uris":{"android":"levelo://app?vid=ab15ccba-e0d3-4d14-9a2e-22ac51455d0a","ios":"levelo://app?vid=ab15ccba-e0d3-4d14-9a2e-22ac51455d0a"},"vehicle_type_id":"4","last_reported":1725941445,"current_range_meters":22000,"station_id":"ce4bhn12rcd13ifvqgqg","pricing_plan_id":"cebpf4jnsgd1na2vs0mg"},{"bike_id":"b8f8b525-6b79-4ee5-afae-af79e87c0801","system_id":"levelo_inurba_marseille","lat":43.28481,"lon":5.38419,"is_reserved":false,"is_disabled":false,"rental_uris":{"android":"levelo://app?vid=b8f8b525-6b79-4ee5-afae-af79e87c0801","ios":"levelo://app?vid=b8f8b525-6b79-4ee5-afae-af79e87c0801"},"vehicle_type_id":"4","last_reported":1725941445,"current_range_meters":38000,"station_id":"ce4bh512rcd13ifvqe3g","pricing_plan_id":"cebpf4jnsgd1na2vs0mg"},{"bike_id":"e44c6376-27a8-455f-a495-10bc442b1604","system_id":"levelo_inurba_marseille","lat":43.25087,"lon":5.39522,"is_reserved":false,"is_disabled":false,"rental_uris":{"android":"levelo://app?vid=e44c6376-27a8-455f-a495-10bc442b1604","ios":"levelo://app?vid=e44c6376-27a8-455f-a495-10bc442b1604"},"vehicle_type_id":"4","last_reported":1725941445,"current_range_meters":5600,"station_id":"ce4bhm12rcd13ifvqgkg","pricing_plan_id":"cebpf4jnsgd1na2vs0mg"},{"bike_id":"e83c6843-2b4d-45fc-bf1b-29cfc985c0bb","system_id":"levelo_inurba_marseille","lat":43.29254,"lon":5.40906,"is_reserved":false,"is_disabled":false,"rental_uris":{"android":"levelo://app?vid=e83c6843-2b4d-45fc-bf1b-29cfc985c0bb","ios":"levelo://app?vid=e83c6843-2b4d-45fc-bf1b-29cfc985c0bb"},"vehicle_type_id":"4","last_reported":1725941445,"current_range_meters":32000,"station_id":"ce4bh192rcd13ifvqdc0","pricing_plan_id":"cebpf4jnsgd1na2vs0mg"},{"bike_id":"9938e91c-265b-40a5-a9ee-a8a818767b92","system_id":"levelo_inurba_marseille","lat":43.24669,"lon":5.38171,"is_reserved":false,"is_disabled":false,"rental_uris":{"android":"levelo://app?vid=9938e91c-265b-40a5-a9ee-a8a818767b92","ios":"levelo://app?vid=9938e91c-265b-40a5-a9ee-a8a818767b92"},"vehicle_type_id":"4","last_reported":1725941445,"current_range_meters":16400,"station_id":"ce4bhih2rcd13ifvqfr0","pricing_plan_id":"cebpf4jnsgd1na2vs0mg"},{"bike_id":"59ac3f42-0c2d-4400-ad40-c3b5eb3fb716","system_id":"levelo_inurba_marseille","lat":43.33021,"lon":5.39035,"is_reserved":false,"is_disabled":false,"rental_uris":{"android":"levelo://app?vid=59ac3f42-0c2d-4400-ad40-c3b5eb3fb716","ios":"levelo://app?vid=59ac3f42-0c2d-4400-ad40-c3b5eb3fb716"},"vehicle_type_id":"4","last_reported":1725941445,"current_range_meters":30800,"station_id":"ce4bhr92rcd13ifvqhrg","pricing_plan_id":"cebpf4jnsgd1na2vs0mg"},{"bike_id":"25a734f0-5a58-49fa-9e2e-761a6040d468","system_id":"levelo_inurba_marseille","lat":43.23143,"lon":5.43723,"is_reserved":false,"is_disabled":false,"rental_uris":{"android":"levelo://app?vid=25a734f0-5a58-49fa-9e2e-761a6040d468","ios":"levelo://app?vid=25a734f0-5a58-49fa-9e2e-761a6040d468"},"vehicle_type_id":"4","last_reported":1725941445,"current_range_meters":20000,"station_id":"ce4bhmp2rcd13ifvqgog","pricing_plan_id":"cebpf4jnsgd1na2vs0mg"},{"bike_id":"273bfe13-bc71-40ca-9955-e31d49cb88e0","system_id":"levelo_inurba_marseille","lat":43.23956,"lon":5.36631,"is_reserved":false,"is_disabled":false,"rental_uris":{"android":"levelo://app?vid=273bfe13-bc71-40ca-9955-e31d49cb88e0","ios":"levelo://app?vid=273bfe13-bc71-40ca-9955-e31d49cb88e0"},"vehicle_type_id":"4","last_reported":1725941445,"current_range_meters":38400,"station_id":"ce4bhi12rcd13ifvqfp0","pricing_plan_id":"cebpf4jnsgd1na2vs0mg"},{"bike_id":"1853c651-46bf-4ac8-adbd-565b9d016c8d","system_id":"levelo_inurba_marseille","lat":43.28701,"lon":5.39978,"is_reserved":false,"is_disabled":false,"rental_uris":{"android":"levelo://app?vid=1853c651-46bf-4ac8-adbd-565b9d016c8d","ios":"levelo://app?vid=1853c651-46bf-4ac8-adbd-565b9d016c8d"},"vehicle_type_id":"4","last_reported":1725941445,"current_range_meters":32400,"station_id":"ce4bho92rcd13ifvqh3g","pricing_plan_id":"cebpf4jnsgd1na2vs0mg"},{"bike_id":"f5c9d5a3-bded-4bdf-a211-9658b468f702","system_id":"levelo_inurba_marseille","lat":43.32293,"lon":5.38275,"is_reserved":false,"is_disabled":false,"rental_uris":{"android":"levelo://app?vid=f5c9d5a3-bded-4bdf-a211-9658b468f702","ios":"levelo://app?vid=f5c9d5a3-bded-4bdf-a211-9658b468f702"},"vehicle_type_id":"4","last_reported":1725941445,"current_range_meters":38000,"station_id":"ce4bhr12rcd13ifvqhqg","pricing_plan_id":"cebpf4jnsgd1na2vs0mg"},{"bike_id":"49fec638-a96b-42fd-9f27-ec7b044f5323","system_id":"levelo_inurba_marseille","lat":43.27075,"lon":5.42284,"is_reserved":false,"is_disabled":false,"rental_uris":{"android":"levelo://app?vid=49fec638-a96b-42fd-9f27-ec7b044f5323","ios":"levelo://app?vid=49fec638-a96b-42fd-9f27-ec7b044f5323"},"vehicle_type_id":"4","last_reported":1725941445,"current_range_meters":36800,"station_id":"ce4bhk92rcd13ifvqgb0","pricing_plan_id":"cebpf4jnsgd1na2vs0mg"},{"bike_id":"ebd57153-7455-42ad-8f15-54d859317b27","system_id":"levelo_inurba_marseille","lat":43.24809,"lon":5.37454,"is_reserved":false,"is_disabled":false,"rental_uris":{"android":"levelo://app?vid=ebd57153-7455-42ad-8f15-54d859317b27","ios":"levelo://app?vid=ebd57153-7455-42ad-8f15-54d859317b27"},"vehicle_type_id":"4","last_reported":1725941445,"current_range_meters":39200,"station_id":"ce4bhgh2rcd13ifvqfb0","pricing_plan_id":"cebpf4jnsgd1na2vs0mg"},{"bike_id":"8018bad9-270b-45d5-ad60-e2e7c3848a57","system_id":"levelo_inurba_marseille","lat":43.30902,"lon":5.37208,"is_reserved":false,"is_disabled":false,"rental_uris":{"android":"levelo://app?vid=8018bad9-270b-45d5-ad60-e2e7c3848a57","ios":"levelo://app?vid=8018bad9-270b-45d5-ad60-e2e7c3848a57"},"vehicle_type_id":"4","last_reported":1725941445,"current_range_meters":34800,"station_id":"ce4bguh2rcd13ifvqckg","pricing_plan_id":"cebpf4jnsgd1na2vs0mg"},{"bike_id":"90a6a5f4-d210-49bd-91d6-c396a4087c40","system_id":"levelo_inurba_marseille","lat":43.27951,"lon":5.41049,"is_reserved":false,"is_disabled":false,"rental_uris":{"android":"levelo://app?vid=90a6a5f4-d210-49bd-91d6-c396a4087c40","ios":"levelo://app?vid=90a6a5f4-d210-49bd-91d6-c396a4087c40"},"vehicle_type_id":"4","last_reported":1725941445,"current_range_meters":4800,"station_id":"ce4bhnp2rcd13ifvqh0g","pricing_plan_id":"cebpf4jnsgd1na2vs0mg"},{"bike_id":"7d143214-89ae-4eb5-90e2-d52d52356d60","system_id":"levelo_inurba_marseille","lat":43.31363,"lon":5.38491,"is_reserved":false,"is_disabled":false,"rental_uris":{"android":"levelo://app?vid=7d143214-89ae-4eb5-90e2-d52d52356d60","ios":"levelo://app?vid=7d143214-89ae-4eb5-90e2-d52d52356d60"},"vehicle_type_id":"4","last_reported":1725941445,"current_range_meters":7200,"station_id":"ce4bgt92rcd13ifvqcf0","pricing_plan_id":"cebpf4jnsgd1na2vs0mg"},{"bike_id":"488cdd4b-b5b7-406b-afc8-e750963c9892","system_id":"levelo_inurba_marseille","lat":43.24811,"lon":5.37462,"is_reserved":false,"is_disabled":false,"rental_uris":{"android":"levelo://app?vid=488cdd4b-b5b7-406b-afc8-e750963c9892","ios":"levelo://app?vid=488cdd4b-b5b7-406b-afc8-e750963c9892"},"vehicle_type_id":"4","last_reported":1725941445,"current_range_meters":38000,"station_id":"ce4bhgh2rcd13ifvqfb0","pricing_plan_id":"cebpf4jnsgd1na2vs0mg"},{"bike_id":"22d21520-dd96-43df-a2bd-15f750ef53a2","system_id":"levelo_inurba_marseille","lat":43.31697,"lon":5.40468,"is_reserved":false,"is_disabled":false,"rental_uris":{"android":"levelo://app?vid=22d21520-dd96-43df-a2bd-15f750ef53a2","ios":"levelo://app?vid=22d21520-dd96-43df-a2bd-15f750ef53a2"},"vehicle_type_id":"4","last_reported":1725941445,"current_range_meters":39200,"station_id":"ce4bh012rcd13ifvqd00","pricing_plan_id":"cebpf4jnsgd1na2vs0mg"},{"bike_id":"92fe2e63-ce0b-42e3-b314-b4b16f31ac51","system_id":"levelo_inurba_marseille","lat":43.24804,"lon":5.37454,"is_reserved":false,"is_disabled":false,"rental_uris":{"android":"levelo://app?vid=92fe2e63-ce0b-42e3-b314-b4b16f31ac51","ios":"levelo://app?vid=92fe2e63-ce0b-42e3-b314-b4b16f31ac51"},"vehicle_type_id":"4","last_reported":1725941445,"current_range_meters":39200,"station_id":"ce4bhgh2rcd13ifvqfb0","pricing_plan_id":"cebpf4jnsgd1na2vs0mg"},{"bike_id":"8b4e4a1b-2678-459d-89a5-b7cfd25a4bf1","system_id":"levelo_inurba_marseille","lat":43.30886,"lon":5.39639,"is_reserved":false,"is_disabled":false,"rental_uris":{"android":"levelo://app?vid=8b4e4a1b-2678-459d-89a5-b7cfd25a4bf1","ios":"levelo://app?vid=8b4e4a1b-2678-459d-89a5-b7cfd25a4bf1"},"vehicle_type_id":"4","last_reported":1725941445,"current_range_meters":39200,"station_id":"ce4bh012rcd13ifvqcv0","pricing_plan_id":"cebpf4jnsgd1na2vs0mg"},{"bike_id":"0dfb3a6c-065b-4a1b-b275-f1c2eaecdfa2","system_id":"levelo_inurba_marseille","lat":43.30803,"lon":5.4353,"is_reserved":false,"is_disabled":false,"rental_uris":{"android":"levelo://app?vid=0dfb3a6c-065b-4a1b-b275-f1c2eaecdfa2","ios":"levelo://app?vid=0dfb3a6c-065b-4a1b-b275-f1c2eaecdfa2"},"vehicle_type_id":"4","last_reported":1725941445,"current_range_meters":4000,"station_id":"ce4bhph2rcd13ifvqheg","pricing_plan_id":"cebpf4jnsgd1na2vs0mg"},{"bike_id":"a96e3cbb-2e52-4919-bb70-a35242e0f711","system_id":"levelo_inurba_marseille","lat":43.30543,"lon":5.38432,"is_reserved":false,"is_disabled":false,"rental_uris":{"android":"levelo://app?vid=a96e3cbb-2e52-4919-bb70-a35242e0f711","ios":"levelo://app?vid=a96e3cbb-2e52-4919-bb70-a35242e0f711"},"vehicle_type_id":"4","last_reported":1725941445,"current_range_meters":36000,"station_id":"ce4bgg92rcd13ifvqb30","pricing_plan_id":"cebpf4jnsgd1na2vs0mg"},{"bike_id":"d36d048c-c2db-4374-98b2-ededf50f97ce","system_id":"levelo_inurba_marseille","lat":43.28368,"lon":5.38633,"is_reserved":false,"is_disabled":false,"rental_uris":{"android":"levelo://app?vid=d36d048c-c2db-4374-98b2-ededf50f97ce","ios":"levelo://app?vid=d36d048c-c2db-4374-98b2-ededf50f97ce"},"vehicle_type_id":"4","last_reported":1725941445,"current_range_meters":32400,"station_id":"ce4bh492rcd13ifvqdvg","pricing_plan_id":"cebpf4jnsgd1na2vs0mg"},{"bike_id":"e275e192-4060-4a0f-94f8-0da54bf737fb","system_id":"levelo_inurba_marseille","lat":43.30141,"lon":5.39865,"is_reserved":false,"is_disabled":false,"rental_uris":{"android":"levelo://app?vid=e275e192-4060-4a0f-94f8-0da54bf737fb","ios":"levelo://app?vid=e275e192-4060-4a0f-94f8-0da54bf737fb"},"vehicle_type_id":"4","last_reported":1725941445,"current_range_meters":19200,"station_id":"ce4bh0h2rcd13ifvqd40","pricing_plan_id":"cebpf4jnsgd1na2vs0mg"},{"bike_id":"843a5a7d-19c1-4bad-8df1-da309d48db7d","system_id":"levelo_inurba_marseille","lat":43.31706,"lon":5.40468,"is_reserved":false,"is_disabled":false,"rental_uris":{"android":"levelo://app?vid=843a5a7d-19c1-4bad-8df1-da309d48db7d","ios":"levelo://app?vid=843a5a7d-19c1-4bad-8df1-da309d48db7d"},"vehicle_type_id":"4","last_reported":1725941445,"current_range_meters":10000,"station_id":"ce4bh012rcd13ifvqd00","pricing_plan_id":"cebpf4jnsgd1na2vs0mg"},{"bike_id":"ac3ecfe4-4d9f-4485-ba60-d7a5cbc50168","system_id":"levelo_inurba_marseille","lat":43.25087,"lon":5.39522,"is_reserved":false,"is_disabled":false,"rental_uris":{"android":"levelo://app?vid=ac3ecfe4-4d9f-4485-ba60-d7a5cbc50168","ios":"levelo://app?vid=ac3ecfe4-4d9f-4485-ba60-d7a5cbc50168"},"vehicle_type_id":"4","last_reported":1725941445,"current_range_meters":39200,"station_id":"ce4bhm12rcd13ifvqgkg","pricing_plan_id":"cebpf4jnsgd1na2vs0mg"},{"bike_id":"466e227d-5d52-4601-951c-1d5a74f5be96","system_id":"levelo_inurba_marseille","lat":43.28712,"lon":5.37389,"is_reserved":false,"is_disabled":false,"rental_uris":{"android":"levelo://app?vid=466e227d-5d52-4601-951c-1d5a74f5be96","ios":"levelo://app?vid=466e227d-5d52-4601-951c-1d5a74f5be96"},"vehicle_type_id":"4","last_reported":1725941445,"current_range_meters":35600,"station_id":"ce4bh3p2rcd13ifvqdq0","pricing_plan_id":"cebpf4jnsgd1na2vs0mg"},{"bike_id":"d3ba1b2a-4479-4164-b05c-ab2669bdaf54","system_id":"levelo_inurba_marseille","lat":43.31169,"lon":5.38723,"is_reserved":false,"is_disabled":false,"rental_uris":{"android":"levelo://app?vid=d3ba1b2a-4479-4164-b05c-ab2669bdaf54","ios":"levelo://app?vid=d3ba1b2a-4479-4164-b05c-ab2669bdaf54"},"vehicle_type_id":"4","last_reported":1725941445,"current_range_meters":39200,"station_id":"ce4bgv12rcd13ifvqcp0","pricing_plan_id":"cebpf4jnsgd1na2vs0mg"},{"bike_id":"3edca2e8-feea-42a5-92cc-8cc883674ade","system_id":"levelo_inurba_marseille","lat":43.24663,"lon":5.38162,"is_reserved":false,"is_disabled":false,"rental_uris":{"android":"levelo://app?vid=3edca2e8-feea-42a5-92cc-8cc883674ade","ios":"levelo://app?vid=3edca2e8-feea-42a5-92cc-8cc883674ade"},"vehicle_type_id":"4","last_reported":1725941445,"current_range_meters":19600,"station_id":"ce4bhih2rcd13ifvqfr0","pricing_plan_id":"cebpf4jnsgd1na2vs0mg"},{"bike_id":"d0a22151-5873-4516-ad59-35801290152e","system_id":"levelo_inurba_marseille","lat":43.23196,"lon":5.3556,"is_reserved":false,"is_disabled":false,"rental_uris":{"android":"levelo://app?vid=d0a22151-5873-4516-ad59-35801290152e","ios":"levelo://app?vid=d0a22151-5873-4516-ad59-35801290152e"},"vehicle_type_id":"4","last_reported":1725941445,"current_range_meters":11600,"station_id":"ce4bhu92rcd13ifvqi70","pricing_plan_id":"cebpf4jnsgd1na2vs0mg"},{"bike_id":"c48a8efb-27e6-4ab3-af76-fe80067a1413","system_id":"levelo_inurba_marseille","lat":43.32369,"lon":5.38883,"is_reserved":false,"is_disabled":false,"rental_uris":{"android":"levelo://app?vid=c48a8efb-27e6-4ab3-af76-fe80067a1413","ios":"levelo://app?vid=c48a8efb-27e6-4ab3-af76-fe80067a1413"},"vehicle_type_id":"4","last_reported":1725941445,"current_range_meters":24000,"station_id":"ce4bhqp2rcd13ifvqhog","pricing_plan_id":"cebpf4jnsgd1na2vs0mg"},{"bike_id":"c88e81c2-a413-46c7-9209-1d601fcb881d","system_id":"levelo_inurba_marseille","lat":43.28156,"lon":5.4265,"is_reserved":false,"is_disabled":false,"rental_uris":{"android":"levelo://app?vid=c88e81c2-a413-46c7-9209-1d601fcb881d","ios":"levelo://app?vid=c88e81c2-a413-46c7-9209-1d601fcb881d"},"vehicle_type_id":"4","last_reported":1725941445,"current_range_meters":39200,"station_id":"ce4bhnh2rcd13ifvqgug","pricing_plan_id":"cebpf4jnsgd1na2vs0mg"},{"bike_id":"c8aa476e-d39a-4939-8ec8-a9601b368d99","system_id":"levelo_inurba_marseille","lat":43.31333,"lon":5.397,"is_reserved":false,"is_disabled":false,"rental_uris":{"android":"levelo://app?vid=c8aa476e-d39a-4939-8ec8-a9601b368d99","ios":"levelo://app?vid=c8aa476e-d39a-4939-8ec8-a9601b368d99"},"vehicle_type_id":"4","last_reported":1725941445,"current_range_meters":29600,"station_id":"ce4bgvp2rcd13ifvqcu0","pricing_plan_id":"cebpf4jnsgd1na2vs0mg"},{"bike_id":"bd852e7a-0578-45ee-8f14-3ff6a4eb1563","system_id":"levelo_inurba_marseille","lat":43.33026,"lon":5.39048,"is_reserved":false,"is_disabled":false,"rental_uris":{"android":"levelo://app?vid=bd852e7a-0578-45ee-8f14-3ff6a4eb1563","ios":"levelo://app?vid=bd852e7a-0578-45ee-8f14-3ff6a4eb1563"},"vehicle_type_id":"4","last_reported":1725941445,"current_range_meters":38800,"station_id":"ce4bhr92rcd13ifvqhrg","pricing_plan_id":"cebpf4jnsgd1na2vs0mg"},{"bike_id":"05f50815-2dd6-4128-a511-dc9963c7d078","system_id":"levelo_inurba_marseille","lat":43.31355,"lon":5.36707,"is_reserved":false,"is_disabled":false,"rental_uris":{"android":"levelo://app?vid=05f50815-2dd6-4128-a511-dc9963c7d078","ios":"levelo://app?vid=05f50815-2dd6-4128-a511-dc9963c7d078"},"vehicle_type_id":"4","last_reported":1725941445,"current_range_meters":30400,"station_id":"ce4bgr92rcd13ifvqc6g","pricing_plan_id":"cebpf4jnsgd1na2vs0mg"},{"bike_id":"3cf7a933-0b46-42c4-a0a0-02e10aae199c","system_id":"levelo_inurba_marseille","lat":43.295365,"lon":5.39072,"is_reserved":false,"is_disabled":false,"rental_uris":{"android":"levelo://app?vid=3cf7a933-0b46-42c4-a0a0-02e10aae199c","ios":"levelo://app?vid=3cf7a933-0b46-42c4-a0a0-02e10aae199c"},"vehicle_type_id":"4","last_reported":1725941445,"current_range_meters":38400,"station_id":"ce4bh3p2rcd13ifvqdp0","pricing_plan_id":"cebpf4jnsgd1na2vs0mg"},{"bike_id":"1c3fe446-83e5-4738-8ca0-d96982982aae","system_id":"levelo_inurba_marseille","lat":43.31323,"lon":5.39701,"is_reserved":false,"is_disabled":false,"rental_uris":{"android":"levelo://app?vid=1c3fe446-83e5-4738-8ca0-d96982982aae","ios":"levelo://app?vid=1c3fe446-83e5-4738-8ca0-d96982982aae"},"vehicle_type_id":"4","last_reported":1725941445,"current_range_meters":32400,"station_id":"ce4bgvp2rcd13ifvqcu0","pricing_plan_id":"cebpf4jnsgd1na2vs0mg"},{"bike_id":"6d123214-929c-4603-b3a9-fa1b6732a478","system_id":"levelo_inurba_marseille","lat":43.30938,"lon":5.40143,"is_reserved":false,"is_disabled":false,"rental_uris":{"android":"levelo://app?vid=6d123214-929c-4603-b3a9-fa1b6732a478","ios":"levelo://app?vid=6d123214-929c-4603-b3a9-fa1b6732a478"},"vehicle_type_id":"4","last_reported":1725941445,"current_range_meters":38800,"station_id":"ce4bgvp2rcd13ifvqct0","pricing_plan_id":"cebpf4jnsgd1na2vs0mg"},{"bike_id":"9896483a-9145-48ec-8528-cddd27abf3cf","system_id":"levelo_inurba_marseille","lat":43.31887,"lon":5.40726,"is_reserved":false,"is_disabled":false,"rental_uris":{"android":"levelo://app?vid=9896483a-9145-48ec-8528-cddd27abf3cf","ios":"levelo://app?vid=9896483a-9145-48ec-8528-cddd27abf3cf"},"vehicle_type_id":"4","last_reported":1725941445,"current_range_meters":39200,"station_id":"ce4bhq12rcd13ifvqhig","pricing_plan_id":"cebpf4jnsgd1na2vs0mg"},{"bike_id":"93ee0c97-4f92-4a0c-bc38-ac0c5863f069","system_id":"levelo_inurba_marseille","lat":43.31374,"lon":5.38499,"is_reserved":false,"is_disabled":false,"rental_uris":{"android":"levelo://app?vid=93ee0c97-4f92-4a0c-bc38-ac0c5863f069","ios":"levelo://app?vid=93ee0c97-4f92-4a0c-bc38-ac0c5863f069"},"vehicle_type_id":"4","last_reported":1725941445,"current_range_meters":12400,"station_id":"ce4bgt92rcd13ifvqcf0","pricing_plan_id":"cebpf4jnsgd1na2vs0mg"},{"bike_id":"38bd18d9-3104-4071-aa70-2fdd2fbf5125","system_id":"levelo_inurba_marseille","lat":43.28029,"lon":5.36952,"is_reserved":false,"is_disabled":false,"rental_uris":{"android":"levelo://app?vid=38bd18d9-3104-4071-aa70-2fdd2fbf5125","ios":"levelo://app?vid=38bd18d9-3104-4071-aa70-2fdd2fbf5125"},"vehicle_type_id":"4","last_reported":1725941445,"current_range_meters":6000,"station_id":"ce4bha12rcd13ifvqef0","pricing_plan_id":"cebpf4jnsgd1na2vs0mg"},{"bike_id":"81ee6acc-ee2d-4a01-b46a-8145c1293114","system_id":"levelo_inurba_marseille","lat":43.2586,"lon":5.39915,"is_reserved":false,"is_disabled":false,"rental_uris":{"android":"levelo://app?vid=81ee6acc-ee2d-4a01-b46a-8145c1293114","ios":"levelo://app?vid=81ee6acc-ee2d-4a01-b46a-8145c1293114"},"vehicle_type_id":"4","last_reported":1725941445,"current_range_meters":38400,"station_id":"ce4bhl92rcd13ifvqghg","pricing_plan_id":"cebpf4jnsgd1na2vs0mg"},{"bike_id":"da648d69-f732-4603-9756-14a7b9677cbc","system_id":"levelo_inurba_marseille","lat":43.30962,"lon":5.39037,"is_reserved":false,"is_disabled":false,"rental_uris":{"android":"levelo://app?vid=da648d69-f732-4603-9756-14a7b9677cbc","ios":"levelo://app?vid=da648d69-f732-4603-9756-14a7b9677cbc"},"vehicle_type_id":"4","last_reported":1725941445,"current_range_meters":35200,"station_id":"ce4bgup2rcd13ifvqco0","pricing_plan_id":"cebpf4jnsgd1na2vs0mg"},{"bike_id":"676f5e91-7bd9-4826-b9e9-02e259887bad","system_id":"levelo_inurba_marseille","lat":43.2849,"lon":5.38569,"is_reserved":false,"is_disabled":false,"rental_uris":{"android":"levelo://app?vid=676f5e91-7bd9-4826-b9e9-02e259887bad","ios":"levelo://app?vid=676f5e91-7bd9-4826-b9e9-02e259887bad"},"vehicle_type_id":"4","last_reported":1725941445,"current_range_meters":17200,"station_id":"ce4bh8p2rcd13ifvqeb0","pricing_plan_id":"cebpf4jnsgd1na2vs0mg"},{"bike_id":"d7fee707-ce84-4e17-b09b-ab5302aa77ed","system_id":"levelo_inurba_marseille","lat":43.2845,"lon":5.35888,"is_reserved":false,"is_disabled":false,"rental_uris":{"android":"levelo://app?vid=d7fee707-ce84-4e17-b09b-ab5302aa77ed","ios":"levelo://app?vid=d7fee707-ce84-4e17-b09b-ab5302aa77ed"},"vehicle_type_id":"4","last_reported":1725941445,"current_range_meters":37600,"station_id":"ce4bhah2rcd13ifvqei0","pricing_plan_id":"cebpf4jnsgd1na2vs0mg"},{"bike_id":"43c1f2d1-5b3f-4241-affc-81a36f12db93","system_id":"levelo_inurba_marseille","lat":43.26811,"lon":5.40265,"is_reserved":false,"is_disabled":false,"rental_uris":{"android":"levelo://app?vid=43c1f2d1-5b3f-4241-affc-81a36f12db93","ios":"levelo://app?vid=43c1f2d1-5b3f-4241-affc-81a36f12db93"},"vehicle_type_id":"4","last_reported":1725941445,"current_range_meters":17600,"station_id":"ce501612rcd8frsf0b60","pricing_plan_id":"cebpf4jnsgd1na2vs0mg"},{"bike_id":"8d8bdc72-4511-4764-8166-abd5a53ae6fc","system_id":"levelo_inurba_marseille","lat":43.31885,"lon":5.40736,"is_reserved":false,"is_disabled":false,"rental_uris":{"android":"levelo://app?vid=8d8bdc72-4511-4764-8166-abd5a53ae6fc","ios":"levelo://app?vid=8d8bdc72-4511-4764-8166-abd5a53ae6fc"},"vehicle_type_id":"4","last_reported":1725941445,"current_range_meters":37600,"station_id":"ce4bhq12rcd13ifvqhig","pricing_plan_id":"cebpf4jnsgd1na2vs0mg"},{"bike_id":"35dc6586-07e5-40ce-bef6-f07080a96959","system_id":"levelo_inurba_marseille","lat":43.27816,"lon":5.40715,"is_reserved":false,"is_disabled":false,"rental_uris":{"android":"levelo://app?vid=35dc6586-07e5-40ce-bef6-f07080a96959","ios":"levelo://app?vid=35dc6586-07e5-40ce-bef6-f07080a96959"},"vehicle_type_id":"4","last_reported":1725941445,"current_range_meters":37600,"station_id":"ce4bhnh2rcd13ifvqgtg","pricing_plan_id":"cebpf4jnsgd1na2vs0mg"},{"bike_id":"641a6f9a-c272-44cf-92d6-cbef97fa1631","system_id":"levelo_inurba_marseille","lat":43.26565,"lon":5.39032,"is_reserved":false,"is_disabled":false,"rental_uris":{"android":"levelo://app?vid=641a6f9a-c272-44cf-92d6-cbef97fa1631","ios":"levelo://app?vid=641a6f9a-c272-44cf-92d6-cbef97fa1631"},"vehicle_type_id":"4","last_reported":1725941445,"current_range_meters":20800,"station_id":"ce4bhe12rcd13ifvqf30","pricing_plan_id":"cebpf4jnsgd1na2vs0mg"},{"bike_id":"b6e31673-f227-4700-bc8e-105bc2ce71ff","system_id":"levelo_inurba_marseille","lat":43.28664,"lon":5.36354,"is_reserved":false,"is_disabled":false,"rental_uris":{"android":"levelo://app?vid=b6e31673-f227-4700-bc8e-105bc2ce71ff","ios":"levelo://app?vid=b6e31673-f227-4700-bc8e-105bc2ce71ff"},"vehicle_type_id":"4","last_reported":1725941445,"current_range_meters":33200,"station_id":"ce4bhah2rcd13ifvqej0","pricing_plan_id":"cebpf4jnsgd1na2vs0mg"},{"bike_id":"0dc727ec-fc32-4f0f-a202-de3ecb785f85","system_id":"levelo_inurba_marseille","lat":43.30779,"lon":5.3766,"is_reserved":false,"is_disabled":false,"rental_uris":{"android":"levelo://app?vid=0dc727ec-fc32-4f0f-a202-de3ecb785f85","ios":"levelo://app?vid=0dc727ec-fc32-4f0f-a202-de3ecb785f85"},"vehicle_type_id":"4","last_reported":1725941445,"current_range_meters":38400,"station_id":"ce4bgv92rcd13ifvqcq0","pricing_plan_id":"cebpf4jnsgd1na2vs0mg"},{"bike_id":"8e6bd6ba-7373-4b38-b5e7-b8feec8d10c8","system_id":"levelo_inurba_marseille","lat":43.30324,"lon":5.40446,"is_reserved":false,"is_disabled":false,"rental_uris":{"android":"levelo://app?vid=8e6bd6ba-7373-4b38-b5e7-b8feec8d10c8","ios":"levelo://app?vid=8e6bd6ba-7373-4b38-b5e7-b8feec8d10c8"},"vehicle_type_id":"4","last_reported":1725941445,"current_range_meters":20400,"station_id":"ce4bh012rcd13ifvqd10","pricing_plan_id":"cebpf4jnsgd1na2vs0mg"},{"bike_id":"9db97c3f-9dee-426b-bbfc-f16d43f3a632","system_id":"levelo_inurba_marseille","lat":43.28029,"lon":5.36956,"is_reserved":false,"is_disabled":false,"rental_uris":{"android":"levelo://app?vid=9db97c3f-9dee-426b-bbfc-f16d43f3a632","ios":"levelo://app?vid=9db97c3f-9dee-426b-bbfc-f16d43f3a632"},"vehicle_type_id":"4","last_reported":1725941445,"current_range_meters":39200,"station_id":"ce4bha12rcd13ifvqef0","pricing_plan_id":"cebpf4jnsgd1na2vs0mg"},{"bike_id":"c1860b1b-37a5-4ec3-9444-8b6917aa23b8","system_id":"levelo_inurba_marseille","lat":43.31071,"lon":5.38353,"is_reserved":false,"is_disabled":false,"rental_uris":{"android":"levelo://app?vid=c1860b1b-37a5-4ec3-9444-8b6917aa23b8","ios":"levelo://app?vid=c1860b1b-37a5-4ec3-9444-8b6917aa23b8"},"vehicle_type_id":"4","last_reported":1725941445,"current_range_meters":33200,"station_id":"ce4bgv92rcd13ifvqcr0","pricing_plan_id":"cebpf4jnsgd1na2vs0mg"},{"bike_id":"babc10a8-7135-49b9-95a2-9a05376a1e4a","system_id":"levelo_inurba_marseille","lat":43.30596,"lon":5.39356,"is_reserved":false,"is_disabled":false,"rental_uris":{"android":"levelo://app?vid=babc10a8-7135-49b9-95a2-9a05376a1e4a","ios":"levelo://app?vid=babc10a8-7135-49b9-95a2-9a05376a1e4a"},"vehicle_type_id":"4","last_reported":1725941445,"current_range_meters":15200,"station_id":"ce4bh0p2rcd13ifvqd80","pricing_plan_id":"cebpf4jnsgd1na2vs0mg"},{"bike_id":"6c57f81c-0c57-4bcf-9c60-7dd47f112392","system_id":"levelo_inurba_marseille","lat":43.27999,"lon":5.40016,"is_reserved":false,"is_disabled":false,"rental_uris":{"android":"levelo://app?vid=6c57f81c-0c57-4bcf-9c60-7dd47f112392","ios":"levelo://app?vid=6c57f81c-0c57-4bcf-9c60-7dd47f112392"},"vehicle_type_id":"4","last_reported":1725941445,"current_range_meters":36000,"station_id":"ce4bho92rcd13ifvqh4g","pricing_plan_id":"cebpf4jnsgd1na2vs0mg"},{"bike_id":"3fb3489a-3dba-4e60-9499-357d8b3b9977","system_id":"levelo_inurba_marseille","lat":43.27564,"lon":5.38419,"is_reserved":false,"is_disabled":false,"rental_uris":{"android":"levelo://app?vid=3fb3489a-3dba-4e60-9499-357d8b3b9977","ios":"levelo://app?vid=3fb3489a-3dba-4e60-9499-357d8b3b9977"},"vehicle_type_id":"4","last_reported":1725941445,"current_range_meters":33600,"station_id":"ce4bhh92rcd13ifvqfi0","pricing_plan_id":"cebpf4jnsgd1na2vs0mg"},{"bike_id":"35323f7f-9cdb-4e75-a5b2-afda2685b808","system_id":"levelo_inurba_marseille","lat":43.31235,"lon":5.3685,"is_reserved":false,"is_disabled":false,"rental_uris":{"android":"levelo://app?vid=35323f7f-9cdb-4e75-a5b2-afda2685b808","ios":"levelo://app?vid=35323f7f-9cdb-4e75-a5b2-afda2685b808"},"vehicle_type_id":"4","last_reported":1725941445,"current_range_meters":36000,"station_id":"ce4bgl92rcd13ifvqbq0","pricing_plan_id":"cebpf4jnsgd1na2vs0mg"},{"bike_id":"b11d5d2f-9538-455e-a928-1dba6eb9d3e2","system_id":"levelo_inurba_marseille","lat":43.31531,"lon":5.38033,"is_reserved":false,"is_disabled":false,"rental_uris":{"android":"levelo://app?vid=b11d5d2f-9538-455e-a928-1dba6eb9d3e2","ios":"levelo://app?vid=b11d5d2f-9538-455e-a928-1dba6eb9d3e2"},"vehicle_type_id":"4","last_reported":1725941445,"current_range_meters":34000,"station_id":"ce4bhsp2rcd13ifvqi50","pricing_plan_id":"cebpf4jnsgd1na2vs0mg"},{"bike_id":"287f215c-6248-4354-8911-320ec0d08130","system_id":"levelo_inurba_marseille","lat":43.2319,"lon":5.3998,"is_reserved":false,"is_disabled":false,"rental_uris":{"android":"levelo://app?vid=287f215c-6248-4354-8911-320ec0d08130","ios":"levelo://app?vid=287f215c-6248-4354-8911-320ec0d08130"},"vehicle_type_id":"4","last_reported":1725941445,"current_range_meters":38800,"station_id":"ce4bhn12rcd13ifvqgqg","pricing_plan_id":"cebpf4jnsgd1na2vs0mg"},{"bike_id":"745409df-cd99-4f9e-a6bf-694dd8a76daf","system_id":"levelo_inurba_marseille","lat":43.23959,"lon":5.36637,"is_reserved":false,"is_disabled":false,"rental_uris":{"android":"levelo://app?vid=745409df-cd99-4f9e-a6bf-694dd8a76daf","ios":"levelo://app?vid=745409df-cd99-4f9e-a6bf-694dd8a76daf"},"vehicle_type_id":"4","last_reported":1725941445,"current_range_meters":8800,"station_id":"ce4bhi12rcd13ifvqfp0","pricing_plan_id":"cebpf4jnsgd1na2vs0mg"},{"bike_id":"03750b00-9c9d-4e79-ad45-589bcc218443","system_id":"levelo_inurba_marseille","lat":43.25002,"lon":5.38926,"is_reserved":false,"is_disabled":false,"rental_uris":{"android":"levelo://app?vid=03750b00-9c9d-4e79-ad45-589bcc218443","ios":"levelo://app?vid=03750b00-9c9d-4e79-ad45-589bcc218443"},"vehicle_type_id":"4","last_reported":1725941445,"current_range_meters":39200,"station_id":"ce4bhgp2rcd13ifvqfd0","pricing_plan_id":"cebpf4jnsgd1na2vs0mg"},{"bike_id":"e453de79-6f5c-448a-a60e-01e0ce154adc","system_id":"levelo_inurba_marseille","lat":43.28034,"lon":5.36941,"is_reserved":false,"is_disabled":false,"rental_uris":{"android":"levelo://app?vid=e453de79-6f5c-448a-a60e-01e0ce154adc","ios":"levelo://app?vid=e453de79-6f5c-448a-a60e-01e0ce154adc"},"vehicle_type_id":"4","last_reported":1725941445,"current_range_meters":36800,"station_id":"ce4bha12rcd13ifvqef0","pricing_plan_id":"cebpf4jnsgd1na2vs0mg"},{"bike_id":"3141fc4d-1348-47eb-8a73-f4b23026a085","system_id":"levelo_inurba_marseille","lat":43.30892,"lon":5.39645,"is_reserved":false,"is_disabled":false,"rental_uris":{"android":"levelo://app?vid=3141fc4d-1348-47eb-8a73-f4b23026a085","ios":"levelo://app?vid=3141fc4d-1348-47eb-8a73-f4b23026a085"},"vehicle_type_id":"4","last_reported":1725941445,"current_range_meters":35600,"station_id":"ce4bh012rcd13ifvqcv0","pricing_plan_id":"cebpf4jnsgd1na2vs0mg"},{"bike_id":"05e8aea4-16e1-4683-accc-c0f4376cfd52","system_id":"levelo_inurba_marseille","lat":43.29257,"lon":5.40915,"is_reserved":false,"is_disabled":false,"rental_uris":{"android":"levelo://app?vid=05e8aea4-16e1-4683-accc-c0f4376cfd52","ios":"levelo://app?vid=05e8aea4-16e1-4683-accc-c0f4376cfd52"},"vehicle_type_id":"4","last_reported":1725941445,"current_range_meters":24800,"station_id":"ce4bh192rcd13ifvqdc0","pricing_plan_id":"cebpf4jnsgd1na2vs0mg"},{"bike_id":"4ba15a80-26ab-40dd-b7b0-5ded945011ff","system_id":"levelo_inurba_marseille","lat":43.25083,"lon":5.39511,"is_reserved":false,"is_disabled":false,"rental_uris":{"android":"levelo://app?vid=4ba15a80-26ab-40dd-b7b0-5ded945011ff","ios":"levelo://app?vid=4ba15a80-26ab-40dd-b7b0-5ded945011ff"},"vehicle_type_id":"4","last_reported":1725941445,"current_range_meters":34000,"station_id":"ce4bhm12rcd13ifvqgkg","pricing_plan_id":"cebpf4jnsgd1na2vs0mg"},{"bike_id":"0134c6ce-37d2-43d0-b605-fccad40afc99","system_id":"levelo_inurba_marseille","lat":43.29274,"lon":5.40135,"is_reserved":false,"is_disabled":false,"rental_uris":{"android":"levelo://app?vid=0134c6ce-37d2-43d0-b605-fccad40afc99","ios":"levelo://app?vid=0134c6ce-37d2-43d0-b605-fccad40afc99"},"vehicle_type_id":"4","last_reported":1725941445,"current_range_meters":19200,"station_id":"ce4bh312rcd13ifvqdk0","pricing_plan_id":"cebpf4jnsgd1na2vs0mg"},{"bike_id":"b6b42581-ede7-47be-b0fd-e07f048a4d24","system_id":"levelo_inurba_marseille","lat":43.25089,"lon":5.39512,"is_reserved":false,"is_disabled":false,"rental_uris":{"android":"levelo://app?vid=b6b42581-ede7-47be-b0fd-e07f048a4d24","ios":"levelo://app?vid=b6b42581-ede7-47be-b0fd-e07f048a4d24"},"vehicle_type_id":"4","last_reported":1725941445,"current_range_meters":36800,"station_id":"ce4bhm12rcd13ifvqgkg","pricing_plan_id":"cebpf4jnsgd1na2vs0mg"},{"bike_id":"5410f64a-e76c-43ca-9698-774845f9469d","system_id":"levelo_inurba_marseille","lat":43.31068,"lon":5.38362,"is_reserved":false,"is_disabled":false,"rental_uris":{"android":"levelo://app?vid=5410f64a-e76c-43ca-9698-774845f9469d","ios":"levelo://app?vid=5410f64a-e76c-43ca-9698-774845f9469d"},"vehicle_type_id":"4","last_reported":1725941445,"current_range_meters":25600,"station_id":"ce4bgv92rcd13ifvqcr0","pricing_plan_id":"cebpf4jnsgd1na2vs0mg"},{"bike_id":"d6c2c0ff-2478-4585-a6f6-a982e48b310f","system_id":"levelo_inurba_marseille","lat":43.3176,"lon":5.39017,"is_reserved":false,"is_disabled":false,"rental_uris":{"android":"levelo://app?vid=d6c2c0ff-2478-4585-a6f6-a982e48b310f","ios":"levelo://app?vid=d6c2c0ff-2478-4585-a6f6-a982e48b310f"},"vehicle_type_id":"4","last_reported":1725941445,"current_range_meters":24400,"station_id":"ce4bhqp2rcd13ifvqhng","pricing_plan_id":"cebpf4jnsgd1na2vs0mg"},{"bike_id":"21e66106-6e85-42c0-b984-d290401bec46","system_id":"levelo_inurba_marseille","lat":43.28655,"lon":5.36353,"is_reserved":false,"is_disabled":false,"rental_uris":{"android":"levelo://app?vid=21e66106-6e85-42c0-b984-d290401bec46","ios":"levelo://app?vid=21e66106-6e85-42c0-b984-d290401bec46"},"vehicle_type_id":"4","last_reported":1725941445,"current_range_meters":39200,"station_id":"ce4bhah2rcd13ifvqej0","pricing_plan_id":"cebpf4jnsgd1na2vs0mg"},{"bike_id":"77e5c0b3-8f62-476a-8d6d-19394233e2a9","system_id":"levelo_inurba_marseille","lat":43.30956,"lon":5.39041,"is_reserved":false,"is_disabled":false,"rental_uris":{"android":"levelo://app?vid=77e5c0b3-8f62-476a-8d6d-19394233e2a9","ios":"levelo://app?vid=77e5c0b3-8f62-476a-8d6d-19394233e2a9"},"vehicle_type_id":"4","last_reported":1725941445,"current_range_meters":32000,"station_id":"ce4bgup2rcd13ifvqco0","pricing_plan_id":"cebpf4jnsgd1na2vs0mg"},{"bike_id":"fec9d8c4-1329-4ec1-acbb-cf1a92f2401e","system_id":"levelo_inurba_marseille","lat":43.31268,"lon":5.40166,"is_reserved":false,"is_disabled":false,"rental_uris":{"android":"levelo://app?vid=fec9d8c4-1329-4ec1-acbb-cf1a92f2401e","ios":"levelo://app?vid=fec9d8c4-1329-4ec1-acbb-cf1a92f2401e"},"vehicle_type_id":"4","last_reported":1725941445,"current_range_meters":39200,"station_id":"ce4bh092rcd13ifvqd30","pricing_plan_id":"cebpf4jnsgd1na2vs0mg"},{"bike_id":"d1bb6b12-0779-475b-8778-749f875e364a","system_id":"levelo_inurba_marseille","lat":43.29274,"lon":5.40133,"is_reserved":false,"is_disabled":false,"rental_uris":{"android":"levelo://app?vid=d1bb6b12-0779-475b-8778-749f875e364a","ios":"levelo://app?vid=d1bb6b12-0779-475b-8778-749f875e364a"},"vehicle_type_id":"4","last_reported":1725941445,"current_range_meters":36800,"station_id":"ce4bh312rcd13ifvqdk0","pricing_plan_id":"cebpf4jnsgd1na2vs0mg"},{"bike_id":"99ff5113-63b8-4286-bc76-22496d34f647","system_id":"levelo_inurba_marseille","lat":43.23194,"lon":5.35559,"is_reserved":false,"is_disabled":false,"rental_uris":{"android":"levelo://app?vid=99ff5113-63b8-4286-bc76-22496d34f647","ios":"levelo://app?vid=99ff5113-63b8-4286-bc76-22496d34f647"},"vehicle_type_id":"4","last_reported":1725941445,"current_range_meters":6800,"station_id":"ce4bhu92rcd13ifvqi70","pricing_plan_id":"cebpf4jnsgd1na2vs0mg"},{"bike_id":"61a94629-1cd6-4961-bde9-589d3c4835c3","system_id":"levelo_inurba_marseille","lat":43.28725,"lon":5.36087,"is_reserved":false,"is_disabled":false,"rental_uris":{"android":"levelo://app?vid=61a94629-1cd6-4961-bde9-589d3c4835c3","ios":"levelo://app?vid=61a94629-1cd6-4961-bde9-589d3c4835c3"},"vehicle_type_id":"4","last_reported":1725941445,"current_range_meters":38400,"station_id":"cki0cbj6b192h4jlfktg","pricing_plan_id":"cebpf4jnsgd1na2vs0mg"},{"bike_id":"93e1780e-a5d3-44c3-9329-e88d71e0446d","system_id":"levelo_inurba_marseille","lat":43.31327,"lon":5.39697,"is_reserved":false,"is_disabled":false,"rental_uris":{"android":"levelo://app?vid=93e1780e-a5d3-44c3-9329-e88d71e0446d","ios":"levelo://app?vid=93e1780e-a5d3-44c3-9329-e88d71e0446d"},"vehicle_type_id":"4","last_reported":1725941445,"current_range_meters":11600,"station_id":"ce4bgvp2rcd13ifvqcu0","pricing_plan_id":"cebpf4jnsgd1na2vs0mg"},{"bike_id":"2adb2440-65ac-4c82-90ab-e6d644c16dc1","system_id":"levelo_inurba_marseille","lat":43.31756,"lon":5.39022,"is_reserved":false,"is_disabled":false,"rental_uris":{"android":"levelo://app?vid=2adb2440-65ac-4c82-90ab-e6d644c16dc1","ios":"levelo://app?vid=2adb2440-65ac-4c82-90ab-e6d644c16dc1"},"vehicle_type_id":"4","last_reported":1725941445,"current_range_meters":38800,"station_id":"ce4bhqp2rcd13ifvqhng","pricing_plan_id":"cebpf4jnsgd1na2vs0mg"},{"bike_id":"75136d01-6223-4264-a8e5-ad298e089315","system_id":"levelo_inurba_marseille","lat":43.28357,"lon":5.38114,"is_reserved":false,"is_disabled":false,"rental_uris":{"android":"levelo://app?vid=75136d01-6223-4264-a8e5-ad298e089315","ios":"levelo://app?vid=75136d01-6223-4264-a8e5-ad298e089315"},"vehicle_type_id":"4","last_reported":1725941445,"current_range_meters":30800,"station_id":"ce4bh412rcd13ifvqdr0","pricing_plan_id":"cebpf4jnsgd1na2vs0mg"},{"bike_id":"56fe391e-723e-42df-8d0c-af51e6441891","system_id":"levelo_inurba_marseille","lat":43.23067,"lon":5.35488,"is_reserved":false,"is_disabled":false,"rental_uris":{"android":"levelo://app?vid=56fe391e-723e-42df-8d0c-af51e6441891","ios":"levelo://app?vid=56fe391e-723e-42df-8d0c-af51e6441891"},"vehicle_type_id":"4","last_reported":1725941445,"current_range_meters":6000,"station_id":"cpo3342slgdg3j2ifvpg","pricing_plan_id":"cebpf4jnsgd1na2vs0mg"},{"bike_id":"251d1ee6-1e6b-478a-af84-2eb409c8ba9c","system_id":"levelo_inurba_marseille","lat":43.31086,"lon":5.42439,"is_reserved":false,"is_disabled":false,"rental_uris":{"android":"levelo://app?vid=251d1ee6-1e6b-478a-af84-2eb409c8ba9c","ios":"levelo://app?vid=251d1ee6-1e6b-478a-af84-2eb409c8ba9c"},"vehicle_type_id":"4","last_reported":1725941445,"current_range_meters":38800,"station_id":"ce4bhp92rcd13ifvqhag","pricing_plan_id":"cebpf4jnsgd1na2vs0mg"},{"bike_id":"dc33bfb3-6822-4d86-aefc-d8ca0c9735c2","system_id":"levelo_inurba_marseille","lat":43.31697,"lon":5.40465,"is_reserved":false,"is_disabled":false,"rental_uris":{"android":"levelo://app?vid=dc33bfb3-6822-4d86-aefc-d8ca0c9735c2","ios":"levelo://app?vid=dc33bfb3-6822-4d86-aefc-d8ca0c9735c2"},"vehicle_type_id":"4","last_reported":1725941445,"current_range_meters":13600,"station_id":"ce4bh012rcd13ifvqd00","pricing_plan_id":"cebpf4jnsgd1na2vs0mg"},{"bike_id":"c5b54f07-9e8a-4d5d-af65-a461c660ca45","system_id":"levelo_inurba_marseille","lat":43.32289,"lon":5.38263,"is_reserved":false,"is_disabled":false,"rental_uris":{"android":"levelo://app?vid=c5b54f07-9e8a-4d5d-af65-a461c660ca45","ios":"levelo://app?vid=c5b54f07-9e8a-4d5d-af65-a461c660ca45"},"vehicle_type_id":"4","last_reported":1725941445,"current_range_meters":11600,"station_id":"ce4bhr12rcd13ifvqhqg","pricing_plan_id":"cebpf4jnsgd1na2vs0mg"},{"bike_id":"d0952ab0-3044-44df-af2c-2dcfb366a544","system_id":"levelo_inurba_marseille","lat":43.23157,"lon":5.43702,"is_reserved":false,"is_disabled":false,"rental_uris":{"android":"levelo://app?vid=d0952ab0-3044-44df-af2c-2dcfb366a544","ios":"levelo://app?vid=d0952ab0-3044-44df-af2c-2dcfb366a544"},"vehicle_type_id":"4","last_reported":1725941445,"current_range_meters":18800,"station_id":"ce4bhmp2rcd13ifvqgog","pricing_plan_id":"cebpf4jnsgd1na2vs0mg"},{"bike_id":"0a4f859b-19e7-46b9-b04c-2ef334d409d0","system_id":"levelo_inurba_marseille","lat":43.27571,"lon":5.38421,"is_reserved":false,"is_disabled":false,"rental_uris":{"android":"levelo://app?vid=0a4f859b-19e7-46b9-b04c-2ef334d409d0","ios":"levelo://app?vid=0a4f859b-19e7-46b9-b04c-2ef334d409d0"},"vehicle_type_id":"4","last_reported":1725941445,"current_range_meters":38800,"station_id":"ce4bhh92rcd13ifvqfi0","pricing_plan_id":"cebpf4jnsgd1na2vs0mg"},{"bike_id":"00763b78-bada-48a3-9b68-a1ddb092244e","system_id":"levelo_inurba_marseille","lat":43.30887,"lon":5.39637,"is_reserved":false,"is_disabled":false,"rental_uris":{"android":"levelo://app?vid=00763b78-bada-48a3-9b68-a1ddb092244e","ios":"levelo://app?vid=00763b78-bada-48a3-9b68-a1ddb092244e"},"vehicle_type_id":"4","last_reported":1725941445,"current_range_meters":38000,"station_id":"ce4bh012rcd13ifvqcv0","pricing_plan_id":"cebpf4jnsgd1na2vs0mg"},{"bike_id":"21d483ab-e7da-4e8e-a989-6fa05e03af95","system_id":"levelo_inurba_marseille","lat":43.31066,"lon":5.38349,"is_reserved":false,"is_disabled":false,"rental_uris":{"android":"levelo://app?vid=21d483ab-e7da-4e8e-a989-6fa05e03af95","ios":"levelo://app?vid=21d483ab-e7da-4e8e-a989-6fa05e03af95"},"vehicle_type_id":"4","last_reported":1725941445,"current_range_meters":30800,"station_id":"ce4bgv92rcd13ifvqcr0","pricing_plan_id":"cebpf4jnsgd1na2vs0mg"},{"bike_id":"20e91b67-c6c8-42f6-928f-01cd4e6133ac","system_id":"levelo_inurba_marseille","lat":43.28034,"lon":5.36948,"is_reserved":false,"is_disabled":false,"rental_uris":{"android":"levelo://app?vid=20e91b67-c6c8-42f6-928f-01cd4e6133ac","ios":"levelo://app?vid=20e91b67-c6c8-42f6-928f-01cd4e6133ac"},"vehicle_type_id":"4","last_reported":1725941445,"current_range_meters":14000,"station_id":"ce4bha12rcd13ifvqef0","pricing_plan_id":"cebpf4jnsgd1na2vs0mg"},{"bike_id":"4abe1b85-0c3a-4b25-9f40-3047b8d4cb0d","system_id":"levelo_inurba_marseille","lat":43.28152,"lon":5.4264,"is_reserved":false,"is_disabled":false,"rental_uris":{"android":"levelo://app?vid=4abe1b85-0c3a-4b25-9f40-3047b8d4cb0d","ios":"levelo://app?vid=4abe1b85-0c3a-4b25-9f40-3047b8d4cb0d"},"vehicle_type_id":"4","last_reported":1725941445,"current_range_meters":27200,"station_id":"ce4bhnh2rcd13ifvqgug","pricing_plan_id":"cebpf4jnsgd1na2vs0mg"},{"bike_id":"fffb0075-8845-4a17-b1aa-79a113d0b3fc","system_id":"levelo_inurba_marseille","lat":43.25121,"lon":5.40323,"is_reserved":false,"is_disabled":false,"rental_uris":{"android":"levelo://app?vid=fffb0075-8845-4a17-b1aa-79a113d0b3fc","ios":"levelo://app?vid=fffb0075-8845-4a17-b1aa-79a113d0b3fc"},"vehicle_type_id":"4","last_reported":1725941445,"current_range_meters":28400,"station_id":"ce4bhlh2rcd13ifvqgig","pricing_plan_id":"cebpf4jnsgd1na2vs0mg"},{"bike_id":"4edfbd5d-7596-4c14-984b-da8388348f1d","system_id":"levelo_inurba_marseille","lat":43.30888,"lon":5.39641,"is_reserved":false,"is_disabled":false,"rental_uris":{"android":"levelo://app?vid=4edfbd5d-7596-4c14-984b-da8388348f1d","ios":"levelo://app?vid=4edfbd5d-7596-4c14-984b-da8388348f1d"},"vehicle_type_id":"4","last_reported":1725941445,"current_range_meters":38000,"station_id":"ce4bh012rcd13ifvqcv0","pricing_plan_id":"cebpf4jnsgd1na2vs0mg"},{"bike_id":"5712af24-e851-4d43-a20a-448a1cd0f404","system_id":"levelo_inurba_marseille","lat":43.26945,"lon":5.40243,"is_reserved":false,"is_disabled":false,"rental_uris":{"android":"levelo://app?vid=5712af24-e851-4d43-a20a-448a1cd0f404","ios":"levelo://app?vid=5712af24-e851-4d43-a20a-448a1cd0f404"},"vehicle_type_id":"4","last_reported":1725941445,"current_range_meters":36800,"station_id":"cjm6bp8fraef2m0cb0m0","pricing_plan_id":"cebpf4jnsgd1na2vs0mg"},{"bike_id":"5eb5d459-1d7c-4cb5-b7ac-d6c13bf86392","system_id":"levelo_inurba_marseille","lat":43.30889,"lon":5.39647,"is_reserved":false,"is_disabled":false,"rental_uris":{"android":"levelo://app?vid=5eb5d459-1d7c-4cb5-b7ac-d6c13bf86392","ios":"levelo://app?vid=5eb5d459-1d7c-4cb5-b7ac-d6c13bf86392"},"vehicle_type_id":"4","last_reported":1725941445,"current_range_meters":20000,"station_id":"ce4bh012rcd13ifvqcv0","pricing_plan_id":"cebpf4jnsgd1na2vs0mg"},{"bike_id":"e8d4dba4-665f-45d3-8cb1-38e2330abeac","system_id":"levelo_inurba_marseille","lat":43.28454,"lon":5.3589,"is_reserved":false,"is_disabled":false,"rental_uris":{"android":"levelo://app?vid=e8d4dba4-665f-45d3-8cb1-38e2330abeac","ios":"levelo://app?vid=e8d4dba4-665f-45d3-8cb1-38e2330abeac"},"vehicle_type_id":"4","last_reported":1725941445,"current_range_meters":38000,"station_id":"ce4bhah2rcd13ifvqei0","pricing_plan_id":"cebpf4jnsgd1na2vs0mg"},{"bike_id":"417de033-7fdb-4a28-b01c-baac80c576cf","system_id":"levelo_inurba_marseille","lat":43.25502,"lon":5.37653,"is_reserved":false,"is_disabled":false,"rental_uris":{"android":"levelo://app?vid=417de033-7fdb-4a28-b01c-baac80c576cf","ios":"levelo://app?vid=417de033-7fdb-4a28-b01c-baac80c576cf"},"vehicle_type_id":"4","last_reported":1725941445,"current_range_meters":28000,"station_id":"ce4bhh12rcd13ifvqff0","pricing_plan_id":"cebpf4jnsgd1na2vs0mg"},{"bike_id":"ada994dc-6212-4768-a7c2-2788a0f56bfb","system_id":"levelo_inurba_marseille","lat":43.28728,"lon":5.36093,"is_reserved":false,"is_disabled":false,"rental_uris":{"android":"levelo://app?vid=ada994dc-6212-4768-a7c2-2788a0f56bfb","ios":"levelo://app?vid=ada994dc-6212-4768-a7c2-2788a0f56bfb"},"vehicle_type_id":"4","last_reported":1725941445,"current_range_meters":24000,"station_id":"cki0cbj6b192h4jlfktg","pricing_plan_id":"cebpf4jnsgd1na2vs0mg"},{"bike_id":"5c7c6638-25a3-45f0-85da-b07b8112f3b5","system_id":"levelo_inurba_marseille","lat":43.31759,"lon":5.39019,"is_reserved":false,"is_disabled":false,"rental_uris":{"android":"levelo://app?vid=5c7c6638-25a3-45f0-85da-b07b8112f3b5","ios":"levelo://app?vid=5c7c6638-25a3-45f0-85da-b07b8112f3b5"},"vehicle_type_id":"4","last_reported":1725941445,"current_range_meters":16400,"station_id":"ce4bhqp2rcd13ifvqhng","pricing_plan_id":"cebpf4jnsgd1na2vs0mg"},{"bike_id":"35a92e2d-d77b-400b-aeba-f522bf358e49","system_id":"levelo_inurba_marseille","lat":43.31877,"lon":5.37396,"is_reserved":false,"is_disabled":false,"rental_uris":{"android":"levelo://app?vid=35a92e2d-d77b-400b-aeba-f522bf358e49","ios":"levelo://app?vid=35a92e2d-d77b-400b-aeba-f522bf358e49"},"vehicle_type_id":"4","last_reported":1725941445,"current_range_meters":18800,"station_id":"ce4bgup2rcd13ifvqco0","pricing_plan_id":"cebpf4jnsgd1na2vs0mg"},{"bike_id":"356ad51b-74ae-4595-a19d-5e853e416870","system_id":"levelo_inurba_marseille","lat":43.30894,"lon":5.39632,"is_reserved":false,"is_disabled":false,"rental_uris":{"android":"levelo://app?vid=356ad51b-74ae-4595-a19d-5e853e416870","ios":"levelo://app?vid=356ad51b-74ae-4595-a19d-5e853e416870"},"vehicle_type_id":"4","last_reported":1725941445,"current_range_meters":21600,"station_id":"ce4bh012rcd13ifvqcv0","pricing_plan_id":"cebpf4jnsgd1na2vs0mg"},{"bike_id":"a5487890-91f6-4583-b219-ef7b23f0b13e","system_id":"levelo_inurba_marseille","lat":43.27995,"lon":5.40027,"is_reserved":false,"is_disabled":false,"rental_uris":{"android":"levelo://app?vid=a5487890-91f6-4583-b219-ef7b23f0b13e","ios":"levelo://app?vid=a5487890-91f6-4583-b219-ef7b23f0b13e"},"vehicle_type_id":"4","last_reported":1725941445,"current_range_meters":38800,"station_id":"ce4bho92rcd13ifvqh4g","pricing_plan_id":"cebpf4jnsgd1na2vs0mg"},{"bike_id":"080c7b59-af9b-4684-a1b3-a8785e08146e","system_id":"levelo_inurba_marseille","lat":43.32286,"lon":5.38284,"is_reserved":false,"is_disabled":false,"rental_uris":{"android":"levelo://app?vid=080c7b59-af9b-4684-a1b3-a8785e08146e","ios":"levelo://app?vid=080c7b59-af9b-4684-a1b3-a8785e08146e"},"vehicle_type_id":"4","last_reported":1725941445,"current_range_meters":38400,"station_id":"ce4bhr12rcd13ifvqhqg","pricing_plan_id":"cebpf4jnsgd1na2vs0mg"},{"bike_id":"f2121536-f8b7-4eef-baaf-64a80b1105c2","system_id":"levelo_inurba_marseille","lat":43.26491,"lon":5.39548,"is_reserved":false,"is_disabled":false,"rental_uris":{"android":"levelo://app?vid=f2121536-f8b7-4eef-baaf-64a80b1105c2","ios":"levelo://app?vid=f2121536-f8b7-4eef-baaf-64a80b1105c2"},"vehicle_type_id":"4","last_reported":1725941445,"current_range_meters":33200,"station_id":"ce4bhi12rcd13ifvqfq0","pricing_plan_id":"cebpf4jnsgd1na2vs0mg"},{"bike_id":"48d7aa36-e198-47be-b8ec-7b2671799cc4","system_id":"levelo_inurba_marseille","lat":43.27073,"lon":5.42286,"is_reserved":false,"is_disabled":false,"rental_uris":{"android":"levelo://app?vid=48d7aa36-e198-47be-b8ec-7b2671799cc4","ios":"levelo://app?vid=48d7aa36-e198-47be-b8ec-7b2671799cc4"},"vehicle_type_id":"4","last_reported":1725941445,"current_range_meters":36000,"station_id":"ce4bhk92rcd13ifvqgb0","pricing_plan_id":"cebpf4jnsgd1na2vs0mg"},{"bike_id":"a79dd5f1-aace-4545-8971-6eb8043f8cf7","system_id":"levelo_inurba_marseille","lat":43.2649,"lon":5.39555,"is_reserved":false,"is_disabled":false,"rental_uris":{"android":"levelo://app?vid=a79dd5f1-aace-4545-8971-6eb8043f8cf7","ios":"levelo://app?vid=a79dd5f1-aace-4545-8971-6eb8043f8cf7"},"vehicle_type_id":"4","last_reported":1725941445,"current_range_meters":39200,"station_id":"ce4bhi12rcd13ifvqfq0","pricing_plan_id":"cebpf4jnsgd1na2vs0mg"},{"bike_id":"e6f5e586-4dc3-44f6-9872-20cf29918627","system_id":"levelo_inurba_marseille","lat":43.31362,"lon":5.38499,"is_reserved":false,"is_disabled":false,"rental_uris":{"android":"levelo://app?vid=e6f5e586-4dc3-44f6-9872-20cf29918627","ios":"levelo://app?vid=e6f5e586-4dc3-44f6-9872-20cf29918627"},"vehicle_type_id":"4","last_reported":1725941445,"current_range_meters":39200,"station_id":"ce4bgt92rcd13ifvqcf0","pricing_plan_id":"cebpf4jnsgd1na2vs0mg"},{"bike_id":"78778da8-03c2-4260-b5d2-a398d9400b64","system_id":"levelo_inurba_marseille","lat":43.23145,"lon":5.43711,"is_reserved":false,"is_disabled":false,"rental_uris":{"android":"levelo://app?vid=78778da8-03c2-4260-b5d2-a398d9400b64","ios":"levelo://app?vid=78778da8-03c2-4260-b5d2-a398d9400b64"},"vehicle_type_id":"4","last_reported":1725941445,"current_range_meters":35600,"station_id":"ce4bhmp2rcd13ifvqgog","pricing_plan_id":"cebpf4jnsgd1na2vs0mg"},{"bike_id":"750f5865-4277-4cc6-8dd6-3dac781849ee","system_id":"levelo_inurba_marseille","lat":43.30782,"lon":5.37662,"is_reserved":false,"is_disabled":false,"rental_uris":{"android":"levelo://app?vid=750f5865-4277-4cc6-8dd6-3dac781849ee","ios":"levelo://app?vid=750f5865-4277-4cc6-8dd6-3dac781849ee"},"vehicle_type_id":"4","last_reported":1725941445,"current_range_meters":30400,"station_id":"ce4bgv92rcd13ifvqcq0","pricing_plan_id":"cebpf4jnsgd1na2vs0mg"},{"bike_id":"aff17ef8-267e-4736-b2a9-f93fbc123b42","system_id":"levelo_inurba_marseille","lat":43.31328,"lon":5.39695,"is_reserved":false,"is_disabled":false,"rental_uris":{"android":"levelo://app?vid=aff17ef8-267e-4736-b2a9-f93fbc123b42","ios":"levelo://app?vid=aff17ef8-267e-4736-b2a9-f93fbc123b42"},"vehicle_type_id":"4","last_reported":1725941445,"current_range_meters":11600,"station_id":"ce4bgvp2rcd13ifvqcu0","pricing_plan_id":"cebpf4jnsgd1na2vs0mg"},{"bike_id":"a21c0ea8-8572-45ac-82d7-1c41dc69c078","system_id":"levelo_inurba_marseille","lat":43.30893,"lon":5.39647,"is_reserved":false,"is_disabled":false,"rental_uris":{"android":"levelo://app?vid=a21c0ea8-8572-45ac-82d7-1c41dc69c078","ios":"levelo://app?vid=a21c0ea8-8572-45ac-82d7-1c41dc69c078"},"vehicle_type_id":"4","last_reported":1725941445,"current_range_meters":37600,"station_id":"ce4bh012rcd13ifvqcv0","pricing_plan_id":"cebpf4jnsgd1na2vs0mg"},{"bike_id":"0775c7c6-2531-4063-8153-a1cb2bb71e9f","system_id":"levelo_inurba_marseille","lat":43.31172,"lon":5.38716,"is_reserved":false,"is_disabled":false,"rental_uris":{"android":"levelo://app?vid=0775c7c6-2531-4063-8153-a1cb2bb71e9f","ios":"levelo://app?vid=0775c7c6-2531-4063-8153-a1cb2bb71e9f"},"vehicle_type_id":"4","last_reported":1725941445,"current_range_meters":38400,"station_id":"ce4bgv12rcd13ifvqcp0","pricing_plan_id":"cebpf4jnsgd1na2vs0mg"},{"bike_id":"1d583431-4535-43ff-9cfe-97c3afe38e61","system_id":"levelo_inurba_marseille","lat":43.30961,"lon":5.40066,"is_reserved":false,"is_disabled":false,"rental_uris":{"android":"levelo://app?vid=1d583431-4535-43ff-9cfe-97c3afe38e61","ios":"levelo://app?vid=1d583431-4535-43ff-9cfe-97c3afe38e61"},"vehicle_type_id":"4","last_reported":1725941445,"current_range_meters":14800,"station_id":"ce4bhpp2rcd13ifvqhgg","pricing_plan_id":"cebpf4jnsgd1na2vs0mg"},{"bike_id":"5d411a94-71dc-41e3-ae74-13086227871e","system_id":"levelo_inurba_marseille","lat":43.27494,"lon":5.42459,"is_reserved":false,"is_disabled":false,"rental_uris":{"android":"levelo://app?vid=5d411a94-71dc-41e3-ae74-13086227871e","ios":"levelo://app?vid=5d411a94-71dc-41e3-ae74-13086227871e"},"vehicle_type_id":"4","last_reported":1725941445,"current_range_meters":36000,"station_id":"ce4bhn92rcd13ifvqgrg","pricing_plan_id":"cebpf4jnsgd1na2vs0mg"},{"bike_id":"dcff0923-f2f3-4018-97a0-c8bfedb3b6b7","system_id":"levelo_inurba_marseille","lat":43.30928,"lon":5.40146,"is_reserved":false,"is_disabled":false,"rental_uris":{"android":"levelo://app?vid=dcff0923-f2f3-4018-97a0-c8bfedb3b6b7","ios":"levelo://app?vid=dcff0923-f2f3-4018-97a0-c8bfedb3b6b7"},"vehicle_type_id":"4","last_reported":1725941445,"current_range_meters":28800,"station_id":"ce4bgvp2rcd13ifvqct0","pricing_plan_id":"cebpf4jnsgd1na2vs0mg"},{"bike_id":"236416d9-6b35-4df9-9d2f-b00c6f6e9b7c","system_id":"levelo_inurba_marseille","lat":43.27183,"lon":5.4099,"is_reserved":false,"is_disabled":false,"rental_uris":{"android":"levelo://app?vid=236416d9-6b35-4df9-9d2f-b00c6f6e9b7c","ios":"levelo://app?vid=236416d9-6b35-4df9-9d2f-b00c6f6e9b7c"},"vehicle_type_id":"4","last_reported":1725941445,"current_range_meters":35200,"station_id":"ce4bhl12rcd13ifvqgf0","pricing_plan_id":"cebpf4jnsgd1na2vs0mg"},{"bike_id":"ca3bed43-4169-40ff-a394-533e50a93c76","system_id":"levelo_inurba_marseille","lat":43.24183,"lon":5.39716,"is_reserved":false,"is_disabled":false,"rental_uris":{"android":"levelo://app?vid=ca3bed43-4169-40ff-a394-533e50a93c76","ios":"levelo://app?vid=ca3bed43-4169-40ff-a394-533e50a93c76"},"vehicle_type_id":"4","last_reported":1725941445,"current_range_meters":21600,"station_id":"ce4bhn12rcd13ifvqgpg","pricing_plan_id":"cebpf4jnsgd1na2vs0mg"},{"bike_id":"0c79eb64-d04b-4369-afc0-90a0d0b5c7a9","system_id":"levelo_inurba_marseille","lat":43.27811,"lon":5.40715,"is_reserved":false,"is_disabled":false,"rental_uris":{"android":"levelo://app?vid=0c79eb64-d04b-4369-afc0-90a0d0b5c7a9","ios":"levelo://app?vid=0c79eb64-d04b-4369-afc0-90a0d0b5c7a9"},"vehicle_type_id":"4","last_reported":1725941445,"current_range_meters":30400,"station_id":"ce4bhnh2rcd13ifvqgtg","pricing_plan_id":"cebpf4jnsgd1na2vs0mg"},{"bike_id":"a1d6f75a-ce1b-49f8-b409-19b08d8bae93","system_id":"levelo_inurba_marseille","lat":43.29859,"lon":5.39736,"is_reserved":false,"is_disabled":false,"rental_uris":{"android":"levelo://app?vid=a1d6f75a-ce1b-49f8-b409-19b08d8bae93","ios":"levelo://app?vid=a1d6f75a-ce1b-49f8-b409-19b08d8bae93"},"vehicle_type_id":"4","last_reported":1725941445,"current_range_meters":29600,"station_id":"ce4bh0h2rcd13ifvqd50","pricing_plan_id":"cebpf4jnsgd1na2vs0mg"},{"bike_id":"e4067140-ef5f-4d5d-b312-3ad8fb897ba0","system_id":"levelo_inurba_marseille","lat":43.25579,"lon":5.38234,"is_reserved":false,"is_disabled":false,"rental_uris":{"android":"levelo://app?vid=e4067140-ef5f-4d5d-b312-3ad8fb897ba0","ios":"levelo://app?vid=e4067140-ef5f-4d5d-b312-3ad8fb897ba0"},"vehicle_type_id":"4","last_reported":1725941445,"current_range_meters":30800,"station_id":"ce4bhih2rcd13ifvqfs0","pricing_plan_id":"cebpf4jnsgd1na2vs0mg"},{"bike_id":"ec66178c-9377-4a8d-ba34-1a39bc42f1ac","system_id":"levelo_inurba_marseille","lat":43.3229,"lon":5.38281,"is_reserved":false,"is_disabled":false,"rental_uris":{"android":"levelo://app?vid=ec66178c-9377-4a8d-ba34-1a39bc42f1ac","ios":"levelo://app?vid=ec66178c-9377-4a8d-ba34-1a39bc42f1ac"},"vehicle_type_id":"4","last_reported":1725941445,"current_range_meters":38800,"station_id":"ce4bhr12rcd13ifvqhqg","pricing_plan_id":"cebpf4jnsgd1na2vs0mg"},{"bike_id":"c8566ff8-48bb-4153-8f25-6ecc62ca6edb","system_id":"levelo_inurba_marseille","lat":43.34149,"lon":5.40909,"is_reserved":false,"is_disabled":false,"rental_uris":{"android":"levelo://app?vid=c8566ff8-48bb-4153-8f25-6ecc62ca6edb","ios":"levelo://app?vid=c8566ff8-48bb-4153-8f25-6ecc62ca6edb"},"vehicle_type_id":"4","last_reported":1725941445,"current_range_meters":36400,"station_id":"ce4bhqh2rcd13ifvqhlg","pricing_plan_id":"cebpf4jnsgd1na2vs0mg"},{"bike_id":"bc745383-2511-4656-a4d1-e131400dfd60","system_id":"levelo_inurba_marseille","lat":43.23194,"lon":5.35561,"is_reserved":false,"is_disabled":false,"rental_uris":{"android":"levelo://app?vid=bc745383-2511-4656-a4d1-e131400dfd60","ios":"levelo://app?vid=bc745383-2511-4656-a4d1-e131400dfd60"},"vehicle_type_id":"4","last_reported":1725941445,"current_range_meters":19200,"station_id":"ce4bhu92rcd13ifvqi70","pricing_plan_id":"cebpf4jnsgd1na2vs0mg"},{"bike_id":"da79121b-839b-4688-8795-d88ebc670735","system_id":"levelo_inurba_marseille","lat":43.28036,"lon":5.36947,"is_reserved":false,"is_disabled":false,"rental_uris":{"android":"levelo://app?vid=da79121b-839b-4688-8795-d88ebc670735","ios":"levelo://app?vid=da79121b-839b-4688-8795-d88ebc670735"},"vehicle_type_id":"4","last_reported":1725941445,"current_range_meters":24400,"station_id":"ce4bha12rcd13ifvqef0","pricing_plan_id":"cebpf4jnsgd1na2vs0mg"},{"bike_id":"9ff65082-b66c-4990-94c0-67353245d92b","system_id":"levelo_inurba_marseille","lat":43.30325,"lon":5.40449,"is_reserved":false,"is_disabled":false,"rental_uris":{"android":"levelo://app?vid=9ff65082-b66c-4990-94c0-67353245d92b","ios":"levelo://app?vid=9ff65082-b66c-4990-94c0-67353245d92b"},"vehicle_type_id":"4","last_reported":1725941445,"current_range_meters":11600,"station_id":"ce4bh012rcd13ifvqd10","pricing_plan_id":"cebpf4jnsgd1na2vs0mg"},{"bike_id":"8b4faf28-9c97-4672-837d-a9cedb635c1c","system_id":"levelo_inurba_marseille","lat":43.2873,"lon":5.36086,"is_reserved":false,"is_disabled":false,"rental_uris":{"android":"levelo://app?vid=8b4faf28-9c97-4672-837d-a9cedb635c1c","ios":"levelo://app?vid=8b4faf28-9c97-4672-837d-a9cedb635c1c"},"vehicle_type_id":"4","last_reported":1725941445,"current_range_meters":12000,"station_id":"cki0cbj6b192h4jlfktg","pricing_plan_id":"cebpf4jnsgd1na2vs0mg"},{"bike_id":"d9b9f391-da2b-443e-b25f-ad3347db46be","system_id":"levelo_inurba_marseille","lat":43.31076,"lon":5.38354,"is_reserved":false,"is_disabled":false,"rental_uris":{"android":"levelo://app?vid=d9b9f391-da2b-443e-b25f-ad3347db46be","ios":"levelo://app?vid=d9b9f391-da2b-443e-b25f-ad3347db46be"},"vehicle_type_id":"4","last_reported":1725941445,"current_range_meters":29600,"station_id":"ce4bgv92rcd13ifvqcr0","pricing_plan_id":"cebpf4jnsgd1na2vs0mg"},{"bike_id":"a5419bf7-5455-40c6-8b04-ace94c7c46f2","system_id":"levelo_inurba_marseille","lat":43.28665,"lon":5.3636,"is_reserved":false,"is_disabled":false,"rental_uris":{"android":"levelo://app?vid=a5419bf7-5455-40c6-8b04-ace94c7c46f2","ios":"levelo://app?vid=a5419bf7-5455-40c6-8b04-ace94c7c46f2"},"vehicle_type_id":"4","last_reported":1725941445,"current_range_meters":30800,"station_id":"ce4bhah2rcd13ifvqej0","pricing_plan_id":"cebpf4jnsgd1na2vs0mg"},{"bike_id":"f3612966-c6e9-4214-b307-77f49d739808","system_id":"levelo_inurba_marseille","lat":43.2319,"lon":5.39984,"is_reserved":false,"is_disabled":false,"rental_uris":{"android":"levelo://app?vid=f3612966-c6e9-4214-b307-77f49d739808","ios":"levelo://app?vid=f3612966-c6e9-4214-b307-77f49d739808"},"vehicle_type_id":"4","last_reported":1725941445,"current_range_meters":28000,"station_id":"ce4bhn12rcd13ifvqgqg","pricing_plan_id":"cebpf4jnsgd1na2vs0mg"},{"bike_id":"be99b9ab-2c94-4f4f-a5cb-7860361de3da","system_id":"levelo_inurba_marseille","lat":43.30805,"lon":5.38148,"is_reserved":false,"is_disabled":false,"rental_uris":{"android":"levelo://app?vid=be99b9ab-2c94-4f4f-a5cb-7860361de3da","ios":"levelo://app?vid=be99b9ab-2c94-4f4f-a5cb-7860361de3da"},"vehicle_type_id":"4","last_reported":1725941445,"current_range_meters":38800,"station_id":"ce4bgt12rcd13ifvqce0","pricing_plan_id":"cebpf4jnsgd1na2vs0mg"},{"bike_id":"256ff1b4-3cda-4078-ac92-9b2b566638b7","system_id":"levelo_inurba_marseille","lat":43.25579,"lon":5.38242,"is_reserved":false,"is_disabled":false,"rental_uris":{"android":"levelo://app?vid=256ff1b4-3cda-4078-ac92-9b2b566638b7","ios":"levelo://app?vid=256ff1b4-3cda-4078-ac92-9b2b566638b7"},"vehicle_type_id":"4","last_reported":1725941445,"current_range_meters":32800,"station_id":"ce4bhih2rcd13ifvqfs0","pricing_plan_id":"cebpf4jnsgd1na2vs0mg"},{"bike_id":"2a9f2fe4-84a0-4288-824f-49e767778254","system_id":"levelo_inurba_marseille","lat":43.29002,"lon":5.35612,"is_reserved":false,"is_disabled":false,"rental_uris":{"android":"levelo://app?vid=2a9f2fe4-84a0-4288-824f-49e767778254","ios":"levelo://app?vid=2a9f2fe4-84a0-4288-824f-49e767778254"},"vehicle_type_id":"4","last_reported":1725941445,"current_range_meters":38400,"station_id":"ce4bhb92rcd13ifvqen0","pricing_plan_id":"cebpf4jnsgd1na2vs0mg"},{"bike_id":"45b7ed4c-9360-4103-8798-411ac78a4321","system_id":"levelo_inurba_marseille","lat":43.33609,"lon":5.41033,"is_reserved":false,"is_disabled":false,"rental_uris":{"android":"levelo://app?vid=45b7ed4c-9360-4103-8798-411ac78a4321","ios":"levelo://app?vid=45b7ed4c-9360-4103-8798-411ac78a4321"},"vehicle_type_id":"4","last_reported":1725941445,"current_range_meters":7200,"station_id":"ce4bhqh2rcd13ifvqhmg","pricing_plan_id":"cebpf4jnsgd1na2vs0mg"},{"bike_id":"da8a68f1-1395-46d4-8f87-cc27bd0ad0b9","system_id":"levelo_inurba_marseille","lat":43.30929,"lon":5.40148,"is_reserved":false,"is_disabled":false,"rental_uris":{"android":"levelo://app?vid=da8a68f1-1395-46d4-8f87-cc27bd0ad0b9","ios":"levelo://app?vid=da8a68f1-1395-46d4-8f87-cc27bd0ad0b9"},"vehicle_type_id":"4","last_reported":1725941445,"current_range_meters":38000,"station_id":"ce4bgvp2rcd13ifvqct0","pricing_plan_id":"cebpf4jnsgd1na2vs0mg"},{"bike_id":"20caad96-c758-4c3b-87af-0d23f604619d","system_id":"levelo_inurba_marseille","lat":43.25003,"lon":5.38937,"is_reserved":false,"is_disabled":false,"rental_uris":{"android":"levelo://app?vid=20caad96-c758-4c3b-87af-0d23f604619d","ios":"levelo://app?vid=20caad96-c758-4c3b-87af-0d23f604619d"},"vehicle_type_id":"4","last_reported":1725941445,"current_range_meters":36400,"station_id":"ce4bhgp2rcd13ifvqfd0","pricing_plan_id":"cebpf4jnsgd1na2vs0mg"},{"bike_id":"ccbf5e43-be0f-4330-aa14-cfe13aff8a11","system_id":"levelo_inurba_marseille","lat":43.27285,"lon":5.41602,"is_reserved":false,"is_disabled":false,"rental_uris":{"android":"levelo://app?vid=ccbf5e43-be0f-4330-aa14-cfe13aff8a11","ios":"levelo://app?vid=ccbf5e43-be0f-4330-aa14-cfe13aff8a11"},"vehicle_type_id":"4","last_reported":1725941445,"current_range_meters":8800,"station_id":"","pricing_plan_id":"cebpf4jnsgd1na2vs0mg"},{"bike_id":"198d1b33-bea6-450d-825a-def05bffcb7f","system_id":"levelo_inurba_marseille","lat":43.31232,"lon":5.36861,"is_reserved":false,"is_disabled":false,"rental_uris":{"android":"levelo://app?vid=198d1b33-bea6-450d-825a-def05bffcb7f","ios":"levelo://app?vid=198d1b33-bea6-450d-825a-def05bffcb7f"},"vehicle_type_id":"4","last_reported":1725941445,"current_range_meters":35200,"station_id":"ce4bgl92rcd13ifvqbq0","pricing_plan_id":"cebpf4jnsgd1na2vs0mg"},{"bike_id":"8d9f6807-be7f-487c-9574-9ac448f6f3c0","system_id":"levelo_inurba_marseille","lat":43.31992,"lon":5.38152,"is_reserved":false,"is_disabled":false,"rental_uris":{"android":"levelo://app?vid=8d9f6807-be7f-487c-9574-9ac448f6f3c0","ios":"levelo://app?vid=8d9f6807-be7f-487c-9574-9ac448f6f3c0"},"vehicle_type_id":"4","last_reported":1725941445,"current_range_meters":39200,"station_id":"ce4bhr12rcd13ifvqhpg","pricing_plan_id":"cebpf4jnsgd1na2vs0mg"},{"bike_id":"9744fada-c147-4e03-b3b6-5260c86d29fb","system_id":"levelo_inurba_marseille","lat":43.31362,"lon":5.38503,"is_reserved":false,"is_disabled":false,"rental_uris":{"android":"levelo://app?vid=9744fada-c147-4e03-b3b6-5260c86d29fb","ios":"levelo://app?vid=9744fada-c147-4e03-b3b6-5260c86d29fb"},"vehicle_type_id":"4","last_reported":1725941445,"current_range_meters":30800,"station_id":"ce4bgt92rcd13ifvqcf0","pricing_plan_id":"cebpf4jnsgd1na2vs0mg"},{"bike_id":"7ef010bd-b059-40c8-a8e6-4e0b871228e8","system_id":"levelo_inurba_marseille","lat":43.3032,"lon":5.40444,"is_reserved":false,"is_disabled":false,"rental_uris":{"android":"levelo://app?vid=7ef010bd-b059-40c8-a8e6-4e0b871228e8","ios":"levelo://app?vid=7ef010bd-b059-40c8-a8e6-4e0b871228e8"},"vehicle_type_id":"4","last_reported":1725941445,"current_range_meters":17600,"station_id":"ce4bh012rcd13ifvqd10","pricing_plan_id":"cebpf4jnsgd1na2vs0mg"},{"bike_id":"ce626fdd-43b5-4171-ae4a-818161e70682","system_id":"levelo_inurba_marseille","lat":43.30196,"lon":5.39827,"is_reserved":false,"is_disabled":false,"rental_uris":{"android":"levelo://app?vid=ce626fdd-43b5-4171-ae4a-818161e70682","ios":"levelo://app?vid=ce626fdd-43b5-4171-ae4a-818161e70682"},"vehicle_type_id":"4","last_reported":1725941445,"current_range_meters":32000,"station_id":"","pricing_plan_id":"cebpf4jnsgd1na2vs0mg"},{"bike_id":"e8e7b8ce-46d6-4cbc-9658-e4e928abad1b","system_id":"levelo_inurba_marseille","lat":43.2455,"lon":5.39528,"is_reserved":false,"is_disabled":false,"rental_uris":{"android":"levelo://app?vid=e8e7b8ce-46d6-4cbc-9658-e4e928abad1b","ios":"levelo://app?vid=e8e7b8ce-46d6-4cbc-9658-e4e928abad1b"},"vehicle_type_id":"4","last_reported":1725941445,"current_range_meters":38000,"station_id":"ce4bhlp2rcd13ifvqgjg","pricing_plan_id":"cebpf4jnsgd1na2vs0mg"},{"bike_id":"21357381-083c-4d50-ab6b-c381f1f29938","system_id":"levelo_inurba_marseille","lat":43.33026,"lon":5.39044,"is_reserved":false,"is_disabled":false,"rental_uris":{"android":"levelo://app?vid=21357381-083c-4d50-ab6b-c381f1f29938","ios":"levelo://app?vid=21357381-083c-4d50-ab6b-c381f1f29938"},"vehicle_type_id":"4","last_reported":1725941445,"current_range_meters":20400,"station_id":"ce4bhr92rcd13ifvqhrg","pricing_plan_id":"cebpf4jnsgd1na2vs0mg"},{"bike_id":"f75a0fe3-61fe-47e2-890c-3f27d7688585","system_id":"levelo_inurba_marseille","lat":43.30892,"lon":5.37194,"is_reserved":false,"is_disabled":false,"rental_uris":{"android":"levelo://app?vid=f75a0fe3-61fe-47e2-890c-3f27d7688585","ios":"levelo://app?vid=f75a0fe3-61fe-47e2-890c-3f27d7688585"},"vehicle_type_id":"4","last_reported":1725941445,"current_range_meters":22400,"station_id":"ce4bguh2rcd13ifvqckg","pricing_plan_id":"cebpf4jnsgd1na2vs0mg"},{"bike_id":"b82f8a23-1113-40cb-af43-6ad4f42d91ad","system_id":"levelo_inurba_marseille","lat":43.28444,"lon":5.39187,"is_reserved":false,"is_disabled":false,"rental_uris":{"android":"levelo://app?vid=b82f8a23-1113-40cb-af43-6ad4f42d91ad","ios":"levelo://app?vid=b82f8a23-1113-40cb-af43-6ad4f42d91ad"},"vehicle_type_id":"4","last_reported":1725941445,"current_range_meters":36800,"station_id":"ce4bhoh2rcd13ifvqh5g","pricing_plan_id":"cebpf4jnsgd1na2vs0mg"},{"bike_id":"a5dfc335-a67d-41b2-9004-34054d67646c","system_id":"levelo_inurba_marseille","lat":43.26805,"lon":5.40269,"is_reserved":false,"is_disabled":false,"rental_uris":{"android":"levelo://app?vid=a5dfc335-a67d-41b2-9004-34054d67646c","ios":"levelo://app?vid=a5dfc335-a67d-41b2-9004-34054d67646c"},"vehicle_type_id":"4","last_reported":1725941445,"current_range_meters":39200,"station_id":"ce501612rcd8frsf0b60","pricing_plan_id":"cebpf4jnsgd1na2vs0mg"},{"bike_id":"d04518f9-b0c0-4d86-8db0-e1d859d3a811","system_id":"levelo_inurba_marseille","lat":43.26208,"lon":5.37924,"is_reserved":false,"is_disabled":false,"rental_uris":{"android":"levelo://app?vid=d04518f9-b0c0-4d86-8db0-e1d859d3a811","ios":"levelo://app?vid=d04518f9-b0c0-4d86-8db0-e1d859d3a811"},"vehicle_type_id":"4","last_reported":1725941445,"current_range_meters":38800,"station_id":"ce4bhjp2rcd13ifvqg90","pricing_plan_id":"cebpf4jnsgd1na2vs0mg"},{"bike_id":"8d9db946-b8de-460e-a225-6237f5614797","system_id":"levelo_inurba_marseille","lat":43.31705,"lon":5.43704,"is_reserved":false,"is_disabled":false,"rental_uris":{"android":"levelo://app?vid=8d9db946-b8de-460e-a225-6237f5614797","ios":"levelo://app?vid=8d9db946-b8de-460e-a225-6237f5614797"},"vehicle_type_id":"4","last_reported":1725941445,"current_range_meters":18800,"station_id":"ce4bhp92rcd13ifvqhcg","pricing_plan_id":"cebpf4jnsgd1na2vs0mg"},{"bike_id":"35449e6f-f072-4351-bbfb-deddd9153e2d","system_id":"levelo_inurba_marseille","lat":43.27926,"lon":5.39569,"is_reserved":false,"is_disabled":false,"rental_uris":{"android":"levelo://app?vid=35449e6f-f072-4351-bbfb-deddd9153e2d","ios":"levelo://app?vid=35449e6f-f072-4351-bbfb-deddd9153e2d"},"vehicle_type_id":"4","last_reported":1725941445,"current_range_meters":20000,"station_id":"ce4bhf92rcd13ifvqf40","pricing_plan_id":"cebpf4jnsgd1na2vs0mg"},{"bike_id":"3e22cce8-4483-4400-9c5f-7e8c4f938627","system_id":"levelo_inurba_marseille","lat":43.29277,"lon":5.4014,"is_reserved":false,"is_disabled":false,"rental_uris":{"android":"levelo://app?vid=3e22cce8-4483-4400-9c5f-7e8c4f938627","ios":"levelo://app?vid=3e22cce8-4483-4400-9c5f-7e8c4f938627"},"vehicle_type_id":"4","last_reported":1725941445,"current_range_meters":39200,"station_id":"ce4bh312rcd13ifvqdk0","pricing_plan_id":"cebpf4jnsgd1na2vs0mg"},{"bike_id":"a7d0fdca-c5d1-4b3a-9823-e6685df326f7","system_id":"levelo_inurba_marseille","lat":43.31326,"lon":5.39695,"is_reserved":false,"is_disabled":false,"rental_uris":{"android":"levelo://app?vid=a7d0fdca-c5d1-4b3a-9823-e6685df326f7","ios":"levelo://app?vid=a7d0fdca-c5d1-4b3a-9823-e6685df326f7"},"vehicle_type_id":"4","last_reported":1725941445,"current_range_meters":27200,"station_id":"ce4bgvp2rcd13ifvqcu0","pricing_plan_id":"cebpf4jnsgd1na2vs0mg"},{"bike_id":"a6df79b9-6927-44e7-8dcf-8cd8670d713c","system_id":"levelo_inurba_marseille","lat":43.31081,"lon":5.376369,"is_reserved":false,"is_disabled":false,"rental_uris":{"android":"levelo://app?vid=a6df79b9-6927-44e7-8dcf-8cd8670d713c","ios":"levelo://app?vid=a6df79b9-6927-44e7-8dcf-8cd8670d713c"},"vehicle_type_id":"4","last_reported":1725941445,"current_range_meters":33200,"station_id":"ce4bgt92rcd13ifvqcg0","pricing_plan_id":"cebpf4jnsgd1na2vs0mg"},{"bike_id":"49015a55-06b4-4f3c-b2bf-0e2685bf0bc5","system_id":"levelo_inurba_marseille","lat":43.30321,"lon":5.40444,"is_reserved":false,"is_disabled":false,"rental_uris":{"android":"levelo://app?vid=49015a55-06b4-4f3c-b2bf-0e2685bf0bc5","ios":"levelo://app?vid=49015a55-06b4-4f3c-b2bf-0e2685bf0bc5"},"vehicle_type_id":"4","last_reported":1725941445,"current_range_meters":25600,"station_id":"ce4bh012rcd13ifvqd10","pricing_plan_id":"cebpf4jnsgd1na2vs0mg"},{"bike_id":"6dbcdeff-b539-4902-89b1-ada746ec74d4","system_id":"levelo_inurba_marseille","lat":43.24672,"lon":5.38161,"is_reserved":false,"is_disabled":false,"rental_uris":{"android":"levelo://app?vid=6dbcdeff-b539-4902-89b1-ada746ec74d4","ios":"levelo://app?vid=6dbcdeff-b539-4902-89b1-ada746ec74d4"},"vehicle_type_id":"4","last_reported":1725941445,"current_range_meters":24400,"station_id":"ce4bhih2rcd13ifvqfr0","pricing_plan_id":"cebpf4jnsgd1na2vs0mg"},{"bike_id":"058501bb-5a22-4398-ae6a-7b4d1f5de701","system_id":"levelo_inurba_marseille","lat":43.32288,"lon":5.3828,"is_reserved":false,"is_disabled":false,"rental_uris":{"android":"levelo://app?vid=058501bb-5a22-4398-ae6a-7b4d1f5de701","ios":"levelo://app?vid=058501bb-5a22-4398-ae6a-7b4d1f5de701"},"vehicle_type_id":"4","last_reported":1725941445,"current_range_meters":35600,"station_id":"ce4bhr12rcd13ifvqhqg","pricing_plan_id":"cebpf4jnsgd1na2vs0mg"},{"bike_id":"f39d7447-ae84-4fd4-a6e3-626c5f517aee","system_id":"levelo_inurba_marseille","lat":43.31279,"lon":5.40172,"is_reserved":false,"is_disabled":false,"rental_uris":{"android":"levelo://app?vid=f39d7447-ae84-4fd4-a6e3-626c5f517aee","ios":"levelo://app?vid=f39d7447-ae84-4fd4-a6e3-626c5f517aee"},"vehicle_type_id":"4","last_reported":1725941445,"current_range_meters":36400,"station_id":"ce4bh092rcd13ifvqd30","pricing_plan_id":"cebpf4jnsgd1na2vs0mg"},{"bike_id":"fd0c7a17-66ba-40a9-8705-44eda28293fc","system_id":"levelo_inurba_marseille","lat":43.31175,"lon":5.38718,"is_reserved":false,"is_disabled":false,"rental_uris":{"android":"levelo://app?vid=fd0c7a17-66ba-40a9-8705-44eda28293fc","ios":"levelo://app?vid=fd0c7a17-66ba-40a9-8705-44eda28293fc"},"vehicle_type_id":"4","last_reported":1725941445,"current_range_meters":19600,"station_id":"ce4bgv12rcd13ifvqcp0","pricing_plan_id":"cebpf4jnsgd1na2vs0mg"},{"bike_id":"2513c178-0041-41e5-8814-12ab949fc893","system_id":"levelo_inurba_marseille","lat":43.29554,"lon":5.42283,"is_reserved":false,"is_disabled":false,"rental_uris":{"android":"levelo://app?vid=2513c178-0041-41e5-8814-12ab949fc893","ios":"levelo://app?vid=2513c178-0041-41e5-8814-12ab949fc893"},"vehicle_type_id":"4","last_reported":1725941445,"current_range_meters":22400,"station_id":"ce4bhph2rcd13ifvqhdg","pricing_plan_id":"cebpf4jnsgd1na2vs0mg"},{"bike_id":"09d6a1d3-cd48-4aac-ab3b-9a10d519aeb8","system_id":"levelo_inurba_marseille","lat":43.28034,"lon":5.36943,"is_reserved":false,"is_disabled":false,"rental_uris":{"android":"levelo://app?vid=09d6a1d3-cd48-4aac-ab3b-9a10d519aeb8","ios":"levelo://app?vid=09d6a1d3-cd48-4aac-ab3b-9a10d519aeb8"},"vehicle_type_id":"4","last_reported":1725941445,"current_range_meters":3200,"station_id":"ce4bha12rcd13ifvqef0","pricing_plan_id":"cebpf4jnsgd1na2vs0mg"},{"bike_id":"f408de54-87cc-4adc-a711-d37559894c57","system_id":"levelo_inurba_marseille","lat":43.32661,"lon":5.40989,"is_reserved":false,"is_disabled":false,"rental_uris":{"android":"levelo://app?vid=f408de54-87cc-4adc-a711-d37559894c57","ios":"levelo://app?vid=f408de54-87cc-4adc-a711-d37559894c57"},"vehicle_type_id":"4","last_reported":1725941445,"current_range_meters":36800,"station_id":"ce4bhpp2rcd13ifvqhgg","pricing_plan_id":"cebpf4jnsgd1na2vs0mg"},{"bike_id":"8061064f-d736-402b-a63e-b9c2241a7918","system_id":"levelo_inurba_marseille","lat":43.31498,"lon":5.37304,"is_reserved":false,"is_disabled":false,"rental_uris":{"android":"levelo://app?vid=8061064f-d736-402b-a63e-b9c2241a7918","ios":"levelo://app?vid=8061064f-d736-402b-a63e-b9c2241a7918"},"vehicle_type_id":"4","last_reported":1725941445,"current_range_meters":36800,"station_id":"ce4bgt12rcd13ifvqcd0","pricing_plan_id":"cebpf4jnsgd1na2vs0mg"},{"bike_id":"835ae718-d954-4895-8110-addc0146bee5","system_id":"levelo_inurba_marseille","lat":43.31346,"lon":5.36721,"is_reserved":false,"is_disabled":false,"rental_uris":{"android":"levelo://app?vid=835ae718-d954-4895-8110-addc0146bee5","ios":"levelo://app?vid=835ae718-d954-4895-8110-addc0146bee5"},"vehicle_type_id":"4","last_reported":1725941445,"current_range_meters":36800,"station_id":"ce4bgr92rcd13ifvqc6g","pricing_plan_id":"cebpf4jnsgd1na2vs0mg"},{"bike_id":"0b07b106-d0d1-4dc9-8028-64bca46d30e7","system_id":"levelo_inurba_marseille","lat":43.28472,"lon":5.38413,"is_reserved":false,"is_disabled":false,"rental_uris":{"android":"levelo://app?vid=0b07b106-d0d1-4dc9-8028-64bca46d30e7","ios":"levelo://app?vid=0b07b106-d0d1-4dc9-8028-64bca46d30e7"},"vehicle_type_id":"4","last_reported":1725941445,"current_range_meters":38800,"station_id":"ce4bh512rcd13ifvqe3g","pricing_plan_id":"cebpf4jnsgd1na2vs0mg"},{"bike_id":"c35a0017-8506-42f8-b342-4569c042c9ce","system_id":"levelo_inurba_marseille","lat":43.28733,"lon":5.36105,"is_reserved":false,"is_disabled":false,"rental_uris":{"android":"levelo://app?vid=c35a0017-8506-42f8-b342-4569c042c9ce","ios":"levelo://app?vid=c35a0017-8506-42f8-b342-4569c042c9ce"},"vehicle_type_id":"4","last_reported":1725941445,"current_range_meters":38400,"station_id":"cki0cbj6b192h4jlfktg","pricing_plan_id":"cebpf4jnsgd1na2vs0mg"},{"bike_id":"abd75836-b4d7-46b0-b94b-b6e16253a7d7","system_id":"levelo_inurba_marseille","lat":43.28461,"lon":5.35888,"is_reserved":false,"is_disabled":false,"rental_uris":{"android":"levelo://app?vid=abd75836-b4d7-46b0-b94b-b6e16253a7d7","ios":"levelo://app?vid=abd75836-b4d7-46b0-b94b-b6e16253a7d7"},"vehicle_type_id":"4","last_reported":1725941445,"current_range_meters":30400,"station_id":"ce4bhah2rcd13ifvqei0","pricing_plan_id":"cebpf4jnsgd1na2vs0mg"},{"bike_id":"63e20e2b-9cfd-4294-8b25-dc637c82a3df","system_id":"levelo_inurba_marseille","lat":43.27989,"lon":5.41666,"is_reserved":false,"is_disabled":false,"rental_uris":{"android":"levelo://app?vid=63e20e2b-9cfd-4294-8b25-dc637c82a3df","ios":"levelo://app?vid=63e20e2b-9cfd-4294-8b25-dc637c82a3df"},"vehicle_type_id":"4","last_reported":1725941445,"current_range_meters":38400,"station_id":"ce4bho12rcd13ifvqh1g","pricing_plan_id":"cebpf4jnsgd1na2vs0mg"},{"bike_id":"c06c9aea-d208-4945-afeb-0e79a61ab0b6","system_id":"levelo_inurba_marseille","lat":43.27058,"lon":5.40262,"is_reserved":false,"is_disabled":false,"rental_uris":{"android":"levelo://app?vid=c06c9aea-d208-4945-afeb-0e79a61ab0b6","ios":"levelo://app?vid=c06c9aea-d208-4945-afeb-0e79a61ab0b6"},"vehicle_type_id":"4","last_reported":1725941445,"current_range_meters":37600,"station_id":"ce4bhk92rcd13ifvqgc0","pricing_plan_id":"cebpf4jnsgd1na2vs0mg"},{"bike_id":"e1afa912-2bf9-49f5-ab54-6e9af09aacb3","system_id":"levelo_inurba_marseille","lat":43.23182,"lon":5.39996,"is_reserved":false,"is_disabled":false,"rental_uris":{"android":"levelo://app?vid=e1afa912-2bf9-49f5-ab54-6e9af09aacb3","ios":"levelo://app?vid=e1afa912-2bf9-49f5-ab54-6e9af09aacb3"},"vehicle_type_id":"4","last_reported":1725941445,"current_range_meters":12800,"station_id":"ce4bhn12rcd13ifvqgqg","pricing_plan_id":"cebpf4jnsgd1na2vs0mg"},{"bike_id":"28d609cb-f0b6-4b05-afca-29caba5caeb0","system_id":"levelo_inurba_marseille","lat":43.30183,"lon":5.38929,"is_reserved":false,"is_disabled":false,"rental_uris":{"android":"levelo://app?vid=28d609cb-f0b6-4b05-afca-29caba5caeb0","ios":"levelo://app?vid=28d609cb-f0b6-4b05-afca-29caba5caeb0"},"vehicle_type_id":"4","last_reported":1725941445,"current_range_meters":14000,"station_id":"","pricing_plan_id":"cebpf4jnsgd1na2vs0mg"},{"bike_id":"3f04d19c-3606-4d71-9791-16811c739214","system_id":"levelo_inurba_marseille","lat":43.24172,"lon":5.36397,"is_reserved":false,"is_disabled":false,"rental_uris":{"android":"levelo://app?vid=3f04d19c-3606-4d71-9791-16811c739214","ios":"levelo://app?vid=3f04d19c-3606-4d71-9791-16811c739214"},"vehicle_type_id":"4","last_reported":1725941445,"current_range_meters":37600,"station_id":"cpo36qri1sfpv3e86is0","pricing_plan_id":"cebpf4jnsgd1na2vs0mg"},{"bike_id":"2f824156-96da-43d7-90fd-bf156c3d9316","system_id":"levelo_inurba_marseille","lat":43.31483,"lon":5.37298,"is_reserved":false,"is_disabled":false,"rental_uris":{"android":"levelo://app?vid=2f824156-96da-43d7-90fd-bf156c3d9316","ios":"levelo://app?vid=2f824156-96da-43d7-90fd-bf156c3d9316"},"vehicle_type_id":"4","last_reported":1725941445,"current_range_meters":12400,"station_id":"ce4bgt12rcd13ifvqcd0","pricing_plan_id":"cebpf4jnsgd1na2vs0mg"},{"bike_id":"e60d5a93-0875-46b5-8a8f-6fbbc823494b","system_id":"levelo_inurba_marseille","lat":43.27178,"lon":5.40987,"is_reserved":false,"is_disabled":false,"rental_uris":{"android":"levelo://app?vid=e60d5a93-0875-46b5-8a8f-6fbbc823494b","ios":"levelo://app?vid=e60d5a93-0875-46b5-8a8f-6fbbc823494b"},"vehicle_type_id":"4","last_reported":1725941445,"current_range_meters":36000,"station_id":"ce4bhl12rcd13ifvqgf0","pricing_plan_id":"cebpf4jnsgd1na2vs0mg"},{"bike_id":"5da2003d-fb1c-434c-ae81-c10b92dc97e9","system_id":"levelo_inurba_marseille","lat":43.30476,"lon":5.37907,"is_reserved":false,"is_disabled":false,"rental_uris":{"android":"levelo://app?vid=5da2003d-fb1c-434c-ae81-c10b92dc97e9","ios":"levelo://app?vid=5da2003d-fb1c-434c-ae81-c10b92dc97e9"},"vehicle_type_id":"4","last_reported":1725941445,"current_range_meters":34000,"station_id":"ce4bgup2rcd13ifvqcn0","pricing_plan_id":"cebpf4jnsgd1na2vs0mg"},{"bike_id":"2017aa07-0406-4757-a623-9548df0b668d","system_id":"levelo_inurba_marseille","lat":43.28442,"lon":5.39197,"is_reserved":false,"is_disabled":false,"rental_uris":{"android":"levelo://app?vid=2017aa07-0406-4757-a623-9548df0b668d","ios":"levelo://app?vid=2017aa07-0406-4757-a623-9548df0b668d"},"vehicle_type_id":"4","last_reported":1725941445,"current_range_meters":39200,"station_id":"ce4bhoh2rcd13ifvqh5g","pricing_plan_id":"cebpf4jnsgd1na2vs0mg"},{"bike_id":"12d3602a-b418-413b-aeec-7697165bcc4f","system_id":"levelo_inurba_marseille","lat":43.28033,"lon":5.36941,"is_reserved":false,"is_disabled":false,"rental_uris":{"android":"levelo://app?vid=12d3602a-b418-413b-aeec-7697165bcc4f","ios":"levelo://app?vid=12d3602a-b418-413b-aeec-7697165bcc4f"},"vehicle_type_id":"4","last_reported":1725941445,"current_range_meters":35600,"station_id":"ce4bha12rcd13ifvqef0","pricing_plan_id":"cebpf4jnsgd1na2vs0mg"},{"bike_id":"4661f73e-726d-4bc7-9ef2-b2f74c6e04b8","system_id":"levelo_inurba_marseille","lat":43.30893,"lon":5.39641,"is_reserved":false,"is_disabled":false,"rental_uris":{"android":"levelo://app?vid=4661f73e-726d-4bc7-9ef2-b2f74c6e04b8","ios":"levelo://app?vid=4661f73e-726d-4bc7-9ef2-b2f74c6e04b8"},"vehicle_type_id":"4","last_reported":1725941445,"current_range_meters":38400,"station_id":"ce4bh012rcd13ifvqcv0","pricing_plan_id":"cebpf4jnsgd1na2vs0mg"},{"bike_id":"cbdb11e9-23f3-47c5-ac5d-f92762f786f8","system_id":"levelo_inurba_marseille","lat":43.24539,"lon":5.39518,"is_reserved":false,"is_disabled":false,"rental_uris":{"android":"levelo://app?vid=cbdb11e9-23f3-47c5-ac5d-f92762f786f8","ios":"levelo://app?vid=cbdb11e9-23f3-47c5-ac5d-f92762f786f8"},"vehicle_type_id":"4","last_reported":1725941445,"current_range_meters":18000,"station_id":"ce4bhlp2rcd13ifvqgjg","pricing_plan_id":"cebpf4jnsgd1na2vs0mg"},{"bike_id":"00ab16a2-dbd4-4042-803b-9a1c87e6c1ce","system_id":"levelo_inurba_marseille","lat":43.29792,"lon":5.39353,"is_reserved":false,"is_disabled":false,"rental_uris":{"android":"levelo://app?vid=00ab16a2-dbd4-4042-803b-9a1c87e6c1ce","ios":"levelo://app?vid=00ab16a2-dbd4-4042-803b-9a1c87e6c1ce"},"vehicle_type_id":"4","last_reported":1725941445,"current_range_meters":36000,"station_id":"chh1huq6cuj3fo74tm60","pricing_plan_id":"cebpf4jnsgd1na2vs0mg"},{"bike_id":"0a0ab40a-e4e5-4a26-a5d3-58d10590808e","system_id":"levelo_inurba_marseille","lat":43.24664,"lon":5.38159,"is_reserved":false,"is_disabled":false,"rental_uris":{"android":"levelo://app?vid=0a0ab40a-e4e5-4a26-a5d3-58d10590808e","ios":"levelo://app?vid=0a0ab40a-e4e5-4a26-a5d3-58d10590808e"},"vehicle_type_id":"4","last_reported":1725941445,"current_range_meters":34000,"station_id":"ce4bhih2rcd13ifvqfr0","pricing_plan_id":"cebpf4jnsgd1na2vs0mg"},{"bike_id":"55204d44-1657-4c54-899d-0ad883d1b24a","system_id":"levelo_inurba_marseille","lat":43.31493,"lon":5.37301,"is_reserved":false,"is_disabled":false,"rental_uris":{"android":"levelo://app?vid=55204d44-1657-4c54-899d-0ad883d1b24a","ios":"levelo://app?vid=55204d44-1657-4c54-899d-0ad883d1b24a"},"vehicle_type_id":"4","last_reported":1725941445,"current_range_meters":26800,"station_id":"ce4bgt12rcd13ifvqcd0","pricing_plan_id":"cebpf4jnsgd1na2vs0mg"},{"bike_id":"01425e4b-8d03-4350-b7e3-c003886fc3cf","system_id":"levelo_inurba_marseille","lat":43.27371,"lon":5.36259,"is_reserved":false,"is_disabled":false,"rental_uris":{"android":"levelo://app?vid=01425e4b-8d03-4350-b7e3-c003886fc3cf","ios":"levelo://app?vid=01425e4b-8d03-4350-b7e3-c003886fc3cf"},"vehicle_type_id":"4","last_reported":1725941445,"current_range_meters":31200,"station_id":"ce4bhbh2rcd13ifvqeo0","pricing_plan_id":"cebpf4jnsgd1na2vs0mg"},{"bike_id":"5013d55e-f85b-4f80-a12f-88dcf2b3f8d1","system_id":"levelo_inurba_marseille","lat":43.31375,"lon":5.38498,"is_reserved":false,"is_disabled":false,"rental_uris":{"android":"levelo://app?vid=5013d55e-f85b-4f80-a12f-88dcf2b3f8d1","ios":"levelo://app?vid=5013d55e-f85b-4f80-a12f-88dcf2b3f8d1"},"vehicle_type_id":"4","last_reported":1725941445,"current_range_meters":39200,"station_id":"ce4bgt92rcd13ifvqcf0","pricing_plan_id":"cebpf4jnsgd1na2vs0mg"},{"bike_id":"b48779f9-dd77-4147-957c-83dfb6bd2b17","system_id":"levelo_inurba_marseille","lat":43.32366,"lon":5.38887,"is_reserved":false,"is_disabled":false,"rental_uris":{"android":"levelo://app?vid=b48779f9-dd77-4147-957c-83dfb6bd2b17","ios":"levelo://app?vid=b48779f9-dd77-4147-957c-83dfb6bd2b17"},"vehicle_type_id":"4","last_reported":1725941445,"current_range_meters":28800,"station_id":"ce4bhqp2rcd13ifvqhog","pricing_plan_id":"cebpf4jnsgd1na2vs0mg"},{"bike_id":"9c97f9ec-7a9d-41fa-833c-34ce56ba5dfe","system_id":"levelo_inurba_marseille","lat":43.2293,"lon":5.35375,"is_reserved":false,"is_disabled":false,"rental_uris":{"android":"levelo://app?vid=9c97f9ec-7a9d-41fa-833c-34ce56ba5dfe","ios":"levelo://app?vid=9c97f9ec-7a9d-41fa-833c-34ce56ba5dfe"},"vehicle_type_id":"4","last_reported":1725941445,"current_range_meters":8000,"station_id":"cpo3532slgdg3j2ikp40","pricing_plan_id":"cebpf4jnsgd1na2vs0mg"},{"bike_id":"03b464a9-0d46-4168-913d-ad3c7c040a2b","system_id":"levelo_inurba_marseille","lat":43.28462,"lon":5.35888,"is_reserved":false,"is_disabled":false,"rental_uris":{"android":"levelo://app?vid=03b464a9-0d46-4168-913d-ad3c7c040a2b","ios":"levelo://app?vid=03b464a9-0d46-4168-913d-ad3c7c040a2b"},"vehicle_type_id":"4","last_reported":1725941445,"current_range_meters":32400,"station_id":"ce4bhah2rcd13ifvqei0","pricing_plan_id":"cebpf4jnsgd1na2vs0mg"},{"bike_id":"860766e8-dae5-4412-8600-7efeb8034e63","system_id":"levelo_inurba_marseille","lat":43.27991,"lon":5.41658,"is_reserved":false,"is_disabled":false,"rental_uris":{"android":"levelo://app?vid=860766e8-dae5-4412-8600-7efeb8034e63","ios":"levelo://app?vid=860766e8-dae5-4412-8600-7efeb8034e63"},"vehicle_type_id":"4","last_reported":1725941445,"current_range_meters":38800,"station_id":"ce4bho12rcd13ifvqh1g","pricing_plan_id":"cebpf4jnsgd1na2vs0mg"},{"bike_id":"009234a9-c153-416b-a30c-1ba6e8de4b7a","system_id":"levelo_inurba_marseille","lat":43.29866,"lon":5.39737,"is_reserved":false,"is_disabled":false,"rental_uris":{"android":"levelo://app?vid=009234a9-c153-416b-a30c-1ba6e8de4b7a","ios":"levelo://app?vid=009234a9-c153-416b-a30c-1ba6e8de4b7a"},"vehicle_type_id":"4","last_reported":1725941445,"current_range_meters":27200,"station_id":"ce4bh0h2rcd13ifvqd50","pricing_plan_id":"cebpf4jnsgd1na2vs0mg"},{"bike_id":"7299c76a-506c-48ce-87fa-4b0ab927fb7c","system_id":"levelo_inurba_marseille","lat":43.28459,"lon":5.35893,"is_reserved":false,"is_disabled":false,"rental_uris":{"android":"levelo://app?vid=7299c76a-506c-48ce-87fa-4b0ab927fb7c","ios":"levelo://app?vid=7299c76a-506c-48ce-87fa-4b0ab927fb7c"},"vehicle_type_id":"4","last_reported":1725941445,"current_range_meters":14800,"station_id":"ce4bhah2rcd13ifvqei0","pricing_plan_id":"cebpf4jnsgd1na2vs0mg"},{"bike_id":"1a9dfcb8-d4cc-46d1-bada-7d344f8f428d","system_id":"levelo_inurba_marseille","lat":43.30553,"lon":5.36558,"is_reserved":false,"is_disabled":false,"rental_uris":{"android":"levelo://app?vid=1a9dfcb8-d4cc-46d1-bada-7d344f8f428d","ios":"levelo://app?vid=1a9dfcb8-d4cc-46d1-bada-7d344f8f428d"},"vehicle_type_id":"4","last_reported":1725941445,"current_range_meters":36400,"station_id":"ce4bgs12rcd13ifvqcag","pricing_plan_id":"cebpf4jnsgd1na2vs0mg"},{"bike_id":"6691dcb1-3538-4c12-883b-36a323cdf74c","system_id":"levelo_inurba_marseille","lat":43.27817,"lon":5.4071,"is_reserved":false,"is_disabled":false,"rental_uris":{"android":"levelo://app?vid=6691dcb1-3538-4c12-883b-36a323cdf74c","ios":"levelo://app?vid=6691dcb1-3538-4c12-883b-36a323cdf74c"},"vehicle_type_id":"4","last_reported":1725941445,"current_range_meters":38400,"station_id":"ce4bhnh2rcd13ifvqgtg","pricing_plan_id":"cebpf4jnsgd1na2vs0mg"},{"bike_id":"6c3a6afa-1cd3-4047-ad62-22780ddff184","system_id":"levelo_inurba_marseille","lat":43.28071,"lon":5.37869,"is_reserved":false,"is_disabled":false,"rental_uris":{"android":"levelo://app?vid=6c3a6afa-1cd3-4047-ad62-22780ddff184","ios":"levelo://app?vid=6c3a6afa-1cd3-4047-ad62-22780ddff184"},"vehicle_type_id":"4","last_reported":1725941445,"current_range_meters":38800,"station_id":"ce4bha12rcd13ifvqee0","pricing_plan_id":"cebpf4jnsgd1na2vs0mg"},{"bike_id":"7bb5a6c7-6dd5-4a42-9215-dad1557690cc","system_id":"levelo_inurba_marseille","lat":43.32294,"lon":5.38258,"is_reserved":false,"is_disabled":false,"rental_uris":{"android":"levelo://app?vid=7bb5a6c7-6dd5-4a42-9215-dad1557690cc","ios":"levelo://app?vid=7bb5a6c7-6dd5-4a42-9215-dad1557690cc"},"vehicle_type_id":"4","last_reported":1725941445,"current_range_meters":38400,"station_id":"ce4bhr12rcd13ifvqhqg","pricing_plan_id":"cebpf4jnsgd1na2vs0mg"},{"bike_id":"521006d0-7e65-4512-9a69-ce6629c7f33f","system_id":"levelo_inurba_marseille","lat":43.30919,"lon":5.36851,"is_reserved":false,"is_disabled":false,"rental_uris":{"android":"levelo://app?vid=521006d0-7e65-4512-9a69-ce6629c7f33f","ios":"levelo://app?vid=521006d0-7e65-4512-9a69-ce6629c7f33f"},"vehicle_type_id":"4","last_reported":1725941445,"current_range_meters":32000,"station_id":"ce4bgn92rcd13ifvqbvg","pricing_plan_id":"cebpf4jnsgd1na2vs0mg"},{"bike_id":"07db5c2e-b4ea-4ebc-8ad1-f042005b5700","system_id":"levelo_inurba_marseille","lat":43.28701,"lon":5.39986,"is_reserved":false,"is_disabled":false,"rental_uris":{"android":"levelo://app?vid=07db5c2e-b4ea-4ebc-8ad1-f042005b5700","ios":"levelo://app?vid=07db5c2e-b4ea-4ebc-8ad1-f042005b5700"},"vehicle_type_id":"4","last_reported":1725941445,"current_range_meters":16400,"station_id":"ce4bho92rcd13ifvqh3g","pricing_plan_id":"cebpf4jnsgd1na2vs0mg"},{"bike_id":"a6f353f3-cc7b-4b34-8257-aa1633e8c378","system_id":"levelo_inurba_marseille","lat":43.31694,"lon":5.40468,"is_reserved":false,"is_disabled":false,"rental_uris":{"android":"levelo://app?vid=a6f353f3-cc7b-4b34-8257-aa1633e8c378","ios":"levelo://app?vid=a6f353f3-cc7b-4b34-8257-aa1633e8c378"},"vehicle_type_id":"4","last_reported":1725941445,"current_range_meters":38800,"station_id":"ce4bh012rcd13ifvqd00","pricing_plan_id":"cebpf4jnsgd1na2vs0mg"},{"bike_id":"4d3ba965-b7c3-468a-b8ee-8b5bc8e89720","system_id":"levelo_inurba_marseille","lat":43.2761,"lon":5.36115,"is_reserved":false,"is_disabled":false,"rental_uris":{"android":"levelo://app?vid=4d3ba965-b7c3-468a-b8ee-8b5bc8e89720","ios":"levelo://app?vid=4d3ba965-b7c3-468a-b8ee-8b5bc8e89720"},"vehicle_type_id":"4","last_reported":1725941445,"current_range_meters":39200,"station_id":"ce4bgj92rcd13ifvqbe0","pricing_plan_id":"cebpf4jnsgd1na2vs0mg"},{"bike_id":"8c317ca4-ae87-4e85-8597-c0aa99af97e9","system_id":"levelo_inurba_marseille","lat":43.25004,"lon":5.38931,"is_reserved":false,"is_disabled":false,"rental_uris":{"android":"levelo://app?vid=8c317ca4-ae87-4e85-8597-c0aa99af97e9","ios":"levelo://app?vid=8c317ca4-ae87-4e85-8597-c0aa99af97e9"},"vehicle_type_id":"4","last_reported":1725941445,"current_range_meters":14000,"station_id":"ce4bhgp2rcd13ifvqfd0","pricing_plan_id":"cebpf4jnsgd1na2vs0mg"},{"bike_id":"fe2ef57f-c7b5-4adf-9475-75a53e84e51b","system_id":"levelo_inurba_marseille","lat":43.30935,"lon":5.40141,"is_reserved":false,"is_disabled":false,"rental_uris":{"android":"levelo://app?vid=fe2ef57f-c7b5-4adf-9475-75a53e84e51b","ios":"levelo://app?vid=fe2ef57f-c7b5-4adf-9475-75a53e84e51b"},"vehicle_type_id":"4","last_reported":1725941445,"current_range_meters":36000,"station_id":"ce4bgvp2rcd13ifvqct0","pricing_plan_id":"cebpf4jnsgd1na2vs0mg"},{"bike_id":"f25790de-aa0d-4ab3-854f-f631ba5dff5c","system_id":"levelo_inurba_marseille","lat":43.2681,"lon":5.40266,"is_reserved":false,"is_disabled":false,"rental_uris":{"android":"levelo://app?vid=f25790de-aa0d-4ab3-854f-f631ba5dff5c","ios":"levelo://app?vid=f25790de-aa0d-4ab3-854f-f631ba5dff5c"},"vehicle_type_id":"4","last_reported":1725941445,"current_range_meters":4000,"station_id":"ce501612rcd8frsf0b60","pricing_plan_id":"cebpf4jnsgd1na2vs0mg"},{"bike_id":"66c5847f-cc88-4785-9e1b-8f8d5fd1d0b9","system_id":"levelo_inurba_marseille","lat":43.25869,"lon":5.39902,"is_reserved":false,"is_disabled":false,"rental_uris":{"android":"levelo://app?vid=66c5847f-cc88-4785-9e1b-8f8d5fd1d0b9","ios":"levelo://app?vid=66c5847f-cc88-4785-9e1b-8f8d5fd1d0b9"},"vehicle_type_id":"4","last_reported":1725941445,"current_range_meters":39200,"station_id":"ce4bhl92rcd13ifvqghg","pricing_plan_id":"cebpf4jnsgd1na2vs0mg"},{"bike_id":"68a8b310-2689-4529-9698-a1935c1bd328","system_id":"levelo_inurba_marseille","lat":43.25124,"lon":5.40323,"is_reserved":false,"is_disabled":false,"rental_uris":{"android":"levelo://app?vid=68a8b310-2689-4529-9698-a1935c1bd328","ios":"levelo://app?vid=68a8b310-2689-4529-9698-a1935c1bd328"},"vehicle_type_id":"4","last_reported":1725941445,"current_range_meters":29600,"station_id":"ce4bhlh2rcd13ifvqgig","pricing_plan_id":"cebpf4jnsgd1na2vs0mg"},{"bike_id":"c1cc10be-70cc-469d-a3be-3e5e290f46f1","system_id":"levelo_inurba_marseille","lat":43.31172,"lon":5.38713,"is_reserved":false,"is_disabled":false,"rental_uris":{"android":"levelo://app?vid=c1cc10be-70cc-469d-a3be-3e5e290f46f1","ios":"levelo://app?vid=c1cc10be-70cc-469d-a3be-3e5e290f46f1"},"vehicle_type_id":"4","last_reported":1725941445,"current_range_meters":18800,"station_id":"ce4bgv12rcd13ifvqcp0","pricing_plan_id":"cebpf4jnsgd1na2vs0mg"},{"bike_id":"b2940d4f-dc9f-4701-ae3d-12293358714c","system_id":"levelo_inurba_marseille","lat":43.31759,"lon":5.39019,"is_reserved":false,"is_disabled":false,"rental_uris":{"android":"levelo://app?vid=b2940d4f-dc9f-4701-ae3d-12293358714c","ios":"levelo://app?vid=b2940d4f-dc9f-4701-ae3d-12293358714c"},"vehicle_type_id":"4","last_reported":1725941445,"current_range_meters":12400,"station_id":"ce4bhqp2rcd13ifvqhng","pricing_plan_id":"cebpf4jnsgd1na2vs0mg"},{"bike_id":"e79dc6d1-d6a3-467f-a9dd-348e2da1839e","system_id":"levelo_inurba_marseille","lat":43.25573,"lon":5.38231,"is_reserved":false,"is_disabled":false,"rental_uris":{"android":"levelo://app?vid=e79dc6d1-d6a3-467f-a9dd-348e2da1839e","ios":"levelo://app?vid=e79dc6d1-d6a3-467f-a9dd-348e2da1839e"},"vehicle_type_id":"4","last_reported":1725941445,"current_range_meters":32400,"station_id":"ce4bhih2rcd13ifvqfs0","pricing_plan_id":"cebpf4jnsgd1na2vs0mg"},{"bike_id":"8ea3b2cd-3126-4c2a-954c-647592b3ee9c","system_id":"levelo_inurba_marseille","lat":43.30892,"lon":5.39656,"is_reserved":false,"is_disabled":false,"rental_uris":{"android":"levelo://app?vid=8ea3b2cd-3126-4c2a-954c-647592b3ee9c","ios":"levelo://app?vid=8ea3b2cd-3126-4c2a-954c-647592b3ee9c"},"vehicle_type_id":"4","last_reported":1725941445,"current_range_meters":8800,"station_id":"ce4bh012rcd13ifvqcv0","pricing_plan_id":"cebpf4jnsgd1na2vs0mg"},{"bike_id":"96c7cf39-d830-4845-ad82-0305120b5fb7","system_id":"levelo_inurba_marseille","lat":43.31761,"lon":5.39016,"is_reserved":false,"is_disabled":false,"rental_uris":{"android":"levelo://app?vid=96c7cf39-d830-4845-ad82-0305120b5fb7","ios":"levelo://app?vid=96c7cf39-d830-4845-ad82-0305120b5fb7"},"vehicle_type_id":"4","last_reported":1725941445,"current_range_meters":39200,"station_id":"ce4bhqp2rcd13ifvqhng","pricing_plan_id":"cebpf4jnsgd1na2vs0mg"},{"bike_id":"528c5997-f635-4147-8fcb-68ef6fa5ba60","system_id":"levelo_inurba_marseille","lat":43.28711,"lon":5.39985,"is_reserved":false,"is_disabled":false,"rental_uris":{"android":"levelo://app?vid=528c5997-f635-4147-8fcb-68ef6fa5ba60","ios":"levelo://app?vid=528c5997-f635-4147-8fcb-68ef6fa5ba60"},"vehicle_type_id":"4","last_reported":1725941445,"current_range_meters":38400,"station_id":"ce4bho92rcd13ifvqh3g","pricing_plan_id":"cebpf4jnsgd1na2vs0mg"},{"bike_id":"ccf1e862-5cd1-4745-b9ca-a4df058aa0d4","system_id":"levelo_inurba_marseille","lat":43.31693,"lon":5.40471,"is_reserved":false,"is_disabled":false,"rental_uris":{"android":"levelo://app?vid=ccf1e862-5cd1-4745-b9ca-a4df058aa0d4","ios":"levelo://app?vid=ccf1e862-5cd1-4745-b9ca-a4df058aa0d4"},"vehicle_type_id":"4","last_reported":1725941445,"current_range_meters":38400,"station_id":"ce4bh012rcd13ifvqd00","pricing_plan_id":"cebpf4jnsgd1na2vs0mg"},{"bike_id":"04d99aba-7237-4ae0-9ff8-09a62b36e45a","system_id":"levelo_inurba_marseille","lat":43.2782,"lon":5.39213,"is_reserved":false,"is_disabled":false,"rental_uris":{"android":"levelo://app?vid=04d99aba-7237-4ae0-9ff8-09a62b36e45a","ios":"levelo://app?vid=04d99aba-7237-4ae0-9ff8-09a62b36e45a"},"vehicle_type_id":"4","last_reported":1725941445,"current_range_meters":37600,"station_id":"ce4bhjp2rcd13ifvqga0","pricing_plan_id":"cebpf4jnsgd1na2vs0mg"},{"bike_id":"8e3c514e-73d9-4ab9-ac1a-1e9c9f24b319","system_id":"levelo_inurba_marseille","lat":43.25089,"lon":5.39522,"is_reserved":false,"is_disabled":false,"rental_uris":{"android":"levelo://app?vid=8e3c514e-73d9-4ab9-ac1a-1e9c9f24b319","ios":"levelo://app?vid=8e3c514e-73d9-4ab9-ac1a-1e9c9f24b319"},"vehicle_type_id":"4","last_reported":1725941445,"current_range_meters":38400,"station_id":"ce4bhm12rcd13ifvqgkg","pricing_plan_id":"cebpf4jnsgd1na2vs0mg"},{"bike_id":"79dfdd4c-1583-4a47-90bc-949ec56c62d2","system_id":"levelo_inurba_marseille","lat":43.31718,"lon":5.42409,"is_reserved":false,"is_disabled":false,"rental_uris":{"android":"levelo://app?vid=79dfdd4c-1583-4a47-90bc-949ec56c62d2","ios":"levelo://app?vid=79dfdd4c-1583-4a47-90bc-949ec56c62d2"},"vehicle_type_id":"4","last_reported":1725941445,"current_range_meters":38800,"station_id":"ce4bhp92rcd13ifvqhbg","pricing_plan_id":"cebpf4jnsgd1na2vs0mg"},{"bike_id":"0cb5c61d-875d-4ab8-8073-b8d730f9b44c","system_id":"levelo_inurba_marseille","lat":43.23183,"lon":5.39991,"is_reserved":false,"is_disabled":false,"rental_uris":{"android":"levelo://app?vid=0cb5c61d-875d-4ab8-8073-b8d730f9b44c","ios":"levelo://app?vid=0cb5c61d-875d-4ab8-8073-b8d730f9b44c"},"vehicle_type_id":"4","last_reported":1725941445,"current_range_meters":6400,"station_id":"ce4bhn12rcd13ifvqgqg","pricing_plan_id":"cebpf4jnsgd1na2vs0mg"},{"bike_id":"df7fd78e-84f2-4b59-a850-1eee32ef24e4","system_id":"levelo_inurba_marseille","lat":43.30884,"lon":5.39638,"is_reserved":false,"is_disabled":false,"rental_uris":{"android":"levelo://app?vid=df7fd78e-84f2-4b59-a850-1eee32ef24e4","ios":"levelo://app?vid=df7fd78e-84f2-4b59-a850-1eee32ef24e4"},"vehicle_type_id":"4","last_reported":1725941445,"current_range_meters":28800,"station_id":"ce4bh012rcd13ifvqcv0","pricing_plan_id":"cebpf4jnsgd1na2vs0mg"},{"bike_id":"9943c7d2-b0ff-4561-a436-47d4924eafb1","system_id":"levelo_inurba_marseille","lat":43.30252,"lon":5.40074,"is_reserved":false,"is_disabled":false,"rental_uris":{"android":"levelo://app?vid=9943c7d2-b0ff-4561-a436-47d4924eafb1","ios":"levelo://app?vid=9943c7d2-b0ff-4561-a436-47d4924eafb1"},"vehicle_type_id":"4","last_reported":1725941445,"current_range_meters":6400,"station_id":"ce4bgvh2rcd13ifvqcs0","pricing_plan_id":"cebpf4jnsgd1na2vs0mg"},{"bike_id":"b52eb134-3d5f-4196-a2fc-255d04f3727a","system_id":"levelo_inurba_marseille","lat":43.30161,"lon":5.38078,"is_reserved":false,"is_disabled":false,"rental_uris":{"android":"levelo://app?vid=b52eb134-3d5f-4196-a2fc-255d04f3727a","ios":"levelo://app?vid=b52eb134-3d5f-4196-a2fc-255d04f3727a"},"vehicle_type_id":"4","last_reported":1725941445,"current_range_meters":34000,"station_id":"ce4bgjp2rcd13ifvqbh0","pricing_plan_id":"cebpf4jnsgd1na2vs0mg"},{"bike_id":"cd5eeae5-3a4e-4e93-901e-60226d1821d9","system_id":"levelo_inurba_marseille","lat":43.28421,"lon":5.37521,"is_reserved":false,"is_disabled":false,"rental_uris":{"android":"levelo://app?vid=cd5eeae5-3a4e-4e93-901e-60226d1821d9","ios":"levelo://app?vid=cd5eeae5-3a4e-4e93-901e-60226d1821d9"},"vehicle_type_id":"4","last_reported":1725941445,"current_range_meters":33600,"station_id":"ce4bh412rcd13ifvqds0","pricing_plan_id":"cebpf4jnsgd1na2vs0mg"},{"bike_id":"7be5ef32-7040-458d-bcda-1f8e04acc8ae","system_id":"levelo_inurba_marseille","lat":43.31892,"lon":5.40742,"is_reserved":false,"is_disabled":false,"rental_uris":{"android":"levelo://app?vid=7be5ef32-7040-458d-bcda-1f8e04acc8ae","ios":"levelo://app?vid=7be5ef32-7040-458d-bcda-1f8e04acc8ae"},"vehicle_type_id":"4","last_reported":1725941445,"current_range_meters":11200,"station_id":"ce4bhq12rcd13ifvqhig","pricing_plan_id":"cebpf4jnsgd1na2vs0mg"},{"bike_id":"08797811-4e64-4d38-ac96-24a7e0ce2ecc","system_id":"levelo_inurba_marseille","lat":43.27375,"lon":5.36272,"is_reserved":false,"is_disabled":false,"rental_uris":{"android":"levelo://app?vid=08797811-4e64-4d38-ac96-24a7e0ce2ecc","ios":"levelo://app?vid=08797811-4e64-4d38-ac96-24a7e0ce2ecc"},