{"last_updated":1691834760,"ttl":30,"version":"2.2","data":{"bikes":[{"bike_id":"4f48e3c1-0823-4470-9406-05506665324d","system_id":"levelo_inurba_marseille","lat":43.313391,"lon":5.36706,"is_reserved":false,"is_disabled":false,"rental_uris":{"android":"levelo://app?vid=4f48e3c1-0823-4470-9406-05506665324d","ios":"levelo://app?vid=4f48e3c1-0823-4470-9406-05506665324d"},"vehicle_type_id":"4","last_reported":1691834760,"current_range_meters":24000,"station_id":"ce4bgr92rcd13ifvqc6g","pricing_plan_id":"free"},{"bike_id":"bcc6c929-7758-4cae-be87-8967c37ec49a","system_id":"levelo_inurba_marseille","lat":43.314811,"lon":5.373103,"is_reserved":false,"is_disabled":false,"rental_uris":{"android":"levelo://app?vid=bcc6c929-7758-4cae-be87-8967c37ec49a","ios":"levelo://app?vid=bcc6c929-7758-4cae-be87-8967c37ec49a"},"vehicle_type_id":"4","last_reported":1691834760,"current_range_meters":29200,"station_id":"ce4bgt12rcd13ifvqcd0","pricing_plan_id":"free"},{"bike_id":"3e87866b-96ac-4a6e-8316-a08dd489cf75","system_id":"levelo_inurba_marseille","lat":43.305712,"lon":5.365641,"is_reserved":false,"is_disabled":false,"rental_uris":{"android":"levelo://app?vid=3e87866b-96ac-4a6e-8316-a08dd489cf75","ios":"levelo://app?vid=3e87866b-96ac-4a6e-8316-a08dd489cf75"},"vehicle_type_id":"4","last_reported":1691834760,"current_range_meters":30400,"station_id":"ce4bgs12rcd13ifvqcag","pricing_plan_id":"free"},{"bike_id":"3359b531-cc1e-4986-aae1-e7dfa3278393","system_id":"levelo_inurba_marseille","lat":43.305712,"lon":5.365641,"is_reserved":false,"is_disabled":false,"rental_uris":{"android":"levelo://app?vid=3359b531-cc1e-4986-aae1-e7dfa3278393","ios":"levelo://app?vid=3359b531-cc1e-4986-aae1-e7dfa3278393"},"vehicle_type_id":"4","last_reported":1691834760,"current_range_meters":5200,"station_id":"ce4bgs12rcd13ifvqcag","pricing_plan_id":"free"},{"bike_id":"c861be8f-1cae-4af1-8f77-ce99af8b7c3f","system_id":"levelo_inurba_marseille","lat":43.30544,"lon":5.36685,"is_reserved":false,"is_disabled":false,"rental_uris":{"android":"levelo://app?vid=c861be8f-1cae-4af1-8f77-ce99af8b7c3f","ios":"levelo://app?vid=c861be8f-1cae-4af1-8f77-ce99af8b7c3f"},"vehicle_type_id":"4","last_reported":1691834760,"current_range_meters":30800,"station_id":"ce4bgrp2rcd13ifvqc9g","pricing_plan_id":"free"},{"bike_id":"29475efc-183f-450d-bfee-85408c6c704c","system_id":"levelo_inurba_marseille","lat":43.30552,"lon":5.36531,"is_reserved":false,"is_disabled":false,"rental_uris":{"android":"levelo://app?vid=29475efc-183f-450d-bfee-85408c6c704c","ios":"levelo://app?vid=29475efc-183f-450d-bfee-85408c6c704c"},"vehicle_type_id":"4","last_reported":1691834760,"current_range_meters":31200,"station_id":"ce4bgs12rcd13ifvqcag","pricing_plan_id":"free"},{"bike_id":"d713bc84-0106-4b73-997c-35219c5b3dd5","system_id":"levelo_inurba_marseille","lat":43.305368,"lon":5.367343,"is_reserved":false,"is_disabled":false,"rental_uris":{"android":"levelo://app?vid=d713bc84-0106-4b73-997c-35219c5b3dd5","ios":"levelo://app?vid=d713bc84-0106-4b73-997c-35219c5b3dd5"},"vehicle_type_id":"4","last_reported":1691834760,"current_range_meters":30800,"station_id":"ce4bgrp2rcd13ifvqc9g","pricing_plan_id":"free"},{"bike_id":"e2912e0d-839c-474c-8379-24c6604f1b03","system_id":"levelo_inurba_marseille","lat":43.305706,"lon":5.365654,"is_reserved":false,"is_disabled":false,"rental_uris":{"android":"levelo://app?vid=e2912e0d-839c-474c-8379-24c6604f1b03","ios":"levelo://app?vid=e2912e0d-839c-474c-8379-24c6604f1b03"},"vehicle_type_id":"4","last_reported":1691834760,"current_range_meters":17200,"station_id":"ce4bgs12rcd13ifvqcag","pricing_plan_id":"free"},{"bike_id":"6af26437-885a-4d72-91c5-c2bbde3e156e","system_id":"levelo_inurba_marseille","lat":43.305714,"lon":5.365633,"is_reserved":false,"is_disabled":false,"rental_uris":{"android":"levelo://app?vid=6af26437-885a-4d72-91c5-c2bbde3e156e","ios":"levelo://app?vid=6af26437-885a-4d72-91c5-c2bbde3e156e"},"vehicle_type_id":"4","last_reported":1691834760,"current_range_meters":11200,"station_id":"ce4bgs12rcd13ifvqcag","pricing_plan_id":"free"},{"bike_id":"ae3e460f-1cba-4e8a-b412-c10c7e6bfd1f","system_id":"levelo_inurba_marseille","lat":43.305714,"lon":5.365633,"is_reserved":false,"is_disabled":false,"rental_uris":{"android":"levelo://app?vid=ae3e460f-1cba-4e8a-b412-c10c7e6bfd1f","ios":"levelo://app?vid=ae3e460f-1cba-4e8a-b412-c10c7e6bfd1f"},"vehicle_type_id":"4","last_reported":1691834760,"current_range_meters":28000,"station_id":"ce4bgs12rcd13ifvqcag","pricing_plan_id":"free"},{"bike_id":"96ca1946-e54c-4efd-b71c-b56c394fb08a","system_id":"levelo_inurba_marseille","lat":43.305706,"lon":5.365654,"is_reserved":false,"is_disabled":false,"rental_uris":{"android":"levelo://app?vid=96ca1946-e54c-4efd-b71c-b56c394fb08a","ios":"levelo://app?vid=96ca1946-e54c-4efd-b71c-b56c394fb08a"},"vehicle_type_id":"4","last_reported":1691834760,"current_range_meters":22800,"station_id":"ce4bgs12rcd13ifvqcag","pricing_plan_id":"free"},{"bike_id":"56d03479-89a5-4c0f-8156-b1aaa2d5f286","system_id":"levelo_inurba_marseille","lat":43.305706,"lon":5.365654,"is_reserved":false,"is_disabled":false,"rental_uris":{"android":"levelo://app?vid=56d03479-89a5-4c0f-8156-b1aaa2d5f286","ios":"levelo://app?vid=56d03479-89a5-4c0f-8156-b1aaa2d5f286"},"vehicle_type_id":"4","last_reported":1691834760,"current_range_meters":12800,"station_id":"ce4bgs12rcd13ifvqcag","pricing_plan_id":"free"},{"bike_id":"5389d929-582b-4bb7-919e-e2cf548d33e4","system_id":"levelo_inurba_marseille","lat":43.305706,"lon":5.365654,"is_reserved":false,"is_disabled":false,"rental_uris":{"android":"levelo://app?vid=5389d929-582b-4bb7-919e-e2cf548d33e4","ios":"levelo://app?vid=5389d929-582b-4bb7-919e-e2cf548d33e4"},"vehicle_type_id":"4","last_reported":1691834760,"current_range_meters":28400,"station_id":"ce4bgs12rcd13ifvqcag","pricing_plan_id":"free"},{"bike_id":"d0ee7b62-1b44-4f7c-89b4-c038ad7cac27","system_id":"levelo_inurba_marseille","lat":43.305706,"lon":5.365654,"is_reserved":false,"is_disabled":false,"rental_uris":{"android":"levelo://app?vid=d0ee7b62-1b44-4f7c-89b4-c038ad7cac27","ios":"levelo://app?vid=d0ee7b62-1b44-4f7c-89b4-c038ad7cac27"},"vehicle_type_id":"4","last_reported":1691834760,"current_range_meters":25200,"station_id":"ce4bgs12rcd13ifvqcag","pricing_plan_id":"free"},{"bike_id":"bf19707d-7d5b-483e-9e21-4c5d68c17834","system_id":"levelo_inurba_marseille","lat":43.305706,"lon":5.365654,"is_reserved":false,"is_disabled":false,"rental_uris":{"android":"levelo://app?vid=bf19707d-7d5b-483e-9e21-4c5d68c17834","ios":"levelo://app?vid=bf19707d-7d5b-483e-9e21-4c5d68c17834"},"vehicle_type_id":"4","last_reported":1691834760,"current_range_meters":31200,"station_id":"ce4bgs12rcd13ifvqcag","pricing_plan_id":"free"},{"bike_id":"0efab063-7a34-4d4f-aace-949d4992ded7","system_id":"levelo_inurba_marseille","lat":43.305706,"lon":5.365654,"is_reserved":false,"is_disabled":false,"rental_uris":{"android":"levelo://app?vid=0efab063-7a34-4d4f-aace-949d4992ded7","ios":"levelo://app?vid=0efab063-7a34-4d4f-aace-949d4992ded7"},"vehicle_type_id":"4","last_reported":1691834760,"current_range_meters":10000,"station_id":"ce4bgs12rcd13ifvqcag","pricing_plan_id":"free"},{"bike_id":"61f9b531-456a-481c-a56e-7d92af98e250","system_id":"levelo_inurba_marseille","lat":43.305989,"lon":5.37225,"is_reserved":false,"is_disabled":false,"rental_uris":{"android":"levelo://app?vid=61f9b531-456a-481c-a56e-7d92af98e250","ios":"levelo://app?vid=61f9b531-456a-481c-a56e-7d92af98e250"},"vehicle_type_id":"4","last_reported":1691834760,"current_range_meters":18000,"station_id":"ce4bgqh2rcd13ifvqc4g","pricing_plan_id":"free"},{"bike_id":"3ebaa3d8-afa8-41e2-8374-48cb212b2e26","system_id":"levelo_inurba_marseille","lat":43.305989,"lon":5.37225,"is_reserved":false,"is_disabled":false,"rental_uris":{"android":"levelo://app?vid=3ebaa3d8-afa8-41e2-8374-48cb212b2e26","ios":"levelo://app?vid=3ebaa3d8-afa8-41e2-8374-48cb212b2e26"},"vehicle_type_id":"4","last_reported":1691834760,"current_range_meters":25600,"station_id":"ce4bgqh2rcd13ifvqc4g","pricing_plan_id":"free"},{"bike_id":"01b80d0b-744c-477f-a63c-7b09657e0ec7","system_id":"levelo_inurba_marseille","lat":43.317075,"lon":5.377367,"is_reserved":false,"is_disabled":false,"rental_uris":{"android":"levelo://app?vid=01b80d0b-744c-477f-a63c-7b09657e0ec7","ios":"levelo://app?vid=01b80d0b-744c-477f-a63c-7b09657e0ec7"},"vehicle_type_id":"4","last_reported":1691834760,"current_range_meters":11200,"station_id":"ce4bgth2rcd13ifvqch0","pricing_plan_id":"free"},{"bike_id":"33ee35ed-e071-4764-a761-ba154972f9b6","system_id":"levelo_inurba_marseille","lat":43.317075,"lon":5.377367,"is_reserved":false,"is_disabled":false,"rental_uris":{"android":"levelo://app?vid=33ee35ed-e071-4764-a761-ba154972f9b6","ios":"levelo://app?vid=33ee35ed-e071-4764-a761-ba154972f9b6"},"vehicle_type_id":"4","last_reported":1691834760,"current_range_meters":4800,"station_id":"ce4bgth2rcd13ifvqch0","pricing_plan_id":"free"},{"bike_id":"a7e3c8fe-0e2a-4497-a542-2a09ec6473cd","system_id":"levelo_inurba_marseille","lat":43.317075,"lon":5.377367,"is_reserved":false,"is_disabled":false,"rental_uris":{"android":"levelo://app?vid=a7e3c8fe-0e2a-4497-a542-2a09ec6473cd","ios":"levelo://app?vid=a7e3c8fe-0e2a-4497-a542-2a09ec6473cd"},"vehicle_type_id":"4","last_reported":1691834760,"current_range_meters":11200,"station_id":"ce4bgth2rcd13ifvqch0","pricing_plan_id":"free"},{"bike_id":"faca46fb-0b9c-4ae6-839a-5d68b8bb2cf5","system_id":"levelo_inurba_marseille","lat":43.303046,"lon":5.368981,"is_reserved":false,"is_disabled":false,"rental_uris":{"android":"levelo://app?vid=faca46fb-0b9c-4ae6-839a-5d68b8bb2cf5","ios":"levelo://app?vid=faca46fb-0b9c-4ae6-839a-5d68b8bb2cf5"},"vehicle_type_id":"4","last_reported":1691834760,"current_range_meters":20400,"station_id":"ce4bgqh2rcd13ifvqc5g","pricing_plan_id":"free"},{"bike_id":"28298f4e-f77a-4e19-8d69-02701396560d","system_id":"levelo_inurba_marseille","lat":43.305989,"lon":5.37225,"is_reserved":false,"is_disabled":false,"rental_uris":{"android":"levelo://app?vid=28298f4e-f77a-4e19-8d69-02701396560d","ios":"levelo://app?vid=28298f4e-f77a-4e19-8d69-02701396560d"},"vehicle_type_id":"4","last_reported":1691834760,"current_range_meters":10000,"station_id":"ce4bgqh2rcd13ifvqc4g","pricing_plan_id":"free"},{"bike_id":"969adf6a-38c7-4f9d-b092-a3898827df41","system_id":"levelo_inurba_marseille","lat":43.304606,"lon":5.379026,"is_reserved":false,"is_disabled":false,"rental_uris":{"android":"levelo://app?vid=969adf6a-38c7-4f9d-b092-a3898827df41","ios":"levelo://app?vid=969adf6a-38c7-4f9d-b092-a3898827df41"},"vehicle_type_id":"4","last_reported":1691834760,"current_range_meters":31200,"station_id":"ce4bgup2rcd13ifvqcn0","pricing_plan_id":"free"},{"bike_id":"a0279078-f49a-4d0c-88d9-362c9f885ec5","system_id":"levelo_inurba_marseille","lat":43.30476,"lon":5.37902,"is_reserved":false,"is_disabled":false,"rental_uris":{"android":"levelo://app?vid=a0279078-f49a-4d0c-88d9-362c9f885ec5","ios":"levelo://app?vid=a0279078-f49a-4d0c-88d9-362c9f885ec5"},"vehicle_type_id":"4","last_reported":1691834760,"current_range_meters":24800,"station_id":"","pricing_plan_id":"free"},{"bike_id":"c2f0465f-cdd8-4af6-8c43-cbde28b03d75","system_id":"levelo_inurba_marseille","lat":43.304606,"lon":5.379026,"is_reserved":false,"is_disabled":false,"rental_uris":{"android":"levelo://app?vid=c2f0465f-cdd8-4af6-8c43-cbde28b03d75","ios":"levelo://app?vid=c2f0465f-cdd8-4af6-8c43-cbde28b03d75"},"vehicle_type_id":"4","last_reported":1691834760,"current_range_meters":31200,"station_id":"ce4bgup2rcd13ifvqcn0","pricing_plan_id":"free"},{"bike_id":"d4cabd5f-d02b-44f3-b2c2-11d133876f95","system_id":"levelo_inurba_marseille","lat":43.304606,"lon":5.379026,"is_reserved":false,"is_disabled":false,"rental_uris":{"android":"levelo://app?vid=d4cabd5f-d02b-44f3-b2c2-11d133876f95","ios":"levelo://app?vid=d4cabd5f-d02b-44f3-b2c2-11d133876f95"},"vehicle_type_id":"4","last_reported":1691834760,"current_range_meters":32000,"station_id":"ce4bgup2rcd13ifvqcn0","pricing_plan_id":"free"},{"bike_id":"06ad34b7-2b64-4347-bd88-afdc7cb8062b","system_id":"levelo_inurba_marseille","lat":43.30471,"lon":5.37899,"is_reserved":false,"is_disabled":false,"rental_uris":{"android":"levelo://app?vid=06ad34b7-2b64-4347-bd88-afdc7cb8062b","ios":"levelo://app?vid=06ad34b7-2b64-4347-bd88-afdc7cb8062b"},"vehicle_type_id":"4","last_reported":1691834760,"current_range_meters":4400,"station_id":"ce4bgup2rcd13ifvqcn0","pricing_plan_id":"free"},{"bike_id":"9bb09813-cd80-4773-8579-38e9eea7d37e","system_id":"levelo_inurba_marseille","lat":43.30471,"lon":5.37899,"is_reserved":false,"is_disabled":false,"rental_uris":{"android":"levelo://app?vid=9bb09813-cd80-4773-8579-38e9eea7d37e","ios":"levelo://app?vid=9bb09813-cd80-4773-8579-38e9eea7d37e"},"vehicle_type_id":"4","last_reported":1691834760,"current_range_meters":23200,"station_id":"ce4bgup2rcd13ifvqcn0","pricing_plan_id":"free"},{"bike_id":"19dc74d5-d8f8-4a65-aae2-a120f79b7ba7","system_id":"levelo_inurba_marseille","lat":43.304606,"lon":5.379026,"is_reserved":false,"is_disabled":false,"rental_uris":{"android":"levelo://app?vid=19dc74d5-d8f8-4a65-aae2-a120f79b7ba7","ios":"levelo://app?vid=19dc74d5-d8f8-4a65-aae2-a120f79b7ba7"},"vehicle_type_id":"4","last_reported":1691834760,"current_range_meters":31200,"station_id":"ce4bgup2rcd13ifvqcn0","pricing_plan_id":"free"},{"bike_id":"27b365d4-675b-49bb-82f6-abe188316ef6","system_id":"levelo_inurba_marseille","lat":43.304606,"lon":5.379026,"is_reserved":false,"is_disabled":false,"rental_uris":{"android":"levelo://app?vid=27b365d4-675b-49bb-82f6-abe188316ef6","ios":"levelo://app?vid=27b365d4-675b-49bb-82f6-abe188316ef6"},"vehicle_type_id":"4","last_reported":1691834760,"current_range_meters":27600,"station_id":"ce4bgup2rcd13ifvqcn0","pricing_plan_id":"free"},{"bike_id":"8fcb7237-d8ba-4c3c-9593-335510447dfa","system_id":"levelo_inurba_marseille","lat":43.304606,"lon":5.379026,"is_reserved":false,"is_disabled":false,"rental_uris":{"android":"levelo://app?vid=8fcb7237-d8ba-4c3c-9593-335510447dfa","ios":"levelo://app?vid=8fcb7237-d8ba-4c3c-9593-335510447dfa"},"vehicle_type_id":"4","last_reported":1691834760,"current_range_meters":20400,"station_id":"ce4bgup2rcd13ifvqcn0","pricing_plan_id":"free"},{"bike_id":"03229958-a14d-442a-9b2f-1d4ba778acc2","system_id":"levelo_inurba_marseille","lat":43.304606,"lon":5.379026,"is_reserved":false,"is_disabled":false,"rental_uris":{"android":"levelo://app?vid=03229958-a14d-442a-9b2f-1d4ba778acc2","ios":"levelo://app?vid=03229958-a14d-442a-9b2f-1d4ba778acc2"},"vehicle_type_id":"4","last_reported":1691834760,"current_range_meters":31200,"station_id":"ce4bgup2rcd13ifvqcn0","pricing_plan_id":"free"},{"bike_id":"b4d1bf35-b3f2-4a73-8e33-9062f872e477","system_id":"levelo_inurba_marseille","lat":43.304606,"lon":5.379026,"is_reserved":false,"is_disabled":false,"rental_uris":{"android":"levelo://app?vid=b4d1bf35-b3f2-4a73-8e33-9062f872e477","ios":"levelo://app?vid=b4d1bf35-b3f2-4a73-8e33-9062f872e477"},"vehicle_type_id":"4","last_reported":1691834760,"current_range_meters":31200,"station_id":"ce4bgup2rcd13ifvqcn0","pricing_plan_id":"free"},{"bike_id":"29d67348-b13a-4ca5-b542-f76727b796fb","system_id":"levelo_inurba_marseille","lat":43.304606,"lon":5.379026,"is_reserved":false,"is_disabled":false,"rental_uris":{"android":"levelo://app?vid=29d67348-b13a-4ca5-b542-f76727b796fb","ios":"levelo://app?vid=29d67348-b13a-4ca5-b542-f76727b796fb"},"vehicle_type_id":"4","last_reported":1691834760,"current_range_meters":16400,"station_id":"ce4bgup2rcd13ifvqcn0","pricing_plan_id":"free"},{"bike_id":"e29f893a-52db-41c4-8da7-69685ef4120f","system_id":"levelo_inurba_marseille","lat":43.30459,"lon":5.37893,"is_reserved":false,"is_disabled":false,"rental_uris":{"android":"levelo://app?vid=e29f893a-52db-41c4-8da7-69685ef4120f","ios":"levelo://app?vid=e29f893a-52db-41c4-8da7-69685ef4120f"},"vehicle_type_id":"4","last_reported":1691834760,"current_range_meters":2400,"station_id":"ce4bgup2rcd13ifvqcn0","pricing_plan_id":"free"},{"bike_id":"c8e01ff3-3b8b-424a-8dc4-2bf8b873aefc","system_id":"levelo_inurba_marseille","lat":43.304606,"lon":5.379026,"is_reserved":false,"is_disabled":false,"rental_uris":{"android":"levelo://app?vid=c8e01ff3-3b8b-424a-8dc4-2bf8b873aefc","ios":"levelo://app?vid=c8e01ff3-3b8b-424a-8dc4-2bf8b873aefc"},"vehicle_type_id":"4","last_reported":1691834760,"current_range_meters":21200,"station_id":"ce4bgup2rcd13ifvqcn0","pricing_plan_id":"free"},{"bike_id":"df91a560-676a-40f8-aab2-d819b9923d52","system_id":"levelo_inurba_marseille","lat":43.304606,"lon":5.379026,"is_reserved":false,"is_disabled":false,"rental_uris":{"android":"levelo://app?vid=df91a560-676a-40f8-aab2-d819b9923d52","ios":"levelo://app?vid=df91a560-676a-40f8-aab2-d819b9923d52"},"vehicle_type_id":"4","last_reported":1691834760,"current_range_meters":14000,"station_id":"ce4bgup2rcd13ifvqcn0","pricing_plan_id":"free"},{"bike_id":"793886b7-01ba-47fc-923b-ebd0723639af","system_id":"levelo_inurba_marseille","lat":43.3046,"lon":5.37897,"is_reserved":false,"is_disabled":false,"rental_uris":{"android":"levelo://app?vid=793886b7-01ba-47fc-923b-ebd0723639af","ios":"levelo://app?vid=793886b7-01ba-47fc-923b-ebd0723639af"},"vehicle_type_id":"4","last_reported":1691834760,"current_range_meters":25200,"station_id":"ce4bgup2rcd13ifvqcn0","pricing_plan_id":"free"},{"bike_id":"5bfd66a1-434f-4991-bb7b-33570387ae5d","system_id":"levelo_inurba_marseille","lat":43.30462,"lon":5.37901,"is_reserved":false,"is_disabled":false,"rental_uris":{"android":"levelo://app?vid=5bfd66a1-434f-4991-bb7b-33570387ae5d","ios":"levelo://app?vid=5bfd66a1-434f-4991-bb7b-33570387ae5d"},"vehicle_type_id":"4","last_reported":1691834760,"current_range_meters":4400,"station_id":"ce4bgup2rcd13ifvqcn0","pricing_plan_id":"free"},{"bike_id":"85f7a35a-6638-4a88-993d-c970152844a0","system_id":"levelo_inurba_marseille","lat":43.304606,"lon":5.379026,"is_reserved":false,"is_disabled":false,"rental_uris":{"android":"levelo://app?vid=85f7a35a-6638-4a88-993d-c970152844a0","ios":"levelo://app?vid=85f7a35a-6638-4a88-993d-c970152844a0"},"vehicle_type_id":"4","last_reported":1691834760,"current_range_meters":31200,"station_id":"ce4bgup2rcd13ifvqcn0","pricing_plan_id":"free"},{"bike_id":"dc3d6251-6ff6-4685-9ab0-14dac1b63176","system_id":"levelo_inurba_marseille","lat":43.304606,"lon":5.379026,"is_reserved":false,"is_disabled":false,"rental_uris":{"android":"levelo://app?vid=dc3d6251-6ff6-4685-9ab0-14dac1b63176","ios":"levelo://app?vid=dc3d6251-6ff6-4685-9ab0-14dac1b63176"},"vehicle_type_id":"4","last_reported":1691834760,"current_range_meters":22000,"station_id":"ce4bgup2rcd13ifvqcn0","pricing_plan_id":"free"},{"bike_id":"5d72280b-d210-4399-856b-9186c2399480","system_id":"levelo_inurba_marseille","lat":43.304606,"lon":5.379026,"is_reserved":false,"is_disabled":false,"rental_uris":{"android":"levelo://app?vid=5d72280b-d210-4399-856b-9186c2399480","ios":"levelo://app?vid=5d72280b-d210-4399-856b-9186c2399480"},"vehicle_type_id":"4","last_reported":1691834760,"current_range_meters":31600,"station_id":"ce4bgup2rcd13ifvqcn0","pricing_plan_id":"free"},{"bike_id":"eda2dd1e-5c86-4c13-8bde-d850e92c2108","system_id":"levelo_inurba_marseille","lat":43.30292,"lon":5.3771,"is_reserved":false,"is_disabled":false,"rental_uris":{"android":"levelo://app?vid=eda2dd1e-5c86-4c13-8bde-d850e92c2108","ios":"levelo://app?vid=eda2dd1e-5c86-4c13-8bde-d850e92c2108"},"vehicle_type_id":"4","last_reported":1691834760,"current_range_meters":27600,"station_id":"ce4bguh2rcd13ifvqcj0","pricing_plan_id":"free"},{"bike_id":"282d0186-0476-4007-9ca3-7b1d69d0afdb","system_id":"levelo_inurba_marseille","lat":43.302784,"lon":5.377158,"is_reserved":false,"is_disabled":false,"rental_uris":{"android":"levelo://app?vid=282d0186-0476-4007-9ca3-7b1d69d0afdb","ios":"levelo://app?vid=282d0186-0476-4007-9ca3-7b1d69d0afdb"},"vehicle_type_id":"4","last_reported":1691834760,"current_range_meters":31200,"station_id":"ce4bguh2rcd13ifvqcj0","pricing_plan_id":"free"},{"bike_id":"ca47b605-71ef-45b7-8a77-eef69c7a450b","system_id":"levelo_inurba_marseille","lat":43.30143,"lon":5.37409,"is_reserved":false,"is_disabled":false,"rental_uris":{"android":"levelo://app?vid=ca47b605-71ef-45b7-8a77-eef69c7a450b","ios":"levelo://app?vid=ca47b605-71ef-45b7-8a77-eef69c7a450b"},"vehicle_type_id":"4","last_reported":1691834760,"current_range_meters":25200,"station_id":"ce4bgs92rcd13ifvqcc0","pricing_plan_id":"free"},{"bike_id":"6735dfb7-cc01-42e9-bfe7-7befdd45bcb4","system_id":"levelo_inurba_marseille","lat":43.30144,"lon":5.3742,"is_reserved":false,"is_disabled":false,"rental_uris":{"android":"levelo://app?vid=6735dfb7-cc01-42e9-bfe7-7befdd45bcb4","ios":"levelo://app?vid=6735dfb7-cc01-42e9-bfe7-7befdd45bcb4"},"vehicle_type_id":"4","last_reported":1691834760,"current_range_meters":1600,"station_id":"ce4bgs92rcd13ifvqcc0","pricing_plan_id":"free"},{"bike_id":"bad9f1d5-222b-4ff0-a768-b2ef57f2fb9a","system_id":"levelo_inurba_marseille","lat":43.32005,"lon":5.3815,"is_reserved":false,"is_disabled":false,"rental_uris":{"android":"levelo://app?vid=bad9f1d5-222b-4ff0-a768-b2ef57f2fb9a","ios":"levelo://app?vid=bad9f1d5-222b-4ff0-a768-b2ef57f2fb9a"},"vehicle_type_id":"4","last_reported":1691834760,"current_range_meters":19600,"station_id":"ce4bhr12rcd13ifvqhpg","pricing_plan_id":"free"},{"bike_id":"31193e66-6e33-4d02-a592-8d4149fa2dab","system_id":"levelo_inurba_marseille","lat":43.313571,"lon":5.384829,"is_reserved":false,"is_disabled":false,"rental_uris":{"android":"levelo://app?vid=31193e66-6e33-4d02-a592-8d4149fa2dab","ios":"levelo://app?vid=31193e66-6e33-4d02-a592-8d4149fa2dab"},"vehicle_type_id":"4","last_reported":1691834760,"current_range_meters":28000,"station_id":"ce4bgt92rcd13ifvqcf0","pricing_plan_id":"free"},{"bike_id":"896550dc-fc0c-4711-818a-9ddb124472ac","system_id":"levelo_inurba_marseille","lat":43.299724,"lon":5.371829,"is_reserved":false,"is_disabled":false,"rental_uris":{"android":"levelo://app?vid=896550dc-fc0c-4711-818a-9ddb124472ac","ios":"levelo://app?vid=896550dc-fc0c-4711-818a-9ddb124472ac"},"vehicle_type_id":"4","last_reported":1691834760,"current_range_meters":10400,"station_id":"ce4bgr92rcd13ifvqc7g","pricing_plan_id":"free"},{"bike_id":"142f339a-5750-47e3-93ca-fd17a9f0522e","system_id":"levelo_inurba_marseille","lat":43.299724,"lon":5.371829,"is_reserved":false,"is_disabled":false,"rental_uris":{"android":"levelo://app?vid=142f339a-5750-47e3-93ca-fd17a9f0522e","ios":"levelo://app?vid=142f339a-5750-47e3-93ca-fd17a9f0522e"},"vehicle_type_id":"4","last_reported":1691834760,"current_range_meters":25600,"station_id":"ce4bgr92rcd13ifvqc7g","pricing_plan_id":"free"},{"bike_id":"7e9890c0-e930-4db7-bbfb-3d58db9895f0","system_id":"levelo_inurba_marseille","lat":43.29854,"lon":5.36284,"is_reserved":false,"is_disabled":false,"rental_uris":{"android":"levelo://app?vid=7e9890c0-e930-4db7-bbfb-3d58db9895f0","ios":"levelo://app?vid=7e9890c0-e930-4db7-bbfb-3d58db9895f0"},"vehicle_type_id":"4","last_reported":1691834760,"current_range_meters":31200,"station_id":"ce4bgpp2rcd13ifvqc3g","pricing_plan_id":"free"},{"bike_id":"4d5c778e-6afb-49c8-90aa-5054c1d4e479","system_id":"levelo_inurba_marseille","lat":43.298433,"lon":5.362774,"is_reserved":false,"is_disabled":false,"rental_uris":{"android":"levelo://app?vid=4d5c778e-6afb-49c8-90aa-5054c1d4e479","ios":"levelo://app?vid=4d5c778e-6afb-49c8-90aa-5054c1d4e479"},"vehicle_type_id":"4","last_reported":1691834760,"current_range_meters":29600,"station_id":"ce4bgpp2rcd13ifvqc3g","pricing_plan_id":"free"},{"bike_id":"2b6cb501-1c89-41fe-8915-52e49eb76f94","system_id":"levelo_inurba_marseille","lat":43.298433,"lon":5.362774,"is_reserved":false,"is_disabled":false,"rental_uris":{"android":"levelo://app?vid=2b6cb501-1c89-41fe-8915-52e49eb76f94","ios":"levelo://app?vid=2b6cb501-1c89-41fe-8915-52e49eb76f94"},"vehicle_type_id":"4","last_reported":1691834760,"current_range_meters":29200,"station_id":"ce4bgpp2rcd13ifvqc3g","pricing_plan_id":"free"},{"bike_id":"b7d39246-b743-4518-b097-6b72b6faf110","system_id":"levelo_inurba_marseille","lat":43.30539,"lon":5.38424,"is_reserved":false,"is_disabled":false,"rental_uris":{"android":"levelo://app?vid=b7d39246-b743-4518-b097-6b72b6faf110","ios":"levelo://app?vid=b7d39246-b743-4518-b097-6b72b6faf110"},"vehicle_type_id":"4","last_reported":1691834760,"current_range_meters":31200,"station_id":"ce4bgg92rcd13ifvqb30","pricing_plan_id":"free"},{"bike_id":"d87b9260-8bdc-4779-b3e9-cf3efa38c5fe","system_id":"levelo_inurba_marseille","lat":43.298433,"lon":5.362774,"is_reserved":false,"is_disabled":false,"rental_uris":{"android":"levelo://app?vid=d87b9260-8bdc-4779-b3e9-cf3efa38c5fe","ios":"levelo://app?vid=d87b9260-8bdc-4779-b3e9-cf3efa38c5fe"},"vehicle_type_id":"4","last_reported":1691834760,"current_range_meters":25600,"station_id":"ce4bgpp2rcd13ifvqc3g","pricing_plan_id":"free"},{"bike_id":"1e60f7e9-9e3e-46c8-b2cf-87769b8d3947","system_id":"levelo_inurba_marseille","lat":43.30536,"lon":5.38422,"is_reserved":false,"is_disabled":false,"rental_uris":{"android":"levelo://app?vid=1e60f7e9-9e3e-46c8-b2cf-87769b8d3947","ios":"levelo://app?vid=1e60f7e9-9e3e-46c8-b2cf-87769b8d3947"},"vehicle_type_id":"4","last_reported":1691834760,"current_range_meters":31200,"station_id":"ce4bgg92rcd13ifvqb30","pricing_plan_id":"free"},{"bike_id":"871d8120-0a9a-44a7-988c-3e5e96eb14c3","system_id":"levelo_inurba_marseille","lat":43.298433,"lon":5.362774,"is_reserved":false,"is_disabled":false,"rental_uris":{"android":"levelo://app?vid=871d8120-0a9a-44a7-988c-3e5e96eb14c3","ios":"levelo://app?vid=871d8120-0a9a-44a7-988c-3e5e96eb14c3"},"vehicle_type_id":"4","last_reported":1691834760,"current_range_meters":13200,"station_id":"ce4bgpp2rcd13ifvqc3g","pricing_plan_id":"free"},{"bike_id":"8ad6fd8c-2fae-4e80-bc79-b5c4f5712763","system_id":"levelo_inurba_marseille","lat":43.298433,"lon":5.362774,"is_reserved":false,"is_disabled":false,"rental_uris":{"android":"levelo://app?vid=8ad6fd8c-2fae-4e80-bc79-b5c4f5712763","ios":"levelo://app?vid=8ad6fd8c-2fae-4e80-bc79-b5c4f5712763"},"vehicle_type_id":"4","last_reported":1691834760,"current_range_meters":12000,"station_id":"ce4bgpp2rcd13ifvqc3g","pricing_plan_id":"free"},{"bike_id":"66582868-578c-44b1-a460-f15ce7c402d6","system_id":"levelo_inurba_marseille","lat":43.298433,"lon":5.362774,"is_reserved":false,"is_disabled":false,"rental_uris":{"android":"levelo://app?vid=66582868-578c-44b1-a460-f15ce7c402d6","ios":"levelo://app?vid=66582868-578c-44b1-a460-f15ce7c402d6"},"vehicle_type_id":"4","last_reported":1691834760,"current_range_meters":20400,"station_id":"ce4bgpp2rcd13ifvqc3g","pricing_plan_id":"free"},{"bike_id":"909c2aec-0a45-4d23-96ba-aa1231051069","system_id":"levelo_inurba_marseille","lat":43.298433,"lon":5.362774,"is_reserved":false,"is_disabled":false,"rental_uris":{"android":"levelo://app?vid=909c2aec-0a45-4d23-96ba-aa1231051069","ios":"levelo://app?vid=909c2aec-0a45-4d23-96ba-aa1231051069"},"vehicle_type_id":"4","last_reported":1691834760,"current_range_meters":32000,"station_id":"ce4bgpp2rcd13ifvqc3g","pricing_plan_id":"free"},{"bike_id":"1a8767a6-ec5a-4bd4-a875-a0f6b6966795","system_id":"levelo_inurba_marseille","lat":43.299243,"lon":5.37481,"is_reserved":false,"is_disabled":false,"rental_uris":{"android":"levelo://app?vid=1a8767a6-ec5a-4bd4-a875-a0f6b6966795","ios":"levelo://app?vid=1a8767a6-ec5a-4bd4-a875-a0f6b6966795"},"vehicle_type_id":"4","last_reported":1691834760,"current_range_meters":29200,"station_id":"ce4bgjh2rcd13ifvqbg0","pricing_plan_id":"free"},{"bike_id":"a51337fa-1479-447f-8281-2eee00f3a90f","system_id":"levelo_inurba_marseille","lat":43.297774,"lon":5.370875,"is_reserved":false,"is_disabled":false,"rental_uris":{"android":"levelo://app?vid=a51337fa-1479-447f-8281-2eee00f3a90f","ios":"levelo://app?vid=a51337fa-1479-447f-8281-2eee00f3a90f"},"vehicle_type_id":"4","last_reported":1691834760,"current_range_meters":15600,"station_id":"ce4bgop2rcd13ifvqc1g","pricing_plan_id":"free"},{"bike_id":"32fdeb1c-cbf2-430f-be2c-7619cbf565a2","system_id":"levelo_inurba_marseille","lat":43.297774,"lon":5.370875,"is_reserved":false,"is_disabled":false,"rental_uris":{"android":"levelo://app?vid=32fdeb1c-cbf2-430f-be2c-7619cbf565a2","ios":"levelo://app?vid=32fdeb1c-cbf2-430f-be2c-7619cbf565a2"},"vehicle_type_id":"4","last_reported":1691834760,"current_range_meters":20000,"station_id":"ce4bgop2rcd13ifvqc1g","pricing_plan_id":"free"},{"bike_id":"bf4471b4-3dbc-4a36-a42b-f59b719ff505","system_id":"levelo_inurba_marseille","lat":43.297774,"lon":5.370875,"is_reserved":false,"is_disabled":false,"rental_uris":{"android":"levelo://app?vid=bf4471b4-3dbc-4a36-a42b-f59b719ff505","ios":"levelo://app?vid=bf4471b4-3dbc-4a36-a42b-f59b719ff505"},"vehicle_type_id":"4","last_reported":1691834760,"current_range_meters":26000,"station_id":"ce4bgop2rcd13ifvqc1g","pricing_plan_id":"free"},{"bike_id":"2d8b582c-257e-499a-bf47-d8a138636f8d","system_id":"levelo_inurba_marseille","lat":43.297774,"lon":5.370875,"is_reserved":false,"is_disabled":false,"rental_uris":{"android":"levelo://app?vid=2d8b582c-257e-499a-bf47-d8a138636f8d","ios":"levelo://app?vid=2d8b582c-257e-499a-bf47-d8a138636f8d"},"vehicle_type_id":"4","last_reported":1691834760,"current_range_meters":28400,"station_id":"ce4bgop2rcd13ifvqc1g","pricing_plan_id":"free"},{"bike_id":"026ee3db-f828-4ad6-9e78-43e60a812318","system_id":"levelo_inurba_marseille","lat":43.3229,"lon":5.3826,"is_reserved":false,"is_disabled":false,"rental_uris":{"android":"levelo://app?vid=026ee3db-f828-4ad6-9e78-43e60a812318","ios":"levelo://app?vid=026ee3db-f828-4ad6-9e78-43e60a812318"},"vehicle_type_id":"4","last_reported":1691834760,"current_range_meters":20800,"station_id":"ce4bhr12rcd13ifvqhqg","pricing_plan_id":"free"},{"bike_id":"a32015ea-8bc2-4329-b675-b279adc579fa","system_id":"levelo_inurba_marseille","lat":43.297774,"lon":5.370875,"is_reserved":false,"is_disabled":false,"rental_uris":{"android":"levelo://app?vid=a32015ea-8bc2-4329-b675-b279adc579fa","ios":"levelo://app?vid=a32015ea-8bc2-4329-b675-b279adc579fa"},"vehicle_type_id":"4","last_reported":1691834760,"current_range_meters":27200,"station_id":"ce4bgop2rcd13ifvqc1g","pricing_plan_id":"free"},{"bike_id":"daf1c66e-67e4-446b-ab69-51ad2a5f2181","system_id":"levelo_inurba_marseille","lat":43.32291,"lon":5.38262,"is_reserved":false,"is_disabled":false,"rental_uris":{"android":"levelo://app?vid=daf1c66e-67e4-446b-ab69-51ad2a5f2181","ios":"levelo://app?vid=daf1c66e-67e4-446b-ab69-51ad2a5f2181"},"vehicle_type_id":"4","last_reported":1691834760,"current_range_meters":27200,"station_id":"ce4bhr12rcd13ifvqhqg","pricing_plan_id":"free"},{"bike_id":"34544adb-53d3-44b1-86f1-bb8bc7dbf546","system_id":"levelo_inurba_marseille","lat":43.32291,"lon":5.38265,"is_reserved":false,"is_disabled":false,"rental_uris":{"android":"levelo://app?vid=34544adb-53d3-44b1-86f1-bb8bc7dbf546","ios":"levelo://app?vid=34544adb-53d3-44b1-86f1-bb8bc7dbf546"},"vehicle_type_id":"4","last_reported":1691834760,"current_range_meters":25600,"station_id":"ce4bhr12rcd13ifvqhqg","pricing_plan_id":"free"},{"bike_id":"2a877c10-47b3-4336-884b-4186f2d4f096","system_id":"levelo_inurba_marseille","lat":43.32288,"lon":5.38274,"is_reserved":false,"is_disabled":false,"rental_uris":{"android":"levelo://app?vid=2a877c10-47b3-4336-884b-4186f2d4f096","ios":"levelo://app?vid=2a877c10-47b3-4336-884b-4186f2d4f096"},"vehicle_type_id":"4","last_reported":1691834760,"current_range_meters":16000,"station_id":"ce4bhr12rcd13ifvqhqg","pricing_plan_id":"free"},{"bike_id":"2e341b8a-19ca-467a-9062-4e524deac17d","system_id":"levelo_inurba_marseille","lat":43.32288,"lon":5.38274,"is_reserved":false,"is_disabled":false,"rental_uris":{"android":"levelo://app?vid=2e341b8a-19ca-467a-9062-4e524deac17d","ios":"levelo://app?vid=2e341b8a-19ca-467a-9062-4e524deac17d"},"vehicle_type_id":"4","last_reported":1691834760,"current_range_meters":28800,"station_id":"ce4bhr12rcd13ifvqhqg","pricing_plan_id":"free"},{"bike_id":"13ae175a-0609-4f70-9fab-6ba23bad8636","system_id":"levelo_inurba_marseille","lat":43.32294,"lon":5.38269,"is_reserved":false,"is_disabled":false,"rental_uris":{"android":"levelo://app?vid=13ae175a-0609-4f70-9fab-6ba23bad8636","ios":"levelo://app?vid=13ae175a-0609-4f70-9fab-6ba23bad8636"},"vehicle_type_id":"4","last_reported":1691834760,"current_range_meters":23200,"station_id":"ce4bhr12rcd13ifvqhqg","pricing_plan_id":"free"},{"bike_id":"cbdb1e2e-23aa-4305-8e8f-f1f9efca0a4f","system_id":"levelo_inurba_marseille","lat":43.32288,"lon":5.38279,"is_reserved":false,"is_disabled":false,"rental_uris":{"android":"levelo://app?vid=cbdb1e2e-23aa-4305-8e8f-f1f9efca0a4f","ios":"levelo://app?vid=cbdb1e2e-23aa-4305-8e8f-f1f9efca0a4f"},"vehicle_type_id":"4","last_reported":1691834760,"current_range_meters":23600,"station_id":"ce4bhr12rcd13ifvqhqg","pricing_plan_id":"free"},{"bike_id":"3d75ec31-9bc5-447c-81ba-d21539df621f","system_id":"levelo_inurba_marseille","lat":43.3229,"lon":5.38278,"is_reserved":false,"is_disabled":false,"rental_uris":{"android":"levelo://app?vid=3d75ec31-9bc5-447c-81ba-d21539df621f","ios":"levelo://app?vid=3d75ec31-9bc5-447c-81ba-d21539df621f"},"vehicle_type_id":"4","last_reported":1691834760,"current_range_meters":11200,"station_id":"ce4bhr12rcd13ifvqhqg","pricing_plan_id":"free"},{"bike_id":"ccde4fab-a619-4b85-80d1-631ae22c1186","system_id":"levelo_inurba_marseille","lat":43.322872,"lon":5.382756,"is_reserved":false,"is_disabled":false,"rental_uris":{"android":"levelo://app?vid=ccde4fab-a619-4b85-80d1-631ae22c1186","ios":"levelo://app?vid=ccde4fab-a619-4b85-80d1-631ae22c1186"},"vehicle_type_id":"4","last_reported":1691834760,"current_range_meters":19600,"station_id":"ce4bhr12rcd13ifvqhqg","pricing_plan_id":"free"},{"bike_id":"5cef4262-f054-4974-9121-fc3d341ebbb0","system_id":"levelo_inurba_marseille","lat":43.322872,"lon":5.382756,"is_reserved":false,"is_disabled":false,"rental_uris":{"android":"levelo://app?vid=5cef4262-f054-4974-9121-fc3d341ebbb0","ios":"levelo://app?vid=5cef4262-f054-4974-9121-fc3d341ebbb0"},"vehicle_type_id":"4","last_reported":1691834760,"current_range_meters":14000,"station_id":"ce4bhr12rcd13ifvqhqg","pricing_plan_id":"free"},{"bike_id":"1b203c54-0be7-49b8-a54f-17ca79a8f7f4","system_id":"levelo_inurba_marseille","lat":43.32295,"lon":5.38275,"is_reserved":false,"is_disabled":false,"rental_uris":{"android":"levelo://app?vid=1b203c54-0be7-49b8-a54f-17ca79a8f7f4","ios":"levelo://app?vid=1b203c54-0be7-49b8-a54f-17ca79a8f7f4"},"vehicle_type_id":"4","last_reported":1691834760,"current_range_meters":21600,"station_id":"ce4bhr12rcd13ifvqhqg","pricing_plan_id":"free"},{"bike_id":"63b63e6c-c5a9-49f5-8d21-3106e36d3542","system_id":"levelo_inurba_marseille","lat":43.32292,"lon":5.38279,"is_reserved":false,"is_disabled":false,"rental_uris":{"android":"levelo://app?vid=63b63e6c-c5a9-49f5-8d21-3106e36d3542","ios":"levelo://app?vid=63b63e6c-c5a9-49f5-8d21-3106e36d3542"},"vehicle_type_id":"4","last_reported":1691834760,"current_range_meters":26400,"station_id":"ce4bhr12rcd13ifvqhqg","pricing_plan_id":"free"},{"bike_id":"4c0051b2-93b8-4cc5-a80a-2595421ac1f5","system_id":"levelo_inurba_marseille","lat":43.322872,"lon":5.382756,"is_reserved":false,"is_disabled":false,"rental_uris":{"android":"levelo://app?vid=4c0051b2-93b8-4cc5-a80a-2595421ac1f5","ios":"levelo://app?vid=4c0051b2-93b8-4cc5-a80a-2595421ac1f5"},"vehicle_type_id":"4","last_reported":1691834760,"current_range_meters":26000,"station_id":"ce4bhr12rcd13ifvqhqg","pricing_plan_id":"free"},{"bike_id":"454e4186-321d-4414-91ad-51d1deee69be","system_id":"levelo_inurba_marseille","lat":43.32295,"lon":5.38282,"is_reserved":false,"is_disabled":false,"rental_uris":{"android":"levelo://app?vid=454e4186-321d-4414-91ad-51d1deee69be","ios":"levelo://app?vid=454e4186-321d-4414-91ad-51d1deee69be"},"vehicle_type_id":"4","last_reported":1691834760,"current_range_meters":30000,"station_id":"ce4bhr12rcd13ifvqhqg","pricing_plan_id":"free"},{"bike_id":"bb3e123b-ad14-429c-8e76-1d950844a830","system_id":"levelo_inurba_marseille","lat":43.328371,"lon":5.366909,"is_reserved":false,"is_disabled":false,"rental_uris":{"android":"levelo://app?vid=bb3e123b-ad14-429c-8e76-1d950844a830","ios":"levelo://app?vid=bb3e123b-ad14-429c-8e76-1d950844a830"},"vehicle_type_id":"4","last_reported":1691834760,"current_range_meters":3200,"station_id":"ce4bhs92rcd13ifvqi0g","pricing_plan_id":"free"},{"bike_id":"77b0196d-7bf9-46e0-bc8f-4ca37b8b9fe5","system_id":"levelo_inurba_marseille","lat":43.297163,"lon":5.365866,"is_reserved":false,"is_disabled":false,"rental_uris":{"android":"levelo://app?vid=77b0196d-7bf9-46e0-bc8f-4ca37b8b9fe5","ios":"levelo://app?vid=77b0196d-7bf9-46e0-bc8f-4ca37b8b9fe5"},"vehicle_type_id":"4","last_reported":1691834760,"current_range_meters":22800,"station_id":"ce4bgn12rcd13ifvqbt0","pricing_plan_id":"free"},{"bike_id":"adf5f5b5-dc76-462d-826a-5dc6c289c831","system_id":"levelo_inurba_marseille","lat":43.297163,"lon":5.365866,"is_reserved":false,"is_disabled":false,"rental_uris":{"android":"levelo://app?vid=adf5f5b5-dc76-462d-826a-5dc6c289c831","ios":"levelo://app?vid=adf5f5b5-dc76-462d-826a-5dc6c289c831"},"vehicle_type_id":"4","last_reported":1691834760,"current_range_meters":27600,"station_id":"ce4bgn12rcd13ifvqbt0","pricing_plan_id":"free"},{"bike_id":"a493960b-60ec-4462-ab2e-61a3b7e03e0b","system_id":"levelo_inurba_marseille","lat":43.297163,"lon":5.365866,"is_reserved":false,"is_disabled":false,"rental_uris":{"android":"levelo://app?vid=a493960b-60ec-4462-ab2e-61a3b7e03e0b","ios":"levelo://app?vid=a493960b-60ec-4462-ab2e-61a3b7e03e0b"},"vehicle_type_id":"4","last_reported":1691834760,"current_range_meters":23600,"station_id":"ce4bgn12rcd13ifvqbt0","pricing_plan_id":"free"},{"bike_id":"d64026df-d608-4f97-93ab-b4ea233c50d5","system_id":"levelo_inurba_marseille","lat":43.32834,"lon":5.36673,"is_reserved":false,"is_disabled":false,"rental_uris":{"android":"levelo://app?vid=d64026df-d608-4f97-93ab-b4ea233c50d5","ios":"levelo://app?vid=d64026df-d608-4f97-93ab-b4ea233c50d5"},"vehicle_type_id":"4","last_reported":1691834760,"current_range_meters":14000,"station_id":"ce4bhs92rcd13ifvqi0g","pricing_plan_id":"free"},{"bike_id":"6f09d763-1d24-48e6-a6b3-1ea22cc5af16","system_id":"levelo_inurba_marseille","lat":43.297163,"lon":5.365866,"is_reserved":false,"is_disabled":false,"rental_uris":{"android":"levelo://app?vid=6f09d763-1d24-48e6-a6b3-1ea22cc5af16","ios":"levelo://app?vid=6f09d763-1d24-48e6-a6b3-1ea22cc5af16"},"vehicle_type_id":"4","last_reported":1691834760,"current_range_meters":23600,"station_id":"ce4bgn12rcd13ifvqbt0","pricing_plan_id":"free"},{"bike_id":"4c5c4962-d88d-4f7a-80e6-8df1c7397aa2","system_id":"levelo_inurba_marseille","lat":43.29701,"lon":5.36619,"is_reserved":false,"is_disabled":false,"rental_uris":{"android":"levelo://app?vid=4c5c4962-d88d-4f7a-80e6-8df1c7397aa2","ios":"levelo://app?vid=4c5c4962-d88d-4f7a-80e6-8df1c7397aa2"},"vehicle_type_id":"4","last_reported":1691834760,"current_range_meters":31200,"station_id":"ce4bgn12rcd13ifvqbt0","pricing_plan_id":"free"},{"bike_id":"dd789220-e7b5-42c1-b9dc-dc4243148021","system_id":"levelo_inurba_marseille","lat":43.297163,"lon":5.365866,"is_reserved":false,"is_disabled":false,"rental_uris":{"android":"levelo://app?vid=dd789220-e7b5-42c1-b9dc-dc4243148021","ios":"levelo://app?vid=dd789220-e7b5-42c1-b9dc-dc4243148021"},"vehicle_type_id":"4","last_reported":1691834760,"current_range_meters":31600,"station_id":"ce4bgn12rcd13ifvqbt0","pricing_plan_id":"free"},{"bike_id":"b428ddc8-83c6-453c-b5dd-cb14751b674f","system_id":"levelo_inurba_marseille","lat":43.29693,"lon":5.36953,"is_reserved":false,"is_disabled":false,"rental_uris":{"android":"levelo://app?vid=b428ddc8-83c6-453c-b5dd-cb14751b674f","ios":"levelo://app?vid=b428ddc8-83c6-453c-b5dd-cb14751b674f"},"vehicle_type_id":"4","last_reported":1691834760,"current_range_meters":1600,"station_id":"","pricing_plan_id":"free"},{"bike_id":"4546f8c1-0a9e-45be-b4bd-18c11f686c5c","system_id":"levelo_inurba_marseille","lat":43.29676,"lon":5.36579,"is_reserved":false,"is_disabled":false,"rental_uris":{"android":"levelo://app?vid=4546f8c1-0a9e-45be-b4bd-18c11f686c5c","ios":"levelo://app?vid=4546f8c1-0a9e-45be-b4bd-18c11f686c5c"},"vehicle_type_id":"4","last_reported":1691834760,"current_range_meters":4000,"station_id":"ce4bgn12rcd13ifvqbt0","pricing_plan_id":"free"},{"bike_id":"72f4a5f9-cf1a-4abe-9ece-b33bd5292270","system_id":"levelo_inurba_marseille","lat":43.2968,"lon":5.37291,"is_reserved":false,"is_disabled":false,"rental_uris":{"android":"levelo://app?vid=72f4a5f9-cf1a-4abe-9ece-b33bd5292270","ios":"levelo://app?vid=72f4a5f9-cf1a-4abe-9ece-b33bd5292270"},"vehicle_type_id":"4","last_reported":1691834760,"current_range_meters":22800,"station_id":"ce4bgk12rcd13ifvqbj0","pricing_plan_id":"free"},{"bike_id":"229311ef-fba8-4e89-ae9a-8ef6f7af72ac","system_id":"levelo_inurba_marseille","lat":43.2968,"lon":5.37291,"is_reserved":false,"is_disabled":false,"rental_uris":{"android":"levelo://app?vid=229311ef-fba8-4e89-ae9a-8ef6f7af72ac","ios":"levelo://app?vid=229311ef-fba8-4e89-ae9a-8ef6f7af72ac"},"vehicle_type_id":"4","last_reported":1691834760,"current_range_meters":31200,"station_id":"ce4bgk12rcd13ifvqbj0","pricing_plan_id":"free"},{"bike_id":"6f2fa02b-c871-4260-a8ea-5dd6e35608a8","system_id":"levelo_inurba_marseille","lat":43.2968,"lon":5.37291,"is_reserved":false,"is_disabled":false,"rental_uris":{"android":"levelo://app?vid=6f2fa02b-c871-4260-a8ea-5dd6e35608a8","ios":"levelo://app?vid=6f2fa02b-c871-4260-a8ea-5dd6e35608a8"},"vehicle_type_id":"4","last_reported":1691834760,"current_range_meters":30000,"station_id":"ce4bgk12rcd13ifvqbj0","pricing_plan_id":"free"},{"bike_id":"ec961057-5b4c-463f-84ee-d18ce9d84eaa","system_id":"levelo_inurba_marseille","lat":43.296131,"lon":5.370791,"is_reserved":false,"is_disabled":false,"rental_uris":{"android":"levelo://app?vid=ec961057-5b4c-463f-84ee-d18ce9d84eaa","ios":"levelo://app?vid=ec961057-5b4c-463f-84ee-d18ce9d84eaa"},"vehicle_type_id":"4","last_reported":1691834760,"current_range_meters":31200,"station_id":"ce4bgnh2rcd13ifvqc0g","pricing_plan_id":"free"},{"bike_id":"0ae03b24-3add-48d3-a1e7-72b5689466b2","system_id":"levelo_inurba_marseille","lat":43.29591,"lon":5.3674,"is_reserved":false,"is_disabled":false,"rental_uris":{"android":"levelo://app?vid=0ae03b24-3add-48d3-a1e7-72b5689466b2","ios":"levelo://app?vid=0ae03b24-3add-48d3-a1e7-72b5689466b2"},"vehicle_type_id":"4","last_reported":1691834760,"current_range_meters":30000,"station_id":"ce4bgph2rcd13ifvqc2g","pricing_plan_id":"free"},{"bike_id":"16effb08-ca91-4db4-9a0d-f7bfe32382ee","system_id":"levelo_inurba_marseille","lat":43.296131,"lon":5.370791,"is_reserved":false,"is_disabled":false,"rental_uris":{"android":"levelo://app?vid=16effb08-ca91-4db4-9a0d-f7bfe32382ee","ios":"levelo://app?vid=16effb08-ca91-4db4-9a0d-f7bfe32382ee"},"vehicle_type_id":"4","last_reported":1691834760,"current_range_meters":31200,"station_id":"ce4bgnh2rcd13ifvqc0g","pricing_plan_id":"free"},{"bike_id":"a80a8932-a4e8-4b82-97db-83c345314e73","system_id":"levelo_inurba_marseille","lat":43.29573,"lon":5.367355,"is_reserved":false,"is_disabled":false,"rental_uris":{"android":"levelo://app?vid=a80a8932-a4e8-4b82-97db-83c345314e73","ios":"levelo://app?vid=a80a8932-a4e8-4b82-97db-83c345314e73"},"vehicle_type_id":"4","last_reported":1691834760,"current_range_meters":30000,"station_id":"ce4bgph2rcd13ifvqc2g","pricing_plan_id":"free"},{"bike_id":"66cc9b40-329b-4090-beda-6e957f7c4751","system_id":"levelo_inurba_marseille","lat":43.296131,"lon":5.370791,"is_reserved":false,"is_disabled":false,"rental_uris":{"android":"levelo://app?vid=66cc9b40-329b-4090-beda-6e957f7c4751","ios":"levelo://app?vid=66cc9b40-329b-4090-beda-6e957f7c4751"},"vehicle_type_id":"4","last_reported":1691834760,"current_range_meters":29600,"station_id":"ce4bgnh2rcd13ifvqc0g","pricing_plan_id":"free"},{"bike_id":"2d192db2-2d2d-4464-9b49-1ca5b787c4d0","system_id":"levelo_inurba_marseille","lat":43.296131,"lon":5.370791,"is_reserved":false,"is_disabled":false,"rental_uris":{"android":"levelo://app?vid=2d192db2-2d2d-4464-9b49-1ca5b787c4d0","ios":"levelo://app?vid=2d192db2-2d2d-4464-9b49-1ca5b787c4d0"},"vehicle_type_id":"4","last_reported":1691834760,"current_range_meters":12000,"station_id":"ce4bgnh2rcd13ifvqc0g","pricing_plan_id":"free"},{"bike_id":"721e2df0-27b6-41b1-8789-05ab2c723e3a","system_id":"levelo_inurba_marseille","lat":43.296131,"lon":5.370791,"is_reserved":false,"is_disabled":false,"rental_uris":{"android":"levelo://app?vid=721e2df0-27b6-41b1-8789-05ab2c723e3a","ios":"levelo://app?vid=721e2df0-27b6-41b1-8789-05ab2c723e3a"},"vehicle_type_id":"4","last_reported":1691834760,"current_range_meters":28800,"station_id":"ce4bgnh2rcd13ifvqc0g","pricing_plan_id":"free"},{"bike_id":"dd60348f-7e7c-47ef-ac85-dec8259d457c","system_id":"levelo_inurba_marseille","lat":43.296131,"lon":5.370791,"is_reserved":false,"is_disabled":false,"rental_uris":{"android":"levelo://app?vid=dd60348f-7e7c-47ef-ac85-dec8259d457c","ios":"levelo://app?vid=dd60348f-7e7c-47ef-ac85-dec8259d457c"},"vehicle_type_id":"4","last_reported":1691834760,"current_range_meters":31200,"station_id":"ce4bgnh2rcd13ifvqc0g","pricing_plan_id":"free"},{"bike_id":"c5f507f2-9484-472e-972d-3cdb963cfc17","system_id":"levelo_inurba_marseille","lat":43.29573,"lon":5.367355,"is_reserved":false,"is_disabled":false,"rental_uris":{"android":"levelo://app?vid=c5f507f2-9484-472e-972d-3cdb963cfc17","ios":"levelo://app?vid=c5f507f2-9484-472e-972d-3cdb963cfc17"},"vehicle_type_id":"4","last_reported":1691834760,"current_range_meters":14400,"station_id":"ce4bgph2rcd13ifvqc2g","pricing_plan_id":"free"},{"bike_id":"26df91a9-8d7d-413e-afa2-e33853cc17ca","system_id":"levelo_inurba_marseille","lat":43.29586,"lon":5.36745,"is_reserved":false,"is_disabled":false,"rental_uris":{"android":"levelo://app?vid=26df91a9-8d7d-413e-afa2-e33853cc17ca","ios":"levelo://app?vid=26df91a9-8d7d-413e-afa2-e33853cc17ca"},"vehicle_type_id":"4","last_reported":1691834760,"current_range_meters":30800,"station_id":"ce4bgph2rcd13ifvqc2g","pricing_plan_id":"free"},{"bike_id":"0e9f3cc2-2dfd-462a-b342-d65a669136e6","system_id":"levelo_inurba_marseille","lat":43.29573,"lon":5.367355,"is_reserved":false,"is_disabled":false,"rental_uris":{"android":"levelo://app?vid=0e9f3cc2-2dfd-462a-b342-d65a669136e6","ios":"levelo://app?vid=0e9f3cc2-2dfd-462a-b342-d65a669136e6"},"vehicle_type_id":"4","last_reported":1691834760,"current_range_meters":18400,"station_id":"ce4bgph2rcd13ifvqc2g","pricing_plan_id":"free"},{"bike_id":"20a53af9-9d97-4695-b3ab-944e827b6c56","system_id":"levelo_inurba_marseille","lat":43.29582,"lon":5.36737,"is_reserved":false,"is_disabled":false,"rental_uris":{"android":"levelo://app?vid=20a53af9-9d97-4695-b3ab-944e827b6c56","ios":"levelo://app?vid=20a53af9-9d97-4695-b3ab-944e827b6c56"},"vehicle_type_id":"4","last_reported":1691834760,"current_range_meters":28400,"station_id":"ce4bgph2rcd13ifvqc2g","pricing_plan_id":"free"},{"bike_id":"13757c10-25fc-4971-976e-3c1e1a3272d6","system_id":"levelo_inurba_marseille","lat":43.296921,"lon":5.376579,"is_reserved":false,"is_disabled":false,"rental_uris":{"android":"levelo://app?vid=13757c10-25fc-4971-976e-3c1e1a3272d6","ios":"levelo://app?vid=13757c10-25fc-4971-976e-3c1e1a3272d6"},"vehicle_type_id":"4","last_reported":1691834760,"current_range_meters":13200,"station_id":"ce4bgkh2rcd13ifvqbl0","pricing_plan_id":"free"},{"bike_id":"43c48ab3-98e0-4f88-8576-f8d17353cfe2","system_id":"levelo_inurba_marseille","lat":43.296921,"lon":5.376579,"is_reserved":false,"is_disabled":false,"rental_uris":{"android":"levelo://app?vid=43c48ab3-98e0-4f88-8576-f8d17353cfe2","ios":"levelo://app?vid=43c48ab3-98e0-4f88-8576-f8d17353cfe2"},"vehicle_type_id":"4","last_reported":1691834760,"current_range_meters":29200,"station_id":"ce4bgkh2rcd13ifvqbl0","pricing_plan_id":"free"},{"bike_id":"ce242b92-3d67-46f6-bad1-24458c2fb8e2","system_id":"levelo_inurba_marseille","lat":43.299028,"lon":5.381509,"is_reserved":false,"is_disabled":false,"rental_uris":{"android":"levelo://app?vid=ce242b92-3d67-46f6-bad1-24458c2fb8e2","ios":"levelo://app?vid=ce242b92-3d67-46f6-bad1-24458c2fb8e2"},"vehicle_type_id":"4","last_reported":1691834760,"current_range_meters":25600,"station_id":"ce4bgj12rcd13ifvqbc0","pricing_plan_id":"free"},{"bike_id":"69822f6c-803f-4b06-b861-0df3407f6868","system_id":"levelo_inurba_marseille","lat":43.29655,"lon":5.37485,"is_reserved":false,"is_disabled":false,"rental_uris":{"android":"levelo://app?vid=69822f6c-803f-4b06-b861-0df3407f6868","ios":"levelo://app?vid=69822f6c-803f-4b06-b861-0df3407f6868"},"vehicle_type_id":"4","last_reported":1691834760,"current_range_meters":1600,"station_id":"","pricing_plan_id":"free"},{"bike_id":"1e9034cd-a793-49b2-8dfe-50e581249424","system_id":"levelo_inurba_marseille","lat":43.296921,"lon":5.376579,"is_reserved":false,"is_disabled":false,"rental_uris":{"android":"levelo://app?vid=1e9034cd-a793-49b2-8dfe-50e581249424","ios":"levelo://app?vid=1e9034cd-a793-49b2-8dfe-50e581249424"},"vehicle_type_id":"4","last_reported":1691834760,"current_range_meters":29200,"station_id":"ce4bgkh2rcd13ifvqbl0","pricing_plan_id":"free"},{"bike_id":"b705385e-42d2-40c7-b07d-dd22f7d0f219","system_id":"levelo_inurba_marseille","lat":43.30958,"lon":5.39027,"is_reserved":false,"is_disabled":false,"rental_uris":{"android":"levelo://app?vid=b705385e-42d2-40c7-b07d-dd22f7d0f219","ios":"levelo://app?vid=b705385e-42d2-40c7-b07d-dd22f7d0f219"},"vehicle_type_id":"4","last_reported":1691834760,"current_range_meters":21200,"station_id":"ce4bgup2rcd13ifvqco0","pricing_plan_id":"free"},{"bike_id":"bbcbcac3-9bf3-4bb3-80c6-5731c6b15540","system_id":"levelo_inurba_marseille","lat":43.30956,"lon":5.39039,"is_reserved":false,"is_disabled":false,"rental_uris":{"android":"levelo://app?vid=bbcbcac3-9bf3-4bb3-80c6-5731c6b15540","ios":"levelo://app?vid=bbcbcac3-9bf3-4bb3-80c6-5731c6b15540"},"vehicle_type_id":"4","last_reported":1691834760,"current_range_meters":22800,"station_id":"ce4bgup2rcd13ifvqco0","pricing_plan_id":"free"},{"bike_id":"b71b4e1a-5dd4-4c5a-88e4-d5cfd2dee645","system_id":"levelo_inurba_marseille","lat":43.317557,"lon":5.390173,"is_reserved":false,"is_disabled":false,"rental_uris":{"android":"levelo://app?vid=b71b4e1a-5dd4-4c5a-88e4-d5cfd2dee645","ios":"levelo://app?vid=b71b4e1a-5dd4-4c5a-88e4-d5cfd2dee645"},"vehicle_type_id":"4","last_reported":1691834760,"current_range_meters":31200,"station_id":"ce4bhqp2rcd13ifvqhng","pricing_plan_id":"free"},{"bike_id":"c3bd3e16-8a16-4e4f-aba7-7745abf80012","system_id":"levelo_inurba_marseille","lat":43.317557,"lon":5.390173,"is_reserved":false,"is_disabled":false,"rental_uris":{"android":"levelo://app?vid=c3bd3e16-8a16-4e4f-aba7-7745abf80012","ios":"levelo://app?vid=c3bd3e16-8a16-4e4f-aba7-7745abf80012"},"vehicle_type_id":"4","last_reported":1691834760,"current_range_meters":31200,"station_id":"ce4bhqp2rcd13ifvqhng","pricing_plan_id":"free"},{"bike_id":"46023004-3940-4319-83ac-9851137ce136","system_id":"levelo_inurba_marseille","lat":43.317557,"lon":5.390173,"is_reserved":false,"is_disabled":false,"rental_uris":{"android":"levelo://app?vid=46023004-3940-4319-83ac-9851137ce136","ios":"levelo://app?vid=46023004-3940-4319-83ac-9851137ce136"},"vehicle_type_id":"4","last_reported":1691834760,"current_range_meters":27600,"station_id":"ce4bhqp2rcd13ifvqhng","pricing_plan_id":"free"},{"bike_id":"76ff3b14-d346-4134-b772-5805eda4f7f2","system_id":"levelo_inurba_marseille","lat":43.31756,"lon":5.39024,"is_reserved":false,"is_disabled":false,"rental_uris":{"android":"levelo://app?vid=76ff3b14-d346-4134-b772-5805eda4f7f2","ios":"levelo://app?vid=76ff3b14-d346-4134-b772-5805eda4f7f2"},"vehicle_type_id":"4","last_reported":1691834760,"current_range_meters":28800,"station_id":"ce4bhqp2rcd13ifvqhng","pricing_plan_id":"free"},{"bike_id":"8342d642-f339-4e60-9b79-767ab319c573","system_id":"levelo_inurba_marseille","lat":43.29592,"lon":5.37488,"is_reserved":false,"is_disabled":false,"rental_uris":{"android":"levelo://app?vid=8342d642-f339-4e60-9b79-767ab319c573","ios":"levelo://app?vid=8342d642-f339-4e60-9b79-767ab319c573"},"vehicle_type_id":"4","last_reported":1691834760,"current_range_meters":28000,"station_id":"ce4bgh92rcd13ifvqb50","pricing_plan_id":"free"},{"bike_id":"bc156397-1406-47ef-85bc-96b0c7f8550f","system_id":"levelo_inurba_marseille","lat":43.29799,"lon":5.38078,"is_reserved":false,"is_disabled":false,"rental_uris":{"android":"levelo://app?vid=bc156397-1406-47ef-85bc-96b0c7f8550f","ios":"levelo://app?vid=bc156397-1406-47ef-85bc-96b0c7f8550f"},"vehicle_type_id":"4","last_reported":1691834760,"current_range_meters":22800,"station_id":"ce4bgip2rcd13ifvqbb0","pricing_plan_id":"free"},{"bike_id":"480a1cca-a50d-46be-a1e6-018da545a364","system_id":"levelo_inurba_marseille","lat":43.298037,"lon":5.381066,"is_reserved":false,"is_disabled":false,"rental_uris":{"android":"levelo://app?vid=480a1cca-a50d-46be-a1e6-018da545a364","ios":"levelo://app?vid=480a1cca-a50d-46be-a1e6-018da545a364"},"vehicle_type_id":"4","last_reported":1691834760,"current_range_meters":19200,"station_id":"ce4bgip2rcd13ifvqbb0","pricing_plan_id":"free"},{"bike_id":"39506cac-4155-4eb3-8db7-117e31c40e06","system_id":"levelo_inurba_marseille","lat":43.298037,"lon":5.381066,"is_reserved":false,"is_disabled":false,"rental_uris":{"android":"levelo://app?vid=39506cac-4155-4eb3-8db7-117e31c40e06","ios":"levelo://app?vid=39506cac-4155-4eb3-8db7-117e31c40e06"},"vehicle_type_id":"4","last_reported":1691834760,"current_range_meters":18800,"station_id":"ce4bgip2rcd13ifvqbb0","pricing_plan_id":"free"},{"bike_id":"78830115-cbb6-4580-91d5-e009fac90f03","system_id":"levelo_inurba_marseille","lat":43.295748,"lon":5.37522,"is_reserved":false,"is_disabled":false,"rental_uris":{"android":"levelo://app?vid=78830115-cbb6-4580-91d5-e009fac90f03","ios":"levelo://app?vid=78830115-cbb6-4580-91d5-e009fac90f03"},"vehicle_type_id":"4","last_reported":1691834760,"current_range_meters":26000,"station_id":"ce4bgh92rcd13ifvqb50","pricing_plan_id":"free"},{"bike_id":"d0904dbb-81f3-4b48-bcdf-9fcb7a49efb0","system_id":"levelo_inurba_marseille","lat":43.298037,"lon":5.381066,"is_reserved":false,"is_disabled":false,"rental_uris":{"android":"levelo://app?vid=d0904dbb-81f3-4b48-bcdf-9fcb7a49efb0","ios":"levelo://app?vid=d0904dbb-81f3-4b48-bcdf-9fcb7a49efb0"},"vehicle_type_id":"4","last_reported":1691834760,"current_range_meters":24400,"station_id":"ce4bgip2rcd13ifvqbb0","pricing_plan_id":"free"},{"bike_id":"fb838682-0cd1-4178-a41b-87650e1e56fc","system_id":"levelo_inurba_marseille","lat":43.295748,"lon":5.37522,"is_reserved":false,"is_disabled":false,"rental_uris":{"android":"levelo://app?vid=fb838682-0cd1-4178-a41b-87650e1e56fc","ios":"levelo://app?vid=fb838682-0cd1-4178-a41b-87650e1e56fc"},"vehicle_type_id":"4","last_reported":1691834760,"current_range_meters":31200,"station_id":"ce4bgh92rcd13ifvqb50","pricing_plan_id":"free"},{"bike_id":"c3b2bb8a-e64f-46b8-b911-351801634490","system_id":"levelo_inurba_marseille","lat":43.297913,"lon":5.380926,"is_reserved":false,"is_disabled":false,"rental_uris":{"android":"levelo://app?vid=c3b2bb8a-e64f-46b8-b911-351801634490","ios":"levelo://app?vid=c3b2bb8a-e64f-46b8-b911-351801634490"},"vehicle_type_id":"4","last_reported":1691834760,"current_range_meters":24000,"station_id":"ce4bgip2rcd13ifvqbb0","pricing_plan_id":"free"},{"bike_id":"4650a009-7c06-4b39-a33c-77d55e298c9c","system_id":"levelo_inurba_marseille","lat":43.295748,"lon":5.37522,"is_reserved":false,"is_disabled":false,"rental_uris":{"android":"levelo://app?vid=4650a009-7c06-4b39-a33c-77d55e298c9c","ios":"levelo://app?vid=4650a009-7c06-4b39-a33c-77d55e298c9c"},"vehicle_type_id":"4","last_reported":1691834760,"current_range_meters":2800,"station_id":"ce4bgh92rcd13ifvqb50","pricing_plan_id":"free"},{"bike_id":"ab62bb22-f17d-45b7-9562-49eb38d10431","system_id":"levelo_inurba_marseille","lat":43.29571,"lon":5.37525,"is_reserved":false,"is_disabled":false,"rental_uris":{"android":"levelo://app?vid=ab62bb22-f17d-45b7-9562-49eb38d10431","ios":"levelo://app?vid=ab62bb22-f17d-45b7-9562-49eb38d10431"},"vehicle_type_id":"4","last_reported":1691834760,"current_range_meters":23200,"station_id":"ce4bgh92rcd13ifvqb50","pricing_plan_id":"free"},{"bike_id":"a1c3a2b7-2c65-48df-9871-194368977047","system_id":"levelo_inurba_marseille","lat":43.295748,"lon":5.37522,"is_reserved":false,"is_disabled":false,"rental_uris":{"android":"levelo://app?vid=a1c3a2b7-2c65-48df-9871-194368977047","ios":"levelo://app?vid=a1c3a2b7-2c65-48df-9871-194368977047"},"vehicle_type_id":"4","last_reported":1691834760,"current_range_meters":28000,"station_id":"ce4bgh92rcd13ifvqb50","pricing_plan_id":"free"},{"bike_id":"45d2bb2d-94d5-480c-a24d-bbfe5c38dd1a","system_id":"levelo_inurba_marseille","lat":43.29625,"lon":5.37713,"is_reserved":false,"is_disabled":false,"rental_uris":{"android":"levelo://app?vid=45d2bb2d-94d5-480c-a24d-bbfe5c38dd1a","ios":"levelo://app?vid=45d2bb2d-94d5-480c-a24d-bbfe5c38dd1a"},"vehicle_type_id":"4","last_reported":1691834760,"current_range_meters":16400,"station_id":"ce4bgi92rcd13ifvqb90","pricing_plan_id":"free"},{"bike_id":"bdb6bdc5-f70a-4998-ae8d-f131bd639dfc","system_id":"levelo_inurba_marseille","lat":43.304278,"lon":5.388868,"is_reserved":false,"is_disabled":false,"rental_uris":{"android":"levelo://app?vid=bdb6bdc5-f70a-4998-ae8d-f131bd639dfc","ios":"levelo://app?vid=bdb6bdc5-f70a-4998-ae8d-f131bd639dfc"},"vehicle_type_id":"4","last_reported":1691834760,"current_range_meters":28400,"station_id":"ce4bgk12rcd13ifvqbi0","pricing_plan_id":"free"},{"bike_id":"67b3a264-f627-46d2-a4bc-47c7f40d0c41","system_id":"levelo_inurba_marseille","lat":43.295748,"lon":5.37522,"is_reserved":false,"is_disabled":false,"rental_uris":{"android":"levelo://app?vid=67b3a264-f627-46d2-a4bc-47c7f40d0c41","ios":"levelo://app?vid=67b3a264-f627-46d2-a4bc-47c7f40d0c41"},"vehicle_type_id":"4","last_reported":1691834760,"current_range_meters":28800,"station_id":"ce4bgh92rcd13ifvqb50","pricing_plan_id":"free"},{"bike_id":"fa2b2935-1fb2-4679-ae9b-6c6ff9b64cf4","system_id":"levelo_inurba_marseille","lat":43.295748,"lon":5.37522,"is_reserved":false,"is_disabled":false,"rental_uris":{"android":"levelo://app?vid=fa2b2935-1fb2-4679-ae9b-6c6ff9b64cf4","ios":"levelo://app?vid=fa2b2935-1fb2-4679-ae9b-6c6ff9b64cf4"},"vehicle_type_id":"4","last_reported":1691834760,"current_range_meters":20800,"station_id":"ce4bgh92rcd13ifvqb50","pricing_plan_id":"free"},{"bike_id":"a4df99ce-0488-49dd-a888-94686f562e88","system_id":"levelo_inurba_marseille","lat":43.295748,"lon":5.37522,"is_reserved":false,"is_disabled":false,"rental_uris":{"android":"levelo://app?vid=a4df99ce-0488-49dd-a888-94686f562e88","ios":"levelo://app?vid=a4df99ce-0488-49dd-a888-94686f562e88"},"vehicle_type_id":"4","last_reported":1691834760,"current_range_meters":30000,"station_id":"ce4bgh92rcd13ifvqb50","pricing_plan_id":"free"},{"bike_id":"04bbfdf9-dd75-4c6a-80d4-e63a16884035","system_id":"levelo_inurba_marseille","lat":43.29621,"lon":5.37731,"is_reserved":false,"is_disabled":false,"rental_uris":{"android":"levelo://app?vid=04bbfdf9-dd75-4c6a-80d4-e63a16884035","ios":"levelo://app?vid=04bbfdf9-dd75-4c6a-80d4-e63a16884035"},"vehicle_type_id":"4","last_reported":1691834760,"current_range_meters":31200,"station_id":"ce4bgi92rcd13ifvqb90","pricing_plan_id":"free"},{"bike_id":"d547ec9c-01fa-40a1-a318-14820819472e","system_id":"levelo_inurba_marseille","lat":43.29615,"lon":5.37721,"is_reserved":false,"is_disabled":false,"rental_uris":{"android":"levelo://app?vid=d547ec9c-01fa-40a1-a318-14820819472e","ios":"levelo://app?vid=d547ec9c-01fa-40a1-a318-14820819472e"},"vehicle_type_id":"4","last_reported":1691834760,"current_range_meters":22400,"station_id":"ce4bgi92rcd13ifvqb90","pricing_plan_id":"free"},{"bike_id":"267b53d2-c45b-493f-98c9-0d46b5dce284","system_id":"levelo_inurba_marseille","lat":43.295279,"lon":5.375048,"is_reserved":false,"is_disabled":false,"rental_uris":{"android":"levelo://app?vid=267b53d2-c45b-493f-98c9-0d46b5dce284","ios":"levelo://app?vid=267b53d2-c45b-493f-98c9-0d46b5dce284"},"vehicle_type_id":"4","last_reported":1691834760,"current_range_meters":31200,"station_id":"ce4bgkp2rcd13ifvqbmg","pricing_plan_id":"free"},{"bike_id":"eb404aba-2cb8-4eda-8ad4-fc8e3a81e550","system_id":"levelo_inurba_marseille","lat":43.295279,"lon":5.375048,"is_reserved":false,"is_disabled":false,"rental_uris":{"android":"levelo://app?vid=eb404aba-2cb8-4eda-8ad4-fc8e3a81e550","ios":"levelo://app?vid=eb404aba-2cb8-4eda-8ad4-fc8e3a81e550"},"vehicle_type_id":"4","last_reported":1691834760,"current_range_meters":31200,"station_id":"ce4bgkp2rcd13ifvqbmg","pricing_plan_id":"free"},{"bike_id":"27f3ec1d-b490-4521-8f21-6041131e6fb4","system_id":"levelo_inurba_marseille","lat":43.29528,"lon":5.37489,"is_reserved":false,"is_disabled":false,"rental_uris":{"android":"levelo://app?vid=27f3ec1d-b490-4521-8f21-6041131e6fb4","ios":"levelo://app?vid=27f3ec1d-b490-4521-8f21-6041131e6fb4"},"vehicle_type_id":"4","last_reported":1691834760,"current_range_meters":0,"station_id":"ce4bgkp2rcd13ifvqbmg","pricing_plan_id":"free"},{"bike_id":"0164ba9c-e791-455f-842f-2a7544c1fe08","system_id":"levelo_inurba_marseille","lat":43.29527,"lon":5.37494,"is_reserved":false,"is_disabled":false,"rental_uris":{"android":"levelo://app?vid=0164ba9c-e791-455f-842f-2a7544c1fe08","ios":"levelo://app?vid=0164ba9c-e791-455f-842f-2a7544c1fe08"},"vehicle_type_id":"4","last_reported":1691834760,"current_range_meters":30000,"station_id":"ce4bgkp2rcd13ifvqbmg","pricing_plan_id":"free"},{"bike_id":"645ce2c9-1976-432c-8325-4152b1a7d4b0","system_id":"levelo_inurba_marseille","lat":43.29972,"lon":5.38499,"is_reserved":false,"is_disabled":false,"rental_uris":{"android":"levelo://app?vid=645ce2c9-1976-432c-8325-4152b1a7d4b0","ios":"levelo://app?vid=645ce2c9-1976-432c-8325-4152b1a7d4b0"},"vehicle_type_id":"4","last_reported":1691834760,"current_range_meters":26000,"station_id":"ce4bgj92rcd13ifvqbd0","pricing_plan_id":"free"},{"bike_id":"66a82fe1-eca4-4559-88c3-4693bde07c6d","system_id":"levelo_inurba_marseille","lat":43.295279,"lon":5.375048,"is_reserved":false,"is_disabled":false,"rental_uris":{"android":"levelo://app?vid=66a82fe1-eca4-4559-88c3-4693bde07c6d","ios":"levelo://app?vid=66a82fe1-eca4-4559-88c3-4693bde07c6d"},"vehicle_type_id":"4","last_reported":1691834760,"current_range_meters":17200,"station_id":"ce4bgkp2rcd13ifvqbmg","pricing_plan_id":"free"},{"bike_id":"fbe51afe-e58e-4401-bce8-142438eb5f97","system_id":"levelo_inurba_marseille","lat":43.3236,"lon":5.38875,"is_reserved":false,"is_disabled":false,"rental_uris":{"android":"levelo://app?vid=fbe51afe-e58e-4401-bce8-142438eb5f97","ios":"levelo://app?vid=fbe51afe-e58e-4401-bce8-142438eb5f97"},"vehicle_type_id":"4","last_reported":1691834760,"current_range_meters":30400,"station_id":"ce4bhqp2rcd13ifvqhog","pricing_plan_id":"free"},{"bike_id":"7a5ccebc-5cd7-411d-b3c4-f349eba70b98","system_id":"levelo_inurba_marseille","lat":43.32367,"lon":5.388836,"is_reserved":false,"is_disabled":false,"rental_uris":{"android":"levelo://app?vid=7a5ccebc-5cd7-411d-b3c4-f349eba70b98","ios":"levelo://app?vid=7a5ccebc-5cd7-411d-b3c4-f349eba70b98"},"vehicle_type_id":"4","last_reported":1691834760,"current_range_meters":15600,"station_id":"ce4bhqp2rcd13ifvqhog","pricing_plan_id":"free"},{"bike_id":"b6adb90e-9efd-4170-8253-825de9137b61","system_id":"levelo_inurba_marseille","lat":43.32365,"lon":5.38877,"is_reserved":false,"is_disabled":false,"rental_uris":{"android":"levelo://app?vid=b6adb90e-9efd-4170-8253-825de9137b61","ios":"levelo://app?vid=b6adb90e-9efd-4170-8253-825de9137b61"},"vehicle_type_id":"4","last_reported":1691834760,"current_range_meters":29200,"station_id":"ce4bhqp2rcd13ifvqhog","pricing_plan_id":"free"},{"bike_id":"0337c164-8b0b-4f0b-b7b3-6790b2e9f25d","system_id":"levelo_inurba_marseille","lat":43.32365,"lon":5.3888,"is_reserved":false,"is_disabled":false,"rental_uris":{"android":"levelo://app?vid=0337c164-8b0b-4f0b-b7b3-6790b2e9f25d","ios":"levelo://app?vid=0337c164-8b0b-4f0b-b7b3-6790b2e9f25d"},"vehicle_type_id":"4","last_reported":1691834760,"current_range_meters":23200,"station_id":"ce4bhqp2rcd13ifvqhog","pricing_plan_id":"free"},{"bike_id":"0aa4abac-dd3c-446a-b986-ff96ec672a99","system_id":"levelo_inurba_marseille","lat":43.32365,"lon":5.38882,"is_reserved":false,"is_disabled":false,"rental_uris":{"android":"levelo://app?vid=0aa4abac-dd3c-446a-b986-ff96ec672a99","ios":"levelo://app?vid=0aa4abac-dd3c-446a-b986-ff96ec672a99"},"vehicle_type_id":"4","last_reported":1691834760,"current_range_meters":29200,"station_id":"ce4bhqp2rcd13ifvqhog","pricing_plan_id":"free"},{"bike_id":"a7758e93-92f2-4ba1-8882-417901e6037c","system_id":"levelo_inurba_marseille","lat":43.32366,"lon":5.38882,"is_reserved":false,"is_disabled":false,"rental_uris":{"android":"levelo://app?vid=a7758e93-92f2-4ba1-8882-417901e6037c","ios":"levelo://app?vid=a7758e93-92f2-4ba1-8882-417901e6037c"},"vehicle_type_id":"4","last_reported":1691834760,"current_range_meters":10400,"station_id":"ce4bhqp2rcd13ifvqhog","pricing_plan_id":"free"},{"bike_id":"d7b453b3-5883-4f31-a8d1-65d180f3c13b","system_id":"levelo_inurba_marseille","lat":43.32367,"lon":5.388836,"is_reserved":false,"is_disabled":false,"rental_uris":{"android":"levelo://app?vid=d7b453b3-5883-4f31-a8d1-65d180f3c13b","ios":"levelo://app?vid=d7b453b3-5883-4f31-a8d1-65d180f3c13b"},"vehicle_type_id":"4","last_reported":1691834760,"current_range_meters":30400,"station_id":"ce4bhqp2rcd13ifvqhog","pricing_plan_id":"free"},{"bike_id":"ca878683-6c48-40c5-a57b-a57665b4ddf7","system_id":"levelo_inurba_marseille","lat":43.32364,"lon":5.38887,"is_reserved":false,"is_disabled":false,"rental_uris":{"android":"levelo://app?vid=ca878683-6c48-40c5-a57b-a57665b4ddf7","ios":"levelo://app?vid=ca878683-6c48-40c5-a57b-a57665b4ddf7"},"vehicle_type_id":"4","last_reported":1691834760,"current_range_meters":23600,"station_id":"ce4bhqp2rcd13ifvqhog","pricing_plan_id":"free"},{"bike_id":"01e11d4e-126c-4d60-a749-b4934349307d","system_id":"levelo_inurba_marseille","lat":43.32367,"lon":5.388836,"is_reserved":false,"is_disabled":false,"rental_uris":{"android":"levelo://app?vid=01e11d4e-126c-4d60-a749-b4934349307d","ios":"levelo://app?vid=01e11d4e-126c-4d60-a749-b4934349307d"},"vehicle_type_id":"4","last_reported":1691834760,"current_range_meters":23600,"station_id":"ce4bhqp2rcd13ifvqhog","pricing_plan_id":"free"},{"bike_id":"b8cfcb5c-1fe2-48ab-b86a-5cc900079f22","system_id":"levelo_inurba_marseille","lat":43.32367,"lon":5.388836,"is_reserved":false,"is_disabled":false,"rental_uris":{"android":"levelo://app?vid=b8cfcb5c-1fe2-48ab-b86a-5cc900079f22","ios":"levelo://app?vid=b8cfcb5c-1fe2-48ab-b86a-5cc900079f22"},"vehicle_type_id":"4","last_reported":1691834760,"current_range_meters":15200,"station_id":"ce4bhqp2rcd13ifvqhog","pricing_plan_id":"free"},{"bike_id":"dbe406a0-e31d-4174-932b-0d8d584d17c2","system_id":"levelo_inurba_marseille","lat":43.292749,"lon":5.368398,"is_reserved":false,"is_disabled":false,"rental_uris":{"android":"levelo://app?vid=dbe406a0-e31d-4174-932b-0d8d584d17c2","ios":"levelo://app?vid=dbe406a0-e31d-4174-932b-0d8d584d17c2"},"vehicle_type_id":"4","last_reported":1691834760,"current_range_meters":31200,"station_id":"ce4bhbp2rcd13ifvqesg","pricing_plan_id":"free"},{"bike_id":"300f3d77-3065-4258-b977-e23ce3da8b49","system_id":"levelo_inurba_marseille","lat":43.29278,"lon":5.36843,"is_reserved":false,"is_disabled":false,"rental_uris":{"android":"levelo://app?vid=300f3d77-3065-4258-b977-e23ce3da8b49","ios":"levelo://app?vid=300f3d77-3065-4258-b977-e23ce3da8b49"},"vehicle_type_id":"4","last_reported":1691834760,"current_range_meters":31200,"station_id":"ce4bhbp2rcd13ifvqesg","pricing_plan_id":"free"},{"bike_id":"bfdbb204-4871-474f-8b7d-19c6b52f037c","system_id":"levelo_inurba_marseille","lat":43.292749,"lon":5.368398,"is_reserved":false,"is_disabled":false,"rental_uris":{"android":"levelo://app?vid=bfdbb204-4871-474f-8b7d-19c6b52f037c","ios":"levelo://app?vid=bfdbb204-4871-474f-8b7d-19c6b52f037c"},"vehicle_type_id":"4","last_reported":1691834760,"current_range_meters":30000,"station_id":"ce4bhbp2rcd13ifvqesg","pricing_plan_id":"free"},{"bike_id":"73caf4ba-5c4e-4b0b-801d-cd1b30fdbbb2","system_id":"levelo_inurba_marseille","lat":43.29272,"lon":5.36845,"is_reserved":false,"is_disabled":false,"rental_uris":{"android":"levelo://app?vid=73caf4ba-5c4e-4b0b-801d-cd1b30fdbbb2","ios":"levelo://app?vid=73caf4ba-5c4e-4b0b-801d-cd1b30fdbbb2"},"vehicle_type_id":"4","last_reported":1691834760,"current_range_meters":6000,"station_id":"ce4bhbp2rcd13ifvqesg","pricing_plan_id":"free"},{"bike_id":"d07b757f-7fa2-4017-88f4-49a26d618c35","system_id":"levelo_inurba_marseille","lat":43.2936,"lon":5.37835,"is_reserved":false,"is_disabled":false,"rental_uris":{"android":"levelo://app?vid=d07b757f-7fa2-4017-88f4-49a26d618c35","ios":"levelo://app?vid=d07b757f-7fa2-4017-88f4-49a26d618c35"},"vehicle_type_id":"4","last_reported":1691834760,"current_range_meters":30800,"station_id":"ce4bgjh2rcd13ifvqbf0","pricing_plan_id":"free"},{"bike_id":"058b02ed-d822-428d-9c0e-0626f2da7124","system_id":"levelo_inurba_marseille","lat":43.302992,"lon":5.392136,"is_reserved":false,"is_disabled":false,"rental_uris":{"android":"levelo://app?vid=058b02ed-d822-428d-9c0e-0626f2da7124","ios":"levelo://app?vid=058b02ed-d822-428d-9c0e-0626f2da7124"},"vehicle_type_id":"4","last_reported":1691834760,"current_range_meters":25600,"station_id":"ce4bgkh2rcd13ifvqbk0","pricing_plan_id":"free"},{"bike_id":"b22d3b22-f324-4743-89ba-8c8933be1773","system_id":"levelo_inurba_marseille","lat":43.29369,"lon":5.37832,"is_reserved":false,"is_disabled":false,"rental_uris":{"android":"levelo://app?vid=b22d3b22-f324-4743-89ba-8c8933be1773","ios":"levelo://app?vid=b22d3b22-f324-4743-89ba-8c8933be1773"},"vehicle_type_id":"4","last_reported":1691834760,"current_range_meters":25200,"station_id":"ce4bgjh2rcd13ifvqbf0","pricing_plan_id":"free"},{"bike_id":"61fec270-5c5c-4d00-a8e2-6158bb524684","system_id":"levelo_inurba_marseille","lat":43.2936,"lon":5.37835,"is_reserved":false,"is_disabled":false,"rental_uris":{"android":"levelo://app?vid=61fec270-5c5c-4d00-a8e2-6158bb524684","ios":"levelo://app?vid=61fec270-5c5c-4d00-a8e2-6158bb524684"},"vehicle_type_id":"4","last_reported":1691834760,"current_range_meters":25600,"station_id":"ce4bgjh2rcd13ifvqbf0","pricing_plan_id":"free"},{"bike_id":"a6c822dd-4d83-4958-bd35-12b35e7ee440","system_id":"levelo_inurba_marseille","lat":43.2936,"lon":5.37835,"is_reserved":false,"is_disabled":false,"rental_uris":{"android":"levelo://app?vid=a6c822dd-4d83-4958-bd35-12b35e7ee440","ios":"levelo://app?vid=a6c822dd-4d83-4958-bd35-12b35e7ee440"},"vehicle_type_id":"4","last_reported":1691834760,"current_range_meters":27200,"station_id":"ce4bgjh2rcd13ifvqbf0","pricing_plan_id":"free"},{"bike_id":"6ebbf43a-ce8d-43b2-9466-5d9fd6952c56","system_id":"levelo_inurba_marseille","lat":43.29376,"lon":5.37861,"is_reserved":false,"is_disabled":false,"rental_uris":{"android":"levelo://app?vid=6ebbf43a-ce8d-43b2-9466-5d9fd6952c56","ios":"levelo://app?vid=6ebbf43a-ce8d-43b2-9466-5d9fd6952c56"},"vehicle_type_id":"4","last_reported":1691834760,"current_range_meters":30400,"station_id":"ce4bgjh2rcd13ifvqbf0","pricing_plan_id":"free"},{"bike_id":"7d2649c8-cc6a-4449-81d0-b142110aab3f","system_id":"levelo_inurba_marseille","lat":43.29373,"lon":5.37859,"is_reserved":false,"is_disabled":false,"rental_uris":{"android":"levelo://app?vid=7d2649c8-cc6a-4449-81d0-b142110aab3f","ios":"levelo://app?vid=7d2649c8-cc6a-4449-81d0-b142110aab3f"},"vehicle_type_id":"4","last_reported":1691834760,"current_range_meters":28400,"station_id":"ce4bgjh2rcd13ifvqbf0","pricing_plan_id":"free"},{"bike_id":"c68e7b7e-c299-450b-b3b0-84483f7d7321","system_id":"levelo_inurba_marseille","lat":43.29371,"lon":5.37858,"is_reserved":false,"is_disabled":false,"rental_uris":{"android":"levelo://app?vid=c68e7b7e-c299-450b-b3b0-84483f7d7321","ios":"levelo://app?vid=c68e7b7e-c299-450b-b3b0-84483f7d7321"},"vehicle_type_id":"4","last_reported":1691834760,"current_range_meters":28400,"station_id":"ce4bgjh2rcd13ifvqbf0","pricing_plan_id":"free"},{"bike_id":"2c79bf40-f416-4777-bc03-e8d41bd70e37","system_id":"levelo_inurba_marseille","lat":43.2936,"lon":5.37835,"is_reserved":false,"is_disabled":false,"rental_uris":{"android":"levelo://app?vid=2c79bf40-f416-4777-bc03-e8d41bd70e37","ios":"levelo://app?vid=2c79bf40-f416-4777-bc03-e8d41bd70e37"},"vehicle_type_id":"4","last_reported":1691834760,"current_range_meters":31200,"station_id":"ce4bgjh2rcd13ifvqbf0","pricing_plan_id":"free"},{"bike_id":"1053f2bc-d83b-4acf-a10e-38b05ab7d066","system_id":"levelo_inurba_marseille","lat":43.292311,"lon":5.360731,"is_reserved":false,"is_disabled":false,"rental_uris":{"android":"levelo://app?vid=1053f2bc-d83b-4acf-a10e-38b05ab7d066","ios":"levelo://app?vid=1053f2bc-d83b-4acf-a10e-38b05ab7d066"},"vehicle_type_id":"4","last_reported":1691834760,"current_range_meters":24400,"station_id":"ce4bhbh2rcd13ifvqeqg","pricing_plan_id":"free"},{"bike_id":"cd5a9308-e544-4c6f-b219-f19bd4638ffe","system_id":"levelo_inurba_marseille","lat":43.292311,"lon":5.360731,"is_reserved":false,"is_disabled":false,"rental_uris":{"android":"levelo://app?vid=cd5a9308-e544-4c6f-b219-f19bd4638ffe","ios":"levelo://app?vid=cd5a9308-e544-4c6f-b219-f19bd4638ffe"},"vehicle_type_id":"4","last_reported":1691834760,"current_range_meters":9200,"station_id":"ce4bhbh2rcd13ifvqeqg","pricing_plan_id":"free"},{"bike_id":"e7e30677-dc8f-4a98-a56d-18ee36d465cd","system_id":"levelo_inurba_marseille","lat":43.300852,"lon":5.390859,"is_reserved":false,"is_disabled":false,"rental_uris":{"android":"levelo://app?vid=e7e30677-dc8f-4a98-a56d-18ee36d465cd","ios":"levelo://app?vid=e7e30677-dc8f-4a98-a56d-18ee36d465cd"},"vehicle_type_id":"4","last_reported":1691834760,"current_range_meters":28400,"station_id":"ce4bh192rcd13ifvqdb0","pricing_plan_id":"free"},{"bike_id":"9387be1e-7512-4d22-8253-cd182f2fea19","system_id":"levelo_inurba_marseille","lat":43.30085,"lon":5.390856,"is_reserved":false,"is_disabled":false,"rental_uris":{"android":"levelo://app?vid=9387be1e-7512-4d22-8253-cd182f2fea19","ios":"levelo://app?vid=9387be1e-7512-4d22-8253-cd182f2fea19"},"vehicle_type_id":"4","last_reported":1691834760,"current_range_meters":20800,"station_id":"ce4bh192rcd13ifvqdb0","pricing_plan_id":"free"},{"bike_id":"86257b0f-bcf9-4fa4-92df-734b8184ed79","system_id":"levelo_inurba_marseille","lat":43.300852,"lon":5.390859,"is_reserved":false,"is_disabled":false,"rental_uris":{"android":"levelo://app?vid=86257b0f-bcf9-4fa4-92df-734b8184ed79","ios":"levelo://app?vid=86257b0f-bcf9-4fa4-92df-734b8184ed79"},"vehicle_type_id":"4","last_reported":1691834760,"current_range_meters":20000,"station_id":"ce4bh192rcd13ifvqdb0","pricing_plan_id":"free"},{"bike_id":"78744c46-4083-41d7-a9b9-d0ecd55ef9ca","system_id":"levelo_inurba_marseille","lat":43.292311,"lon":5.360731,"is_reserved":false,"is_disabled":false,"rental_uris":{"android":"levelo://app?vid=78744c46-4083-41d7-a9b9-d0ecd55ef9ca","ios":"levelo://app?vid=78744c46-4083-41d7-a9b9-d0ecd55ef9ca"},"vehicle_type_id":"4","last_reported":1691834760,"current_range_meters":800,"station_id":"ce4bhbh2rcd13ifvqeqg","pricing_plan_id":"free"},{"bike_id":"3d765508-3a36-4774-9fc0-32657e81409a","system_id":"levelo_inurba_marseille","lat":43.292663,"lon":5.376389,"is_reserved":false,"is_disabled":false,"rental_uris":{"android":"levelo://app?vid=3d765508-3a36-4774-9fc0-32657e81409a","ios":"levelo://app?vid=3d765508-3a36-4774-9fc0-32657e81409a"},"vehicle_type_id":"4","last_reported":1691834760,"current_range_meters":28800,"station_id":"ce4bgi12rcd13ifvqb80","pricing_plan_id":"free"},{"bike_id":"0ca7e18b-1c6b-41f2-985d-75bb5df05ebe","system_id":"levelo_inurba_marseille","lat":43.29881,"lon":5.3891,"is_reserved":false,"is_disabled":false,"rental_uris":{"android":"levelo://app?vid=0ca7e18b-1c6b-41f2-985d-75bb5df05ebe","ios":"levelo://app?vid=0ca7e18b-1c6b-41f2-985d-75bb5df05ebe"},"vehicle_type_id":"4","last_reported":1691834760,"current_range_meters":0,"station_id":"ce4bh392rcd13ifvqdl0","pricing_plan_id":"free"},{"bike_id":"7ea449b7-b6ee-4520-8626-a0323b143213","system_id":"levelo_inurba_marseille","lat":43.30891,"lon":5.39627,"is_reserved":false,"is_disabled":false,"rental_uris":{"android":"levelo://app?vid=7ea449b7-b6ee-4520-8626-a0323b143213","ios":"levelo://app?vid=7ea449b7-b6ee-4520-8626-a0323b143213"},"vehicle_type_id":"4","last_reported":1691834760,"current_range_meters":30400,"station_id":"ce4bh012rcd13ifvqcv0","pricing_plan_id":"free"},{"bike_id":"f9e7f4ae-1564-4a4b-a285-720f9fe61f26","system_id":"levelo_inurba_marseille","lat":43.30891,"lon":5.39633,"is_reserved":false,"is_disabled":false,"rental_uris":{"android":"levelo://app?vid=f9e7f4ae-1564-4a4b-a285-720f9fe61f26","ios":"levelo://app?vid=f9e7f4ae-1564-4a4b-a285-720f9fe61f26"},"vehicle_type_id":"4","last_reported":1691834760,"current_range_meters":9200,"station_id":"ce4bh012rcd13ifvqcv0","pricing_plan_id":"free"},{"bike_id":"53004f2d-488c-4d70-986a-5fd2dce9fadb","system_id":"levelo_inurba_marseille","lat":43.30889,"lon":5.39634,"is_reserved":false,"is_disabled":false,"rental_uris":{"android":"levelo://app?vid=53004f2d-488c-4d70-986a-5fd2dce9fadb","ios":"levelo://app?vid=53004f2d-488c-4d70-986a-5fd2dce9fadb"},"vehicle_type_id":"4","last_reported":1691834760,"current_range_meters":30400,"station_id":"ce4bh012rcd13ifvqcv0","pricing_plan_id":"free"},{"bike_id":"af303529-ec1d-4a4c-ad8b-719991c82db1","system_id":"levelo_inurba_marseille","lat":43.30882,"lon":5.39634,"is_reserved":false,"is_disabled":false,"rental_uris":{"android":"levelo://app?vid=af303529-ec1d-4a4c-ad8b-719991c82db1","ios":"levelo://app?vid=af303529-ec1d-4a4c-ad8b-719991c82db1"},"vehicle_type_id":"4","last_reported":1691834760,"current_range_meters":27200,"station_id":"ce4bh012rcd13ifvqcv0","pricing_plan_id":"free"},{"bike_id":"0d4c0bc8-4a8d-42e5-8882-ddae0894ec10","system_id":"levelo_inurba_marseille","lat":43.29195,"lon":5.35799,"is_reserved":false,"is_disabled":false,"rental_uris":{"android":"levelo://app?vid=0d4c0bc8-4a8d-42e5-8882-ddae0894ec10","ios":"levelo://app?vid=0d4c0bc8-4a8d-42e5-8882-ddae0894ec10"},"vehicle_type_id":"4","last_reported":1691834760,"current_range_meters":13200,"station_id":"ce4bhb12rcd13ifvqel0","pricing_plan_id":"free"},{"bike_id":"712983da-0bdb-4d82-bb2d-99d4bec423f6","system_id":"levelo_inurba_marseille","lat":43.30883,"lon":5.39639,"is_reserved":false,"is_disabled":false,"rental_uris":{"android":"levelo://app?vid=712983da-0bdb-4d82-bb2d-99d4bec423f6","ios":"levelo://app?vid=712983da-0bdb-4d82-bb2d-99d4bec423f6"},"vehicle_type_id":"4","last_reported":1691834760,"current_range_meters":24400,"station_id":"ce4bh012rcd13ifvqcv0","pricing_plan_id":"free"},{"bike_id":"1799338b-72a6-4483-90c6-97793cb4a29d","system_id":"levelo_inurba_marseille","lat":43.30886,"lon":5.3964,"is_reserved":false,"is_disabled":false,"rental_uris":{"android":"levelo://app?vid=1799338b-72a6-4483-90c6-97793cb4a29d","ios":"levelo://app?vid=1799338b-72a6-4483-90c6-97793cb4a29d"},"vehicle_type_id":"4","last_reported":1691834760,"current_range_meters":19600,"station_id":"ce4bh012rcd13ifvqcv0","pricing_plan_id":"free"},{"bike_id":"860dcca1-d2b1-43d9-9538-56bc0bf78fcd","system_id":"levelo_inurba_marseille","lat":43.3089,"lon":5.39646,"is_reserved":false,"is_disabled":false,"rental_uris":{"android":"levelo://app?vid=860dcca1-d2b1-43d9-9538-56bc0bf78fcd","ios":"levelo://app?vid=860dcca1-d2b1-43d9-9538-56bc0bf78fcd"},"vehicle_type_id":"4","last_reported":1691834760,"current_range_meters":22800,"station_id":"ce4bh012rcd13ifvqcv0","pricing_plan_id":"free"},{"bike_id":"43f2ad04-2004-4a77-a098-cdaf839f8e2f","system_id":"levelo_inurba_marseille","lat":43.3088,"lon":5.39645,"is_reserved":false,"is_disabled":false,"rental_uris":{"android":"levelo://app?vid=43f2ad04-2004-4a77-a098-cdaf839f8e2f","ios":"levelo://app?vid=43f2ad04-2004-4a77-a098-cdaf839f8e2f"},"vehicle_type_id":"4","last_reported":1691834760,"current_range_meters":30400,"station_id":"ce4bh012rcd13ifvqcv0","pricing_plan_id":"free"},{"bike_id":"6f4dd07a-a2fb-4274-a2be-4eef471c9329","system_id":"levelo_inurba_marseille","lat":43.31326,"lon":5.39694,"is_reserved":false,"is_disabled":false,"rental_uris":{"android":"levelo://app?vid=6f4dd07a-a2fb-4274-a2be-4eef471c9329","ios":"levelo://app?vid=6f4dd07a-a2fb-4274-a2be-4eef471c9329"},"vehicle_type_id":"4","last_reported":1691834760,"current_range_meters":28000,"station_id":"ce4bgvp2rcd13ifvqcu0","pricing_plan_id":"free"},{"bike_id":"807ff79d-8202-4613-bf6d-6cfa316b6175","system_id":"levelo_inurba_marseille","lat":43.30891,"lon":5.39649,"is_reserved":false,"is_disabled":false,"rental_uris":{"android":"levelo://app?vid=807ff79d-8202-4613-bf6d-6cfa316b6175","ios":"levelo://app?vid=807ff79d-8202-4613-bf6d-6cfa316b6175"},"vehicle_type_id":"4","last_reported":1691834760,"current_range_meters":16000,"station_id":"ce4bh012rcd13ifvqcv0","pricing_plan_id":"free"},{"bike_id":"673a5d5f-aa9b-45a5-86b5-308651dc6b63","system_id":"levelo_inurba_marseille","lat":43.313291,"lon":5.396838,"is_reserved":false,"is_disabled":false,"rental_uris":{"android":"levelo://app?vid=673a5d5f-aa9b-45a5-86b5-308651dc6b63","ios":"levelo://app?vid=673a5d5f-aa9b-45a5-86b5-308651dc6b63"},"vehicle_type_id":"4","last_reported":1691834760,"current_range_meters":28800,"station_id":"ce4bgvp2rcd13ifvqcu0","pricing_plan_id":"free"},{"bike_id":"00de13ba-6197-4878-9360-2219554bb60f","system_id":"levelo_inurba_marseille","lat":43.29529,"lon":5.385581,"is_reserved":false,"is_disabled":false,"rental_uris":{"android":"levelo://app?vid=00de13ba-6197-4878-9360-2219554bb60f","ios":"levelo://app?vid=00de13ba-6197-4878-9360-2219554bb60f"},"vehicle_type_id":"4","last_reported":1691834760,"current_range_meters":28400,"station_id":"ce4bgih2rcd13ifvqba0","pricing_plan_id":"free"},{"bike_id":"195c7be2-9864-4e69-8454-a2f6e17eaa7e","system_id":"levelo_inurba_marseille","lat":43.290779,"lon":5.371482,"is_reserved":false,"is_disabled":false,"rental_uris":{"android":"levelo://app?vid=195c7be2-9864-4e69-8454-a2f6e17eaa7e","ios":"levelo://app?vid=195c7be2-9864-4e69-8454-a2f6e17eaa7e"},"vehicle_type_id":"4","last_reported":1691834760,"current_range_meters":9600,"station_id":"ce4bh5p2rcd13ifvqe4g","pricing_plan_id":"free"},{"bike_id":"fd631b48-4739-41cb-8013-f47f50b7e7c1","system_id":"levelo_inurba_marseille","lat":43.290779,"lon":5.371482,"is_reserved":false,"is_disabled":false,"rental_uris":{"android":"levelo://app?vid=fd631b48-4739-41cb-8013-f47f50b7e7c1","ios":"levelo://app?vid=fd631b48-4739-41cb-8013-f47f50b7e7c1"},"vehicle_type_id":"4","last_reported":1691834760,"current_range_meters":28800,"station_id":"ce4bh5p2rcd13ifvqe4g","pricing_plan_id":"free"},{"bike_id":"bc216363-07b8-4ff9-be1e-fdf7d8bcfdab","system_id":"levelo_inurba_marseille","lat":43.294153,"lon":5.386305,"is_reserved":false,"is_disabled":false,"rental_uris":{"android":"levelo://app?vid=bc216363-07b8-4ff9-be1e-fdf7d8bcfdab","ios":"levelo://app?vid=bc216363-07b8-4ff9-be1e-fdf7d8bcfdab"},"vehicle_type_id":"4","last_reported":1691834760,"current_range_meters":14000,"station_id":"ce4bh2h2rcd13ifvqdh0","pricing_plan_id":"free"},{"bike_id":"f3bbf06f-488e-4890-a4d6-6f691fcd58f8","system_id":"levelo_inurba_marseille","lat":43.294153,"lon":5.386305,"is_reserved":false,"is_disabled":false,"rental_uris":{"android":"levelo://app?vid=f3bbf06f-488e-4890-a4d6-6f691fcd58f8","ios":"levelo://app?vid=f3bbf06f-488e-4890-a4d6-6f691fcd58f8"},"vehicle_type_id":"4","last_reported":1691834760,"current_range_meters":24800,"station_id":"ce4bh2h2rcd13ifvqdh0","pricing_plan_id":"free"},{"bike_id":"21809b60-8f5a-43b8-8399-a0e48a6184ac","system_id":"levelo_inurba_marseille","lat":43.294153,"lon":5.386305,"is_reserved":false,"is_disabled":false,"rental_uris":{"android":"levelo://app?vid=21809b60-8f5a-43b8-8399-a0e48a6184ac","ios":"levelo://app?vid=21809b60-8f5a-43b8-8399-a0e48a6184ac"},"vehicle_type_id":"4","last_reported":1691834760,"current_range_meters":21200,"station_id":"ce4bh2h2rcd13ifvqdh0","pricing_plan_id":"free"},{"bike_id":"b2413331-58ce-46a4-b153-1c152bade6bf","system_id":"levelo_inurba_marseille","lat":43.294153,"lon":5.386305,"is_reserved":false,"is_disabled":false,"rental_uris":{"android":"levelo://app?vid=b2413331-58ce-46a4-b153-1c152bade6bf","ios":"levelo://app?vid=b2413331-58ce-46a4-b153-1c152bade6bf"},"vehicle_type_id":"4","last_reported":1691834760,"current_range_meters":1200,"station_id":"ce4bh2h2rcd13ifvqdh0","pricing_plan_id":"free"},{"bike_id":"6608e210-bda8-4ead-a61c-0e018c78f4be","system_id":"levelo_inurba_marseille","lat":43.294153,"lon":5.386305,"is_reserved":false,"is_disabled":false,"rental_uris":{"android":"levelo://app?vid=6608e210-bda8-4ead-a61c-0e018c78f4be","ios":"levelo://app?vid=6608e210-bda8-4ead-a61c-0e018c78f4be"},"vehicle_type_id":"4","last_reported":1691834760,"current_range_meters":15600,"station_id":"ce4bh2h2rcd13ifvqdh0","pricing_plan_id":"free"},{"bike_id":"52905d18-3996-4af8-9a21-a3b0f18fc169","system_id":"levelo_inurba_marseille","lat":43.29417,"lon":5.38624,"is_reserved":false,"is_disabled":false,"rental_uris":{"android":"levelo://app?vid=52905d18-3996-4af8-9a21-a3b0f18fc169","ios":"levelo://app?vid=52905d18-3996-4af8-9a21-a3b0f18fc169"},"vehicle_type_id":"4","last_reported":1691834760,"current_range_meters":0,"station_id":"ce4bh2h2rcd13ifvqdh0","pricing_plan_id":"free"},{"bike_id":"2ceaeca5-fb79-4731-bdad-d9c2543f73a3","system_id":"levelo_inurba_marseille","lat":43.294153,"lon":5.386305,"is_reserved":false,"is_disabled":false,"rental_uris":{"android":"levelo://app?vid=2ceaeca5-fb79-4731-bdad-d9c2543f73a3","ios":"levelo://app?vid=2ceaeca5-fb79-4731-bdad-d9c2543f73a3"},"vehicle_type_id":"4","last_reported":1691834760,"current_range_meters":27200,"station_id":"ce4bh2h2rcd13ifvqdh0","pricing_plan_id":"free"},{"bike_id":"242879da-90ff-48c9-8457-a8ef3f38214f","system_id":"levelo_inurba_marseille","lat":43.292642,"lon":5.384254,"is_reserved":false,"is_disabled":false,"rental_uris":{"android":"levelo://app?vid=242879da-90ff-48c9-8457-a8ef3f38214f","ios":"levelo://app?vid=242879da-90ff-48c9-8457-a8ef3f38214f"},"vehicle_type_id":"4","last_reported":1691834760,"current_range_meters":20800,"station_id":"ce4bh692rcd13ifvqea0","pricing_plan_id":"free"},{"bike_id":"7fd7ca7e-03b2-4701-a784-63cf9318324e","system_id":"levelo_inurba_marseille","lat":43.29273,"lon":5.38441,"is_reserved":false,"is_disabled":false,"rental_uris":{"android":"levelo://app?vid=7fd7ca7e-03b2-4701-a784-63cf9318324e","ios":"levelo://app?vid=7fd7ca7e-03b2-4701-a784-63cf9318324e"},"vehicle_type_id":"4","last_reported":1691834760,"current_range_meters":5200,"station_id":"ce4bh692rcd13ifvqea0","pricing_plan_id":"free"},{"bike_id":"257494e3-3b12-45f3-b9f1-9d3633c8fb94","system_id":"levelo_inurba_marseille","lat":43.30428,"lon":5.39749,"is_reserved":false,"is_disabled":false,"rental_uris":{"android":"levelo://app?vid=257494e3-3b12-45f3-b9f1-9d3633c8fb94","ios":"levelo://app?vid=257494e3-3b12-45f3-b9f1-9d3633c8fb94"},"vehicle_type_id":"4","last_reported":1691834760,"current_range_meters":0,"station_id":"ce4bh092rcd13ifvqd20","pricing_plan_id":"free"},{"bike_id":"0400b8a7-25f4-4f0e-a604-2244b8c69438","system_id":"levelo_inurba_marseille","lat":43.29265,"lon":5.38446,"is_reserved":false,"is_disabled":false,"rental_uris":{"android":"levelo://app?vid=0400b8a7-25f4-4f0e-a604-2244b8c69438","ios":"levelo://app?vid=0400b8a7-25f4-4f0e-a604-2244b8c69438"},"vehicle_type_id":"4","last_reported":1691834760,"current_range_meters":24800,"station_id":"ce4bh692rcd13ifvqea0","pricing_plan_id":"free"},{"bike_id":"b78acd1f-daed-4450-948d-49647371aa42","system_id":"levelo_inurba_marseille","lat":43.292642,"lon":5.384254,"is_reserved":false,"is_disabled":false,"rental_uris":{"android":"levelo://app?vid=b78acd1f-daed-4450-948d-49647371aa42","ios":"levelo://app?vid=b78acd1f-daed-4450-948d-49647371aa42"},"vehicle_type_id":"4","last_reported":1691834760,"current_range_meters":20800,"station_id":"ce4bh692rcd13ifvqea0","pricing_plan_id":"free"},{"bike_id":"f7b92aa7-8425-450c-be7b-da0361219fe1","system_id":"levelo_inurba_marseille","lat":43.284219,"lon":5.3497,"is_reserved":false,"is_disabled":false,"rental_uris":{"android":"levelo://app?vid=f7b92aa7-8425-450c-be7b-da0361219fe1","ios":"levelo://app?vid=f7b92aa7-8425-450c-be7b-da0361219fe1"},"vehicle_type_id":"4","last_reported":1691834760,"current_range_meters":12000,"station_id":"ce4bhbh2rcd13ifvqepg","pricing_plan_id":"free"},{"bike_id":"69c23820-b8c4-4b33-a6c2-28beb4ed1d2a","system_id":"levelo_inurba_marseille","lat":43.330357,"lon":5.38912,"is_reserved":false,"is_disabled":false,"rental_uris":{"android":"levelo://app?vid=69c23820-b8c4-4b33-a6c2-28beb4ed1d2a","ios":"levelo://app?vid=69c23820-b8c4-4b33-a6c2-28beb4ed1d2a"},"vehicle_type_id":"4","last_reported":1691834760,"current_range_meters":14000,"station_id":"","pricing_plan_id":"free"},{"bike_id":"e195eef1-5a02-4b02-b19d-cf9c1a60a160","system_id":"levelo_inurba_marseille","lat":43.29008,"lon":5.3562,"is_reserved":false,"is_disabled":false,"rental_uris":{"android":"levelo://app?vid=e195eef1-5a02-4b02-b19d-cf9c1a60a160","ios":"levelo://app?vid=e195eef1-5a02-4b02-b19d-cf9c1a60a160"},"vehicle_type_id":"4","last_reported":1691834760,"current_range_meters":28800,"station_id":"ce4bhb92rcd13ifvqen0","pricing_plan_id":"free"},{"bike_id":"6d7c8abe-0944-4695-8208-04a7e55dfaa2","system_id":"levelo_inurba_marseille","lat":43.2901,"lon":5.35612,"is_reserved":false,"is_disabled":false,"rental_uris":{"android":"levelo://app?vid=6d7c8abe-0944-4695-8208-04a7e55dfaa2","ios":"levelo://app?vid=6d7c8abe-0944-4695-8208-04a7e55dfaa2"},"vehicle_type_id":"4","last_reported":1691834760,"current_range_meters":31200,"station_id":"ce4bhb92rcd13ifvqen0","pricing_plan_id":"free"},{"bike_id":"b8cdd954-ac49-45e5-8aa0-726846a5fbc6","system_id":"levelo_inurba_marseille","lat":43.29011,"lon":5.35606,"is_reserved":false,"is_disabled":false,"rental_uris":{"android":"levelo://app?vid=b8cdd954-ac49-45e5-8aa0-726846a5fbc6","ios":"levelo://app?vid=b8cdd954-ac49-45e5-8aa0-726846a5fbc6"},"vehicle_type_id":"4","last_reported":1691834760,"current_range_meters":31200,"station_id":"ce4bhb92rcd13ifvqen0","pricing_plan_id":"free"},{"bike_id":"916fd31e-1971-4d47-8b60-c7f99528ac83","system_id":"levelo_inurba_marseille","lat":43.33046,"lon":5.38913,"is_reserved":false,"is_disabled":false,"rental_uris":{"android":"levelo://app?vid=916fd31e-1971-4d47-8b60-c7f99528ac83","ios":"levelo://app?vid=916fd31e-1971-4d47-8b60-c7f99528ac83"},"vehicle_type_id":"4","last_reported":1691834760,"current_range_meters":23200,"station_id":"ce4bhr92rcd13ifvqhrg","pricing_plan_id":"free"},{"bike_id":"e670912e-4d64-418d-a115-4ee484695e56","system_id":"levelo_inurba_marseille","lat":43.33048,"lon":5.38911,"is_reserved":false,"is_disabled":false,"rental_uris":{"android":"levelo://app?vid=e670912e-4d64-418d-a115-4ee484695e56","ios":"levelo://app?vid=e670912e-4d64-418d-a115-4ee484695e56"},"vehicle_type_id":"4","last_reported":1691834760,"current_range_meters":15200,"station_id":"ce4bhr92rcd13ifvqhrg","pricing_plan_id":"free"},{"bike_id":"b85048dc-02f0-4b4d-9a31-dc69b5a08eba","system_id":"levelo_inurba_marseille","lat":43.33041,"lon":5.38922,"is_reserved":false,"is_disabled":false,"rental_uris":{"android":"levelo://app?vid=b85048dc-02f0-4b4d-9a31-dc69b5a08eba","ios":"levelo://app?vid=b85048dc-02f0-4b4d-9a31-dc69b5a08eba"},"vehicle_type_id":"4","last_reported":1691834760,"current_range_meters":0,"station_id":"ce4bhr92rcd13ifvqhrg","pricing_plan_id":"free"},{"bike_id":"5359e639-b9a2-4606-b521-46f66d2820c7","system_id":"levelo_inurba_marseille","lat":43.33046,"lon":5.38915,"is_reserved":false,"is_disabled":false,"rental_uris":{"android":"levelo://app?vid=5359e639-b9a2-4606-b521-46f66d2820c7","ios":"levelo://app?vid=5359e639-b9a2-4606-b521-46f66d2820c7"},"vehicle_type_id":"4","last_reported":1691834760,"current_range_meters":30000,"station_id":"ce4bhr92rcd13ifvqhrg","pricing_plan_id":"free"},{"bike_id":"97d4156f-5db6-4edb-b007-9bb7f9496df8","system_id":"levelo_inurba_marseille","lat":43.33046,"lon":5.38916,"is_reserved":false,"is_disabled":false,"rental_uris":{"android":"levelo://app?vid=97d4156f-5db6-4edb-b007-9bb7f9496df8","ios":"levelo://app?vid=97d4156f-5db6-4edb-b007-9bb7f9496df8"},"vehicle_type_id":"4","last_reported":1691834760,"current_range_meters":24000,"station_id":"ce4bhr92rcd13ifvqhrg","pricing_plan_id":"free"},{"bike_id":"455260f5-201e-45ac-8473-9f69d25d2f7d","system_id":"levelo_inurba_marseille","lat":43.33045,"lon":5.38918,"is_reserved":false,"is_disabled":false,"rental_uris":{"android":"levelo://app?vid=455260f5-201e-45ac-8473-9f69d25d2f7d","ios":"levelo://app?vid=455260f5-201e-45ac-8473-9f69d25d2f7d"},"vehicle_type_id":"4","last_reported":1691834760,"current_range_meters":12400,"station_id":"ce4bhr92rcd13ifvqhrg","pricing_plan_id":"free"},{"bike_id":"f1f6c9e5-dd84-4304-932d-bd23da10957d","system_id":"levelo_inurba_marseille","lat":43.290103,"lon":5.356114,"is_reserved":false,"is_disabled":false,"rental_uris":{"android":"levelo://app?vid=f1f6c9e5-dd84-4304-932d-bd23da10957d","ios":"levelo://app?vid=f1f6c9e5-dd84-4304-932d-bd23da10957d"},"vehicle_type_id":"4","last_reported":1691834760,"current_range_meters":21600,"station_id":"ce4bhb92rcd13ifvqen0","pricing_plan_id":"free"},{"bike_id":"215cd5d0-3557-44be-b7d5-5093e416edd2","system_id":"levelo_inurba_marseille","lat":43.29008,"lon":5.35606,"is_reserved":false,"is_disabled":false,"rental_uris":{"android":"levelo://app?vid=215cd5d0-3557-44be-b7d5-5093e416edd2","ios":"levelo://app?vid=215cd5d0-3557-44be-b7d5-5093e416edd2"},"vehicle_type_id":"4","last_reported":1691834760,"current_range_meters":27200,"station_id":"ce4bhb92rcd13ifvqen0","pricing_plan_id":"free"},{"bike_id":"ef403315-655a-46d3-8dd3-3f5f9110e5e4","system_id":"levelo_inurba_marseille","lat":43.290103,"lon":5.356114,"is_reserved":false,"is_disabled":false,"rental_uris":{"android":"levelo://app?vid=ef403315-655a-46d3-8dd3-3f5f9110e5e4","ios":"levelo://app?vid=ef403315-655a-46d3-8dd3-3f5f9110e5e4"},"vehicle_type_id":"4","last_reported":1691834760,"current_range_meters":19200,"station_id":"ce4bhb92rcd13ifvqen0","pricing_plan_id":"free"},{"bike_id":"f6a60d9d-1157-4f0d-9977-363b6387a650","system_id":"levelo_inurba_marseille","lat":43.290103,"lon":5.356114,"is_reserved":false,"is_disabled":false,"rental_uris":{"android":"levelo://app?vid=f6a60d9d-1157-4f0d-9977-363b6387a650","ios":"levelo://app?vid=f6a60d9d-1157-4f0d-9977-363b6387a650"},"vehicle_type_id":"4","last_reported":1691834760,"current_range_meters":27600,"station_id":"ce4bhb92rcd13ifvqen0","pricing_plan_id":"free"},{"bike_id":"8fede235-a3fa-4085-b5fb-515c17a98fa1","system_id":"levelo_inurba_marseille","lat":43.33045,"lon":5.3892,"is_reserved":false,"is_disabled":false,"rental_uris":{"android":"levelo://app?vid=8fede235-a3fa-4085-b5fb-515c17a98fa1","ios":"levelo://app?vid=8fede235-a3fa-4085-b5fb-515c17a98fa1"},"vehicle_type_id":"4","last_reported":1691834760,"current_range_meters":18400,"station_id":"ce4bhr92rcd13ifvqhrg","pricing_plan_id":"free"},{"bike_id":"d92191b5-3897-428d-989c-4b986c7a7e64","system_id":"levelo_inurba_marseille","lat":43.29004,"lon":5.35612,"is_reserved":false,"is_disabled":false,"rental_uris":{"android":"levelo://app?vid=d92191b5-3897-428d-989c-4b986c7a7e64","ios":"levelo://app?vid=d92191b5-3897-428d-989c-4b986c7a7e64"},"vehicle_type_id":"4","last_reported":1691834760,"current_range_meters":19600,"station_id":"ce4bhb92rcd13ifvqen0","pricing_plan_id":"free"},{"bike_id":"892867ae-c845-473e-87fc-2b3f5701ecf4","system_id":"levelo_inurba_marseille","lat":43.29003,"lon":5.35605,"is_reserved":false,"is_disabled":false,"rental_uris":{"android":"levelo://app?vid=892867ae-c845-473e-87fc-2b3f5701ecf4","ios":"levelo://app?vid=892867ae-c845-473e-87fc-2b3f5701ecf4"},"vehicle_type_id":"4","last_reported":1691834760,"current_range_meters":20400,"station_id":"ce4bhb92rcd13ifvqen0","pricing_plan_id":"free"},{"bike_id":"b8146dba-e6dd-466a-a842-d5ab8e413baf","system_id":"levelo_inurba_marseille","lat":43.290103,"lon":5.356114,"is_reserved":false,"is_disabled":false,"rental_uris":{"android":"levelo://app?vid=b8146dba-e6dd-466a-a842-d5ab8e413baf","ios":"levelo://app?vid=b8146dba-e6dd-466a-a842-d5ab8e413baf"},"vehicle_type_id":"4","last_reported":1691834760,"current_range_meters":26000,"station_id":"ce4bhb92rcd13ifvqen0","pricing_plan_id":"free"},{"bike_id":"872da2d9-019a-4984-9601-55c138a43963","system_id":"levelo_inurba_marseille","lat":43.290995,"lon":5.381361,"is_reserved":false,"is_disabled":false,"rental_uris":{"android":"levelo://app?vid=872da2d9-019a-4984-9601-55c138a43963","ios":"levelo://app?vid=872da2d9-019a-4984-9601-55c138a43963"},"vehicle_type_id":"4","last_reported":1691834760,"current_range_meters":27200,"station_id":"ce4bh512rcd13ifvqe2g","pricing_plan_id":"free"},{"bike_id":"1ad86d1b-65b6-4942-b0c1-09fb124ac9ee","system_id":"levelo_inurba_marseille","lat":43.289741,"lon":5.378306,"is_reserved":false,"is_disabled":false,"rental_uris":{"android":"levelo://app?vid=1ad86d1b-65b6-4942-b0c1-09fb124ac9ee","ios":"levelo://app?vid=1ad86d1b-65b6-4942-b0c1-09fb124ac9ee"},"vehicle_type_id":"4","last_reported":1691834760,"current_range_meters":19200,"station_id":"ce4bh9p2rcd13ifvqed0","pricing_plan_id":"free"},{"bike_id":"b5e73fbe-3c9a-4a52-b5c8-cb903ae9793c","system_id":"levelo_inurba_marseille","lat":43.289743,"lon":5.378304,"is_reserved":false,"is_disabled":false,"rental_uris":{"android":"levelo://app?vid=b5e73fbe-3c9a-4a52-b5c8-cb903ae9793c","ios":"levelo://app?vid=b5e73fbe-3c9a-4a52-b5c8-cb903ae9793c"},"vehicle_type_id":"4","last_reported":1691834760,"current_range_meters":29200,"station_id":"ce4bh9p2rcd13ifvqed0","pricing_plan_id":"free"},{"bike_id":"6f97045b-052e-4e43-b758-48d8eb1dc2ff","system_id":"levelo_inurba_marseille","lat":43.289743,"lon":5.378304,"is_reserved":false,"is_disabled":false,"rental_uris":{"android":"levelo://app?vid=6f97045b-052e-4e43-b758-48d8eb1dc2ff","ios":"levelo://app?vid=6f97045b-052e-4e43-b758-48d8eb1dc2ff"},"vehicle_type_id":"4","last_reported":1691834760,"current_range_meters":5200,"station_id":"ce4bh9p2rcd13ifvqed0","pricing_plan_id":"free"},{"bike_id":"c4b0aa63-7248-4c69-80eb-f0aa4c35dc39","system_id":"levelo_inurba_marseille","lat":43.33036,"lon":5.39103,"is_reserved":false,"is_disabled":false,"rental_uris":{"android":"levelo://app?vid=c4b0aa63-7248-4c69-80eb-f0aa4c35dc39","ios":"levelo://app?vid=c4b0aa63-7248-4c69-80eb-f0aa4c35dc39"},"vehicle_type_id":"4","last_reported":1691834760,"current_range_meters":7600,"station_id":"","pricing_plan_id":"free"},{"bike_id":"059177b3-5bd4-40aa-bc9a-4d8384209064","system_id":"levelo_inurba_marseille","lat":43.312741,"lon":5.401723,"is_reserved":false,"is_disabled":false,"rental_uris":{"android":"levelo://app?vid=059177b3-5bd4-40aa-bc9a-4d8384209064","ios":"levelo://app?vid=059177b3-5bd4-40aa-bc9a-4d8384209064"},"vehicle_type_id":"4","last_reported":1691834760,"current_range_meters":29600,"station_id":"ce4bh092rcd13ifvqd30","pricing_plan_id":"free"},{"bike_id":"11626fa2-46cc-4fe5-8890-1629c230794f","system_id":"levelo_inurba_marseille","lat":43.30934,"lon":5.40144,"is_reserved":false,"is_disabled":false,"rental_uris":{"android":"levelo://app?vid=11626fa2-46cc-4fe5-8890-1629c230794f","ios":"levelo://app?vid=11626fa2-46cc-4fe5-8890-1629c230794f"},"vehicle_type_id":"4","last_reported":1691834760,"current_range_meters":29600,"station_id":"ce4bgvp2rcd13ifvqct0","pricing_plan_id":"free"},{"bike_id":"54ef0d20-5588-48c8-8143-05109cd689d3","system_id":"levelo_inurba_marseille","lat":43.312687,"lon":5.401756,"is_reserved":false,"is_disabled":false,"rental_uris":{"android":"levelo://app?vid=54ef0d20-5588-48c8-8143-05109cd689d3","ios":"levelo://app?vid=54ef0d20-5588-48c8-8143-05109cd689d3"},"vehicle_type_id":"4","last_reported":1691834760,"current_range_meters":30400,"station_id":"ce4bh092rcd13ifvqd30","pricing_plan_id":"free"},