{"last_updated":1739228978,"ttl":60,"version":"2.2","data":{"bikes":[{"bike_id":"5cda301b-bce8-41d3-abea-2e981f99524e","system_id":"levelo_inurba_marseille","lat":43.29854,"lon":5.36286,"is_reserved":false,"is_disabled":false,"rental_uris":{"android":"levelo://app?vid=5cda301b-bce8-41d3-abea-2e981f99524e","ios":"levelo://app?vid=5cda301b-bce8-41d3-abea-2e981f99524e"},"vehicle_type_id":"4","last_reported":1739228979,"current_range_meters":28000,"station_id":"ce4bgpp2rcd13ifvqc3g","pricing_plan_id":"cebpf4jnsgd1na2vs0mg"},{"bike_id":"47e5caa3-c9c1-44d5-b1b3-2d3d2324516e","system_id":"levelo_inurba_marseille","lat":43.28732,"lon":5.36089,"is_reserved":false,"is_disabled":false,"rental_uris":{"android":"levelo://app?vid=47e5caa3-c9c1-44d5-b1b3-2d3d2324516e","ios":"levelo://app?vid=47e5caa3-c9c1-44d5-b1b3-2d3d2324516e"},"vehicle_type_id":"4","last_reported":1739228979,"current_range_meters":29600,"station_id":"cki0cbj6b192h4jlfktg","pricing_plan_id":"cebpf4jnsgd1na2vs0mg"},{"bike_id":"e7d8ed8c-85a3-44c3-8805-56fbe310205d","system_id":"levelo_inurba_marseille","lat":43.28412,"lon":5.37528,"is_reserved":false,"is_disabled":false,"rental_uris":{"android":"levelo://app?vid=e7d8ed8c-85a3-44c3-8805-56fbe310205d","ios":"levelo://app?vid=e7d8ed8c-85a3-44c3-8805-56fbe310205d"},"vehicle_type_id":"4","last_reported":1739228979,"current_range_meters":37600,"station_id":"ce4bh412rcd13ifvqds0","pricing_plan_id":"cebpf4jnsgd1na2vs0mg"},{"bike_id":"ad572047-dd09-4e65-b292-1329945a3494","system_id":"levelo_inurba_marseille","lat":43.30149,"lon":5.38792,"is_reserved":false,"is_disabled":false,"rental_uris":{"android":"levelo://app?vid=ad572047-dd09-4e65-b292-1329945a3494","ios":"levelo://app?vid=ad572047-dd09-4e65-b292-1329945a3494"},"vehicle_type_id":"4","last_reported":1739228979,"current_range_meters":14800,"station_id":"ce4bghh2rcd13ifvqb60","pricing_plan_id":"cebpf4jnsgd1na2vs0mg"},{"bike_id":"b068362a-3288-489d-9388-78d1aec4149d","system_id":"levelo_inurba_marseille","lat":43.26573,"lon":5.39024,"is_reserved":false,"is_disabled":false,"rental_uris":{"android":"levelo://app?vid=b068362a-3288-489d-9388-78d1aec4149d","ios":"levelo://app?vid=b068362a-3288-489d-9388-78d1aec4149d"},"vehicle_type_id":"4","last_reported":1739228979,"current_range_meters":38800,"station_id":"ce4bhe12rcd13ifvqf30","pricing_plan_id":"cebpf4jnsgd1na2vs0mg"},{"bike_id":"92832d07-2dd7-4fb7-8d66-8828b8751a88","system_id":"levelo_inurba_marseille","lat":43.3031,"lon":5.39209,"is_reserved":false,"is_disabled":false,"rental_uris":{"android":"levelo://app?vid=92832d07-2dd7-4fb7-8d66-8828b8751a88","ios":"levelo://app?vid=92832d07-2dd7-4fb7-8d66-8828b8751a88"},"vehicle_type_id":"4","last_reported":1739228979,"current_range_meters":38800,"station_id":"ce4bgkh2rcd13ifvqbk0","pricing_plan_id":"cebpf4jnsgd1na2vs0mg"},{"bike_id":"a0dd54ee-e890-4da0-a7d9-a7f80b816a23","system_id":"levelo_inurba_marseille","lat":43.27989,"lon":5.41661,"is_reserved":false,"is_disabled":false,"rental_uris":{"android":"levelo://app?vid=a0dd54ee-e890-4da0-a7d9-a7f80b816a23","ios":"levelo://app?vid=a0dd54ee-e890-4da0-a7d9-a7f80b816a23"},"vehicle_type_id":"4","last_reported":1739228979,"current_range_meters":36400,"station_id":"ce4bho12rcd13ifvqh1g","pricing_plan_id":"cebpf4jnsgd1na2vs0mg"},{"bike_id":"1e432c46-6902-4068-bc83-c8d18cce47cc","system_id":"levelo_inurba_marseille","lat":43.26066,"lon":5.39388,"is_reserved":false,"is_disabled":false,"rental_uris":{"android":"levelo://app?vid=1e432c46-6902-4068-bc83-c8d18cce47cc","ios":"levelo://app?vid=1e432c46-6902-4068-bc83-c8d18cce47cc"},"vehicle_type_id":"4","last_reported":1739228979,"current_range_meters":38800,"station_id":"ce4bhh92rcd13ifvqfj0","pricing_plan_id":"cebpf4jnsgd1na2vs0mg"},{"bike_id":"c6577954-718d-4605-b8d7-c82ecd1b7e00","system_id":"levelo_inurba_marseille","lat":43.27987,"lon":5.41662,"is_reserved":false,"is_disabled":false,"rental_uris":{"android":"levelo://app?vid=c6577954-718d-4605-b8d7-c82ecd1b7e00","ios":"levelo://app?vid=c6577954-718d-4605-b8d7-c82ecd1b7e00"},"vehicle_type_id":"4","last_reported":1739228979,"current_range_meters":28800,"station_id":"ce4bho12rcd13ifvqh1g","pricing_plan_id":"cebpf4jnsgd1na2vs0mg"},{"bike_id":"3887b386-3ca2-4422-b535-49b5419b189a","system_id":"levelo_inurba_marseille","lat":43.28362,"lon":5.38107,"is_reserved":false,"is_disabled":false,"rental_uris":{"android":"levelo://app?vid=3887b386-3ca2-4422-b535-49b5419b189a","ios":"levelo://app?vid=3887b386-3ca2-4422-b535-49b5419b189a"},"vehicle_type_id":"4","last_reported":1739228979,"current_range_meters":30800,"station_id":"ce4bh412rcd13ifvqdr0","pricing_plan_id":"cebpf4jnsgd1na2vs0mg"},{"bike_id":"6ad12fed-a7c3-4ded-a0c5-213958e34b8e","system_id":"levelo_inurba_marseille","lat":43.32483,"lon":5.36563,"is_reserved":false,"is_disabled":false,"rental_uris":{"android":"levelo://app?vid=6ad12fed-a7c3-4ded-a0c5-213958e34b8e","ios":"levelo://app?vid=6ad12fed-a7c3-4ded-a0c5-213958e34b8e"},"vehicle_type_id":"4","last_reported":1739228979,"current_range_meters":38800,"station_id":"ce4bhs12rcd13ifvqhvg","pricing_plan_id":"cebpf4jnsgd1na2vs0mg"},{"bike_id":"ff82ee3e-6927-4929-9ab9-69d9ba0b2981","system_id":"levelo_inurba_marseille","lat":43.27945,"lon":5.41041,"is_reserved":false,"is_disabled":true,"rental_uris":{"android":"levelo://app?vid=ff82ee3e-6927-4929-9ab9-69d9ba0b2981","ios":"levelo://app?vid=ff82ee3e-6927-4929-9ab9-69d9ba0b2981"},"vehicle_type_id":"4","last_reported":1739228979,"current_range_meters":0,"station_id":"ce4bhnp2rcd13ifvqh0g","pricing_plan_id":"cebpf4jnsgd1na2vs0mg"},{"bike_id":"acfa6e83-9dec-41be-a012-0d6b6130d9d9","system_id":"levelo_inurba_marseille","lat":43.31109,"lon":5.37768,"is_reserved":false,"is_disabled":false,"rental_uris":{"android":"levelo://app?vid=acfa6e83-9dec-41be-a012-0d6b6130d9d9","ios":"levelo://app?vid=acfa6e83-9dec-41be-a012-0d6b6130d9d9"},"vehicle_type_id":"4","last_reported":1739228979,"current_range_meters":34800,"station_id":"ce4bgt92rcd13ifvqcg0","pricing_plan_id":"cebpf4jnsgd1na2vs0mg"},{"bike_id":"acb6dbc2-db3a-4407-bf19-c5e8f08eeb54","system_id":"levelo_inurba_marseille","lat":43.26932,"lon":5.38915,"is_reserved":false,"is_disabled":false,"rental_uris":{"android":"levelo://app?vid=acb6dbc2-db3a-4407-bf19-c5e8f08eeb54","ios":"levelo://app?vid=acb6dbc2-db3a-4407-bf19-c5e8f08eeb54"},"vehicle_type_id":"4","last_reported":1739228979,"current_range_meters":8000,"station_id":"ce4bhhh2rcd13ifvqfl0","pricing_plan_id":"cebpf4jnsgd1na2vs0mg"},{"bike_id":"6137e2b6-9f28-4b0a-8923-7198ab8d9ffc","system_id":"levelo_inurba_marseille","lat":43.29054,"lon":5.38677,"is_reserved":false,"is_disabled":false,"rental_uris":{"android":"levelo://app?vid=6137e2b6-9f28-4b0a-8923-7198ab8d9ffc","ios":"levelo://app?vid=6137e2b6-9f28-4b0a-8923-7198ab8d9ffc"},"vehicle_type_id":"4","last_reported":1739228979,"current_range_meters":23200,"station_id":"ce4bh4p2rcd13ifvqe0g","pricing_plan_id":"cebpf4jnsgd1na2vs0mg"},{"bike_id":"6bd428a5-feea-4bd8-8317-4bf65413ce8e","system_id":"levelo_inurba_marseille","lat":43.28453,"lon":5.35884,"is_reserved":false,"is_disabled":false,"rental_uris":{"android":"levelo://app?vid=6bd428a5-feea-4bd8-8317-4bf65413ce8e","ios":"levelo://app?vid=6bd428a5-feea-4bd8-8317-4bf65413ce8e"},"vehicle_type_id":"4","last_reported":1739228979,"current_range_meters":22800,"station_id":"ce4bhah2rcd13ifvqei0","pricing_plan_id":"cebpf4jnsgd1na2vs0mg"},{"bike_id":"783ee94b-6044-42f0-85b3-7d1aca1b3d61","system_id":"levelo_inurba_marseille","lat":43.2955,"lon":5.37518,"is_reserved":false,"is_disabled":true,"rental_uris":{"android":"levelo://app?vid=783ee94b-6044-42f0-85b3-7d1aca1b3d61","ios":"levelo://app?vid=783ee94b-6044-42f0-85b3-7d1aca1b3d61"},"vehicle_type_id":"4","last_reported":1739228979,"current_range_meters":22800,"station_id":"ce4bgkp2rcd13ifvqbmg","pricing_plan_id":"cebpf4jnsgd1na2vs0mg"},{"bike_id":"fc63d1c6-39db-42fc-a5f0-8ec761e9b064","system_id":"levelo_inurba_marseille","lat":43.31734,"lon":5.40444,"is_reserved":false,"is_disabled":false,"rental_uris":{"android":"levelo://app?vid=fc63d1c6-39db-42fc-a5f0-8ec761e9b064","ios":"levelo://app?vid=fc63d1c6-39db-42fc-a5f0-8ec761e9b064"},"vehicle_type_id":"4","last_reported":1739228979,"current_range_meters":38800,"station_id":"ce4bh012rcd13ifvqd00","pricing_plan_id":"cebpf4jnsgd1na2vs0mg"},{"bike_id":"9e4564f0-0519-46c9-beea-73f529a3ce6a","system_id":"levelo_inurba_marseille","lat":43.24804,"lon":5.37476,"is_reserved":false,"is_disabled":false,"rental_uris":{"android":"levelo://app?vid=9e4564f0-0519-46c9-beea-73f529a3ce6a","ios":"levelo://app?vid=9e4564f0-0519-46c9-beea-73f529a3ce6a"},"vehicle_type_id":"4","last_reported":1739228979,"current_range_meters":36000,"station_id":"ce4bhgh2rcd13ifvqfb0","pricing_plan_id":"cebpf4jnsgd1na2vs0mg"},{"bike_id":"c06e4f36-e54b-428e-ae8e-e2084d39a4ca","system_id":"levelo_inurba_marseille","lat":43.30096,"lon":5.39084,"is_reserved":false,"is_disabled":false,"rental_uris":{"android":"levelo://app?vid=c06e4f36-e54b-428e-ae8e-e2084d39a4ca","ios":"levelo://app?vid=c06e4f36-e54b-428e-ae8e-e2084d39a4ca"},"vehicle_type_id":"4","last_reported":1739228979,"current_range_meters":38400,"station_id":"ce4bh192rcd13ifvqdb0","pricing_plan_id":"cebpf4jnsgd1na2vs0mg"},{"bike_id":"4fec62a4-5d14-461f-a07c-ceeb3a48fbed","system_id":"levelo_inurba_marseille","lat":43.31063,"lon":5.38342,"is_reserved":false,"is_disabled":false,"rental_uris":{"android":"levelo://app?vid=4fec62a4-5d14-461f-a07c-ceeb3a48fbed","ios":"levelo://app?vid=4fec62a4-5d14-461f-a07c-ceeb3a48fbed"},"vehicle_type_id":"4","last_reported":1739228979,"current_range_meters":38800,"station_id":"ce4bgv92rcd13ifvqcr0","pricing_plan_id":"cebpf4jnsgd1na2vs0mg"},{"bike_id":"072d3ca1-ecff-4f62-b448-9bece6c27d45","system_id":"levelo_inurba_marseille","lat":43.30881,"lon":5.39649,"is_reserved":false,"is_disabled":false,"rental_uris":{"android":"levelo://app?vid=072d3ca1-ecff-4f62-b448-9bece6c27d45","ios":"levelo://app?vid=072d3ca1-ecff-4f62-b448-9bece6c27d45"},"vehicle_type_id":"4","last_reported":1739228979,"current_range_meters":38800,"station_id":"ce4bh012rcd13ifvqcv0","pricing_plan_id":"cebpf4jnsgd1na2vs0mg"},{"bike_id":"ab859326-8c26-4d6c-a7c6-3f98b177784c","system_id":"levelo_inurba_marseille","lat":43.27069,"lon":5.42285,"is_reserved":false,"is_disabled":false,"rental_uris":{"android":"levelo://app?vid=ab859326-8c26-4d6c-a7c6-3f98b177784c","ios":"levelo://app?vid=ab859326-8c26-4d6c-a7c6-3f98b177784c"},"vehicle_type_id":"4","last_reported":1739228979,"current_range_meters":38800,"station_id":"ce4bhk92rcd13ifvqgb0","pricing_plan_id":"cebpf4jnsgd1na2vs0mg"},{"bike_id":"111672d5-ab51-46ac-b98d-b7bc77f4bbf9","system_id":"levelo_inurba_marseille","lat":43.28087,"lon":5.39663,"is_reserved":false,"is_disabled":false,"rental_uris":{"android":"levelo://app?vid=111672d5-ab51-46ac-b98d-b7bc77f4bbf9","ios":"levelo://app?vid=111672d5-ab51-46ac-b98d-b7bc77f4bbf9"},"vehicle_type_id":"4","last_reported":1739228979,"current_range_meters":39200,"station_id":"ce4bho12rcd13ifvqh2g","pricing_plan_id":"cebpf4jnsgd1na2vs0mg"},{"bike_id":"8e7ce03c-394f-4066-aafd-5b16027f082f","system_id":"levelo_inurba_marseille","lat":43.28354,"lon":5.38103,"is_reserved":false,"is_disabled":false,"rental_uris":{"android":"levelo://app?vid=8e7ce03c-394f-4066-aafd-5b16027f082f","ios":"levelo://app?vid=8e7ce03c-394f-4066-aafd-5b16027f082f"},"vehicle_type_id":"4","last_reported":1739228979,"current_range_meters":38400,"station_id":"ce4bh412rcd13ifvqdr0","pricing_plan_id":"cebpf4jnsgd1na2vs0mg"},{"bike_id":"c207da51-5df9-4d17-90fe-8ce312152015","system_id":"levelo_inurba_marseille","lat":43.28716,"lon":5.37945,"is_reserved":false,"is_disabled":false,"rental_uris":{"android":"levelo://app?vid=c207da51-5df9-4d17-90fe-8ce312152015","ios":"levelo://app?vid=c207da51-5df9-4d17-90fe-8ce312152015"},"vehicle_type_id":"4","last_reported":1739228979,"current_range_meters":22000,"station_id":"ce4bh9p2rcd13ifvqec0","pricing_plan_id":"cebpf4jnsgd1na2vs0mg"},{"bike_id":"6803ddfa-d502-42a2-ad93-8e0a9a783768","system_id":"levelo_inurba_marseille","lat":43.26027,"lon":5.37576,"is_reserved":false,"is_disabled":false,"rental_uris":{"android":"levelo://app?vid=6803ddfa-d502-42a2-ad93-8e0a9a783768","ios":"levelo://app?vid=6803ddfa-d502-42a2-ad93-8e0a9a783768"},"vehicle_type_id":"4","last_reported":1739228979,"current_range_meters":23200,"station_id":"ce4bhgh2rcd13ifvqfa0","pricing_plan_id":"cebpf4jnsgd1na2vs0mg"},{"bike_id":"ec577290-415e-4adf-bee8-70a702854fd7","system_id":"levelo_inurba_marseille","lat":43.28463,"lon":5.35891,"is_reserved":false,"is_disabled":false,"rental_uris":{"android":"levelo://app?vid=ec577290-415e-4adf-bee8-70a702854fd7","ios":"levelo://app?vid=ec577290-415e-4adf-bee8-70a702854fd7"},"vehicle_type_id":"4","last_reported":1739228979,"current_range_meters":38800,"station_id":"ce4bhah2rcd13ifvqei0","pricing_plan_id":"cebpf4jnsgd1na2vs0mg"},{"bike_id":"e1a1cb17-6051-49c6-8a5e-b8f5a47c715d","system_id":"levelo_inurba_marseille","lat":43.28844,"lon":5.35859,"is_reserved":false,"is_disabled":false,"rental_uris":{"android":"levelo://app?vid=e1a1cb17-6051-49c6-8a5e-b8f5a47c715d","ios":"levelo://app?vid=e1a1cb17-6051-49c6-8a5e-b8f5a47c715d"},"vehicle_type_id":"4","last_reported":1739228979,"current_range_meters":18800,"station_id":"ce4bhb12rcd13ifvqem0","pricing_plan_id":"cebpf4jnsgd1na2vs0mg"},{"bike_id":"f798cbc4-a869-471f-bce8-f64397eebe81","system_id":"levelo_inurba_marseille","lat":43.23964,"lon":5.36633,"is_reserved":false,"is_disabled":false,"rental_uris":{"android":"levelo://app?vid=f798cbc4-a869-471f-bce8-f64397eebe81","ios":"levelo://app?vid=f798cbc4-a869-471f-bce8-f64397eebe81"},"vehicle_type_id":"4","last_reported":1739228979,"current_range_meters":24400,"station_id":"ce4bhi12rcd13ifvqfp0","pricing_plan_id":"cebpf4jnsgd1na2vs0mg"},{"bike_id":"70f8b8f3-c647-46aa-87a6-806fb665fa37","system_id":"levelo_inurba_marseille","lat":43.28033,"lon":5.3695,"is_reserved":false,"is_disabled":false,"rental_uris":{"android":"levelo://app?vid=70f8b8f3-c647-46aa-87a6-806fb665fa37","ios":"levelo://app?vid=70f8b8f3-c647-46aa-87a6-806fb665fa37"},"vehicle_type_id":"4","last_reported":1739228979,"current_range_meters":19200,"station_id":"ce4bha12rcd13ifvqef0","pricing_plan_id":"cebpf4jnsgd1na2vs0mg"},{"bike_id":"67fb0221-0f3c-44e3-8ac0-5b796de6981d","system_id":"levelo_inurba_marseille","lat":43.31327,"lon":5.39692,"is_reserved":false,"is_disabled":false,"rental_uris":{"android":"levelo://app?vid=67fb0221-0f3c-44e3-8ac0-5b796de6981d","ios":"levelo://app?vid=67fb0221-0f3c-44e3-8ac0-5b796de6981d"},"vehicle_type_id":"4","last_reported":1739228979,"current_range_meters":38800,"station_id":"ce4bgvp2rcd13ifvqcu0","pricing_plan_id":"cebpf4jnsgd1na2vs0mg"},{"bike_id":"82432e1b-c28c-4f7d-a515-670f97b6b6c0","system_id":"levelo_inurba_marseille","lat":43.29035,"lon":5.3997,"is_reserved":false,"is_disabled":false,"rental_uris":{"android":"levelo://app?vid=82432e1b-c28c-4f7d-a515-670f97b6b6c0","ios":"levelo://app?vid=82432e1b-c28c-4f7d-a515-670f97b6b6c0"},"vehicle_type_id":"4","last_reported":1739228979,"current_range_meters":39200,"station_id":"ce4bh392rcd13ifvqdm0","pricing_plan_id":"cebpf4jnsgd1na2vs0mg"},{"bike_id":"4040bf92-0ac9-42a4-ae82-9be1ee718abf","system_id":"levelo_inurba_marseille","lat":43.28713,"lon":5.39987,"is_reserved":false,"is_disabled":false,"rental_uris":{"android":"levelo://app?vid=4040bf92-0ac9-42a4-ae82-9be1ee718abf","ios":"levelo://app?vid=4040bf92-0ac9-42a4-ae82-9be1ee718abf"},"vehicle_type_id":"4","last_reported":1739228979,"current_range_meters":30800,"station_id":"ce4bho92rcd13ifvqh3g","pricing_plan_id":"cebpf4jnsgd1na2vs0mg"},{"bike_id":"02a2d4ef-6811-4484-9030-78f1ed0ac8b0","system_id":"levelo_inurba_marseille","lat":43.30655,"lon":5.40092,"is_reserved":false,"is_disabled":false,"rental_uris":{"android":"levelo://app?vid=02a2d4ef-6811-4484-9030-78f1ed0ac8b0","ios":"levelo://app?vid=02a2d4ef-6811-4484-9030-78f1ed0ac8b0"},"vehicle_type_id":"4","last_reported":1739228979,"current_range_meters":20400,"station_id":"ce4bh112rcd13ifvqda0","pricing_plan_id":"cebpf4jnsgd1na2vs0mg"},{"bike_id":"8a9d43b1-a5e8-4b42-bffc-eb87f60073b3","system_id":"levelo_inurba_marseille","lat":43.31119,"lon":5.37765,"is_reserved":false,"is_disabled":false,"rental_uris":{"android":"levelo://app?vid=8a9d43b1-a5e8-4b42-bffc-eb87f60073b3","ios":"levelo://app?vid=8a9d43b1-a5e8-4b42-bffc-eb87f60073b3"},"vehicle_type_id":"4","last_reported":1739228979,"current_range_meters":24800,"station_id":"ce4bgt92rcd13ifvqcg0","pricing_plan_id":"cebpf4jnsgd1na2vs0mg"},{"bike_id":"bf8cd02e-ccdc-4523-894a-3fce83d782e3","system_id":"levelo_inurba_marseille","lat":43.33705,"lon":5.39136,"is_reserved":false,"is_disabled":false,"rental_uris":{"android":"levelo://app?vid=bf8cd02e-ccdc-4523-894a-3fce83d782e3","ios":"levelo://app?vid=bf8cd02e-ccdc-4523-894a-3fce83d782e3"},"vehicle_type_id":"4","last_reported":1739228979,"current_range_meters":38000,"station_id":"ce4bhr92rcd13ifvqhsg","pricing_plan_id":"cebpf4jnsgd1na2vs0mg"},{"bike_id":"7c6bbf7f-41d8-44ee-ba01-3c107a914dec","system_id":"levelo_inurba_marseille","lat":43.307517,"lon":5.370807,"is_reserved":false,"is_disabled":false,"rental_uris":{"android":"levelo://app?vid=7c6bbf7f-41d8-44ee-ba01-3c107a914dec","ios":"levelo://app?vid=7c6bbf7f-41d8-44ee-ba01-3c107a914dec"},"vehicle_type_id":"4","last_reported":1739228979,"current_range_meters":26800,"station_id":"","pricing_plan_id":"cebpf4jnsgd1na2vs0mg"},{"bike_id":"6af90271-1507-4de5-be42-26b1d4f0ad28","system_id":"levelo_inurba_marseille","lat":43.29385,"lon":5.37847,"is_reserved":false,"is_disabled":false,"rental_uris":{"android":"levelo://app?vid=6af90271-1507-4de5-be42-26b1d4f0ad28","ios":"levelo://app?vid=6af90271-1507-4de5-be42-26b1d4f0ad28"},"vehicle_type_id":"4","last_reported":1739228979,"current_range_meters":35600,"station_id":"ce4bgjh2rcd13ifvqbf0","pricing_plan_id":"cebpf4jnsgd1na2vs0mg"},{"bike_id":"7ca80e67-cb2b-490a-b839-a5cc2b6a357b","system_id":"levelo_inurba_marseille","lat":43.29187,"lon":5.357994,"is_reserved":false,"is_disabled":false,"rental_uris":{"android":"levelo://app?vid=7ca80e67-cb2b-490a-b839-a5cc2b6a357b","ios":"levelo://app?vid=7ca80e67-cb2b-490a-b839-a5cc2b6a357b"},"vehicle_type_id":"4","last_reported":1739228979,"current_range_meters":38800,"station_id":"ce4bhb12rcd13ifvqel0","pricing_plan_id":"cebpf4jnsgd1na2vs0mg"},{"bike_id":"4dc8f479-26f8-47bd-8349-c21a9116fcc7","system_id":"levelo_inurba_marseille","lat":43.28105,"lon":5.37831,"is_reserved":false,"is_disabled":false,"rental_uris":{"android":"levelo://app?vid=4dc8f479-26f8-47bd-8349-c21a9116fcc7","ios":"levelo://app?vid=4dc8f479-26f8-47bd-8349-c21a9116fcc7"},"vehicle_type_id":"4","last_reported":1739228979,"current_range_meters":27200,"station_id":"ce4bha12rcd13ifvqee0","pricing_plan_id":"cebpf4jnsgd1na2vs0mg"},{"bike_id":"1aa99f4b-8abe-497b-8fe2-6de3812426b4","system_id":"levelo_inurba_marseille","lat":43.2928,"lon":5.40115,"is_reserved":false,"is_disabled":false,"rental_uris":{"android":"levelo://app?vid=1aa99f4b-8abe-497b-8fe2-6de3812426b4","ios":"levelo://app?vid=1aa99f4b-8abe-497b-8fe2-6de3812426b4"},"vehicle_type_id":"4","last_reported":1739228979,"current_range_meters":24400,"station_id":"ce4bh312rcd13ifvqdk0","pricing_plan_id":"cebpf4jnsgd1na2vs0mg"},{"bike_id":"ecc287c0-75f2-4eae-852c-c0cf91f75759","system_id":"levelo_inurba_marseille","lat":43.26971,"lon":5.38929,"is_reserved":false,"is_disabled":false,"rental_uris":{"android":"levelo://app?vid=ecc287c0-75f2-4eae-852c-c0cf91f75759","ios":"levelo://app?vid=ecc287c0-75f2-4eae-852c-c0cf91f75759"},"vehicle_type_id":"4","last_reported":1739228979,"current_range_meters":38000,"station_id":"ce4bhhh2rcd13ifvqfl0","pricing_plan_id":"cebpf4jnsgd1na2vs0mg"},{"bike_id":"a23998b6-71c5-42a7-83ca-228a3a429e78","system_id":"levelo_inurba_marseille","lat":43.30794,"lon":5.38165,"is_reserved":false,"is_disabled":false,"rental_uris":{"android":"levelo://app?vid=a23998b6-71c5-42a7-83ca-228a3a429e78","ios":"levelo://app?vid=a23998b6-71c5-42a7-83ca-228a3a429e78"},"vehicle_type_id":"4","last_reported":1739228979,"current_range_meters":33600,"station_id":"ce4bgt12rcd13ifvqce0","pricing_plan_id":"cebpf4jnsgd1na2vs0mg"},{"bike_id":"a1e1c154-9e5a-4afc-9a7e-cedaf38d9921","system_id":"levelo_inurba_marseille","lat":43.2901,"lon":5.35619,"is_reserved":false,"is_disabled":false,"rental_uris":{"android":"levelo://app?vid=a1e1c154-9e5a-4afc-9a7e-cedaf38d9921","ios":"levelo://app?vid=a1e1c154-9e5a-4afc-9a7e-cedaf38d9921"},"vehicle_type_id":"4","last_reported":1739228979,"current_range_meters":32800,"station_id":"ce4bhb92rcd13ifvqen0","pricing_plan_id":"cebpf4jnsgd1na2vs0mg"},{"bike_id":"4ed2f75a-8eb5-42e2-8b44-19aece7300bb","system_id":"levelo_inurba_marseille","lat":43.28446,"lon":5.39192,"is_reserved":false,"is_disabled":false,"rental_uris":{"android":"levelo://app?vid=4ed2f75a-8eb5-42e2-8b44-19aece7300bb","ios":"levelo://app?vid=4ed2f75a-8eb5-42e2-8b44-19aece7300bb"},"vehicle_type_id":"4","last_reported":1739228979,"current_range_meters":36000,"station_id":"ce4bhoh2rcd13ifvqh5g","pricing_plan_id":"cebpf4jnsgd1na2vs0mg"},{"bike_id":"726fb099-c3d7-4106-beb8-89951bfba46d","system_id":"levelo_inurba_marseille","lat":43.29556,"lon":5.37497,"is_reserved":false,"is_disabled":true,"rental_uris":{"android":"levelo://app?vid=726fb099-c3d7-4106-beb8-89951bfba46d","ios":"levelo://app?vid=726fb099-c3d7-4106-beb8-89951bfba46d"},"vehicle_type_id":"4","last_reported":1739228979,"current_range_meters":32400,"station_id":"ce4bgh92rcd13ifvqb50","pricing_plan_id":"cebpf4jnsgd1na2vs0mg"},{"bike_id":"62c83b91-0012-44d3-82e7-1c92856d675c","system_id":"levelo_inurba_marseille","lat":43.29706,"lon":5.36611,"is_reserved":false,"is_disabled":false,"rental_uris":{"android":"levelo://app?vid=62c83b91-0012-44d3-82e7-1c92856d675c","ios":"levelo://app?vid=62c83b91-0012-44d3-82e7-1c92856d675c"},"vehicle_type_id":"4","last_reported":1739228979,"current_range_meters":29600,"station_id":"ce4bgn12rcd13ifvqbt0","pricing_plan_id":"cebpf4jnsgd1na2vs0mg"},{"bike_id":"eb37c2b3-4c47-451b-8c56-ae87a59a5f54","system_id":"levelo_inurba_marseille","lat":43.28721,"lon":5.37953,"is_reserved":false,"is_disabled":false,"rental_uris":{"android":"levelo://app?vid=eb37c2b3-4c47-451b-8c56-ae87a59a5f54","ios":"levelo://app?vid=eb37c2b3-4c47-451b-8c56-ae87a59a5f54"},"vehicle_type_id":"4","last_reported":1739228979,"current_range_meters":36400,"station_id":"ce4bh9p2rcd13ifvqec0","pricing_plan_id":"cebpf4jnsgd1na2vs0mg"},{"bike_id":"ce077761-b5c2-4be4-aa16-eb408eaef56c","system_id":"levelo_inurba_marseille","lat":43.23179,"lon":5.39986,"is_reserved":false,"is_disabled":false,"rental_uris":{"android":"levelo://app?vid=ce077761-b5c2-4be4-aa16-eb408eaef56c","ios":"levelo://app?vid=ce077761-b5c2-4be4-aa16-eb408eaef56c"},"vehicle_type_id":"4","last_reported":1739228979,"current_range_meters":18800,"station_id":"ce4bhn12rcd13ifvqgqg","pricing_plan_id":"cebpf4jnsgd1na2vs0mg"},{"bike_id":"f7497ba6-7f7b-48c4-bbde-c8698d95bccc","system_id":"levelo_inurba_marseille","lat":43.28461,"lon":5.35903,"is_reserved":false,"is_disabled":false,"rental_uris":{"android":"levelo://app?vid=f7497ba6-7f7b-48c4-bbde-c8698d95bccc","ios":"levelo://app?vid=f7497ba6-7f7b-48c4-bbde-c8698d95bccc"},"vehicle_type_id":"4","last_reported":1739228979,"current_range_meters":38800,"station_id":"ce4bhah2rcd13ifvqei0","pricing_plan_id":"cebpf4jnsgd1na2vs0mg"},{"bike_id":"9836b973-7234-4581-b5b7-19d8b751167e","system_id":"levelo_inurba_marseille","lat":43.24186,"lon":5.39732,"is_reserved":false,"is_disabled":false,"rental_uris":{"android":"levelo://app?vid=9836b973-7234-4581-b5b7-19d8b751167e","ios":"levelo://app?vid=9836b973-7234-4581-b5b7-19d8b751167e"},"vehicle_type_id":"4","last_reported":1739228979,"current_range_meters":4400,"station_id":"ce4bhn12rcd13ifvqgpg","pricing_plan_id":"cebpf4jnsgd1na2vs0mg"},{"bike_id":"55fe04a7-d37a-4ee4-965a-2262a655cb55","system_id":"levelo_inurba_marseille","lat":43.2321,"lon":5.3997,"is_reserved":false,"is_disabled":false,"rental_uris":{"android":"levelo://app?vid=55fe04a7-d37a-4ee4-965a-2262a655cb55","ios":"levelo://app?vid=55fe04a7-d37a-4ee4-965a-2262a655cb55"},"vehicle_type_id":"4","last_reported":1739228979,"current_range_meters":38800,"station_id":"ce4bhn12rcd13ifvqgqg","pricing_plan_id":"cebpf4jnsgd1na2vs0mg"},{"bike_id":"3441c74a-282b-45aa-b329-9e43a88c8a80","system_id":"levelo_inurba_marseille","lat":43.24817,"lon":5.37456,"is_reserved":false,"is_disabled":false,"rental_uris":{"android":"levelo://app?vid=3441c74a-282b-45aa-b329-9e43a88c8a80","ios":"levelo://app?vid=3441c74a-282b-45aa-b329-9e43a88c8a80"},"vehicle_type_id":"4","last_reported":1739228979,"current_range_meters":18000,"station_id":"ce4bhgh2rcd13ifvqfb0","pricing_plan_id":"cebpf4jnsgd1na2vs0mg"},{"bike_id":"e00cd517-4a6d-40d8-b46e-27fb98e2bb39","system_id":"levelo_inurba_marseille","lat":43.28446,"lon":5.3591,"is_reserved":false,"is_disabled":false,"rental_uris":{"android":"levelo://app?vid=e00cd517-4a6d-40d8-b46e-27fb98e2bb39","ios":"levelo://app?vid=e00cd517-4a6d-40d8-b46e-27fb98e2bb39"},"vehicle_type_id":"4","last_reported":1739228979,"current_range_meters":38800,"station_id":"ce4bhah2rcd13ifvqei0","pricing_plan_id":"cebpf4jnsgd1na2vs0mg"},{"bike_id":"e0ccb4b3-d7b2-4408-af9b-bfc9aec9bf8a","system_id":"levelo_inurba_marseille","lat":43.30927,"lon":5.40141,"is_reserved":false,"is_disabled":false,"rental_uris":{"android":"levelo://app?vid=e0ccb4b3-d7b2-4408-af9b-bfc9aec9bf8a","ios":"levelo://app?vid=e0ccb4b3-d7b2-4408-af9b-bfc9aec9bf8a"},"vehicle_type_id":"4","last_reported":1739228979,"current_range_meters":28400,"station_id":"ce4bgvp2rcd13ifvqct0","pricing_plan_id":"cebpf4jnsgd1na2vs0mg"},{"bike_id":"3964663c-b0ef-4fd9-bca2-5e6eb580081e","system_id":"levelo_inurba_marseille","lat":43.28149,"lon":5.39873,"is_reserved":false,"is_disabled":false,"rental_uris":{"android":"levelo://app?vid=3964663c-b0ef-4fd9-bca2-5e6eb580081e","ios":"levelo://app?vid=3964663c-b0ef-4fd9-bca2-5e6eb580081e"},"vehicle_type_id":"4","last_reported":1739228979,"current_range_meters":18000,"station_id":"","pricing_plan_id":"cebpf4jnsgd1na2vs0mg"},{"bike_id":"8e2f681c-56b3-4dbe-acf6-d95949b97842","system_id":"levelo_inurba_marseille","lat":43.301561,"lon":5.380922,"is_reserved":false,"is_disabled":true,"rental_uris":{"android":"levelo://app?vid=8e2f681c-56b3-4dbe-acf6-d95949b97842","ios":"levelo://app?vid=8e2f681c-56b3-4dbe-acf6-d95949b97842"},"vehicle_type_id":"4","last_reported":1739228979,"current_range_meters":25200,"station_id":"","pricing_plan_id":"cebpf4jnsgd1na2vs0mg"},{"bike_id":"6e1b6112-cd26-421f-b157-6ac716f542d7","system_id":"levelo_inurba_marseille","lat":43.27177,"lon":5.40997,"is_reserved":false,"is_disabled":false,"rental_uris":{"android":"levelo://app?vid=6e1b6112-cd26-421f-b157-6ac716f542d7","ios":"levelo://app?vid=6e1b6112-cd26-421f-b157-6ac716f542d7"},"vehicle_type_id":"4","last_reported":1739228979,"current_range_meters":36800,"station_id":"ce4bhl12rcd13ifvqgf0","pricing_plan_id":"cebpf4jnsgd1na2vs0mg"},{"bike_id":"a3334905-d408-452d-a361-b335eb040aac","system_id":"levelo_inurba_marseille","lat":43.29036,"lon":5.35928,"is_reserved":false,"is_disabled":false,"rental_uris":{"android":"levelo://app?vid=a3334905-d408-452d-a361-b335eb040aac","ios":"levelo://app?vid=a3334905-d408-452d-a361-b335eb040aac"},"vehicle_type_id":"4","last_reported":1739228979,"current_range_meters":39200,"station_id":"ce4bha92rcd13ifvqeg0","pricing_plan_id":"cebpf4jnsgd1na2vs0mg"},{"bike_id":"5a712f7b-faea-4b41-b7bd-078b067ddb56","system_id":"levelo_inurba_marseille","lat":43.2558,"lon":5.38238,"is_reserved":false,"is_disabled":true,"rental_uris":{"android":"levelo://app?vid=5a712f7b-faea-4b41-b7bd-078b067ddb56","ios":"levelo://app?vid=5a712f7b-faea-4b41-b7bd-078b067ddb56"},"vehicle_type_id":"4","last_reported":1739228979,"current_range_meters":30800,"station_id":"ce4bhih2rcd13ifvqfs0","pricing_plan_id":"cebpf4jnsgd1na2vs0mg"},{"bike_id":"b41d8475-1b61-4022-b648-2777adae10ea","system_id":"levelo_inurba_marseille","lat":43.24173,"lon":5.36403,"is_reserved":false,"is_disabled":false,"rental_uris":{"android":"levelo://app?vid=b41d8475-1b61-4022-b648-2777adae10ea","ios":"levelo://app?vid=b41d8475-1b61-4022-b648-2777adae10ea"},"vehicle_type_id":"4","last_reported":1739228979,"current_range_meters":28000,"station_id":"cpo36qri1sfpv3e86is0","pricing_plan_id":"cebpf4jnsgd1na2vs0mg"},{"bike_id":"797c91fd-a875-467b-999b-207e5af3706b","system_id":"levelo_inurba_marseille","lat":43.278989,"lon":5.380059,"is_reserved":false,"is_disabled":false,"rental_uris":{"android":"levelo://app?vid=797c91fd-a875-467b-999b-207e5af3706b","ios":"levelo://app?vid=797c91fd-a875-467b-999b-207e5af3706b"},"vehicle_type_id":"4","last_reported":1739228979,"current_range_meters":39200,"station_id":"ce4bhf92rcd13ifvqf50","pricing_plan_id":"cebpf4jnsgd1na2vs0mg"},{"bike_id":"3b3275f6-005e-466d-a091-71f91326b576","system_id":"levelo_inurba_marseille","lat":43.33605,"lon":5.41019,"is_reserved":false,"is_disabled":false,"rental_uris":{"android":"levelo://app?vid=3b3275f6-005e-466d-a091-71f91326b576","ios":"levelo://app?vid=3b3275f6-005e-466d-a091-71f91326b576"},"vehicle_type_id":"4","last_reported":1739228979,"current_range_meters":9600,"station_id":"ce4bhqh2rcd13ifvqhmg","pricing_plan_id":"cebpf4jnsgd1na2vs0mg"},{"bike_id":"fa1d3426-6924-4679-877d-315e8d2e7c0a","system_id":"levelo_inurba_marseille","lat":43.25054,"lon":5.40302,"is_reserved":false,"is_disabled":false,"rental_uris":{"android":"levelo://app?vid=fa1d3426-6924-4679-877d-315e8d2e7c0a","ios":"levelo://app?vid=fa1d3426-6924-4679-877d-315e8d2e7c0a"},"vehicle_type_id":"4","last_reported":1739228979,"current_range_meters":38400,"station_id":"","pricing_plan_id":"cebpf4jnsgd1na2vs0mg"},{"bike_id":"c6d668f6-941c-4533-8dc4-268029ce8ce4","system_id":"levelo_inurba_marseille","lat":43.27831,"lon":5.39201,"is_reserved":false,"is_disabled":false,"rental_uris":{"android":"levelo://app?vid=c6d668f6-941c-4533-8dc4-268029ce8ce4","ios":"levelo://app?vid=c6d668f6-941c-4533-8dc4-268029ce8ce4"},"vehicle_type_id":"4","last_reported":1739228979,"current_range_meters":39200,"station_id":"ce4bhjp2rcd13ifvqga0","pricing_plan_id":"cebpf4jnsgd1na2vs0mg"},{"bike_id":"5c5185fd-8820-4254-a5c9-0e6a473deec7","system_id":"levelo_inurba_marseille","lat":43.27801,"lon":5.42112,"is_reserved":false,"is_disabled":true,"rental_uris":{"android":"levelo://app?vid=5c5185fd-8820-4254-a5c9-0e6a473deec7","ios":"levelo://app?vid=5c5185fd-8820-4254-a5c9-0e6a473deec7"},"vehicle_type_id":"4","last_reported":1739228979,"current_range_meters":800,"station_id":"","pricing_plan_id":"cebpf4jnsgd1na2vs0mg"},{"bike_id":"ab8b8851-fc81-4397-b7ae-787e68797f4f","system_id":"levelo_inurba_marseille","lat":43.31758,"lon":5.39013,"is_reserved":false,"is_disabled":false,"rental_uris":{"android":"levelo://app?vid=ab8b8851-fc81-4397-b7ae-787e68797f4f","ios":"levelo://app?vid=ab8b8851-fc81-4397-b7ae-787e68797f4f"},"vehicle_type_id":"4","last_reported":1739228979,"current_range_meters":39200,"station_id":"ce4bhqp2rcd13ifvqhng","pricing_plan_id":"cebpf4jnsgd1na2vs0mg"},{"bike_id":"92f07dea-90ac-401f-aa24-d823119dcbf1","system_id":"levelo_inurba_marseille","lat":43.28851,"lon":5.3932,"is_reserved":false,"is_disabled":false,"rental_uris":{"android":"levelo://app?vid=92f07dea-90ac-401f-aa24-d823119dcbf1","ios":"levelo://app?vid=92f07dea-90ac-401f-aa24-d823119dcbf1"},"vehicle_type_id":"4","last_reported":1739228979,"current_range_meters":37600,"station_id":"ce4bh2p2rcd13ifvqdi0","pricing_plan_id":"cebpf4jnsgd1na2vs0mg"},{"bike_id":"51ab7186-5043-4bed-baca-73708608a302","system_id":"levelo_inurba_marseille","lat":43.29584,"lon":5.37026,"is_reserved":false,"is_disabled":true,"rental_uris":{"android":"levelo://app?vid=51ab7186-5043-4bed-baca-73708608a302","ios":"levelo://app?vid=51ab7186-5043-4bed-baca-73708608a302"},"vehicle_type_id":"4","last_reported":1739228979,"current_range_meters":9600,"station_id":"","pricing_plan_id":"cebpf4jnsgd1na2vs0mg"},{"bike_id":"3664dbbc-23a1-4cc8-b192-1f5bf82ad2ae","system_id":"levelo_inurba_marseille","lat":43.2718,"lon":5.40986,"is_reserved":false,"is_disabled":false,"rental_uris":{"android":"levelo://app?vid=3664dbbc-23a1-4cc8-b192-1f5bf82ad2ae","ios":"levelo://app?vid=3664dbbc-23a1-4cc8-b192-1f5bf82ad2ae"},"vehicle_type_id":"4","last_reported":1739228979,"current_range_meters":39200,"station_id":"ce4bhl12rcd13ifvqgf0","pricing_plan_id":"cebpf4jnsgd1na2vs0mg"},{"bike_id":"7aea78e9-6742-4e6c-8617-877f951312f7","system_id":"levelo_inurba_marseille","lat":43.3011,"lon":5.39063,"is_reserved":false,"is_disabled":false,"rental_uris":{"android":"levelo://app?vid=7aea78e9-6742-4e6c-8617-877f951312f7","ios":"levelo://app?vid=7aea78e9-6742-4e6c-8617-877f951312f7"},"vehicle_type_id":"4","last_reported":1739228979,"current_range_meters":17200,"station_id":"ce4bh192rcd13ifvqdb0","pricing_plan_id":"cebpf4jnsgd1na2vs0mg"},{"bike_id":"a8158c90-43cd-485b-b227-ab2c6a7833b6","system_id":"levelo_inurba_marseille","lat":43.28038,"lon":5.36946,"is_reserved":false,"is_disabled":false,"rental_uris":{"android":"levelo://app?vid=a8158c90-43cd-485b-b227-ab2c6a7833b6","ios":"levelo://app?vid=a8158c90-43cd-485b-b227-ab2c6a7833b6"},"vehicle_type_id":"4","last_reported":1739228979,"current_range_meters":30800,"station_id":"ce4bha12rcd13ifvqef0","pricing_plan_id":"cebpf4jnsgd1na2vs0mg"},{"bike_id":"0b2730f4-2761-48a6-b43d-961c9e696ec1","system_id":"levelo_inurba_marseille","lat":43.28464,"lon":5.35897,"is_reserved":false,"is_disabled":false,"rental_uris":{"android":"levelo://app?vid=0b2730f4-2761-48a6-b43d-961c9e696ec1","ios":"levelo://app?vid=0b2730f4-2761-48a6-b43d-961c9e696ec1"},"vehicle_type_id":"4","last_reported":1739228979,"current_range_meters":39200,"station_id":"ce4bhah2rcd13ifvqei0","pricing_plan_id":"cebpf4jnsgd1na2vs0mg"},{"bike_id":"890464c4-7185-412e-a93b-79d798bd90c9","system_id":"levelo_inurba_marseille","lat":43.28448,"lon":5.39191,"is_reserved":false,"is_disabled":false,"rental_uris":{"android":"levelo://app?vid=890464c4-7185-412e-a93b-79d798bd90c9","ios":"levelo://app?vid=890464c4-7185-412e-a93b-79d798bd90c9"},"vehicle_type_id":"4","last_reported":1739228979,"current_range_meters":39200,"station_id":"ce4bhoh2rcd13ifvqh5g","pricing_plan_id":"cebpf4jnsgd1na2vs0mg"},{"bike_id":"3e4d7c8f-9582-4c93-bb17-a6912e323d2f","system_id":"levelo_inurba_marseille","lat":43.30262,"lon":5.40093,"is_reserved":false,"is_disabled":false,"rental_uris":{"android":"levelo://app?vid=3e4d7c8f-9582-4c93-bb17-a6912e323d2f","ios":"levelo://app?vid=3e4d7c8f-9582-4c93-bb17-a6912e323d2f"},"vehicle_type_id":"4","last_reported":1739228979,"current_range_meters":24800,"station_id":"ce4bgvh2rcd13ifvqcs0","pricing_plan_id":"cebpf4jnsgd1na2vs0mg"},{"bike_id":"8517ba79-8da0-4668-8cee-0db8d18cba54","system_id":"levelo_inurba_marseille","lat":43.29521,"lon":5.39052,"is_reserved":false,"is_disabled":false,"rental_uris":{"android":"levelo://app?vid=8517ba79-8da0-4668-8cee-0db8d18cba54","ios":"levelo://app?vid=8517ba79-8da0-4668-8cee-0db8d18cba54"},"vehicle_type_id":"4","last_reported":1739228979,"current_range_meters":24800,"station_id":"ce4bh3p2rcd13ifvqdp0","pricing_plan_id":"cebpf4jnsgd1na2vs0mg"},{"bike_id":"6a61494c-64e7-4150-8260-115f4cb420a4","system_id":"levelo_inurba_marseille","lat":43.29261,"lon":5.38441,"is_reserved":false,"is_disabled":false,"rental_uris":{"android":"levelo://app?vid=6a61494c-64e7-4150-8260-115f4cb420a4","ios":"levelo://app?vid=6a61494c-64e7-4150-8260-115f4cb420a4"},"vehicle_type_id":"4","last_reported":1739228979,"current_range_meters":11200,"station_id":"ce4bh692rcd13ifvqea0","pricing_plan_id":"cebpf4jnsgd1na2vs0mg"},{"bike_id":"d77ebab4-8330-4bd8-b943-62e52e95c5a3","system_id":"levelo_inurba_marseille","lat":43.2987,"lon":5.39733,"is_reserved":false,"is_disabled":false,"rental_uris":{"android":"levelo://app?vid=d77ebab4-8330-4bd8-b943-62e52e95c5a3","ios":"levelo://app?vid=d77ebab4-8330-4bd8-b943-62e52e95c5a3"},"vehicle_type_id":"4","last_reported":1739228979,"current_range_meters":38000,"station_id":"ce4bh0h2rcd13ifvqd50","pricing_plan_id":"cebpf4jnsgd1na2vs0mg"},{"bike_id":"0cdcc8f7-f674-43f1-9b73-0f1949650402","system_id":"levelo_inurba_marseille","lat":43.23961,"lon":5.36634,"is_reserved":false,"is_disabled":false,"rental_uris":{"android":"levelo://app?vid=0cdcc8f7-f674-43f1-9b73-0f1949650402","ios":"levelo://app?vid=0cdcc8f7-f674-43f1-9b73-0f1949650402"},"vehicle_type_id":"4","last_reported":1739228979,"current_range_meters":37600,"station_id":"ce4bhi12rcd13ifvqfp0","pricing_plan_id":"cebpf4jnsgd1na2vs0mg"},{"bike_id":"81c3dfa4-944c-4aff-b7a7-830072469697","system_id":"levelo_inurba_marseille","lat":43.29939,"lon":5.36521,"is_reserved":false,"is_disabled":false,"rental_uris":{"android":"levelo://app?vid=81c3dfa4-944c-4aff-b7a7-830072469697","ios":"levelo://app?vid=81c3dfa4-944c-4aff-b7a7-830072469697"},"vehicle_type_id":"4","last_reported":1739228979,"current_range_meters":34800,"station_id":"ce4bgm92rcd13ifvqbr0","pricing_plan_id":"cebpf4jnsgd1na2vs0mg"},{"bike_id":"de77abfa-6f74-40e9-8131-b7884eda37eb","system_id":"levelo_inurba_marseille","lat":43.29943,"lon":5.39409,"is_reserved":false,"is_disabled":false,"rental_uris":{"android":"levelo://app?vid=de77abfa-6f74-40e9-8131-b7884eda37eb","ios":"levelo://app?vid=de77abfa-6f74-40e9-8131-b7884eda37eb"},"vehicle_type_id":"4","last_reported":1739228979,"current_range_meters":30400,"station_id":"","pricing_plan_id":"cebpf4jnsgd1na2vs0mg"},{"bike_id":"44dd6324-cf8b-4645-bc5d-6f2dbec52f2a","system_id":"levelo_inurba_marseille","lat":43.26562,"lon":5.3903,"is_reserved":false,"is_disabled":false,"rental_uris":{"android":"levelo://app?vid=44dd6324-cf8b-4645-bc5d-6f2dbec52f2a","ios":"levelo://app?vid=44dd6324-cf8b-4645-bc5d-6f2dbec52f2a"},"vehicle_type_id":"4","last_reported":1739228979,"current_range_meters":16800,"station_id":"ce4bhe12rcd13ifvqf30","pricing_plan_id":"cebpf4jnsgd1na2vs0mg"},{"bike_id":"a68d07ec-a0fa-4a7d-a16c-34ee0dd7a8a9","system_id":"levelo_inurba_marseille","lat":43.31279,"lon":5.40163,"is_reserved":false,"is_disabled":false,"rental_uris":{"android":"levelo://app?vid=a68d07ec-a0fa-4a7d-a16c-34ee0dd7a8a9","ios":"levelo://app?vid=a68d07ec-a0fa-4a7d-a16c-34ee0dd7a8a9"},"vehicle_type_id":"4","last_reported":1739228979,"current_range_meters":38800,"station_id":"ce4bh092rcd13ifvqd30","pricing_plan_id":"cebpf4jnsgd1na2vs0mg"},{"bike_id":"ee079ffa-4416-4a91-bc98-3bd665acea3b","system_id":"levelo_inurba_marseille","lat":43.33722,"lon":5.39185,"is_reserved":false,"is_disabled":false,"rental_uris":{"android":"levelo://app?vid=ee079ffa-4416-4a91-bc98-3bd665acea3b","ios":"levelo://app?vid=ee079ffa-4416-4a91-bc98-3bd665acea3b"},"vehicle_type_id":"4","last_reported":1739228979,"current_range_meters":38800,"station_id":"ce4bhr92rcd13ifvqhsg","pricing_plan_id":"cebpf4jnsgd1na2vs0mg"},{"bike_id":"1fa82dc6-47d4-4356-bbca-393bf4461726","system_id":"levelo_inurba_marseille","lat":43.23956,"lon":5.36629,"is_reserved":false,"is_disabled":false,"rental_uris":{"android":"levelo://app?vid=1fa82dc6-47d4-4356-bbca-393bf4461726","ios":"levelo://app?vid=1fa82dc6-47d4-4356-bbca-393bf4461726"},"vehicle_type_id":"4","last_reported":1739228979,"current_range_meters":20800,"station_id":"ce4bhi12rcd13ifvqfp0","pricing_plan_id":"cebpf4jnsgd1na2vs0mg"},{"bike_id":"349877b7-9480-404b-af6b-2873503fc028","system_id":"levelo_inurba_marseille","lat":43.28461,"lon":5.35902,"is_reserved":false,"is_disabled":false,"rental_uris":{"android":"levelo://app?vid=349877b7-9480-404b-af6b-2873503fc028","ios":"levelo://app?vid=349877b7-9480-404b-af6b-2873503fc028"},"vehicle_type_id":"4","last_reported":1739228979,"current_range_meters":36400,"station_id":"ce4bhah2rcd13ifvqei0","pricing_plan_id":"cebpf4jnsgd1na2vs0mg"},{"bike_id":"9c93bd66-7b62-493f-b8b3-541980b29178","system_id":"levelo_inurba_marseille","lat":43.28737,"lon":5.3608,"is_reserved":false,"is_disabled":false,"rental_uris":{"android":"levelo://app?vid=9c93bd66-7b62-493f-b8b3-541980b29178","ios":"levelo://app?vid=9c93bd66-7b62-493f-b8b3-541980b29178"},"vehicle_type_id":"4","last_reported":1739228979,"current_range_meters":12000,"station_id":"cki0cbj6b192h4jlfktg","pricing_plan_id":"cebpf4jnsgd1na2vs0mg"},{"bike_id":"1b222d92-0766-4553-98e5-5fe5b4e88883","system_id":"levelo_inurba_marseille","lat":43.23059,"lon":5.35459,"is_reserved":false,"is_disabled":false,"rental_uris":{"android":"levelo://app?vid=1b222d92-0766-4553-98e5-5fe5b4e88883","ios":"levelo://app?vid=1b222d92-0766-4553-98e5-5fe5b4e88883"},"vehicle_type_id":"4","last_reported":1739228979,"current_range_meters":6800,"station_id":"cpo3342slgdg3j2ifvpg","pricing_plan_id":"cebpf4jnsgd1na2vs0mg"},{"bike_id":"3fb479a7-ac98-409e-977d-caf933510e13","system_id":"levelo_inurba_marseille","lat":43.28721,"lon":5.36096,"is_reserved":false,"is_disabled":false,"rental_uris":{"android":"levelo://app?vid=3fb479a7-ac98-409e-977d-caf933510e13","ios":"levelo://app?vid=3fb479a7-ac98-409e-977d-caf933510e13"},"vehicle_type_id":"4","last_reported":1739228979,"current_range_meters":16000,"station_id":"cki0cbj6b192h4jlfktg","pricing_plan_id":"cebpf4jnsgd1na2vs0mg"},{"bike_id":"67c77a93-95e0-4dde-b030-1b6a0f65cf9a","system_id":"levelo_inurba_marseille","lat":43.271713,"lon":5.409961,"is_reserved":false,"is_disabled":false,"rental_uris":{"android":"levelo://app?vid=67c77a93-95e0-4dde-b030-1b6a0f65cf9a","ios":"levelo://app?vid=67c77a93-95e0-4dde-b030-1b6a0f65cf9a"},"vehicle_type_id":"4","last_reported":1739228979,"current_range_meters":11200,"station_id":"ce4bhl12rcd13ifvqgf0","pricing_plan_id":"cebpf4jnsgd1na2vs0mg"},{"bike_id":"5be1b852-4177-4fb0-8e88-fab375ad7817","system_id":"levelo_inurba_marseille","lat":43.27063,"lon":5.42247,"is_reserved":false,"is_disabled":false,"rental_uris":{"android":"levelo://app?vid=5be1b852-4177-4fb0-8e88-fab375ad7817","ios":"levelo://app?vid=5be1b852-4177-4fb0-8e88-fab375ad7817"},"vehicle_type_id":"4","last_reported":1739228979,"current_range_meters":24400,"station_id":"ce4bhk92rcd13ifvqgb0","pricing_plan_id":"cebpf4jnsgd1na2vs0mg"},{"bike_id":"d0d8ec2f-c95a-46f3-be60-0d8863b57c52","system_id":"levelo_inurba_marseille","lat":43.28379,"lon":5.38115,"is_reserved":false,"is_disabled":false,"rental_uris":{"android":"levelo://app?vid=d0d8ec2f-c95a-46f3-be60-0d8863b57c52","ios":"levelo://app?vid=d0d8ec2f-c95a-46f3-be60-0d8863b57c52"},"vehicle_type_id":"4","last_reported":1739228979,"current_range_meters":38800,"station_id":"ce4bh412rcd13ifvqdr0","pricing_plan_id":"cebpf4jnsgd1na2vs0mg"},{"bike_id":"496fa2ad-a547-4095-b8b9-a29f1a78ab4b","system_id":"levelo_inurba_marseille","lat":43.27818,"lon":5.40726,"is_reserved":false,"is_disabled":false,"rental_uris":{"android":"levelo://app?vid=496fa2ad-a547-4095-b8b9-a29f1a78ab4b","ios":"levelo://app?vid=496fa2ad-a547-4095-b8b9-a29f1a78ab4b"},"vehicle_type_id":"4","last_reported":1739228979,"current_range_meters":38400,"station_id":"ce4bhnh2rcd13ifvqgtg","pricing_plan_id":"cebpf4jnsgd1na2vs0mg"},{"bike_id":"f53564a4-cbf9-4b55-bb72-8eda8cad3a05","system_id":"levelo_inurba_marseille","lat":43.27076,"lon":5.42297,"is_reserved":false,"is_disabled":false,"rental_uris":{"android":"levelo://app?vid=f53564a4-cbf9-4b55-bb72-8eda8cad3a05","ios":"levelo://app?vid=f53564a4-cbf9-4b55-bb72-8eda8cad3a05"},"vehicle_type_id":"4","last_reported":1739228979,"current_range_meters":20400,"station_id":"ce4bhk92rcd13ifvqgb0","pricing_plan_id":"cebpf4jnsgd1na2vs0mg"},{"bike_id":"01ea49d7-471f-408d-84c4-55b6e9d5f5e2","system_id":"levelo_inurba_marseille","lat":43.28107,"lon":5.37845,"is_reserved":false,"is_disabled":false,"rental_uris":{"android":"levelo://app?vid=01ea49d7-471f-408d-84c4-55b6e9d5f5e2","ios":"levelo://app?vid=01ea49d7-471f-408d-84c4-55b6e9d5f5e2"},"vehicle_type_id":"4","last_reported":1739228979,"current_range_meters":37600,"station_id":"ce4bha12rcd13ifvqee0","pricing_plan_id":"cebpf4jnsgd1na2vs0mg"},{"bike_id":"05f6ac8f-0127-4e39-bd11-d53a74225ef8","system_id":"levelo_inurba_marseille","lat":43.27874,"lon":5.40597,"is_reserved":false,"is_disabled":true,"rental_uris":{"android":"levelo://app?vid=05f6ac8f-0127-4e39-bd11-d53a74225ef8","ios":"levelo://app?vid=05f6ac8f-0127-4e39-bd11-d53a74225ef8"},"vehicle_type_id":"4","last_reported":1739228979,"current_range_meters":0,"station_id":"","pricing_plan_id":"cebpf4jnsgd1na2vs0mg"},{"bike_id":"50bbf783-3aa4-452b-9291-831f5d426447","system_id":"levelo_inurba_marseille","lat":43.29609,"lon":5.38096,"is_reserved":false,"is_disabled":false,"rental_uris":{"android":"levelo://app?vid=50bbf783-3aa4-452b-9291-831f5d426447","ios":"levelo://app?vid=50bbf783-3aa4-452b-9291-831f5d426447"},"vehicle_type_id":"4","last_reported":1739228979,"current_range_meters":4800,"station_id":"ce4bgl12rcd13ifvqbo0","pricing_plan_id":"cebpf4jnsgd1na2vs0mg"},{"bike_id":"f4c4a70c-050b-41a3-8713-2a124cfa0ccf","system_id":"levelo_inurba_marseille","lat":43.26792,"lon":5.39406,"is_reserved":false,"is_disabled":false,"rental_uris":{"android":"levelo://app?vid=f4c4a70c-050b-41a3-8713-2a124cfa0ccf","ios":"levelo://app?vid=f4c4a70c-050b-41a3-8713-2a124cfa0ccf"},"vehicle_type_id":"4","last_reported":1739228979,"current_range_meters":6400,"station_id":"ce4bhh12rcd13ifvqfg0","pricing_plan_id":"cebpf4jnsgd1na2vs0mg"},{"bike_id":"76f3170e-3ff7-41ad-9bc5-e166406e18c1","system_id":"levelo_inurba_marseille","lat":43.28446,"lon":5.35007,"is_reserved":false,"is_disabled":false,"rental_uris":{"android":"levelo://app?vid=76f3170e-3ff7-41ad-9bc5-e166406e18c1","ios":"levelo://app?vid=76f3170e-3ff7-41ad-9bc5-e166406e18c1"},"vehicle_type_id":"4","last_reported":1739228979,"current_range_meters":28800,"station_id":"ce4bhbh2rcd13ifvqepg","pricing_plan_id":"cebpf4jnsgd1na2vs0mg"},{"bike_id":"ff19b20c-ce22-4998-8731-8e01fed701e6","system_id":"levelo_inurba_marseille","lat":43.26555,"lon":5.37295,"is_reserved":false,"is_disabled":false,"rental_uris":{"android":"levelo://app?vid=ff19b20c-ce22-4998-8731-8e01fed701e6","ios":"levelo://app?vid=ff19b20c-ce22-4998-8731-8e01fed701e6"},"vehicle_type_id":"4","last_reported":1739228979,"current_range_meters":6400,"station_id":"ce4bhg12rcd13ifvqf70","pricing_plan_id":"cebpf4jnsgd1na2vs0mg"},{"bike_id":"df48285d-1bea-42b8-adaf-b8279a43ecc5","system_id":"levelo_inurba_marseille","lat":43.26059,"lon":5.39399,"is_reserved":false,"is_disabled":false,"rental_uris":{"android":"levelo://app?vid=df48285d-1bea-42b8-adaf-b8279a43ecc5","ios":"levelo://app?vid=df48285d-1bea-42b8-adaf-b8279a43ecc5"},"vehicle_type_id":"4","last_reported":1739228979,"current_range_meters":19200,"station_id":"ce4bhh92rcd13ifvqfj0","pricing_plan_id":"cebpf4jnsgd1na2vs0mg"},{"bike_id":"888de15d-5155-402d-af0b-510ff5556f61","system_id":"levelo_inurba_marseille","lat":43.323623,"lon":5.38882,"is_reserved":false,"is_disabled":false,"rental_uris":{"android":"levelo://app?vid=888de15d-5155-402d-af0b-510ff5556f61","ios":"levelo://app?vid=888de15d-5155-402d-af0b-510ff5556f61"},"vehicle_type_id":"4","last_reported":1739228979,"current_range_meters":28800,"station_id":"ce4bhqp2rcd13ifvqhog","pricing_plan_id":"cebpf4jnsgd1na2vs0mg"},{"bike_id":"39da04df-7a1b-418a-844d-5c410cfa90f0","system_id":"levelo_inurba_marseille","lat":43.29562,"lon":5.39965,"is_reserved":false,"is_disabled":false,"rental_uris":{"android":"levelo://app?vid=39da04df-7a1b-418a-844d-5c410cfa90f0","ios":"levelo://app?vid=39da04df-7a1b-418a-844d-5c410cfa90f0"},"vehicle_type_id":"4","last_reported":1739228979,"current_range_meters":38400,"station_id":"ce4bh312rcd13ifvqdj0","pricing_plan_id":"cebpf4jnsgd1na2vs0mg"},{"bike_id":"04564863-f1f2-443b-b8f1-fcbab471f36d","system_id":"levelo_inurba_marseille","lat":43.29533,"lon":5.3904,"is_reserved":false,"is_disabled":false,"rental_uris":{"android":"levelo://app?vid=04564863-f1f2-443b-b8f1-fcbab471f36d","ios":"levelo://app?vid=04564863-f1f2-443b-b8f1-fcbab471f36d"},"vehicle_type_id":"4","last_reported":1739228979,"current_range_meters":38800,"station_id":"ce4bh3p2rcd13ifvqdp0","pricing_plan_id":"cebpf4jnsgd1na2vs0mg"},{"bike_id":"3eedc124-81a7-4614-9478-cebc39530283","system_id":"levelo_inurba_marseille","lat":43.30261,"lon":5.40057,"is_reserved":false,"is_disabled":false,"rental_uris":{"android":"levelo://app?vid=3eedc124-81a7-4614-9478-cebc39530283","ios":"levelo://app?vid=3eedc124-81a7-4614-9478-cebc39530283"},"vehicle_type_id":"4","last_reported":1739228979,"current_range_meters":23200,"station_id":"ce4bgvh2rcd13ifvqcs0","pricing_plan_id":"cebpf4jnsgd1na2vs0mg"},{"bike_id":"ea37b9f5-1a79-45c0-a1e4-10e427b17ac6","system_id":"levelo_inurba_marseille","lat":43.29708,"lon":5.36608,"is_reserved":false,"is_disabled":false,"rental_uris":{"android":"levelo://app?vid=ea37b9f5-1a79-45c0-a1e4-10e427b17ac6","ios":"levelo://app?vid=ea37b9f5-1a79-45c0-a1e4-10e427b17ac6"},"vehicle_type_id":"4","last_reported":1739228979,"current_range_meters":38800,"station_id":"ce4bgn12rcd13ifvqbt0","pricing_plan_id":"cebpf4jnsgd1na2vs0mg"},{"bike_id":"fd7cd6eb-8023-4160-9061-39fa556cf25c","system_id":"levelo_inurba_marseille","lat":43.30334,"lon":5.40453,"is_reserved":false,"is_disabled":true,"rental_uris":{"android":"levelo://app?vid=fd7cd6eb-8023-4160-9061-39fa556cf25c","ios":"levelo://app?vid=fd7cd6eb-8023-4160-9061-39fa556cf25c"},"vehicle_type_id":"4","last_reported":1739228979,"current_range_meters":30800,"station_id":"ce4bh012rcd13ifvqd10","pricing_plan_id":"cebpf4jnsgd1na2vs0mg"},{"bike_id":"db9565d1-e893-4cca-aaea-7fc645eaeab3","system_id":"levelo_inurba_marseille","lat":43.29254,"lon":5.40905,"is_reserved":false,"is_disabled":false,"rental_uris":{"android":"levelo://app?vid=db9565d1-e893-4cca-aaea-7fc645eaeab3","ios":"levelo://app?vid=db9565d1-e893-4cca-aaea-7fc645eaeab3"},"vehicle_type_id":"4","last_reported":1739228979,"current_range_meters":39200,"station_id":"ce4bh192rcd13ifvqdc0","pricing_plan_id":"cebpf4jnsgd1na2vs0mg"},{"bike_id":"d32849cf-4c14-4032-9063-172d06d3f04f","system_id":"levelo_inurba_marseille","lat":43.231932,"lon":5.355571,"is_reserved":false,"is_disabled":false,"rental_uris":{"android":"levelo://app?vid=d32849cf-4c14-4032-9063-172d06d3f04f","ios":"levelo://app?vid=d32849cf-4c14-4032-9063-172d06d3f04f"},"vehicle_type_id":"4","last_reported":1739228979,"current_range_meters":36800,"station_id":"ce4bhu92rcd13ifvqi70","pricing_plan_id":"cebpf4jnsgd1na2vs0mg"},{"bike_id":"8874a213-102d-48ef-b2d7-c6104bb686b2","system_id":"levelo_inurba_marseille","lat":43.29561,"lon":5.42284,"is_reserved":false,"is_disabled":false,"rental_uris":{"android":"levelo://app?vid=8874a213-102d-48ef-b2d7-c6104bb686b2","ios":"levelo://app?vid=8874a213-102d-48ef-b2d7-c6104bb686b2"},"vehicle_type_id":"4","last_reported":1739228979,"current_range_meters":38800,"station_id":"ce4bhph2rcd13ifvqhdg","pricing_plan_id":"cebpf4jnsgd1na2vs0mg"},{"bike_id":"a6b5776b-449a-4723-8d97-0d90502e8bfe","system_id":"levelo_inurba_marseille","lat":43.27954,"lon":5.41054,"is_reserved":false,"is_disabled":false,"rental_uris":{"android":"levelo://app?vid=a6b5776b-449a-4723-8d97-0d90502e8bfe","ios":"levelo://app?vid=a6b5776b-449a-4723-8d97-0d90502e8bfe"},"vehicle_type_id":"4","last_reported":1739228979,"current_range_meters":38800,"station_id":"ce4bhnp2rcd13ifvqh0g","pricing_plan_id":"cebpf4jnsgd1na2vs0mg"},{"bike_id":"71d818f9-7768-472f-a6fc-f809e3da81f0","system_id":"levelo_inurba_marseille","lat":43.29557,"lon":5.39973,"is_reserved":false,"is_disabled":false,"rental_uris":{"android":"levelo://app?vid=71d818f9-7768-472f-a6fc-f809e3da81f0","ios":"levelo://app?vid=71d818f9-7768-472f-a6fc-f809e3da81f0"},"vehicle_type_id":"4","last_reported":1739228979,"current_range_meters":39200,"station_id":"ce4bh312rcd13ifvqdj0","pricing_plan_id":"cebpf4jnsgd1na2vs0mg"},{"bike_id":"e1029be0-be01-4650-9688-fd931cb2f277","system_id":"levelo_inurba_marseille","lat":43.29019,"lon":5.3864,"is_reserved":false,"is_disabled":false,"rental_uris":{"android":"levelo://app?vid=e1029be0-be01-4650-9688-fd931cb2f277","ios":"levelo://app?vid=e1029be0-be01-4650-9688-fd931cb2f277"},"vehicle_type_id":"4","last_reported":1739228979,"current_range_meters":12800,"station_id":"ce4bh4p2rcd13ifvqe0g","pricing_plan_id":"cebpf4jnsgd1na2vs0mg"},{"bike_id":"b7cfafc0-fba3-47fa-8c3d-d96c6bee1f7a","system_id":"levelo_inurba_marseille","lat":43.24403,"lon":5.37068,"is_reserved":false,"is_disabled":false,"rental_uris":{"android":"levelo://app?vid=b7cfafc0-fba3-47fa-8c3d-d96c6bee1f7a","ios":"levelo://app?vid=b7cfafc0-fba3-47fa-8c3d-d96c6bee1f7a"},"vehicle_type_id":"4","last_reported":1739228979,"current_range_meters":36000,"station_id":"ce4bhhh2rcd13ifvqfk0","pricing_plan_id":"cebpf4jnsgd1na2vs0mg"},{"bike_id":"9ba133ba-7b58-4607-8737-7fb5bce66e58","system_id":"levelo_inurba_marseille","lat":43.24393,"lon":5.37053,"is_reserved":false,"is_disabled":false,"rental_uris":{"android":"levelo://app?vid=9ba133ba-7b58-4607-8737-7fb5bce66e58","ios":"levelo://app?vid=9ba133ba-7b58-4607-8737-7fb5bce66e58"},"vehicle_type_id":"4","last_reported":1739228979,"current_range_meters":30800,"station_id":"ce4bhhh2rcd13ifvqfk0","pricing_plan_id":"cebpf4jnsgd1na2vs0mg"},{"bike_id":"7ad2debf-586d-4c17-96ee-4293391683d1","system_id":"levelo_inurba_marseille","lat":43.2815,"lon":5.42637,"is_reserved":false,"is_disabled":false,"rental_uris":{"android":"levelo://app?vid=7ad2debf-586d-4c17-96ee-4293391683d1","ios":"levelo://app?vid=7ad2debf-586d-4c17-96ee-4293391683d1"},"vehicle_type_id":"4","last_reported":1739228979,"current_range_meters":20400,"station_id":"ce4bhnh2rcd13ifvqgug","pricing_plan_id":"cebpf4jnsgd1na2vs0mg"},{"bike_id":"3053beb1-cf70-417b-badc-581ea0c267b6","system_id":"levelo_inurba_marseille","lat":43.31896,"lon":5.40728,"is_reserved":false,"is_disabled":false,"rental_uris":{"android":"levelo://app?vid=3053beb1-cf70-417b-badc-581ea0c267b6","ios":"levelo://app?vid=3053beb1-cf70-417b-badc-581ea0c267b6"},"vehicle_type_id":"4","last_reported":1739228979,"current_range_meters":28800,"station_id":"ce4bhq12rcd13ifvqhig","pricing_plan_id":"cebpf4jnsgd1na2vs0mg"},{"bike_id":"386a5c6b-0374-40ee-8fee-068f2ec38f9b","system_id":"levelo_inurba_marseille","lat":43.23967,"lon":5.36628,"is_reserved":false,"is_disabled":false,"rental_uris":{"android":"levelo://app?vid=386a5c6b-0374-40ee-8fee-068f2ec38f9b","ios":"levelo://app?vid=386a5c6b-0374-40ee-8fee-068f2ec38f9b"},"vehicle_type_id":"4","last_reported":1739228979,"current_range_meters":14000,"station_id":"ce4bhi12rcd13ifvqfp0","pricing_plan_id":"cebpf4jnsgd1na2vs0mg"},{"bike_id":"aec860f9-3ff5-4fa6-b722-2bfaebebfaa4","system_id":"levelo_inurba_marseille","lat":43.30262,"lon":5.40081,"is_reserved":false,"is_disabled":false,"rental_uris":{"android":"levelo://app?vid=aec860f9-3ff5-4fa6-b722-2bfaebebfaa4","ios":"levelo://app?vid=aec860f9-3ff5-4fa6-b722-2bfaebebfaa4"},"vehicle_type_id":"4","last_reported":1739228979,"current_range_meters":24800,"station_id":"ce4bgvh2rcd13ifvqcs0","pricing_plan_id":"cebpf4jnsgd1na2vs0mg"},{"bike_id":"502ef3f2-f2b5-43fe-81f4-a7e02f827024","system_id":"levelo_inurba_marseille","lat":43.326628,"lon":5.409889,"is_reserved":false,"is_disabled":false,"rental_uris":{"android":"levelo://app?vid=502ef3f2-f2b5-43fe-81f4-a7e02f827024","ios":"levelo://app?vid=502ef3f2-f2b5-43fe-81f4-a7e02f827024"},"vehicle_type_id":"4","last_reported":1739228979,"current_range_meters":27200,"station_id":"ce4bhpp2rcd13ifvqhgg","pricing_plan_id":"cebpf4jnsgd1na2vs0mg"},{"bike_id":"27970130-9f58-408f-85a6-eea1ca4029cd","system_id":"levelo_inurba_marseille","lat":43.29525,"lon":5.39046,"is_reserved":false,"is_disabled":false,"rental_uris":{"android":"levelo://app?vid=27970130-9f58-408f-85a6-eea1ca4029cd","ios":"levelo://app?vid=27970130-9f58-408f-85a6-eea1ca4029cd"},"vehicle_type_id":"4","last_reported":1739228979,"current_range_meters":38400,"station_id":"ce4bh3p2rcd13ifvqdp0","pricing_plan_id":"cebpf4jnsgd1na2vs0mg"},{"bike_id":"3ad78980-d954-4439-b88d-56e0dcfe7b89","system_id":"levelo_inurba_marseille","lat":43.23963,"lon":5.36629,"is_reserved":false,"is_disabled":false,"rental_uris":{"android":"levelo://app?vid=3ad78980-d954-4439-b88d-56e0dcfe7b89","ios":"levelo://app?vid=3ad78980-d954-4439-b88d-56e0dcfe7b89"},"vehicle_type_id":"4","last_reported":1739228979,"current_range_meters":12400,"station_id":"ce4bhi12rcd13ifvqfp0","pricing_plan_id":"cebpf4jnsgd1na2vs0mg"},{"bike_id":"4964b58f-d644-48d8-b162-77c0ec7de226","system_id":"levelo_inurba_marseille","lat":43.30887,"lon":5.39629,"is_reserved":false,"is_disabled":false,"rental_uris":{"android":"levelo://app?vid=4964b58f-d644-48d8-b162-77c0ec7de226","ios":"levelo://app?vid=4964b58f-d644-48d8-b162-77c0ec7de226"},"vehicle_type_id":"4","last_reported":1739228979,"current_range_meters":29600,"station_id":"ce4bh012rcd13ifvqcv0","pricing_plan_id":"cebpf4jnsgd1na2vs0mg"},{"bike_id":"57bb23cc-aacd-4798-9d5f-20a9fef2ce8a","system_id":"levelo_inurba_marseille","lat":43.30644,"lon":5.401,"is_reserved":false,"is_disabled":false,"rental_uris":{"android":"levelo://app?vid=57bb23cc-aacd-4798-9d5f-20a9fef2ce8a","ios":"levelo://app?vid=57bb23cc-aacd-4798-9d5f-20a9fef2ce8a"},"vehicle_type_id":"4","last_reported":1739228979,"current_range_meters":27600,"station_id":"ce4bh112rcd13ifvqda0","pricing_plan_id":"cebpf4jnsgd1na2vs0mg"},{"bike_id":"f69cd6be-4142-4fae-b32e-2ad56ba1af59","system_id":"levelo_inurba_marseille","lat":43.3169,"lon":5.40472,"is_reserved":false,"is_disabled":false,"rental_uris":{"android":"levelo://app?vid=f69cd6be-4142-4fae-b32e-2ad56ba1af59","ios":"levelo://app?vid=f69cd6be-4142-4fae-b32e-2ad56ba1af59"},"vehicle_type_id":"4","last_reported":1739228979,"current_range_meters":38000,"station_id":"ce4bh012rcd13ifvqd00","pricing_plan_id":"cebpf4jnsgd1na2vs0mg"},{"bike_id":"01b0e03f-7b96-4ac3-a2a1-cc92043b5081","system_id":"levelo_inurba_marseille","lat":43.29184,"lon":5.39309,"is_reserved":false,"is_disabled":true,"rental_uris":{"android":"levelo://app?vid=01b0e03f-7b96-4ac3-a2a1-cc92043b5081","ios":"levelo://app?vid=01b0e03f-7b96-4ac3-a2a1-cc92043b5081"},"vehicle_type_id":"4","last_reported":1739228979,"current_range_meters":25600,"station_id":"ce4bh192rcd13ifvqdd0","pricing_plan_id":"cebpf4jnsgd1na2vs0mg"},{"bike_id":"251fe6c7-32e4-4d63-bcdf-58e62a2954bf","system_id":"levelo_inurba_marseille","lat":43.26812,"lon":5.40269,"is_reserved":false,"is_disabled":false,"rental_uris":{"android":"levelo://app?vid=251fe6c7-32e4-4d63-bcdf-58e62a2954bf","ios":"levelo://app?vid=251fe6c7-32e4-4d63-bcdf-58e62a2954bf"},"vehicle_type_id":"4","last_reported":1739228979,"current_range_meters":22800,"station_id":"ce501612rcd8frsf0b60","pricing_plan_id":"cebpf4jnsgd1na2vs0mg"},{"bike_id":"0c6f46dc-c218-4346-a97c-49f6de189966","system_id":"levelo_inurba_marseille","lat":43.30943,"lon":5.40145,"is_reserved":false,"is_disabled":false,"rental_uris":{"android":"levelo://app?vid=0c6f46dc-c218-4346-a97c-49f6de189966","ios":"levelo://app?vid=0c6f46dc-c218-4346-a97c-49f6de189966"},"vehicle_type_id":"4","last_reported":1739228979,"current_range_meters":20400,"station_id":"ce4bgvp2rcd13ifvqct0","pricing_plan_id":"cebpf4jnsgd1na2vs0mg"},{"bike_id":"685a393f-51db-46f0-b2e2-fc7a6afd3cdf","system_id":"levelo_inurba_marseille","lat":43.28624,"lon":5.35102,"is_reserved":false,"is_disabled":false,"rental_uris":{"android":"levelo://app?vid=685a393f-51db-46f0-b2e2-fc7a6afd3cdf","ios":"levelo://app?vid=685a393f-51db-46f0-b2e2-fc7a6afd3cdf"},"vehicle_type_id":"4","last_reported":1739228979,"current_range_meters":37600,"station_id":"ce4bhch2rcd13ifvqeug","pricing_plan_id":"cebpf4jnsgd1na2vs0mg"},{"bike_id":"1036513c-18f3-4856-bc98-c5b179f8a991","system_id":"levelo_inurba_marseille","lat":43.29031,"lon":5.38638,"is_reserved":false,"is_disabled":false,"rental_uris":{"android":"levelo://app?vid=1036513c-18f3-4856-bc98-c5b179f8a991","ios":"levelo://app?vid=1036513c-18f3-4856-bc98-c5b179f8a991"},"vehicle_type_id":"4","last_reported":1739228979,"current_range_meters":36400,"station_id":"ce4bh4p2rcd13ifvqe0g","pricing_plan_id":"cebpf4jnsgd1na2vs0mg"},{"bike_id":"0ee3c154-1e74-4908-8923-3932ead34f95","system_id":"levelo_inurba_marseille","lat":43.29213,"lon":5.39358,"is_reserved":false,"is_disabled":false,"rental_uris":{"android":"levelo://app?vid=0ee3c154-1e74-4908-8923-3932ead34f95","ios":"levelo://app?vid=0ee3c154-1e74-4908-8923-3932ead34f95"},"vehicle_type_id":"4","last_reported":1739228979,"current_range_meters":38800,"station_id":"","pricing_plan_id":"cebpf4jnsgd1na2vs0mg"},{"bike_id":"9207b0f3-9707-4707-b4f6-b2339a5ec8ff","system_id":"levelo_inurba_marseille","lat":43.28153,"lon":5.42632,"is_reserved":false,"is_disabled":false,"rental_uris":{"android":"levelo://app?vid=9207b0f3-9707-4707-b4f6-b2339a5ec8ff","ios":"levelo://app?vid=9207b0f3-9707-4707-b4f6-b2339a5ec8ff"},"vehicle_type_id":"4","last_reported":1739228979,"current_range_meters":38400,"station_id":"ce4bhnh2rcd13ifvqgug","pricing_plan_id":"cebpf4jnsgd1na2vs0mg"},{"bike_id":"3bb91385-514e-4bb7-bbc6-ce3aa19ccbeb","system_id":"levelo_inurba_marseille","lat":43.32005,"lon":5.38167,"is_reserved":false,"is_disabled":false,"rental_uris":{"android":"levelo://app?vid=3bb91385-514e-4bb7-bbc6-ce3aa19ccbeb","ios":"levelo://app?vid=3bb91385-514e-4bb7-bbc6-ce3aa19ccbeb"},"vehicle_type_id":"4","last_reported":1739228979,"current_range_meters":39200,"station_id":"ce4bhr12rcd13ifvqhpg","pricing_plan_id":"cebpf4jnsgd1na2vs0mg"},{"bike_id":"9f443121-e8ff-4aac-bc9a-d9077c8e664b","system_id":"levelo_inurba_marseille","lat":43.27086,"lon":5.42293,"is_reserved":false,"is_disabled":false,"rental_uris":{"android":"levelo://app?vid=9f443121-e8ff-4aac-bc9a-d9077c8e664b","ios":"levelo://app?vid=9f443121-e8ff-4aac-bc9a-d9077c8e664b"},"vehicle_type_id":"4","last_reported":1739228979,"current_range_meters":28000,"station_id":"ce4bhk92rcd13ifvqgb0","pricing_plan_id":"cebpf4jnsgd1na2vs0mg"},{"bike_id":"ca4ef645-a9d5-4dec-bc8e-46d920a6e7cd","system_id":"levelo_inurba_marseille","lat":43.31117,"lon":5.37759,"is_reserved":false,"is_disabled":false,"rental_uris":{"android":"levelo://app?vid=ca4ef645-a9d5-4dec-bc8e-46d920a6e7cd","ios":"levelo://app?vid=ca4ef645-a9d5-4dec-bc8e-46d920a6e7cd"},"vehicle_type_id":"4","last_reported":1739228979,"current_range_meters":38000,"station_id":"ce4bgt92rcd13ifvqcg0","pricing_plan_id":"cebpf4jnsgd1na2vs0mg"},{"bike_id":"e5b15e1d-ea9b-4163-a8a2-65f2eced917f","system_id":"levelo_inurba_marseille","lat":43.30148,"lon":5.37421,"is_reserved":false,"is_disabled":false,"rental_uris":{"android":"levelo://app?vid=e5b15e1d-ea9b-4163-a8a2-65f2eced917f","ios":"levelo://app?vid=e5b15e1d-ea9b-4163-a8a2-65f2eced917f"},"vehicle_type_id":"4","last_reported":1739228979,"current_range_meters":20400,"station_id":"ce4bgs92rcd13ifvqcc0","pricing_plan_id":"cebpf4jnsgd1na2vs0mg"},{"bike_id":"c03e3e74-2231-4470-8600-8fa32748c474","system_id":"levelo_inurba_marseille","lat":43.24794,"lon":5.37462,"is_reserved":false,"is_disabled":false,"rental_uris":{"android":"levelo://app?vid=c03e3e74-2231-4470-8600-8fa32748c474","ios":"levelo://app?vid=c03e3e74-2231-4470-8600-8fa32748c474"},"vehicle_type_id":"4","last_reported":1739228979,"current_range_meters":36800,"station_id":"ce4bhgh2rcd13ifvqfb0","pricing_plan_id":"cebpf4jnsgd1na2vs0mg"},{"bike_id":"16630e74-ade8-41ba-97ec-0abe5f635fe3","system_id":"levelo_inurba_marseille","lat":43.28479,"lon":5.38412,"is_reserved":false,"is_disabled":false,"rental_uris":{"android":"levelo://app?vid=16630e74-ade8-41ba-97ec-0abe5f635fe3","ios":"levelo://app?vid=16630e74-ade8-41ba-97ec-0abe5f635fe3"},"vehicle_type_id":"4","last_reported":1739228979,"current_range_meters":10800,"station_id":"ce4bh512rcd13ifvqe3g","pricing_plan_id":"cebpf4jnsgd1na2vs0mg"},{"bike_id":"4591023d-5c1e-434a-8f93-a035257c7caf","system_id":"levelo_inurba_marseille","lat":43.28361,"lon":5.38104,"is_reserved":false,"is_disabled":false,"rental_uris":{"android":"levelo://app?vid=4591023d-5c1e-434a-8f93-a035257c7caf","ios":"levelo://app?vid=4591023d-5c1e-434a-8f93-a035257c7caf"},"vehicle_type_id":"4","last_reported":1739228979,"current_range_meters":29600,"station_id":"ce4bh412rcd13ifvqdr0","pricing_plan_id":"cebpf4jnsgd1na2vs0mg"},{"bike_id":"c2250f20-2283-4e17-b7ce-382f2f740aa1","system_id":"levelo_inurba_marseille","lat":43.24814,"lon":5.37454,"is_reserved":false,"is_disabled":false,"rental_uris":{"android":"levelo://app?vid=c2250f20-2283-4e17-b7ce-382f2f740aa1","ios":"levelo://app?vid=c2250f20-2283-4e17-b7ce-382f2f740aa1"},"vehicle_type_id":"4","last_reported":1739228979,"current_range_meters":39200,"station_id":"ce4bhgh2rcd13ifvqfb0","pricing_plan_id":"cebpf4jnsgd1na2vs0mg"},{"bike_id":"9d1da96c-aca8-41e6-8781-c47049b5349b","system_id":"levelo_inurba_marseille","lat":43.28723,"lon":5.37944,"is_reserved":false,"is_disabled":false,"rental_uris":{"android":"levelo://app?vid=9d1da96c-aca8-41e6-8781-c47049b5349b","ios":"levelo://app?vid=9d1da96c-aca8-41e6-8781-c47049b5349b"},"vehicle_type_id":"4","last_reported":1739228979,"current_range_meters":39200,"station_id":"ce4bh9p2rcd13ifvqec0","pricing_plan_id":"cebpf4jnsgd1na2vs0mg"},{"bike_id":"bd51d36f-a4a0-414c-82b1-0299fe80d1ca","system_id":"levelo_inurba_marseille","lat":43.28688,"lon":5.38653,"is_reserved":false,"is_disabled":false,"rental_uris":{"android":"levelo://app?vid=bd51d36f-a4a0-414c-82b1-0299fe80d1ca","ios":"levelo://app?vid=bd51d36f-a4a0-414c-82b1-0299fe80d1ca"},"vehicle_type_id":"4","last_reported":1739228979,"current_range_meters":28800,"station_id":"ce4bh492rcd13ifvqdug","pricing_plan_id":"cebpf4jnsgd1na2vs0mg"},{"bike_id":"8e7b398d-afd6-49c7-931a-57082626117b","system_id":"levelo_inurba_marseille","lat":43.26555,"lon":5.3728,"is_reserved":false,"is_disabled":false,"rental_uris":{"android":"levelo://app?vid=8e7b398d-afd6-49c7-931a-57082626117b","ios":"levelo://app?vid=8e7b398d-afd6-49c7-931a-57082626117b"},"vehicle_type_id":"4","last_reported":1739228979,"current_range_meters":18800,"station_id":"ce4bhg12rcd13ifvqf70","pricing_plan_id":"cebpf4jnsgd1na2vs0mg"},{"bike_id":"fdcb41f8-a4c8-462f-a3ed-fdbca4069024","system_id":"levelo_inurba_marseille","lat":43.28082,"lon":5.39651,"is_reserved":false,"is_disabled":false,"rental_uris":{"android":"levelo://app?vid=fdcb41f8-a4c8-462f-a3ed-fdbca4069024","ios":"levelo://app?vid=fdcb41f8-a4c8-462f-a3ed-fdbca4069024"},"vehicle_type_id":"4","last_reported":1739228979,"current_range_meters":39200,"station_id":"ce4bho12rcd13ifvqh2g","pricing_plan_id":"cebpf4jnsgd1na2vs0mg"},{"bike_id":"441756a0-4bd6-444f-844a-706673d06d5d","system_id":"levelo_inurba_marseille","lat":43.28131,"lon":5.39868,"is_reserved":false,"is_disabled":false,"rental_uris":{"android":"levelo://app?vid=441756a0-4bd6-444f-844a-706673d06d5d","ios":"levelo://app?vid=441756a0-4bd6-444f-844a-706673d06d5d"},"vehicle_type_id":"4","last_reported":1739228979,"current_range_meters":10800,"station_id":"","pricing_plan_id":"cebpf4jnsgd1na2vs0mg"},{"bike_id":"46364d9d-9e7c-4b5a-9d07-d05c87074a64","system_id":"levelo_inurba_marseille","lat":43.29527,"lon":5.390319,"is_reserved":false,"is_disabled":true,"rental_uris":{"android":"levelo://app?vid=46364d9d-9e7c-4b5a-9d07-d05c87074a64","ios":"levelo://app?vid=46364d9d-9e7c-4b5a-9d07-d05c87074a64"},"vehicle_type_id":"4","last_reported":1739228979,"current_range_meters":23200,"station_id":"ce4bh3p2rcd13ifvqdp0","pricing_plan_id":"cebpf4jnsgd1na2vs0mg"},{"bike_id":"b9d74321-a497-4f2b-975f-5934661f64d2","system_id":"levelo_inurba_marseille","lat":43.28703,"lon":5.39976,"is_reserved":false,"is_disabled":false,"rental_uris":{"android":"levelo://app?vid=b9d74321-a497-4f2b-975f-5934661f64d2","ios":"levelo://app?vid=b9d74321-a497-4f2b-975f-5934661f64d2"},"vehicle_type_id":"4","last_reported":1739228979,"current_range_meters":12000,"station_id":"ce4bho92rcd13ifvqh3g","pricing_plan_id":"cebpf4jnsgd1na2vs0mg"},{"bike_id":"9250c9b2-797c-4732-8fd5-42f42ec1c970","system_id":"levelo_inurba_marseille","lat":43.31286,"lon":5.40174,"is_reserved":false,"is_disabled":false,"rental_uris":{"android":"levelo://app?vid=9250c9b2-797c-4732-8fd5-42f42ec1c970","ios":"levelo://app?vid=9250c9b2-797c-4732-8fd5-42f42ec1c970"},"vehicle_type_id":"4","last_reported":1739228979,"current_range_meters":28000,"station_id":"ce4bh092rcd13ifvqd30","pricing_plan_id":"cebpf4jnsgd1na2vs0mg"},{"bike_id":"afc17562-3144-48d4-9cc5-555f7f658280","system_id":"levelo_inurba_marseille","lat":43.23213,"lon":5.35542,"is_reserved":false,"is_disabled":false,"rental_uris":{"android":"levelo://app?vid=afc17562-3144-48d4-9cc5-555f7f658280","ios":"levelo://app?vid=afc17562-3144-48d4-9cc5-555f7f658280"},"vehicle_type_id":"4","last_reported":1739228979,"current_range_meters":19600,"station_id":"ce4bhu92rcd13ifvqi70","pricing_plan_id":"cebpf4jnsgd1na2vs0mg"},{"bike_id":"5ae11b30-286f-4711-b3d2-169c9cc1d191","system_id":"levelo_inurba_marseille","lat":43.29454,"lon":5.39768,"is_reserved":false,"is_disabled":false,"rental_uris":{"android":"levelo://app?vid=5ae11b30-286f-4711-b3d2-169c9cc1d191","ios":"levelo://app?vid=5ae11b30-286f-4711-b3d2-169c9cc1d191"},"vehicle_type_id":"4","last_reported":1739228979,"current_range_meters":36400,"station_id":"ce4bh3h2rcd13ifvqdo0","pricing_plan_id":"cebpf4jnsgd1na2vs0mg"},{"bike_id":"aa11e593-fb23-42e8-ac9a-9189f6145ec1","system_id":"levelo_inurba_marseille","lat":43.29523,"lon":5.39038,"is_reserved":false,"is_disabled":false,"rental_uris":{"android":"levelo://app?vid=aa11e593-fb23-42e8-ac9a-9189f6145ec1","ios":"levelo://app?vid=aa11e593-fb23-42e8-ac9a-9189f6145ec1"},"vehicle_type_id":"4","last_reported":1739228979,"current_range_meters":38800,"station_id":"ce4bh3p2rcd13ifvqdp0","pricing_plan_id":"cebpf4jnsgd1na2vs0mg"},{"bike_id":"7778ab7e-867c-4916-9ab5-8e4d9b2f9cfc","system_id":"levelo_inurba_marseille","lat":43.28987,"lon":5.35629,"is_reserved":false,"is_disabled":false,"rental_uris":{"android":"levelo://app?vid=7778ab7e-867c-4916-9ab5-8e4d9b2f9cfc","ios":"levelo://app?vid=7778ab7e-867c-4916-9ab5-8e4d9b2f9cfc"},"vehicle_type_id":"4","last_reported":1739228979,"current_range_meters":33600,"station_id":"ce4bhb92rcd13ifvqen0","pricing_plan_id":"cebpf4jnsgd1na2vs0mg"},{"bike_id":"2f016618-2147-48d7-a4c9-c32f1b8bbb3b","system_id":"levelo_inurba_marseille","lat":43.31889,"lon":5.40727,"is_reserved":false,"is_disabled":false,"rental_uris":{"android":"levelo://app?vid=2f016618-2147-48d7-a4c9-c32f1b8bbb3b","ios":"levelo://app?vid=2f016618-2147-48d7-a4c9-c32f1b8bbb3b"},"vehicle_type_id":"4","last_reported":1739228979,"current_range_meters":28000,"station_id":"ce4bhq12rcd13ifvqhig","pricing_plan_id":"cebpf4jnsgd1na2vs0mg"},{"bike_id":"062456ee-bcc2-4d85-8a6a-b3e620e445e1","system_id":"levelo_inurba_marseille","lat":43.31291,"lon":5.40152,"is_reserved":false,"is_disabled":false,"rental_uris":{"android":"levelo://app?vid=062456ee-bcc2-4d85-8a6a-b3e620e445e1","ios":"levelo://app?vid=062456ee-bcc2-4d85-8a6a-b3e620e445e1"},"vehicle_type_id":"4","last_reported":1739228979,"current_range_meters":25200,"station_id":"ce4bh092rcd13ifvqd30","pricing_plan_id":"cebpf4jnsgd1na2vs0mg"},{"bike_id":"10d19886-8268-43db-9b36-9e13b17f39ac","system_id":"levelo_inurba_marseille","lat":43.29531,"lon":5.39038,"is_reserved":false,"is_disabled":false,"rental_uris":{"android":"levelo://app?vid=10d19886-8268-43db-9b36-9e13b17f39ac","ios":"levelo://app?vid=10d19886-8268-43db-9b36-9e13b17f39ac"},"vehicle_type_id":"4","last_reported":1739228979,"current_range_meters":18800,"station_id":"ce4bh3p2rcd13ifvqdp0","pricing_plan_id":"cebpf4jnsgd1na2vs0mg"},{"bike_id":"b0912897-5adc-4071-9880-38365ba902c0","system_id":"levelo_inurba_marseille","lat":43.31076,"lon":5.38359,"is_reserved":false,"is_disabled":false,"rental_uris":{"android":"levelo://app?vid=b0912897-5adc-4071-9880-38365ba902c0","ios":"levelo://app?vid=b0912897-5adc-4071-9880-38365ba902c0"},"vehicle_type_id":"4","last_reported":1739228979,"current_range_meters":10800,"station_id":"ce4bgv92rcd13ifvqcr0","pricing_plan_id":"cebpf4jnsgd1na2vs0mg"},{"bike_id":"1d2000e3-6e82-4c8d-9a0a-5d8181e36eb3","system_id":"levelo_inurba_marseille","lat":43.25009,"lon":5.38925,"is_reserved":false,"is_disabled":false,"rental_uris":{"android":"levelo://app?vid=1d2000e3-6e82-4c8d-9a0a-5d8181e36eb3","ios":"levelo://app?vid=1d2000e3-6e82-4c8d-9a0a-5d8181e36eb3"},"vehicle_type_id":"4","last_reported":1739228979,"current_range_meters":8800,"station_id":"ce4bhgp2rcd13ifvqfd0","pricing_plan_id":"cebpf4jnsgd1na2vs0mg"},{"bike_id":"18de598c-8984-48ca-bcb3-e9d09f7b954c","system_id":"levelo_inurba_marseille","lat":43.28834,"lon":5.35853,"is_reserved":false,"is_disabled":false,"rental_uris":{"android":"levelo://app?vid=18de598c-8984-48ca-bcb3-e9d09f7b954c","ios":"levelo://app?vid=18de598c-8984-48ca-bcb3-e9d09f7b954c"},"vehicle_type_id":"4","last_reported":1739228979,"current_range_meters":27200,"station_id":"ce4bhb12rcd13ifvqem0","pricing_plan_id":"cebpf4jnsgd1na2vs0mg"},{"bike_id":"df32b82b-3edd-410c-809a-94d92822697b","system_id":"levelo_inurba_marseille","lat":43.269867,"lon":5.387921,"is_reserved":false,"is_disabled":false,"rental_uris":{"android":"levelo://app?vid=df32b82b-3edd-410c-809a-94d92822697b","ios":"levelo://app?vid=df32b82b-3edd-410c-809a-94d92822697b"},"vehicle_type_id":"4","last_reported":1739228979,"current_range_meters":39200,"station_id":"ce4bhhh2rcd13ifvqfl0","pricing_plan_id":"cebpf4jnsgd1na2vs0mg"},{"bike_id":"ab056ecb-7c4d-4f3a-98d2-8a94e69e20b2","system_id":"levelo_inurba_marseille","lat":43.28626,"lon":5.35098,"is_reserved":false,"is_disabled":false,"rental_uris":{"android":"levelo://app?vid=ab056ecb-7c4d-4f3a-98d2-8a94e69e20b2","ios":"levelo://app?vid=ab056ecb-7c4d-4f3a-98d2-8a94e69e20b2"},"vehicle_type_id":"4","last_reported":1739228979,"current_range_meters":29600,"station_id":"ce4bhch2rcd13ifvqeug","pricing_plan_id":"cebpf4jnsgd1na2vs0mg"},{"bike_id":"8d6ca39c-2328-4d82-bdac-c7cdcb46fddf","system_id":"levelo_inurba_marseille","lat":43.29275,"lon":5.38441,"is_reserved":false,"is_disabled":false,"rental_uris":{"android":"levelo://app?vid=8d6ca39c-2328-4d82-bdac-c7cdcb46fddf","ios":"levelo://app?vid=8d6ca39c-2328-4d82-bdac-c7cdcb46fddf"},"vehicle_type_id":"4","last_reported":1739228979,"current_range_meters":16000,"station_id":"ce4bh692rcd13ifvqea0","pricing_plan_id":"cebpf4jnsgd1na2vs0mg"},{"bike_id":"c20c6dd2-3d70-4597-92da-34d15387ea2e","system_id":"levelo_inurba_marseille","lat":43.27319,"lon":5.39106,"is_reserved":false,"is_disabled":false,"rental_uris":{"android":"levelo://app?vid=c20c6dd2-3d70-4597-92da-34d15387ea2e","ios":"levelo://app?vid=c20c6dd2-3d70-4597-92da-34d15387ea2e"},"vehicle_type_id":"4","last_reported":1739228979,"current_range_meters":18800,"station_id":"ce4bhgp2rcd13ifvqfe0","pricing_plan_id":"cebpf4jnsgd1na2vs0mg"},{"bike_id":"e5b1d6c9-d60e-471e-8d30-08a5f4982ad7","system_id":"levelo_inurba_marseille","lat":43.30644,"lon":5.4007,"is_reserved":false,"is_disabled":false,"rental_uris":{"android":"levelo://app?vid=e5b1d6c9-d60e-471e-8d30-08a5f4982ad7","ios":"levelo://app?vid=e5b1d6c9-d60e-471e-8d30-08a5f4982ad7"},"vehicle_type_id":"4","last_reported":1739228979,"current_range_meters":38800,"station_id":"ce4bh112rcd13ifvqda0","pricing_plan_id":"cebpf4jnsgd1na2vs0mg"},{"bike_id":"79c27d1b-6e84-42bc-bef4-d8fc6ca0d19a","system_id":"levelo_inurba_marseille","lat":43.28703,"lon":5.39977,"is_reserved":false,"is_disabled":true,"rental_uris":{"android":"levelo://app?vid=79c27d1b-6e84-42bc-bef4-d8fc6ca0d19a","ios":"levelo://app?vid=79c27d1b-6e84-42bc-bef4-d8fc6ca0d19a"},"vehicle_type_id":"4","last_reported":1739228979,"current_range_meters":38400,"station_id":"ce4bho92rcd13ifvqh3g","pricing_plan_id":"cebpf4jnsgd1na2vs0mg"},{"bike_id":"d5a37605-4e0b-406c-a924-7ca9f964c4e0","system_id":"levelo_inurba_marseille","lat":43.24807,"lon":5.37469,"is_reserved":false,"is_disabled":false,"rental_uris":{"android":"levelo://app?vid=d5a37605-4e0b-406c-a924-7ca9f964c4e0","ios":"levelo://app?vid=d5a37605-4e0b-406c-a924-7ca9f964c4e0"},"vehicle_type_id":"4","last_reported":1739228979,"current_range_meters":28400,"station_id":"ce4bhgh2rcd13ifvqfb0","pricing_plan_id":"cebpf4jnsgd1na2vs0mg"},{"bike_id":"0d5436a7-ea15-4265-aeba-3a9fe76321e1","system_id":"levelo_inurba_marseille","lat":43.2796,"lon":5.41036,"is_reserved":false,"is_disabled":false,"rental_uris":{"android":"levelo://app?vid=0d5436a7-ea15-4265-aeba-3a9fe76321e1","ios":"levelo://app?vid=0d5436a7-ea15-4265-aeba-3a9fe76321e1"},"vehicle_type_id":"4","last_reported":1739228979,"current_range_meters":27600,"station_id":"ce4bhnp2rcd13ifvqh0g","pricing_plan_id":"cebpf4jnsgd1na2vs0mg"},{"bike_id":"ddaf09b0-2c3b-4688-b484-14cdfe4165fc","system_id":"levelo_inurba_marseille","lat":43.28694,"lon":5.37407,"is_reserved":false,"is_disabled":false,"rental_uris":{"android":"levelo://app?vid=ddaf09b0-2c3b-4688-b484-14cdfe4165fc","ios":"levelo://app?vid=ddaf09b0-2c3b-4688-b484-14cdfe4165fc"},"vehicle_type_id":"4","last_reported":1739228979,"current_range_meters":23200,"station_id":"ce4bh3p2rcd13ifvqdq0","pricing_plan_id":"cebpf4jnsgd1na2vs0mg"},{"bike_id":"04d4b8ab-1d4d-44ab-9d49-e10f569c0553","system_id":"levelo_inurba_marseille","lat":43.29844,"lon":5.36259,"is_reserved":false,"is_disabled":false,"rental_uris":{"android":"levelo://app?vid=04d4b8ab-1d4d-44ab-9d49-e10f569c0553","ios":"levelo://app?vid=04d4b8ab-1d4d-44ab-9d49-e10f569c0553"},"vehicle_type_id":"4","last_reported":1739228979,"current_range_meters":11600,"station_id":"ce4bgpp2rcd13ifvqc3g","pricing_plan_id":"cebpf4jnsgd1na2vs0mg"},{"bike_id":"a97f3a8d-e1f7-4ede-af5a-b155aa57a80e","system_id":"levelo_inurba_marseille","lat":43.2558,"lon":5.3823,"is_reserved":false,"is_disabled":false,"rental_uris":{"android":"levelo://app?vid=a97f3a8d-e1f7-4ede-af5a-b155aa57a80e","ios":"levelo://app?vid=a97f3a8d-e1f7-4ede-af5a-b155aa57a80e"},"vehicle_type_id":"4","last_reported":1739228979,"current_range_meters":17200,"station_id":"ce4bhih2rcd13ifvqfs0","pricing_plan_id":"cebpf4jnsgd1na2vs0mg"},{"bike_id":"c65ef58b-ac53-4e82-8688-b6b2c1dcabea","system_id":"levelo_inurba_marseille","lat":43.26297,"lon":5.41174,"is_reserved":false,"is_disabled":false,"rental_uris":{"android":"levelo://app?vid=c65ef58b-ac53-4e82-8688-b6b2c1dcabea","ios":"levelo://app?vid=c65ef58b-ac53-4e82-8688-b6b2c1dcabea"},"vehicle_type_id":"4","last_reported":1739228979,"current_range_meters":38800,"station_id":"","pricing_plan_id":"cebpf4jnsgd1na2vs0mg"},{"bike_id":"07baf43e-fc57-48a3-beea-0bd26e095e21","system_id":"levelo_inurba_marseille","lat":43.29204,"lon":5.39319,"is_reserved":false,"is_disabled":false,"rental_uris":{"android":"levelo://app?vid=07baf43e-fc57-48a3-beea-0bd26e095e21","ios":"levelo://app?vid=07baf43e-fc57-48a3-beea-0bd26e095e21"},"vehicle_type_id":"4","last_reported":1739228979,"current_range_meters":24800,"station_id":"ce4bh192rcd13ifvqdd0","pricing_plan_id":"cebpf4jnsgd1na2vs0mg"},{"bike_id":"1af00a82-b32d-4f50-8686-c27833a37a2d","system_id":"levelo_inurba_marseille","lat":43.30337,"lon":5.40447,"is_reserved":false,"is_disabled":false,"rental_uris":{"android":"levelo://app?vid=1af00a82-b32d-4f50-8686-c27833a37a2d","ios":"levelo://app?vid=1af00a82-b32d-4f50-8686-c27833a37a2d"},"vehicle_type_id":"4","last_reported":1739228979,"current_range_meters":38000,"station_id":"ce4bh012rcd13ifvqd10","pricing_plan_id":"cebpf4jnsgd1na2vs0mg"},{"bike_id":"c4813b27-4250-43ea-8be5-ccd7321d2af3","system_id":"levelo_inurba_marseille","lat":43.28184,"lon":5.37012,"is_reserved":false,"is_disabled":false,"rental_uris":{"android":"levelo://app?vid=c4813b27-4250-43ea-8be5-ccd7321d2af3","ios":"levelo://app?vid=c4813b27-4250-43ea-8be5-ccd7321d2af3"},"vehicle_type_id":"4","last_reported":1739228979,"current_range_meters":24800,"station_id":"","pricing_plan_id":"cebpf4jnsgd1na2vs0mg"},{"bike_id":"93bc07c8-c5e8-4508-b353-1c2773c131f8","system_id":"levelo_inurba_marseille","lat":43.33607,"lon":5.41036,"is_reserved":false,"is_disabled":false,"rental_uris":{"android":"levelo://app?vid=93bc07c8-c5e8-4508-b353-1c2773c131f8","ios":"levelo://app?vid=93bc07c8-c5e8-4508-b353-1c2773c131f8"},"vehicle_type_id":"4","last_reported":1739228979,"current_range_meters":39200,"station_id":"ce4bhqh2rcd13ifvqhmg","pricing_plan_id":"cebpf4jnsgd1na2vs0mg"},{"bike_id":"db45b2ad-8e58-4df6-8875-abc370f12198","system_id":"levelo_inurba_marseille","lat":43.3175,"lon":5.38994,"is_reserved":false,"is_disabled":false,"rental_uris":{"android":"levelo://app?vid=db45b2ad-8e58-4df6-8875-abc370f12198","ios":"levelo://app?vid=db45b2ad-8e58-4df6-8875-abc370f12198"},"vehicle_type_id":"4","last_reported":1739228979,"current_range_meters":24400,"station_id":"ce4bhqp2rcd13ifvqhng","pricing_plan_id":"cebpf4jnsgd1na2vs0mg"},{"bike_id":"e37c9fdc-db44-44ae-b88a-8beacc270b7e","system_id":"levelo_inurba_marseille","lat":43.27935,"lon":5.4107,"is_reserved":false,"is_disabled":false,"rental_uris":{"android":"levelo://app?vid=e37c9fdc-db44-44ae-b88a-8beacc270b7e","ios":"levelo://app?vid=e37c9fdc-db44-44ae-b88a-8beacc270b7e"},"vehicle_type_id":"4","last_reported":1739228979,"current_range_meters":25600,"station_id":"ce4bhnp2rcd13ifvqh0g","pricing_plan_id":"cebpf4jnsgd1na2vs0mg"},{"bike_id":"30040434-0ce6-4639-9cfb-4b7e126d7c60","system_id":"levelo_inurba_marseille","lat":43.27496,"lon":5.42448,"is_reserved":false,"is_disabled":false,"rental_uris":{"android":"levelo://app?vid=30040434-0ce6-4639-9cfb-4b7e126d7c60","ios":"levelo://app?vid=30040434-0ce6-4639-9cfb-4b7e126d7c60"},"vehicle_type_id":"4","last_reported":1739228979,"current_range_meters":38800,"station_id":"ce4bhn92rcd13ifvqgrg","pricing_plan_id":"cebpf4jnsgd1na2vs0mg"},{"bike_id":"290dee4e-3b4f-4f88-b817-43f8dccd7ff8","system_id":"levelo_inurba_marseille","lat":43.29537,"lon":5.38539,"is_reserved":false,"is_disabled":false,"rental_uris":{"android":"levelo://app?vid=290dee4e-3b4f-4f88-b817-43f8dccd7ff8","ios":"levelo://app?vid=290dee4e-3b4f-4f88-b817-43f8dccd7ff8"},"vehicle_type_id":"4","last_reported":1739228979,"current_range_meters":8000,"station_id":"ce4bgih2rcd13ifvqba0","pricing_plan_id":"cebpf4jnsgd1na2vs0mg"},{"bike_id":"3a56c958-f518-44fc-b510-56471ff528e1","system_id":"levelo_inurba_marseille","lat":43.30591,"lon":5.3721,"is_reserved":false,"is_disabled":true,"rental_uris":{"android":"levelo://app?vid=3a56c958-f518-44fc-b510-56471ff528e1","ios":"levelo://app?vid=3a56c958-f518-44fc-b510-56471ff528e1"},"vehicle_type_id":"4","last_reported":1739228979,"current_range_meters":25600,"station_id":"ce4bgqh2rcd13ifvqc4g","pricing_plan_id":"cebpf4jnsgd1na2vs0mg"},{"bike_id":"addd07a1-34d8-46c5-813c-e5860355448f","system_id":"levelo_inurba_marseille","lat":43.28435,"lon":5.37514,"is_reserved":false,"is_disabled":false,"rental_uris":{"android":"levelo://app?vid=addd07a1-34d8-46c5-813c-e5860355448f","ios":"levelo://app?vid=addd07a1-34d8-46c5-813c-e5860355448f"},"vehicle_type_id":"4","last_reported":1739228979,"current_range_meters":28800,"station_id":"ce4bho92rcd13ifvqh3g","pricing_plan_id":"cebpf4jnsgd1na2vs0mg"},{"bike_id":"868bab58-7fb6-4926-8070-cd9a4296d6f1","system_id":"levelo_inurba_marseille","lat":43.28342,"lon":5.38116,"is_reserved":false,"is_disabled":false,"rental_uris":{"android":"levelo://app?vid=868bab58-7fb6-4926-8070-cd9a4296d6f1","ios":"levelo://app?vid=868bab58-7fb6-4926-8070-cd9a4296d6f1"},"vehicle_type_id":"4","last_reported":1739228979,"current_range_meters":38400,"station_id":"ce4bh412rcd13ifvqdr0","pricing_plan_id":"cebpf4jnsgd1na2vs0mg"},{"bike_id":"ce4a7ce0-e12e-4e73-b43d-a872476e1c85","system_id":"levelo_inurba_marseille","lat":43.30956,"lon":5.4016,"is_reserved":false,"is_disabled":false,"rental_uris":{"android":"levelo://app?vid=ce4a7ce0-e12e-4e73-b43d-a872476e1c85","ios":"levelo://app?vid=ce4a7ce0-e12e-4e73-b43d-a872476e1c85"},"vehicle_type_id":"4","last_reported":1739228979,"current_range_meters":16800,"station_id":"ce4bgvp2rcd13ifvqct0","pricing_plan_id":"cebpf4jnsgd1na2vs0mg"},{"bike_id":"d8e60575-dd75-42cd-9b3b-ddc5b6951e4c","system_id":"levelo_inurba_marseille","lat":43.30355,"lon":5.41867,"is_reserved":false,"is_disabled":false,"rental_uris":{"android":"levelo://app?vid=d8e60575-dd75-42cd-9b3b-ddc5b6951e4c","ios":"levelo://app?vid=d8e60575-dd75-42cd-9b3b-ddc5b6951e4c"},"vehicle_type_id":"4","last_reported":1739228979,"current_range_meters":37600,"station_id":"ce4bhop2rcd13ifvqh7g","pricing_plan_id":"cebpf4jnsgd1na2vs0mg"},{"bike_id":"551c943c-b739-4348-98fb-98b1ffc5d400","system_id":"levelo_inurba_marseille","lat":43.26497,"lon":5.39545,"is_reserved":false,"is_disabled":false,"rental_uris":{"android":"levelo://app?vid=551c943c-b739-4348-98fb-98b1ffc5d400","ios":"levelo://app?vid=551c943c-b739-4348-98fb-98b1ffc5d400"},"vehicle_type_id":"4","last_reported":1739228979,"current_range_meters":17600,"station_id":"ce4bhi12rcd13ifvqfq0","pricing_plan_id":"cebpf4jnsgd1na2vs0mg"},{"bike_id":"841e0f04-b00a-44de-83b7-b9b92c40d93b","system_id":"levelo_inurba_marseille","lat":43.28166,"lon":5.42632,"is_reserved":false,"is_disabled":false,"rental_uris":{"android":"levelo://app?vid=841e0f04-b00a-44de-83b7-b9b92c40d93b","ios":"levelo://app?vid=841e0f04-b00a-44de-83b7-b9b92c40d93b"},"vehicle_type_id":"4","last_reported":1739228979,"current_range_meters":16800,"station_id":"ce4bhnh2rcd13ifvqgug","pricing_plan_id":"cebpf4jnsgd1na2vs0mg"},{"bike_id":"4740ba17-16bf-4c07-b1cb-0cf663b53a6e","system_id":"levelo_inurba_marseille","lat":43.3111,"lon":5.37755,"is_reserved":false,"is_disabled":false,"rental_uris":{"android":"levelo://app?vid=4740ba17-16bf-4c07-b1cb-0cf663b53a6e","ios":"levelo://app?vid=4740ba17-16bf-4c07-b1cb-0cf663b53a6e"},"vehicle_type_id":"4","last_reported":1739228979,"current_range_meters":38800,"station_id":"ce4bgt92rcd13ifvqcg0","pricing_plan_id":"cebpf4jnsgd1na2vs0mg"},{"bike_id":"88379eaf-5a6d-4117-a07a-21ee5231369a","system_id":"levelo_inurba_marseille","lat":43.31525,"lon":5.38032,"is_reserved":false,"is_disabled":false,"rental_uris":{"android":"levelo://app?vid=88379eaf-5a6d-4117-a07a-21ee5231369a","ios":"levelo://app?vid=88379eaf-5a6d-4117-a07a-21ee5231369a"},"vehicle_type_id":"4","last_reported":1739228979,"current_range_meters":38800,"station_id":"ce4bhsp2rcd13ifvqi50","pricing_plan_id":"cebpf4jnsgd1na2vs0mg"},{"bike_id":"1672a38a-2ede-4dd0-8d62-1b7a73ddefab","system_id":"levelo_inurba_marseille","lat":43.33603,"lon":5.41039,"is_reserved":false,"is_disabled":false,"rental_uris":{"android":"levelo://app?vid=1672a38a-2ede-4dd0-8d62-1b7a73ddefab","ios":"levelo://app?vid=1672a38a-2ede-4dd0-8d62-1b7a73ddefab"},"vehicle_type_id":"4","last_reported":1739228979,"current_range_meters":4000,"station_id":"ce4bhqh2rcd13ifvqhmg","pricing_plan_id":"cebpf4jnsgd1na2vs0mg"},{"bike_id":"6e82be9a-3df4-4056-a6e5-54353164d0c3","system_id":"levelo_inurba_marseille","lat":43.29278,"lon":5.40106,"is_reserved":false,"is_disabled":false,"rental_uris":{"android":"levelo://app?vid=6e82be9a-3df4-4056-a6e5-54353164d0c3","ios":"levelo://app?vid=6e82be9a-3df4-4056-a6e5-54353164d0c3"},"vehicle_type_id":"4","last_reported":1739228979,"current_range_meters":31200,"station_id":"ce4bh312rcd13ifvqdk0","pricing_plan_id":"cebpf4jnsgd1na2vs0mg"},{"bike_id":"f9a1dce0-909b-46b4-acaf-5980ca701f55","system_id":"levelo_inurba_marseille","lat":43.30426,"lon":5.38894,"is_reserved":false,"is_disabled":false,"rental_uris":{"android":"levelo://app?vid=f9a1dce0-909b-46b4-acaf-5980ca701f55","ios":"levelo://app?vid=f9a1dce0-909b-46b4-acaf-5980ca701f55"},"vehicle_type_id":"4","last_reported":1739228979,"current_range_meters":34800,"station_id":"ce4bgk12rcd13ifvqbi0","pricing_plan_id":"cebpf4jnsgd1na2vs0mg"},{"bike_id":"b8cbd248-db62-4d84-b3a4-fd8e7e00f9d3","system_id":"levelo_inurba_marseille","lat":43.280336,"lon":5.369506,"is_reserved":false,"is_disabled":false,"rental_uris":{"android":"levelo://app?vid=b8cbd248-db62-4d84-b3a4-fd8e7e00f9d3","ios":"levelo://app?vid=b8cbd248-db62-4d84-b3a4-fd8e7e00f9d3"},"vehicle_type_id":"4","last_reported":1739228979,"current_range_meters":32000,"station_id":"ce4bha12rcd13ifvqef0","pricing_plan_id":"cebpf4jnsgd1na2vs0mg"},{"bike_id":"1ec14052-2d33-4aa1-9ab8-58cc71db74d1","system_id":"levelo_inurba_marseille","lat":43.24171,"lon":5.36423,"is_reserved":false,"is_disabled":false,"rental_uris":{"android":"levelo://app?vid=1ec14052-2d33-4aa1-9ab8-58cc71db74d1","ios":"levelo://app?vid=1ec14052-2d33-4aa1-9ab8-58cc71db74d1"},"vehicle_type_id":"4","last_reported":1739228979,"current_range_meters":17200,"station_id":"cpo36qri1sfpv3e86is0","pricing_plan_id":"cebpf4jnsgd1na2vs0mg"},{"bike_id":"6e99eac2-ce29-457d-b4dd-f5cd87e6b34c","system_id":"levelo_inurba_marseille","lat":43.28356,"lon":5.38128,"is_reserved":false,"is_disabled":false,"rental_uris":{"android":"levelo://app?vid=6e99eac2-ce29-457d-b4dd-f5cd87e6b34c","ios":"levelo://app?vid=6e99eac2-ce29-457d-b4dd-f5cd87e6b34c"},"vehicle_type_id":"4","last_reported":1739228979,"current_range_meters":38800,"station_id":"ce4bh412rcd13ifvqdr0","pricing_plan_id":"cebpf4jnsgd1na2vs0mg"},{"bike_id":"664b1fef-3033-4002-9fd0-ce676aabfdec","system_id":"levelo_inurba_marseille","lat":43.30444,"lon":5.38891,"is_reserved":false,"is_disabled":false,"rental_uris":{"android":"levelo://app?vid=664b1fef-3033-4002-9fd0-ce676aabfdec","ios":"levelo://app?vid=664b1fef-3033-4002-9fd0-ce676aabfdec"},"vehicle_type_id":"4","last_reported":1739228979,"current_range_meters":33200,"station_id":"ce4bgk12rcd13ifvqbi0","pricing_plan_id":"cebpf4jnsgd1na2vs0mg"},{"bike_id":"a8eb7d54-da88-4020-a71f-24fa02f4c4b2","system_id":"levelo_inurba_marseille","lat":43.323425,"lon":5.406151,"is_reserved":false,"is_disabled":false,"rental_uris":{"android":"levelo://app?vid=a8eb7d54-da88-4020-a71f-24fa02f4c4b2","ios":"levelo://app?vid=a8eb7d54-da88-4020-a71f-24fa02f4c4b2"},"vehicle_type_id":"4","last_reported":1739228979,"current_range_meters":39200,"station_id":"ce4bhq92rcd13ifvqhjg","pricing_plan_id":"cebpf4jnsgd1na2vs0mg"},{"bike_id":"1fc2e01a-39db-473e-9340-05e46c2bfee3","system_id":"levelo_inurba_marseille","lat":43.28573,"lon":5.39505,"is_reserved":false,"is_disabled":false,"rental_uris":{"android":"levelo://app?vid=1fc2e01a-39db-473e-9340-05e46c2bfee3","ios":"levelo://app?vid=1fc2e01a-39db-473e-9340-05e46c2bfee3"},"vehicle_type_id":"4","last_reported":1739228979,"current_range_meters":38800,"station_id":"ce4bh292rcd13ifvqdg0","pricing_plan_id":"cebpf4jnsgd1na2vs0mg"},{"bike_id":"609de531-9d7a-43f1-8281-bbda2a56fe01","system_id":"levelo_inurba_marseille","lat":43.309348,"lon":5.401354,"is_reserved":false,"is_disabled":false,"rental_uris":{"android":"levelo://app?vid=609de531-9d7a-43f1-8281-bbda2a56fe01","ios":"levelo://app?vid=609de531-9d7a-43f1-8281-bbda2a56fe01"},"vehicle_type_id":"4","last_reported":1739228979,"current_range_meters":38800,"station_id":"ce4bgvp2rcd13ifvqct0","pricing_plan_id":"cebpf4jnsgd1na2vs0mg"},{"bike_id":"fbb98623-bd6f-4427-9463-8f7fc3b3bd20","system_id":"levelo_inurba_marseille","lat":43.28041,"lon":5.36942,"is_reserved":false,"is_disabled":false,"rental_uris":{"android":"levelo://app?vid=fbb98623-bd6f-4427-9463-8f7fc3b3bd20","ios":"levelo://app?vid=fbb98623-bd6f-4427-9463-8f7fc3b3bd20"},"vehicle_type_id":"4","last_reported":1739228979,"current_range_meters":30800,"station_id":"ce4bha12rcd13ifvqef0","pricing_plan_id":"cebpf4jnsgd1na2vs0mg"},{"bike_id":"d37a56cf-7136-4e6e-a35d-b588d1bd39ab","system_id":"levelo_inurba_marseille","lat":43.3153,"lon":5.38037,"is_reserved":false,"is_disabled":false,"rental_uris":{"android":"levelo://app?vid=d37a56cf-7136-4e6e-a35d-b588d1bd39ab","ios":"levelo://app?vid=d37a56cf-7136-4e6e-a35d-b588d1bd39ab"},"vehicle_type_id":"4","last_reported":1739228979,"current_range_meters":31200,"station_id":"ce4bhsp2rcd13ifvqi50","pricing_plan_id":"cebpf4jnsgd1na2vs0mg"},{"bike_id":"1f4035c9-8a5c-4fac-87cb-146b8f52eaaa","system_id":"levelo_inurba_marseille","lat":43.28444,"lon":5.39192,"is_reserved":false,"is_disabled":false,"rental_uris":{"android":"levelo://app?vid=1f4035c9-8a5c-4fac-87cb-146b8f52eaaa","ios":"levelo://app?vid=1f4035c9-8a5c-4fac-87cb-146b8f52eaaa"},"vehicle_type_id":"4","last_reported":1739228979,"current_range_meters":32400,"station_id":"ce4bhoh2rcd13ifvqh5g","pricing_plan_id":"cebpf4jnsgd1na2vs0mg"},{"bike_id":"e481c26a-2dc7-4c52-b371-4a0c4f3c10d0","system_id":"levelo_inurba_marseille","lat":43.31106,"lon":5.37761,"is_reserved":false,"is_disabled":true,"rental_uris":{"android":"levelo://app?vid=e481c26a-2dc7-4c52-b371-4a0c4f3c10d0","ios":"levelo://app?vid=e481c26a-2dc7-4c52-b371-4a0c4f3c10d0"},"vehicle_type_id":"4","last_reported":1739228979,"current_range_meters":11200,"station_id":"ce4bgt92rcd13ifvqcg0","pricing_plan_id":"cebpf4jnsgd1na2vs0mg"},{"bike_id":"5d5b9d52-4005-4b8d-8e03-12940e9796d0","system_id":"levelo_inurba_marseille","lat":43.24066,"lon":5.37761,"is_reserved":false,"is_disabled":true,"rental_uris":{"android":"levelo://app?vid=5d5b9d52-4005-4b8d-8e03-12940e9796d0","ios":"levelo://app?vid=5d5b9d52-4005-4b8d-8e03-12940e9796d0"},"vehicle_type_id":"4","last_reported":1739228979,"current_range_meters":18800,"station_id":"ce4bhnp2rcd13ifvqgvg","pricing_plan_id":"cebpf4jnsgd1na2vs0mg"},{"bike_id":"e74edd37-0ec7-4f56-b77f-e7249fd01314","system_id":"levelo_inurba_marseille","lat":43.30557,"lon":5.36526,"is_reserved":false,"is_disabled":true,"rental_uris":{"android":"levelo://app?vid=e74edd37-0ec7-4f56-b77f-e7249fd01314","ios":"levelo://app?vid=e74edd37-0ec7-4f56-b77f-e7249fd01314"},"vehicle_type_id":"4","last_reported":1739228979,"current_range_meters":16800,"station_id":"ce4bgs12rcd13ifvqcag","pricing_plan_id":"cebpf4jnsgd1na2vs0mg"},{"bike_id":"d65a14c4-ecf3-4048-b05f-9a757ce2f182","system_id":"levelo_inurba_marseille","lat":43.24683,"lon":5.38168,"is_reserved":false,"is_disabled":false,"rental_uris":{"android":"levelo://app?vid=d65a14c4-ecf3-4048-b05f-9a757ce2f182","ios":"levelo://app?vid=d65a14c4-ecf3-4048-b05f-9a757ce2f182"},"vehicle_type_id":"4","last_reported":1739228979,"current_range_meters":38400,"station_id":"ce4bhih2rcd13ifvqfr0","pricing_plan_id":"cebpf4jnsgd1na2vs0mg"},{"bike_id":"cf68207e-2485-4989-bee6-844731614980","system_id":"levelo_inurba_marseille","lat":43.28484,"lon":5.3844,"is_reserved":false,"is_disabled":false,"rental_uris":{"android":"levelo://app?vid=cf68207e-2485-4989-bee6-844731614980","ios":"levelo://app?vid=cf68207e-2485-4989-bee6-844731614980"},"vehicle_type_id":"4","last_reported":1739228979,"current_range_meters":36400,"station_id":"ce4bh512rcd13ifvqe3g","pricing_plan_id":"cebpf4jnsgd1na2vs0mg"},{"bike_id":"ca63d75f-d551-49cb-bec7-e060cadddd73","system_id":"levelo_inurba_marseille","lat":43.28108,"lon":5.44193,"is_reserved":false,"is_disabled":false,"rental_uris":{"android":"levelo://app?vid=ca63d75f-d551-49cb-bec7-e060cadddd73","ios":"levelo://app?vid=ca63d75f-d551-49cb-bec7-e060cadddd73"},"vehicle_type_id":"4","last_reported":1739228979,"current_range_meters":16800,"station_id":"","pricing_plan_id":"cebpf4jnsgd1na2vs0mg"},{"bike_id":"12dd2297-6b4c-4197-8a7d-3abdc217b6a2","system_id":"levelo_inurba_marseille","lat":43.2841,"lon":5.37523,"is_reserved":false,"is_disabled":false,"rental_uris":{"android":"levelo://app?vid=12dd2297-6b4c-4197-8a7d-3abdc217b6a2","ios":"levelo://app?vid=12dd2297-6b4c-4197-8a7d-3abdc217b6a2"},"vehicle_type_id":"4","last_reported":1739228979,"current_range_meters":32000,"station_id":"ce4bh412rcd13ifvqds0","pricing_plan_id":"cebpf4jnsgd1na2vs0mg"},{"bike_id":"914b4589-1568-4fa3-b21a-87516ec733ab","system_id":"levelo_inurba_marseille","lat":43.28463,"lon":5.35883,"is_reserved":false,"is_disabled":false,"rental_uris":{"android":"levelo://app?vid=914b4589-1568-4fa3-b21a-87516ec733ab","ios":"levelo://app?vid=914b4589-1568-4fa3-b21a-87516ec733ab"},"vehicle_type_id":"4","last_reported":1739228979,"current_range_meters":32400,"station_id":"ce4bhah2rcd13ifvqei0","pricing_plan_id":"cebpf4jnsgd1na2vs0mg"},{"bike_id":"e7e82525-0af3-42b9-9242-aabf5a8fb1ce","system_id":"levelo_inurba_marseille","lat":43.29887,"lon":5.3973,"is_reserved":false,"is_disabled":false,"rental_uris":{"android":"levelo://app?vid=e7e82525-0af3-42b9-9242-aabf5a8fb1ce","ios":"levelo://app?vid=e7e82525-0af3-42b9-9242-aabf5a8fb1ce"},"vehicle_type_id":"4","last_reported":1739228979,"current_range_meters":22800,"station_id":"ce4bh0h2rcd13ifvqd50","pricing_plan_id":"cebpf4jnsgd1na2vs0mg"},{"bike_id":"5baf39dd-07ca-4c36-b84d-55d91f868a26","system_id":"levelo_inurba_marseille","lat":43.29563,"lon":5.38252,"is_reserved":false,"is_disabled":true,"rental_uris":{"android":"levelo://app?vid=5baf39dd-07ca-4c36-b84d-55d91f868a26","ios":"levelo://app?vid=5baf39dd-07ca-4c36-b84d-55d91f868a26"},"vehicle_type_id":"4","last_reported":1739228979,"current_range_meters":35600,"station_id":"","pricing_plan_id":"cebpf4jnsgd1na2vs0mg"},{"bike_id":"c7cf034c-3bf6-4875-8401-dd6b25853f9e","system_id":"levelo_inurba_marseille","lat":43.28478,"lon":5.38421,"is_reserved":false,"is_disabled":false,"rental_uris":{"android":"levelo://app?vid=c7cf034c-3bf6-4875-8401-dd6b25853f9e","ios":"levelo://app?vid=c7cf034c-3bf6-4875-8401-dd6b25853f9e"},"vehicle_type_id":"4","last_reported":1739228979,"current_range_meters":38800,"station_id":"ce4bh512rcd13ifvqe3g","pricing_plan_id":"cebpf4jnsgd1na2vs0mg"},{"bike_id":"e5491c41-467c-40d9-b58c-33959b38346b","system_id":"levelo_inurba_marseille","lat":43.28727,"lon":5.36086,"is_reserved":false,"is_disabled":false,"rental_uris":{"android":"levelo://app?vid=e5491c41-467c-40d9-b58c-33959b38346b","ios":"levelo://app?vid=e5491c41-467c-40d9-b58c-33959b38346b"},"vehicle_type_id":"4","last_reported":1739228979,"current_range_meters":14000,"station_id":"cki0cbj6b192h4jlfktg","pricing_plan_id":"cebpf4jnsgd1na2vs0mg"},{"bike_id":"e1918a80-e061-48ff-a7f0-f6cb259b93c9","system_id":"levelo_inurba_marseille","lat":43.29502,"lon":5.39027,"is_reserved":false,"is_disabled":false,"rental_uris":{"android":"levelo://app?vid=e1918a80-e061-48ff-a7f0-f6cb259b93c9","ios":"levelo://app?vid=e1918a80-e061-48ff-a7f0-f6cb259b93c9"},"vehicle_type_id":"4","last_reported":1739228979,"current_range_meters":28400,"station_id":"ce4bh3p2rcd13ifvqdp0","pricing_plan_id":"cebpf4jnsgd1na2vs0mg"},{"bike_id":"9b8abd08-e44c-4856-b389-4f5ff2f6b096","system_id":"levelo_inurba_marseille","lat":43.29184,"lon":5.37532,"is_reserved":false,"is_disabled":false,"rental_uris":{"android":"levelo://app?vid=9b8abd08-e44c-4856-b389-4f5ff2f6b096","ios":"levelo://app?vid=9b8abd08-e44c-4856-b389-4f5ff2f6b096"},"vehicle_type_id":"4","last_reported":1739228979,"current_range_meters":14400,"station_id":"","pricing_plan_id":"cebpf4jnsgd1na2vs0mg"},{"bike_id":"f2a19d6d-1c3c-4ae5-a155-e51d34c1aabd","system_id":"levelo_inurba_marseille","lat":43.28566,"lon":5.39511,"is_reserved":false,"is_disabled":false,"rental_uris":{"android":"levelo://app?vid=f2a19d6d-1c3c-4ae5-a155-e51d34c1aabd","ios":"levelo://app?vid=f2a19d6d-1c3c-4ae5-a155-e51d34c1aabd"},"vehicle_type_id":"4","last_reported":1739228979,"current_range_meters":39200,"station_id":"ce4bh292rcd13ifvqdg0","pricing_plan_id":"cebpf4jnsgd1na2vs0mg"},{"bike_id":"118acaa8-c377-4759-a8f9-c3303973ef34","system_id":"levelo_inurba_marseille","lat":43.29874,"lon":5.38913,"is_reserved":false,"is_disabled":false,"rental_uris":{"android":"levelo://app?vid=118acaa8-c377-4759-a8f9-c3303973ef34","ios":"levelo://app?vid=118acaa8-c377-4759-a8f9-c3303973ef34"},"vehicle_type_id":"4","last_reported":1739228979,"current_range_meters":27600,"station_id":"ce4bh392rcd13ifvqdl0","pricing_plan_id":"cebpf4jnsgd1na2vs0mg"},{"bike_id":"a2e47ef2-b5e4-4997-89e2-9a26b4036ad1","system_id":"levelo_inurba_marseille","lat":43.2905,"lon":5.35909,"is_reserved":false,"is_disabled":false,"rental_uris":{"android":"levelo://app?vid=a2e47ef2-b5e4-4997-89e2-9a26b4036ad1","ios":"levelo://app?vid=a2e47ef2-b5e4-4997-89e2-9a26b4036ad1"},"vehicle_type_id":"4","last_reported":1739228979,"current_range_meters":9200,"station_id":"ce4bha92rcd13ifvqeg0","pricing_plan_id":"cebpf4jnsgd1na2vs0mg"},{"bike_id":"0222dd83-169a-4bec-9f83-dcd97173601f","system_id":"levelo_inurba_marseille","lat":43.29797,"lon":5.39349,"is_reserved":false,"is_disabled":false,"rental_uris":{"android":"levelo://app?vid=0222dd83-169a-4bec-9f83-dcd97173601f","ios":"levelo://app?vid=0222dd83-169a-4bec-9f83-dcd97173601f"},"vehicle_type_id":"4","last_reported":1739228979,"current_range_meters":39200,"station_id":"chh1huq6cuj3fo74tm60","pricing_plan_id":"cebpf4jnsgd1na2vs0mg"},