{"last_updated":1769020205,"ttl":60,"version":"2.2","data":{"bikes":[{"bike_id":"a3c6f343-57ad-49c0-afe4-9cacd698c773","system_id":"levelo_inurba_marseille","lat":43.298876,"lon":5.389099,"is_reserved":false,"is_disabled":false,"rental_uris":{"android":"levelo://app?vid=a3c6f343-57ad-49c0-afe4-9cacd698c773","ios":"levelo://app?vid=a3c6f343-57ad-49c0-afe4-9cacd698c773"},"vehicle_type_id":"4","last_reported":1769020206,"current_range_meters":2800,"station_id":"ce4bh392rcd13ifvqdl0","pricing_plan_id":"cebpf4jnsgd1na2vs0mg"},{"bike_id":"58b28e0e-9514-4826-8c44-0093f0fc0b84","system_id":"levelo_inurba_marseille","lat":43.2706,"lon":5.4025,"is_reserved":false,"is_disabled":false,"rental_uris":{"android":"levelo://app?vid=58b28e0e-9514-4826-8c44-0093f0fc0b84","ios":"levelo://app?vid=58b28e0e-9514-4826-8c44-0093f0fc0b84"},"vehicle_type_id":"4","last_reported":1769020206,"current_range_meters":2800,"station_id":"ce4bhk92rcd13ifvqgc0","pricing_plan_id":"cebpf4jnsgd1na2vs0mg"},{"bike_id":"c590d53a-78cc-4ee8-92b9-956cefbbbe1d","system_id":"levelo_inurba_marseille","lat":43.292053,"lon":5.39312,"is_reserved":false,"is_disabled":false,"rental_uris":{"android":"levelo://app?vid=c590d53a-78cc-4ee8-92b9-956cefbbbe1d","ios":"levelo://app?vid=c590d53a-78cc-4ee8-92b9-956cefbbbe1d"},"vehicle_type_id":"4","last_reported":1769020206,"current_range_meters":2800,"station_id":"ce4bh192rcd13ifvqdd0","pricing_plan_id":"cebpf4jnsgd1na2vs0mg"},{"bike_id":"9ed85f30-2205-4d4d-9b08-e4294486deeb","system_id":"levelo_inurba_marseille","lat":43.27213,"lon":5.39113,"is_reserved":false,"is_disabled":false,"rental_uris":{"android":"levelo://app?vid=9ed85f30-2205-4d4d-9b08-e4294486deeb","ios":"levelo://app?vid=9ed85f30-2205-4d4d-9b08-e4294486deeb"},"vehicle_type_id":"4","last_reported":1769020206,"current_range_meters":2800,"station_id":"","pricing_plan_id":"cebpf4jnsgd1na2vs0mg"},{"bike_id":"d2cb0070-0422-466b-b462-1892f78475a2","system_id":"levelo_inurba_marseille","lat":43.22925,"lon":5.3537,"is_reserved":false,"is_disabled":false,"rental_uris":{"android":"levelo://app?vid=d2cb0070-0422-466b-b462-1892f78475a2","ios":"levelo://app?vid=d2cb0070-0422-466b-b462-1892f78475a2"},"vehicle_type_id":"4","last_reported":1769020206,"current_range_meters":2800,"station_id":"cpo3532slgdg3j2ikp40","pricing_plan_id":"cebpf4jnsgd1na2vs0mg"},{"bike_id":"10483c0a-1726-407f-8492-2530493c0d67","system_id":"levelo_inurba_marseille","lat":43.25045,"lon":5.38894,"is_reserved":false,"is_disabled":false,"rental_uris":{"android":"levelo://app?vid=10483c0a-1726-407f-8492-2530493c0d67","ios":"levelo://app?vid=10483c0a-1726-407f-8492-2530493c0d67"},"vehicle_type_id":"4","last_reported":1769020206,"current_range_meters":2800,"station_id":"ce4bhgp2rcd13ifvqfd0","pricing_plan_id":"cebpf4jnsgd1na2vs0mg"},{"bike_id":"be6b36a0-078d-473b-ba9b-75ef77c2fb3f","system_id":"levelo_inurba_marseille","lat":43.27333,"lon":5.39069,"is_reserved":false,"is_disabled":false,"rental_uris":{"android":"levelo://app?vid=be6b36a0-078d-473b-ba9b-75ef77c2fb3f","ios":"levelo://app?vid=be6b36a0-078d-473b-ba9b-75ef77c2fb3f"},"vehicle_type_id":"4","last_reported":1769020206,"current_range_meters":2800,"station_id":"ce4bhgp2rcd13ifvqfe0","pricing_plan_id":"cebpf4jnsgd1na2vs0mg"},{"bike_id":"c8f6bf8d-b69d-4740-9ee2-743be1696b71","system_id":"levelo_inurba_marseille","lat":43.26245,"lon":5.404537,"is_reserved":false,"is_disabled":false,"rental_uris":{"android":"levelo://app?vid=c8f6bf8d-b69d-4740-9ee2-743be1696b71","ios":"levelo://app?vid=c8f6bf8d-b69d-4740-9ee2-743be1696b71"},"vehicle_type_id":"4","last_reported":1769020206,"current_range_meters":2800,"station_id":"ce4bhmh2rcd13ifvqgmg","pricing_plan_id":"cebpf4jnsgd1na2vs0mg"},{"bike_id":"05445378-8a5d-473e-a02e-3796d63a29c8","system_id":"levelo_inurba_marseille","lat":43.26367,"lon":5.41083,"is_reserved":false,"is_disabled":false,"rental_uris":{"android":"levelo://app?vid=05445378-8a5d-473e-a02e-3796d63a29c8","ios":"levelo://app?vid=05445378-8a5d-473e-a02e-3796d63a29c8"},"vehicle_type_id":"4","last_reported":1769020206,"current_range_meters":2800,"station_id":"st_d4e5ca6na9uc73bfl5fg","pricing_plan_id":"cebpf4jnsgd1na2vs0mg"},{"bike_id":"5d5cd2df-7871-4c29-8c2d-f4ce3f1f26f3","system_id":"levelo_inurba_marseille","lat":43.28706,"lon":5.37938,"is_reserved":false,"is_disabled":false,"rental_uris":{"android":"levelo://app?vid=5d5cd2df-7871-4c29-8c2d-f4ce3f1f26f3","ios":"levelo://app?vid=5d5cd2df-7871-4c29-8c2d-f4ce3f1f26f3"},"vehicle_type_id":"4","last_reported":1769020206,"current_range_meters":2800,"station_id":"ce4bh9p2rcd13ifvqec0","pricing_plan_id":"cebpf4jnsgd1na2vs0mg"},{"bike_id":"ad473098-59c2-4c8e-8fd2-dd511975eb09","system_id":"levelo_inurba_marseille","lat":43.21758,"lon":5.34593,"is_reserved":false,"is_disabled":true,"rental_uris":{"android":"levelo://app?vid=ad473098-59c2-4c8e-8fd2-dd511975eb09","ios":"levelo://app?vid=ad473098-59c2-4c8e-8fd2-dd511975eb09"},"vehicle_type_id":"4","last_reported":1769020206,"current_range_meters":2800,"station_id":"st_cvj6r9ubvosntc0bgbag","pricing_plan_id":"cebpf4jnsgd1na2vs0mg"},{"bike_id":"6c19b020-8148-4c1c-801b-eea798a14237","system_id":"levelo_inurba_marseille","lat":43.323415,"lon":5.384811,"is_reserved":false,"is_disabled":false,"rental_uris":{"android":"levelo://app?vid=6c19b020-8148-4c1c-801b-eea798a14237","ios":"levelo://app?vid=6c19b020-8148-4c1c-801b-eea798a14237"},"vehicle_type_id":"4","last_reported":1769020206,"current_range_meters":2800,"station_id":"st_d45171o9ee8s73djdqug","pricing_plan_id":"cebpf4jnsgd1na2vs0mg"},{"bike_id":"8155f86b-6d64-4287-9ed7-7fbe9d103dde","system_id":"levelo_inurba_marseille","lat":43.22561,"lon":5.41634,"is_reserved":false,"is_disabled":false,"rental_uris":{"android":"levelo://app?vid=8155f86b-6d64-4287-9ed7-7fbe9d103dde","ios":"levelo://app?vid=8155f86b-6d64-4287-9ed7-7fbe9d103dde"},"vehicle_type_id":"4","last_reported":1769020206,"current_range_meters":2800,"station_id":"st_d2o4gvlbi1j2169b742g","pricing_plan_id":"cebpf4jnsgd1na2vs0mg"},{"bike_id":"9f2266ad-63bd-4fd7-a9bd-9a92d53b39e5","system_id":"levelo_inurba_marseille","lat":43.302933,"lon":5.392119,"is_reserved":false,"is_disabled":false,"rental_uris":{"android":"levelo://app?vid=9f2266ad-63bd-4fd7-a9bd-9a92d53b39e5","ios":"levelo://app?vid=9f2266ad-63bd-4fd7-a9bd-9a92d53b39e5"},"vehicle_type_id":"4","last_reported":1769020206,"current_range_meters":2800,"station_id":"ce4bgkh2rcd13ifvqbk0","pricing_plan_id":"cebpf4jnsgd1na2vs0mg"},{"bike_id":"9f267b1b-9ecb-4537-8b3b-db033635a9b6","system_id":"levelo_inurba_marseille","lat":43.27332,"lon":5.39068,"is_reserved":false,"is_disabled":false,"rental_uris":{"android":"levelo://app?vid=9f267b1b-9ecb-4537-8b3b-db033635a9b6","ios":"levelo://app?vid=9f267b1b-9ecb-4537-8b3b-db033635a9b6"},"vehicle_type_id":"4","last_reported":1769020206,"current_range_meters":2800,"station_id":"ce4bhgp2rcd13ifvqfe0","pricing_plan_id":"cebpf4jnsgd1na2vs0mg"},{"bike_id":"1f5d5da3-a4bd-43c6-8640-c27ccb1d8276","system_id":"levelo_inurba_marseille","lat":43.28567,"lon":5.39491,"is_reserved":false,"is_disabled":false,"rental_uris":{"android":"levelo://app?vid=1f5d5da3-a4bd-43c6-8640-c27ccb1d8276","ios":"levelo://app?vid=1f5d5da3-a4bd-43c6-8640-c27ccb1d8276"},"vehicle_type_id":"4","last_reported":1769020206,"current_range_meters":3200,"station_id":"ce4bh292rcd13ifvqdg0","pricing_plan_id":"cebpf4jnsgd1na2vs0mg"},{"bike_id":"04d1fa74-7078-4e54-86c0-c9d3f7b08c45","system_id":"levelo_inurba_marseille","lat":43.25593,"lon":5.38199,"is_reserved":false,"is_disabled":false,"rental_uris":{"android":"levelo://app?vid=04d1fa74-7078-4e54-86c0-c9d3f7b08c45","ios":"levelo://app?vid=04d1fa74-7078-4e54-86c0-c9d3f7b08c45"},"vehicle_type_id":"4","last_reported":1769020206,"current_range_meters":3200,"station_id":"ce4bhih2rcd13ifvqfs0","pricing_plan_id":"cebpf4jnsgd1na2vs0mg"},{"bike_id":"8495620b-50ec-483f-88ed-0a679e81b4da","system_id":"levelo_inurba_marseille","lat":43.295311,"lon":5.385438,"is_reserved":false,"is_disabled":false,"rental_uris":{"android":"levelo://app?vid=8495620b-50ec-483f-88ed-0a679e81b4da","ios":"levelo://app?vid=8495620b-50ec-483f-88ed-0a679e81b4da"},"vehicle_type_id":"4","last_reported":1769020206,"current_range_meters":3200,"station_id":"ce4bgih2rcd13ifvqba0","pricing_plan_id":"cebpf4jnsgd1na2vs0mg"},{"bike_id":"f5872181-b333-4c3b-aab9-037e8054e4da","system_id":"levelo_inurba_marseille","lat":43.26947,"lon":5.38637,"is_reserved":false,"is_disabled":false,"rental_uris":{"android":"levelo://app?vid=f5872181-b333-4c3b-aab9-037e8054e4da","ios":"levelo://app?vid=f5872181-b333-4c3b-aab9-037e8054e4da"},"vehicle_type_id":"4","last_reported":1769020206,"current_range_meters":3200,"station_id":"ce4bhh92rcd13ifvqfh0","pricing_plan_id":"cebpf4jnsgd1na2vs0mg"},{"bike_id":"07c4194e-c79b-42c5-8538-5a3b0e5689c2","system_id":"levelo_inurba_marseille","lat":43.23781,"lon":5.36633,"is_reserved":false,"is_disabled":false,"rental_uris":{"android":"levelo://app?vid=07c4194e-c79b-42c5-8538-5a3b0e5689c2","ios":"levelo://app?vid=07c4194e-c79b-42c5-8538-5a3b0e5689c2"},"vehicle_type_id":"4","last_reported":1769020206,"current_range_meters":3200,"station_id":"st_d3nk18o9ro0c73en2l3g","pricing_plan_id":"cebpf4jnsgd1na2vs0mg"},{"bike_id":"bddd1046-dde0-42c8-bee3-2f633378456e","system_id":"levelo_inurba_marseille","lat":43.28668,"lon":5.38662,"is_reserved":false,"is_disabled":false,"rental_uris":{"android":"levelo://app?vid=bddd1046-dde0-42c8-bee3-2f633378456e","ios":"levelo://app?vid=bddd1046-dde0-42c8-bee3-2f633378456e"},"vehicle_type_id":"4","last_reported":1769020206,"current_range_meters":3200,"station_id":"ce4bh492rcd13ifvqdug","pricing_plan_id":"cebpf4jnsgd1na2vs0mg"},{"bike_id":"51469472-4cc7-4fff-babd-738f91e7aa30","system_id":"levelo_inurba_marseille","lat":43.26225,"lon":5.40437,"is_reserved":false,"is_disabled":false,"rental_uris":{"android":"levelo://app?vid=51469472-4cc7-4fff-babd-738f91e7aa30","ios":"levelo://app?vid=51469472-4cc7-4fff-babd-738f91e7aa30"},"vehicle_type_id":"4","last_reported":1769020206,"current_range_meters":3200,"station_id":"ce4bhmh2rcd13ifvqgmg","pricing_plan_id":"cebpf4jnsgd1na2vs0mg"},{"bike_id":"77321c92-4e75-4d10-a065-584501435f47","system_id":"levelo_inurba_marseille","lat":43.279962,"lon":5.400109,"is_reserved":false,"is_disabled":false,"rental_uris":{"android":"levelo://app?vid=77321c92-4e75-4d10-a065-584501435f47","ios":"levelo://app?vid=77321c92-4e75-4d10-a065-584501435f47"},"vehicle_type_id":"4","last_reported":1769020206,"current_range_meters":3200,"station_id":"","pricing_plan_id":"cebpf4jnsgd1na2vs0mg"},{"bike_id":"66160d64-23f9-4d70-b989-daa254cf260e","system_id":"levelo_inurba_marseille","lat":43.28159,"lon":5.42627,"is_reserved":false,"is_disabled":true,"rental_uris":{"android":"levelo://app?vid=66160d64-23f9-4d70-b989-daa254cf260e","ios":"levelo://app?vid=66160d64-23f9-4d70-b989-daa254cf260e"},"vehicle_type_id":"4","last_reported":1769020206,"current_range_meters":3200,"station_id":"ce4bhnh2rcd13ifvqgug","pricing_plan_id":"cebpf4jnsgd1na2vs0mg"},{"bike_id":"56aebe64-5e14-40af-99f2-62c233e94a99","system_id":"levelo_inurba_marseille","lat":43.29711,"lon":5.387326,"is_reserved":false,"is_disabled":false,"rental_uris":{"android":"levelo://app?vid=56aebe64-5e14-40af-99f2-62c233e94a99","ios":"levelo://app?vid=56aebe64-5e14-40af-99f2-62c233e94a99"},"vehicle_type_id":"4","last_reported":1769020206,"current_range_meters":3200,"station_id":"","pricing_plan_id":"cebpf4jnsgd1na2vs0mg"},{"bike_id":"35eb0f0f-42a8-4fd5-956e-bec6aa3f7ee3","system_id":"levelo_inurba_marseille","lat":43.231788,"lon":5.399988,"is_reserved":false,"is_disabled":false,"rental_uris":{"android":"levelo://app?vid=35eb0f0f-42a8-4fd5-956e-bec6aa3f7ee3","ios":"levelo://app?vid=35eb0f0f-42a8-4fd5-956e-bec6aa3f7ee3"},"vehicle_type_id":"4","last_reported":1769020206,"current_range_meters":3200,"station_id":"ce4bhn12rcd13ifvqgqg","pricing_plan_id":"cebpf4jnsgd1na2vs0mg"},{"bike_id":"e93334c2-e7a2-4f00-a705-add2197036fa","system_id":"levelo_inurba_marseille","lat":43.26936,"lon":5.40258,"is_reserved":false,"is_disabled":false,"rental_uris":{"android":"levelo://app?vid=e93334c2-e7a2-4f00-a705-add2197036fa","ios":"levelo://app?vid=e93334c2-e7a2-4f00-a705-add2197036fa"},"vehicle_type_id":"4","last_reported":1769020206,"current_range_meters":3200,"station_id":"cjm6bp8fraef2m0cb0m0","pricing_plan_id":"cebpf4jnsgd1na2vs0mg"},{"bike_id":"d9d259ef-225c-4373-ba75-518a5c906d5f","system_id":"levelo_inurba_marseille","lat":43.292272,"lon":5.360598,"is_reserved":false,"is_disabled":false,"rental_uris":{"android":"levelo://app?vid=d9d259ef-225c-4373-ba75-518a5c906d5f","ios":"levelo://app?vid=d9d259ef-225c-4373-ba75-518a5c906d5f"},"vehicle_type_id":"4","last_reported":1769020206,"current_range_meters":3200,"station_id":"ce4bhbh2rcd13ifvqeqg","pricing_plan_id":"cebpf4jnsgd1na2vs0mg"},{"bike_id":"ace6dc7b-844d-48b9-85a1-bde754a67228","system_id":"levelo_inurba_marseille","lat":43.31485,"lon":5.3729,"is_reserved":false,"is_disabled":false,"rental_uris":{"android":"levelo://app?vid=ace6dc7b-844d-48b9-85a1-bde754a67228","ios":"levelo://app?vid=ace6dc7b-844d-48b9-85a1-bde754a67228"},"vehicle_type_id":"4","last_reported":1769020206,"current_range_meters":3200,"station_id":"ce4bgt12rcd13ifvqcd0","pricing_plan_id":"cebpf4jnsgd1na2vs0mg"},{"bike_id":"0b857ada-bed9-47df-869a-44f8e17a76e1","system_id":"levelo_inurba_marseille","lat":43.22572,"lon":5.41633,"is_reserved":false,"is_disabled":false,"rental_uris":{"android":"levelo://app?vid=0b857ada-bed9-47df-869a-44f8e17a76e1","ios":"levelo://app?vid=0b857ada-bed9-47df-869a-44f8e17a76e1"},"vehicle_type_id":"4","last_reported":1769020206,"current_range_meters":3600,"station_id":"st_d2o4gvlbi1j2169b742g","pricing_plan_id":"cebpf4jnsgd1na2vs0mg"},{"bike_id":"ddfad19b-b828-4e63-9764-9409bd2014b3","system_id":"levelo_inurba_marseille","lat":43.23182,"lon":5.39988,"is_reserved":false,"is_disabled":false,"rental_uris":{"android":"levelo://app?vid=ddfad19b-b828-4e63-9764-9409bd2014b3","ios":"levelo://app?vid=ddfad19b-b828-4e63-9764-9409bd2014b3"},"vehicle_type_id":"4","last_reported":1769020206,"current_range_meters":3600,"station_id":"ce4bhn12rcd13ifvqgqg","pricing_plan_id":"cebpf4jnsgd1na2vs0mg"},{"bike_id":"20f2e691-7ee8-4508-9b1c-b43a813819d1","system_id":"levelo_inurba_marseille","lat":43.26084,"lon":5.37574,"is_reserved":false,"is_disabled":false,"rental_uris":{"android":"levelo://app?vid=20f2e691-7ee8-4508-9b1c-b43a813819d1","ios":"levelo://app?vid=20f2e691-7ee8-4508-9b1c-b43a813819d1"},"vehicle_type_id":"4","last_reported":1769020206,"current_range_meters":3600,"station_id":"","pricing_plan_id":"cebpf4jnsgd1na2vs0mg"},{"bike_id":"3a3d17f1-3218-4389-9a3e-0cd10de4a59d","system_id":"levelo_inurba_marseille","lat":43.2925,"lon":5.40897,"is_reserved":false,"is_disabled":false,"rental_uris":{"android":"levelo://app?vid=3a3d17f1-3218-4389-9a3e-0cd10de4a59d","ios":"levelo://app?vid=3a3d17f1-3218-4389-9a3e-0cd10de4a59d"},"vehicle_type_id":"4","last_reported":1769020206,"current_range_meters":3600,"station_id":"ce4bh192rcd13ifvqdc0","pricing_plan_id":"cebpf4jnsgd1na2vs0mg"},{"bike_id":"1ba46c6a-d47a-4490-904a-c42ea85292c0","system_id":"levelo_inurba_marseille","lat":43.24387,"lon":5.37062,"is_reserved":false,"is_disabled":false,"rental_uris":{"android":"levelo://app?vid=1ba46c6a-d47a-4490-904a-c42ea85292c0","ios":"levelo://app?vid=1ba46c6a-d47a-4490-904a-c42ea85292c0"},"vehicle_type_id":"4","last_reported":1769020206,"current_range_meters":3600,"station_id":"ce4bhhh2rcd13ifvqfk0","pricing_plan_id":"cebpf4jnsgd1na2vs0mg"},{"bike_id":"394ccb93-cc2d-4e8a-ac01-18019d2f80ad","system_id":"levelo_inurba_marseille","lat":43.299,"lon":5.43683,"is_reserved":false,"is_disabled":false,"rental_uris":{"android":"levelo://app?vid=394ccb93-cc2d-4e8a-ac01-18019d2f80ad","ios":"levelo://app?vid=394ccb93-cc2d-4e8a-ac01-18019d2f80ad"},"vehicle_type_id":"4","last_reported":1769020206,"current_range_meters":3600,"station_id":"ce4bhpp2rcd13ifvqhfg","pricing_plan_id":"cebpf4jnsgd1na2vs0mg"},{"bike_id":"23e7e55c-e0a7-4c21-9c7b-401f7a4b5220","system_id":"levelo_inurba_marseille","lat":43.27988,"lon":5.40031,"is_reserved":false,"is_disabled":false,"rental_uris":{"android":"levelo://app?vid=23e7e55c-e0a7-4c21-9c7b-401f7a4b5220","ios":"levelo://app?vid=23e7e55c-e0a7-4c21-9c7b-401f7a4b5220"},"vehicle_type_id":"4","last_reported":1769020206,"current_range_meters":3600,"station_id":"ce4bho92rcd13ifvqh4g","pricing_plan_id":"cebpf4jnsgd1na2vs0mg"},{"bike_id":"1f19f899-50eb-4fc9-9428-f902d115dbb9","system_id":"levelo_inurba_marseille","lat":43.28108,"lon":5.37842,"is_reserved":false,"is_disabled":false,"rental_uris":{"android":"levelo://app?vid=1f19f899-50eb-4fc9-9428-f902d115dbb9","ios":"levelo://app?vid=1f19f899-50eb-4fc9-9428-f902d115dbb9"},"vehicle_type_id":"4","last_reported":1769020206,"current_range_meters":3600,"station_id":"ce4bha12rcd13ifvqee0","pricing_plan_id":"cebpf4jnsgd1na2vs0mg"},{"bike_id":"5dbfcf3f-7cec-4c29-8168-14f9c37f7762","system_id":"levelo_inurba_marseille","lat":43.225635,"lon":5.416272,"is_reserved":false,"is_disabled":false,"rental_uris":{"android":"levelo://app?vid=5dbfcf3f-7cec-4c29-8168-14f9c37f7762","ios":"levelo://app?vid=5dbfcf3f-7cec-4c29-8168-14f9c37f7762"},"vehicle_type_id":"4","last_reported":1769020206,"current_range_meters":3600,"station_id":"st_d2o4gvlbi1j2169b742g","pricing_plan_id":"cebpf4jnsgd1na2vs0mg"},{"bike_id":"2cf1ea64-26bb-4964-939a-03465aee6659","system_id":"levelo_inurba_marseille","lat":43.22561,"lon":5.4163,"is_reserved":false,"is_disabled":false,"rental_uris":{"android":"levelo://app?vid=2cf1ea64-26bb-4964-939a-03465aee6659","ios":"levelo://app?vid=2cf1ea64-26bb-4964-939a-03465aee6659"},"vehicle_type_id":"4","last_reported":1769020206,"current_range_meters":3600,"station_id":"st_d2o4gvlbi1j2169b742g","pricing_plan_id":"cebpf4jnsgd1na2vs0mg"},{"bike_id":"88d3a091-4bda-45b2-8700-12fae370662c","system_id":"levelo_inurba_marseille","lat":43.30579,"lon":5.37273,"is_reserved":false,"is_disabled":false,"rental_uris":{"android":"levelo://app?vid=88d3a091-4bda-45b2-8700-12fae370662c","ios":"levelo://app?vid=88d3a091-4bda-45b2-8700-12fae370662c"},"vehicle_type_id":"4","last_reported":1769020206,"current_range_meters":3600,"station_id":"ce4bgqh2rcd13ifvqc4g","pricing_plan_id":"cebpf4jnsgd1na2vs0mg"},{"bike_id":"507403a7-0bf7-4024-acd4-9dc8f63ee55e","system_id":"levelo_inurba_marseille","lat":43.27918,"lon":5.39578,"is_reserved":false,"is_disabled":false,"rental_uris":{"android":"levelo://app?vid=507403a7-0bf7-4024-acd4-9dc8f63ee55e","ios":"levelo://app?vid=507403a7-0bf7-4024-acd4-9dc8f63ee55e"},"vehicle_type_id":"4","last_reported":1769020206,"current_range_meters":3600,"station_id":"ce4bhf92rcd13ifvqf40","pricing_plan_id":"cebpf4jnsgd1na2vs0mg"},{"bike_id":"0eee42da-f19e-4575-87fe-48ce5cd113fe","system_id":"levelo_inurba_marseille","lat":43.255801,"lon":5.382288,"is_reserved":false,"is_disabled":false,"rental_uris":{"android":"levelo://app?vid=0eee42da-f19e-4575-87fe-48ce5cd113fe","ios":"levelo://app?vid=0eee42da-f19e-4575-87fe-48ce5cd113fe"},"vehicle_type_id":"4","last_reported":1769020206,"current_range_meters":3600,"station_id":"ce4bhih2rcd13ifvqfs0","pricing_plan_id":"cebpf4jnsgd1na2vs0mg"},{"bike_id":"d89723de-e603-4547-b826-b6b41cf5109c","system_id":"levelo_inurba_marseille","lat":43.24661,"lon":5.38151,"is_reserved":false,"is_disabled":false,"rental_uris":{"android":"levelo://app?vid=d89723de-e603-4547-b826-b6b41cf5109c","ios":"levelo://app?vid=d89723de-e603-4547-b826-b6b41cf5109c"},"vehicle_type_id":"4","last_reported":1769020206,"current_range_meters":3600,"station_id":"ce4bhih2rcd13ifvqfr0","pricing_plan_id":"cebpf4jnsgd1na2vs0mg"},{"bike_id":"fed9ac3f-552a-4d25-9e75-897e6015bbb6","system_id":"levelo_inurba_marseille","lat":43.24808,"lon":5.37456,"is_reserved":false,"is_disabled":false,"rental_uris":{"android":"levelo://app?vid=fed9ac3f-552a-4d25-9e75-897e6015bbb6","ios":"levelo://app?vid=fed9ac3f-552a-4d25-9e75-897e6015bbb6"},"vehicle_type_id":"4","last_reported":1769020206,"current_range_meters":3600,"station_id":"ce4bhgh2rcd13ifvqfb0","pricing_plan_id":"cebpf4jnsgd1na2vs0mg"},{"bike_id":"a6823ee0-5ca0-4c18-b825-ada49820021e","system_id":"levelo_inurba_marseille","lat":43.290156,"lon":5.355938,"is_reserved":false,"is_disabled":false,"rental_uris":{"android":"levelo://app?vid=a6823ee0-5ca0-4c18-b825-ada49820021e","ios":"levelo://app?vid=a6823ee0-5ca0-4c18-b825-ada49820021e"},"vehicle_type_id":"4","last_reported":1769020206,"current_range_meters":3600,"station_id":"ce4bhb92rcd13ifvqen0","pricing_plan_id":"cebpf4jnsgd1na2vs0mg"},{"bike_id":"88dd66df-9037-4a6f-a086-e7b1ed9c7096","system_id":"levelo_inurba_marseille","lat":43.28444,"lon":5.39202,"is_reserved":false,"is_disabled":false,"rental_uris":{"android":"levelo://app?vid=88dd66df-9037-4a6f-a086-e7b1ed9c7096","ios":"levelo://app?vid=88dd66df-9037-4a6f-a086-e7b1ed9c7096"},"vehicle_type_id":"4","last_reported":1769020206,"current_range_meters":3600,"station_id":"ce4bhoh2rcd13ifvqh5g","pricing_plan_id":"cebpf4jnsgd1na2vs0mg"},{"bike_id":"86ee93fa-eb34-4316-9dd9-fbe8d7eee803","system_id":"levelo_inurba_marseille","lat":43.2799,"lon":5.40016,"is_reserved":false,"is_disabled":false,"rental_uris":{"android":"levelo://app?vid=86ee93fa-eb34-4316-9dd9-fbe8d7eee803","ios":"levelo://app?vid=86ee93fa-eb34-4316-9dd9-fbe8d7eee803"},"vehicle_type_id":"4","last_reported":1769020206,"current_range_meters":4000,"station_id":"ce4bho92rcd13ifvqh4g","pricing_plan_id":"cebpf4jnsgd1na2vs0mg"},{"bike_id":"b879bdb0-3364-4e43-95d1-60b6b5fbc4d0","system_id":"levelo_inurba_marseille","lat":43.24646,"lon":5.38901,"is_reserved":false,"is_disabled":false,"rental_uris":{"android":"levelo://app?vid=b879bdb0-3364-4e43-95d1-60b6b5fbc4d0","ios":"levelo://app?vid=b879bdb0-3364-4e43-95d1-60b6b5fbc4d0"},"vehicle_type_id":"4","last_reported":1769020206,"current_range_meters":4000,"station_id":"ce4bhg12rcd13ifvqf60","pricing_plan_id":"cebpf4jnsgd1na2vs0mg"},{"bike_id":"bcd3d6d4-62c6-4126-bacd-c20f19a53f49","system_id":"levelo_inurba_marseille","lat":43.29766,"lon":5.42782,"is_reserved":false,"is_disabled":false,"rental_uris":{"android":"levelo://app?vid=bcd3d6d4-62c6-4126-bacd-c20f19a53f49","ios":"levelo://app?vid=bcd3d6d4-62c6-4126-bacd-c20f19a53f49"},"vehicle_type_id":"4","last_reported":1769020206,"current_range_meters":4000,"station_id":"st_d3md5207bmas73dh9klg","pricing_plan_id":"cebpf4jnsgd1na2vs0mg"},{"bike_id":"02b19501-ae2b-4d21-ae93-ce26586838ae","system_id":"levelo_inurba_marseille","lat":43.29588,"lon":5.4226,"is_reserved":false,"is_disabled":false,"rental_uris":{"android":"levelo://app?vid=02b19501-ae2b-4d21-ae93-ce26586838ae","ios":"levelo://app?vid=02b19501-ae2b-4d21-ae93-ce26586838ae"},"vehicle_type_id":"4","last_reported":1769020206,"current_range_meters":4000,"station_id":"ce4bhph2rcd13ifvqhdg","pricing_plan_id":"cebpf4jnsgd1na2vs0mg"},{"bike_id":"ee0649f4-b809-4aef-add5-3c8ad98310f4","system_id":"levelo_inurba_marseille","lat":43.24999,"lon":5.38917,"is_reserved":false,"is_disabled":false,"rental_uris":{"android":"levelo://app?vid=ee0649f4-b809-4aef-add5-3c8ad98310f4","ios":"levelo://app?vid=ee0649f4-b809-4aef-add5-3c8ad98310f4"},"vehicle_type_id":"4","last_reported":1769020206,"current_range_meters":4000,"station_id":"ce4bhgp2rcd13ifvqfd0","pricing_plan_id":"cebpf4jnsgd1na2vs0mg"},{"bike_id":"1043358a-6540-44be-a175-76e81d531b51","system_id":"levelo_inurba_marseille","lat":43.27895,"lon":5.37997,"is_reserved":false,"is_disabled":false,"rental_uris":{"android":"levelo://app?vid=1043358a-6540-44be-a175-76e81d531b51","ios":"levelo://app?vid=1043358a-6540-44be-a175-76e81d531b51"},"vehicle_type_id":"4","last_reported":1769020206,"current_range_meters":4000,"station_id":"ce4bhf92rcd13ifvqf50","pricing_plan_id":"cebpf4jnsgd1na2vs0mg"},{"bike_id":"e33484e0-7a35-4b93-ab20-96b6be2bd7f2","system_id":"levelo_inurba_marseille","lat":43.317544,"lon":5.39021,"is_reserved":false,"is_disabled":false,"rental_uris":{"android":"levelo://app?vid=e33484e0-7a35-4b93-ab20-96b6be2bd7f2","ios":"levelo://app?vid=e33484e0-7a35-4b93-ab20-96b6be2bd7f2"},"vehicle_type_id":"4","last_reported":1769020206,"current_range_meters":4000,"station_id":"ce4bhqp2rcd13ifvqhng","pricing_plan_id":"cebpf4jnsgd1na2vs0mg"},{"bike_id":"68bf47ba-c38d-4892-b1dc-d113f2ab89e8","system_id":"levelo_inurba_marseille","lat":43.28733,"lon":5.37942,"is_reserved":false,"is_disabled":false,"rental_uris":{"android":"levelo://app?vid=68bf47ba-c38d-4892-b1dc-d113f2ab89e8","ios":"levelo://app?vid=68bf47ba-c38d-4892-b1dc-d113f2ab89e8"},"vehicle_type_id":"4","last_reported":1769020206,"current_range_meters":4000,"station_id":"ce4bh9p2rcd13ifvqec0","pricing_plan_id":"cebpf4jnsgd1na2vs0mg"},{"bike_id":"17e3837d-c9c2-4dda-a2b0-afa55c7ec00c","system_id":"levelo_inurba_marseille","lat":43.29228,"lon":5.36068,"is_reserved":false,"is_disabled":false,"rental_uris":{"android":"levelo://app?vid=17e3837d-c9c2-4dda-a2b0-afa55c7ec00c","ios":"levelo://app?vid=17e3837d-c9c2-4dda-a2b0-afa55c7ec00c"},"vehicle_type_id":"4","last_reported":1769020206,"current_range_meters":4000,"station_id":"ce4bhbh2rcd13ifvqeqg","pricing_plan_id":"cebpf4jnsgd1na2vs0mg"},{"bike_id":"48214cab-a20a-430a-8300-e70f3a4adf2b","system_id":"levelo_inurba_marseille","lat":43.295389,"lon":5.390427,"is_reserved":false,"is_disabled":false,"rental_uris":{"android":"levelo://app?vid=48214cab-a20a-430a-8300-e70f3a4adf2b","ios":"levelo://app?vid=48214cab-a20a-430a-8300-e70f3a4adf2b"},"vehicle_type_id":"4","last_reported":1769020206,"current_range_meters":4000,"station_id":"ce4bh3p2rcd13ifvqdp0","pricing_plan_id":"cebpf4jnsgd1na2vs0mg"},{"bike_id":"8071b732-6495-4355-8bd2-d391f59dfffd","system_id":"levelo_inurba_marseille","lat":43.217515,"lon":5.345982,"is_reserved":false,"is_disabled":false,"rental_uris":{"android":"levelo://app?vid=8071b732-6495-4355-8bd2-d391f59dfffd","ios":"levelo://app?vid=8071b732-6495-4355-8bd2-d391f59dfffd"},"vehicle_type_id":"4","last_reported":1769020206,"current_range_meters":4000,"station_id":"","pricing_plan_id":"cebpf4jnsgd1na2vs0mg"},{"bike_id":"0a2277df-81ad-45b1-b928-190db606b70d","system_id":"levelo_inurba_marseille","lat":43.270612,"lon":5.40264,"is_reserved":false,"is_disabled":false,"rental_uris":{"android":"levelo://app?vid=0a2277df-81ad-45b1-b928-190db606b70d","ios":"levelo://app?vid=0a2277df-81ad-45b1-b928-190db606b70d"},"vehicle_type_id":"4","last_reported":1769020206,"current_range_meters":4400,"station_id":"ce4bhk92rcd13ifvqgc0","pricing_plan_id":"cebpf4jnsgd1na2vs0mg"},{"bike_id":"65fd7955-07dd-47da-bfed-ae167c3de24b","system_id":"levelo_inurba_marseille","lat":43.27313,"lon":5.39063,"is_reserved":false,"is_disabled":false,"rental_uris":{"android":"levelo://app?vid=65fd7955-07dd-47da-bfed-ae167c3de24b","ios":"levelo://app?vid=65fd7955-07dd-47da-bfed-ae167c3de24b"},"vehicle_type_id":"4","last_reported":1769020206,"current_range_meters":4400,"station_id":"ce4bhgp2rcd13ifvqfe0","pricing_plan_id":"cebpf4jnsgd1na2vs0mg"},{"bike_id":"e9cf4d98-a47d-4cc7-82f6-b2e075f45c6a","system_id":"levelo_inurba_marseille","lat":43.22566,"lon":5.41624,"is_reserved":false,"is_disabled":false,"rental_uris":{"android":"levelo://app?vid=e9cf4d98-a47d-4cc7-82f6-b2e075f45c6a","ios":"levelo://app?vid=e9cf4d98-a47d-4cc7-82f6-b2e075f45c6a"},"vehicle_type_id":"4","last_reported":1769020206,"current_range_meters":4400,"station_id":"st_d2o4gvlbi1j2169b742g","pricing_plan_id":"cebpf4jnsgd1na2vs0mg"},{"bike_id":"05a82a54-a1a8-4f9a-be74-0fd74369c2d0","system_id":"levelo_inurba_marseille","lat":43.29438,"lon":5.39745,"is_reserved":false,"is_disabled":false,"rental_uris":{"android":"levelo://app?vid=05a82a54-a1a8-4f9a-be74-0fd74369c2d0","ios":"levelo://app?vid=05a82a54-a1a8-4f9a-be74-0fd74369c2d0"},"vehicle_type_id":"4","last_reported":1769020206,"current_range_meters":4400,"station_id":"ce4bh3h2rcd13ifvqdo0","pricing_plan_id":"cebpf4jnsgd1na2vs0mg"},{"bike_id":"6ded5397-c2f0-42e8-b246-f33d3955879d","system_id":"levelo_inurba_marseille","lat":43.28609,"lon":5.39846,"is_reserved":false,"is_disabled":false,"rental_uris":{"android":"levelo://app?vid=6ded5397-c2f0-42e8-b246-f33d3955879d","ios":"levelo://app?vid=6ded5397-c2f0-42e8-b246-f33d3955879d"},"vehicle_type_id":"4","last_reported":1769020206,"current_range_meters":4400,"station_id":"st_d4a7ka997mjs738ck50g","pricing_plan_id":"cebpf4jnsgd1na2vs0mg"},{"bike_id":"836c81e2-f192-454e-b003-dbad80208c28","system_id":"levelo_inurba_marseille","lat":43.25826,"lon":5.39428,"is_reserved":false,"is_disabled":false,"rental_uris":{"android":"levelo://app?vid=836c81e2-f192-454e-b003-dbad80208c28","ios":"levelo://app?vid=836c81e2-f192-454e-b003-dbad80208c28"},"vehicle_type_id":"4","last_reported":1769020206,"current_range_meters":4400,"station_id":"ce4bhip2rcd13ifvqft0","pricing_plan_id":"cebpf4jnsgd1na2vs0mg"},{"bike_id":"d5de6009-af4e-4bdb-b925-fb7999e856b8","system_id":"levelo_inurba_marseille","lat":43.24555,"lon":5.39526,"is_reserved":false,"is_disabled":true,"rental_uris":{"android":"levelo://app?vid=d5de6009-af4e-4bdb-b925-fb7999e856b8","ios":"levelo://app?vid=d5de6009-af4e-4bdb-b925-fb7999e856b8"},"vehicle_type_id":"4","last_reported":1769020206,"current_range_meters":4400,"station_id":"ce4bhlp2rcd13ifvqgjg","pricing_plan_id":"cebpf4jnsgd1na2vs0mg"},{"bike_id":"05c8fc16-745d-4acf-bdac-963d49eaceaa","system_id":"levelo_inurba_marseille","lat":43.29873,"lon":5.389105,"is_reserved":false,"is_disabled":false,"rental_uris":{"android":"levelo://app?vid=05c8fc16-745d-4acf-bdac-963d49eaceaa","ios":"levelo://app?vid=05c8fc16-745d-4acf-bdac-963d49eaceaa"},"vehicle_type_id":"4","last_reported":1769020206,"current_range_meters":4400,"station_id":"ce4bh392rcd13ifvqdl0","pricing_plan_id":"cebpf4jnsgd1na2vs0mg"},{"bike_id":"6c7abb39-e6fb-4b43-989f-f17217c6f849","system_id":"levelo_inurba_marseille","lat":43.29035,"lon":5.35911,"is_reserved":false,"is_disabled":false,"rental_uris":{"android":"levelo://app?vid=6c7abb39-e6fb-4b43-989f-f17217c6f849","ios":"levelo://app?vid=6c7abb39-e6fb-4b43-989f-f17217c6f849"},"vehicle_type_id":"4","last_reported":1769020206,"current_range_meters":4400,"station_id":"ce4bha92rcd13ifvqeg0","pricing_plan_id":"cebpf4jnsgd1na2vs0mg"},{"bike_id":"e14e43c6-5ab8-456f-a706-b922b50c3dfc","system_id":"levelo_inurba_marseille","lat":43.32,"lon":5.38156,"is_reserved":false,"is_disabled":false,"rental_uris":{"android":"levelo://app?vid=e14e43c6-5ab8-456f-a706-b922b50c3dfc","ios":"levelo://app?vid=e14e43c6-5ab8-456f-a706-b922b50c3dfc"},"vehicle_type_id":"4","last_reported":1769020206,"current_range_meters":4400,"station_id":"ce4bhr12rcd13ifvqhpg","pricing_plan_id":"cebpf4jnsgd1na2vs0mg"},{"bike_id":"aba7d3ea-7de0-44e7-8338-576767d8d352","system_id":"levelo_inurba_marseille","lat":43.3008,"lon":5.39072,"is_reserved":false,"is_disabled":false,"rental_uris":{"android":"levelo://app?vid=aba7d3ea-7de0-44e7-8338-576767d8d352","ios":"levelo://app?vid=aba7d3ea-7de0-44e7-8338-576767d8d352"},"vehicle_type_id":"4","last_reported":1769020206,"current_range_meters":4400,"station_id":"ce4bh192rcd13ifvqdb0","pricing_plan_id":"cebpf4jnsgd1na2vs0mg"},{"bike_id":"d2831205-d96f-458c-bfe6-c5f770531cb8","system_id":"levelo_inurba_marseille","lat":43.28662,"lon":5.36349,"is_reserved":false,"is_disabled":false,"rental_uris":{"android":"levelo://app?vid=d2831205-d96f-458c-bfe6-c5f770531cb8","ios":"levelo://app?vid=d2831205-d96f-458c-bfe6-c5f770531cb8"},"vehicle_type_id":"4","last_reported":1769020206,"current_range_meters":4400,"station_id":"ce4bhah2rcd13ifvqej0","pricing_plan_id":"cebpf4jnsgd1na2vs0mg"},{"bike_id":"ba5cf8bf-3fab-4906-a539-9829815d5bcb","system_id":"levelo_inurba_marseille","lat":43.27067,"lon":5.40282,"is_reserved":false,"is_disabled":false,"rental_uris":{"android":"levelo://app?vid=ba5cf8bf-3fab-4906-a539-9829815d5bcb","ios":"levelo://app?vid=ba5cf8bf-3fab-4906-a539-9829815d5bcb"},"vehicle_type_id":"4","last_reported":1769020206,"current_range_meters":4400,"station_id":"ce4bhk92rcd13ifvqgc0","pricing_plan_id":"cebpf4jnsgd1na2vs0mg"},{"bike_id":"6986176b-80b7-46a4-b7d0-346a0bd424f9","system_id":"levelo_inurba_marseille","lat":43.29926,"lon":5.36533,"is_reserved":false,"is_disabled":false,"rental_uris":{"android":"levelo://app?vid=6986176b-80b7-46a4-b7d0-346a0bd424f9","ios":"levelo://app?vid=6986176b-80b7-46a4-b7d0-346a0bd424f9"},"vehicle_type_id":"4","last_reported":1769020206,"current_range_meters":4400,"station_id":"ce4bgm92rcd13ifvqbr0","pricing_plan_id":"cebpf4jnsgd1na2vs0mg"},{"bike_id":"794db499-99d9-4d23-be55-6c9093cae435","system_id":"levelo_inurba_marseille","lat":43.26486,"lon":5.39556,"is_reserved":false,"is_disabled":false,"rental_uris":{"android":"levelo://app?vid=794db499-99d9-4d23-be55-6c9093cae435","ios":"levelo://app?vid=794db499-99d9-4d23-be55-6c9093cae435"},"vehicle_type_id":"4","last_reported":1769020206,"current_range_meters":4400,"station_id":"ce4bhi12rcd13ifvqfq0","pricing_plan_id":"cebpf4jnsgd1na2vs0mg"},{"bike_id":"88385168-4cfa-4103-989e-7560c45e4a58","system_id":"levelo_inurba_marseille","lat":43.27054,"lon":5.40253,"is_reserved":false,"is_disabled":false,"rental_uris":{"android":"levelo://app?vid=88385168-4cfa-4103-989e-7560c45e4a58","ios":"levelo://app?vid=88385168-4cfa-4103-989e-7560c45e4a58"},"vehicle_type_id":"4","last_reported":1769020206,"current_range_meters":4400,"station_id":"ce4bhk92rcd13ifvqgc0","pricing_plan_id":"cebpf4jnsgd1na2vs0mg"},{"bike_id":"5e6a2e23-cc18-498f-9f67-276968f75f61","system_id":"levelo_inurba_marseille","lat":43.27423,"lon":5.39386,"is_reserved":false,"is_disabled":false,"rental_uris":{"android":"levelo://app?vid=5e6a2e23-cc18-498f-9f67-276968f75f61","ios":"levelo://app?vid=5e6a2e23-cc18-498f-9f67-276968f75f61"},"vehicle_type_id":"4","last_reported":1769020206,"current_range_meters":4400,"station_id":"ce4bhdp2rcd13ifvqf20","pricing_plan_id":"cebpf4jnsgd1na2vs0mg"},{"bike_id":"8fd37eb2-3b65-4481-aaea-413cb5168da8","system_id":"levelo_inurba_marseille","lat":43.33342,"lon":5.41065,"is_reserved":false,"is_disabled":false,"rental_uris":{"android":"levelo://app?vid=8fd37eb2-3b65-4481-aaea-413cb5168da8","ios":"levelo://app?vid=8fd37eb2-3b65-4481-aaea-413cb5168da8"},"vehicle_type_id":"4","last_reported":1769020206,"current_range_meters":4400,"station_id":"","pricing_plan_id":"cebpf4jnsgd1na2vs0mg"},{"bike_id":"a2424baa-0e5e-4ed2-9ae6-78591e46955c","system_id":"levelo_inurba_marseille","lat":43.28481,"lon":5.48408,"is_reserved":false,"is_disabled":false,"rental_uris":{"android":"levelo://app?vid=a2424baa-0e5e-4ed2-9ae6-78591e46955c","ios":"levelo://app?vid=a2424baa-0e5e-4ed2-9ae6-78591e46955c"},"vehicle_type_id":"4","last_reported":1769020206,"current_range_meters":4400,"station_id":"st_d3svhcjqgbts73a3dn0g","pricing_plan_id":"cebpf4jnsgd1na2vs0mg"},{"bike_id":"f32f99ba-3ead-4e04-9bcb-0439bdc4e6db","system_id":"levelo_inurba_marseille","lat":43.29877,"lon":5.40328,"is_reserved":false,"is_disabled":false,"rental_uris":{"android":"levelo://app?vid=f32f99ba-3ead-4e04-9bcb-0439bdc4e6db","ios":"levelo://app?vid=f32f99ba-3ead-4e04-9bcb-0439bdc4e6db"},"vehicle_type_id":"4","last_reported":1769020206,"current_range_meters":4800,"station_id":"","pricing_plan_id":"cebpf4jnsgd1na2vs0mg"},{"bike_id":"8069f374-6bb2-4df8-950d-be2e50fcd180","system_id":"levelo_inurba_marseille","lat":43.31131,"lon":5.37747,"is_reserved":false,"is_disabled":true,"rental_uris":{"android":"levelo://app?vid=8069f374-6bb2-4df8-950d-be2e50fcd180","ios":"levelo://app?vid=8069f374-6bb2-4df8-950d-be2e50fcd180"},"vehicle_type_id":"4","last_reported":1769020206,"current_range_meters":4800,"station_id":"ce4bgt92rcd13ifvqcg0","pricing_plan_id":"cebpf4jnsgd1na2vs0mg"},{"bike_id":"0d039f66-11a1-4daa-9c3e-527b4b511ff8","system_id":"levelo_inurba_marseille","lat":43.26071,"lon":5.39384,"is_reserved":false,"is_disabled":true,"rental_uris":{"android":"levelo://app?vid=0d039f66-11a1-4daa-9c3e-527b4b511ff8","ios":"levelo://app?vid=0d039f66-11a1-4daa-9c3e-527b4b511ff8"},"vehicle_type_id":"4","last_reported":1769020206,"current_range_meters":4800,"station_id":"ce4bhh92rcd13ifvqfj0","pricing_plan_id":"cebpf4jnsgd1na2vs0mg"},{"bike_id":"94b856bc-8a8a-49fc-9052-35a630264686","system_id":"levelo_inurba_marseille","lat":43.273204,"lon":5.390638,"is_reserved":false,"is_disabled":false,"rental_uris":{"android":"levelo://app?vid=94b856bc-8a8a-49fc-9052-35a630264686","ios":"levelo://app?vid=94b856bc-8a8a-49fc-9052-35a630264686"},"vehicle_type_id":"4","last_reported":1769020206,"current_range_meters":4800,"station_id":"ce4bhgp2rcd13ifvqfe0","pricing_plan_id":"cebpf4jnsgd1na2vs0mg"},{"bike_id":"5f6a0a0c-aaf7-41c1-be98-33b50db68fe6","system_id":"levelo_inurba_marseille","lat":43.26491,"lon":5.39549,"is_reserved":false,"is_disabled":true,"rental_uris":{"android":"levelo://app?vid=5f6a0a0c-aaf7-41c1-be98-33b50db68fe6","ios":"levelo://app?vid=5f6a0a0c-aaf7-41c1-be98-33b50db68fe6"},"vehicle_type_id":"4","last_reported":1769020206,"current_range_meters":4800,"station_id":"ce4bhi12rcd13ifvqfq0","pricing_plan_id":"cebpf4jnsgd1na2vs0mg"},{"bike_id":"94cd4065-2da4-4578-bc78-c1ec4a590ca1","system_id":"levelo_inurba_marseille","lat":43.27595,"lon":5.4246,"is_reserved":false,"is_disabled":false,"rental_uris":{"android":"levelo://app?vid=94cd4065-2da4-4578-bc78-c1ec4a590ca1","ios":"levelo://app?vid=94cd4065-2da4-4578-bc78-c1ec4a590ca1"},"vehicle_type_id":"4","last_reported":1769020206,"current_range_meters":4800,"station_id":"","pricing_plan_id":"cebpf4jnsgd1na2vs0mg"},{"bike_id":"cfc88531-5dff-4a01-b504-ad9f7eb0e753","system_id":"levelo_inurba_marseille","lat":43.27988,"lon":5.40006,"is_reserved":false,"is_disabled":false,"rental_uris":{"android":"levelo://app?vid=cfc88531-5dff-4a01-b504-ad9f7eb0e753","ios":"levelo://app?vid=cfc88531-5dff-4a01-b504-ad9f7eb0e753"},"vehicle_type_id":"4","last_reported":1769020206,"current_range_meters":4800,"station_id":"ce4bho92rcd13ifvqh4g","pricing_plan_id":"cebpf4jnsgd1na2vs0mg"},{"bike_id":"e498e807-c94d-454e-a2d7-e410bf2c26ad","system_id":"levelo_inurba_marseille","lat":43.27417,"lon":5.39419,"is_reserved":false,"is_disabled":false,"rental_uris":{"android":"levelo://app?vid=e498e807-c94d-454e-a2d7-e410bf2c26ad","ios":"levelo://app?vid=e498e807-c94d-454e-a2d7-e410bf2c26ad"},"vehicle_type_id":"4","last_reported":1769020206,"current_range_meters":4800,"station_id":"ce4bhdp2rcd13ifvqf20","pricing_plan_id":"cebpf4jnsgd1na2vs0mg"},{"bike_id":"0f17bb75-4977-4cf9-a564-7738bd32f63f","system_id":"levelo_inurba_marseille","lat":43.24078,"lon":5.37749,"is_reserved":false,"is_disabled":false,"rental_uris":{"android":"levelo://app?vid=0f17bb75-4977-4cf9-a564-7738bd32f63f","ios":"levelo://app?vid=0f17bb75-4977-4cf9-a564-7738bd32f63f"},"vehicle_type_id":"4","last_reported":1769020206,"current_range_meters":4800,"station_id":"ce4bhnp2rcd13ifvqgvg","pricing_plan_id":"cebpf4jnsgd1na2vs0mg"},{"bike_id":"2ceb7c10-9ad6-4744-a084-a94ade9d0f79","system_id":"levelo_inurba_marseille","lat":43.24779,"lon":5.37455,"is_reserved":false,"is_disabled":false,"rental_uris":{"android":"levelo://app?vid=2ceb7c10-9ad6-4744-a084-a94ade9d0f79","ios":"levelo://app?vid=2ceb7c10-9ad6-4744-a084-a94ade9d0f79"},"vehicle_type_id":"4","last_reported":1769020206,"current_range_meters":4800,"station_id":"ce4bhgh2rcd13ifvqfb0","pricing_plan_id":"cebpf4jnsgd1na2vs0mg"},{"bike_id":"bc1e008b-2cfb-47a3-906f-7da33894433b","system_id":"levelo_inurba_marseille","lat":43.29521,"lon":5.39409,"is_reserved":false,"is_disabled":false,"rental_uris":{"android":"levelo://app?vid=bc1e008b-2cfb-47a3-906f-7da33894433b","ios":"levelo://app?vid=bc1e008b-2cfb-47a3-906f-7da33894433b"},"vehicle_type_id":"4","last_reported":1769020206,"current_range_meters":4800,"station_id":"ce4bh292rcd13ifvqdf0","pricing_plan_id":"cebpf4jnsgd1na2vs0mg"},{"bike_id":"1e9683fd-3419-4707-ab97-e3b80d5f4bea","system_id":"levelo_inurba_marseille","lat":43.27158,"lon":5.40458,"is_reserved":false,"is_disabled":false,"rental_uris":{"android":"levelo://app?vid=1e9683fd-3419-4707-ab97-e3b80d5f4bea","ios":"levelo://app?vid=1e9683fd-3419-4707-ab97-e3b80d5f4bea"},"vehicle_type_id":"4","last_reported":1769020206,"current_range_meters":4800,"station_id":"","pricing_plan_id":"cebpf4jnsgd1na2vs0mg"},{"bike_id":"1c9f2e94-25b8-432d-aac8-42f703544d49","system_id":"levelo_inurba_marseille","lat":43.225325,"lon":5.34829,"is_reserved":false,"is_disabled":false,"rental_uris":{"android":"levelo://app?vid=1c9f2e94-25b8-432d-aac8-42f703544d49","ios":"levelo://app?vid=1c9f2e94-25b8-432d-aac8-42f703544d49"},"vehicle_type_id":"4","last_reported":1769020206,"current_range_meters":4800,"station_id":"","pricing_plan_id":"cebpf4jnsgd1na2vs0mg"},{"bike_id":"75d212f5-2dae-4b21-9e67-495cb3723ca2","system_id":"levelo_inurba_marseille","lat":43.23961,"lon":5.36625,"is_reserved":false,"is_disabled":false,"rental_uris":{"android":"levelo://app?vid=75d212f5-2dae-4b21-9e67-495cb3723ca2","ios":"levelo://app?vid=75d212f5-2dae-4b21-9e67-495cb3723ca2"},"vehicle_type_id":"4","last_reported":1769020206,"current_range_meters":4800,"station_id":"ce4bhi12rcd13ifvqfp0","pricing_plan_id":"cebpf4jnsgd1na2vs0mg"},{"bike_id":"a5280db9-b919-4596-9fb1-f555a9a3b7bb","system_id":"levelo_inurba_marseille","lat":43.30623,"lon":5.40079,"is_reserved":false,"is_disabled":false,"rental_uris":{"android":"levelo://app?vid=a5280db9-b919-4596-9fb1-f555a9a3b7bb","ios":"levelo://app?vid=a5280db9-b919-4596-9fb1-f555a9a3b7bb"},"vehicle_type_id":"4","last_reported":1769020206,"current_range_meters":4800,"station_id":"ce4bh112rcd13ifvqda0","pricing_plan_id":"cebpf4jnsgd1na2vs0mg"},{"bike_id":"4d755896-9582-4758-91af-66367ae21645","system_id":"levelo_inurba_marseille","lat":43.28927,"lon":5.3838,"is_reserved":false,"is_disabled":false,"rental_uris":{"android":"levelo://app?vid=4d755896-9582-4758-91af-66367ae21645","ios":"levelo://app?vid=4d755896-9582-4758-91af-66367ae21645"},"vehicle_type_id":"4","last_reported":1769020206,"current_range_meters":4800,"station_id":"ce4bh612rcd13ifvqe6g","pricing_plan_id":"cebpf4jnsgd1na2vs0mg"},{"bike_id":"e9a42ead-0d12-40f0-b190-b1b6a6eb7802","system_id":"levelo_inurba_marseille","lat":43.2481,"lon":5.374561,"is_reserved":false,"is_disabled":false,"rental_uris":{"android":"levelo://app?vid=e9a42ead-0d12-40f0-b190-b1b6a6eb7802","ios":"levelo://app?vid=e9a42ead-0d12-40f0-b190-b1b6a6eb7802"},"vehicle_type_id":"4","last_reported":1769020206,"current_range_meters":4800,"station_id":"ce4bhgh2rcd13ifvqfb0","pricing_plan_id":"cebpf4jnsgd1na2vs0mg"},{"bike_id":"271022cc-095c-412d-aaed-b5bce784f231","system_id":"levelo_inurba_marseille","lat":43.29532,"lon":5.38539,"is_reserved":false,"is_disabled":false,"rental_uris":{"android":"levelo://app?vid=271022cc-095c-412d-aaed-b5bce784f231","ios":"levelo://app?vid=271022cc-095c-412d-aaed-b5bce784f231"},"vehicle_type_id":"4","last_reported":1769020206,"current_range_meters":4800,"station_id":"ce4bgih2rcd13ifvqba0","pricing_plan_id":"cebpf4jnsgd1na2vs0mg"},{"bike_id":"f1d361c8-08f0-4ae2-b277-236dec5ef5cd","system_id":"levelo_inurba_marseille","lat":43.241843,"lon":5.397277,"is_reserved":false,"is_disabled":false,"rental_uris":{"android":"levelo://app?vid=f1d361c8-08f0-4ae2-b277-236dec5ef5cd","ios":"levelo://app?vid=f1d361c8-08f0-4ae2-b277-236dec5ef5cd"},"vehicle_type_id":"4","last_reported":1769020206,"current_range_meters":5600,"station_id":"ce4bhn12rcd13ifvqgpg","pricing_plan_id":"cebpf4jnsgd1na2vs0mg"},{"bike_id":"00d13be8-f5ba-411a-9ab3-e17b60014e24","system_id":"levelo_inurba_marseille","lat":43.27988,"lon":5.39994,"is_reserved":false,"is_disabled":false,"rental_uris":{"android":"levelo://app?vid=00d13be8-f5ba-411a-9ab3-e17b60014e24","ios":"levelo://app?vid=00d13be8-f5ba-411a-9ab3-e17b60014e24"},"vehicle_type_id":"4","last_reported":1769020206,"current_range_meters":5600,"station_id":"ce4bho92rcd13ifvqh4g","pricing_plan_id":"cebpf4jnsgd1na2vs0mg"},{"bike_id":"fb2014f7-1d5f-4062-89cd-f41381344fc0","system_id":"levelo_inurba_marseille","lat":43.269171,"lon":5.402629,"is_reserved":false,"is_disabled":false,"rental_uris":{"android":"levelo://app?vid=fb2014f7-1d5f-4062-89cd-f41381344fc0","ios":"levelo://app?vid=fb2014f7-1d5f-4062-89cd-f41381344fc0"},"vehicle_type_id":"4","last_reported":1769020206,"current_range_meters":5600,"station_id":"cjm6bp8fraef2m0cb0m0","pricing_plan_id":"cebpf4jnsgd1na2vs0mg"},{"bike_id":"5ccd4b49-397b-4ce5-a22c-752ca0560289","system_id":"levelo_inurba_marseille","lat":43.29548,"lon":5.39976,"is_reserved":false,"is_disabled":false,"rental_uris":{"android":"levelo://app?vid=5ccd4b49-397b-4ce5-a22c-752ca0560289","ios":"levelo://app?vid=5ccd4b49-397b-4ce5-a22c-752ca0560289"},"vehicle_type_id":"4","last_reported":1769020206,"current_range_meters":5600,"station_id":"ce4bh312rcd13ifvqdj0","pricing_plan_id":"cebpf4jnsgd1na2vs0mg"},{"bike_id":"951d8829-e976-4f3c-b7cf-ce8d37c31a72","system_id":"levelo_inurba_marseille","lat":43.26579,"lon":5.39048,"is_reserved":false,"is_disabled":false,"rental_uris":{"android":"levelo://app?vid=951d8829-e976-4f3c-b7cf-ce8d37c31a72","ios":"levelo://app?vid=951d8829-e976-4f3c-b7cf-ce8d37c31a72"},"vehicle_type_id":"4","last_reported":1769020206,"current_range_meters":5600,"station_id":"ce4bhe12rcd13ifvqf30","pricing_plan_id":"cebpf4jnsgd1na2vs0mg"},{"bike_id":"42591c06-b58a-42d0-bb1e-b4712e9f3bac","system_id":"levelo_inurba_marseille","lat":43.286961,"lon":5.373819,"is_reserved":false,"is_disabled":false,"rental_uris":{"android":"levelo://app?vid=42591c06-b58a-42d0-bb1e-b4712e9f3bac","ios":"levelo://app?vid=42591c06-b58a-42d0-bb1e-b4712e9f3bac"},"vehicle_type_id":"4","last_reported":1769020206,"current_range_meters":5600,"station_id":"ce4bh3p2rcd13ifvqdq0","pricing_plan_id":"cebpf4jnsgd1na2vs0mg"},{"bike_id":"fc4e3a66-55ac-450e-a159-861862597655","system_id":"levelo_inurba_marseille","lat":43.27313,"lon":5.3914,"is_reserved":false,"is_disabled":false,"rental_uris":{"android":"levelo://app?vid=fc4e3a66-55ac-450e-a159-861862597655","ios":"levelo://app?vid=fc4e3a66-55ac-450e-a159-861862597655"},"vehicle_type_id":"4","last_reported":1769020206,"current_range_meters":5600,"station_id":"","pricing_plan_id":"cebpf4jnsgd1na2vs0mg"},{"bike_id":"56496f15-285b-4dff-92b3-54ffdff3e399","system_id":"levelo_inurba_marseille","lat":43.26833,"lon":5.39601,"is_reserved":false,"is_disabled":false,"rental_uris":{"android":"levelo://app?vid=56496f15-285b-4dff-92b3-54ffdff3e399","ios":"levelo://app?vid=56496f15-285b-4dff-92b3-54ffdff3e399"},"vehicle_type_id":"4","last_reported":1769020206,"current_range_meters":5600,"station_id":"","pricing_plan_id":"cebpf4jnsgd1na2vs0mg"},{"bike_id":"12d50624-36fb-429d-be6d-b5122cf2de21","system_id":"levelo_inurba_marseille","lat":43.317507,"lon":5.390006,"is_reserved":false,"is_disabled":false,"rental_uris":{"android":"levelo://app?vid=12d50624-36fb-429d-be6d-b5122cf2de21","ios":"levelo://app?vid=12d50624-36fb-429d-be6d-b5122cf2de21"},"vehicle_type_id":"4","last_reported":1769020206,"current_range_meters":5600,"station_id":"ce4bhqp2rcd13ifvqhng","pricing_plan_id":"cebpf4jnsgd1na2vs0mg"},{"bike_id":"a718fce4-e612-4632-a52e-2c8c1e380752","system_id":"levelo_inurba_marseille","lat":43.2603,"lon":5.3755,"is_reserved":false,"is_disabled":false,"rental_uris":{"android":"levelo://app?vid=a718fce4-e612-4632-a52e-2c8c1e380752","ios":"levelo://app?vid=a718fce4-e612-4632-a52e-2c8c1e380752"},"vehicle_type_id":"4","last_reported":1769020206,"current_range_meters":5600,"station_id":"ce4bhgh2rcd13ifvqfa0","pricing_plan_id":"cebpf4jnsgd1na2vs0mg"},{"bike_id":"98dd17ed-d76f-4175-9209-f9cd1a29daeb","system_id":"levelo_inurba_marseille","lat":43.30529,"lon":5.38433,"is_reserved":false,"is_disabled":false,"rental_uris":{"android":"levelo://app?vid=98dd17ed-d76f-4175-9209-f9cd1a29daeb","ios":"levelo://app?vid=98dd17ed-d76f-4175-9209-f9cd1a29daeb"},"vehicle_type_id":"4","last_reported":1769020206,"current_range_meters":5600,"station_id":"ce4bgg92rcd13ifvqb30","pricing_plan_id":"cebpf4jnsgd1na2vs0mg"},{"bike_id":"93c7a025-127d-40b2-862c-98919fbc02da","system_id":"levelo_inurba_marseille","lat":43.23191,"lon":5.39967,"is_reserved":false,"is_disabled":false,"rental_uris":{"android":"levelo://app?vid=93c7a025-127d-40b2-862c-98919fbc02da","ios":"levelo://app?vid=93c7a025-127d-40b2-862c-98919fbc02da"},"vehicle_type_id":"4","last_reported":1769020206,"current_range_meters":5600,"station_id":"ce4bhn12rcd13ifvqgqg","pricing_plan_id":"cebpf4jnsgd1na2vs0mg"},{"bike_id":"b9996779-6c94-4855-8756-368b643daf49","system_id":"levelo_inurba_marseille","lat":43.30429,"lon":5.38882,"is_reserved":false,"is_disabled":false,"rental_uris":{"android":"levelo://app?vid=b9996779-6c94-4855-8756-368b643daf49","ios":"levelo://app?vid=b9996779-6c94-4855-8756-368b643daf49"},"vehicle_type_id":"4","last_reported":1769020206,"current_range_meters":5600,"station_id":"ce4bgk12rcd13ifvqbi0","pricing_plan_id":"cebpf4jnsgd1na2vs0mg"},{"bike_id":"81e064df-319d-4cae-bb05-3e047943ab91","system_id":"levelo_inurba_marseille","lat":43.24077,"lon":5.3775,"is_reserved":false,"is_disabled":false,"rental_uris":{"android":"levelo://app?vid=81e064df-319d-4cae-bb05-3e047943ab91","ios":"levelo://app?vid=81e064df-319d-4cae-bb05-3e047943ab91"},"vehicle_type_id":"4","last_reported":1769020206,"current_range_meters":5600,"station_id":"ce4bhnp2rcd13ifvqgvg","pricing_plan_id":"cebpf4jnsgd1na2vs0mg"},{"bike_id":"bc53fded-5652-4ab5-920f-ec142a69c388","system_id":"levelo_inurba_marseille","lat":43.29793,"lon":5.39331,"is_reserved":false,"is_disabled":false,"rental_uris":{"android":"levelo://app?vid=bc53fded-5652-4ab5-920f-ec142a69c388","ios":"levelo://app?vid=bc53fded-5652-4ab5-920f-ec142a69c388"},"vehicle_type_id":"4","last_reported":1769020206,"current_range_meters":5600,"station_id":"chh1huq6cuj3fo74tm60","pricing_plan_id":"cebpf4jnsgd1na2vs0mg"},{"bike_id":"1554a6ee-7d20-4efb-b58c-ffcc82369827","system_id":"levelo_inurba_marseille","lat":43.279978,"lon":5.400083,"is_reserved":false,"is_disabled":false,"rental_uris":{"android":"levelo://app?vid=1554a6ee-7d20-4efb-b58c-ffcc82369827","ios":"levelo://app?vid=1554a6ee-7d20-4efb-b58c-ffcc82369827"},"vehicle_type_id":"4","last_reported":1769020206,"current_range_meters":5600,"station_id":"ce4bho92rcd13ifvqh4g","pricing_plan_id":"cebpf4jnsgd1na2vs0mg"},{"bike_id":"7da78fb4-b424-4206-84cb-55b26cc7edfc","system_id":"levelo_inurba_marseille","lat":43.2906,"lon":5.35913,"is_reserved":false,"is_disabled":false,"rental_uris":{"android":"levelo://app?vid=7da78fb4-b424-4206-84cb-55b26cc7edfc","ios":"levelo://app?vid=7da78fb4-b424-4206-84cb-55b26cc7edfc"},"vehicle_type_id":"4","last_reported":1769020206,"current_range_meters":5600,"station_id":"ce4bha92rcd13ifvqeg0","pricing_plan_id":"cebpf4jnsgd1na2vs0mg"},{"bike_id":"29bfec45-ad76-429c-882a-34b6f5ca4191","system_id":"levelo_inurba_marseille","lat":43.32109,"lon":5.36767,"is_reserved":false,"is_disabled":false,"rental_uris":{"android":"levelo://app?vid=29bfec45-ad76-429c-882a-34b6f5ca4191","ios":"levelo://app?vid=29bfec45-ad76-429c-882a-34b6f5ca4191"},"vehicle_type_id":"4","last_reported":1769020206,"current_range_meters":5600,"station_id":"ce4bhrh2rcd13ifvqhug","pricing_plan_id":"cebpf4jnsgd1na2vs0mg"},{"bike_id":"92627d90-ac48-4227-8b3f-dad6aa59d4b3","system_id":"levelo_inurba_marseille","lat":43.2119,"lon":5.35077,"is_reserved":false,"is_disabled":false,"rental_uris":{"android":"levelo://app?vid=92627d90-ac48-4227-8b3f-dad6aa59d4b3","ios":"levelo://app?vid=92627d90-ac48-4227-8b3f-dad6aa59d4b3"},"vehicle_type_id":"4","last_reported":1769020206,"current_range_meters":6000,"station_id":"","pricing_plan_id":"cebpf4jnsgd1na2vs0mg"},{"bike_id":"2c764d7e-d42c-4007-b5cd-02a2acd16493","system_id":"levelo_inurba_marseille","lat":43.29032,"lon":5.38648,"is_reserved":false,"is_disabled":false,"rental_uris":{"android":"levelo://app?vid=2c764d7e-d42c-4007-b5cd-02a2acd16493","ios":"levelo://app?vid=2c764d7e-d42c-4007-b5cd-02a2acd16493"},"vehicle_type_id":"4","last_reported":1769020206,"current_range_meters":6000,"station_id":"ce4bh4p2rcd13ifvqe0g","pricing_plan_id":"cebpf4jnsgd1na2vs0mg"},{"bike_id":"fa9463c2-f300-4922-b9f5-33e1f3eab381","system_id":"levelo_inurba_marseille","lat":43.295914,"lon":5.380983,"is_reserved":false,"is_disabled":false,"rental_uris":{"android":"levelo://app?vid=fa9463c2-f300-4922-b9f5-33e1f3eab381","ios":"levelo://app?vid=fa9463c2-f300-4922-b9f5-33e1f3eab381"},"vehicle_type_id":"4","last_reported":1769020206,"current_range_meters":6000,"station_id":"ce4bgl12rcd13ifvqbo0","pricing_plan_id":"cebpf4jnsgd1na2vs0mg"},{"bike_id":"99d65f09-c0e6-4f0f-b72f-6e110c0f1bd4","system_id":"levelo_inurba_marseille","lat":43.2898,"lon":5.37591,"is_reserved":false,"is_disabled":false,"rental_uris":{"android":"levelo://app?vid=99d65f09-c0e6-4f0f-b72f-6e110c0f1bd4","ios":"levelo://app?vid=99d65f09-c0e6-4f0f-b72f-6e110c0f1bd4"},"vehicle_type_id":"4","last_reported":1769020206,"current_range_meters":6000,"station_id":"","pricing_plan_id":"cebpf4jnsgd1na2vs0mg"},{"bike_id":"9fe9b7fa-bf5e-456b-b148-d56a572e2392","system_id":"levelo_inurba_marseille","lat":43.22563,"lon":5.41624,"is_reserved":false,"is_disabled":false,"rental_uris":{"android":"levelo://app?vid=9fe9b7fa-bf5e-456b-b148-d56a572e2392","ios":"levelo://app?vid=9fe9b7fa-bf5e-456b-b148-d56a572e2392"},"vehicle_type_id":"4","last_reported":1769020206,"current_range_meters":6000,"station_id":"st_d2o4gvlbi1j2169b742g","pricing_plan_id":"cebpf4jnsgd1na2vs0mg"},{"bike_id":"2351e1c9-97c0-42ed-8ba7-93d168c64106","system_id":"levelo_inurba_marseille","lat":43.297693,"lon":5.427737,"is_reserved":false,"is_disabled":false,"rental_uris":{"android":"levelo://app?vid=2351e1c9-97c0-42ed-8ba7-93d168c64106","ios":"levelo://app?vid=2351e1c9-97c0-42ed-8ba7-93d168c64106"},"vehicle_type_id":"4","last_reported":1769020206,"current_range_meters":6000,"station_id":"st_d3md5207bmas73dh9klg","pricing_plan_id":"cebpf4jnsgd1na2vs0mg"},{"bike_id":"00729f81-defe-4949-ab38-da427b717ebf","system_id":"levelo_inurba_marseille","lat":43.26229,"lon":5.40439,"is_reserved":false,"is_disabled":false,"rental_uris":{"android":"levelo://app?vid=00729f81-defe-4949-ab38-da427b717ebf","ios":"levelo://app?vid=00729f81-defe-4949-ab38-da427b717ebf"},"vehicle_type_id":"4","last_reported":1769020206,"current_range_meters":6000,"station_id":"ce4bhmh2rcd13ifvqgmg","pricing_plan_id":"cebpf4jnsgd1na2vs0mg"},{"bike_id":"179728e1-ebd1-4cba-bc42-d252089670dc","system_id":"levelo_inurba_marseille","lat":43.27796,"lon":5.40698,"is_reserved":false,"is_disabled":false,"rental_uris":{"android":"levelo://app?vid=179728e1-ebd1-4cba-bc42-d252089670dc","ios":"levelo://app?vid=179728e1-ebd1-4cba-bc42-d252089670dc"},"vehicle_type_id":"4","last_reported":1769020206,"current_range_meters":6000,"station_id":"ce4bhnh2rcd13ifvqgtg","pricing_plan_id":"cebpf4jnsgd1na2vs0mg"},{"bike_id":"6154b771-43d9-4206-a652-b88e9ff50345","system_id":"levelo_inurba_marseille","lat":43.28103,"lon":5.37842,"is_reserved":false,"is_disabled":false,"rental_uris":{"android":"levelo://app?vid=6154b771-43d9-4206-a652-b88e9ff50345","ios":"levelo://app?vid=6154b771-43d9-4206-a652-b88e9ff50345"},"vehicle_type_id":"4","last_reported":1769020206,"current_range_meters":6000,"station_id":"ce4bha12rcd13ifvqee0","pricing_plan_id":"cebpf4jnsgd1na2vs0mg"},{"bike_id":"6b0a7910-4f3c-47d6-b165-5319282e4ed9","system_id":"levelo_inurba_marseille","lat":43.33536,"lon":5.37485,"is_reserved":false,"is_disabled":false,"rental_uris":{"android":"levelo://app?vid=6b0a7910-4f3c-47d6-b165-5319282e4ed9","ios":"levelo://app?vid=6b0a7910-4f3c-47d6-b165-5319282e4ed9"},"vehicle_type_id":"4","last_reported":1769020206,"current_range_meters":6000,"station_id":"","pricing_plan_id":"cebpf4jnsgd1na2vs0mg"},{"bike_id":"b178fe28-787e-4cf2-8e9f-53564dafc878","system_id":"levelo_inurba_marseille","lat":43.2901,"lon":5.38635,"is_reserved":false,"is_disabled":false,"rental_uris":{"android":"levelo://app?vid=b178fe28-787e-4cf2-8e9f-53564dafc878","ios":"levelo://app?vid=b178fe28-787e-4cf2-8e9f-53564dafc878"},"vehicle_type_id":"4","last_reported":1769020206,"current_range_meters":6000,"station_id":"ce4bh4p2rcd13ifvqe0g","pricing_plan_id":"cebpf4jnsgd1na2vs0mg"},{"bike_id":"31c21be6-18ca-494d-8d01-2f205767068d","system_id":"levelo_inurba_marseille","lat":43.31858,"lon":5.37442,"is_reserved":false,"is_disabled":false,"rental_uris":{"android":"levelo://app?vid=31c21be6-18ca-494d-8d01-2f205767068d","ios":"levelo://app?vid=31c21be6-18ca-494d-8d01-2f205767068d"},"vehicle_type_id":"4","last_reported":1769020206,"current_range_meters":6000,"station_id":"","pricing_plan_id":"cebpf4jnsgd1na2vs0mg"},{"bike_id":"e2afaf89-f981-4c1e-a335-9640f4703c6b","system_id":"levelo_inurba_marseille","lat":43.28615,"lon":5.35103,"is_reserved":false,"is_disabled":false,"rental_uris":{"android":"levelo://app?vid=e2afaf89-f981-4c1e-a335-9640f4703c6b","ios":"levelo://app?vid=e2afaf89-f981-4c1e-a335-9640f4703c6b"},"vehicle_type_id":"4","last_reported":1769020206,"current_range_meters":6000,"station_id":"ce4bhch2rcd13ifvqeug","pricing_plan_id":"cebpf4jnsgd1na2vs0mg"},{"bike_id":"f72efe51-12d3-4c91-8eb1-b0d276f7cb47","system_id":"levelo_inurba_marseille","lat":43.248039,"lon":5.374545,"is_reserved":false,"is_disabled":false,"rental_uris":{"android":"levelo://app?vid=f72efe51-12d3-4c91-8eb1-b0d276f7cb47","ios":"levelo://app?vid=f72efe51-12d3-4c91-8eb1-b0d276f7cb47"},"vehicle_type_id":"4","last_reported":1769020206,"current_range_meters":6000,"station_id":"ce4bhgh2rcd13ifvqfb0","pricing_plan_id":"cebpf4jnsgd1na2vs0mg"},{"bike_id":"0e37b52c-57cd-4fc7-b10e-ab1e434f4b99","system_id":"levelo_inurba_marseille","lat":43.29071,"lon":5.371589,"is_reserved":false,"is_disabled":false,"rental_uris":{"android":"levelo://app?vid=0e37b52c-57cd-4fc7-b10e-ab1e434f4b99","ios":"levelo://app?vid=0e37b52c-57cd-4fc7-b10e-ab1e434f4b99"},"vehicle_type_id":"4","last_reported":1769020206,"current_range_meters":6000,"station_id":"","pricing_plan_id":"cebpf4jnsgd1na2vs0mg"},{"bike_id":"d60d69f0-11b1-4196-a1a6-b500cf4e2e4c","system_id":"levelo_inurba_marseille","lat":43.28937,"lon":5.36629,"is_reserved":false,"is_disabled":false,"rental_uris":{"android":"levelo://app?vid=d60d69f0-11b1-4196-a1a6-b500cf4e2e4c","ios":"levelo://app?vid=d60d69f0-11b1-4196-a1a6-b500cf4e2e4c"},"vehicle_type_id":"4","last_reported":1769020206,"current_range_meters":6000,"station_id":"ce4bhap2rcd13ifvqek0","pricing_plan_id":"cebpf4jnsgd1na2vs0mg"},{"bike_id":"e6df6fb7-994b-4037-99d6-76175fe9a7d0","system_id":"levelo_inurba_marseille","lat":43.23227,"lon":5.39969,"is_reserved":false,"is_disabled":false,"rental_uris":{"android":"levelo://app?vid=e6df6fb7-994b-4037-99d6-76175fe9a7d0","ios":"levelo://app?vid=e6df6fb7-994b-4037-99d6-76175fe9a7d0"},"vehicle_type_id":"4","last_reported":1769020206,"current_range_meters":6000,"station_id":"ce4bhn12rcd13ifvqgqg","pricing_plan_id":"cebpf4jnsgd1na2vs0mg"},{"bike_id":"57fbe3ca-f98b-4c21-be4e-b24c928dc094","system_id":"levelo_inurba_marseille","lat":43.27971,"lon":5.40054,"is_reserved":false,"is_disabled":false,"rental_uris":{"android":"levelo://app?vid=57fbe3ca-f98b-4c21-be4e-b24c928dc094","ios":"levelo://app?vid=57fbe3ca-f98b-4c21-be4e-b24c928dc094"},"vehicle_type_id":"4","last_reported":1769020206,"current_range_meters":6000,"station_id":"ce4bho92rcd13ifvqh4g","pricing_plan_id":"cebpf4jnsgd1na2vs0mg"},{"bike_id":"36379ecc-f580-4cc3-ac28-1068980e3530","system_id":"levelo_inurba_marseille","lat":43.290017,"lon":5.356116,"is_reserved":false,"is_disabled":false,"rental_uris":{"android":"levelo://app?vid=36379ecc-f580-4cc3-ac28-1068980e3530","ios":"levelo://app?vid=36379ecc-f580-4cc3-ac28-1068980e3530"},"vehicle_type_id":"4","last_reported":1769020206,"current_range_meters":6000,"station_id":"ce4bhbh2rcd13ifvqeo0","pricing_plan_id":"cebpf4jnsgd1na2vs0mg"},{"bike_id":"3b0f0f6c-6acf-41ee-8cea-a79be49e441a","system_id":"levelo_inurba_marseille","lat":43.29596,"lon":5.381033,"is_reserved":false,"is_disabled":false,"rental_uris":{"android":"levelo://app?vid=3b0f0f6c-6acf-41ee-8cea-a79be49e441a","ios":"levelo://app?vid=3b0f0f6c-6acf-41ee-8cea-a79be49e441a"},"vehicle_type_id":"4","last_reported":1769020206,"current_range_meters":6000,"station_id":"ce4bgl12rcd13ifvqbo0","pricing_plan_id":"cebpf4jnsgd1na2vs0mg"},{"bike_id":"f73788f7-dec5-4308-a431-6e346b811946","system_id":"levelo_inurba_marseille","lat":43.30177,"lon":5.38062,"is_reserved":false,"is_disabled":false,"rental_uris":{"android":"levelo://app?vid=f73788f7-dec5-4308-a431-6e346b811946","ios":"levelo://app?vid=f73788f7-dec5-4308-a431-6e346b811946"},"vehicle_type_id":"4","last_reported":1769020206,"current_range_meters":6400,"station_id":"ce4bgjp2rcd13ifvqbh0","pricing_plan_id":"cebpf4jnsgd1na2vs0mg"},{"bike_id":"5f477738-733e-4c98-961a-33429c5938fd","system_id":"levelo_inurba_marseille","lat":43.260586,"lon":5.393984,"is_reserved":false,"is_disabled":false,"rental_uris":{"android":"levelo://app?vid=5f477738-733e-4c98-961a-33429c5938fd","ios":"levelo://app?vid=5f477738-733e-4c98-961a-33429c5938fd"},"vehicle_type_id":"4","last_reported":1769020206,"current_range_meters":6400,"station_id":"ce4bhh92rcd13ifvqfj0","pricing_plan_id":"cebpf4jnsgd1na2vs0mg"},{"bike_id":"6f1b9a2a-353a-4450-9878-491b3917ba7d","system_id":"levelo_inurba_marseille","lat":43.26584,"lon":5.39032,"is_reserved":false,"is_disabled":false,"rental_uris":{"android":"levelo://app?vid=6f1b9a2a-353a-4450-9878-491b3917ba7d","ios":"levelo://app?vid=6f1b9a2a-353a-4450-9878-491b3917ba7d"},"vehicle_type_id":"4","last_reported":1769020206,"current_range_meters":6400,"station_id":"ce4bhe12rcd13ifvqf30","pricing_plan_id":"cebpf4jnsgd1na2vs0mg"},{"bike_id":"b1ae1d57-5a52-4615-a2e2-ad22395e8e87","system_id":"levelo_inurba_marseille","lat":43.305362,"lon":5.393483,"is_reserved":false,"is_disabled":false,"rental_uris":{"android":"levelo://app?vid=b1ae1d57-5a52-4615-a2e2-ad22395e8e87","ios":"levelo://app?vid=b1ae1d57-5a52-4615-a2e2-ad22395e8e87"},"vehicle_type_id":"4","last_reported":1769020206,"current_range_meters":6400,"station_id":"ce4bh0p2rcd13ifvqd80","pricing_plan_id":"cebpf4jnsgd1na2vs0mg"},{"bike_id":"cd49692c-4008-4f7f-815f-119877d0dd64","system_id":"levelo_inurba_marseille","lat":43.27997,"lon":5.40021,"is_reserved":false,"is_disabled":false,"rental_uris":{"android":"levelo://app?vid=cd49692c-4008-4f7f-815f-119877d0dd64","ios":"levelo://app?vid=cd49692c-4008-4f7f-815f-119877d0dd64"},"vehicle_type_id":"4","last_reported":1769020206,"current_range_meters":6400,"station_id":"ce4bho92rcd13ifvqh4g","pricing_plan_id":"cebpf4jnsgd1na2vs0mg"},{"bike_id":"2b18fc34-e22c-44d3-9efc-50175149b30b","system_id":"levelo_inurba_marseille","lat":43.28224,"lon":5.39061,"is_reserved":false,"is_disabled":false,"rental_uris":{"android":"levelo://app?vid=2b18fc34-e22c-44d3-9efc-50175149b30b","ios":"levelo://app?vid=2b18fc34-e22c-44d3-9efc-50175149b30b"},"vehicle_type_id":"4","last_reported":1769020206,"current_range_meters":6400,"station_id":"ce4bhn92rcd13ifvqgsg","pricing_plan_id":"cebpf4jnsgd1na2vs0mg"},{"bike_id":"5bdad711-817a-42cc-84b1-10d4beae812a","system_id":"levelo_inurba_marseille","lat":43.2256,"lon":5.41625,"is_reserved":false,"is_disabled":false,"rental_uris":{"android":"levelo://app?vid=5bdad711-817a-42cc-84b1-10d4beae812a","ios":"levelo://app?vid=5bdad711-817a-42cc-84b1-10d4beae812a"},"vehicle_type_id":"4","last_reported":1769020206,"current_range_meters":6400,"station_id":"st_d2o4gvlbi1j2169b742g","pricing_plan_id":"cebpf4jnsgd1na2vs0mg"},{"bike_id":"3cb52365-3475-43ce-910a-74831879f7d9","system_id":"levelo_inurba_marseille","lat":43.25104,"lon":5.40331,"is_reserved":false,"is_disabled":false,"rental_uris":{"android":"levelo://app?vid=3cb52365-3475-43ce-910a-74831879f7d9","ios":"levelo://app?vid=3cb52365-3475-43ce-910a-74831879f7d9"},"vehicle_type_id":"4","last_reported":1769020206,"current_range_meters":6400,"station_id":"ce4bhlh2rcd13ifvqgig","pricing_plan_id":"cebpf4jnsgd1na2vs0mg"},{"bike_id":"9742d8c6-3acb-4294-a816-9234fb6b9330","system_id":"levelo_inurba_marseille","lat":43.28845,"lon":5.3583,"is_reserved":false,"is_disabled":false,"rental_uris":{"android":"levelo://app?vid=9742d8c6-3acb-4294-a816-9234fb6b9330","ios":"levelo://app?vid=9742d8c6-3acb-4294-a816-9234fb6b9330"},"vehicle_type_id":"4","last_reported":1769020206,"current_range_meters":6400,"station_id":"ce4bhb12rcd13ifvqem0","pricing_plan_id":"cebpf4jnsgd1na2vs0mg"},{"bike_id":"e22ae51c-a72f-47c6-a9a7-5f9722c0ab77","system_id":"levelo_inurba_marseille","lat":43.2781,"lon":5.40712,"is_reserved":false,"is_disabled":false,"rental_uris":{"android":"levelo://app?vid=e22ae51c-a72f-47c6-a9a7-5f9722c0ab77","ios":"levelo://app?vid=e22ae51c-a72f-47c6-a9a7-5f9722c0ab77"},"vehicle_type_id":"4","last_reported":1769020206,"current_range_meters":6400,"station_id":"ce4bhnh2rcd13ifvqgtg","pricing_plan_id":"cebpf4jnsgd1na2vs0mg"},{"bike_id":"e3006b68-2895-43e3-a6a3-f525aa75c699","system_id":"levelo_inurba_marseille","lat":43.240735,"lon":5.377454,"is_reserved":false,"is_disabled":false,"rental_uris":{"android":"levelo://app?vid=e3006b68-2895-43e3-a6a3-f525aa75c699","ios":"levelo://app?vid=e3006b68-2895-43e3-a6a3-f525aa75c699"},"vehicle_type_id":"4","last_reported":1769020206,"current_range_meters":6400,"station_id":"ce4bhnp2rcd13ifvqgvg","pricing_plan_id":"cebpf4jnsgd1na2vs0mg"},{"bike_id":"8c9d9dd5-6ae3-4a8b-ab79-ea51ac5d3931","system_id":"levelo_inurba_marseille","lat":43.279974,"lon":5.416443,"is_reserved":false,"is_disabled":false,"rental_uris":{"android":"levelo://app?vid=8c9d9dd5-6ae3-4a8b-ab79-ea51ac5d3931","ios":"levelo://app?vid=8c9d9dd5-6ae3-4a8b-ab79-ea51ac5d3931"},"vehicle_type_id":"4","last_reported":1769020206,"current_range_meters":6400,"station_id":"ce4bho12rcd13ifvqh1g","pricing_plan_id":"cebpf4jnsgd1na2vs0mg"},{"bike_id":"cbe870f0-0ca2-4abd-bd80-b594b71020e9","system_id":"levelo_inurba_marseille","lat":43.28859,"lon":5.35855,"is_reserved":false,"is_disabled":false,"rental_uris":{"android":"levelo://app?vid=cbe870f0-0ca2-4abd-bd80-b594b71020e9","ios":"levelo://app?vid=cbe870f0-0ca2-4abd-bd80-b594b71020e9"},"vehicle_type_id":"4","last_reported":1769020206,"current_range_meters":6400,"station_id":"ce4bhb12rcd13ifvqem0","pricing_plan_id":"cebpf4jnsgd1na2vs0mg"},{"bike_id":"1b7535e7-29f2-4cef-a34e-eae7e23e0ac7","system_id":"levelo_inurba_marseille","lat":43.25733,"lon":5.41044,"is_reserved":false,"is_disabled":false,"rental_uris":{"android":"levelo://app?vid=1b7535e7-29f2-4cef-a34e-eae7e23e0ac7","ios":"levelo://app?vid=1b7535e7-29f2-4cef-a34e-eae7e23e0ac7"},"vehicle_type_id":"4","last_reported":1769020206,"current_range_meters":6400,"station_id":"ce4bhkp2rcd13ifvqgd0","pricing_plan_id":"cebpf4jnsgd1na2vs0mg"},{"bike_id":"cd9589b7-4053-48c5-8edb-250f4e017048","system_id":"levelo_inurba_marseille","lat":43.28432,"lon":5.39192,"is_reserved":false,"is_disabled":false,"rental_uris":{"android":"levelo://app?vid=cd9589b7-4053-48c5-8edb-250f4e017048","ios":"levelo://app?vid=cd9589b7-4053-48c5-8edb-250f4e017048"},"vehicle_type_id":"4","last_reported":1769020206,"current_range_meters":6400,"station_id":"ce4bhoh2rcd13ifvqh5g","pricing_plan_id":"cebpf4jnsgd1na2vs0mg"},{"bike_id":"26bd1e32-0e40-488f-8b10-e954188f606f","system_id":"levelo_inurba_marseille","lat":43.31483,"lon":5.37305,"is_reserved":false,"is_disabled":false,"rental_uris":{"android":"levelo://app?vid=26bd1e32-0e40-488f-8b10-e954188f606f","ios":"levelo://app?vid=26bd1e32-0e40-488f-8b10-e954188f606f"},"vehicle_type_id":"4","last_reported":1769020206,"current_range_meters":6400,"station_id":"ce4bgt12rcd13ifvqcd0","pricing_plan_id":"cebpf4jnsgd1na2vs0mg"},{"bike_id":"d219e86e-7bd2-4634-893c-c4dc3b412045","system_id":"levelo_inurba_marseille","lat":43.255824,"lon":5.382315,"is_reserved":false,"is_disabled":false,"rental_uris":{"android":"levelo://app?vid=d219e86e-7bd2-4634-893c-c4dc3b412045","ios":"levelo://app?vid=d219e86e-7bd2-4634-893c-c4dc3b412045"},"vehicle_type_id":"4","last_reported":1769020206,"current_range_meters":6400,"station_id":"ce4bhih2rcd13ifvqfs0","pricing_plan_id":"cebpf4jnsgd1na2vs0mg"},{"bike_id":"70e06850-93d6-4a42-a65e-8a78d58c18a9","system_id":"levelo_inurba_marseille","lat":43.29173,"lon":5.37151,"is_reserved":false,"is_disabled":false,"rental_uris":{"android":"levelo://app?vid=70e06850-93d6-4a42-a65e-8a78d58c18a9","ios":"levelo://app?vid=70e06850-93d6-4a42-a65e-8a78d58c18a9"},"vehicle_type_id":"4","last_reported":1769020206,"current_range_meters":6400,"station_id":"ce4bha92rcd13ifvqeh0","pricing_plan_id":"cebpf4jnsgd1na2vs0mg"},{"bike_id":"8f5ad816-38e6-4b86-b965-e3d9dabdbcc1","system_id":"levelo_inurba_marseille","lat":43.26781,"lon":5.39423,"is_reserved":false,"is_disabled":false,"rental_uris":{"android":"levelo://app?vid=8f5ad816-38e6-4b86-b965-e3d9dabdbcc1","ios":"levelo://app?vid=8f5ad816-38e6-4b86-b965-e3d9dabdbcc1"},"vehicle_type_id":"4","last_reported":1769020206,"current_range_meters":6400,"station_id":"ce4bhh12rcd13ifvqfg0","pricing_plan_id":"cebpf4jnsgd1na2vs0mg"},{"bike_id":"ec3505f8-2e5f-442c-868b-c38116e6be45","system_id":"levelo_inurba_marseille","lat":43.24806,"lon":5.37456,"is_reserved":false,"is_disabled":false,"rental_uris":{"android":"levelo://app?vid=ec3505f8-2e5f-442c-868b-c38116e6be45","ios":"levelo://app?vid=ec3505f8-2e5f-442c-868b-c38116e6be45"},"vehicle_type_id":"4","last_reported":1769020206,"current_range_meters":6400,"station_id":"ce4bhgh2rcd13ifvqfb0","pricing_plan_id":"cebpf4jnsgd1na2vs0mg"},{"bike_id":"cc08d2b6-69fb-4c32-9f0f-91f88c556b74","system_id":"levelo_inurba_marseille","lat":43.22961,"lon":5.35353,"is_reserved":false,"is_disabled":false,"rental_uris":{"android":"levelo://app?vid=cc08d2b6-69fb-4c32-9f0f-91f88c556b74","ios":"levelo://app?vid=cc08d2b6-69fb-4c32-9f0f-91f88c556b74"},"vehicle_type_id":"4","last_reported":1769020206,"current_range_meters":6400,"station_id":"cpo3532slgdg3j2ikp40","pricing_plan_id":"cebpf4jnsgd1na2vs0mg"},{"bike_id":"09708090-eb01-48c4-a317-0b7bbbd48bc6","system_id":"levelo_inurba_marseille","lat":43.27684,"lon":5.36153,"is_reserved":false,"is_disabled":false,"rental_uris":{"android":"levelo://app?vid=09708090-eb01-48c4-a317-0b7bbbd48bc6","ios":"levelo://app?vid=09708090-eb01-48c4-a317-0b7bbbd48bc6"},"vehicle_type_id":"4","last_reported":1769020206,"current_range_meters":6400,"station_id":"","pricing_plan_id":"cebpf4jnsgd1na2vs0mg"},{"bike_id":"fd603ab1-7fba-4f8b-9938-c63d3924c1a0","system_id":"levelo_inurba_marseille","lat":43.276242,"lon":5.361057,"is_reserved":false,"is_disabled":false,"rental_uris":{"android":"levelo://app?vid=fd603ab1-7fba-4f8b-9938-c63d3924c1a0","ios":"levelo://app?vid=fd603ab1-7fba-4f8b-9938-c63d3924c1a0"},"vehicle_type_id":"4","last_reported":1769020206,"current_range_meters":6400,"station_id":"ce4bgj92rcd13ifvqbe0","pricing_plan_id":"cebpf4jnsgd1na2vs0mg"},{"bike_id":"416786c9-5441-4ae2-97be-8dd18ff4a833","system_id":"levelo_inurba_marseille","lat":43.26556,"lon":5.40328,"is_reserved":false,"is_disabled":false,"rental_uris":{"android":"levelo://app?vid=416786c9-5441-4ae2-97be-8dd18ff4a833","ios":"levelo://app?vid=416786c9-5441-4ae2-97be-8dd18ff4a833"},"vehicle_type_id":"4","last_reported":1769020206,"current_range_meters":6400,"station_id":"ce4bhmp2rcd13ifvqgng","pricing_plan_id":"cebpf4jnsgd1na2vs0mg"},{"bike_id":"2763563e-34d5-40f0-bf9d-acda69fbc9b7","system_id":"levelo_inurba_marseille","lat":43.29292,"lon":5.37459,"is_reserved":false,"is_disabled":false,"rental_uris":{"android":"levelo://app?vid=2763563e-34d5-40f0-bf9d-acda69fbc9b7","ios":"levelo://app?vid=2763563e-34d5-40f0-bf9d-acda69fbc9b7"},"vehicle_type_id":"4","last_reported":1769020206,"current_range_meters":6400,"station_id":"ce4bgi12rcd13ifvqb70","pricing_plan_id":"cebpf4jnsgd1na2vs0mg"},{"bike_id":"0b3956d0-b45b-4c9a-a397-7ef19ae78ab3","system_id":"levelo_inurba_marseille","lat":43.27997,"lon":5.40013,"is_reserved":false,"is_disabled":false,"rental_uris":{"android":"levelo://app?vid=0b3956d0-b45b-4c9a-a397-7ef19ae78ab3","ios":"levelo://app?vid=0b3956d0-b45b-4c9a-a397-7ef19ae78ab3"},"vehicle_type_id":"4","last_reported":1769020206,"current_range_meters":6400,"station_id":"ce4bho92rcd13ifvqh4g","pricing_plan_id":"cebpf4jnsgd1na2vs0mg"},{"bike_id":"26064a5f-8358-4c0e-a72c-f321056a3a32","system_id":"levelo_inurba_marseille","lat":43.290225,"lon":5.370368,"is_reserved":false,"is_disabled":false,"rental_uris":{"android":"levelo://app?vid=26064a5f-8358-4c0e-a72c-f321056a3a32","ios":"levelo://app?vid=26064a5f-8358-4c0e-a72c-f321056a3a32"},"vehicle_type_id":"4","last_reported":1769020206,"current_range_meters":6400,"station_id":"ce4bh412rcd13ifvqds0","pricing_plan_id":"cebpf4jnsgd1na2vs0mg"},{"bike_id":"f09c06aa-a05d-4b00-b228-d8bee2b62b4f","system_id":"levelo_inurba_marseille","lat":43.32357,"lon":5.36752,"is_reserved":false,"is_disabled":false,"rental_uris":{"android":"levelo://app?vid=f09c06aa-a05d-4b00-b228-d8bee2b62b4f","ios":"levelo://app?vid=f09c06aa-a05d-4b00-b228-d8bee2b62b4f"},"vehicle_type_id":"4","last_reported":1769020206,"current_range_meters":6800,"station_id":"ce4bhsh2rcd13ifvqi2g","pricing_plan_id":"cebpf4jnsgd1na2vs0mg"},{"bike_id":"0379376e-0eb6-46fc-a08a-b7751f70a695","system_id":"levelo_inurba_marseille","lat":43.30527,"lon":5.36527,"is_reserved":false,"is_disabled":false,"rental_uris":{"android":"levelo://app?vid=0379376e-0eb6-46fc-a08a-b7751f70a695","ios":"levelo://app?vid=0379376e-0eb6-46fc-a08a-b7751f70a695"},"vehicle_type_id":"4","last_reported":1769020206,"current_range_meters":6800,"station_id":"ce4bgs12rcd13ifvqcag","pricing_plan_id":"cebpf4jnsgd1na2vs0mg"},{"bike_id":"07334ae3-a27a-46ae-b685-938785481481","system_id":"levelo_inurba_marseille","lat":43.28544,"lon":5.44086,"is_reserved":false,"is_disabled":false,"rental_uris":{"android":"levelo://app?vid=07334ae3-a27a-46ae-b685-938785481481","ios":"levelo://app?vid=07334ae3-a27a-46ae-b685-938785481481"},"vehicle_type_id":"4","last_reported":1769020206,"current_range_meters":6800,"station_id":"st_d3j3df2ikq2c7380ej80","pricing_plan_id":"cebpf4jnsgd1na2vs0mg"},{"bike_id":"054e163b-1e47-4a0a-a038-a7939885860e","system_id":"levelo_inurba_marseille","lat":43.32355,"lon":5.36747,"is_reserved":false,"is_disabled":false,"rental_uris":{"android":"levelo://app?vid=054e163b-1e47-4a0a-a038-a7939885860e","ios":"levelo://app?vid=054e163b-1e47-4a0a-a038-a7939885860e"},"vehicle_type_id":"4","last_reported":1769020206,"current_range_meters":6800,"station_id":"ce4bhsh2rcd13ifvqi2g","pricing_plan_id":"cebpf4jnsgd1na2vs0mg"},{"bike_id":"ffabd398-f54b-45bd-9851-1b3115defcf6","system_id":"levelo_inurba_marseille","lat":43.24189,"lon":5.39695,"is_reserved":false,"is_disabled":false,"rental_uris":{"android":"levelo://app?vid=ffabd398-f54b-45bd-9851-1b3115defcf6","ios":"levelo://app?vid=ffabd398-f54b-45bd-9851-1b3115defcf6"},"vehicle_type_id":"4","last_reported":1769020206,"current_range_meters":6800,"station_id":"ce4bhn12rcd13ifvqgpg","pricing_plan_id":"cebpf4jnsgd1na2vs0mg"},{"bike_id":"d2a8e19f-6ed6-4504-b758-97cfabc32c91","system_id":"levelo_inurba_marseille","lat":43.29923,"lon":5.37464,"is_reserved":false,"is_disabled":false,"rental_uris":{"android":"levelo://app?vid=d2a8e19f-6ed6-4504-b758-97cfabc32c91","ios":"levelo://app?vid=d2a8e19f-6ed6-4504-b758-97cfabc32c91"},"vehicle_type_id":"4","last_reported":1769020206,"current_range_meters":6800,"station_id":"ce4bgjh2rcd13ifvqbg0","pricing_plan_id":"cebpf4jnsgd1na2vs0mg"},{"bike_id":"c93b0143-e32a-4807-a8c0-60875e0c2134","system_id":"levelo_inurba_marseille","lat":43.2509,"lon":5.39515,"is_reserved":false,"is_disabled":false,"rental_uris":{"android":"levelo://app?vid=c93b0143-e32a-4807-a8c0-60875e0c2134","ios":"levelo://app?vid=c93b0143-e32a-4807-a8c0-60875e0c2134"},"vehicle_type_id":"4","last_reported":1769020206,"current_range_meters":6800,"station_id":"ce4bhm12rcd13ifvqgkg","pricing_plan_id":"cebpf4jnsgd1na2vs0mg"},{"bike_id":"2ae33900-0c31-4efc-ba36-c9373302790a","system_id":"levelo_inurba_marseille","lat":43.27914,"lon":5.39581,"is_reserved":false,"is_disabled":false,"rental_uris":{"android":"levelo://app?vid=2ae33900-0c31-4efc-ba36-c9373302790a","ios":"levelo://app?vid=2ae33900-0c31-4efc-ba36-c9373302790a"},"vehicle_type_id":"4","last_reported":1769020206,"current_range_meters":6800,"station_id":"ce4bhf92rcd13ifvqf40","pricing_plan_id":"cebpf4jnsgd1na2vs0mg"},{"bike_id":"0fa28a04-32dc-43ce-8812-67e72a800fc0","system_id":"levelo_inurba_marseille","lat":43.28444,"lon":5.39201,"is_reserved":false,"is_disabled":false,"rental_uris":{"android":"levelo://app?vid=0fa28a04-32dc-43ce-8812-67e72a800fc0","ios":"levelo://app?vid=0fa28a04-32dc-43ce-8812-67e72a800fc0"},"vehicle_type_id":"4","last_reported":1769020206,"current_range_meters":6800,"station_id":"ce4bhoh2rcd13ifvqh5g","pricing_plan_id":"cebpf4jnsgd1na2vs0mg"},{"bike_id":"c70e0bb4-fab0-4654-bdca-7c1110702f66","system_id":"levelo_inurba_marseille","lat":43.23957,"lon":5.3667,"is_reserved":false,"is_disabled":false,"rental_uris":{"android":"levelo://app?vid=c70e0bb4-fab0-4654-bdca-7c1110702f66","ios":"levelo://app?vid=c70e0bb4-fab0-4654-bdca-7c1110702f66"},"vehicle_type_id":"4","last_reported":1769020206,"current_range_meters":6800,"station_id":"ce4bhi12rcd13ifvqfp0","pricing_plan_id":"cebpf4jnsgd1na2vs0mg"},{"bike_id":"673852a4-6416-4b33-a80d-5a20f826521f","system_id":"levelo_inurba_marseille","lat":43.29015,"lon":5.39009,"is_reserved":false,"is_disabled":false,"rental_uris":{"android":"levelo://app?vid=673852a4-6416-4b33-a80d-5a20f826521f","ios":"levelo://app?vid=673852a4-6416-4b33-a80d-5a20f826521f"},"vehicle_type_id":"4","last_reported":1769020206,"current_range_meters":6800,"station_id":"","pricing_plan_id":"cebpf4jnsgd1na2vs0mg"},{"bike_id":"20b6be91-c694-48bc-b478-f059692f622a","system_id":"levelo_inurba_marseille","lat":43.28697,"lon":5.37385,"is_reserved":false,"is_disabled":false,"rental_uris":{"android":"levelo://app?vid=20b6be91-c694-48bc-b478-f059692f622a","ios":"levelo://app?vid=20b6be91-c694-48bc-b478-f059692f622a"},"vehicle_type_id":"4","last_reported":1769020206,"current_range_meters":6800,"station_id":"ce4bh3p2rcd13ifvqdq0","pricing_plan_id":"cebpf4jnsgd1na2vs0mg"},{"bike_id":"87376c51-7b52-4611-acd2-49441baafe3f","system_id":"levelo_inurba_marseille","lat":43.24611,"lon":5.40203,"is_reserved":false,"is_disabled":false,"rental_uris":{"android":"levelo://app?vid=87376c51-7b52-4611-acd2-49441baafe3f","ios":"levelo://app?vid=87376c51-7b52-4611-acd2-49441baafe3f"},"vehicle_type_id":"4","last_reported":1769020206,"current_range_meters":6800,"station_id":"","pricing_plan_id":"cebpf4jnsgd1na2vs0mg"},{"bike_id":"72e1655d-aec3-4349-93c1-06571442ed3a","system_id":"levelo_inurba_marseille","lat":43.24671,"lon":5.38163,"is_reserved":false,"is_disabled":false,"rental_uris":{"android":"levelo://app?vid=72e1655d-aec3-4349-93c1-06571442ed3a","ios":"levelo://app?vid=72e1655d-aec3-4349-93c1-06571442ed3a"},"vehicle_type_id":"4","last_reported":1769020206,"current_range_meters":6800,"station_id":"ce4bhih2rcd13ifvqfr0","pricing_plan_id":"cebpf4jnsgd1na2vs0mg"},{"bike_id":"778f0eaf-54be-4513-b373-b1605eeed242","system_id":"levelo_inurba_marseille","lat":43.2976,"lon":5.42799,"is_reserved":false,"is_disabled":false,"rental_uris":{"android":"levelo://app?vid=778f0eaf-54be-4513-b373-b1605eeed242","ios":"levelo://app?vid=778f0eaf-54be-4513-b373-b1605eeed242"},"vehicle_type_id":"4","last_reported":1769020206,"current_range_meters":6800,"station_id":"st_d3md5207bmas73dh9klg","pricing_plan_id":"cebpf4jnsgd1na2vs0mg"},{"bike_id":"c055199c-bd62-490e-8577-d64c0f179897","system_id":"levelo_inurba_marseille","lat":43.28538,"lon":5.44098,"is_reserved":false,"is_disabled":false,"rental_uris":{"android":"levelo://app?vid=c055199c-bd62-490e-8577-d64c0f179897","ios":"levelo://app?vid=c055199c-bd62-490e-8577-d64c0f179897"},"vehicle_type_id":"4","last_reported":1769020206,"current_range_meters":6800,"station_id":"st_d3j3df2ikq2c7380ej80","pricing_plan_id":"cebpf4jnsgd1na2vs0mg"},{"bike_id":"ff4b4e08-33f6-4372-bd6a-79e5068680b5","system_id":"levelo_inurba_marseille","lat":43.29262,"lon":5.40913,"is_reserved":false,"is_disabled":false,"rental_uris":{"android":"levelo://app?vid=ff4b4e08-33f6-4372-bd6a-79e5068680b5","ios":"levelo://app?vid=ff4b4e08-33f6-4372-bd6a-79e5068680b5"},"vehicle_type_id":"4","last_reported":1769020206,"current_range_meters":7200,"station_id":"ce4bh192rcd13ifvqdc0","pricing_plan_id":"cebpf4jnsgd1na2vs0mg"},{"bike_id":"f1bb088f-7852-4bdc-bd02-6065110d0872","system_id":"levelo_inurba_marseille","lat":43.28537,"lon":5.441005,"is_reserved":false,"is_disabled":false,"rental_uris":{"android":"levelo://app?vid=f1bb088f-7852-4bdc-bd02-6065110d0872","ios":"levelo://app?vid=f1bb088f-7852-4bdc-bd02-6065110d0872"},"vehicle_type_id":"4","last_reported":1769020206,"current_range_meters":7200,"station_id":"st_d3j3df2ikq2c7380ej80","pricing_plan_id":"cebpf4jnsgd1na2vs0mg"},{"bike_id":"19c9b524-76f1-4e5d-8be9-000b11a19079","system_id":"levelo_inurba_marseille","lat":43.2501,"lon":5.38915,"is_reserved":false,"is_disabled":false,"rental_uris":{"android":"levelo://app?vid=19c9b524-76f1-4e5d-8be9-000b11a19079","ios":"levelo://app?vid=19c9b524-76f1-4e5d-8be9-000b11a19079"},"vehicle_type_id":"4","last_reported":1769020206,"current_range_meters":7200,"station_id":"ce4bhgp2rcd13ifvqfd0","pricing_plan_id":"cebpf4jnsgd1na2vs0mg"},{"bike_id":"fca00d5f-2997-436f-ba8d-58032d11c09e","system_id":"levelo_inurba_marseille","lat":43.27962,"lon":5.38719,"is_reserved":false,"is_disabled":true,"rental_uris":{"android":"levelo://app?vid=fca00d5f-2997-436f-ba8d-58032d11c09e","ios":"levelo://app?vid=fca00d5f-2997-436f-ba8d-58032d11c09e"},"vehicle_type_id":"4","last_reported":1769020206,"current_range_meters":7200,"station_id":"","pricing_plan_id":"cebpf4jnsgd1na2vs0mg"},{"bike_id":"5ba0a526-7cc4-4f15-8152-b96475f9c783","system_id":"levelo_inurba_marseille","lat":43.27433,"lon":5.39374,"is_reserved":false,"is_disabled":false,"rental_uris":{"android":"levelo://app?vid=5ba0a526-7cc4-4f15-8152-b96475f9c783","ios":"levelo://app?vid=5ba0a526-7cc4-4f15-8152-b96475f9c783"},"vehicle_type_id":"4","last_reported":1769020206,"current_range_meters":7200,"station_id":"ce4bhdp2rcd13ifvqf20","pricing_plan_id":"cebpf4jnsgd1na2vs0mg"},{"bike_id":"f3a01c85-86e9-4a7c-837b-602faf4bbfde","system_id":"levelo_inurba_marseille","lat":43.27998,"lon":5.38701,"is_reserved":false,"is_disabled":false,"rental_uris":{"android":"levelo://app?vid=f3a01c85-86e9-4a7c-837b-602faf4bbfde","ios":"levelo://app?vid=f3a01c85-86e9-4a7c-837b-602faf4bbfde"},"vehicle_type_id":"4","last_reported":1769020206,"current_range_meters":7200,"station_id":"","pricing_plan_id":"cebpf4jnsgd1na2vs0mg"},{"bike_id":"48cc7d16-2258-4386-8259-518dccac9460","system_id":"levelo_inurba_marseille","lat":43.29176,"lon":5.38591,"is_reserved":false,"is_disabled":false,"rental_uris":{"android":"levelo://app?vid=48cc7d16-2258-4386-8259-518dccac9460","ios":"levelo://app?vid=48cc7d16-2258-4386-8259-518dccac9460"},"vehicle_type_id":"4","last_reported":1769020206,"current_range_meters":7200,"station_id":"","pricing_plan_id":"cebpf4jnsgd1na2vs0mg"},{"bike_id":"370a6405-fdf1-423e-a465-6cdd23b50ee2","system_id":"levelo_inurba_marseille","lat":43.29016,"lon":5.38633,"is_reserved":false,"is_disabled":true,"rental_uris":{"android":"levelo://app?vid=370a6405-fdf1-423e-a465-6cdd23b50ee2","ios":"levelo://app?vid=370a6405-fdf1-423e-a465-6cdd23b50ee2"},"vehicle_type_id":"4","last_reported":1769020206,"current_range_meters":7200,"station_id":"ce4bh4p2rcd13ifvqe0g","pricing_plan_id":"cebpf4jnsgd1na2vs0mg"},{"bike_id":"bf41bb15-0352-4c14-9862-bfc1a258b94a","system_id":"levelo_inurba_marseille","lat":43.27074,"lon":5.42273,"is_reserved":false,"is_disabled":false,"rental_uris":{"android":"levelo://app?vid=bf41bb15-0352-4c14-9862-bfc1a258b94a","ios":"levelo://app?vid=bf41bb15-0352-4c14-9862-bfc1a258b94a"},"vehicle_type_id":"4","last_reported":1769020206,"current_range_meters":7200,"station_id":"ce4bhk92rcd13ifvqgb0","pricing_plan_id":"cebpf4jnsgd1na2vs0mg"},{"bike_id":"dde7b0e0-bbd1-44de-82f6-999f8e69694c","system_id":"levelo_inurba_marseille","lat":43.25506,"lon":5.37653,"is_reserved":false,"is_disabled":false,"rental_uris":{"android":"levelo://app?vid=dde7b0e0-bbd1-44de-82f6-999f8e69694c","ios":"levelo://app?vid=dde7b0e0-bbd1-44de-82f6-999f8e69694c"},"vehicle_type_id":"4","last_reported":1769020206,"current_range_meters":7200,"station_id":"ce4bhh12rcd13ifvqff0","pricing_plan_id":"cebpf4jnsgd1na2vs0mg"},{"bike_id":"e26301b9-2ba6-4110-823c-43c3e31eef15","system_id":"levelo_inurba_marseille","lat":43.30642,"lon":5.39312,"is_reserved":false,"is_disabled":false,"rental_uris":{"android":"levelo://app?vid=e26301b9-2ba6-4110-823c-43c3e31eef15","ios":"levelo://app?vid=e26301b9-2ba6-4110-823c-43c3e31eef15"},"vehicle_type_id":"4","last_reported":1769020206,"current_range_meters":7200,"station_id":"","pricing_plan_id":"cebpf4jnsgd1na2vs0mg"},{"bike_id":"01742311-3f12-409f-a5e8-bc53a3d5ac79","system_id":"levelo_inurba_marseille","lat":43.26567,"lon":5.39017,"is_reserved":false,"is_disabled":false,"rental_uris":{"android":"levelo://app?vid=01742311-3f12-409f-a5e8-bc53a3d5ac79","ios":"levelo://app?vid=01742311-3f12-409f-a5e8-bc53a3d5ac79"},"vehicle_type_id":"4","last_reported":1769020206,"current_range_meters":7200,"station_id":"ce4bhe12rcd13ifvqf30","pricing_plan_id":"cebpf4jnsgd1na2vs0mg"},{"bike_id":"c78c6a08-0112-436c-990a-95cf33ec6941","system_id":"levelo_inurba_marseille","lat":43.28489,"lon":5.38564,"is_reserved":false,"is_disabled":false,"rental_uris":{"android":"levelo://app?vid=c78c6a08-0112-436c-990a-95cf33ec6941","ios":"levelo://app?vid=c78c6a08-0112-436c-990a-95cf33ec6941"},"vehicle_type_id":"4","last_reported":1769020206,"current_range_meters":7200,"station_id":"ce4bh8p2rcd13ifvqeb0","pricing_plan_id":"cebpf4jnsgd1na2vs0mg"},{"bike_id":"eae34bc3-3a1e-4db7-973f-51d2ae0ff272","system_id":"levelo_inurba_marseille","lat":43.29531,"lon":5.38544,"is_reserved":false,"is_disabled":false,"rental_uris":{"android":"levelo://app?vid=eae34bc3-3a1e-4db7-973f-51d2ae0ff272","ios":"levelo://app?vid=eae34bc3-3a1e-4db7-973f-51d2ae0ff272"},"vehicle_type_id":"4","last_reported":1769020206,"current_range_meters":7200,"station_id":"ce4bgih2rcd13ifvqba0","pricing_plan_id":"cebpf4jnsgd1na2vs0mg"},{"bike_id":"d68cd528-87dc-4a28-8471-721b0cea6df0","system_id":"levelo_inurba_marseille","lat":43.28103,"lon":5.39223,"is_reserved":false,"is_disabled":false,"rental_uris":{"android":"levelo://app?vid=d68cd528-87dc-4a28-8471-721b0cea6df0","ios":"levelo://app?vid=d68cd528-87dc-4a28-8471-721b0cea6df0"},"vehicle_type_id":"4","last_reported":1769020206,"current_range_meters":7200,"station_id":"","pricing_plan_id":"cebpf4jnsgd1na2vs0mg"},{"bike_id":"0f52188f-7530-4a1c-922c-967fa0cd99b4","system_id":"levelo_inurba_marseille","lat":43.27989,"lon":5.40026,"is_reserved":false,"is_disabled":false,"rental_uris":{"android":"levelo://app?vid=0f52188f-7530-4a1c-922c-967fa0cd99b4","ios":"levelo://app?vid=0f52188f-7530-4a1c-922c-967fa0cd99b4"},"vehicle_type_id":"4","last_reported":1769020206,"current_range_meters":7200,"station_id":"ce4bho92rcd13ifvqh4g","pricing_plan_id":"cebpf4jnsgd1na2vs0mg"},{"bike_id":"c6b06674-f216-4b6a-b286-49cbc512511d","system_id":"levelo_inurba_marseille","lat":43.28473,"lon":5.38542,"is_reserved":false,"is_disabled":false,"rental_uris":{"android":"levelo://app?vid=c6b06674-f216-4b6a-b286-49cbc512511d","ios":"levelo://app?vid=c6b06674-f216-4b6a-b286-49cbc512511d"},"vehicle_type_id":"4","last_reported":1769020206,"current_range_meters":7200,"station_id":"ce4bh8p2rcd13ifvqeb0","pricing_plan_id":"cebpf4jnsgd1na2vs0mg"},{"bike_id":"5445ee27-e4be-4675-b622-fd84ed7ee8e7","system_id":"levelo_inurba_marseille","lat":43.28429,"lon":5.39188,"is_reserved":false,"is_disabled":false,"rental_uris":{"android":"levelo://app?vid=5445ee27-e4be-4675-b622-fd84ed7ee8e7","ios":"levelo://app?vid=5445ee27-e4be-4675-b622-fd84ed7ee8e7"},"vehicle_type_id":"4","last_reported":1769020206,"current_range_meters":7200,"station_id":"ce4bhoh2rcd13ifvqh5g","pricing_plan_id":"cebpf4jnsgd1na2vs0mg"},{"bike_id":"43448dd5-9537-449d-8160-6a955b585b98","system_id":"levelo_inurba_marseille","lat":43.25583,"lon":5.38214,"is_reserved":false,"is_disabled":false,"rental_uris":{"android":"levelo://app?vid=43448dd5-9537-449d-8160-6a955b585b98","ios":"levelo://app?vid=43448dd5-9537-449d-8160-6a955b585b98"},"vehicle_type_id":"4","last_reported":1769020206,"current_range_meters":7200,"station_id":"ce4bhih2rcd13ifvqfs0","pricing_plan_id":"cebpf4jnsgd1na2vs0mg"},{"bike_id":"ae81f703-6fce-4689-aec6-93c71bd3ec52","system_id":"levelo_inurba_marseille","lat":43.305423,"lon":5.365307,"is_reserved":false,"is_disabled":false,"rental_uris":{"android":"levelo://app?vid=ae81f703-6fce-4689-aec6-93c71bd3ec52","ios":"levelo://app?vid=ae81f703-6fce-4689-aec6-93c71bd3ec52"},"vehicle_type_id":"4","last_reported":1769020206,"current_range_meters":7200,"station_id":"ce4bgs12rcd13ifvqcag","pricing_plan_id":"cebpf4jnsgd1na2vs0mg"},{"bike_id":"87a7bab6-1044-42cf-8f67-a3767f5b636f","system_id":"levelo_inurba_marseille","lat":43.28507,"lon":5.384,"is_reserved":false,"is_disabled":false,"rental_uris":{"android":"levelo://app?vid=87a7bab6-1044-42cf-8f67-a3767f5b636f","ios":"levelo://app?vid=87a7bab6-1044-42cf-8f67-a3767f5b636f"},"vehicle_type_id":"4","last_reported":1769020206,"current_range_meters":8000,"station_id":"ce4bh512rcd13ifvqe3g","pricing_plan_id":"cebpf4jnsgd1na2vs0mg"},{"bike_id":"f5df5dab-005e-4afd-ac33-6b6937a1daf8","system_id":"levelo_inurba_marseille","lat":43.27984,"lon":5.40036,"is_reserved":false,"is_disabled":false,"rental_uris":{"android":"levelo://app?vid=f5df5dab-005e-4afd-ac33-6b6937a1daf8","ios":"levelo://app?vid=f5df5dab-005e-4afd-ac33-6b6937a1daf8"},"vehicle_type_id":"4","last_reported":1769020206,"current_range_meters":8000,"station_id":"ce4bho92rcd13ifvqh4g","pricing_plan_id":"cebpf4jnsgd1na2vs0mg"},{"bike_id":"1c5b23bd-2ff7-41ce-9b81-d371fc2b68a7","system_id":"levelo_inurba_marseille","lat":43.29525,"lon":5.3903,"is_reserved":false,"is_disabled":false,"rental_uris":{"android":"levelo://app?vid=1c5b23bd-2ff7-41ce-9b81-d371fc2b68a7","ios":"levelo://app?vid=1c5b23bd-2ff7-41ce-9b81-d371fc2b68a7"},"vehicle_type_id":"4","last_reported":1769020206,"current_range_meters":8000,"station_id":"ce4bh3p2rcd13ifvqdp0","pricing_plan_id":"cebpf4jnsgd1na2vs0mg"},{"bike_id":"ebc59118-e1a4-482d-84d0-eafb34b0b9ea","system_id":"levelo_inurba_marseille","lat":43.23777,"lon":5.3664,"is_reserved":false,"is_disabled":false,"rental_uris":{"android":"levelo://app?vid=ebc59118-e1a4-482d-84d0-eafb34b0b9ea","ios":"levelo://app?vid=ebc59118-e1a4-482d-84d0-eafb34b0b9ea"},"vehicle_type_id":"4","last_reported":1769020206,"current_range_meters":8000,"station_id":"st_d3nk18o9ro0c73en2l3g","pricing_plan_id":"cebpf4jnsgd1na2vs0mg"},{"bike_id":"fe2a828f-710f-491e-b529-f22ca09a8365","system_id":"levelo_inurba_marseille","lat":43.3073,"lon":5.40931,"is_reserved":false,"is_disabled":false,"rental_uris":{"android":"levelo://app?vid=fe2a828f-710f-491e-b529-f22ca09a8365","ios":"levelo://app?vid=fe2a828f-710f-491e-b529-f22ca09a8365"},"vehicle_type_id":"4","last_reported":1769020206,"current_range_meters":8000,"station_id":"","pricing_plan_id":"cebpf4jnsgd1na2vs0mg"},{"bike_id":"550f595a-8b70-4dc4-851a-800c286f1566","system_id":"levelo_inurba_marseille","lat":43.26556,"lon":5.37282,"is_reserved":false,"is_disabled":false,"rental_uris":{"android":"levelo://app?vid=550f595a-8b70-4dc4-851a-800c286f1566","ios":"levelo://app?vid=550f595a-8b70-4dc4-851a-800c286f1566"},"vehicle_type_id":"4","last_reported":1769020206,"current_range_meters":8000,"station_id":"ce4bhg12rcd13ifvqf70","pricing_plan_id":"cebpf4jnsgd1na2vs0mg"},{"bike_id":"eaad7dcc-c797-4d78-96ea-aa702bdcc172","system_id":"levelo_inurba_marseille","lat":43.31531,"lon":5.38024,"is_reserved":false,"is_disabled":false,"rental_uris":{"android":"levelo://app?vid=eaad7dcc-c797-4d78-96ea-aa702bdcc172","ios":"levelo://app?vid=eaad7dcc-c797-4d78-96ea-aa702bdcc172"},"vehicle_type_id":"4","last_reported":1769020206,"current_range_meters":8000,"station_id":"ce4bhsp2rcd13ifvqi50","pricing_plan_id":"cebpf4jnsgd1na2vs0mg"},{"bike_id":"f6de2d43-1f49-448d-9d89-c685ca8fe5a3","system_id":"levelo_inurba_marseille","lat":43.305356,"lon":5.365255,"is_reserved":false,"is_disabled":false,"rental_uris":{"android":"levelo://app?vid=f6de2d43-1f49-448d-9d89-c685ca8fe5a3","ios":"levelo://app?vid=f6de2d43-1f49-448d-9d89-c685ca8fe5a3"},"vehicle_type_id":"4","last_reported":1769020206,"current_range_meters":8000,"station_id":"ce4bgs12rcd13ifvqcag","pricing_plan_id":"cebpf4jnsgd1na2vs0mg"},{"bike_id":"f99279c1-c3b8-4f63-be53-22f391d9e626","system_id":"levelo_inurba_marseille","lat":43.2857,"lon":5.39502,"is_reserved":false,"is_disabled":false,"rental_uris":{"android":"levelo://app?vid=f99279c1-c3b8-4f63-be53-22f391d9e626","ios":"levelo://app?vid=f99279c1-c3b8-4f63-be53-22f391d9e626"},"vehicle_type_id":"4","last_reported":1769020206,"current_range_meters":8000,"station_id":"ce4bh292rcd13ifvqdg0","pricing_plan_id":"cebpf4jnsgd1na2vs0mg"},{"bike_id":"fddbb7cb-a21d-46ff-8d07-df9eecd44019","system_id":"levelo_inurba_marseille","lat":43.32127,"lon":5.36748,"is_reserved":false,"is_disabled":false,"rental_uris":{"android":"levelo://app?vid=fddbb7cb-a21d-46ff-8d07-df9eecd44019","ios":"levelo://app?vid=fddbb7cb-a21d-46ff-8d07-df9eecd44019"},"vehicle_type_id":"4","last_reported":1769020206,"current_range_meters":8000,"station_id":"ce4bhrh2rcd13ifvqhug","pricing_plan_id":"cebpf4jnsgd1na2vs0mg"},{"bike_id":"f5f5d546-357d-4aca-8b44-3347c463a29b","system_id":"levelo_inurba_marseille","lat":43.31469,"lon":5.37317,"is_reserved":false,"is_disabled":false,"rental_uris":{"android":"levelo://app?vid=f5f5d546-357d-4aca-8b44-3347c463a29b","ios":"levelo://app?vid=f5f5d546-357d-4aca-8b44-3347c463a29b"},"vehicle_type_id":"4","last_reported":1769020206,"current_range_meters":8000,"station_id":"ce4bgt12rcd13ifvqcd0","pricing_plan_id":"cebpf4jnsgd1na2vs0mg"},{"bike_id":"0b64e895-792b-4498-9172-5f40249c5668","system_id":"levelo_inurba_marseille","lat":43.26064,"lon":5.39403,"is_reserved":false,"is_disabled":false,"rental_uris":{"android":"levelo://app?vid=0b64e895-792b-4498-9172-5f40249c5668","ios":"levelo://app?vid=0b64e895-792b-4498-9172-5f40249c5668"},"vehicle_type_id":"4","last_reported":1769020206,"current_range_meters":8000,"station_id":"ce4bhh92rcd13ifvqfj0","pricing_plan_id":"cebpf4jnsgd1na2vs0mg"},{"bike_id":"bf9df301-dc0d-41cc-96a1-27301e9f819b","system_id":"levelo_inurba_marseille","lat":43.28479,"lon":5.48387,"is_reserved":false,"is_disabled":false,"rental_uris":{"android":"levelo://app?vid=bf9df301-dc0d-41cc-96a1-27301e9f819b","ios":"levelo://app?vid=bf9df301-dc0d-41cc-96a1-27301e9f819b"},"vehicle_type_id":"4","last_reported":1769020206,"current_range_meters":8000,"station_id":"","pricing_plan_id":"cebpf4jnsgd1na2vs0mg"},{"bike_id":"800ac751-b72d-4eb8-b5ef-7e899db1abd8","system_id":"levelo_inurba_marseille","lat":43.32729,"lon":5.39243,"is_reserved":false,"is_disabled":false,"rental_uris":{"android":"levelo://app?vid=800ac751-b72d-4eb8-b5ef-7e899db1abd8","ios":"levelo://app?vid=800ac751-b72d-4eb8-b5ef-7e899db1abd8"},"vehicle_type_id":"4","last_reported":1769020206,"current_range_meters":8000,"station_id":"","pricing_plan_id":"cebpf4jnsgd1na2vs0mg"},{"bike_id":"258b4153-0ee8-4d31-b068-229f8c76496d","system_id":"levelo_inurba_marseille","lat":43.27815,"lon":5.40709,"is_reserved":false,"is_disabled":false,"rental_uris":{"android":"levelo://app?vid=258b4153-0ee8-4d31-b068-229f8c76496d","ios":"levelo://app?vid=258b4153-0ee8-4d31-b068-229f8c76496d"},"vehicle_type_id":"4","last_reported":1769020206,"current_range_meters":8000,"station_id":"ce4bhnh2rcd13ifvqgtg","pricing_plan_id":"cebpf4jnsgd1na2vs0mg"},{"bike_id":"4590b54d-b5a2-4b46-8ab3-d0c3c0cb66d9","system_id":"levelo_inurba_marseille","lat":43.24994,"lon":5.38931,"is_reserved":false,"is_disabled":false,"rental_uris":{"android":"levelo://app?vid=4590b54d-b5a2-4b46-8ab3-d0c3c0cb66d9","ios":"levelo://app?vid=4590b54d-b5a2-4b46-8ab3-d0c3c0cb66d9"},"vehicle_type_id":"4","last_reported":1769020206,"current_range_meters":8000,"station_id":"ce4bhgp2rcd13ifvqfd0","pricing_plan_id":"cebpf4jnsgd1na2vs0mg"},{"bike_id":"488d3d36-c3f0-4390-80be-f0194a76248a","system_id":"levelo_inurba_marseille","lat":43.25549,"lon":5.40452,"is_reserved":false,"is_disabled":false,"rental_uris":{"android":"levelo://app?vid=488d3d36-c3f0-4390-80be-f0194a76248a","ios":"levelo://app?vid=488d3d36-c3f0-4390-80be-f0194a76248a"},"vehicle_type_id":"4","last_reported":1769020206,"current_range_meters":8000,"station_id":"","pricing_plan_id":"cebpf4jnsgd1na2vs0mg"},{"bike_id":"f67035e4-7e2f-4f61-9362-74370903fc82","system_id":"levelo_inurba_marseille","lat":43.26944,"lon":5.402502,"is_reserved":false,"is_disabled":false,"rental_uris":{"android":"levelo://app?vid=f67035e4-7e2f-4f61-9362-74370903fc82","ios":"levelo://app?vid=f67035e4-7e2f-4f61-9362-74370903fc82"},"vehicle_type_id":"4","last_reported":1769020206,"current_range_meters":8000,"station_id":"cjm6bp8fraef2m0cb0m0","pricing_plan_id":"cebpf4jnsgd1na2vs0mg"},{"bike_id":"42ad3ecc-0a5c-4850-9931-a019c27979e1","system_id":"levelo_inurba_marseille","lat":43.286168,"lon":5.350937,"is_reserved":false,"is_disabled":false,"rental_uris":{"android":"levelo://app?vid=42ad3ecc-0a5c-4850-9931-a019c27979e1","ios":"levelo://app?vid=42ad3ecc-0a5c-4850-9931-a019c27979e1"},"vehicle_type_id":"4","last_reported":1769020206,"current_range_meters":8000,"station_id":"ce4bhch2rcd13ifvqeug","pricing_plan_id":"cebpf4jnsgd1na2vs0mg"},{"bike_id":"019ceb53-5592-4d8b-8ed7-8ec71fe45a46","system_id":"levelo_inurba_marseille","lat":43.29299,"lon":5.38418,"is_reserved":false,"is_disabled":false,"rental_uris":{"android":"levelo://app?vid=019ceb53-5592-4d8b-8ed7-8ec71fe45a46","ios":"levelo://app?vid=019ceb53-5592-4d8b-8ed7-8ec71fe45a46"},"vehicle_type_id":"4","last_reported":1769020206,"current_range_meters":8000,"station_id":"ce4bh692rcd13ifvqea0","pricing_plan_id":"cebpf4jnsgd1na2vs0mg"},{"bike_id":"fe4ee268-4ab1-4c42-a504-b3b14996ea3d","system_id":"levelo_inurba_marseille","lat":43.29084,"lon":5.3717,"is_reserved":false,"is_disabled":false,"rental_uris":{"android":"levelo://app?vid=fe4ee268-4ab1-4c42-a504-b3b14996ea3d","ios":"levelo://app?vid=fe4ee268-4ab1-4c42-a504-b3b14996ea3d"},"vehicle_type_id":"4","last_reported":1769020206,"current_range_meters":8000,"station_id":"ce4bh5p2rcd13ifvqe4g","pricing_plan_id":"cebpf4jnsgd1na2vs0mg"},{"bike_id":"a06864ad-a5a5-4c85-a302-720955ccd87f","system_id":"levelo_inurba_marseille","lat":43.29525,"lon":5.39044,"is_reserved":false,"is_disabled":false,"rental_uris":{"android":"levelo://app?vid=a06864ad-a5a5-4c85-a302-720955ccd87f","ios":"levelo://app?vid=a06864ad-a5a5-4c85-a302-720955ccd87f"},"vehicle_type_id":"4","last_reported":1769020206,"current_range_meters":8000,"station_id":"ce4bh3p2rcd13ifvqdp0","pricing_plan_id":"cebpf4jnsgd1na2vs0mg"},{"bike_id":"a508f47f-ebff-4470-a927-07c95f76437c","system_id":"levelo_inurba_marseille","lat":43.28727,"lon":5.36077,"is_reserved":false,"is_disabled":false,"rental_uris":{"android":"levelo://app?vid=a508f47f-ebff-4470-a927-07c95f76437c","ios":"levelo://app?vid=a508f47f-ebff-4470-a927-07c95f76437c"},"vehicle_type_id":"4","last_reported":1769020206,"current_range_meters":8000,"station_id":"cki0cbj6b192h4jlfktg","pricing_plan_id":"cebpf4jnsgd1na2vs0mg"},{"bike_id":"39e500de-179b-4e51-88d7-db4101ee97fe","system_id":"levelo_inurba_marseille","lat":43.26777,"lon":5.39418,"is_reserved":false,"is_disabled":false,"rental_uris":{"android":"levelo://app?vid=39e500de-179b-4e51-88d7-db4101ee97fe","ios":"levelo://app?vid=39e500de-179b-4e51-88d7-db4101ee97fe"},"vehicle_type_id":"4","last_reported":1769020206,"current_range_meters":8000,"station_id":"ce4bhh12rcd13ifvqfg0","pricing_plan_id":"cebpf4jnsgd1na2vs0mg"},{"bike_id":"83461687-2d6f-44e3-8195-fb721f9fb181","system_id":"levelo_inurba_marseille","lat":43.28476,"lon":5.48401,"is_reserved":false,"is_disabled":false,"rental_uris":{"android":"levelo://app?vid=83461687-2d6f-44e3-8195-fb721f9fb181","ios":"levelo://app?vid=83461687-2d6f-44e3-8195-fb721f9fb181"},"vehicle_type_id":"4","last_reported":1769020206,"current_range_meters":8000,"station_id":"","pricing_plan_id":"cebpf4jnsgd1na2vs0mg"},