{"last_updated":1752088162,"ttl":60,"version":"2.2","data":{"bikes":[{"bike_id":"cd20cfea-2f2f-444d-a882-a49b6cf370eb","system_id":"levelo_inurba_marseille","lat":43.337444,"lon":5.374475,"is_reserved":false,"is_disabled":true,"rental_uris":{"android":"levelo://app?vid=cd20cfea-2f2f-444d-a882-a49b6cf370eb","ios":"levelo://app?vid=cd20cfea-2f2f-444d-a882-a49b6cf370eb"},"vehicle_type_id":"4","last_reported":1752088162,"current_range_meters":0,"station_id":"","pricing_plan_id":"cebpf4jnsgd1na2vs0mg"},{"bike_id":"3da29fb8-fc97-44c6-b9ac-31dd456b2fd4","system_id":"levelo_inurba_marseille","lat":43.33771,"lon":5.37424,"is_reserved":false,"is_disabled":true,"rental_uris":{"android":"levelo://app?vid=3da29fb8-fc97-44c6-b9ac-31dd456b2fd4","ios":"levelo://app?vid=3da29fb8-fc97-44c6-b9ac-31dd456b2fd4"},"vehicle_type_id":"4","last_reported":1752088162,"current_range_meters":0,"station_id":"","pricing_plan_id":"cebpf4jnsgd1na2vs0mg"},{"bike_id":"01861ad8-a8d7-4be6-816e-651927c87584","system_id":"levelo_inurba_marseille","lat":43.33751,"lon":5.37456,"is_reserved":false,"is_disabled":true,"rental_uris":{"android":"levelo://app?vid=01861ad8-a8d7-4be6-816e-651927c87584","ios":"levelo://app?vid=01861ad8-a8d7-4be6-816e-651927c87584"},"vehicle_type_id":"4","last_reported":1752088162,"current_range_meters":0,"station_id":"","pricing_plan_id":"cebpf4jnsgd1na2vs0mg"},{"bike_id":"c11770b0-7cbe-49a0-83d4-30eb91860eb1","system_id":"levelo_inurba_marseille","lat":43.308842,"lon":5.371977,"is_reserved":false,"is_disabled":true,"rental_uris":{"android":"levelo://app?vid=c11770b0-7cbe-49a0-83d4-30eb91860eb1","ios":"levelo://app?vid=c11770b0-7cbe-49a0-83d4-30eb91860eb1"},"vehicle_type_id":"4","last_reported":1752088162,"current_range_meters":0,"station_id":"","pricing_plan_id":"cebpf4jnsgd1na2vs0mg"},{"bike_id":"0b31d212-54ad-4137-bb39-c6510d039695","system_id":"levelo_inurba_marseille","lat":43.30376,"lon":5.42488,"is_reserved":false,"is_disabled":true,"rental_uris":{"android":"levelo://app?vid=0b31d212-54ad-4137-bb39-c6510d039695","ios":"levelo://app?vid=0b31d212-54ad-4137-bb39-c6510d039695"},"vehicle_type_id":"4","last_reported":1752088162,"current_range_meters":0,"station_id":"","pricing_plan_id":"cebpf4jnsgd1na2vs0mg"},{"bike_id":"53b1a31e-8ada-40c0-8d64-113a81233c84","system_id":"levelo_inurba_marseille","lat":43.36416,"lon":5.31913,"is_reserved":false,"is_disabled":true,"rental_uris":{"android":"levelo://app?vid=53b1a31e-8ada-40c0-8d64-113a81233c84","ios":"levelo://app?vid=53b1a31e-8ada-40c0-8d64-113a81233c84"},"vehicle_type_id":"4","last_reported":1752088162,"current_range_meters":0,"station_id":"","pricing_plan_id":"cebpf4jnsgd1na2vs0mg"},{"bike_id":"e3e1317e-3ef5-4a50-87d8-decf95f480df","system_id":"levelo_inurba_marseille","lat":43.30293,"lon":5.3684,"is_reserved":false,"is_disabled":true,"rental_uris":{"android":"levelo://app?vid=e3e1317e-3ef5-4a50-87d8-decf95f480df","ios":"levelo://app?vid=e3e1317e-3ef5-4a50-87d8-decf95f480df"},"vehicle_type_id":"4","last_reported":1752088162,"current_range_meters":0,"station_id":"ce4bgqh2rcd13ifvqc5g","pricing_plan_id":"cebpf4jnsgd1na2vs0mg"},{"bike_id":"c25337ca-c33e-4117-bf63-d699bc716fa6","system_id":"levelo_inurba_marseille","lat":43.314894,"lon":5.373083,"is_reserved":false,"is_disabled":true,"rental_uris":{"android":"levelo://app?vid=c25337ca-c33e-4117-bf63-d699bc716fa6","ios":"levelo://app?vid=c25337ca-c33e-4117-bf63-d699bc716fa6"},"vehicle_type_id":"4","last_reported":1752088162,"current_range_meters":0,"station_id":"ce4bgt12rcd13ifvqcd0","pricing_plan_id":"cebpf4jnsgd1na2vs0mg"},{"bike_id":"ff4b11d9-69fc-475e-905c-930adbd179e9","system_id":"levelo_inurba_marseille","lat":43.29632,"lon":5.40583,"is_reserved":false,"is_disabled":true,"rental_uris":{"android":"levelo://app?vid=ff4b11d9-69fc-475e-905c-930adbd179e9","ios":"levelo://app?vid=ff4b11d9-69fc-475e-905c-930adbd179e9"},"vehicle_type_id":"4","last_reported":1752088162,"current_range_meters":0,"station_id":"ce4bh0h2rcd13ifvqd60","pricing_plan_id":"cebpf4jnsgd1na2vs0mg"},{"bike_id":"397f822c-0bd5-48c7-b830-f8ab70041733","system_id":"levelo_inurba_marseille","lat":43.289093,"lon":5.395497,"is_reserved":false,"is_disabled":true,"rental_uris":{"android":"levelo://app?vid=397f822c-0bd5-48c7-b830-f8ab70041733","ios":"levelo://app?vid=397f822c-0bd5-48c7-b830-f8ab70041733"},"vehicle_type_id":"4","last_reported":1752088162,"current_range_meters":0,"station_id":"ce4bh3h2rcd13ifvqdn0","pricing_plan_id":"cebpf4jnsgd1na2vs0mg"},{"bike_id":"2549ebed-38f2-4051-b6ca-70773c37f96d","system_id":"levelo_inurba_marseille","lat":43.28105,"lon":5.37833,"is_reserved":false,"is_disabled":true,"rental_uris":{"android":"levelo://app?vid=2549ebed-38f2-4051-b6ca-70773c37f96d","ios":"levelo://app?vid=2549ebed-38f2-4051-b6ca-70773c37f96d"},"vehicle_type_id":"4","last_reported":1752088162,"current_range_meters":0,"station_id":"ce4bha12rcd13ifvqee0","pricing_plan_id":"cebpf4jnsgd1na2vs0mg"},{"bike_id":"6c33c6fe-0d8e-4637-b6b5-200cdb1c4ef9","system_id":"levelo_inurba_marseille","lat":43.2826,"lon":5.35068,"is_reserved":false,"is_disabled":true,"rental_uris":{"android":"levelo://app?vid=6c33c6fe-0d8e-4637-b6b5-200cdb1c4ef9","ios":"levelo://app?vid=6c33c6fe-0d8e-4637-b6b5-200cdb1c4ef9"},"vehicle_type_id":"4","last_reported":1752088162,"current_range_meters":0,"station_id":"ce4bhbp2rcd13ifvqerg","pricing_plan_id":"cebpf4jnsgd1na2vs0mg"},{"bike_id":"84da73e1-3873-4139-a748-621cc105f699","system_id":"levelo_inurba_marseille","lat":43.26025,"lon":5.37549,"is_reserved":false,"is_disabled":true,"rental_uris":{"android":"levelo://app?vid=84da73e1-3873-4139-a748-621cc105f699","ios":"levelo://app?vid=84da73e1-3873-4139-a748-621cc105f699"},"vehicle_type_id":"4","last_reported":1752088162,"current_range_meters":0,"station_id":"ce4bhgh2rcd13ifvqfa0","pricing_plan_id":"cebpf4jnsgd1na2vs0mg"},{"bike_id":"e562ad4e-a577-4b7b-a74e-7e00b9c0f52f","system_id":"levelo_inurba_marseille","lat":43.225027,"lon":5.347812,"is_reserved":false,"is_disabled":true,"rental_uris":{"android":"levelo://app?vid=e562ad4e-a577-4b7b-a74e-7e00b9c0f52f","ios":"levelo://app?vid=e562ad4e-a577-4b7b-a74e-7e00b9c0f52f"},"vehicle_type_id":"4","last_reported":1752088162,"current_range_meters":0,"station_id":"st_cvj5dfep6f1abm77gieg","pricing_plan_id":"cebpf4jnsgd1na2vs0mg"},{"bike_id":"6661cbd2-6ba2-4b46-b15e-1188df0f29d7","system_id":"levelo_inurba_marseille","lat":43.21195,"lon":5.35073,"is_reserved":false,"is_disabled":true,"rental_uris":{"android":"levelo://app?vid=6661cbd2-6ba2-4b46-b15e-1188df0f29d7","ios":"levelo://app?vid=6661cbd2-6ba2-4b46-b15e-1188df0f29d7"},"vehicle_type_id":"4","last_reported":1752088162,"current_range_meters":0,"station_id":"st_cvj6sg6p6f1abm77japg","pricing_plan_id":"cebpf4jnsgd1na2vs0mg"},{"bike_id":"1d59f68c-f001-439a-be0d-0872c05230ae","system_id":"levelo_inurba_marseille","lat":43.286024,"lon":5.370657,"is_reserved":false,"is_disabled":true,"rental_uris":{"android":"levelo://app?vid=1d59f68c-f001-439a-be0d-0872c05230ae","ios":"levelo://app?vid=1d59f68c-f001-439a-be0d-0872c05230ae"},"vehicle_type_id":"4","last_reported":1752088162,"current_range_meters":400,"station_id":"","pricing_plan_id":"cebpf4jnsgd1na2vs0mg"},{"bike_id":"336eaf6b-6955-4ef9-8dfa-abf06b057d2c","system_id":"levelo_inurba_marseille","lat":43.21167,"lon":5.35023,"is_reserved":false,"is_disabled":true,"rental_uris":{"android":"levelo://app?vid=336eaf6b-6955-4ef9-8dfa-abf06b057d2c","ios":"levelo://app?vid=336eaf6b-6955-4ef9-8dfa-abf06b057d2c"},"vehicle_type_id":"4","last_reported":1752088162,"current_range_meters":400,"station_id":"","pricing_plan_id":"cebpf4jnsgd1na2vs0mg"},{"bike_id":"319ca011-80f2-454c-b6c8-dbd47528245a","system_id":"levelo_inurba_marseille","lat":43.2841,"lon":5.37511,"is_reserved":false,"is_disabled":true,"rental_uris":{"android":"levelo://app?vid=319ca011-80f2-454c-b6c8-dbd47528245a","ios":"levelo://app?vid=319ca011-80f2-454c-b6c8-dbd47528245a"},"vehicle_type_id":"4","last_reported":1752088162,"current_range_meters":400,"station_id":"ce4bh412rcd13ifvqds0","pricing_plan_id":"cebpf4jnsgd1na2vs0mg"},{"bike_id":"3d34cf49-36eb-4e9e-9ffe-c792aa2617f2","system_id":"levelo_inurba_marseille","lat":43.28674,"lon":5.38659,"is_reserved":false,"is_disabled":true,"rental_uris":{"android":"levelo://app?vid=3d34cf49-36eb-4e9e-9ffe-c792aa2617f2","ios":"levelo://app?vid=3d34cf49-36eb-4e9e-9ffe-c792aa2617f2"},"vehicle_type_id":"4","last_reported":1752088162,"current_range_meters":400,"station_id":"ce4bh492rcd13ifvqdug","pricing_plan_id":"cebpf4jnsgd1na2vs0mg"},{"bike_id":"ba5871aa-e75c-42d4-9695-854d257b0e5c","system_id":"levelo_inurba_marseille","lat":43.29275,"lon":5.3685,"is_reserved":false,"is_disabled":true,"rental_uris":{"android":"levelo://app?vid=ba5871aa-e75c-42d4-9695-854d257b0e5c","ios":"levelo://app?vid=ba5871aa-e75c-42d4-9695-854d257b0e5c"},"vehicle_type_id":"4","last_reported":1752088162,"current_range_meters":400,"station_id":"ce4bhbp2rcd13ifvqesg","pricing_plan_id":"cebpf4jnsgd1na2vs0mg"},{"bike_id":"34775b43-e1da-4a67-9c4a-589841f8fb67","system_id":"levelo_inurba_marseille","lat":43.29843,"lon":5.36269,"is_reserved":false,"is_disabled":true,"rental_uris":{"android":"levelo://app?vid=34775b43-e1da-4a67-9c4a-589841f8fb67","ios":"levelo://app?vid=34775b43-e1da-4a67-9c4a-589841f8fb67"},"vehicle_type_id":"4","last_reported":1752088162,"current_range_meters":800,"station_id":"ce4bgpp2rcd13ifvqc3g","pricing_plan_id":"cebpf4jnsgd1na2vs0mg"},{"bike_id":"9dbe87cc-21c9-4b6c-952c-c09e35887f80","system_id":"levelo_inurba_marseille","lat":43.217411,"lon":5.346159,"is_reserved":false,"is_disabled":true,"rental_uris":{"android":"levelo://app?vid=9dbe87cc-21c9-4b6c-952c-c09e35887f80","ios":"levelo://app?vid=9dbe87cc-21c9-4b6c-952c-c09e35887f80"},"vehicle_type_id":"4","last_reported":1752088162,"current_range_meters":800,"station_id":"st_cvj6r9ubvosntc0bgbag","pricing_plan_id":"cebpf4jnsgd1na2vs0mg"},{"bike_id":"2581b7c5-1b42-4417-a9e6-cbdbedb7a2dd","system_id":"levelo_inurba_marseille","lat":43.217493,"lon":5.34599,"is_reserved":false,"is_disabled":true,"rental_uris":{"android":"levelo://app?vid=2581b7c5-1b42-4417-a9e6-cbdbedb7a2dd","ios":"levelo://app?vid=2581b7c5-1b42-4417-a9e6-cbdbedb7a2dd"},"vehicle_type_id":"4","last_reported":1752088162,"current_range_meters":800,"station_id":"st_cvj6r9ubvosntc0bgbag","pricing_plan_id":"cebpf4jnsgd1na2vs0mg"},{"bike_id":"b8fcd1b8-e383-4c4c-a466-f8393a965939","system_id":"levelo_inurba_marseille","lat":43.21747,"lon":5.346,"is_reserved":false,"is_disabled":true,"rental_uris":{"android":"levelo://app?vid=b8fcd1b8-e383-4c4c-a466-f8393a965939","ios":"levelo://app?vid=b8fcd1b8-e383-4c4c-a466-f8393a965939"},"vehicle_type_id":"4","last_reported":1752088162,"current_range_meters":1200,"station_id":"","pricing_plan_id":"cebpf4jnsgd1na2vs0mg"},{"bike_id":"c98d0307-3157-4a39-9409-864e8e505802","system_id":"levelo_inurba_marseille","lat":43.24168,"lon":5.39351,"is_reserved":false,"is_disabled":true,"rental_uris":{"android":"levelo://app?vid=c98d0307-3157-4a39-9409-864e8e505802","ios":"levelo://app?vid=c98d0307-3157-4a39-9409-864e8e505802"},"vehicle_type_id":"4","last_reported":1752088162,"current_range_meters":1200,"station_id":"","pricing_plan_id":"cebpf4jnsgd1na2vs0mg"},{"bike_id":"1894c9b5-d998-409e-8ecb-4826c2625ee4","system_id":"levelo_inurba_marseille","lat":43.25496,"lon":5.37641,"is_reserved":false,"is_disabled":true,"rental_uris":{"android":"levelo://app?vid=1894c9b5-d998-409e-8ecb-4826c2625ee4","ios":"levelo://app?vid=1894c9b5-d998-409e-8ecb-4826c2625ee4"},"vehicle_type_id":"4","last_reported":1752088162,"current_range_meters":1200,"station_id":"ce4bhh12rcd13ifvqff0","pricing_plan_id":"cebpf4jnsgd1na2vs0mg"},{"bike_id":"1ea07c30-7637-4836-8280-b70950b610b5","system_id":"levelo_inurba_marseille","lat":43.224852,"lon":5.347898,"is_reserved":false,"is_disabled":true,"rental_uris":{"android":"levelo://app?vid=1ea07c30-7637-4836-8280-b70950b610b5","ios":"levelo://app?vid=1ea07c30-7637-4836-8280-b70950b610b5"},"vehicle_type_id":"4","last_reported":1752088162,"current_range_meters":1200,"station_id":"st_cvj5dfep6f1abm77gieg","pricing_plan_id":"cebpf4jnsgd1na2vs0mg"},{"bike_id":"5745f131-cd4a-4ac9-bdc2-7385b3c3e0a5","system_id":"levelo_inurba_marseille","lat":43.21773,"lon":5.34575,"is_reserved":false,"is_disabled":true,"rental_uris":{"android":"levelo://app?vid=5745f131-cd4a-4ac9-bdc2-7385b3c3e0a5","ios":"levelo://app?vid=5745f131-cd4a-4ac9-bdc2-7385b3c3e0a5"},"vehicle_type_id":"4","last_reported":1752088162,"current_range_meters":1200,"station_id":"st_cvj6r9ubvosntc0bgbag","pricing_plan_id":"cebpf4jnsgd1na2vs0mg"},{"bike_id":"acd61c62-30f4-4010-bdfd-2dd0ad9e241c","system_id":"levelo_inurba_marseille","lat":43.33122,"lon":5.38591,"is_reserved":false,"is_disabled":true,"rental_uris":{"android":"levelo://app?vid=acd61c62-30f4-4010-bdfd-2dd0ad9e241c","ios":"levelo://app?vid=acd61c62-30f4-4010-bdfd-2dd0ad9e241c"},"vehicle_type_id":"4","last_reported":1752088162,"current_range_meters":1600,"station_id":"","pricing_plan_id":"cebpf4jnsgd1na2vs0mg"},{"bike_id":"4bb49ef0-e9d2-458d-9b40-83f2ab1a6282","system_id":"levelo_inurba_marseille","lat":43.29533,"lon":5.37493,"is_reserved":false,"is_disabled":true,"rental_uris":{"android":"levelo://app?vid=4bb49ef0-e9d2-458d-9b40-83f2ab1a6282","ios":"levelo://app?vid=4bb49ef0-e9d2-458d-9b40-83f2ab1a6282"},"vehicle_type_id":"4","last_reported":1752088162,"current_range_meters":1600,"station_id":"ce4bgkp2rcd13ifvqbmg","pricing_plan_id":"cebpf4jnsgd1na2vs0mg"},{"bike_id":"7f6e0ab9-ef4a-4d62-a288-27768cf04475","system_id":"levelo_inurba_marseille","lat":43.29783,"lon":5.37099,"is_reserved":false,"is_disabled":true,"rental_uris":{"android":"levelo://app?vid=7f6e0ab9-ef4a-4d62-a288-27768cf04475","ios":"levelo://app?vid=7f6e0ab9-ef4a-4d62-a288-27768cf04475"},"vehicle_type_id":"4","last_reported":1752088162,"current_range_meters":1600,"station_id":"ce4bgop2rcd13ifvqc1g","pricing_plan_id":"cebpf4jnsgd1na2vs0mg"},{"bike_id":"cf704c8e-768a-41b4-aee2-3328dd94cad1","system_id":"levelo_inurba_marseille","lat":43.31495,"lon":5.37305,"is_reserved":false,"is_disabled":true,"rental_uris":{"android":"levelo://app?vid=cf704c8e-768a-41b4-aee2-3328dd94cad1","ios":"levelo://app?vid=cf704c8e-768a-41b4-aee2-3328dd94cad1"},"vehicle_type_id":"4","last_reported":1752088162,"current_range_meters":1600,"station_id":"ce4bgt12rcd13ifvqcd0","pricing_plan_id":"cebpf4jnsgd1na2vs0mg"},{"bike_id":"24bf59cf-af3e-435d-979a-04005bef2213","system_id":"levelo_inurba_marseille","lat":43.3013,"lon":5.39859,"is_reserved":false,"is_disabled":true,"rental_uris":{"android":"levelo://app?vid=24bf59cf-af3e-435d-979a-04005bef2213","ios":"levelo://app?vid=24bf59cf-af3e-435d-979a-04005bef2213"},"vehicle_type_id":"4","last_reported":1752088162,"current_range_meters":1600,"station_id":"ce4bh0h2rcd13ifvqd40","pricing_plan_id":"cebpf4jnsgd1na2vs0mg"},{"bike_id":"37f2becd-23f9-4f13-a711-38b8024eeec7","system_id":"levelo_inurba_marseille","lat":43.33768,"lon":5.37516,"is_reserved":false,"is_disabled":true,"rental_uris":{"android":"levelo://app?vid=37f2becd-23f9-4f13-a711-38b8024eeec7","ios":"levelo://app?vid=37f2becd-23f9-4f13-a711-38b8024eeec7"},"vehicle_type_id":"4","last_reported":1752088162,"current_range_meters":2000,"station_id":"","pricing_plan_id":"cebpf4jnsgd1na2vs0mg"},{"bike_id":"5c7f6594-0ed7-4d18-aaba-435b3538078a","system_id":"levelo_inurba_marseille","lat":43.295746,"lon":5.375208,"is_reserved":false,"is_disabled":false,"rental_uris":{"android":"levelo://app?vid=5c7f6594-0ed7-4d18-aaba-435b3538078a","ios":"levelo://app?vid=5c7f6594-0ed7-4d18-aaba-435b3538078a"},"vehicle_type_id":"4","last_reported":1752088162,"current_range_meters":2800,"station_id":"ce4bgh92rcd13ifvqb50","pricing_plan_id":"cebpf4jnsgd1na2vs0mg"},{"bike_id":"0bd07a5a-c9b5-48fc-bb04-083c19617d41","system_id":"levelo_inurba_marseille","lat":43.30729,"lon":5.424423,"is_reserved":false,"is_disabled":false,"rental_uris":{"android":"levelo://app?vid=0bd07a5a-c9b5-48fc-bb04-083c19617d41","ios":"levelo://app?vid=0bd07a5a-c9b5-48fc-bb04-083c19617d41"},"vehicle_type_id":"4","last_reported":1752088162,"current_range_meters":2800,"station_id":"st_cvj6ca6bvosntc0bfgr0","pricing_plan_id":"cebpf4jnsgd1na2vs0mg"},{"bike_id":"2c423baa-ecca-420a-87d7-ad0b7e0b9ebb","system_id":"levelo_inurba_marseille","lat":43.28056,"lon":5.35355,"is_reserved":false,"is_disabled":false,"rental_uris":{"android":"levelo://app?vid=2c423baa-ecca-420a-87d7-ad0b7e0b9ebb","ios":"levelo://app?vid=2c423baa-ecca-420a-87d7-ad0b7e0b9ebb"},"vehicle_type_id":"4","last_reported":1752088162,"current_range_meters":3200,"station_id":"","pricing_plan_id":"cebpf4jnsgd1na2vs0mg"},{"bike_id":"cd4c9cac-bc96-4a69-9b19-bf3c4ea619c9","system_id":"levelo_inurba_marseille","lat":43.29025,"lon":5.38643,"is_reserved":false,"is_disabled":false,"rental_uris":{"android":"levelo://app?vid=cd4c9cac-bc96-4a69-9b19-bf3c4ea619c9","ios":"levelo://app?vid=cd4c9cac-bc96-4a69-9b19-bf3c4ea619c9"},"vehicle_type_id":"4","last_reported":1752088162,"current_range_meters":3200,"station_id":"ce4bh4p2rcd13ifvqe0g","pricing_plan_id":"cebpf4jnsgd1na2vs0mg"},{"bike_id":"3b17d170-4f8b-472b-b9b0-3b0219f774df","system_id":"levelo_inurba_marseille","lat":43.23964,"lon":5.36641,"is_reserved":false,"is_disabled":false,"rental_uris":{"android":"levelo://app?vid=3b17d170-4f8b-472b-b9b0-3b0219f774df","ios":"levelo://app?vid=3b17d170-4f8b-472b-b9b0-3b0219f774df"},"vehicle_type_id":"4","last_reported":1752088162,"current_range_meters":3200,"station_id":"ce4bhi12rcd13ifvqfp0","pricing_plan_id":"cebpf4jnsgd1na2vs0mg"},{"bike_id":"020fc082-f344-4efb-a9b7-68879351cb06","system_id":"levelo_inurba_marseille","lat":43.309347,"lon":5.401414,"is_reserved":false,"is_disabled":false,"rental_uris":{"android":"levelo://app?vid=020fc082-f344-4efb-a9b7-68879351cb06","ios":"levelo://app?vid=020fc082-f344-4efb-a9b7-68879351cb06"},"vehicle_type_id":"4","last_reported":1752088162,"current_range_meters":4000,"station_id":"ce4bgvh2rcd13ifvqcs0","pricing_plan_id":"cebpf4jnsgd1na2vs0mg"},{"bike_id":"2ec138fe-380b-4b25-9799-9a3fc9751994","system_id":"levelo_inurba_marseille","lat":43.28947,"lon":5.38386,"is_reserved":false,"is_disabled":false,"rental_uris":{"android":"levelo://app?vid=2ec138fe-380b-4b25-9799-9a3fc9751994","ios":"levelo://app?vid=2ec138fe-380b-4b25-9799-9a3fc9751994"},"vehicle_type_id":"4","last_reported":1752088162,"current_range_meters":4000,"station_id":"ce4bh612rcd13ifvqe6g","pricing_plan_id":"cebpf4jnsgd1na2vs0mg"},{"bike_id":"514db1dd-1f20-4a59-b827-a1a5b3f1d0d7","system_id":"levelo_inurba_marseille","lat":43.30883,"lon":5.39642,"is_reserved":false,"is_disabled":false,"rental_uris":{"android":"levelo://app?vid=514db1dd-1f20-4a59-b827-a1a5b3f1d0d7","ios":"levelo://app?vid=514db1dd-1f20-4a59-b827-a1a5b3f1d0d7"},"vehicle_type_id":"4","last_reported":1752088162,"current_range_meters":4400,"station_id":"ce4bh012rcd13ifvqcv0","pricing_plan_id":"cebpf4jnsgd1na2vs0mg"},{"bike_id":"0c8f92f0-34dd-4528-ac9a-218976babbcb","system_id":"levelo_inurba_marseille","lat":43.297057,"lon":5.376893,"is_reserved":false,"is_disabled":false,"rental_uris":{"android":"levelo://app?vid=0c8f92f0-34dd-4528-ac9a-218976babbcb","ios":"levelo://app?vid=0c8f92f0-34dd-4528-ac9a-218976babbcb"},"vehicle_type_id":"4","last_reported":1752088162,"current_range_meters":4800,"station_id":"ce4bgkh2rcd13ifvqbl0","pricing_plan_id":"cebpf4jnsgd1na2vs0mg"},{"bike_id":"7f84eb8c-904c-40fa-aa57-f9874689d928","system_id":"levelo_inurba_marseille","lat":43.29579,"lon":5.36741,"is_reserved":false,"is_disabled":false,"rental_uris":{"android":"levelo://app?vid=7f84eb8c-904c-40fa-aa57-f9874689d928","ios":"levelo://app?vid=7f84eb8c-904c-40fa-aa57-f9874689d928"},"vehicle_type_id":"4","last_reported":1752088162,"current_range_meters":4800,"station_id":"ce4bgph2rcd13ifvqc2g","pricing_plan_id":"cebpf4jnsgd1na2vs0mg"},{"bike_id":"291b18b5-6ebd-4558-a08d-a733758187cc","system_id":"levelo_inurba_marseille","lat":43.30271,"lon":5.37715,"is_reserved":false,"is_disabled":false,"rental_uris":{"android":"levelo://app?vid=291b18b5-6ebd-4558-a08d-a733758187cc","ios":"levelo://app?vid=291b18b5-6ebd-4558-a08d-a733758187cc"},"vehicle_type_id":"4","last_reported":1752088162,"current_range_meters":4800,"station_id":"ce4bguh2rcd13ifvqcj0","pricing_plan_id":"cebpf4jnsgd1na2vs0mg"},{"bike_id":"f09cca0a-e554-4283-b00b-42bf8c8f36e5","system_id":"levelo_inurba_marseille","lat":43.31881,"lon":5.40735,"is_reserved":false,"is_disabled":false,"rental_uris":{"android":"levelo://app?vid=f09cca0a-e554-4283-b00b-42bf8c8f36e5","ios":"levelo://app?vid=f09cca0a-e554-4283-b00b-42bf8c8f36e5"},"vehicle_type_id":"4","last_reported":1752088162,"current_range_meters":5600,"station_id":"ce4bhq12rcd13ifvqhig","pricing_plan_id":"cebpf4jnsgd1na2vs0mg"},{"bike_id":"db2cf0f8-6611-4ee6-a6f1-5b9ae5f90bb6","system_id":"levelo_inurba_marseille","lat":43.28412,"lon":5.34976,"is_reserved":false,"is_disabled":false,"rental_uris":{"android":"levelo://app?vid=db2cf0f8-6611-4ee6-a6f1-5b9ae5f90bb6","ios":"levelo://app?vid=db2cf0f8-6611-4ee6-a6f1-5b9ae5f90bb6"},"vehicle_type_id":"4","last_reported":1752088162,"current_range_meters":6000,"station_id":"ce4bhbh2rcd13ifvqepg","pricing_plan_id":"cebpf4jnsgd1na2vs0mg"},{"bike_id":"888522e3-39b6-4ff3-ad74-ff6c6f771157","system_id":"levelo_inurba_marseille","lat":43.29489,"lon":5.40231,"is_reserved":false,"is_disabled":false,"rental_uris":{"android":"levelo://app?vid=888522e3-39b6-4ff3-ad74-ff6c6f771157","ios":"levelo://app?vid=888522e3-39b6-4ff3-ad74-ff6c6f771157"},"vehicle_type_id":"4","last_reported":1752088162,"current_range_meters":6400,"station_id":"","pricing_plan_id":"cebpf4jnsgd1na2vs0mg"},{"bike_id":"5c2e93ea-4cf8-4b3a-bc5b-9f49d3d84f9f","system_id":"levelo_inurba_marseille","lat":43.31065,"lon":5.38361,"is_reserved":false,"is_disabled":false,"rental_uris":{"android":"levelo://app?vid=5c2e93ea-4cf8-4b3a-bc5b-9f49d3d84f9f","ios":"levelo://app?vid=5c2e93ea-4cf8-4b3a-bc5b-9f49d3d84f9f"},"vehicle_type_id":"4","last_reported":1752088162,"current_range_meters":6400,"station_id":"ce4bgv92rcd13ifvqcr0","pricing_plan_id":"cebpf4jnsgd1na2vs0mg"},{"bike_id":"393ec2af-6a41-4cda-a1f8-a36e5e81ced8","system_id":"levelo_inurba_marseille","lat":43.28942,"lon":5.39634,"is_reserved":false,"is_disabled":false,"rental_uris":{"android":"levelo://app?vid=393ec2af-6a41-4cda-a1f8-a36e5e81ced8","ios":"levelo://app?vid=393ec2af-6a41-4cda-a1f8-a36e5e81ced8"},"vehicle_type_id":"4","last_reported":1752088162,"current_range_meters":6400,"station_id":"ce4bh3h2rcd13ifvqdn0","pricing_plan_id":"cebpf4jnsgd1na2vs0mg"},{"bike_id":"3214d13c-b694-4fb6-b7a7-f9243a3a235e","system_id":"levelo_inurba_marseille","lat":43.30186,"lon":5.36634,"is_reserved":false,"is_disabled":false,"rental_uris":{"android":"levelo://app?vid=3214d13c-b694-4fb6-b7a7-f9243a3a235e","ios":"levelo://app?vid=3214d13c-b694-4fb6-b7a7-f9243a3a235e"},"vehicle_type_id":"4","last_reported":1752088162,"current_range_meters":6800,"station_id":"ce4bgrh2rcd13ifvqc8g","pricing_plan_id":"cebpf4jnsgd1na2vs0mg"},{"bike_id":"df1e8772-5d5e-4f87-b0d5-991dcb39d07c","system_id":"levelo_inurba_marseille","lat":43.30273,"lon":5.37718,"is_reserved":false,"is_disabled":false,"rental_uris":{"android":"levelo://app?vid=df1e8772-5d5e-4f87-b0d5-991dcb39d07c","ios":"levelo://app?vid=df1e8772-5d5e-4f87-b0d5-991dcb39d07c"},"vehicle_type_id":"4","last_reported":1752088162,"current_range_meters":6800,"station_id":"ce4bguh2rcd13ifvqcj0","pricing_plan_id":"cebpf4jnsgd1na2vs0mg"},{"bike_id":"b64848f6-13cd-440c-92f0-fdb84f1e1fe7","system_id":"levelo_inurba_marseille","lat":43.29232,"lon":5.36067,"is_reserved":false,"is_disabled":false,"rental_uris":{"android":"levelo://app?vid=b64848f6-13cd-440c-92f0-fdb84f1e1fe7","ios":"levelo://app?vid=b64848f6-13cd-440c-92f0-fdb84f1e1fe7"},"vehicle_type_id":"4","last_reported":1752088162,"current_range_meters":6800,"station_id":"ce4bhbh2rcd13ifvqeqg","pricing_plan_id":"cebpf4jnsgd1na2vs0mg"},{"bike_id":"1c5fc464-f829-4b4c-b668-fdb136da2a5d","system_id":"levelo_inurba_marseille","lat":43.241613,"lon":5.36384,"is_reserved":false,"is_disabled":false,"rental_uris":{"android":"levelo://app?vid=1c5fc464-f829-4b4c-b668-fdb136da2a5d","ios":"levelo://app?vid=1c5fc464-f829-4b4c-b668-fdb136da2a5d"},"vehicle_type_id":"4","last_reported":1752088162,"current_range_meters":6800,"station_id":"ce4bhgh2rcd13ifvqfb0","pricing_plan_id":"cebpf4jnsgd1na2vs0mg"},{"bike_id":"04fab7d7-e7c6-43bb-bcc7-594e1b20303e","system_id":"levelo_inurba_marseille","lat":43.31529,"lon":5.38029,"is_reserved":false,"is_disabled":false,"rental_uris":{"android":"levelo://app?vid=04fab7d7-e7c6-43bb-bcc7-594e1b20303e","ios":"levelo://app?vid=04fab7d7-e7c6-43bb-bcc7-594e1b20303e"},"vehicle_type_id":"4","last_reported":1752088162,"current_range_meters":6800,"station_id":"ce4bhsp2rcd13ifvqi50","pricing_plan_id":"cebpf4jnsgd1na2vs0mg"},{"bike_id":"5d3af78d-28b1-4182-9bc4-d5652c39f61b","system_id":"levelo_inurba_marseille","lat":43.29851,"lon":5.36287,"is_reserved":false,"is_disabled":false,"rental_uris":{"android":"levelo://app?vid=5d3af78d-28b1-4182-9bc4-d5652c39f61b","ios":"levelo://app?vid=5d3af78d-28b1-4182-9bc4-d5652c39f61b"},"vehicle_type_id":"4","last_reported":1752088162,"current_range_meters":7200,"station_id":"ce4bgpp2rcd13ifvqc3g","pricing_plan_id":"cebpf4jnsgd1na2vs0mg"},{"bike_id":"a73e7c52-d9ff-48a2-8a49-8181918535f2","system_id":"levelo_inurba_marseille","lat":43.279968,"lon":5.400065,"is_reserved":false,"is_disabled":false,"rental_uris":{"android":"levelo://app?vid=a73e7c52-d9ff-48a2-8a49-8181918535f2","ios":"levelo://app?vid=a73e7c52-d9ff-48a2-8a49-8181918535f2"},"vehicle_type_id":"4","last_reported":1752088162,"current_range_meters":7200,"station_id":"ce4bho92rcd13ifvqh4g","pricing_plan_id":"cebpf4jnsgd1na2vs0mg"},{"bike_id":"53ba8b3f-11d5-4e0e-a6b2-6dc23689c8c1","system_id":"levelo_inurba_marseille","lat":43.293014,"lon":5.374624,"is_reserved":false,"is_disabled":false,"rental_uris":{"android":"levelo://app?vid=53ba8b3f-11d5-4e0e-a6b2-6dc23689c8c1","ios":"levelo://app?vid=53ba8b3f-11d5-4e0e-a6b2-6dc23689c8c1"},"vehicle_type_id":"4","last_reported":1752088162,"current_range_meters":8000,"station_id":"ce4bgi12rcd13ifvqb70","pricing_plan_id":"cebpf4jnsgd1na2vs0mg"},{"bike_id":"f47b7741-7bf1-45fd-adc4-0fbe8402f2fc","system_id":"levelo_inurba_marseille","lat":43.29272,"lon":5.38439,"is_reserved":false,"is_disabled":false,"rental_uris":{"android":"levelo://app?vid=f47b7741-7bf1-45fd-adc4-0fbe8402f2fc","ios":"levelo://app?vid=f47b7741-7bf1-45fd-adc4-0fbe8402f2fc"},"vehicle_type_id":"4","last_reported":1752088162,"current_range_meters":8000,"station_id":"ce4bh692rcd13ifvqea0","pricing_plan_id":"cebpf4jnsgd1na2vs0mg"},{"bike_id":"75edea03-0180-4718-9ee9-f3dc7fdd7e63","system_id":"levelo_inurba_marseille","lat":43.2927,"lon":5.38436,"is_reserved":false,"is_disabled":false,"rental_uris":{"android":"levelo://app?vid=75edea03-0180-4718-9ee9-f3dc7fdd7e63","ios":"levelo://app?vid=75edea03-0180-4718-9ee9-f3dc7fdd7e63"},"vehicle_type_id":"4","last_reported":1752088162,"current_range_meters":8000,"station_id":"ce4bh692rcd13ifvqea0","pricing_plan_id":"cebpf4jnsgd1na2vs0mg"},{"bike_id":"5d6f30f3-ae86-4d7f-9bbb-88dba67d368a","system_id":"levelo_inurba_marseille","lat":43.274952,"lon":5.424523,"is_reserved":false,"is_disabled":false,"rental_uris":{"android":"levelo://app?vid=5d6f30f3-ae86-4d7f-9bbb-88dba67d368a","ios":"levelo://app?vid=5d6f30f3-ae86-4d7f-9bbb-88dba67d368a"},"vehicle_type_id":"4","last_reported":1752088162,"current_range_meters":8000,"station_id":"ce4bhn92rcd13ifvqgrg","pricing_plan_id":"cebpf4jnsgd1na2vs0mg"},{"bike_id":"d0633b52-30da-463f-bda4-b41bddc8b849","system_id":"levelo_inurba_marseille","lat":43.29967,"lon":5.38493,"is_reserved":false,"is_disabled":false,"rental_uris":{"android":"levelo://app?vid=d0633b52-30da-463f-bda4-b41bddc8b849","ios":"levelo://app?vid=d0633b52-30da-463f-bda4-b41bddc8b849"},"vehicle_type_id":"4","last_reported":1752088162,"current_range_meters":8400,"station_id":"ce4bgj92rcd13ifvqbd0","pricing_plan_id":"cebpf4jnsgd1na2vs0mg"},{"bike_id":"0113edad-d966-4083-b818-d10a69b7436f","system_id":"levelo_inurba_marseille","lat":43.2841,"lon":5.3498,"is_reserved":false,"is_disabled":false,"rental_uris":{"android":"levelo://app?vid=0113edad-d966-4083-b818-d10a69b7436f","ios":"levelo://app?vid=0113edad-d966-4083-b818-d10a69b7436f"},"vehicle_type_id":"4","last_reported":1752088162,"current_range_meters":8400,"station_id":"ce4bhbh2rcd13ifvqepg","pricing_plan_id":"cebpf4jnsgd1na2vs0mg"},{"bike_id":"39553800-36a3-4878-abac-a1797fe3f549","system_id":"levelo_inurba_marseille","lat":43.30729,"lon":5.42457,"is_reserved":false,"is_disabled":false,"rental_uris":{"android":"levelo://app?vid=39553800-36a3-4878-abac-a1797fe3f549","ios":"levelo://app?vid=39553800-36a3-4878-abac-a1797fe3f549"},"vehicle_type_id":"4","last_reported":1752088162,"current_range_meters":8400,"station_id":"st_cvj6ca6bvosntc0bfgr0","pricing_plan_id":"cebpf4jnsgd1na2vs0mg"},{"bike_id":"dfe1b682-637a-43a7-a154-ee4bf060bf2f","system_id":"levelo_inurba_marseille","lat":43.29291,"lon":5.37722,"is_reserved":false,"is_disabled":false,"rental_uris":{"android":"levelo://app?vid=dfe1b682-637a-43a7-a154-ee4bf060bf2f","ios":"levelo://app?vid=dfe1b682-637a-43a7-a154-ee4bf060bf2f"},"vehicle_type_id":"4","last_reported":1752088162,"current_range_meters":8800,"station_id":"","pricing_plan_id":"cebpf4jnsgd1na2vs0mg"},{"bike_id":"3bdc18b6-dbbe-4068-a45e-d8d5647dcfef","system_id":"levelo_inurba_marseille","lat":43.29907,"lon":5.3814,"is_reserved":false,"is_disabled":false,"rental_uris":{"android":"levelo://app?vid=3bdc18b6-dbbe-4068-a45e-d8d5647dcfef","ios":"levelo://app?vid=3bdc18b6-dbbe-4068-a45e-d8d5647dcfef"},"vehicle_type_id":"4","last_reported":1752088162,"current_range_meters":8800,"station_id":"ce4bgj12rcd13ifvqbc0","pricing_plan_id":"cebpf4jnsgd1na2vs0mg"},{"bike_id":"2a398f7f-dc03-4869-a522-0251455e20a5","system_id":"levelo_inurba_marseille","lat":43.29849,"lon":5.3629,"is_reserved":false,"is_disabled":false,"rental_uris":{"android":"levelo://app?vid=2a398f7f-dc03-4869-a522-0251455e20a5","ios":"levelo://app?vid=2a398f7f-dc03-4869-a522-0251455e20a5"},"vehicle_type_id":"4","last_reported":1752088162,"current_range_meters":8800,"station_id":"ce4bgpp2rcd13ifvqc3g","pricing_plan_id":"cebpf4jnsgd1na2vs0mg"},{"bike_id":"c1833c73-e9ad-4cfb-8337-4ff406d29e15","system_id":"levelo_inurba_marseille","lat":43.28614,"lon":5.35102,"is_reserved":false,"is_disabled":false,"rental_uris":{"android":"levelo://app?vid=c1833c73-e9ad-4cfb-8337-4ff406d29e15","ios":"levelo://app?vid=c1833c73-e9ad-4cfb-8337-4ff406d29e15"},"vehicle_type_id":"4","last_reported":1752088162,"current_range_meters":8800,"station_id":"ce4bhch2rcd13ifvqeug","pricing_plan_id":"cebpf4jnsgd1na2vs0mg"},{"bike_id":"3030cb07-c041-4d87-a253-8c849c24aa85","system_id":"levelo_inurba_marseille","lat":43.32649,"lon":5.36246,"is_reserved":false,"is_disabled":false,"rental_uris":{"android":"levelo://app?vid=3030cb07-c041-4d87-a253-8c849c24aa85","ios":"levelo://app?vid=3030cb07-c041-4d87-a253-8c849c24aa85"},"vehicle_type_id":"4","last_reported":1752088162,"current_range_meters":9200,"station_id":"","pricing_plan_id":"cebpf4jnsgd1na2vs0mg"},{"bike_id":"8a3819e2-8c27-4afd-93e0-b688dc5fef09","system_id":"levelo_inurba_marseille","lat":43.30798,"lon":5.38158,"is_reserved":false,"is_disabled":false,"rental_uris":{"android":"levelo://app?vid=8a3819e2-8c27-4afd-93e0-b688dc5fef09","ios":"levelo://app?vid=8a3819e2-8c27-4afd-93e0-b688dc5fef09"},"vehicle_type_id":"4","last_reported":1752088162,"current_range_meters":9200,"station_id":"ce4bgt12rcd13ifvqce0","pricing_plan_id":"cebpf4jnsgd1na2vs0mg"},{"bike_id":"97923d8c-5ed7-45a3-a34d-45a29f2dc5eb","system_id":"levelo_inurba_marseille","lat":43.29233,"lon":5.36045,"is_reserved":false,"is_disabled":false,"rental_uris":{"android":"levelo://app?vid=97923d8c-5ed7-45a3-a34d-45a29f2dc5eb","ios":"levelo://app?vid=97923d8c-5ed7-45a3-a34d-45a29f2dc5eb"},"vehicle_type_id":"4","last_reported":1752088162,"current_range_meters":9200,"station_id":"ce4bhbh2rcd13ifvqeqg","pricing_plan_id":"cebpf4jnsgd1na2vs0mg"},{"bike_id":"496e9315-d10f-4abf-866d-9a167d1a9a53","system_id":"levelo_inurba_marseille","lat":43.2953,"lon":5.38546,"is_reserved":false,"is_disabled":false,"rental_uris":{"android":"levelo://app?vid=496e9315-d10f-4abf-866d-9a167d1a9a53","ios":"levelo://app?vid=496e9315-d10f-4abf-866d-9a167d1a9a53"},"vehicle_type_id":"4","last_reported":1752088162,"current_range_meters":10000,"station_id":"ce4bgih2rcd13ifvqba0","pricing_plan_id":"cebpf4jnsgd1na2vs0mg"},{"bike_id":"74f5dfc3-498d-4a73-96c9-49c7911eca11","system_id":"levelo_inurba_marseille","lat":43.28267,"lon":5.35056,"is_reserved":false,"is_disabled":false,"rental_uris":{"android":"levelo://app?vid=74f5dfc3-498d-4a73-96c9-49c7911eca11","ios":"levelo://app?vid=74f5dfc3-498d-4a73-96c9-49c7911eca11"},"vehicle_type_id":"4","last_reported":1752088162,"current_range_meters":10000,"station_id":"ce4bhbp2rcd13ifvqerg","pricing_plan_id":"cebpf4jnsgd1na2vs0mg"},{"bike_id":"d0b52186-2943-4267-8da8-a909e6a90b7e","system_id":"levelo_inurba_marseille","lat":43.27495,"lon":5.42449,"is_reserved":false,"is_disabled":false,"rental_uris":{"android":"levelo://app?vid=d0b52186-2943-4267-8da8-a909e6a90b7e","ios":"levelo://app?vid=d0b52186-2943-4267-8da8-a909e6a90b7e"},"vehicle_type_id":"4","last_reported":1752088162,"current_range_meters":10000,"station_id":"ce4bhn92rcd13ifvqgrg","pricing_plan_id":"cebpf4jnsgd1na2vs0mg"},{"bike_id":"5db44857-9ed0-4850-a05a-f2fc6bd5fa46","system_id":"levelo_inurba_marseille","lat":43.27977,"lon":5.3845,"is_reserved":false,"is_disabled":false,"rental_uris":{"android":"levelo://app?vid=5db44857-9ed0-4850-a05a-f2fc6bd5fa46","ios":"levelo://app?vid=5db44857-9ed0-4850-a05a-f2fc6bd5fa46"},"vehicle_type_id":"4","last_reported":1752088162,"current_range_meters":10800,"station_id":"","pricing_plan_id":"cebpf4jnsgd1na2vs0mg"},{"bike_id":"9f8d1efb-9ac6-451a-bd46-2c0c917a2797","system_id":"levelo_inurba_marseille","lat":43.29295,"lon":5.37458,"is_reserved":false,"is_disabled":false,"rental_uris":{"android":"levelo://app?vid=9f8d1efb-9ac6-451a-bd46-2c0c917a2797","ios":"levelo://app?vid=9f8d1efb-9ac6-451a-bd46-2c0c917a2797"},"vehicle_type_id":"4","last_reported":1752088162,"current_range_meters":10800,"station_id":"ce4bgi12rcd13ifvqb70","pricing_plan_id":"cebpf4jnsgd1na2vs0mg"},{"bike_id":"b59cb5a9-d499-4781-9bf1-03c1f057c2e3","system_id":"levelo_inurba_marseille","lat":43.29928,"lon":5.36543,"is_reserved":false,"is_disabled":false,"rental_uris":{"android":"levelo://app?vid=b59cb5a9-d499-4781-9bf1-03c1f057c2e3","ios":"levelo://app?vid=b59cb5a9-d499-4781-9bf1-03c1f057c2e3"},"vehicle_type_id":"4","last_reported":1752088162,"current_range_meters":10800,"station_id":"ce4bgm92rcd13ifvqbr0","pricing_plan_id":"cebpf4jnsgd1na2vs0mg"},{"bike_id":"a5a45378-4264-42f2-b962-f0be9b5b8abe","system_id":"levelo_inurba_marseille","lat":43.29932,"lon":5.36556,"is_reserved":false,"is_disabled":false,"rental_uris":{"android":"levelo://app?vid=a5a45378-4264-42f2-b962-f0be9b5b8abe","ios":"levelo://app?vid=a5a45378-4264-42f2-b962-f0be9b5b8abe"},"vehicle_type_id":"4","last_reported":1752088162,"current_range_meters":10800,"station_id":"ce4bgm92rcd13ifvqbr0","pricing_plan_id":"cebpf4jnsgd1na2vs0mg"},{"bike_id":"a03650a7-9d74-4188-9046-d3ca39fa5db9","system_id":"levelo_inurba_marseille","lat":43.284158,"lon":5.349712,"is_reserved":false,"is_disabled":false,"rental_uris":{"android":"levelo://app?vid=a03650a7-9d74-4188-9046-d3ca39fa5db9","ios":"levelo://app?vid=a03650a7-9d74-4188-9046-d3ca39fa5db9"},"vehicle_type_id":"4","last_reported":1752088162,"current_range_meters":10800,"station_id":"ce4bhbh2rcd13ifvqepg","pricing_plan_id":"cebpf4jnsgd1na2vs0mg"},{"bike_id":"830ca46b-969b-473f-8d1d-9113a656779c","system_id":"levelo_inurba_marseille","lat":43.281575,"lon":5.426427,"is_reserved":false,"is_disabled":false,"rental_uris":{"android":"levelo://app?vid=830ca46b-969b-473f-8d1d-9113a656779c","ios":"levelo://app?vid=830ca46b-969b-473f-8d1d-9113a656779c"},"vehicle_type_id":"4","last_reported":1752088162,"current_range_meters":10800,"station_id":"ce4bhnh2rcd13ifvqgug","pricing_plan_id":"cebpf4jnsgd1na2vs0mg"},{"bike_id":"23210e1a-5174-4d90-979a-f335537cdfee","system_id":"levelo_inurba_marseille","lat":43.29701,"lon":5.366,"is_reserved":false,"is_disabled":false,"rental_uris":{"android":"levelo://app?vid=23210e1a-5174-4d90-979a-f335537cdfee","ios":"levelo://app?vid=23210e1a-5174-4d90-979a-f335537cdfee"},"vehicle_type_id":"4","last_reported":1752088162,"current_range_meters":11200,"station_id":"ce4bgn12rcd13ifvqbt0","pricing_plan_id":"cebpf4jnsgd1na2vs0mg"},{"bike_id":"6a3d9e53-d51d-4cd7-bf31-e3f76bd12c2e","system_id":"levelo_inurba_marseille","lat":43.2962,"lon":5.37169,"is_reserved":false,"is_disabled":false,"rental_uris":{"android":"levelo://app?vid=6a3d9e53-d51d-4cd7-bf31-e3f76bd12c2e","ios":"levelo://app?vid=6a3d9e53-d51d-4cd7-bf31-e3f76bd12c2e"},"vehicle_type_id":"4","last_reported":1752088162,"current_range_meters":11200,"station_id":"ce4bgnh2rcd13ifvqc0g","pricing_plan_id":"cebpf4jnsgd1na2vs0mg"},{"bike_id":"60bb23ba-f513-4e2a-bfc7-0a6fd1b6f1c2","system_id":"levelo_inurba_marseille","lat":43.23152,"lon":5.43716,"is_reserved":false,"is_disabled":false,"rental_uris":{"android":"levelo://app?vid=60bb23ba-f513-4e2a-bfc7-0a6fd1b6f1c2","ios":"levelo://app?vid=60bb23ba-f513-4e2a-bfc7-0a6fd1b6f1c2"},"vehicle_type_id":"4","last_reported":1752088162,"current_range_meters":11200,"station_id":"ce4bhmp2rcd13ifvqgog","pricing_plan_id":"cebpf4jnsgd1na2vs0mg"},{"bike_id":"9ecd7f6e-4380-44eb-9a69-e8ae602bac97","system_id":"levelo_inurba_marseille","lat":43.24169,"lon":5.36401,"is_reserved":false,"is_disabled":false,"rental_uris":{"android":"levelo://app?vid=9ecd7f6e-4380-44eb-9a69-e8ae602bac97","ios":"levelo://app?vid=9ecd7f6e-4380-44eb-9a69-e8ae602bac97"},"vehicle_type_id":"4","last_reported":1752088162,"current_range_meters":11200,"station_id":"cpo36qri1sfpv3e86is0","pricing_plan_id":"cebpf4jnsgd1na2vs0mg"},{"bike_id":"84e7e709-4e4f-4764-818c-af719435bfca","system_id":"levelo_inurba_marseille","lat":43.31969,"lon":5.37266,"is_reserved":false,"is_disabled":false,"rental_uris":{"android":"levelo://app?vid=84e7e709-4e4f-4764-818c-af719435bfca","ios":"levelo://app?vid=84e7e709-4e4f-4764-818c-af719435bfca"},"vehicle_type_id":"4","last_reported":1752088162,"current_range_meters":11600,"station_id":"","pricing_plan_id":"cebpf4jnsgd1na2vs0mg"},{"bike_id":"84d20852-2b20-4e8c-a22c-3f7df165829d","system_id":"levelo_inurba_marseille","lat":43.28939,"lon":5.3664,"is_reserved":false,"is_disabled":false,"rental_uris":{"android":"levelo://app?vid=84d20852-2b20-4e8c-a22c-3f7df165829d","ios":"levelo://app?vid=84d20852-2b20-4e8c-a22c-3f7df165829d"},"vehicle_type_id":"4","last_reported":1752088162,"current_range_meters":11600,"station_id":"ce4bhap2rcd13ifvqek0","pricing_plan_id":"cebpf4jnsgd1na2vs0mg"},{"bike_id":"85339cdc-4037-4417-9054-e722f7e495c5","system_id":"levelo_inurba_marseille","lat":43.27377,"lon":5.36251,"is_reserved":false,"is_disabled":false,"rental_uris":{"android":"levelo://app?vid=85339cdc-4037-4417-9054-e722f7e495c5","ios":"levelo://app?vid=85339cdc-4037-4417-9054-e722f7e495c5"},"vehicle_type_id":"4","last_reported":1752088162,"current_range_meters":11600,"station_id":"ce4bhbh2rcd13ifvqeo0","pricing_plan_id":"cebpf4jnsgd1na2vs0mg"},{"bike_id":"86b9b08b-1620-4bce-b388-6a966eb11cb3","system_id":"levelo_inurba_marseille","lat":43.24806,"lon":5.37469,"is_reserved":false,"is_disabled":false,"rental_uris":{"android":"levelo://app?vid=86b9b08b-1620-4bce-b388-6a966eb11cb3","ios":"levelo://app?vid=86b9b08b-1620-4bce-b388-6a966eb11cb3"},"vehicle_type_id":"4","last_reported":1752088162,"current_range_meters":11600,"station_id":"ce4bhgh2rcd13ifvqfb0","pricing_plan_id":"cebpf4jnsgd1na2vs0mg"},{"bike_id":"175c765f-5c18-4218-adb2-081fb4cfe564","system_id":"levelo_inurba_marseille","lat":43.28153,"lon":5.42647,"is_reserved":false,"is_disabled":false,"rental_uris":{"android":"levelo://app?vid=175c765f-5c18-4218-adb2-081fb4cfe564","ios":"levelo://app?vid=175c765f-5c18-4218-adb2-081fb4cfe564"},"vehicle_type_id":"4","last_reported":1752088162,"current_range_meters":11600,"station_id":"ce4bhnh2rcd13ifvqgug","pricing_plan_id":"cebpf4jnsgd1na2vs0mg"},{"bike_id":"b03698a4-2414-4a6a-8a8e-7a3066d44e1c","system_id":"levelo_inurba_marseille","lat":43.26015,"lon":5.41748,"is_reserved":false,"is_disabled":false,"rental_uris":{"android":"levelo://app?vid=b03698a4-2414-4a6a-8a8e-7a3066d44e1c","ios":"levelo://app?vid=b03698a4-2414-4a6a-8a8e-7a3066d44e1c"},"vehicle_type_id":"4","last_reported":1752088162,"current_range_meters":12000,"station_id":"","pricing_plan_id":"cebpf4jnsgd1na2vs0mg"},{"bike_id":"35361cf0-7a2b-4533-a38b-c4b36cb47ed1","system_id":"levelo_inurba_marseille","lat":43.24871,"lon":5.37372,"is_reserved":false,"is_disabled":false,"rental_uris":{"android":"levelo://app?vid=35361cf0-7a2b-4533-a38b-c4b36cb47ed1","ios":"levelo://app?vid=35361cf0-7a2b-4533-a38b-c4b36cb47ed1"},"vehicle_type_id":"4","last_reported":1752088162,"current_range_meters":12000,"station_id":"","pricing_plan_id":"cebpf4jnsgd1na2vs0mg"},{"bike_id":"f573a8fb-f1f8-47c4-901e-ddf2739a5cca","system_id":"levelo_inurba_marseille","lat":43.35997,"lon":5.32464,"is_reserved":false,"is_disabled":false,"rental_uris":{"android":"levelo://app?vid=f573a8fb-f1f8-47c4-901e-ddf2739a5cca","ios":"levelo://app?vid=f573a8fb-f1f8-47c4-901e-ddf2739a5cca"},"vehicle_type_id":"4","last_reported":1752088162,"current_range_meters":12000,"station_id":"","pricing_plan_id":"cebpf4jnsgd1na2vs0mg"},{"bike_id":"8396e4d6-98a0-4c33-bee0-4f8d4258a95c","system_id":"levelo_inurba_marseille","lat":43.29523,"lon":5.39039,"is_reserved":false,"is_disabled":false,"rental_uris":{"android":"levelo://app?vid=8396e4d6-98a0-4c33-bee0-4f8d4258a95c","ios":"levelo://app?vid=8396e4d6-98a0-4c33-bee0-4f8d4258a95c"},"vehicle_type_id":"4","last_reported":1752088162,"current_range_meters":12000,"station_id":"ce4bh3p2rcd13ifvqdp0","pricing_plan_id":"cebpf4jnsgd1na2vs0mg"},{"bike_id":"53919a90-267a-4543-85c6-768e0b2f13d8","system_id":"levelo_inurba_marseille","lat":43.24175,"lon":5.36405,"is_reserved":false,"is_disabled":false,"rental_uris":{"android":"levelo://app?vid=53919a90-267a-4543-85c6-768e0b2f13d8","ios":"levelo://app?vid=53919a90-267a-4543-85c6-768e0b2f13d8"},"vehicle_type_id":"4","last_reported":1752088162,"current_range_meters":12000,"station_id":"cpo36qri1sfpv3e86is0","pricing_plan_id":"cebpf4jnsgd1na2vs0mg"},{"bike_id":"c2b72fe0-bae6-4c7b-ad48-9e771b203dc8","system_id":"levelo_inurba_marseille","lat":43.3136,"lon":5.38458,"is_reserved":false,"is_disabled":false,"rental_uris":{"android":"levelo://app?vid=c2b72fe0-bae6-4c7b-ad48-9e771b203dc8","ios":"levelo://app?vid=c2b72fe0-bae6-4c7b-ad48-9e771b203dc8"},"vehicle_type_id":"4","last_reported":1752088162,"current_range_meters":12400,"station_id":"ce4bgt92rcd13ifvqcf0","pricing_plan_id":"cebpf4jnsgd1na2vs0mg"},{"bike_id":"bed481c4-6cbc-4e3b-8dda-8f8d652205d8","system_id":"levelo_inurba_marseille","lat":43.28854,"lon":5.35842,"is_reserved":false,"is_disabled":false,"rental_uris":{"android":"levelo://app?vid=bed481c4-6cbc-4e3b-8dda-8f8d652205d8","ios":"levelo://app?vid=bed481c4-6cbc-4e3b-8dda-8f8d652205d8"},"vehicle_type_id":"4","last_reported":1752088162,"current_range_meters":12400,"station_id":"ce4bhb12rcd13ifvqem0","pricing_plan_id":"cebpf4jnsgd1na2vs0mg"},{"bike_id":"db841109-9b56-4777-86e2-06fbf4ef1649","system_id":"levelo_inurba_marseille","lat":43.30211,"lon":5.38015,"is_reserved":false,"is_disabled":false,"rental_uris":{"android":"levelo://app?vid=db841109-9b56-4777-86e2-06fbf4ef1649","ios":"levelo://app?vid=db841109-9b56-4777-86e2-06fbf4ef1649"},"vehicle_type_id":"4","last_reported":1752088162,"current_range_meters":12800,"station_id":"","pricing_plan_id":"cebpf4jnsgd1na2vs0mg"},{"bike_id":"5db8e34c-f3b1-4dd1-ab16-d176c227d34b","system_id":"levelo_inurba_marseille","lat":43.298427,"lon":5.362797,"is_reserved":false,"is_disabled":false,"rental_uris":{"android":"levelo://app?vid=5db8e34c-f3b1-4dd1-ab16-d176c227d34b","ios":"levelo://app?vid=5db8e34c-f3b1-4dd1-ab16-d176c227d34b"},"vehicle_type_id":"4","last_reported":1752088162,"current_range_meters":12800,"station_id":"ce4bgpp2rcd13ifvqc3g","pricing_plan_id":"cebpf4jnsgd1na2vs0mg"},{"bike_id":"3cd3d80f-eb1e-4cbd-966f-3923b3686969","system_id":"levelo_inurba_marseille","lat":43.280259,"lon":5.369423,"is_reserved":false,"is_disabled":false,"rental_uris":{"android":"levelo://app?vid=3cd3d80f-eb1e-4cbd-966f-3923b3686969","ios":"levelo://app?vid=3cd3d80f-eb1e-4cbd-966f-3923b3686969"},"vehicle_type_id":"4","last_reported":1752088162,"current_range_meters":12800,"station_id":"ce4bha12rcd13ifvqef0","pricing_plan_id":"cebpf4jnsgd1na2vs0mg"},{"bike_id":"7dc48cb7-b742-4446-8d3e-f56bc6d6cf97","system_id":"levelo_inurba_marseille","lat":43.26196,"lon":5.37443,"is_reserved":false,"is_disabled":false,"rental_uris":{"android":"levelo://app?vid=7dc48cb7-b742-4446-8d3e-f56bc6d6cf97","ios":"levelo://app?vid=7dc48cb7-b742-4446-8d3e-f56bc6d6cf97"},"vehicle_type_id":"4","last_reported":1752088162,"current_range_meters":12800,"station_id":"ce4bhgp2rcd13ifvqfc0","pricing_plan_id":"cebpf4jnsgd1na2vs0mg"},{"bike_id":"c514ad25-b83c-4d10-a595-57ae5a32aef4","system_id":"levelo_inurba_marseille","lat":43.22945,"lon":5.35363,"is_reserved":false,"is_disabled":false,"rental_uris":{"android":"levelo://app?vid=c514ad25-b83c-4d10-a595-57ae5a32aef4","ios":"levelo://app?vid=c514ad25-b83c-4d10-a595-57ae5a32aef4"},"vehicle_type_id":"4","last_reported":1752088162,"current_range_meters":12800,"station_id":"cpo3532slgdg3j2ikp40","pricing_plan_id":"cebpf4jnsgd1na2vs0mg"},{"bike_id":"4975b22d-8c48-452f-bd19-7a9d3ed7c378","system_id":"levelo_inurba_marseille","lat":43.29676,"lon":5.37424,"is_reserved":false,"is_disabled":false,"rental_uris":{"android":"levelo://app?vid=4975b22d-8c48-452f-bd19-7a9d3ed7c378","ios":"levelo://app?vid=4975b22d-8c48-452f-bd19-7a9d3ed7c378"},"vehicle_type_id":"4","last_reported":1752088162,"current_range_meters":13600,"station_id":"","pricing_plan_id":"cebpf4jnsgd1na2vs0mg"},{"bike_id":"d40cbb38-5376-4c32-8b44-5ac54a6ebccc","system_id":"levelo_inurba_marseille","lat":43.2984,"lon":5.36272,"is_reserved":false,"is_disabled":false,"rental_uris":{"android":"levelo://app?vid=d40cbb38-5376-4c32-8b44-5ac54a6ebccc","ios":"levelo://app?vid=d40cbb38-5376-4c32-8b44-5ac54a6ebccc"},"vehicle_type_id":"4","last_reported":1752088162,"current_range_meters":13600,"station_id":"ce4bgpp2rcd13ifvqc3g","pricing_plan_id":"cebpf4jnsgd1na2vs0mg"},{"bike_id":"63177951-27bc-4cb8-bcf8-0bc3e8e0e208","system_id":"levelo_inurba_marseille","lat":43.282747,"lon":5.350572,"is_reserved":false,"is_disabled":false,"rental_uris":{"android":"levelo://app?vid=63177951-27bc-4cb8-bcf8-0bc3e8e0e208","ios":"levelo://app?vid=63177951-27bc-4cb8-bcf8-0bc3e8e0e208"},"vehicle_type_id":"4","last_reported":1752088162,"current_range_meters":13600,"station_id":"ce4bhbp2rcd13ifvqerg","pricing_plan_id":"cebpf4jnsgd1na2vs0mg"},{"bike_id":"ccc857fd-baa8-4cbd-b171-eddca4801c5a","system_id":"levelo_inurba_marseille","lat":43.26953,"lon":5.38623,"is_reserved":false,"is_disabled":false,"rental_uris":{"android":"levelo://app?vid=ccc857fd-baa8-4cbd-b171-eddca4801c5a","ios":"levelo://app?vid=ccc857fd-baa8-4cbd-b171-eddca4801c5a"},"vehicle_type_id":"4","last_reported":1752088162,"current_range_meters":13600,"station_id":"ce4bhh92rcd13ifvqfh0","pricing_plan_id":"cebpf4jnsgd1na2vs0mg"},{"bike_id":"f5c16f07-bc6f-4121-91a7-5ad90eec4f34","system_id":"levelo_inurba_marseille","lat":43.31203,"lon":5.37294,"is_reserved":false,"is_disabled":false,"rental_uris":{"android":"levelo://app?vid=f5c16f07-bc6f-4121-91a7-5ad90eec4f34","ios":"levelo://app?vid=f5c16f07-bc6f-4121-91a7-5ad90eec4f34"},"vehicle_type_id":"4","last_reported":1752088162,"current_range_meters":14000,"station_id":"","pricing_plan_id":"cebpf4jnsgd1na2vs0mg"},{"bike_id":"e87d9566-a837-4c78-acc9-8a1366e1f719","system_id":"levelo_inurba_marseille","lat":43.29581,"lon":5.3674,"is_reserved":false,"is_disabled":false,"rental_uris":{"android":"levelo://app?vid=e87d9566-a837-4c78-acc9-8a1366e1f719","ios":"levelo://app?vid=e87d9566-a837-4c78-acc9-8a1366e1f719"},"vehicle_type_id":"4","last_reported":1752088162,"current_range_meters":14000,"station_id":"ce4bgph2rcd13ifvqc2g","pricing_plan_id":"cebpf4jnsgd1na2vs0mg"},{"bike_id":"9b1d209e-03e4-4352-aea8-5e2284e7adad","system_id":"levelo_inurba_marseille","lat":43.31702,"lon":5.37754,"is_reserved":false,"is_disabled":false,"rental_uris":{"android":"levelo://app?vid=9b1d209e-03e4-4352-aea8-5e2284e7adad","ios":"levelo://app?vid=9b1d209e-03e4-4352-aea8-5e2284e7adad"},"vehicle_type_id":"4","last_reported":1752088162,"current_range_meters":14000,"station_id":"ce4bgth2rcd13ifvqch0","pricing_plan_id":"cebpf4jnsgd1na2vs0mg"},{"bike_id":"57aa09d2-2abd-4766-95d4-8158196b12c2","system_id":"levelo_inurba_marseille","lat":43.28922,"lon":5.38385,"is_reserved":false,"is_disabled":false,"rental_uris":{"android":"levelo://app?vid=57aa09d2-2abd-4766-95d4-8158196b12c2","ios":"levelo://app?vid=57aa09d2-2abd-4766-95d4-8158196b12c2"},"vehicle_type_id":"4","last_reported":1752088162,"current_range_meters":14000,"station_id":"ce4bh612rcd13ifvqe6g","pricing_plan_id":"cebpf4jnsgd1na2vs0mg"},{"bike_id":"b6d9b946-f66a-4c6f-96e5-5d23e176360c","system_id":"levelo_inurba_marseille","lat":43.31315,"lon":5.38172,"is_reserved":false,"is_disabled":false,"rental_uris":{"android":"levelo://app?vid=b6d9b946-f66a-4c6f-96e5-5d23e176360c","ios":"levelo://app?vid=b6d9b946-f66a-4c6f-96e5-5d23e176360c"},"vehicle_type_id":"4","last_reported":1752088162,"current_range_meters":14400,"station_id":"","pricing_plan_id":"cebpf4jnsgd1na2vs0mg"},{"bike_id":"b2caa530-bb19-4cc6-a6bd-61e3e1d7432e","system_id":"levelo_inurba_marseille","lat":43.33763,"lon":5.37461,"is_reserved":false,"is_disabled":false,"rental_uris":{"android":"levelo://app?vid=b2caa530-bb19-4cc6-a6bd-61e3e1d7432e","ios":"levelo://app?vid=b2caa530-bb19-4cc6-a6bd-61e3e1d7432e"},"vehicle_type_id":"4","last_reported":1752088162,"current_range_meters":14400,"station_id":"","pricing_plan_id":"cebpf4jnsgd1na2vs0mg"},{"bike_id":"93d6be08-2471-48d7-9948-c35dc9626201","system_id":"levelo_inurba_marseille","lat":43.31714,"lon":5.37647,"is_reserved":false,"is_disabled":false,"rental_uris":{"android":"levelo://app?vid=93d6be08-2471-48d7-9948-c35dc9626201","ios":"levelo://app?vid=93d6be08-2471-48d7-9948-c35dc9626201"},"vehicle_type_id":"4","last_reported":1752088162,"current_range_meters":14400,"station_id":"","pricing_plan_id":"cebpf4jnsgd1na2vs0mg"},{"bike_id":"e7c695ee-a97e-48cd-8b68-3326e1c68ae1","system_id":"levelo_inurba_marseille","lat":43.29273,"lon":5.3684,"is_reserved":false,"is_disabled":false,"rental_uris":{"android":"levelo://app?vid=e7c695ee-a97e-48cd-8b68-3326e1c68ae1","ios":"levelo://app?vid=e7c695ee-a97e-48cd-8b68-3326e1c68ae1"},"vehicle_type_id":"4","last_reported":1752088162,"current_range_meters":14400,"station_id":"ce4bhbp2rcd13ifvqesg","pricing_plan_id":"cebpf4jnsgd1na2vs0mg"},{"bike_id":"348a1626-12e7-4b18-a7ec-18b66976fbcb","system_id":"levelo_inurba_marseille","lat":43.26206,"lon":5.37448,"is_reserved":false,"is_disabled":false,"rental_uris":{"android":"levelo://app?vid=348a1626-12e7-4b18-a7ec-18b66976fbcb","ios":"levelo://app?vid=348a1626-12e7-4b18-a7ec-18b66976fbcb"},"vehicle_type_id":"4","last_reported":1752088162,"current_range_meters":14400,"station_id":"ce4bhgp2rcd13ifvqfc0","pricing_plan_id":"cebpf4jnsgd1na2vs0mg"},{"bike_id":"2fa231de-f74d-4e49-b569-19825602707e","system_id":"levelo_inurba_marseille","lat":43.23965,"lon":5.36631,"is_reserved":false,"is_disabled":false,"rental_uris":{"android":"levelo://app?vid=2fa231de-f74d-4e49-b569-19825602707e","ios":"levelo://app?vid=2fa231de-f74d-4e49-b569-19825602707e"},"vehicle_type_id":"4","last_reported":1752088162,"current_range_meters":14400,"station_id":"ce4bhi12rcd13ifvqfp0","pricing_plan_id":"cebpf4jnsgd1na2vs0mg"},{"bike_id":"449ed129-2f06-47da-936f-6e63a3609258","system_id":"levelo_inurba_marseille","lat":43.23199,"lon":5.35536,"is_reserved":false,"is_disabled":false,"rental_uris":{"android":"levelo://app?vid=449ed129-2f06-47da-936f-6e63a3609258","ios":"levelo://app?vid=449ed129-2f06-47da-936f-6e63a3609258"},"vehicle_type_id":"4","last_reported":1752088162,"current_range_meters":14400,"station_id":"ce4bhu92rcd13ifvqi70","pricing_plan_id":"cebpf4jnsgd1na2vs0mg"},{"bike_id":"cd241c9c-2798-4e9f-bea8-0a3722bddbc3","system_id":"levelo_inurba_marseille","lat":43.2695,"lon":5.40279,"is_reserved":false,"is_disabled":false,"rental_uris":{"android":"levelo://app?vid=cd241c9c-2798-4e9f-bea8-0a3722bddbc3","ios":"levelo://app?vid=cd241c9c-2798-4e9f-bea8-0a3722bddbc3"},"vehicle_type_id":"4","last_reported":1752088162,"current_range_meters":14400,"station_id":"cjm6bp8fraef2m0cb0m0","pricing_plan_id":"cebpf4jnsgd1na2vs0mg"},{"bike_id":"b757ffbb-2b71-4330-9f60-5f8a9d46d16e","system_id":"levelo_inurba_marseille","lat":43.29638,"lon":5.3711,"is_reserved":false,"is_disabled":false,"rental_uris":{"android":"levelo://app?vid=b757ffbb-2b71-4330-9f60-5f8a9d46d16e","ios":"levelo://app?vid=b757ffbb-2b71-4330-9f60-5f8a9d46d16e"},"vehicle_type_id":"4","last_reported":1752088162,"current_range_meters":14800,"station_id":"ce4bgnh2rcd13ifvqc0g","pricing_plan_id":"cebpf4jnsgd1na2vs0mg"},{"bike_id":"a36d0f0b-1d61-451b-8128-72e7a76cb801","system_id":"levelo_inurba_marseille","lat":43.29858,"lon":5.36263,"is_reserved":false,"is_disabled":false,"rental_uris":{"android":"levelo://app?vid=a36d0f0b-1d61-451b-8128-72e7a76cb801","ios":"levelo://app?vid=a36d0f0b-1d61-451b-8128-72e7a76cb801"},"vehicle_type_id":"4","last_reported":1752088162,"current_range_meters":14800,"station_id":"ce4bgpp2rcd13ifvqc3g","pricing_plan_id":"cebpf4jnsgd1na2vs0mg"},{"bike_id":"430167f3-0b1b-46ce-ab53-df9da93c2bd5","system_id":"levelo_inurba_marseille","lat":43.2984,"lon":5.36243,"is_reserved":false,"is_disabled":false,"rental_uris":{"android":"levelo://app?vid=430167f3-0b1b-46ce-ab53-df9da93c2bd5","ios":"levelo://app?vid=430167f3-0b1b-46ce-ab53-df9da93c2bd5"},"vehicle_type_id":"4","last_reported":1752088162,"current_range_meters":14800,"station_id":"ce4bgpp2rcd13ifvqc3g","pricing_plan_id":"cebpf4jnsgd1na2vs0mg"},{"bike_id":"b764ed58-c632-4394-8be1-a4dcfd45bb04","system_id":"levelo_inurba_marseille","lat":43.31365,"lon":5.38505,"is_reserved":false,"is_disabled":false,"rental_uris":{"android":"levelo://app?vid=b764ed58-c632-4394-8be1-a4dcfd45bb04","ios":"levelo://app?vid=b764ed58-c632-4394-8be1-a4dcfd45bb04"},"vehicle_type_id":"4","last_reported":1752088162,"current_range_meters":14800,"station_id":"ce4bgt92rcd13ifvqcf0","pricing_plan_id":"cebpf4jnsgd1na2vs0mg"},{"bike_id":"88e36905-9185-42cd-b3d3-afce6da694d5","system_id":"levelo_inurba_marseille","lat":43.2603,"lon":5.37541,"is_reserved":false,"is_disabled":false,"rental_uris":{"android":"levelo://app?vid=88e36905-9185-42cd-b3d3-afce6da694d5","ios":"levelo://app?vid=88e36905-9185-42cd-b3d3-afce6da694d5"},"vehicle_type_id":"4","last_reported":1752088162,"current_range_meters":14800,"station_id":"ce4bhgh2rcd13ifvqfa0","pricing_plan_id":"cebpf4jnsgd1na2vs0mg"},{"bike_id":"7d7fadfa-d0da-4e5c-8341-70ccc392ee85","system_id":"levelo_inurba_marseille","lat":43.26212,"lon":5.37437,"is_reserved":false,"is_disabled":false,"rental_uris":{"android":"levelo://app?vid=7d7fadfa-d0da-4e5c-8341-70ccc392ee85","ios":"levelo://app?vid=7d7fadfa-d0da-4e5c-8341-70ccc392ee85"},"vehicle_type_id":"4","last_reported":1752088162,"current_range_meters":14800,"station_id":"ce4bhgp2rcd13ifvqfc0","pricing_plan_id":"cebpf4jnsgd1na2vs0mg"},{"bike_id":"6e5c2657-ccb8-4153-8b94-2143bc427a03","system_id":"levelo_inurba_marseille","lat":43.22478,"lon":5.34744,"is_reserved":false,"is_disabled":false,"rental_uris":{"android":"levelo://app?vid=6e5c2657-ccb8-4153-8b94-2143bc427a03","ios":"levelo://app?vid=6e5c2657-ccb8-4153-8b94-2143bc427a03"},"vehicle_type_id":"4","last_reported":1752088162,"current_range_meters":14800,"station_id":"st_cvj5dfep6f1abm77gieg","pricing_plan_id":"cebpf4jnsgd1na2vs0mg"},{"bike_id":"d55fd1a7-1cd7-4acd-90f9-e0e142dda3b0","system_id":"levelo_inurba_marseille","lat":43.29846,"lon":5.36277,"is_reserved":false,"is_disabled":false,"rental_uris":{"android":"levelo://app?vid=d55fd1a7-1cd7-4acd-90f9-e0e142dda3b0","ios":"levelo://app?vid=d55fd1a7-1cd7-4acd-90f9-e0e142dda3b0"},"vehicle_type_id":"4","last_reported":1752088162,"current_range_meters":15200,"station_id":"ce4bgpp2rcd13ifvqc3g","pricing_plan_id":"cebpf4jnsgd1na2vs0mg"},{"bike_id":"8b07054c-c8b0-402f-b324-313f0e15b8d8","system_id":"levelo_inurba_marseille","lat":43.29274,"lon":5.36835,"is_reserved":false,"is_disabled":false,"rental_uris":{"android":"levelo://app?vid=8b07054c-c8b0-402f-b324-313f0e15b8d8","ios":"levelo://app?vid=8b07054c-c8b0-402f-b324-313f0e15b8d8"},"vehicle_type_id":"4","last_reported":1752088162,"current_range_meters":15200,"station_id":"ce4bhbp2rcd13ifvqesg","pricing_plan_id":"cebpf4jnsgd1na2vs0mg"},{"bike_id":"c88498d3-407a-4954-8385-87664db936e3","system_id":"levelo_inurba_marseille","lat":43.24817,"lon":5.37446,"is_reserved":false,"is_disabled":false,"rental_uris":{"android":"levelo://app?vid=c88498d3-407a-4954-8385-87664db936e3","ios":"levelo://app?vid=c88498d3-407a-4954-8385-87664db936e3"},"vehicle_type_id":"4","last_reported":1752088162,"current_range_meters":15200,"station_id":"ce4bhgh2rcd13ifvqfb0","pricing_plan_id":"cebpf4jnsgd1na2vs0mg"},{"bike_id":"6aabd7ac-c592-468e-b23f-1ad4aed50414","system_id":"levelo_inurba_marseille","lat":43.251129,"lon":5.395072,"is_reserved":false,"is_disabled":false,"rental_uris":{"android":"levelo://app?vid=6aabd7ac-c592-468e-b23f-1ad4aed50414","ios":"levelo://app?vid=6aabd7ac-c592-468e-b23f-1ad4aed50414"},"vehicle_type_id":"4","last_reported":1752088162,"current_range_meters":15200,"station_id":"ce4bhm12rcd13ifvqgkg","pricing_plan_id":"cebpf4jnsgd1na2vs0mg"},{"bike_id":"1be39311-cfa5-4cbb-b93d-fb0870d6e611","system_id":"levelo_inurba_marseille","lat":43.211946,"lon":5.350726,"is_reserved":false,"is_disabled":false,"rental_uris":{"android":"levelo://app?vid=1be39311-cfa5-4cbb-b93d-fb0870d6e611","ios":"levelo://app?vid=1be39311-cfa5-4cbb-b93d-fb0870d6e611"},"vehicle_type_id":"4","last_reported":1752088162,"current_range_meters":15200,"station_id":"st_cvj6sg6p6f1abm77japg","pricing_plan_id":"cebpf4jnsgd1na2vs0mg"},{"bike_id":"320f2a33-deaa-4e0a-a3d5-c39ce8ad680a","system_id":"levelo_inurba_marseille","lat":43.31569,"lon":5.37407,"is_reserved":false,"is_disabled":false,"rental_uris":{"android":"levelo://app?vid=320f2a33-deaa-4e0a-a3d5-c39ce8ad680a","ios":"levelo://app?vid=320f2a33-deaa-4e0a-a3d5-c39ce8ad680a"},"vehicle_type_id":"4","last_reported":1752088162,"current_range_meters":16000,"station_id":"","pricing_plan_id":"cebpf4jnsgd1na2vs0mg"},{"bike_id":"4a69cd1c-a9bd-4bb6-b294-335eb9c2ac5d","system_id":"levelo_inurba_marseille","lat":43.26678,"lon":5.38175,"is_reserved":false,"is_disabled":false,"rental_uris":{"android":"levelo://app?vid=4a69cd1c-a9bd-4bb6-b294-335eb9c2ac5d","ios":"levelo://app?vid=4a69cd1c-a9bd-4bb6-b294-335eb9c2ac5d"},"vehicle_type_id":"4","last_reported":1752088162,"current_range_meters":16000,"station_id":"","pricing_plan_id":"cebpf4jnsgd1na2vs0mg"},{"bike_id":"91828ce3-3c2e-42f4-8cdb-398219522ac1","system_id":"levelo_inurba_marseille","lat":43.27648,"lon":5.36111,"is_reserved":false,"is_disabled":false,"rental_uris":{"android":"levelo://app?vid=91828ce3-3c2e-42f4-8cdb-398219522ac1","ios":"levelo://app?vid=91828ce3-3c2e-42f4-8cdb-398219522ac1"},"vehicle_type_id":"4","last_reported":1752088162,"current_range_meters":16000,"station_id":"ce4bgj92rcd13ifvqbe0","pricing_plan_id":"cebpf4jnsgd1na2vs0mg"},{"bike_id":"4a8e1ba7-6a98-4773-8aa5-c978babfdc0d","system_id":"levelo_inurba_marseille","lat":43.27615,"lon":5.36103,"is_reserved":false,"is_disabled":false,"rental_uris":{"android":"levelo://app?vid=4a8e1ba7-6a98-4773-8aa5-c978babfdc0d","ios":"levelo://app?vid=4a8e1ba7-6a98-4773-8aa5-c978babfdc0d"},"vehicle_type_id":"4","last_reported":1752088162,"current_range_meters":16000,"station_id":"ce4bgj92rcd13ifvqbe0","pricing_plan_id":"cebpf4jnsgd1na2vs0mg"},{"bike_id":"b9aad953-9bed-4824-834b-f3f50fd8c58d","system_id":"levelo_inurba_marseille","lat":43.28419,"lon":5.34986,"is_reserved":false,"is_disabled":false,"rental_uris":{"android":"levelo://app?vid=b9aad953-9bed-4824-834b-f3f50fd8c58d","ios":"levelo://app?vid=b9aad953-9bed-4824-834b-f3f50fd8c58d"},"vehicle_type_id":"4","last_reported":1752088162,"current_range_meters":16000,"station_id":"ce4bhbh2rcd13ifvqepg","pricing_plan_id":"cebpf4jnsgd1na2vs0mg"},{"bike_id":"fddf98af-7a8e-44e9-98b4-31edfd219c6c","system_id":"levelo_inurba_marseille","lat":43.27993,"lon":5.40013,"is_reserved":false,"is_disabled":false,"rental_uris":{"android":"levelo://app?vid=fddf98af-7a8e-44e9-98b4-31edfd219c6c","ios":"levelo://app?vid=fddf98af-7a8e-44e9-98b4-31edfd219c6c"},"vehicle_type_id":"4","last_reported":1752088162,"current_range_meters":16000,"station_id":"ce4bho92rcd13ifvqh4g","pricing_plan_id":"cebpf4jnsgd1na2vs0mg"},{"bike_id":"191da7b9-bed7-4843-89f5-6df19e076b49","system_id":"levelo_inurba_marseille","lat":43.28571,"lon":5.35157,"is_reserved":false,"is_disabled":false,"rental_uris":{"android":"levelo://app?vid=191da7b9-bed7-4843-89f5-6df19e076b49","ios":"levelo://app?vid=191da7b9-bed7-4843-89f5-6df19e076b49"},"vehicle_type_id":"4","last_reported":1752088162,"current_range_meters":16400,"station_id":"","pricing_plan_id":"cebpf4jnsgd1na2vs0mg"},{"bike_id":"8499f926-e5ed-40ac-baee-4957d3b7e143","system_id":"levelo_inurba_marseille","lat":43.29303,"lon":5.37462,"is_reserved":false,"is_disabled":false,"rental_uris":{"android":"levelo://app?vid=8499f926-e5ed-40ac-baee-4957d3b7e143","ios":"levelo://app?vid=8499f926-e5ed-40ac-baee-4957d3b7e143"},"vehicle_type_id":"4","last_reported":1752088162,"current_range_meters":16400,"station_id":"ce4bgi12rcd13ifvqb70","pricing_plan_id":"cebpf4jnsgd1na2vs0mg"},{"bike_id":"7dd4258d-8fe1-466b-bba8-036a896c4262","system_id":"levelo_inurba_marseille","lat":43.23195,"lon":5.3553,"is_reserved":false,"is_disabled":false,"rental_uris":{"android":"levelo://app?vid=7dd4258d-8fe1-466b-bba8-036a896c4262","ios":"levelo://app?vid=7dd4258d-8fe1-466b-bba8-036a896c4262"},"vehicle_type_id":"4","last_reported":1752088162,"current_range_meters":16400,"station_id":"ce4bhu92rcd13ifvqi70","pricing_plan_id":"cebpf4jnsgd1na2vs0mg"},{"bike_id":"a21cbf92-4d2b-4395-b85f-f1dfb757cc59","system_id":"levelo_inurba_marseille","lat":43.298429,"lon":5.362705,"is_reserved":false,"is_disabled":false,"rental_uris":{"android":"levelo://app?vid=a21cbf92-4d2b-4395-b85f-f1dfb757cc59","ios":"levelo://app?vid=a21cbf92-4d2b-4395-b85f-f1dfb757cc59"},"vehicle_type_id":"4","last_reported":1752088162,"current_range_meters":16800,"station_id":"ce4bgpp2rcd13ifvqc3g","pricing_plan_id":"cebpf4jnsgd1na2vs0mg"},{"bike_id":"dff0af8b-adaf-419e-8250-aabcdc4a82fb","system_id":"levelo_inurba_marseille","lat":43.28934,"lon":5.36642,"is_reserved":false,"is_disabled":false,"rental_uris":{"android":"levelo://app?vid=dff0af8b-adaf-419e-8250-aabcdc4a82fb","ios":"levelo://app?vid=dff0af8b-adaf-419e-8250-aabcdc4a82fb"},"vehicle_type_id":"4","last_reported":1752088162,"current_range_meters":16800,"station_id":"ce4bhap2rcd13ifvqek0","pricing_plan_id":"cebpf4jnsgd1na2vs0mg"},{"bike_id":"367485b7-87d1-4616-a7ee-358054e3543b","system_id":"levelo_inurba_marseille","lat":43.2737,"lon":5.36252,"is_reserved":false,"is_disabled":false,"rental_uris":{"android":"levelo://app?vid=367485b7-87d1-4616-a7ee-358054e3543b","ios":"levelo://app?vid=367485b7-87d1-4616-a7ee-358054e3543b"},"vehicle_type_id":"4","last_reported":1752088162,"current_range_meters":16800,"station_id":"ce4bhbh2rcd13ifvqeo0","pricing_plan_id":"cebpf4jnsgd1na2vs0mg"},{"bike_id":"1ee3caf5-59c2-452b-913a-5b7e597c4fb3","system_id":"levelo_inurba_marseille","lat":43.27374,"lon":5.36253,"is_reserved":false,"is_disabled":false,"rental_uris":{"android":"levelo://app?vid=1ee3caf5-59c2-452b-913a-5b7e597c4fb3","ios":"levelo://app?vid=1ee3caf5-59c2-452b-913a-5b7e597c4fb3"},"vehicle_type_id":"4","last_reported":1752088162,"current_range_meters":16800,"station_id":"ce4bhbh2rcd13ifvqeo0","pricing_plan_id":"cebpf4jnsgd1na2vs0mg"},{"bike_id":"de8d5a3d-6620-44dc-b1ec-80ec8253da1b","system_id":"levelo_inurba_marseille","lat":43.28424,"lon":5.34985,"is_reserved":false,"is_disabled":false,"rental_uris":{"android":"levelo://app?vid=de8d5a3d-6620-44dc-b1ec-80ec8253da1b","ios":"levelo://app?vid=de8d5a3d-6620-44dc-b1ec-80ec8253da1b"},"vehicle_type_id":"4","last_reported":1752088162,"current_range_meters":16800,"station_id":"ce4bhbh2rcd13ifvqepg","pricing_plan_id":"cebpf4jnsgd1na2vs0mg"},{"bike_id":"9d2e056a-5a76-483e-bd70-1ba4cc8582d9","system_id":"levelo_inurba_marseille","lat":43.28276,"lon":5.35047,"is_reserved":false,"is_disabled":false,"rental_uris":{"android":"levelo://app?vid=9d2e056a-5a76-483e-bd70-1ba4cc8582d9","ios":"levelo://app?vid=9d2e056a-5a76-483e-bd70-1ba4cc8582d9"},"vehicle_type_id":"4","last_reported":1752088162,"current_range_meters":16800,"station_id":"ce4bhbp2rcd13ifvqerg","pricing_plan_id":"cebpf4jnsgd1na2vs0mg"},{"bike_id":"feacc0a7-87c6-4a0b-b89a-064bef472b0c","system_id":"levelo_inurba_marseille","lat":43.29195,"lon":5.39311,"is_reserved":false,"is_disabled":false,"rental_uris":{"android":"levelo://app?vid=feacc0a7-87c6-4a0b-b89a-064bef472b0c","ios":"levelo://app?vid=feacc0a7-87c6-4a0b-b89a-064bef472b0c"},"vehicle_type_id":"4","last_reported":1752088162,"current_range_meters":17200,"station_id":"ce4bh192rcd13ifvqdd0","pricing_plan_id":"cebpf4jnsgd1na2vs0mg"},{"bike_id":"b75cd7c6-cc7a-49ab-ace1-7f75243e9765","system_id":"levelo_inurba_marseille","lat":43.260132,"lon":5.375328,"is_reserved":false,"is_disabled":false,"rental_uris":{"android":"levelo://app?vid=b75cd7c6-cc7a-49ab-ace1-7f75243e9765","ios":"levelo://app?vid=b75cd7c6-cc7a-49ab-ace1-7f75243e9765"},"vehicle_type_id":"4","last_reported":1752088162,"current_range_meters":17200,"station_id":"ce4bhgh2rcd13ifvqfa0","pricing_plan_id":"cebpf4jnsgd1na2vs0mg"},{"bike_id":"b904489d-b2c8-4b7e-b087-eb9c6301dffe","system_id":"levelo_inurba_marseille","lat":43.26215,"lon":5.37429,"is_reserved":false,"is_disabled":false,"rental_uris":{"android":"levelo://app?vid=b904489d-b2c8-4b7e-b087-eb9c6301dffe","ios":"levelo://app?vid=b904489d-b2c8-4b7e-b087-eb9c6301dffe"},"vehicle_type_id":"4","last_reported":1752088162,"current_range_meters":17200,"station_id":"ce4bhgp2rcd13ifvqfc0","pricing_plan_id":"cebpf4jnsgd1na2vs0mg"},{"bike_id":"92db8c5b-bf30-43b4-9b76-415df938f614","system_id":"levelo_inurba_marseille","lat":43.25577,"lon":5.3823,"is_reserved":false,"is_disabled":false,"rental_uris":{"android":"levelo://app?vid=92db8c5b-bf30-43b4-9b76-415df938f614","ios":"levelo://app?vid=92db8c5b-bf30-43b4-9b76-415df938f614"},"vehicle_type_id":"4","last_reported":1752088162,"current_range_meters":17200,"station_id":"ce4bhih2rcd13ifvqfs0","pricing_plan_id":"cebpf4jnsgd1na2vs0mg"},{"bike_id":"36c387ea-be50-4028-8ecc-21605fe3e879","system_id":"levelo_inurba_marseille","lat":43.29356,"lon":5.42786,"is_reserved":false,"is_disabled":false,"rental_uris":{"android":"levelo://app?vid=36c387ea-be50-4028-8ecc-21605fe3e879","ios":"levelo://app?vid=36c387ea-be50-4028-8ecc-21605fe3e879"},"vehicle_type_id":"4","last_reported":1752088162,"current_range_meters":17600,"station_id":"","pricing_plan_id":"cebpf4jnsgd1na2vs0mg"},{"bike_id":"87d13c3c-9453-4492-8a8f-f2b4c8e828c6","system_id":"levelo_inurba_marseille","lat":43.26177,"lon":5.37049,"is_reserved":false,"is_disabled":false,"rental_uris":{"android":"levelo://app?vid=87d13c3c-9453-4492-8a8f-f2b4c8e828c6","ios":"levelo://app?vid=87d13c3c-9453-4492-8a8f-f2b4c8e828c6"},"vehicle_type_id":"4","last_reported":1752088162,"current_range_meters":17600,"station_id":"","pricing_plan_id":"cebpf4jnsgd1na2vs0mg"},{"bike_id":"feaa7e3a-cbe4-4489-be11-8a12d7eec173","system_id":"levelo_inurba_marseille","lat":43.25182,"lon":5.42465,"is_reserved":false,"is_disabled":false,"rental_uris":{"android":"levelo://app?vid=feaa7e3a-cbe4-4489-be11-8a12d7eec173","ios":"levelo://app?vid=feaa7e3a-cbe4-4489-be11-8a12d7eec173"},"vehicle_type_id":"4","last_reported":1752088162,"current_range_meters":17600,"station_id":"","pricing_plan_id":"cebpf4jnsgd1na2vs0mg"},{"bike_id":"c9b571f8-fcc7-4cba-852d-4f5eefab159e","system_id":"levelo_inurba_marseille","lat":43.28614,"lon":5.35107,"is_reserved":false,"is_disabled":false,"rental_uris":{"android":"levelo://app?vid=c9b571f8-fcc7-4cba-852d-4f5eefab159e","ios":"levelo://app?vid=c9b571f8-fcc7-4cba-852d-4f5eefab159e"},"vehicle_type_id":"4","last_reported":1752088162,"current_range_meters":17600,"station_id":"ce4bhch2rcd13ifvqeug","pricing_plan_id":"cebpf4jnsgd1na2vs0mg"},{"bike_id":"3c2be974-f10a-47a0-ae30-b9e120db49ce","system_id":"levelo_inurba_marseille","lat":43.25493,"lon":5.37654,"is_reserved":false,"is_disabled":false,"rental_uris":{"android":"levelo://app?vid=3c2be974-f10a-47a0-ae30-b9e120db49ce","ios":"levelo://app?vid=3c2be974-f10a-47a0-ae30-b9e120db49ce"},"vehicle_type_id":"4","last_reported":1752088162,"current_range_meters":17600,"station_id":"ce4bhh12rcd13ifvqff0","pricing_plan_id":"cebpf4jnsgd1na2vs0mg"},{"bike_id":"33d5fc92-aa7c-4ae2-b08a-742d9e31d258","system_id":"levelo_inurba_marseille","lat":43.32649,"lon":5.4099,"is_reserved":false,"is_disabled":false,"rental_uris":{"android":"levelo://app?vid=33d5fc92-aa7c-4ae2-b08a-742d9e31d258","ios":"levelo://app?vid=33d5fc92-aa7c-4ae2-b08a-742d9e31d258"},"vehicle_type_id":"4","last_reported":1752088162,"current_range_meters":17600,"station_id":"ce4bhpp2rcd13ifvqhgg","pricing_plan_id":"cebpf4jnsgd1na2vs0mg"},{"bike_id":"cade331f-a6e3-4d01-8bc4-dd218718d65a","system_id":"levelo_inurba_marseille","lat":43.33776,"lon":5.3748,"is_reserved":false,"is_disabled":false,"rental_uris":{"android":"levelo://app?vid=cade331f-a6e3-4d01-8bc4-dd218718d65a","ios":"levelo://app?vid=cade331f-a6e3-4d01-8bc4-dd218718d65a"},"vehicle_type_id":"4","last_reported":1752088162,"current_range_meters":18000,"station_id":"","pricing_plan_id":"cebpf4jnsgd1na2vs0mg"},{"bike_id":"44524ba1-d16c-41a7-a4bd-e7ee395d7c81","system_id":"levelo_inurba_marseille","lat":43.29849,"lon":5.36284,"is_reserved":false,"is_disabled":false,"rental_uris":{"android":"levelo://app?vid=44524ba1-d16c-41a7-a4bd-e7ee395d7c81","ios":"levelo://app?vid=44524ba1-d16c-41a7-a4bd-e7ee395d7c81"},"vehicle_type_id":"4","last_reported":1752088162,"current_range_meters":18000,"station_id":"ce4bgpp2rcd13ifvqc3g","pricing_plan_id":"cebpf4jnsgd1na2vs0mg"},{"bike_id":"df8b97f3-f3d6-4664-bf58-6e64e3425e14","system_id":"levelo_inurba_marseille","lat":43.29842,"lon":5.3628,"is_reserved":false,"is_disabled":false,"rental_uris":{"android":"levelo://app?vid=df8b97f3-f3d6-4664-bf58-6e64e3425e14","ios":"levelo://app?vid=df8b97f3-f3d6-4664-bf58-6e64e3425e14"},"vehicle_type_id":"4","last_reported":1752088162,"current_range_meters":18000,"station_id":"ce4bgpp2rcd13ifvqc3g","pricing_plan_id":"cebpf4jnsgd1na2vs0mg"},{"bike_id":"bd147f79-c283-4f31-a165-8f1198471f01","system_id":"levelo_inurba_marseille","lat":43.27379,"lon":5.36254,"is_reserved":false,"is_disabled":false,"rental_uris":{"android":"levelo://app?vid=bd147f79-c283-4f31-a165-8f1198471f01","ios":"levelo://app?vid=bd147f79-c283-4f31-a165-8f1198471f01"},"vehicle_type_id":"4","last_reported":1752088162,"current_range_meters":18000,"station_id":"ce4bhbh2rcd13ifvqeo0","pricing_plan_id":"cebpf4jnsgd1na2vs0mg"},{"bike_id":"fe393e70-3017-4f74-9643-ce2ab31a2adc","system_id":"levelo_inurba_marseille","lat":43.28624,"lon":5.35116,"is_reserved":false,"is_disabled":false,"rental_uris":{"android":"levelo://app?vid=fe393e70-3017-4f74-9643-ce2ab31a2adc","ios":"levelo://app?vid=fe393e70-3017-4f74-9643-ce2ab31a2adc"},"vehicle_type_id":"4","last_reported":1752088162,"current_range_meters":18000,"station_id":"ce4bhch2rcd13ifvqeug","pricing_plan_id":"cebpf4jnsgd1na2vs0mg"},{"bike_id":"f7db4f76-f9b4-4c58-81f0-17769d8a997d","system_id":"levelo_inurba_marseille","lat":43.255831,"lon":5.382406,"is_reserved":false,"is_disabled":false,"rental_uris":{"android":"levelo://app?vid=f7db4f76-f9b4-4c58-81f0-17769d8a997d","ios":"levelo://app?vid=f7db4f76-f9b4-4c58-81f0-17769d8a997d"},"vehicle_type_id":"4","last_reported":1752088162,"current_range_meters":18000,"station_id":"ce4bhih2rcd13ifvqfs0","pricing_plan_id":"cebpf4jnsgd1na2vs0mg"},{"bike_id":"7725683b-3883-4cb7-b23c-591c9a76b7b2","system_id":"levelo_inurba_marseille","lat":43.25565,"lon":5.38238,"is_reserved":false,"is_disabled":false,"rental_uris":{"android":"levelo://app?vid=7725683b-3883-4cb7-b23c-591c9a76b7b2","ios":"levelo://app?vid=7725683b-3883-4cb7-b23c-591c9a76b7b2"},"vehicle_type_id":"4","last_reported":1752088162,"current_range_meters":18000,"station_id":"ce4bhih2rcd13ifvqfs0","pricing_plan_id":"cebpf4jnsgd1na2vs0mg"},{"bike_id":"b2cc59a5-c50c-4ebc-af34-43c13b199e8f","system_id":"levelo_inurba_marseille","lat":43.26808,"lon":5.40265,"is_reserved":false,"is_disabled":false,"rental_uris":{"android":"levelo://app?vid=b2cc59a5-c50c-4ebc-af34-43c13b199e8f","ios":"levelo://app?vid=b2cc59a5-c50c-4ebc-af34-43c13b199e8f"},"vehicle_type_id":"4","last_reported":1752088162,"current_range_meters":18000,"station_id":"ce501612rcd8frsf0b60","pricing_plan_id":"cebpf4jnsgd1na2vs0mg"},{"bike_id":"f373e4a8-33e3-4f72-ae8e-e7ab386910f4","system_id":"levelo_inurba_marseille","lat":43.225012,"lon":5.347803,"is_reserved":false,"is_disabled":false,"rental_uris":{"android":"levelo://app?vid=f373e4a8-33e3-4f72-ae8e-e7ab386910f4","ios":"levelo://app?vid=f373e4a8-33e3-4f72-ae8e-e7ab386910f4"},"vehicle_type_id":"4","last_reported":1752088162,"current_range_meters":18000,"station_id":"st_cvj5dfep6f1abm77gieg","pricing_plan_id":"cebpf4jnsgd1na2vs0mg"},{"bike_id":"069759f3-8488-4973-b337-5e447fc27e24","system_id":"levelo_inurba_marseille","lat":43.21202,"lon":5.35045,"is_reserved":false,"is_disabled":false,"rental_uris":{"android":"levelo://app?vid=069759f3-8488-4973-b337-5e447fc27e24","ios":"levelo://app?vid=069759f3-8488-4973-b337-5e447fc27e24"},"vehicle_type_id":"4","last_reported":1752088162,"current_range_meters":18000,"station_id":"st_cvj6sg6p6f1abm77japg","pricing_plan_id":"cebpf4jnsgd1na2vs0mg"},{"bike_id":"9f5e74ce-2459-4c6f-a171-f6d1e8a1ed83","system_id":"levelo_inurba_marseille","lat":43.31853,"lon":5.37542,"is_reserved":false,"is_disabled":false,"rental_uris":{"android":"levelo://app?vid=9f5e74ce-2459-4c6f-a171-f6d1e8a1ed83","ios":"levelo://app?vid=9f5e74ce-2459-4c6f-a171-f6d1e8a1ed83"},"vehicle_type_id":"4","last_reported":1752088162,"current_range_meters":18800,"station_id":"","pricing_plan_id":"cebpf4jnsgd1na2vs0mg"},{"bike_id":"2aff84fc-f6b8-48c3-9217-39140944e2b1","system_id":"levelo_inurba_marseille","lat":43.29372,"lon":5.37843,"is_reserved":false,"is_disabled":false,"rental_uris":{"android":"levelo://app?vid=2aff84fc-f6b8-48c3-9217-39140944e2b1","ios":"levelo://app?vid=2aff84fc-f6b8-48c3-9217-39140944e2b1"},"vehicle_type_id":"4","last_reported":1752088162,"current_range_meters":18800,"station_id":"ce4bgjh2rcd13ifvqbf0","pricing_plan_id":"cebpf4jnsgd1na2vs0mg"},{"bike_id":"4a961b2e-dda7-402f-979a-e01427f73a97","system_id":"levelo_inurba_marseille","lat":43.294208,"lon":5.386133,"is_reserved":false,"is_disabled":false,"rental_uris":{"android":"levelo://app?vid=4a961b2e-dda7-402f-979a-e01427f73a97","ios":"levelo://app?vid=4a961b2e-dda7-402f-979a-e01427f73a97"},"vehicle_type_id":"4","last_reported":1752088162,"current_range_meters":18800,"station_id":"ce4bh2h2rcd13ifvqdh0","pricing_plan_id":"cebpf4jnsgd1na2vs0mg"},{"bike_id":"8ca3e50a-a68f-4bbd-b142-7eaf2b9ed42c","system_id":"levelo_inurba_marseille","lat":43.28272,"lon":5.35054,"is_reserved":false,"is_disabled":false,"rental_uris":{"android":"levelo://app?vid=8ca3e50a-a68f-4bbd-b142-7eaf2b9ed42c","ios":"levelo://app?vid=8ca3e50a-a68f-4bbd-b142-7eaf2b9ed42c"},"vehicle_type_id":"4","last_reported":1752088162,"current_range_meters":18800,"station_id":"ce4bhbp2rcd13ifvqerg","pricing_plan_id":"cebpf4jnsgd1na2vs0mg"},{"bike_id":"9fe6204c-bdec-484d-bf9b-959f7a993079","system_id":"levelo_inurba_marseille","lat":43.2826,"lon":5.35065,"is_reserved":false,"is_disabled":false,"rental_uris":{"android":"levelo://app?vid=9fe6204c-bdec-484d-bf9b-959f7a993079","ios":"levelo://app?vid=9fe6204c-bdec-484d-bf9b-959f7a993079"},"vehicle_type_id":"4","last_reported":1752088162,"current_range_meters":18800,"station_id":"ce4bhbp2rcd13ifvqerg","pricing_plan_id":"cebpf4jnsgd1na2vs0mg"},{"bike_id":"fde530d0-eeed-4692-bb9c-2c65ba0cdd9f","system_id":"levelo_inurba_marseille","lat":43.308624,"lon":5.425671,"is_reserved":false,"is_disabled":false,"rental_uris":{"android":"levelo://app?vid=fde530d0-eeed-4692-bb9c-2c65ba0cdd9f","ios":"levelo://app?vid=fde530d0-eeed-4692-bb9c-2c65ba0cdd9f"},"vehicle_type_id":"4","last_reported":1752088162,"current_range_meters":19200,"station_id":"","pricing_plan_id":"cebpf4jnsgd1na2vs0mg"},{"bike_id":"c1cc7b38-b66f-4438-baf5-1d973171d05a","system_id":"levelo_inurba_marseille","lat":43.29528,"lon":5.38541,"is_reserved":false,"is_disabled":false,"rental_uris":{"android":"levelo://app?vid=c1cc7b38-b66f-4438-baf5-1d973171d05a","ios":"levelo://app?vid=c1cc7b38-b66f-4438-baf5-1d973171d05a"},"vehicle_type_id":"4","last_reported":1752088162,"current_range_meters":19200,"station_id":"ce4bgih2rcd13ifvqba0","pricing_plan_id":"cebpf4jnsgd1na2vs0mg"},{"bike_id":"89c88601-23fc-46eb-8f34-723cccb1bf9d","system_id":"levelo_inurba_marseille","lat":43.27492,"lon":5.4245,"is_reserved":false,"is_disabled":false,"rental_uris":{"android":"levelo://app?vid=89c88601-23fc-46eb-8f34-723cccb1bf9d","ios":"levelo://app?vid=89c88601-23fc-46eb-8f34-723cccb1bf9d"},"vehicle_type_id":"4","last_reported":1752088162,"current_range_meters":19200,"station_id":"ce4bhn92rcd13ifvqgrg","pricing_plan_id":"cebpf4jnsgd1na2vs0mg"},{"bike_id":"744de9c5-5760-4c22-96e4-d65a1e22d14f","system_id":"levelo_inurba_marseille","lat":43.32054,"lon":5.40922,"is_reserved":false,"is_disabled":false,"rental_uris":{"android":"levelo://app?vid=744de9c5-5760-4c22-96e4-d65a1e22d14f","ios":"levelo://app?vid=744de9c5-5760-4c22-96e4-d65a1e22d14f"},"vehicle_type_id":"4","last_reported":1752088162,"current_range_meters":19600,"station_id":"","pricing_plan_id":"cebpf4jnsgd1na2vs0mg"},{"bike_id":"e2bb7ee9-ac0d-44b3-bb61-6afabc57f457","system_id":"levelo_inurba_marseille","lat":43.27382,"lon":5.36213,"is_reserved":false,"is_disabled":false,"rental_uris":{"android":"levelo://app?vid=e2bb7ee9-ac0d-44b3-bb61-6afabc57f457","ios":"levelo://app?vid=e2bb7ee9-ac0d-44b3-bb61-6afabc57f457"},"vehicle_type_id":"4","last_reported":1752088162,"current_range_meters":19600,"station_id":"","pricing_plan_id":"cebpf4jnsgd1na2vs0mg"},{"bike_id":"fa87fcb5-aacb-41a1-a789-0296bbd02085","system_id":"levelo_inurba_marseille","lat":43.24595,"lon":5.37384,"is_reserved":false,"is_disabled":false,"rental_uris":{"android":"levelo://app?vid=fa87fcb5-aacb-41a1-a789-0296bbd02085","ios":"levelo://app?vid=fa87fcb5-aacb-41a1-a789-0296bbd02085"},"vehicle_type_id":"4","last_reported":1752088162,"current_range_meters":19600,"station_id":"","pricing_plan_id":"cebpf4jnsgd1na2vs0mg"},{"bike_id":"4e209b0c-855f-4b51-8120-2faef8673853","system_id":"levelo_inurba_marseille","lat":43.3061,"lon":5.36861,"is_reserved":false,"is_disabled":false,"rental_uris":{"android":"levelo://app?vid=4e209b0c-855f-4b51-8120-2faef8673853","ios":"levelo://app?vid=4e209b0c-855f-4b51-8120-2faef8673853"},"vehicle_type_id":"4","last_reported":1752088162,"current_range_meters":19600,"station_id":"","pricing_plan_id":"cebpf4jnsgd1na2vs0mg"},{"bike_id":"f3bb5081-eefb-4fc9-bc1c-649da9fe87b8","system_id":"levelo_inurba_marseille","lat":43.29281,"lon":5.40114,"is_reserved":false,"is_disabled":false,"rental_uris":{"android":"levelo://app?vid=f3bb5081-eefb-4fc9-bc1c-649da9fe87b8","ios":"levelo://app?vid=f3bb5081-eefb-4fc9-bc1c-649da9fe87b8"},"vehicle_type_id":"4","last_reported":1752088162,"current_range_meters":19600,"station_id":"ce4bh312rcd13ifvqdk0","pricing_plan_id":"cebpf4jnsgd1na2vs0mg"},{"bike_id":"0e055446-1a25-4d64-8b1f-e6595d6f372e","system_id":"levelo_inurba_marseille","lat":43.286121,"lon":5.35104,"is_reserved":false,"is_disabled":false,"rental_uris":{"android":"levelo://app?vid=0e055446-1a25-4d64-8b1f-e6595d6f372e","ios":"levelo://app?vid=0e055446-1a25-4d64-8b1f-e6595d6f372e"},"vehicle_type_id":"4","last_reported":1752088162,"current_range_meters":19600,"station_id":"ce4bhch2rcd13ifvqeug","pricing_plan_id":"cebpf4jnsgd1na2vs0mg"},{"bike_id":"349ff3b8-c875-4c6d-ad28-0372560d9cc3","system_id":"levelo_inurba_marseille","lat":43.26037,"lon":5.37573,"is_reserved":false,"is_disabled":false,"rental_uris":{"android":"levelo://app?vid=349ff3b8-c875-4c6d-ad28-0372560d9cc3","ios":"levelo://app?vid=349ff3b8-c875-4c6d-ad28-0372560d9cc3"},"vehicle_type_id":"4","last_reported":1752088162,"current_range_meters":19600,"station_id":"ce4bhgh2rcd13ifvqfa0","pricing_plan_id":"cebpf4jnsgd1na2vs0mg"},{"bike_id":"beccceff-fb95-4cb6-9b0f-7251567f3776","system_id":"levelo_inurba_marseille","lat":43.2481,"lon":5.37454,"is_reserved":false,"is_disabled":false,"rental_uris":{"android":"levelo://app?vid=beccceff-fb95-4cb6-9b0f-7251567f3776","ios":"levelo://app?vid=beccceff-fb95-4cb6-9b0f-7251567f3776"},"vehicle_type_id":"4","last_reported":1752088162,"current_range_meters":19600,"station_id":"ce4bhgh2rcd13ifvqfb0","pricing_plan_id":"cebpf4jnsgd1na2vs0mg"},{"bike_id":"3d86bf3b-01f6-4722-a22a-632d9913bbc9","system_id":"levelo_inurba_marseille","lat":43.2794,"lon":5.41047,"is_reserved":false,"is_disabled":false,"rental_uris":{"android":"levelo://app?vid=3d86bf3b-01f6-4722-a22a-632d9913bbc9","ios":"levelo://app?vid=3d86bf3b-01f6-4722-a22a-632d9913bbc9"},"vehicle_type_id":"4","last_reported":1752088162,"current_range_meters":19600,"station_id":"ce4bhnp2rcd13ifvqh0g","pricing_plan_id":"cebpf4jnsgd1na2vs0mg"},{"bike_id":"bd5228ab-002e-4f81-bbd3-2baf5452f591","system_id":"levelo_inurba_marseille","lat":43.278307,"lon":5.414337,"is_reserved":false,"is_disabled":false,"rental_uris":{"android":"levelo://app?vid=bd5228ab-002e-4f81-bbd3-2baf5452f591","ios":"levelo://app?vid=bd5228ab-002e-4f81-bbd3-2baf5452f591"},"vehicle_type_id":"4","last_reported":1752088162,"current_range_meters":20000,"station_id":"","pricing_plan_id":"cebpf4jnsgd1na2vs0mg"},{"bike_id":"b951d304-65ab-4edf-9059-8e3ce7150fc7","system_id":"levelo_inurba_marseille","lat":43.284817,"lon":5.385704,"is_reserved":false,"is_disabled":false,"rental_uris":{"android":"levelo://app?vid=b951d304-65ab-4edf-9059-8e3ce7150fc7","ios":"levelo://app?vid=b951d304-65ab-4edf-9059-8e3ce7150fc7"},"vehicle_type_id":"4","last_reported":1752088162,"current_range_meters":20000,"station_id":"ce4bh8p2rcd13ifvqeb0","pricing_plan_id":"cebpf4jnsgd1na2vs0mg"},{"bike_id":"33ca56ee-489a-4240-9d4c-667abf911c67","system_id":"levelo_inurba_marseille","lat":43.27378,"lon":5.36248,"is_reserved":false,"is_disabled":false,"rental_uris":{"android":"levelo://app?vid=33ca56ee-489a-4240-9d4c-667abf911c67","ios":"levelo://app?vid=33ca56ee-489a-4240-9d4c-667abf911c67"},"vehicle_type_id":"4","last_reported":1752088162,"current_range_meters":20000,"station_id":"ce4bhbh2rcd13ifvqeo0","pricing_plan_id":"cebpf4jnsgd1na2vs0mg"},{"bike_id":"10c59449-1e22-41d8-be57-73de9f1e8e96","system_id":"levelo_inurba_marseille","lat":43.28414,"lon":5.34986,"is_reserved":false,"is_disabled":false,"rental_uris":{"android":"levelo://app?vid=10c59449-1e22-41d8-be57-73de9f1e8e96","ios":"levelo://app?vid=10c59449-1e22-41d8-be57-73de9f1e8e96"},"vehicle_type_id":"4","last_reported":1752088162,"current_range_meters":20000,"station_id":"ce4bhbh2rcd13ifvqepg","pricing_plan_id":"cebpf4jnsgd1na2vs0mg"},{"bike_id":"d29d784e-d8e4-46dd-bb3f-f0c18ed60e4d","system_id":"levelo_inurba_marseille","lat":43.29214,"lon":5.36048,"is_reserved":false,"is_disabled":false,"rental_uris":{"android":"levelo://app?vid=d29d784e-d8e4-46dd-bb3f-f0c18ed60e4d","ios":"levelo://app?vid=d29d784e-d8e4-46dd-bb3f-f0c18ed60e4d"},"vehicle_type_id":"4","last_reported":1752088162,"current_range_meters":20000,"station_id":"ce4bhbh2rcd13ifvqeqg","pricing_plan_id":"cebpf4jnsgd1na2vs0mg"},{"bike_id":"d84fcb78-434e-4857-a59b-bf1ff23ff44a","system_id":"levelo_inurba_marseille","lat":43.28143,"lon":5.42613,"is_reserved":false,"is_disabled":false,"rental_uris":{"android":"levelo://app?vid=d84fcb78-434e-4857-a59b-bf1ff23ff44a","ios":"levelo://app?vid=d84fcb78-434e-4857-a59b-bf1ff23ff44a"},"vehicle_type_id":"4","last_reported":1752088162,"current_range_meters":20000,"station_id":"ce4bhnh2rcd13ifvqgug","pricing_plan_id":"cebpf4jnsgd1na2vs0mg"},{"bike_id":"ee1ac907-8623-4d00-ac01-d41dd90be9fe","system_id":"levelo_inurba_marseille","lat":43.211903,"lon":5.350711,"is_reserved":false,"is_disabled":false,"rental_uris":{"android":"levelo://app?vid=ee1ac907-8623-4d00-ac01-d41dd90be9fe","ios":"levelo://app?vid=ee1ac907-8623-4d00-ac01-d41dd90be9fe"},"vehicle_type_id":"4","last_reported":1752088162,"current_range_meters":20000,"station_id":"st_cvj6sg6p6f1abm77japg","pricing_plan_id":"cebpf4jnsgd1na2vs0mg"},{"bike_id":"cc63da02-fffb-4f4c-8416-18cf7673613b","system_id":"levelo_inurba_marseille","lat":43.31075,"lon":5.40071,"is_reserved":false,"is_disabled":false,"rental_uris":{"android":"levelo://app?vid=cc63da02-fffb-4f4c-8416-18cf7673613b","ios":"levelo://app?vid=cc63da02-fffb-4f4c-8416-18cf7673613b"},"vehicle_type_id":"4","last_reported":1752088162,"current_range_meters":20400,"station_id":"","pricing_plan_id":"cebpf4jnsgd1na2vs0mg"},{"bike_id":"24b17f7b-dff1-4936-b27a-7c2c6813a894","system_id":"levelo_inurba_marseille","lat":43.24584,"lon":5.3738,"is_reserved":false,"is_disabled":false,"rental_uris":{"android":"levelo://app?vid=24b17f7b-dff1-4936-b27a-7c2c6813a894","ios":"levelo://app?vid=24b17f7b-dff1-4936-b27a-7c2c6813a894"},"vehicle_type_id":"4","last_reported":1752088162,"current_range_meters":20400,"station_id":"","pricing_plan_id":"cebpf4jnsgd1na2vs0mg"},{"bike_id":"55eb3ee3-207d-45c9-a356-7e275a6ee08e","system_id":"levelo_inurba_marseille","lat":43.322208,"lon":5.407363,"is_reserved":false,"is_disabled":false,"rental_uris":{"android":"levelo://app?vid=55eb3ee3-207d-45c9-a356-7e275a6ee08e","ios":"levelo://app?vid=55eb3ee3-207d-45c9-a356-7e275a6ee08e"},"vehicle_type_id":"4","last_reported":1752088162,"current_range_meters":20400,"station_id":"ce4bh092rcd13ifvqd30","pricing_plan_id":"cebpf4jnsgd1na2vs0mg"},{"bike_id":"46a4c734-72c3-4087-83c4-200208c16d27","system_id":"levelo_inurba_marseille","lat":43.292664,"lon":5.384353,"is_reserved":false,"is_disabled":false,"rental_uris":{"android":"levelo://app?vid=46a4c734-72c3-4087-83c4-200208c16d27","ios":"levelo://app?vid=46a4c734-72c3-4087-83c4-200208c16d27"},"vehicle_type_id":"4","last_reported":1752088162,"current_range_meters":20400,"station_id":"ce4bh692rcd13ifvqea0","pricing_plan_id":"cebpf4jnsgd1na2vs0mg"},{"bike_id":"f377ad6b-0107-4f7a-b973-9600ddd26757","system_id":"levelo_inurba_marseille","lat":43.28854,"lon":5.35846,"is_reserved":false,"is_disabled":false,"rental_uris":{"android":"levelo://app?vid=f377ad6b-0107-4f7a-b973-9600ddd26757","ios":"levelo://app?vid=f377ad6b-0107-4f7a-b973-9600ddd26757"},"vehicle_type_id":"4","last_reported":1752088162,"current_range_meters":20400,"station_id":"ce4bhb12rcd13ifvqem0","pricing_plan_id":"cebpf4jnsgd1na2vs0mg"},{"bike_id":"d283b3ce-28ad-4b5e-a397-4f25536715d1","system_id":"levelo_inurba_marseille","lat":43.27386,"lon":5.36257,"is_reserved":false,"is_disabled":false,"rental_uris":{"android":"levelo://app?vid=d283b3ce-28ad-4b5e-a397-4f25536715d1","ios":"levelo://app?vid=d283b3ce-28ad-4b5e-a397-4f25536715d1"},"vehicle_type_id":"4","last_reported":1752088162,"current_range_meters":20400,"station_id":"ce4bhbh2rcd13ifvqeo0","pricing_plan_id":"cebpf4jnsgd1na2vs0mg"},{"bike_id":"ab5d5fcf-9aa2-47fc-bf4e-dd8601d15f1c","system_id":"levelo_inurba_marseille","lat":43.28413,"lon":5.34975,"is_reserved":false,"is_disabled":false,"rental_uris":{"android":"levelo://app?vid=ab5d5fcf-9aa2-47fc-bf4e-dd8601d15f1c","ios":"levelo://app?vid=ab5d5fcf-9aa2-47fc-bf4e-dd8601d15f1c"},"vehicle_type_id":"4","last_reported":1752088162,"current_range_meters":20400,"station_id":"ce4bhbh2rcd13ifvqepg","pricing_plan_id":"cebpf4jnsgd1na2vs0mg"},{"bike_id":"6006a9aa-40e9-4dd0-9916-778076e2eaee","system_id":"levelo_inurba_marseille","lat":43.28419,"lon":5.34981,"is_reserved":false,"is_disabled":false,"rental_uris":{"android":"levelo://app?vid=6006a9aa-40e9-4dd0-9916-778076e2eaee","ios":"levelo://app?vid=6006a9aa-40e9-4dd0-9916-778076e2eaee"},"vehicle_type_id":"4","last_reported":1752088162,"current_range_meters":20400,"station_id":"ce4bhbh2rcd13ifvqepg","pricing_plan_id":"cebpf4jnsgd1na2vs0mg"},{"bike_id":"9239d50f-454f-4cfe-bb52-525aa9c261e6","system_id":"levelo_inurba_marseille","lat":43.28619,"lon":5.35096,"is_reserved":false,"is_disabled":false,"rental_uris":{"android":"levelo://app?vid=9239d50f-454f-4cfe-bb52-525aa9c261e6","ios":"levelo://app?vid=9239d50f-454f-4cfe-bb52-525aa9c261e6"},"vehicle_type_id":"4","last_reported":1752088162,"current_range_meters":20400,"station_id":"ce4bhch2rcd13ifvqeug","pricing_plan_id":"cebpf4jnsgd1na2vs0mg"},{"bike_id":"4c2b15ff-f990-4b7a-989a-9703055483df","system_id":"levelo_inurba_marseille","lat":43.306,"lon":5.3723,"is_reserved":false,"is_disabled":false,"rental_uris":{"android":"levelo://app?vid=4c2b15ff-f990-4b7a-989a-9703055483df","ios":"levelo://app?vid=4c2b15ff-f990-4b7a-989a-9703055483df"},"vehicle_type_id":"4","last_reported":1752088162,"current_range_meters":20800,"station_id":"ce4bgqh2rcd13ifvqc4g","pricing_plan_id":"cebpf4jnsgd1na2vs0mg"},{"bike_id":"0de21fd9-0a35-4a8a-8c05-5a18b0a1cdb7","system_id":"levelo_inurba_marseille","lat":43.30178,"lon":5.36617,"is_reserved":false,"is_disabled":false,"rental_uris":{"android":"levelo://app?vid=0de21fd9-0a35-4a8a-8c05-5a18b0a1cdb7","ios":"levelo://app?vid=0de21fd9-0a35-4a8a-8c05-5a18b0a1cdb7"},"vehicle_type_id":"4","last_reported":1752088162,"current_range_meters":20800,"station_id":"ce4bgrh2rcd13ifvqc8g","pricing_plan_id":"cebpf4jnsgd1na2vs0mg"},{"bike_id":"8f89e4f3-495a-4317-bd6d-37a19186d65b","system_id":"levelo_inurba_marseille","lat":43.33728,"lon":5.3919,"is_reserved":false,"is_disabled":false,"rental_uris":{"android":"levelo://app?vid=8f89e4f3-495a-4317-bd6d-37a19186d65b","ios":"levelo://app?vid=8f89e4f3-495a-4317-bd6d-37a19186d65b"},"vehicle_type_id":"4","last_reported":1752088162,"current_range_meters":20800,"station_id":"ce4bhr92rcd13ifvqhsg","pricing_plan_id":"cebpf4jnsgd1na2vs0mg"},{"bike_id":"ab521df9-ab36-4a3d-a446-31ee393c87dd","system_id":"levelo_inurba_marseille","lat":43.30867,"lon":5.40378,"is_reserved":false,"is_disabled":false,"rental_uris":{"android":"levelo://app?vid=ab521df9-ab36-4a3d-a446-31ee393c87dd","ios":"levelo://app?vid=ab521df9-ab36-4a3d-a446-31ee393c87dd"},"vehicle_type_id":"4","last_reported":1752088162,"current_range_meters":21600,"station_id":"","pricing_plan_id":"cebpf4jnsgd1na2vs0mg"},{"bike_id":"7b1572ba-cfc9-4e11-942d-1714a10bf18a","system_id":"levelo_inurba_marseille","lat":43.29022,"lon":5.38124,"is_reserved":false,"is_disabled":false,"rental_uris":{"android":"levelo://app?vid=7b1572ba-cfc9-4e11-942d-1714a10bf18a","ios":"levelo://app?vid=7b1572ba-cfc9-4e11-942d-1714a10bf18a"},"vehicle_type_id":"4","last_reported":1752088162,"current_range_meters":21600,"station_id":"ce4bh4p2rcd13ifvqe1g","pricing_plan_id":"cebpf4jnsgd1na2vs0mg"},{"bike_id":"e510ade2-3bf1-4e76-bfa8-7ebe6d4288a2","system_id":"levelo_inurba_marseille","lat":43.284229,"lon":5.349894,"is_reserved":false,"is_disabled":false,"rental_uris":{"android":"levelo://app?vid=e510ade2-3bf1-4e76-bfa8-7ebe6d4288a2","ios":"levelo://app?vid=e510ade2-3bf1-4e76-bfa8-7ebe6d4288a2"},"vehicle_type_id":"4","last_reported":1752088162,"current_range_meters":21600,"station_id":"ce4bhbh2rcd13ifvqepg","pricing_plan_id":"cebpf4jnsgd1na2vs0mg"},{"bike_id":"a37c81c5-d096-4e6d-b1b3-5bbb8251fbd0","system_id":"levelo_inurba_marseille","lat":43.2439,"lon":5.37031,"is_reserved":false,"is_disabled":false,"rental_uris":{"android":"levelo://app?vid=a37c81c5-d096-4e6d-b1b3-5bbb8251fbd0","ios":"levelo://app?vid=a37c81c5-d096-4e6d-b1b3-5bbb8251fbd0"},"vehicle_type_id":"4","last_reported":1752088162,"current_range_meters":21600,"station_id":"ce4bhhh2rcd13ifvqfk0","pricing_plan_id":"cebpf4jnsgd1na2vs0mg"},{"bike_id":"cbe24894-afae-401d-85be-0d598559e49e","system_id":"levelo_inurba_marseille","lat":43.24674,"lon":5.38155,"is_reserved":false,"is_disabled":false,"rental_uris":{"android":"levelo://app?vid=cbe24894-afae-401d-85be-0d598559e49e","ios":"levelo://app?vid=cbe24894-afae-401d-85be-0d598559e49e"},"vehicle_type_id":"4","last_reported":1752088162,"current_range_meters":21600,"station_id":"ce4bhih2rcd13ifvqfr0","pricing_plan_id":"cebpf4jnsgd1na2vs0mg"},{"bike_id":"a266f9d1-4c58-49a1-ac23-8469789a1f40","system_id":"levelo_inurba_marseille","lat":43.27833,"lon":5.39201,"is_reserved":false,"is_disabled":false,"rental_uris":{"android":"levelo://app?vid=a266f9d1-4c58-49a1-ac23-8469789a1f40","ios":"levelo://app?vid=a266f9d1-4c58-49a1-ac23-8469789a1f40"},"vehicle_type_id":"4","last_reported":1752088162,"current_range_meters":21600,"station_id":"ce4bhjp2rcd13ifvqga0","pricing_plan_id":"cebpf4jnsgd1na2vs0mg"},{"bike_id":"3a003ac5-69b5-40cf-a39b-78c736ea47a3","system_id":"levelo_inurba_marseille","lat":43.25086,"lon":5.39527,"is_reserved":false,"is_disabled":false,"rental_uris":{"android":"levelo://app?vid=3a003ac5-69b5-40cf-a39b-78c736ea47a3","ios":"levelo://app?vid=3a003ac5-69b5-40cf-a39b-78c736ea47a3"},"vehicle_type_id":"4","last_reported":1752088162,"current_range_meters":21600,"station_id":"ce4bhm12rcd13ifvqgkg","pricing_plan_id":"cebpf4jnsgd1na2vs0mg"},{"bike_id":"29d42f69-8320-420d-a08b-a8cdfbc1de2e","system_id":"levelo_inurba_marseille","lat":43.289747,"lon":5.399924,"is_reserved":false,"is_disabled":false,"rental_uris":{"android":"levelo://app?vid=29d42f69-8320-420d-a08b-a8cdfbc1de2e","ios":"levelo://app?vid=29d42f69-8320-420d-a08b-a8cdfbc1de2e"},"vehicle_type_id":"4","last_reported":1752088162,"current_range_meters":21600,"station_id":"ce4bho92rcd13ifvqh3g","pricing_plan_id":"cebpf4jnsgd1na2vs0mg"},{"bike_id":"d6183b14-14ca-44c7-b355-9bc124d67e93","system_id":"levelo_inurba_marseille","lat":43.3149,"lon":5.38022,"is_reserved":false,"is_disabled":false,"rental_uris":{"android":"levelo://app?vid=d6183b14-14ca-44c7-b355-9bc124d67e93","ios":"levelo://app?vid=d6183b14-14ca-44c7-b355-9bc124d67e93"},"vehicle_type_id":"4","last_reported":1752088162,"current_range_meters":21600,"station_id":"ce4bhsp2rcd13ifvqi50","pricing_plan_id":"cebpf4jnsgd1na2vs0mg"},{"bike_id":"60fe12d8-1b40-484d-9dbb-8c445e162539","system_id":"levelo_inurba_marseille","lat":43.29781,"lon":5.39328,"is_reserved":false,"is_disabled":false,"rental_uris":{"android":"levelo://app?vid=60fe12d8-1b40-484d-9dbb-8c445e162539","ios":"levelo://app?vid=60fe12d8-1b40-484d-9dbb-8c445e162539"},"vehicle_type_id":"4","last_reported":1752088162,"current_range_meters":21600,"station_id":"chh1huq6cuj3fo74tm60","pricing_plan_id":"cebpf4jnsgd1na2vs0mg"},{"bike_id":"4da5d463-3ec2-4443-a38b-2551d2f31039","system_id":"levelo_inurba_marseille","lat":43.22511,"lon":5.34771,"is_reserved":false,"is_disabled":false,"rental_uris":{"android":"levelo://app?vid=4da5d463-3ec2-4443-a38b-2551d2f31039","ios":"levelo://app?vid=4da5d463-3ec2-4443-a38b-2551d2f31039"},"vehicle_type_id":"4","last_reported":1752088162,"current_range_meters":21600,"station_id":"st_cvj5dfep6f1abm77gieg","pricing_plan_id":"cebpf4jnsgd1na2vs0mg"},{"bike_id":"1fdd82b7-7974-4e3e-b5ce-b6013582630f","system_id":"levelo_inurba_marseille","lat":43.30542,"lon":5.38425,"is_reserved":false,"is_disabled":false,"rental_uris":{"android":"levelo://app?vid=1fdd82b7-7974-4e3e-b5ce-b6013582630f","ios":"levelo://app?vid=1fdd82b7-7974-4e3e-b5ce-b6013582630f"},"vehicle_type_id":"4","last_reported":1752088162,"current_range_meters":22000,"station_id":"ce4bgg92rcd13ifvqb30","pricing_plan_id":"cebpf4jnsgd1na2vs0mg"},{"bike_id":"07093165-50eb-441c-b8ea-b7a2af21e8fd","system_id":"levelo_inurba_marseille","lat":43.29784,"lon":5.37105,"is_reserved":false,"is_disabled":false,"rental_uris":{"android":"levelo://app?vid=07093165-50eb-441c-b8ea-b7a2af21e8fd","ios":"levelo://app?vid=07093165-50eb-441c-b8ea-b7a2af21e8fd"},"vehicle_type_id":"4","last_reported":1752088162,"current_range_meters":22000,"station_id":"ce4bgop2rcd13ifvqc1g","pricing_plan_id":"cebpf4jnsgd1na2vs0mg"},{"bike_id":"af3ef946-a1db-44d5-92cf-ae0731fb3552","system_id":"levelo_inurba_marseille","lat":43.31363,"lon":5.38489,"is_reserved":false,"is_disabled":false,"rental_uris":{"android":"levelo://app?vid=af3ef946-a1db-44d5-92cf-ae0731fb3552","ios":"levelo://app?vid=af3ef946-a1db-44d5-92cf-ae0731fb3552"},"vehicle_type_id":"4","last_reported":1752088162,"current_range_meters":22000,"station_id":"ce4bgt92rcd13ifvqcf0","pricing_plan_id":"cebpf4jnsgd1na2vs0mg"},{"bike_id":"c141bf25-1ceb-4f61-95d9-13a6d23f3e07","system_id":"levelo_inurba_marseille","lat":43.31328,"lon":5.39707,"is_reserved":false,"is_disabled":false,"rental_uris":{"android":"levelo://app?vid=c141bf25-1ceb-4f61-95d9-13a6d23f3e07","ios":"levelo://app?vid=c141bf25-1ceb-4f61-95d9-13a6d23f3e07"},"vehicle_type_id":"4","last_reported":1752088162,"current_range_meters":22000,"station_id":"ce4bgvp2rcd13ifvqcu0","pricing_plan_id":"cebpf4jnsgd1na2vs0mg"},{"bike_id":"1c3ff62d-4868-48fe-b02a-480de6c8e877","system_id":"levelo_inurba_marseille","lat":43.28351,"lon":5.3809,"is_reserved":false,"is_disabled":false,"rental_uris":{"android":"levelo://app?vid=1c3ff62d-4868-48fe-b02a-480de6c8e877","ios":"levelo://app?vid=1c3ff62d-4868-48fe-b02a-480de6c8e877"},"vehicle_type_id":"4","last_reported":1752088162,"current_range_meters":22000,"station_id":"ce4bh412rcd13ifvqdr0","pricing_plan_id":"cebpf4jnsgd1na2vs0mg"},{"bike_id":"a5a6c2c1-2d48-4581-8647-6eab6c0bbb54","system_id":"levelo_inurba_marseille","lat":43.26917,"lon":5.36921,"is_reserved":false,"is_disabled":false,"rental_uris":{"android":"levelo://app?vid=a5a6c2c1-2d48-4581-8647-6eab6c0bbb54","ios":"levelo://app?vid=a5a6c2c1-2d48-4581-8647-6eab6c0bbb54"},"vehicle_type_id":"4","last_reported":1752088162,"current_range_meters":22400,"station_id":"","pricing_plan_id":"cebpf4jnsgd1na2vs0mg"},{"bike_id":"3f2dff62-5fb7-4977-ae17-413db93e5527","system_id":"levelo_inurba_marseille","lat":43.28603,"lon":5.3512,"is_reserved":false,"is_disabled":false,"rental_uris":{"android":"levelo://app?vid=3f2dff62-5fb7-4977-ae17-413db93e5527","ios":"levelo://app?vid=3f2dff62-5fb7-4977-ae17-413db93e5527"},"vehicle_type_id":"4","last_reported":1752088162,"current_range_meters":22400,"station_id":"ce4bhch2rcd13ifvqeug","pricing_plan_id":"cebpf4jnsgd1na2vs0mg"},{"bike_id":"fe06abf3-42e9-4fba-8a85-e3478af58c9a","system_id":"levelo_inurba_marseille","lat":43.245858,"lon":5.394662,"is_reserved":false,"is_disabled":false,"rental_uris":{"android":"levelo://app?vid=fe06abf3-42e9-4fba-8a85-e3478af58c9a","ios":"levelo://app?vid=fe06abf3-42e9-4fba-8a85-e3478af58c9a"},"vehicle_type_id":"4","last_reported":1752088162,"current_range_meters":22400,"station_id":"ce4bhlp2rcd13ifvqgjg","pricing_plan_id":"cebpf4jnsgd1na2vs0mg"},{"bike_id":"e3a75ee9-c614-467b-8cc2-f813bcef2ab1","system_id":"levelo_inurba_marseille","lat":43.33743,"lon":5.3919,"is_reserved":false,"is_disabled":false,"rental_uris":{"android":"levelo://app?vid=e3a75ee9-c614-467b-8cc2-f813bcef2ab1","ios":"levelo://app?vid=e3a75ee9-c614-467b-8cc2-f813bcef2ab1"},"vehicle_type_id":"4","last_reported":1752088162,"current_range_meters":22400,"station_id":"ce4bhr92rcd13ifvqhsg","pricing_plan_id":"cebpf4jnsgd1na2vs0mg"},{"bike_id":"a3d06fdd-d90f-4da8-9200-8f61c005f0a2","system_id":"levelo_inurba_marseille","lat":43.22502,"lon":5.3478,"is_reserved":false,"is_disabled":false,"rental_uris":{"android":"levelo://app?vid=a3d06fdd-d90f-4da8-9200-8f61c005f0a2","ios":"levelo://app?vid=a3d06fdd-d90f-4da8-9200-8f61c005f0a2"},