{"last_updated":1692814030,"ttl":30,"version":"2.2","data":{"bikes":[{"bike_id":"f22ca441-4e4e-4660-b824-b2f46943e54d","system_id":"levelo_inurba_marseille","lat":43.31224,"lon":5.3685,"is_reserved":false,"is_disabled":false,"rental_uris":{"android":"levelo://app?vid=f22ca441-4e4e-4660-b824-b2f46943e54d","ios":"levelo://app?vid=f22ca441-4e4e-4660-b824-b2f46943e54d"},"vehicle_type_id":"4","last_reported":1692814032,"current_range_meters":31200,"station_id":"ce4bgl92rcd13ifvqbq0","pricing_plan_id":"free"},{"bike_id":"d2be997d-44d2-40a5-bb20-02aeaaf65fa5","system_id":"levelo_inurba_marseille","lat":43.314811,"lon":5.373103,"is_reserved":false,"is_disabled":false,"rental_uris":{"android":"levelo://app?vid=d2be997d-44d2-40a5-bb20-02aeaaf65fa5","ios":"levelo://app?vid=d2be997d-44d2-40a5-bb20-02aeaaf65fa5"},"vehicle_type_id":"4","last_reported":1692814032,"current_range_meters":31200,"station_id":"ce4bgt12rcd13ifvqcd0","pricing_plan_id":"free"},{"bike_id":"e0a31872-9207-42bc-a587-f432de3b4c51","system_id":"levelo_inurba_marseille","lat":43.30881,"lon":5.37176,"is_reserved":false,"is_disabled":false,"rental_uris":{"android":"levelo://app?vid=e0a31872-9207-42bc-a587-f432de3b4c51","ios":"levelo://app?vid=e0a31872-9207-42bc-a587-f432de3b4c51"},"vehicle_type_id":"4","last_reported":1692814032,"current_range_meters":31200,"station_id":"","pricing_plan_id":"free"},{"bike_id":"9fbe6e18-d192-44c2-98b5-cafb68b41aa4","system_id":"levelo_inurba_marseille","lat":43.30529,"lon":5.36536,"is_reserved":false,"is_disabled":false,"rental_uris":{"android":"levelo://app?vid=9fbe6e18-d192-44c2-98b5-cafb68b41aa4","ios":"levelo://app?vid=9fbe6e18-d192-44c2-98b5-cafb68b41aa4"},"vehicle_type_id":"4","last_reported":1692814032,"current_range_meters":21600,"station_id":"ce4bgs12rcd13ifvqcag","pricing_plan_id":"free"},{"bike_id":"874e34a8-80c1-4d79-8e18-aa1bd38adad4","system_id":"levelo_inurba_marseille","lat":43.317065,"lon":5.377313,"is_reserved":false,"is_disabled":false,"rental_uris":{"android":"levelo://app?vid=874e34a8-80c1-4d79-8e18-aa1bd38adad4","ios":"levelo://app?vid=874e34a8-80c1-4d79-8e18-aa1bd38adad4"},"vehicle_type_id":"4","last_reported":1692814032,"current_range_meters":0,"station_id":"ce4bgth2rcd13ifvqch0","pricing_plan_id":"free"},{"bike_id":"4de2ed2b-acb4-42c2-92d6-5c0560b51f7a","system_id":"levelo_inurba_marseille","lat":43.31702,"lon":5.37786,"is_reserved":false,"is_disabled":false,"rental_uris":{"android":"levelo://app?vid=4de2ed2b-acb4-42c2-92d6-5c0560b51f7a","ios":"levelo://app?vid=4de2ed2b-acb4-42c2-92d6-5c0560b51f7a"},"vehicle_type_id":"4","last_reported":1692814032,"current_range_meters":24800,"station_id":"","pricing_plan_id":"free"},{"bike_id":"51117683-369e-4f79-9f4e-b728e7c1bd96","system_id":"levelo_inurba_marseille","lat":43.317075,"lon":5.377367,"is_reserved":false,"is_disabled":false,"rental_uris":{"android":"levelo://app?vid=51117683-369e-4f79-9f4e-b728e7c1bd96","ios":"levelo://app?vid=51117683-369e-4f79-9f4e-b728e7c1bd96"},"vehicle_type_id":"4","last_reported":1692814032,"current_range_meters":24000,"station_id":"ce4bgth2rcd13ifvqch0","pricing_plan_id":"free"},{"bike_id":"1787a7e9-7721-4e11-8f66-a35dd06a04d7","system_id":"levelo_inurba_marseille","lat":43.31526,"lon":5.38038,"is_reserved":false,"is_disabled":false,"rental_uris":{"android":"levelo://app?vid=1787a7e9-7721-4e11-8f66-a35dd06a04d7","ios":"levelo://app?vid=1787a7e9-7721-4e11-8f66-a35dd06a04d7"},"vehicle_type_id":"4","last_reported":1692814032,"current_range_meters":19200,"station_id":"ce4bhsp2rcd13ifvqi50","pricing_plan_id":"free"},{"bike_id":"4c39a0f8-5a8f-4cfa-8d5d-8a9e0b59e3a2","system_id":"levelo_inurba_marseille","lat":43.31529,"lon":5.38037,"is_reserved":false,"is_disabled":false,"rental_uris":{"android":"levelo://app?vid=4c39a0f8-5a8f-4cfa-8d5d-8a9e0b59e3a2","ios":"levelo://app?vid=4c39a0f8-5a8f-4cfa-8d5d-8a9e0b59e3a2"},"vehicle_type_id":"4","last_reported":1692814032,"current_range_meters":24400,"station_id":"ce4bhsp2rcd13ifvqi50","pricing_plan_id":"free"},{"bike_id":"9dffe3f1-c4f0-4450-b1a3-69c04f303ce1","system_id":"levelo_inurba_marseille","lat":43.31529,"lon":5.38038,"is_reserved":false,"is_disabled":false,"rental_uris":{"android":"levelo://app?vid=9dffe3f1-c4f0-4450-b1a3-69c04f303ce1","ios":"levelo://app?vid=9dffe3f1-c4f0-4450-b1a3-69c04f303ce1"},"vehicle_type_id":"4","last_reported":1692814032,"current_range_meters":20000,"station_id":"ce4bhsp2rcd13ifvqi50","pricing_plan_id":"free"},{"bike_id":"f7617620-71e6-4475-8764-3da894290be4","system_id":"levelo_inurba_marseille","lat":43.31529,"lon":5.38038,"is_reserved":false,"is_disabled":false,"rental_uris":{"android":"levelo://app?vid=f7617620-71e6-4475-8764-3da894290be4","ios":"levelo://app?vid=f7617620-71e6-4475-8764-3da894290be4"},"vehicle_type_id":"4","last_reported":1692814032,"current_range_meters":12800,"station_id":"ce4bhsp2rcd13ifvqi50","pricing_plan_id":"free"},{"bike_id":"3d23adab-1204-449e-a30e-1d9440c6f509","system_id":"levelo_inurba_marseille","lat":43.31524,"lon":5.3804,"is_reserved":false,"is_disabled":false,"rental_uris":{"android":"levelo://app?vid=3d23adab-1204-449e-a30e-1d9440c6f509","ios":"levelo://app?vid=3d23adab-1204-449e-a30e-1d9440c6f509"},"vehicle_type_id":"4","last_reported":1692814032,"current_range_meters":6800,"station_id":"ce4bhsp2rcd13ifvqi50","pricing_plan_id":"free"},{"bike_id":"913b941f-0f7d-419e-b24d-3686903d2a9e","system_id":"levelo_inurba_marseille","lat":43.315293,"lon":5.380349,"is_reserved":false,"is_disabled":false,"rental_uris":{"android":"levelo://app?vid=913b941f-0f7d-419e-b24d-3686903d2a9e","ios":"levelo://app?vid=913b941f-0f7d-419e-b24d-3686903d2a9e"},"vehicle_type_id":"4","last_reported":1692814032,"current_range_meters":6000,"station_id":"ce4bhsp2rcd13ifvqi50","pricing_plan_id":"free"},{"bike_id":"237c1187-0b1e-4a6a-83f3-89fcb0ea5cea","system_id":"levelo_inurba_marseille","lat":43.307967,"lon":5.381529,"is_reserved":false,"is_disabled":false,"rental_uris":{"android":"levelo://app?vid=237c1187-0b1e-4a6a-83f3-89fcb0ea5cea","ios":"levelo://app?vid=237c1187-0b1e-4a6a-83f3-89fcb0ea5cea"},"vehicle_type_id":"4","last_reported":1692814032,"current_range_meters":0,"station_id":"ce4bgt92rcd13ifvqcg0","pricing_plan_id":"free"},{"bike_id":"a47e4c8c-27b0-41a1-b1ff-c70e5e5998df","system_id":"levelo_inurba_marseille","lat":43.304606,"lon":5.379026,"is_reserved":false,"is_disabled":false,"rental_uris":{"android":"levelo://app?vid=a47e4c8c-27b0-41a1-b1ff-c70e5e5998df","ios":"levelo://app?vid=a47e4c8c-27b0-41a1-b1ff-c70e5e5998df"},"vehicle_type_id":"4","last_reported":1692814032,"current_range_meters":19600,"station_id":"ce4bgup2rcd13ifvqcn0","pricing_plan_id":"free"},{"bike_id":"c5d70b47-269f-4c67-b878-50679aecc9bb","system_id":"levelo_inurba_marseille","lat":43.304606,"lon":5.379026,"is_reserved":false,"is_disabled":false,"rental_uris":{"android":"levelo://app?vid=c5d70b47-269f-4c67-b878-50679aecc9bb","ios":"levelo://app?vid=c5d70b47-269f-4c67-b878-50679aecc9bb"},"vehicle_type_id":"4","last_reported":1692814032,"current_range_meters":21600,"station_id":"ce4bgup2rcd13ifvqcn0","pricing_plan_id":"free"},{"bike_id":"5be708f1-9aa7-489a-b1f6-f4b2c5e6f6d5","system_id":"levelo_inurba_marseille","lat":43.31994,"lon":5.38141,"is_reserved":false,"is_disabled":false,"rental_uris":{"android":"levelo://app?vid=5be708f1-9aa7-489a-b1f6-f4b2c5e6f6d5","ios":"levelo://app?vid=5be708f1-9aa7-489a-b1f6-f4b2c5e6f6d5"},"vehicle_type_id":"4","last_reported":1692814032,"current_range_meters":21600,"station_id":"ce4bhr12rcd13ifvqhpg","pricing_plan_id":"free"},{"bike_id":"95dc9ecf-047e-4c3a-bb12-a5676cb36ad4","system_id":"levelo_inurba_marseille","lat":43.3216,"lon":5.38166,"is_reserved":false,"is_disabled":false,"rental_uris":{"android":"levelo://app?vid=95dc9ecf-047e-4c3a-bb12-a5676cb36ad4","ios":"levelo://app?vid=95dc9ecf-047e-4c3a-bb12-a5676cb36ad4"},"vehicle_type_id":"4","last_reported":1692814032,"current_range_meters":2800,"station_id":"","pricing_plan_id":"free"},{"bike_id":"4e29a3e1-82eb-4d05-a2e9-b6b5b90ca8bd","system_id":"levelo_inurba_marseille","lat":43.29841,"lon":5.36275,"is_reserved":false,"is_disabled":false,"rental_uris":{"android":"levelo://app?vid=4e29a3e1-82eb-4d05-a2e9-b6b5b90ca8bd","ios":"levelo://app?vid=4e29a3e1-82eb-4d05-a2e9-b6b5b90ca8bd"},"vehicle_type_id":"4","last_reported":1692814032,"current_range_meters":4000,"station_id":"ce4bgpp2rcd13ifvqc3g","pricing_plan_id":"free"},{"bike_id":"9ab2a324-bc89-464d-8b40-032ab221eb82","system_id":"levelo_inurba_marseille","lat":43.298433,"lon":5.362774,"is_reserved":false,"is_disabled":false,"rental_uris":{"android":"levelo://app?vid=9ab2a324-bc89-464d-8b40-032ab221eb82","ios":"levelo://app?vid=9ab2a324-bc89-464d-8b40-032ab221eb82"},"vehicle_type_id":"4","last_reported":1692814032,"current_range_meters":11600,"station_id":"ce4bgpp2rcd13ifvqc3g","pricing_plan_id":"free"},{"bike_id":"b885f463-e8c5-42cc-902f-7152167ce1c7","system_id":"levelo_inurba_marseille","lat":43.299243,"lon":5.374807,"is_reserved":false,"is_disabled":false,"rental_uris":{"android":"levelo://app?vid=b885f463-e8c5-42cc-902f-7152167ce1c7","ios":"levelo://app?vid=b885f463-e8c5-42cc-902f-7152167ce1c7"},"vehicle_type_id":"4","last_reported":1692814032,"current_range_meters":31200,"station_id":"ce4bgjh2rcd13ifvqbg0","pricing_plan_id":"free"},{"bike_id":"2f9e2def-2173-4eb4-a460-9a385f59debe","system_id":"levelo_inurba_marseille","lat":43.299243,"lon":5.37481,"is_reserved":false,"is_disabled":false,"rental_uris":{"android":"levelo://app?vid=2f9e2def-2173-4eb4-a460-9a385f59debe","ios":"levelo://app?vid=2f9e2def-2173-4eb4-a460-9a385f59debe"},"vehicle_type_id":"4","last_reported":1692814032,"current_range_meters":31200,"station_id":"ce4bgjh2rcd13ifvqbg0","pricing_plan_id":"free"},{"bike_id":"35eec3a1-aa54-4990-8eb4-78e6c0dd24d0","system_id":"levelo_inurba_marseille","lat":43.29914,"lon":5.37509,"is_reserved":false,"is_disabled":false,"rental_uris":{"android":"levelo://app?vid=35eec3a1-aa54-4990-8eb4-78e6c0dd24d0","ios":"levelo://app?vid=35eec3a1-aa54-4990-8eb4-78e6c0dd24d0"},"vehicle_type_id":"4","last_reported":1692814032,"current_range_meters":20400,"station_id":"ce4bgjh2rcd13ifvqbg0","pricing_plan_id":"free"},{"bike_id":"c113ea56-aecc-4f52-854e-1e37d51f7e06","system_id":"levelo_inurba_marseille","lat":43.32802,"lon":5.36687,"is_reserved":false,"is_disabled":false,"rental_uris":{"android":"levelo://app?vid=c113ea56-aecc-4f52-854e-1e37d51f7e06","ios":"levelo://app?vid=c113ea56-aecc-4f52-854e-1e37d51f7e06"},"vehicle_type_id":"4","last_reported":1692814032,"current_range_meters":6400,"station_id":"ce4bhs92rcd13ifvqi0g","pricing_plan_id":"free"},{"bike_id":"435a3706-3dbd-4c33-942a-739ec967eecf","system_id":"levelo_inurba_marseille","lat":43.32827,"lon":5.3667,"is_reserved":false,"is_disabled":false,"rental_uris":{"android":"levelo://app?vid=435a3706-3dbd-4c33-942a-739ec967eecf","ios":"levelo://app?vid=435a3706-3dbd-4c33-942a-739ec967eecf"},"vehicle_type_id":"4","last_reported":1692814032,"current_range_meters":3600,"station_id":"ce4bhs92rcd13ifvqi0g","pricing_plan_id":"free"},{"bike_id":"dd789220-e7b5-42c1-b9dc-dc4243148021","system_id":"levelo_inurba_marseille","lat":43.297163,"lon":5.365866,"is_reserved":false,"is_disabled":false,"rental_uris":{"android":"levelo://app?vid=dd789220-e7b5-42c1-b9dc-dc4243148021","ios":"levelo://app?vid=dd789220-e7b5-42c1-b9dc-dc4243148021"},"vehicle_type_id":"4","last_reported":1692814032,"current_range_meters":31200,"station_id":"ce4bgn12rcd13ifvqbt0","pricing_plan_id":"free"},{"bike_id":"d3139180-8ba9-4c91-b6e4-8baae3c22113","system_id":"levelo_inurba_marseille","lat":43.296129,"lon":5.370777,"is_reserved":false,"is_disabled":false,"rental_uris":{"android":"levelo://app?vid=d3139180-8ba9-4c91-b6e4-8baae3c22113","ios":"levelo://app?vid=d3139180-8ba9-4c91-b6e4-8baae3c22113"},"vehicle_type_id":"4","last_reported":1692814032,"current_range_meters":30800,"station_id":"ce4bgnh2rcd13ifvqc0g","pricing_plan_id":"free"},{"bike_id":"57fadba7-ebe1-402b-bcbb-8264bad86cb7","system_id":"levelo_inurba_marseille","lat":43.29584,"lon":5.36742,"is_reserved":false,"is_disabled":false,"rental_uris":{"android":"levelo://app?vid=57fadba7-ebe1-402b-bcbb-8264bad86cb7","ios":"levelo://app?vid=57fadba7-ebe1-402b-bcbb-8264bad86cb7"},"vehicle_type_id":"4","last_reported":1692814032,"current_range_meters":31200,"station_id":"ce4bgph2rcd13ifvqc2g","pricing_plan_id":"free"},{"bike_id":"bb155e93-116e-494a-9911-2df351c7dae8","system_id":"levelo_inurba_marseille","lat":43.29623,"lon":5.37198,"is_reserved":false,"is_disabled":false,"rental_uris":{"android":"levelo://app?vid=bb155e93-116e-494a-9911-2df351c7dae8","ios":"levelo://app?vid=bb155e93-116e-494a-9911-2df351c7dae8"},"vehicle_type_id":"4","last_reported":1692814032,"current_range_meters":24000,"station_id":"","pricing_plan_id":"free"},{"bike_id":"deda4749-8535-436b-9206-8030e52bdf14","system_id":"levelo_inurba_marseille","lat":43.296935,"lon":5.376544,"is_reserved":false,"is_disabled":false,"rental_uris":{"android":"levelo://app?vid=deda4749-8535-436b-9206-8030e52bdf14","ios":"levelo://app?vid=deda4749-8535-436b-9206-8030e52bdf14"},"vehicle_type_id":"4","last_reported":1692814032,"current_range_meters":12800,"station_id":"ce4bgkh2rcd13ifvqbl0","pricing_plan_id":"free"},{"bike_id":"fa935810-a1cf-4e7d-9140-4eccd3040f75","system_id":"levelo_inurba_marseille","lat":43.296935,"lon":5.376544,"is_reserved":false,"is_disabled":false,"rental_uris":{"android":"levelo://app?vid=fa935810-a1cf-4e7d-9140-4eccd3040f75","ios":"levelo://app?vid=fa935810-a1cf-4e7d-9140-4eccd3040f75"},"vehicle_type_id":"4","last_reported":1692814032,"current_range_meters":6000,"station_id":"ce4bgkh2rcd13ifvqbl0","pricing_plan_id":"free"},{"bike_id":"2c93ce6f-c5e1-4ec9-9941-ebb7469bb8f2","system_id":"levelo_inurba_marseille","lat":43.317557,"lon":5.390173,"is_reserved":false,"is_disabled":false,"rental_uris":{"android":"levelo://app?vid=2c93ce6f-c5e1-4ec9-9941-ebb7469bb8f2","ios":"levelo://app?vid=2c93ce6f-c5e1-4ec9-9941-ebb7469bb8f2"},"vehicle_type_id":"4","last_reported":1692814032,"current_range_meters":31200,"station_id":"ce4bhqp2rcd13ifvqhng","pricing_plan_id":"free"},{"bike_id":"efbca081-09ec-4fad-bb80-21968037a605","system_id":"levelo_inurba_marseille","lat":43.317557,"lon":5.390173,"is_reserved":false,"is_disabled":false,"rental_uris":{"android":"levelo://app?vid=efbca081-09ec-4fad-bb80-21968037a605","ios":"levelo://app?vid=efbca081-09ec-4fad-bb80-21968037a605"},"vehicle_type_id":"4","last_reported":1692814032,"current_range_meters":25200,"station_id":"ce4bhqp2rcd13ifvqhng","pricing_plan_id":"free"},{"bike_id":"a4df99ce-0488-49dd-a888-94686f562e88","system_id":"levelo_inurba_marseille","lat":43.295748,"lon":5.37522,"is_reserved":false,"is_disabled":false,"rental_uris":{"android":"levelo://app?vid=a4df99ce-0488-49dd-a888-94686f562e88","ios":"levelo://app?vid=a4df99ce-0488-49dd-a888-94686f562e88"},"vehicle_type_id":"4","last_reported":1692814032,"current_range_meters":27200,"station_id":"ce4bgh92rcd13ifvqb50","pricing_plan_id":"free"},{"bike_id":"329b52da-6179-4119-8885-76b50cbdc2a9","system_id":"levelo_inurba_marseille","lat":43.29982,"lon":5.38473,"is_reserved":false,"is_disabled":false,"rental_uris":{"android":"levelo://app?vid=329b52da-6179-4119-8885-76b50cbdc2a9","ios":"levelo://app?vid=329b52da-6179-4119-8885-76b50cbdc2a9"},"vehicle_type_id":"4","last_reported":1692814032,"current_range_meters":21200,"station_id":"ce4bgj92rcd13ifvqbd0","pricing_plan_id":"free"},{"bike_id":"952a19e7-6602-41c3-942f-79cfb514366f","system_id":"levelo_inurba_marseille","lat":43.29758,"lon":5.38122,"is_reserved":false,"is_disabled":false,"rental_uris":{"android":"levelo://app?vid=952a19e7-6602-41c3-942f-79cfb514366f","ios":"levelo://app?vid=952a19e7-6602-41c3-942f-79cfb514366f"},"vehicle_type_id":"4","last_reported":1692814032,"current_range_meters":27600,"station_id":"","pricing_plan_id":"free"},{"bike_id":"deacb73d-beca-4a9c-ba52-9233800aee1f","system_id":"levelo_inurba_marseille","lat":43.301252,"lon":5.387877,"is_reserved":false,"is_disabled":false,"rental_uris":{"android":"levelo://app?vid=deacb73d-beca-4a9c-ba52-9233800aee1f","ios":"levelo://app?vid=deacb73d-beca-4a9c-ba52-9233800aee1f"},"vehicle_type_id":"4","last_reported":1692814032,"current_range_meters":26000,"station_id":"","pricing_plan_id":"free"},{"bike_id":"00883cd9-a56a-4720-bb55-237d0136a4a1","system_id":"levelo_inurba_marseille","lat":43.32367,"lon":5.388836,"is_reserved":false,"is_disabled":false,"rental_uris":{"android":"levelo://app?vid=00883cd9-a56a-4720-bb55-237d0136a4a1","ios":"levelo://app?vid=00883cd9-a56a-4720-bb55-237d0136a4a1"},"vehicle_type_id":"4","last_reported":1692814032,"current_range_meters":29600,"station_id":"ce4bhqp2rcd13ifvqhog","pricing_plan_id":"free"},{"bike_id":"457b0661-bac8-4518-8f3d-55d99e98fbde","system_id":"levelo_inurba_marseille","lat":43.29602,"lon":5.381084,"is_reserved":false,"is_disabled":false,"rental_uris":{"android":"levelo://app?vid=457b0661-bac8-4518-8f3d-55d99e98fbde","ios":"levelo://app?vid=457b0661-bac8-4518-8f3d-55d99e98fbde"},"vehicle_type_id":"4","last_reported":1692814032,"current_range_meters":400,"station_id":"ce4bgl12rcd13ifvqbo0","pricing_plan_id":"free"},{"bike_id":"bceaf0d6-9c51-4367-b2db-4d170b8770eb","system_id":"levelo_inurba_marseille","lat":43.295,"lon":5.37991,"is_reserved":false,"is_disabled":false,"rental_uris":{"android":"levelo://app?vid=bceaf0d6-9c51-4367-b2db-4d170b8770eb","ios":"levelo://app?vid=bceaf0d6-9c51-4367-b2db-4d170b8770eb"},"vehicle_type_id":"4","last_reported":1692814032,"current_range_meters":15600,"station_id":"","pricing_plan_id":"free"},{"bike_id":"38fef587-7cc5-4800-b069-87b8f296a10a","system_id":"levelo_inurba_marseille","lat":43.293009,"lon":5.374584,"is_reserved":false,"is_disabled":false,"rental_uris":{"android":"levelo://app?vid=38fef587-7cc5-4800-b069-87b8f296a10a","ios":"levelo://app?vid=38fef587-7cc5-4800-b069-87b8f296a10a"},"vehicle_type_id":"4","last_reported":1692814032,"current_range_meters":31600,"station_id":"ce4bgi12rcd13ifvqb70","pricing_plan_id":"free"},{"bike_id":"0724f352-a262-45b7-9b71-9a09ff17d945","system_id":"levelo_inurba_marseille","lat":43.30302,"lon":5.39205,"is_reserved":false,"is_disabled":false,"rental_uris":{"android":"levelo://app?vid=0724f352-a262-45b7-9b71-9a09ff17d945","ios":"levelo://app?vid=0724f352-a262-45b7-9b71-9a09ff17d945"},"vehicle_type_id":"4","last_reported":1692814032,"current_range_meters":26400,"station_id":"ce4bgkh2rcd13ifvqbk0","pricing_plan_id":"free"},{"bike_id":"59d4a7cc-c4d8-47e1-a63f-2e26b5d209c3","system_id":"levelo_inurba_marseille","lat":43.2936,"lon":5.37835,"is_reserved":false,"is_disabled":false,"rental_uris":{"android":"levelo://app?vid=59d4a7cc-c4d8-47e1-a63f-2e26b5d209c3","ios":"levelo://app?vid=59d4a7cc-c4d8-47e1-a63f-2e26b5d209c3"},"vehicle_type_id":"4","last_reported":1692814032,"current_range_meters":31200,"station_id":"ce4bgjh2rcd13ifvqbf0","pricing_plan_id":"free"},{"bike_id":"29605f8e-a0f5-47fd-a1e0-50b58e7253fc","system_id":"levelo_inurba_marseille","lat":43.292311,"lon":5.360731,"is_reserved":false,"is_disabled":false,"rental_uris":{"android":"levelo://app?vid=29605f8e-a0f5-47fd-a1e0-50b58e7253fc","ios":"levelo://app?vid=29605f8e-a0f5-47fd-a1e0-50b58e7253fc"},"vehicle_type_id":"4","last_reported":1692814032,"current_range_meters":0,"station_id":"ce4bhbh2rcd13ifvqeqg","pricing_plan_id":"free"},{"bike_id":"4aa8a93f-f297-4e9c-8a7a-adcbadc6d74b","system_id":"levelo_inurba_marseille","lat":43.29172,"lon":5.3714,"is_reserved":false,"is_disabled":false,"rental_uris":{"android":"levelo://app?vid=4aa8a93f-f297-4e9c-8a7a-adcbadc6d74b","ios":"levelo://app?vid=4aa8a93f-f297-4e9c-8a7a-adcbadc6d74b"},"vehicle_type_id":"4","last_reported":1692814032,"current_range_meters":20800,"station_id":"ce4bha92rcd13ifvqeh0","pricing_plan_id":"free"},{"bike_id":"4ad99219-1a8e-4f18-afbf-86032c35c09a","system_id":"levelo_inurba_marseille","lat":43.29202,"lon":5.357923,"is_reserved":false,"is_disabled":false,"rental_uris":{"android":"levelo://app?vid=4ad99219-1a8e-4f18-afbf-86032c35c09a","ios":"levelo://app?vid=4ad99219-1a8e-4f18-afbf-86032c35c09a"},"vehicle_type_id":"4","last_reported":1692814032,"current_range_meters":31200,"station_id":"ce4bhb12rcd13ifvqel0","pricing_plan_id":"free"},{"bike_id":"039da7eb-df0b-4581-9600-5446b5dfb2cd","system_id":"levelo_inurba_marseille","lat":43.292016,"lon":5.357866,"is_reserved":false,"is_disabled":false,"rental_uris":{"android":"levelo://app?vid=039da7eb-df0b-4581-9600-5446b5dfb2cd","ios":"levelo://app?vid=039da7eb-df0b-4581-9600-5446b5dfb2cd"},"vehicle_type_id":"4","last_reported":1692814032,"current_range_meters":12000,"station_id":"ce4bhb12rcd13ifvqel0","pricing_plan_id":"free"},{"bike_id":"4b08e7a6-13a7-4e2d-ba9a-f25b71407e6e","system_id":"levelo_inurba_marseille","lat":43.29197,"lon":5.357921,"is_reserved":false,"is_disabled":false,"rental_uris":{"android":"levelo://app?vid=4b08e7a6-13a7-4e2d-ba9a-f25b71407e6e","ios":"levelo://app?vid=4b08e7a6-13a7-4e2d-ba9a-f25b71407e6e"},"vehicle_type_id":"4","last_reported":1692814032,"current_range_meters":31600,"station_id":"ce4bhb12rcd13ifvqel0","pricing_plan_id":"free"},{"bike_id":"76391f75-8a50-4ea1-9c78-2b5222350cc8","system_id":"levelo_inurba_marseille","lat":43.313291,"lon":5.396838,"is_reserved":false,"is_disabled":false,"rental_uris":{"android":"levelo://app?vid=76391f75-8a50-4ea1-9c78-2b5222350cc8","ios":"levelo://app?vid=76391f75-8a50-4ea1-9c78-2b5222350cc8"},"vehicle_type_id":"4","last_reported":1692814032,"current_range_meters":16800,"station_id":"ce4bgvp2rcd13ifvqcu0","pricing_plan_id":"free"},{"bike_id":"9752dea1-0bd4-4d35-97b4-247424a3a399","system_id":"levelo_inurba_marseille","lat":43.291994,"lon":5.357886,"is_reserved":false,"is_disabled":false,"rental_uris":{"android":"levelo://app?vid=9752dea1-0bd4-4d35-97b4-247424a3a399","ios":"levelo://app?vid=9752dea1-0bd4-4d35-97b4-247424a3a399"},"vehicle_type_id":"4","last_reported":1692814032,"current_range_meters":0,"station_id":"ce4bhb12rcd13ifvqel0","pricing_plan_id":"free"},{"bike_id":"d4920142-7b43-45d7-9d94-7746f226d8ea","system_id":"levelo_inurba_marseille","lat":43.313291,"lon":5.396838,"is_reserved":false,"is_disabled":false,"rental_uris":{"android":"levelo://app?vid=d4920142-7b43-45d7-9d94-7746f226d8ea","ios":"levelo://app?vid=d4920142-7b43-45d7-9d94-7746f226d8ea"},"vehicle_type_id":"4","last_reported":1692814032,"current_range_meters":12800,"station_id":"ce4bgvp2rcd13ifvqcu0","pricing_plan_id":"free"},{"bike_id":"39b5b5cf-86ef-48ea-a176-58e554756417","system_id":"levelo_inurba_marseille","lat":43.302008,"lon":5.394694,"is_reserved":false,"is_disabled":false,"rental_uris":{"android":"levelo://app?vid=39b5b5cf-86ef-48ea-a176-58e554756417","ios":"levelo://app?vid=39b5b5cf-86ef-48ea-a176-58e554756417"},"vehicle_type_id":"4","last_reported":1692814032,"current_range_meters":31200,"station_id":"ce4bh0p2rcd13ifvqd70","pricing_plan_id":"free"},{"bike_id":"8242bb46-fc48-48ce-ac30-1a3ee571ba78","system_id":"levelo_inurba_marseille","lat":43.29086,"lon":5.35599,"is_reserved":false,"is_disabled":false,"rental_uris":{"android":"levelo://app?vid=8242bb46-fc48-48ce-ac30-1a3ee571ba78","ios":"levelo://app?vid=8242bb46-fc48-48ce-ac30-1a3ee571ba78"},"vehicle_type_id":"4","last_reported":1692814032,"current_range_meters":12800,"station_id":"","pricing_plan_id":"free"},{"bike_id":"61aa602e-eb2e-47d0-a4e4-2f02337c89a5","system_id":"levelo_inurba_marseille","lat":43.294153,"lon":5.386305,"is_reserved":false,"is_disabled":false,"rental_uris":{"android":"levelo://app?vid=61aa602e-eb2e-47d0-a4e4-2f02337c89a5","ios":"levelo://app?vid=61aa602e-eb2e-47d0-a4e4-2f02337c89a5"},"vehicle_type_id":"4","last_reported":1692814032,"current_range_meters":800,"station_id":"ce4bh2h2rcd13ifvqdh0","pricing_plan_id":"free"},{"bike_id":"5f4f9907-0787-4bf8-8a56-fcaa0a043375","system_id":"levelo_inurba_marseille","lat":43.32975,"lon":5.38883,"is_reserved":false,"is_disabled":false,"rental_uris":{"android":"levelo://app?vid=5f4f9907-0787-4bf8-8a56-fcaa0a043375","ios":"levelo://app?vid=5f4f9907-0787-4bf8-8a56-fcaa0a043375"},"vehicle_type_id":"4","last_reported":1692814032,"current_range_meters":20400,"station_id":"ce4bhr92rcd13ifvqhrg","pricing_plan_id":"free"},{"bike_id":"444528bf-102a-49bd-8f4a-19af09a05843","system_id":"levelo_inurba_marseille","lat":43.294162,"lon":5.386292,"is_reserved":false,"is_disabled":false,"rental_uris":{"android":"levelo://app?vid=444528bf-102a-49bd-8f4a-19af09a05843","ios":"levelo://app?vid=444528bf-102a-49bd-8f4a-19af09a05843"},"vehicle_type_id":"4","last_reported":1692814032,"current_range_meters":6000,"station_id":"ce4bh2h2rcd13ifvqdh0","pricing_plan_id":"free"},{"bike_id":"66380509-c7c7-406e-97e2-3b53b28f5c1b","system_id":"levelo_inurba_marseille","lat":43.289184,"lon":5.366408,"is_reserved":false,"is_disabled":false,"rental_uris":{"android":"levelo://app?vid=66380509-c7c7-406e-97e2-3b53b28f5c1b","ios":"levelo://app?vid=66380509-c7c7-406e-97e2-3b53b28f5c1b"},"vehicle_type_id":"4","last_reported":1692814032,"current_range_meters":6800,"station_id":"ce4bhap2rcd13ifvqek0","pricing_plan_id":"free"},{"bike_id":"5c314768-45cb-4cbd-b39f-88fdb8293343","system_id":"levelo_inurba_marseille","lat":43.292644,"lon":5.384257,"is_reserved":false,"is_disabled":false,"rental_uris":{"android":"levelo://app?vid=5c314768-45cb-4cbd-b39f-88fdb8293343","ios":"levelo://app?vid=5c314768-45cb-4cbd-b39f-88fdb8293343"},"vehicle_type_id":"4","last_reported":1692814032,"current_range_meters":800,"station_id":"ce4bh692rcd13ifvqea0","pricing_plan_id":"free"},{"bike_id":"c3dd44da-cbcc-477b-9ef5-7cf2e96d45c2","system_id":"levelo_inurba_marseille","lat":43.292644,"lon":5.384257,"is_reserved":false,"is_disabled":false,"rental_uris":{"android":"levelo://app?vid=c3dd44da-cbcc-477b-9ef5-7cf2e96d45c2","ios":"levelo://app?vid=c3dd44da-cbcc-477b-9ef5-7cf2e96d45c2"},"vehicle_type_id":"4","last_reported":1692814032,"current_range_meters":2000,"station_id":"ce4bh692rcd13ifvqea0","pricing_plan_id":"free"},{"bike_id":"503a09ee-404b-4c15-abc6-14c4ae7441d7","system_id":"levelo_inurba_marseille","lat":43.292644,"lon":5.384257,"is_reserved":false,"is_disabled":false,"rental_uris":{"android":"levelo://app?vid=503a09ee-404b-4c15-abc6-14c4ae7441d7","ios":"levelo://app?vid=503a09ee-404b-4c15-abc6-14c4ae7441d7"},"vehicle_type_id":"4","last_reported":1692814032,"current_range_meters":1200,"station_id":"ce4bh692rcd13ifvqea0","pricing_plan_id":"free"},{"bike_id":"8b9f9b54-2e03-4d4e-bfd8-a7cfda03648a","system_id":"levelo_inurba_marseille","lat":43.33042,"lon":5.38909,"is_reserved":false,"is_disabled":false,"rental_uris":{"android":"levelo://app?vid=8b9f9b54-2e03-4d4e-bfd8-a7cfda03648a","ios":"levelo://app?vid=8b9f9b54-2e03-4d4e-bfd8-a7cfda03648a"},"vehicle_type_id":"4","last_reported":1692814032,"current_range_meters":26800,"station_id":"ce4bhr92rcd13ifvqhrg","pricing_plan_id":"free"},{"bike_id":"929ba268-49f5-40ff-9f1c-f4fab1c80d69","system_id":"levelo_inurba_marseille","lat":43.330446,"lon":5.389152,"is_reserved":false,"is_disabled":false,"rental_uris":{"android":"levelo://app?vid=929ba268-49f5-40ff-9f1c-f4fab1c80d69","ios":"levelo://app?vid=929ba268-49f5-40ff-9f1c-f4fab1c80d69"},"vehicle_type_id":"4","last_reported":1692814032,"current_range_meters":24800,"station_id":"ce4bhr92rcd13ifvqhrg","pricing_plan_id":"free"},{"bike_id":"d7190fce-6914-49ed-b3f4-19a46d8636c9","system_id":"levelo_inurba_marseille","lat":43.330447,"lon":5.389156,"is_reserved":false,"is_disabled":false,"rental_uris":{"android":"levelo://app?vid=d7190fce-6914-49ed-b3f4-19a46d8636c9","ios":"levelo://app?vid=d7190fce-6914-49ed-b3f4-19a46d8636c9"},"vehicle_type_id":"4","last_reported":1692814032,"current_range_meters":29200,"station_id":"ce4bhr92rcd13ifvqhrg","pricing_plan_id":"free"},{"bike_id":"780c0f6d-397c-48bd-b61b-7f4437de1a33","system_id":"levelo_inurba_marseille","lat":43.330431,"lon":5.389197,"is_reserved":false,"is_disabled":false,"rental_uris":{"android":"levelo://app?vid=780c0f6d-397c-48bd-b61b-7f4437de1a33","ios":"levelo://app?vid=780c0f6d-397c-48bd-b61b-7f4437de1a33"},"vehicle_type_id":"4","last_reported":1692814032,"current_range_meters":10800,"station_id":"ce4bhr92rcd13ifvqhrg","pricing_plan_id":"free"},{"bike_id":"976e26a9-5952-4647-bc1e-fd70a26c3487","system_id":"levelo_inurba_marseille","lat":43.330459,"lon":5.389162,"is_reserved":false,"is_disabled":false,"rental_uris":{"android":"levelo://app?vid=976e26a9-5952-4647-bc1e-fd70a26c3487","ios":"levelo://app?vid=976e26a9-5952-4647-bc1e-fd70a26c3487"},"vehicle_type_id":"4","last_reported":1692814032,"current_range_meters":23600,"station_id":"ce4bhr92rcd13ifvqhrg","pricing_plan_id":"free"},{"bike_id":"73e30c8d-1fec-42fa-994e-db63cd20ad16","system_id":"levelo_inurba_marseille","lat":43.330437,"lon":5.389208,"is_reserved":false,"is_disabled":false,"rental_uris":{"android":"levelo://app?vid=73e30c8d-1fec-42fa-994e-db63cd20ad16","ios":"levelo://app?vid=73e30c8d-1fec-42fa-994e-db63cd20ad16"},"vehicle_type_id":"4","last_reported":1692814032,"current_range_meters":24000,"station_id":"ce4bhr92rcd13ifvqhrg","pricing_plan_id":"free"},{"bike_id":"0be778fa-45c1-4a36-9460-4bd942612e39","system_id":"levelo_inurba_marseille","lat":43.330467,"lon":5.389165,"is_reserved":false,"is_disabled":false,"rental_uris":{"android":"levelo://app?vid=0be778fa-45c1-4a36-9460-4bd942612e39","ios":"levelo://app?vid=0be778fa-45c1-4a36-9460-4bd942612e39"},"vehicle_type_id":"4","last_reported":1692814032,"current_range_meters":22800,"station_id":"ce4bhr92rcd13ifvqhrg","pricing_plan_id":"free"},{"bike_id":"81bdd50f-e2c9-4875-93b8-ce66b1f39ff9","system_id":"levelo_inurba_marseille","lat":43.33044,"lon":5.389226,"is_reserved":false,"is_disabled":false,"rental_uris":{"android":"levelo://app?vid=81bdd50f-e2c9-4875-93b8-ce66b1f39ff9","ios":"levelo://app?vid=81bdd50f-e2c9-4875-93b8-ce66b1f39ff9"},"vehicle_type_id":"4","last_reported":1692814032,"current_range_meters":13600,"station_id":"ce4bhr92rcd13ifvqhrg","pricing_plan_id":"free"},{"bike_id":"1c07e25f-84db-4513-bedb-11b97c6ec9b6","system_id":"levelo_inurba_marseille","lat":43.330465,"lon":5.389206,"is_reserved":false,"is_disabled":false,"rental_uris":{"android":"levelo://app?vid=1c07e25f-84db-4513-bedb-11b97c6ec9b6","ios":"levelo://app?vid=1c07e25f-84db-4513-bedb-11b97c6ec9b6"},"vehicle_type_id":"4","last_reported":1692814032,"current_range_meters":7200,"station_id":"ce4bhr92rcd13ifvqhrg","pricing_plan_id":"free"},{"bike_id":"cde08171-d87e-45a5-a8d0-c519ab926fc6","system_id":"levelo_inurba_marseille","lat":43.330461,"lon":5.389219,"is_reserved":false,"is_disabled":false,"rental_uris":{"android":"levelo://app?vid=cde08171-d87e-45a5-a8d0-c519ab926fc6","ios":"levelo://app?vid=cde08171-d87e-45a5-a8d0-c519ab926fc6"},"vehicle_type_id":"4","last_reported":1692814032,"current_range_meters":800,"station_id":"ce4bhr92rcd13ifvqhrg","pricing_plan_id":"free"},{"bike_id":"6ac8cbac-7518-4656-b6e8-d55fc5948452","system_id":"levelo_inurba_marseille","lat":43.290779,"lon":5.371482,"is_reserved":false,"is_disabled":false,"rental_uris":{"android":"levelo://app?vid=6ac8cbac-7518-4656-b6e8-d55fc5948452","ios":"levelo://app?vid=6ac8cbac-7518-4656-b6e8-d55fc5948452"},"vehicle_type_id":"4","last_reported":1692814032,"current_range_meters":2400,"station_id":"ce4bh5p2rcd13ifvqe4g","pricing_plan_id":"free"},{"bike_id":"e5340a85-e7e1-475f-be6f-d19dec216c13","system_id":"levelo_inurba_marseille","lat":43.30634,"lon":5.40087,"is_reserved":false,"is_disabled":false,"rental_uris":{"android":"levelo://app?vid=e5340a85-e7e1-475f-be6f-d19dec216c13","ios":"levelo://app?vid=e5340a85-e7e1-475f-be6f-d19dec216c13"},"vehicle_type_id":"4","last_reported":1692814032,"current_range_meters":0,"station_id":"ce4bh112rcd13ifvqda0","pricing_plan_id":"free"},{"bike_id":"fb0db41e-62a1-448b-ab29-9e8df205c26d","system_id":"levelo_inurba_marseille","lat":43.33768,"lon":5.3744,"is_reserved":false,"is_disabled":false,"rental_uris":{"android":"levelo://app?vid=fb0db41e-62a1-448b-ab29-9e8df205c26d","ios":"levelo://app?vid=fb0db41e-62a1-448b-ab29-9e8df205c26d"},"vehicle_type_id":"4","last_reported":1692814032,"current_range_meters":24400,"station_id":"","pricing_plan_id":"free"},{"bike_id":"75199276-b705-4ad7-b6a9-49aeaa84628a","system_id":"levelo_inurba_marseille","lat":43.286591,"lon":5.363346,"is_reserved":false,"is_disabled":false,"rental_uris":{"android":"levelo://app?vid=75199276-b705-4ad7-b6a9-49aeaa84628a","ios":"levelo://app?vid=75199276-b705-4ad7-b6a9-49aeaa84628a"},"vehicle_type_id":"4","last_reported":1692814032,"current_range_meters":30000,"station_id":"ce4bhah2rcd13ifvqej0","pricing_plan_id":"free"},{"bike_id":"0f987865-6b52-4067-85e7-afb52d939ff7","system_id":"levelo_inurba_marseille","lat":43.28667,"lon":5.36349,"is_reserved":false,"is_disabled":false,"rental_uris":{"android":"levelo://app?vid=0f987865-6b52-4067-85e7-afb52d939ff7","ios":"levelo://app?vid=0f987865-6b52-4067-85e7-afb52d939ff7"},"vehicle_type_id":"4","last_reported":1692814032,"current_range_meters":14400,"station_id":"ce4bhah2rcd13ifvqej0","pricing_plan_id":"free"},{"bike_id":"11c23f52-7244-4c49-ae7b-39b3c5e7ac06","system_id":"levelo_inurba_marseille","lat":43.290345,"lon":5.38646,"is_reserved":false,"is_disabled":false,"rental_uris":{"android":"levelo://app?vid=11c23f52-7244-4c49-ae7b-39b3c5e7ac06","ios":"levelo://app?vid=11c23f52-7244-4c49-ae7b-39b3c5e7ac06"},"vehicle_type_id":"4","last_reported":1692814032,"current_range_meters":30400,"station_id":"ce4bh4p2rcd13ifvqe0g","pricing_plan_id":"free"},{"bike_id":"330301bf-3a77-4e9e-8894-9401074a438a","system_id":"levelo_inurba_marseille","lat":43.286039,"lon":5.370681,"is_reserved":false,"is_disabled":false,"rental_uris":{"android":"levelo://app?vid=330301bf-3a77-4e9e-8894-9401074a438a","ios":"levelo://app?vid=330301bf-3a77-4e9e-8894-9401074a438a"},"vehicle_type_id":"4","last_reported":1692814032,"current_range_meters":28800,"station_id":"ce4bht12rcd13ifvqi60","pricing_plan_id":"free"},{"bike_id":"afd24f0c-8208-4552-8a6a-e595b9f9b53c","system_id":"levelo_inurba_marseille","lat":43.286039,"lon":5.370681,"is_reserved":false,"is_disabled":false,"rental_uris":{"android":"levelo://app?vid=afd24f0c-8208-4552-8a6a-e595b9f9b53c","ios":"levelo://app?vid=afd24f0c-8208-4552-8a6a-e595b9f9b53c"},"vehicle_type_id":"4","last_reported":1692814032,"current_range_meters":9200,"station_id":"ce4bht12rcd13ifvqi60","pricing_plan_id":"free"},{"bike_id":"d6639fa0-cccc-4af2-8bc5-35573fbe86df","system_id":"levelo_inurba_marseille","lat":43.316545,"lon":5.404308,"is_reserved":false,"is_disabled":false,"rental_uris":{"android":"levelo://app?vid=d6639fa0-cccc-4af2-8bc5-35573fbe86df","ios":"levelo://app?vid=d6639fa0-cccc-4af2-8bc5-35573fbe86df"},"vehicle_type_id":"4","last_reported":1692814032,"current_range_meters":23200,"station_id":"ce4bh012rcd13ifvqd00","pricing_plan_id":"free"},{"bike_id":"7da9e437-1e79-4b5f-9ab0-65254ac17dd7","system_id":"levelo_inurba_marseille","lat":43.31645,"lon":5.4044,"is_reserved":false,"is_disabled":false,"rental_uris":{"android":"levelo://app?vid=7da9e437-1e79-4b5f-9ab0-65254ac17dd7","ios":"levelo://app?vid=7da9e437-1e79-4b5f-9ab0-65254ac17dd7"},"vehicle_type_id":"4","last_reported":1692814032,"current_range_meters":26800,"station_id":"ce4bh012rcd13ifvqd00","pricing_plan_id":"free"},{"bike_id":"ae922fdf-1251-4396-ba84-eb04fa2b4b7e","system_id":"levelo_inurba_marseille","lat":43.291994,"lon":5.392907,"is_reserved":false,"is_disabled":false,"rental_uris":{"android":"levelo://app?vid=ae922fdf-1251-4396-ba84-eb04fa2b4b7e","ios":"levelo://app?vid=ae922fdf-1251-4396-ba84-eb04fa2b4b7e"},"vehicle_type_id":"4","last_reported":1692814032,"current_range_meters":27200,"station_id":"ce4bh192rcd13ifvqdd0","pricing_plan_id":"free"},{"bike_id":"88d36210-04ca-4956-8ee0-9934783744ce","system_id":"levelo_inurba_marseille","lat":43.284534,"lon":5.358662,"is_reserved":false,"is_disabled":false,"rental_uris":{"android":"levelo://app?vid=88d36210-04ca-4956-8ee0-9934783744ce","ios":"levelo://app?vid=88d36210-04ca-4956-8ee0-9934783744ce"},"vehicle_type_id":"4","last_reported":1692814032,"current_range_meters":13600,"station_id":"ce4bhah2rcd13ifvqei0","pricing_plan_id":"free"},{"bike_id":"68c33933-c4d9-45cc-975d-fcfa73244969","system_id":"levelo_inurba_marseille","lat":43.284538,"lon":5.358657,"is_reserved":false,"is_disabled":false,"rental_uris":{"android":"levelo://app?vid=68c33933-c4d9-45cc-975d-fcfa73244969","ios":"levelo://app?vid=68c33933-c4d9-45cc-975d-fcfa73244969"},"vehicle_type_id":"4","last_reported":1692814032,"current_range_meters":18800,"station_id":"ce4bhah2rcd13ifvqei0","pricing_plan_id":"free"},{"bike_id":"3ad00b4f-8613-4a4e-86bf-0a89fd428159","system_id":"levelo_inurba_marseille","lat":43.28616,"lon":5.35107,"is_reserved":false,"is_disabled":false,"rental_uris":{"android":"levelo://app?vid=3ad00b4f-8613-4a4e-86bf-0a89fd428159","ios":"levelo://app?vid=3ad00b4f-8613-4a4e-86bf-0a89fd428159"},"vehicle_type_id":"4","last_reported":1692814032,"current_range_meters":28800,"station_id":"ce4bhch2rcd13ifvqeug","pricing_plan_id":"free"},{"bike_id":"d168c92c-a6a3-4c54-9aaf-710e9b294a7b","system_id":"levelo_inurba_marseille","lat":43.285848,"lon":5.350787,"is_reserved":false,"is_disabled":false,"rental_uris":{"android":"levelo://app?vid=d168c92c-a6a3-4c54-9aaf-710e9b294a7b","ios":"levelo://app?vid=d168c92c-a6a3-4c54-9aaf-710e9b294a7b"},"vehicle_type_id":"4","last_reported":1692814032,"current_range_meters":23200,"station_id":"ce4bhch2rcd13ifvqeug","pricing_plan_id":"free"},{"bike_id":"23b46c96-b11c-470d-9af8-72dd19b56c59","system_id":"levelo_inurba_marseille","lat":43.28615,"lon":5.35103,"is_reserved":false,"is_disabled":false,"rental_uris":{"android":"levelo://app?vid=23b46c96-b11c-470d-9af8-72dd19b56c59","ios":"levelo://app?vid=23b46c96-b11c-470d-9af8-72dd19b56c59"},"vehicle_type_id":"4","last_reported":1692814032,"current_range_meters":20000,"station_id":"ce4bhch2rcd13ifvqeug","pricing_plan_id":"free"},{"bike_id":"bfc3a2e6-ecd1-4655-9d75-0269367338f3","system_id":"levelo_inurba_marseille","lat":43.28615,"lon":5.35101,"is_reserved":false,"is_disabled":false,"rental_uris":{"android":"levelo://app?vid=bfc3a2e6-ecd1-4655-9d75-0269367338f3","ios":"levelo://app?vid=bfc3a2e6-ecd1-4655-9d75-0269367338f3"},"vehicle_type_id":"4","last_reported":1692814032,"current_range_meters":0,"station_id":"ce4bhch2rcd13ifvqeug","pricing_plan_id":"free"},{"bike_id":"e1c014ad-1ced-401c-86cc-468bf58d54c3","system_id":"levelo_inurba_marseille","lat":43.28614,"lon":5.35103,"is_reserved":false,"is_disabled":false,"rental_uris":{"android":"levelo://app?vid=e1c014ad-1ced-401c-86cc-468bf58d54c3","ios":"levelo://app?vid=e1c014ad-1ced-401c-86cc-468bf58d54c3"},"vehicle_type_id":"4","last_reported":1692814032,"current_range_meters":25200,"station_id":"ce4bhch2rcd13ifvqeug","pricing_plan_id":"free"},{"bike_id":"a21cec92-087a-453b-ae06-13fd239a31fc","system_id":"levelo_inurba_marseille","lat":43.28613,"lon":5.35106,"is_reserved":false,"is_disabled":false,"rental_uris":{"android":"levelo://app?vid=a21cec92-087a-453b-ae06-13fd239a31fc","ios":"levelo://app?vid=a21cec92-087a-453b-ae06-13fd239a31fc"},"vehicle_type_id":"4","last_reported":1692814032,"current_range_meters":8000,"station_id":"ce4bhch2rcd13ifvqeug","pricing_plan_id":"free"},{"bike_id":"ff9d1be4-1cd6-4e68-ba2e-b29aaa3bdaf6","system_id":"levelo_inurba_marseille","lat":43.28612,"lon":5.35099,"is_reserved":false,"is_disabled":false,"rental_uris":{"android":"levelo://app?vid=ff9d1be4-1cd6-4e68-ba2e-b29aaa3bdaf6","ios":"levelo://app?vid=ff9d1be4-1cd6-4e68-ba2e-b29aaa3bdaf6"},"vehicle_type_id":"4","last_reported":1692814032,"current_range_meters":8400,"station_id":"ce4bhch2rcd13ifvqeug","pricing_plan_id":"free"},{"bike_id":"0484c8d6-2fab-4434-8f7b-d093fd2a41ad","system_id":"levelo_inurba_marseille","lat":43.28608,"lon":5.35099,"is_reserved":false,"is_disabled":false,"rental_uris":{"android":"levelo://app?vid=0484c8d6-2fab-4434-8f7b-d093fd2a41ad","ios":"levelo://app?vid=0484c8d6-2fab-4434-8f7b-d093fd2a41ad"},"vehicle_type_id":"4","last_reported":1692814032,"current_range_meters":1600,"station_id":"ce4bhch2rcd13ifvqeug","pricing_plan_id":"free"},{"bike_id":"17e90e65-d88b-4a02-b4cc-4c8688e8acf3","system_id":"levelo_inurba_marseille","lat":43.28607,"lon":5.35096,"is_reserved":false,"is_disabled":false,"rental_uris":{"android":"levelo://app?vid=17e90e65-d88b-4a02-b4cc-4c8688e8acf3","ios":"levelo://app?vid=17e90e65-d88b-4a02-b4cc-4c8688e8acf3"},"vehicle_type_id":"4","last_reported":1692814032,"current_range_meters":10400,"station_id":"ce4bhch2rcd13ifvqeug","pricing_plan_id":"free"},{"bike_id":"2363d3b5-6c15-401a-a59c-ee80bd4af927","system_id":"levelo_inurba_marseille","lat":43.28415,"lon":5.37522,"is_reserved":false,"is_disabled":false,"rental_uris":{"android":"levelo://app?vid=2363d3b5-6c15-401a-a59c-ee80bd4af927","ios":"levelo://app?vid=2363d3b5-6c15-401a-a59c-ee80bd4af927"},"vehicle_type_id":"4","last_reported":1692814032,"current_range_meters":4800,"station_id":"ce4bh412rcd13ifvqds0","pricing_plan_id":"free"},{"bike_id":"7d579951-f209-4874-9a0c-e4ee7fc47763","system_id":"levelo_inurba_marseille","lat":43.28404,"lon":5.37512,"is_reserved":false,"is_disabled":false,"rental_uris":{"android":"levelo://app?vid=7d579951-f209-4874-9a0c-e4ee7fc47763","ios":"levelo://app?vid=7d579951-f209-4874-9a0c-e4ee7fc47763"},"vehicle_type_id":"4","last_reported":1692814032,"current_range_meters":0,"station_id":"ce4bh412rcd13ifvqds0","pricing_plan_id":"free"},{"bike_id":"20d8a268-b475-49c5-b641-35addf9e2fa5","system_id":"levelo_inurba_marseille","lat":43.319179,"lon":5.407725,"is_reserved":false,"is_disabled":false,"rental_uris":{"android":"levelo://app?vid=20d8a268-b475-49c5-b641-35addf9e2fa5","ios":"levelo://app?vid=20d8a268-b475-49c5-b641-35addf9e2fa5"},"vehicle_type_id":"4","last_reported":1692814032,"current_range_meters":0,"station_id":"ce4bhq12rcd13ifvqhig","pricing_plan_id":"free"},{"bike_id":"e54ac8bf-03e6-4445-b501-5f2a8496318b","system_id":"levelo_inurba_marseille","lat":43.3372,"lon":5.39179,"is_reserved":false,"is_disabled":false,"rental_uris":{"android":"levelo://app?vid=e54ac8bf-03e6-4445-b501-5f2a8496318b","ios":"levelo://app?vid=e54ac8bf-03e6-4445-b501-5f2a8496318b"},"vehicle_type_id":"4","last_reported":1692814032,"current_range_meters":22000,"station_id":"ce4bhr92rcd13ifvqhsg","pricing_plan_id":"free"},{"bike_id":"73407d5d-ae91-461c-8582-bbf0e6e1ffea","system_id":"levelo_inurba_marseille","lat":43.33721,"lon":5.39185,"is_reserved":false,"is_disabled":false,"rental_uris":{"android":"levelo://app?vid=73407d5d-ae91-461c-8582-bbf0e6e1ffea","ios":"levelo://app?vid=73407d5d-ae91-461c-8582-bbf0e6e1ffea"},"vehicle_type_id":"4","last_reported":1692814032,"current_range_meters":0,"station_id":"ce4bhr92rcd13ifvqhsg","pricing_plan_id":"free"},{"bike_id":"d0d502d8-05da-436a-99c2-3437175bbe7a","system_id":"levelo_inurba_marseille","lat":43.284793,"lon":5.384113,"is_reserved":false,"is_disabled":false,"rental_uris":{"android":"levelo://app?vid=d0d502d8-05da-436a-99c2-3437175bbe7a","ios":"levelo://app?vid=d0d502d8-05da-436a-99c2-3437175bbe7a"},"vehicle_type_id":"4","last_reported":1692814032,"current_range_meters":2400,"station_id":"ce4bh512rcd13ifvqe3g","pricing_plan_id":"free"},{"bike_id":"81207e02-e329-4cea-9b6c-33ba9c0267d2","system_id":"levelo_inurba_marseille","lat":43.284793,"lon":5.384113,"is_reserved":false,"is_disabled":false,"rental_uris":{"android":"levelo://app?vid=81207e02-e329-4cea-9b6c-33ba9c0267d2","ios":"levelo://app?vid=81207e02-e329-4cea-9b6c-33ba9c0267d2"},"vehicle_type_id":"4","last_reported":1692814032,"current_range_meters":31200,"station_id":"ce4bh512rcd13ifvqe3g","pricing_plan_id":"free"},{"bike_id":"a6f09456-1920-43cf-a411-ae9200213708","system_id":"levelo_inurba_marseille","lat":43.284793,"lon":5.384119,"is_reserved":false,"is_disabled":false,"rental_uris":{"android":"levelo://app?vid=a6f09456-1920-43cf-a411-ae9200213708","ios":"levelo://app?vid=a6f09456-1920-43cf-a411-ae9200213708"},"vehicle_type_id":"4","last_reported":1692814032,"current_range_meters":6800,"station_id":"ce4bh512rcd13ifvqe3g","pricing_plan_id":"free"},{"bike_id":"2ea73967-988f-4f1a-aa76-7f33a11c4098","system_id":"levelo_inurba_marseille","lat":43.30672,"lon":5.40884,"is_reserved":false,"is_disabled":false,"rental_uris":{"android":"levelo://app?vid=2ea73967-988f-4f1a-aa76-7f33a11c4098","ios":"levelo://app?vid=2ea73967-988f-4f1a-aa76-7f33a11c4098"},"vehicle_type_id":"4","last_reported":1692814032,"current_range_meters":13200,"station_id":"","pricing_plan_id":"free"},{"bike_id":"e56beaab-0424-4aef-9570-b0eeefd701dc","system_id":"levelo_inurba_marseille","lat":43.284219,"lon":5.3497,"is_reserved":false,"is_disabled":false,"rental_uris":{"android":"levelo://app?vid=e56beaab-0424-4aef-9570-b0eeefd701dc","ios":"levelo://app?vid=e56beaab-0424-4aef-9570-b0eeefd701dc"},"vehicle_type_id":"4","last_reported":1692814032,"current_range_meters":6800,"station_id":"ce4bhbh2rcd13ifvqepg","pricing_plan_id":"free"},{"bike_id":"145b6026-3106-43ea-880b-90dbaa7ff01a","system_id":"levelo_inurba_marseille","lat":43.28419,"lon":5.34981,"is_reserved":false,"is_disabled":false,"rental_uris":{"android":"levelo://app?vid=145b6026-3106-43ea-880b-90dbaa7ff01a","ios":"levelo://app?vid=145b6026-3106-43ea-880b-90dbaa7ff01a"},"vehicle_type_id":"4","last_reported":1692814032,"current_range_meters":30800,"station_id":"ce4bhbh2rcd13ifvqepg","pricing_plan_id":"free"},{"bike_id":"b0efa0e7-7c7d-456c-9e71-707671aba0da","system_id":"levelo_inurba_marseille","lat":43.28414,"lon":5.34982,"is_reserved":false,"is_disabled":false,"rental_uris":{"android":"levelo://app?vid=b0efa0e7-7c7d-456c-9e71-707671aba0da","ios":"levelo://app?vid=b0efa0e7-7c7d-456c-9e71-707671aba0da"},"vehicle_type_id":"4","last_reported":1692814032,"current_range_meters":28400,"station_id":"ce4bhbh2rcd13ifvqepg","pricing_plan_id":"free"},{"bike_id":"c0964de5-19ed-4e4f-b04a-066e788432ad","system_id":"levelo_inurba_marseille","lat":43.284219,"lon":5.3497,"is_reserved":false,"is_disabled":false,"rental_uris":{"android":"levelo://app?vid=c0964de5-19ed-4e4f-b04a-066e788432ad","ios":"levelo://app?vid=c0964de5-19ed-4e4f-b04a-066e788432ad"},"vehicle_type_id":"4","last_reported":1692814032,"current_range_meters":1200,"station_id":"ce4bhbh2rcd13ifvqepg","pricing_plan_id":"free"},{"bike_id":"cdb79983-85d8-42a6-a767-91785f431dab","system_id":"levelo_inurba_marseille","lat":43.28321,"lon":5.35222,"is_reserved":false,"is_disabled":false,"rental_uris":{"android":"levelo://app?vid=cdb79983-85d8-42a6-a767-91785f431dab","ios":"levelo://app?vid=cdb79983-85d8-42a6-a767-91785f431dab"},"vehicle_type_id":"4","last_reported":1692814032,"current_range_meters":18000,"station_id":"","pricing_plan_id":"free"},{"bike_id":"f50aca5f-cf5b-4020-925f-826a2e34874f","system_id":"levelo_inurba_marseille","lat":43.28937,"lon":5.39626,"is_reserved":false,"is_disabled":false,"rental_uris":{"android":"levelo://app?vid=f50aca5f-cf5b-4020-925f-826a2e34874f","ios":"levelo://app?vid=f50aca5f-cf5b-4020-925f-826a2e34874f"},"vehicle_type_id":"4","last_reported":1692814032,"current_range_meters":31200,"station_id":"ce4bh3h2rcd13ifvqdn0","pricing_plan_id":"free"},{"bike_id":"79ae07f7-3d9b-456b-927e-8e880eafedba","system_id":"levelo_inurba_marseille","lat":43.32572,"lon":5.40673,"is_reserved":false,"is_disabled":false,"rental_uris":{"android":"levelo://app?vid=79ae07f7-3d9b-456b-927e-8e880eafedba","ios":"levelo://app?vid=79ae07f7-3d9b-456b-927e-8e880eafedba"},"vehicle_type_id":"4","last_reported":1692814032,"current_range_meters":400,"station_id":"","pricing_plan_id":"free"},{"bike_id":"88940920-727e-47f8-bee6-24feedff1167","system_id":"levelo_inurba_marseille","lat":43.282754,"lon":5.350519,"is_reserved":false,"is_disabled":false,"rental_uris":{"android":"levelo://app?vid=88940920-727e-47f8-bee6-24feedff1167","ios":"levelo://app?vid=88940920-727e-47f8-bee6-24feedff1167"},"vehicle_type_id":"4","last_reported":1692814032,"current_range_meters":29600,"station_id":"ce4bhbp2rcd13ifvqerg","pricing_plan_id":"free"},{"bike_id":"aec721ad-70b0-4254-965b-80b8a2126731","system_id":"levelo_inurba_marseille","lat":43.282744,"lon":5.350533,"is_reserved":false,"is_disabled":false,"rental_uris":{"android":"levelo://app?vid=aec721ad-70b0-4254-965b-80b8a2126731","ios":"levelo://app?vid=aec721ad-70b0-4254-965b-80b8a2126731"},"vehicle_type_id":"4","last_reported":1692814032,"current_range_meters":17600,"station_id":"ce4bhbp2rcd13ifvqerg","pricing_plan_id":"free"},{"bike_id":"9c481e60-a580-4700-881c-2f26ad133f65","system_id":"levelo_inurba_marseille","lat":43.28262,"lon":5.35068,"is_reserved":false,"is_disabled":false,"rental_uris":{"android":"levelo://app?vid=9c481e60-a580-4700-881c-2f26ad133f65","ios":"levelo://app?vid=9c481e60-a580-4700-881c-2f26ad133f65"},"vehicle_type_id":"4","last_reported":1692814032,"current_range_meters":16000,"station_id":"ce4bhbp2rcd13ifvqerg","pricing_plan_id":"free"},{"bike_id":"70f31d29-ffb1-497c-bb90-7fc0a9578856","system_id":"levelo_inurba_marseille","lat":43.282744,"lon":5.350533,"is_reserved":false,"is_disabled":false,"rental_uris":{"android":"levelo://app?vid=70f31d29-ffb1-497c-bb90-7fc0a9578856","ios":"levelo://app?vid=70f31d29-ffb1-497c-bb90-7fc0a9578856"},"vehicle_type_id":"4","last_reported":1692814032,"current_range_meters":6800,"station_id":"ce4bhbp2rcd13ifvqerg","pricing_plan_id":"free"},{"bike_id":"9f46cfde-4f76-4076-bade-5765c2d3d473","system_id":"levelo_inurba_marseille","lat":43.28039,"lon":5.369297,"is_reserved":false,"is_disabled":false,"rental_uris":{"android":"levelo://app?vid=9f46cfde-4f76-4076-bade-5765c2d3d473","ios":"levelo://app?vid=9f46cfde-4f76-4076-bade-5765c2d3d473"},"vehicle_type_id":"4","last_reported":1692814032,"current_range_meters":31600,"station_id":"ce4bha12rcd13ifvqef0","pricing_plan_id":"free"},{"bike_id":"6f3483a8-e9c6-45f2-9151-1f44903dc6f7","system_id":"levelo_inurba_marseille","lat":43.28039,"lon":5.369297,"is_reserved":false,"is_disabled":false,"rental_uris":{"android":"levelo://app?vid=6f3483a8-e9c6-45f2-9151-1f44903dc6f7","ios":"levelo://app?vid=6f3483a8-e9c6-45f2-9151-1f44903dc6f7"},"vehicle_type_id":"4","last_reported":1692814032,"current_range_meters":13600,"station_id":"ce4bha12rcd13ifvqef0","pricing_plan_id":"free"},{"bike_id":"5328b331-a439-40f3-8f54-0e6f57983ded","system_id":"levelo_inurba_marseille","lat":43.28094,"lon":5.37845,"is_reserved":false,"is_disabled":false,"rental_uris":{"android":"levelo://app?vid=5328b331-a439-40f3-8f54-0e6f57983ded","ios":"levelo://app?vid=5328b331-a439-40f3-8f54-0e6f57983ded"},"vehicle_type_id":"4","last_reported":1692814032,"current_range_meters":21600,"station_id":"ce4bha12rcd13ifvqee0","pricing_plan_id":"free"},{"bike_id":"cf865283-cbb7-48a5-8720-ae22cccc5f52","system_id":"levelo_inurba_marseille","lat":43.284462,"lon":5.392121,"is_reserved":false,"is_disabled":false,"rental_uris":{"android":"levelo://app?vid=cf865283-cbb7-48a5-8720-ae22cccc5f52","ios":"levelo://app?vid=cf865283-cbb7-48a5-8720-ae22cccc5f52"},"vehicle_type_id":"4","last_reported":1692814032,"current_range_meters":4400,"station_id":"ce4bhoh2rcd13ifvqh5g","pricing_plan_id":"free"},{"bike_id":"e3c427de-cffa-4327-a4ac-3f5e1b09659b","system_id":"levelo_inurba_marseille","lat":43.285742,"lon":5.395004,"is_reserved":false,"is_disabled":false,"rental_uris":{"android":"levelo://app?vid=e3c427de-cffa-4327-a4ac-3f5e1b09659b","ios":"levelo://app?vid=e3c427de-cffa-4327-a4ac-3f5e1b09659b"},"vehicle_type_id":"4","last_reported":1692814032,"current_range_meters":4000,"station_id":"ce4bh292rcd13ifvqdg0","pricing_plan_id":"free"},{"bike_id":"21b92174-ff93-4971-96bc-953f21b26822","system_id":"levelo_inurba_marseille","lat":43.32657,"lon":5.4099,"is_reserved":false,"is_disabled":false,"rental_uris":{"android":"levelo://app?vid=21b92174-ff93-4971-96bc-953f21b26822","ios":"levelo://app?vid=21b92174-ff93-4971-96bc-953f21b26822"},"vehicle_type_id":"4","last_reported":1692814032,"current_range_meters":800,"station_id":"ce4bhpp2rcd13ifvqhgg","pricing_plan_id":"free"},{"bike_id":"a0a0fc11-0993-4b38-9635-10fee00c1b23","system_id":"levelo_inurba_marseille","lat":43.320045,"lon":5.415046,"is_reserved":false,"is_disabled":false,"rental_uris":{"android":"levelo://app?vid=a0a0fc11-0993-4b38-9635-10fee00c1b23","ios":"levelo://app?vid=a0a0fc11-0993-4b38-9635-10fee00c1b23"},"vehicle_type_id":"4","last_reported":1692814032,"current_range_meters":31200,"station_id":"ce4bhq92rcd13ifvqhkg","pricing_plan_id":"free"},{"bike_id":"33b231e7-23da-40ca-be9a-f6b3a25d5f66","system_id":"levelo_inurba_marseille","lat":43.299579,"lon":5.413255,"is_reserved":false,"is_disabled":false,"rental_uris":{"android":"levelo://app?vid=33b231e7-23da-40ca-be9a-f6b3a25d5f66","ios":"levelo://app?vid=33b231e7-23da-40ca-be9a-f6b3a25d5f66"},"vehicle_type_id":"4","last_reported":1692814032,"current_range_meters":9200,"station_id":"ce4bhp12rcd13ifvqh9g","pricing_plan_id":"free"},{"bike_id":"1f5e3677-0282-4548-848b-20a341456899","system_id":"levelo_inurba_marseille","lat":43.32049,"lon":5.41544,"is_reserved":false,"is_disabled":false,"rental_uris":{"android":"levelo://app?vid=1f5e3677-0282-4548-848b-20a341456899","ios":"levelo://app?vid=1f5e3677-0282-4548-848b-20a341456899"},"vehicle_type_id":"4","last_reported":1692814032,"current_range_meters":14800,"station_id":"ce4bhq92rcd13ifvqhkg","pricing_plan_id":"free"},{"bike_id":"e85807de-5e0e-463d-a9f0-c8a8f6a61d70","system_id":"levelo_inurba_marseille","lat":43.320045,"lon":5.415048,"is_reserved":false,"is_disabled":false,"rental_uris":{"android":"levelo://app?vid=e85807de-5e0e-463d-a9f0-c8a8f6a61d70","ios":"levelo://app?vid=e85807de-5e0e-463d-a9f0-c8a8f6a61d70"},"vehicle_type_id":"4","last_reported":1692814032,"current_range_meters":17600,"station_id":"ce4bhq92rcd13ifvqhkg","pricing_plan_id":"free"},{"bike_id":"4b126a55-abe4-44b7-8e34-6d2a05d3687d","system_id":"levelo_inurba_marseille","lat":43.320045,"lon":5.415048,"is_reserved":false,"is_disabled":false,"rental_uris":{"android":"levelo://app?vid=4b126a55-abe4-44b7-8e34-6d2a05d3687d","ios":"levelo://app?vid=4b126a55-abe4-44b7-8e34-6d2a05d3687d"},"vehicle_type_id":"4","last_reported":1692814032,"current_range_meters":25600,"station_id":"ce4bhq92rcd13ifvqhkg","pricing_plan_id":"free"},{"bike_id":"b6c8fc88-61ab-4e23-b0b7-8f9f0c8bf683","system_id":"levelo_inurba_marseille","lat":43.320045,"lon":5.415046,"is_reserved":false,"is_disabled":false,"rental_uris":{"android":"levelo://app?vid=b6c8fc88-61ab-4e23-b0b7-8f9f0c8bf683","ios":"levelo://app?vid=b6c8fc88-61ab-4e23-b0b7-8f9f0c8bf683"},"vehicle_type_id":"4","last_reported":1692814032,"current_range_meters":12800,"station_id":"ce4bhq92rcd13ifvqhkg","pricing_plan_id":"free"},{"bike_id":"c327718a-8fe6-4791-a349-aba0f8f94e82","system_id":"levelo_inurba_marseille","lat":43.27961,"lon":5.38706,"is_reserved":false,"is_disabled":false,"rental_uris":{"android":"levelo://app?vid=c327718a-8fe6-4791-a349-aba0f8f94e82","ios":"levelo://app?vid=c327718a-8fe6-4791-a349-aba0f8f94e82"},"vehicle_type_id":"4","last_reported":1692814032,"current_range_meters":25600,"station_id":"ce4bhg12rcd13ifvqf80","pricing_plan_id":"free"},{"bike_id":"4753502f-3868-4b19-9875-d3e533b02670","system_id":"levelo_inurba_marseille","lat":43.320045,"lon":5.415048,"is_reserved":false,"is_disabled":false,"rental_uris":{"android":"levelo://app?vid=4753502f-3868-4b19-9875-d3e533b02670","ios":"levelo://app?vid=4753502f-3868-4b19-9875-d3e533b02670"},"vehicle_type_id":"4","last_reported":1692814032,"current_range_meters":31600,"station_id":"ce4bhq92rcd13ifvqhkg","pricing_plan_id":"free"},{"bike_id":"670c43d1-2946-4d70-9314-8f75ea582599","system_id":"levelo_inurba_marseille","lat":43.279742,"lon":5.38744,"is_reserved":false,"is_disabled":false,"rental_uris":{"android":"levelo://app?vid=670c43d1-2946-4d70-9314-8f75ea582599","ios":"levelo://app?vid=670c43d1-2946-4d70-9314-8f75ea582599"},"vehicle_type_id":"4","last_reported":1692814032,"current_range_meters":0,"station_id":"ce4bhg12rcd13ifvqf80","pricing_plan_id":"free"},{"bike_id":"0911c30e-625e-4b79-b259-b6b8b1f02e9f","system_id":"levelo_inurba_marseille","lat":43.32039,"lon":5.41569,"is_reserved":false,"is_disabled":false,"rental_uris":{"android":"levelo://app?vid=0911c30e-625e-4b79-b259-b6b8b1f02e9f","ios":"levelo://app?vid=0911c30e-625e-4b79-b259-b6b8b1f02e9f"},"vehicle_type_id":"4","last_reported":1692814032,"current_range_meters":20000,"station_id":"ce4bhq92rcd13ifvqhkg","pricing_plan_id":"free"},{"bike_id":"45c38ac2-099d-44b2-a973-f8411dc0591c","system_id":"levelo_inurba_marseille","lat":43.320045,"lon":5.415048,"is_reserved":false,"is_disabled":false,"rental_uris":{"android":"levelo://app?vid=45c38ac2-099d-44b2-a973-f8411dc0591c","ios":"levelo://app?vid=45c38ac2-099d-44b2-a973-f8411dc0591c"},"vehicle_type_id":"4","last_reported":1692814032,"current_range_meters":30400,"station_id":"ce4bhq92rcd13ifvqhkg","pricing_plan_id":"free"},{"bike_id":"8f942196-1030-490b-a269-08145924235d","system_id":"levelo_inurba_marseille","lat":43.292569,"lon":5.409107,"is_reserved":false,"is_disabled":false,"rental_uris":{"android":"levelo://app?vid=8f942196-1030-490b-a269-08145924235d","ios":"levelo://app?vid=8f942196-1030-490b-a269-08145924235d"},"vehicle_type_id":"4","last_reported":1692814032,"current_range_meters":3200,"station_id":"ce4bh192rcd13ifvqdc0","pricing_plan_id":"free"},{"bike_id":"d1bd8939-ecb1-45c7-a218-644d2536f11f","system_id":"levelo_inurba_marseille","lat":43.27623,"lon":5.36104,"is_reserved":false,"is_disabled":false,"rental_uris":{"android":"levelo://app?vid=d1bd8939-ecb1-45c7-a218-644d2536f11f","ios":"levelo://app?vid=d1bd8939-ecb1-45c7-a218-644d2536f11f"},"vehicle_type_id":"4","last_reported":1692814032,"current_range_meters":12400,"station_id":"ce4bgj92rcd13ifvqbe0","pricing_plan_id":"free"},{"bike_id":"045850f6-c2c8-4cdc-a661-c08d43503440","system_id":"levelo_inurba_marseille","lat":43.2762,"lon":5.36109,"is_reserved":false,"is_disabled":false,"rental_uris":{"android":"levelo://app?vid=045850f6-c2c8-4cdc-a661-c08d43503440","ios":"levelo://app?vid=045850f6-c2c8-4cdc-a661-c08d43503440"},"vehicle_type_id":"4","last_reported":1692814032,"current_range_meters":30800,"station_id":"ce4bgj92rcd13ifvqbe0","pricing_plan_id":"free"},{"bike_id":"dda894b5-7c53-496f-8bf6-977537a17422","system_id":"levelo_inurba_marseille","lat":43.27616,"lon":5.36114,"is_reserved":false,"is_disabled":false,"rental_uris":{"android":"levelo://app?vid=dda894b5-7c53-496f-8bf6-977537a17422","ios":"levelo://app?vid=dda894b5-7c53-496f-8bf6-977537a17422"},"vehicle_type_id":"4","last_reported":1692814032,"current_range_meters":0,"station_id":"ce4bgj92rcd13ifvqbe0","pricing_plan_id":"free"},{"bike_id":"1499202f-990e-446a-99a9-11110f6c591e","system_id":"levelo_inurba_marseille","lat":43.27613,"lon":5.36114,"is_reserved":false,"is_disabled":false,"rental_uris":{"android":"levelo://app?vid=1499202f-990e-446a-99a9-11110f6c591e","ios":"levelo://app?vid=1499202f-990e-446a-99a9-11110f6c591e"},"vehicle_type_id":"4","last_reported":1692814032,"current_range_meters":16400,"station_id":"ce4bgj92rcd13ifvqbe0","pricing_plan_id":"free"},{"bike_id":"d43ef991-3cc7-4b3b-8acc-fd0bc95ade90","system_id":"levelo_inurba_marseille","lat":43.27614,"lon":5.36102,"is_reserved":false,"is_disabled":false,"rental_uris":{"android":"levelo://app?vid=d43ef991-3cc7-4b3b-8acc-fd0bc95ade90","ios":"levelo://app?vid=d43ef991-3cc7-4b3b-8acc-fd0bc95ade90"},"vehicle_type_id":"4","last_reported":1692814032,"current_range_meters":12800,"station_id":"ce4bgj92rcd13ifvqbe0","pricing_plan_id":"free"},{"bike_id":"a66fab84-1054-4d10-b896-1cb540e8ef43","system_id":"levelo_inurba_marseille","lat":43.276179,"lon":5.361009,"is_reserved":false,"is_disabled":false,"rental_uris":{"android":"levelo://app?vid=a66fab84-1054-4d10-b896-1cb540e8ef43","ios":"levelo://app?vid=a66fab84-1054-4d10-b896-1cb540e8ef43"},"vehicle_type_id":"4","last_reported":1692814032,"current_range_meters":24400,"station_id":"ce4bgj92rcd13ifvqbe0","pricing_plan_id":"free"},{"bike_id":"91bcd023-ed5f-4c9b-9a3e-0ddc21f39e52","system_id":"levelo_inurba_marseille","lat":43.32547,"lon":5.41451,"is_reserved":false,"is_disabled":false,"rental_uris":{"android":"levelo://app?vid=91bcd023-ed5f-4c9b-9a3e-0ddc21f39e52","ios":"levelo://app?vid=91bcd023-ed5f-4c9b-9a3e-0ddc21f39e52"},"vehicle_type_id":"4","last_reported":1692814032,"current_range_meters":29600,"station_id":"ce4bhq12rcd13ifvqhhg","pricing_plan_id":"free"},{"bike_id":"9ecc8be5-d6a0-4d2b-8ee3-d2256b3f7a17","system_id":"levelo_inurba_marseille","lat":43.276001,"lon":5.361125,"is_reserved":false,"is_disabled":false,"rental_uris":{"android":"levelo://app?vid=9ecc8be5-d6a0-4d2b-8ee3-d2256b3f7a17","ios":"levelo://app?vid=9ecc8be5-d6a0-4d2b-8ee3-d2256b3f7a17"},"vehicle_type_id":"4","last_reported":1692814032,"current_range_meters":0,"station_id":"","pricing_plan_id":"free"},{"bike_id":"fd1f3320-ec8b-427d-bb5e-2de4606407b0","system_id":"levelo_inurba_marseille","lat":43.278399,"lon":5.392139,"is_reserved":false,"is_disabled":false,"rental_uris":{"android":"levelo://app?vid=fd1f3320-ec8b-427d-bb5e-2de4606407b0","ios":"levelo://app?vid=fd1f3320-ec8b-427d-bb5e-2de4606407b0"},"vehicle_type_id":"4","last_reported":1692814032,"current_range_meters":18400,"station_id":"ce4bhjp2rcd13ifvqga0","pricing_plan_id":"free"},{"bike_id":"7435dc6b-d8fd-4eea-bfd7-1653a188c663","system_id":"levelo_inurba_marseille","lat":43.27384,"lon":5.36252,"is_reserved":false,"is_disabled":false,"rental_uris":{"android":"levelo://app?vid=7435dc6b-d8fd-4eea-bfd7-1653a188c663","ios":"levelo://app?vid=7435dc6b-d8fd-4eea-bfd7-1653a188c663"},"vehicle_type_id":"4","last_reported":1692814032,"current_range_meters":29200,"station_id":"ce4bhbh2rcd13ifvqeo0","pricing_plan_id":"free"},{"bike_id":"51f0bd0d-fc09-4b14-882d-402aab5943a0","system_id":"levelo_inurba_marseille","lat":43.27379,"lon":5.36252,"is_reserved":false,"is_disabled":false,"rental_uris":{"android":"levelo://app?vid=51f0bd0d-fc09-4b14-882d-402aab5943a0","ios":"levelo://app?vid=51f0bd0d-fc09-4b14-882d-402aab5943a0"},"vehicle_type_id":"4","last_reported":1692814032,"current_range_meters":31200,"station_id":"ce4bhbh2rcd13ifvqeo0","pricing_plan_id":"free"},{"bike_id":"14350f0c-21d0-4964-b7f8-81fb85ad7ea0","system_id":"levelo_inurba_marseille","lat":43.27378,"lon":5.36255,"is_reserved":false,"is_disabled":false,"rental_uris":{"android":"levelo://app?vid=14350f0c-21d0-4964-b7f8-81fb85ad7ea0","ios":"levelo://app?vid=14350f0c-21d0-4964-b7f8-81fb85ad7ea0"},"vehicle_type_id":"4","last_reported":1692814032,"current_range_meters":31200,"station_id":"ce4bhbh2rcd13ifvqeo0","pricing_plan_id":"free"},{"bike_id":"79de7e07-6089-4386-b91e-b96963ca7954","system_id":"levelo_inurba_marseille","lat":43.27378,"lon":5.36251,"is_reserved":false,"is_disabled":false,"rental_uris":{"android":"levelo://app?vid=79de7e07-6089-4386-b91e-b96963ca7954","ios":"levelo://app?vid=79de7e07-6089-4386-b91e-b96963ca7954"},"vehicle_type_id":"4","last_reported":1692814032,"current_range_meters":22000,"station_id":"ce4bhbh2rcd13ifvqeo0","pricing_plan_id":"free"},{"bike_id":"b1e484c7-0b04-4202-abb0-f8127657a350","system_id":"levelo_inurba_marseille","lat":43.273772,"lon":5.362568,"is_reserved":false,"is_disabled":false,"rental_uris":{"android":"levelo://app?vid=b1e484c7-0b04-4202-abb0-f8127657a350","ios":"levelo://app?vid=b1e484c7-0b04-4202-abb0-f8127657a350"},"vehicle_type_id":"4","last_reported":1692814032,"current_range_meters":7200,"station_id":"ce4bhbh2rcd13ifvqeo0","pricing_plan_id":"free"},{"bike_id":"eed7e337-682f-4fb2-babe-0220deade61d","system_id":"levelo_inurba_marseille","lat":43.27377,"lon":5.36256,"is_reserved":false,"is_disabled":false,"rental_uris":{"android":"levelo://app?vid=eed7e337-682f-4fb2-babe-0220deade61d","ios":"levelo://app?vid=eed7e337-682f-4fb2-babe-0220deade61d"},"vehicle_type_id":"4","last_reported":1692814032,"current_range_meters":17200,"station_id":"ce4bhbh2rcd13ifvqeo0","pricing_plan_id":"free"},{"bike_id":"b431faa9-81b5-4526-a5dd-c3e4ed5b4371","system_id":"levelo_inurba_marseille","lat":43.27372,"lon":5.36257,"is_reserved":false,"is_disabled":false,"rental_uris":{"android":"levelo://app?vid=b431faa9-81b5-4526-a5dd-c3e4ed5b4371","ios":"levelo://app?vid=b431faa9-81b5-4526-a5dd-c3e4ed5b4371"},"vehicle_type_id":"4","last_reported":1692814032,"current_range_meters":15600,"station_id":"ce4bhbh2rcd13ifvqeo0","pricing_plan_id":"free"},{"bike_id":"c30d0f86-7231-49dd-851a-42c177328daa","system_id":"levelo_inurba_marseille","lat":43.27372,"lon":5.36251,"is_reserved":false,"is_disabled":false,"rental_uris":{"android":"levelo://app?vid=c30d0f86-7231-49dd-851a-42c177328daa","ios":"levelo://app?vid=c30d0f86-7231-49dd-851a-42c177328daa"},"vehicle_type_id":"4","last_reported":1692814032,"current_range_meters":24000,"station_id":"ce4bhbh2rcd13ifvqeo0","pricing_plan_id":"free"},{"bike_id":"c7f09c85-f43f-439f-a990-ecf06164ad87","system_id":"levelo_inurba_marseille","lat":43.27372,"lon":5.36248,"is_reserved":false,"is_disabled":false,"rental_uris":{"android":"levelo://app?vid=c7f09c85-f43f-439f-a990-ecf06164ad87","ios":"levelo://app?vid=c7f09c85-f43f-439f-a990-ecf06164ad87"},"vehicle_type_id":"4","last_reported":1692814032,"current_range_meters":31200,"station_id":"ce4bhbh2rcd13ifvqeo0","pricing_plan_id":"free"},{"bike_id":"f4b43769-230c-40f0-865a-4e61a4557b46","system_id":"levelo_inurba_marseille","lat":43.27371,"lon":5.36254,"is_reserved":false,"is_disabled":false,"rental_uris":{"android":"levelo://app?vid=f4b43769-230c-40f0-865a-4e61a4557b46","ios":"levelo://app?vid=f4b43769-230c-40f0-865a-4e61a4557b46"},"vehicle_type_id":"4","last_reported":1692814032,"current_range_meters":31200,"station_id":"ce4bhbh2rcd13ifvqeo0","pricing_plan_id":"free"},{"bike_id":"f47efe41-01fc-441f-bbb5-1e0ce4ffe13a","system_id":"levelo_inurba_marseille","lat":43.2737,"lon":5.36253,"is_reserved":false,"is_disabled":false,"rental_uris":{"android":"levelo://app?vid=f47efe41-01fc-441f-bbb5-1e0ce4ffe13a","ios":"levelo://app?vid=f47efe41-01fc-441f-bbb5-1e0ce4ffe13a"},"vehicle_type_id":"4","last_reported":1692814032,"current_range_meters":12000,"station_id":"ce4bhbh2rcd13ifvqeo0","pricing_plan_id":"free"},{"bike_id":"9278726e-fbb6-4d1c-afd8-9bbbcc5e3810","system_id":"levelo_inurba_marseille","lat":43.33608,"lon":5.41032,"is_reserved":false,"is_disabled":false,"rental_uris":{"android":"levelo://app?vid=9278726e-fbb6-4d1c-afd8-9bbbcc5e3810","ios":"levelo://app?vid=9278726e-fbb6-4d1c-afd8-9bbbcc5e3810"},"vehicle_type_id":"4","last_reported":1692814032,"current_range_meters":18000,"station_id":"ce4bhqh2rcd13ifvqhmg","pricing_plan_id":"free"},{"bike_id":"d280f8e1-d769-4ce1-9516-de0e98b88c66","system_id":"levelo_inurba_marseille","lat":43.336134,"lon":5.410341,"is_reserved":false,"is_disabled":false,"rental_uris":{"android":"levelo://app?vid=d280f8e1-d769-4ce1-9516-de0e98b88c66","ios":"levelo://app?vid=d280f8e1-d769-4ce1-9516-de0e98b88c66"},"vehicle_type_id":"4","last_reported":1692814032,"current_range_meters":11200,"station_id":"ce4bhqh2rcd13ifvqhmg","pricing_plan_id":"free"},{"bike_id":"2c002134-e4d2-41d1-b436-28e8e2ea24ca","system_id":"levelo_inurba_marseille","lat":43.276771,"lon":5.388799,"is_reserved":false,"is_disabled":false,"rental_uris":{"android":"levelo://app?vid=2c002134-e4d2-41d1-b436-28e8e2ea24ca","ios":"levelo://app?vid=2c002134-e4d2-41d1-b436-28e8e2ea24ca"},"vehicle_type_id":"4","last_reported":1692814032,"current_range_meters":28800,"station_id":"ce4bhi12rcd13ifvqfo0","pricing_plan_id":"free"},{"bike_id":"192d4625-0e1c-4fc7-8114-be8c86b70435","system_id":"levelo_inurba_marseille","lat":43.317121,"lon":5.423936,"is_reserved":false,"is_disabled":false,"rental_uris":{"android":"levelo://app?vid=192d4625-0e1c-4fc7-8114-be8c86b70435","ios":"levelo://app?vid=192d4625-0e1c-4fc7-8114-be8c86b70435"},"vehicle_type_id":"4","last_reported":1692814032,"current_range_meters":31600,"station_id":"ce4bhp92rcd13ifvqhbg","pricing_plan_id":"free"},{"bike_id":"2d570018-88c2-42f1-a389-bd0792879b52","system_id":"levelo_inurba_marseille","lat":43.317121,"lon":5.423936,"is_reserved":false,"is_disabled":false,"rental_uris":{"android":"levelo://app?vid=2d570018-88c2-42f1-a389-bd0792879b52","ios":"levelo://app?vid=2d570018-88c2-42f1-a389-bd0792879b52"},"vehicle_type_id":"4","last_reported":1692814032,"current_range_meters":25200,"station_id":"ce4bhp92rcd13ifvqhbg","pricing_plan_id":"free"},{"bike_id":"2c4813d4-f19e-4b05-8131-b2d1240c0834","system_id":"levelo_inurba_marseille","lat":43.317121,"lon":5.423936,"is_reserved":false,"is_disabled":false,"rental_uris":{"android":"levelo://app?vid=2c4813d4-f19e-4b05-8131-b2d1240c0834","ios":"levelo://app?vid=2c4813d4-f19e-4b05-8131-b2d1240c0834"},"vehicle_type_id":"4","last_reported":1692814032,"current_range_meters":26400,"station_id":"ce4bhp92rcd13ifvqhbg","pricing_plan_id":"free"},{"bike_id":"68ba469f-be14-4681-ab6b-ec1f210a0650","system_id":"levelo_inurba_marseille","lat":43.317121,"lon":5.423936,"is_reserved":false,"is_disabled":false,"rental_uris":{"android":"levelo://app?vid=68ba469f-be14-4681-ab6b-ec1f210a0650","ios":"levelo://app?vid=68ba469f-be14-4681-ab6b-ec1f210a0650"},"vehicle_type_id":"4","last_reported":1692814032,"current_range_meters":18400,"station_id":"ce4bhp92rcd13ifvqhbg","pricing_plan_id":"free"},{"bike_id":"c0412187-9a3c-4f8b-a5fc-e9c109a0ffc3","system_id":"levelo_inurba_marseille","lat":43.317121,"lon":5.423936,"is_reserved":false,"is_disabled":false,"rental_uris":{"android":"levelo://app?vid=c0412187-9a3c-4f8b-a5fc-e9c109a0ffc3","ios":"levelo://app?vid=c0412187-9a3c-4f8b-a5fc-e9c109a0ffc3"},"vehicle_type_id":"4","last_reported":1692814032,"current_range_meters":29200,"station_id":"ce4bhp92rcd13ifvqhbg","pricing_plan_id":"free"},{"bike_id":"32311984-6a6d-4f39-b317-b34733056f59","system_id":"levelo_inurba_marseille","lat":43.310785,"lon":5.424305,"is_reserved":false,"is_disabled":false,"rental_uris":{"android":"levelo://app?vid=32311984-6a6d-4f39-b317-b34733056f59","ios":"levelo://app?vid=32311984-6a6d-4f39-b317-b34733056f59"},"vehicle_type_id":"4","last_reported":1692814032,"current_range_meters":27600,"station_id":"ce4bhp92rcd13ifvqhag","pricing_plan_id":"free"},{"bike_id":"d53415c5-c8a5-4594-9a0d-79106882a428","system_id":"levelo_inurba_marseille","lat":43.27778,"lon":5.39952,"is_reserved":false,"is_disabled":false,"rental_uris":{"android":"levelo://app?vid=d53415c5-c8a5-4594-9a0d-79106882a428","ios":"levelo://app?vid=d53415c5-c8a5-4594-9a0d-79106882a428"},"vehicle_type_id":"4","last_reported":1692814032,"current_range_meters":24800,"station_id":"","pricing_plan_id":"free"},{"bike_id":"fbd90770-8269-4a04-8485-3fa58e8e4438","system_id":"levelo_inurba_marseille","lat":43.274099,"lon":5.394019,"is_reserved":false,"is_disabled":false,"rental_uris":{"android":"levelo://app?vid=fbd90770-8269-4a04-8485-3fa58e8e4438","ios":"levelo://app?vid=fbd90770-8269-4a04-8485-3fa58e8e4438"},"vehicle_type_id":"4","last_reported":1692814032,"current_range_meters":23200,"station_id":"ce4bhdp2rcd13ifvqf20","pricing_plan_id":"free"},{"bike_id":"03c1730a-f589-413d-967f-429de4cb5f96","system_id":"levelo_inurba_marseille","lat":43.295523,"lon":5.422926,"is_reserved":false,"is_disabled":false,"rental_uris":{"android":"levelo://app?vid=03c1730a-f589-413d-967f-429de4cb5f96","ios":"levelo://app?vid=03c1730a-f589-413d-967f-429de4cb5f96"},"vehicle_type_id":"4","last_reported":1692814032,"current_range_meters":18800,"station_id":"ce4bhph2rcd13ifvqhdg","pricing_plan_id":"free"},{"bike_id":"883002d6-96d7-4961-a7c4-8d902095e50b","system_id":"levelo_inurba_marseille","lat":43.27212,"lon":5.39071,"is_reserved":false,"is_disabled":false,"rental_uris":{"android":"levelo://app?vid=883002d6-96d7-4961-a7c4-8d902095e50b","ios":"levelo://app?vid=883002d6-96d7-4961-a7c4-8d902095e50b"},"vehicle_type_id":"4","last_reported":1692814032,"current_range_meters":0,"station_id":"ce4bhr92rcd13ifvqhrg","pricing_plan_id":"free"},{"bike_id":"165a796c-a566-411e-b065-ae6f88409351","system_id":"levelo_inurba_marseille","lat":43.27216,"lon":5.39084,"is_reserved":false,"is_disabled":false,"rental_uris":{"android":"levelo://app?vid=165a796c-a566-411e-b065-ae6f88409351","ios":"levelo://app?vid=165a796c-a566-411e-b065-ae6f88409351"},"vehicle_type_id":"4","last_reported":1692814032,"current_range_meters":31200,"station_id":"ce4bhr92rcd13ifvqhrg","pricing_plan_id":"free"},{"bike_id":"9e3092de-cb30-4c97-96a4-c26552645611","system_id":"levelo_inurba_marseille","lat":43.295511,"lon":5.422926,"is_reserved":false,"is_disabled":false,"rental_uris":{"android":"levelo://app?vid=9e3092de-cb30-4c97-96a4-c26552645611","ios":"levelo://app?vid=9e3092de-cb30-4c97-96a4-c26552645611"},"vehicle_type_id":"4","last_reported":1692814032,"current_range_meters":20800,"station_id":"ce4bhph2rcd13ifvqhdg","pricing_plan_id":"free"},{"bike_id":"055a57a2-270d-40c0-9b0b-4ec1d55c96e9","system_id":"levelo_inurba_marseille","lat":43.295523,"lon":5.422926,"is_reserved":false,"is_disabled":false,"rental_uris":{"android":"levelo://app?vid=055a57a2-270d-40c0-9b0b-4ec1d55c96e9","ios":"levelo://app?vid=055a57a2-270d-40c0-9b0b-4ec1d55c96e9"},"vehicle_type_id":"4","last_reported":1692814032,"current_range_meters":29200,"station_id":"ce4bhph2rcd13ifvqhdg","pricing_plan_id":"free"},{"bike_id":"e22fb6b1-1102-45c4-b677-2748d772b8de","system_id":"levelo_inurba_marseille","lat":43.295511,"lon":5.422926,"is_reserved":false,"is_disabled":false,"rental_uris":{"android":"levelo://app?vid=e22fb6b1-1102-45c4-b677-2748d772b8de","ios":"levelo://app?vid=e22fb6b1-1102-45c4-b677-2748d772b8de"},"vehicle_type_id":"4","last_reported":1692814032,"current_range_meters":25200,"station_id":"ce4bhph2rcd13ifvqhdg","pricing_plan_id":"free"},{"bike_id":"b77f4653-6ff1-4bb3-a6d0-44d57a7086f4","system_id":"levelo_inurba_marseille","lat":43.295511,"lon":5.422926,"is_reserved":false,"is_disabled":false,"rental_uris":{"android":"levelo://app?vid=b77f4653-6ff1-4bb3-a6d0-44d57a7086f4","ios":"levelo://app?vid=b77f4653-6ff1-4bb3-a6d0-44d57a7086f4"},"vehicle_type_id":"4","last_reported":1692814032,"current_range_meters":16800,"station_id":"ce4bhph2rcd13ifvqhdg","pricing_plan_id":"free"},{"bike_id":"ea32736e-db8d-49c8-8782-6a4d278e246f","system_id":"levelo_inurba_marseille","lat":43.295511,"lon":5.422926,"is_reserved":false,"is_disabled":false,"rental_uris":{"android":"levelo://app?vid=ea32736e-db8d-49c8-8782-6a4d278e246f","ios":"levelo://app?vid=ea32736e-db8d-49c8-8782-6a4d278e246f"},"vehicle_type_id":"4","last_reported":1692814032,"current_range_meters":11200,"station_id":"ce4bhph2rcd13ifvqhdg","pricing_plan_id":"free"},{"bike_id":"ae269419-a88f-4e55-b535-5679b5c40386","system_id":"levelo_inurba_marseille","lat":43.295523,"lon":5.422926,"is_reserved":false,"is_disabled":false,"rental_uris":{"android":"levelo://app?vid=ae269419-a88f-4e55-b535-5679b5c40386","ios":"levelo://app?vid=ae269419-a88f-4e55-b535-5679b5c40386"},"vehicle_type_id":"4","last_reported":1692814032,"current_range_meters":25200,"station_id":"ce4bhph2rcd13ifvqhdg","pricing_plan_id":"free"},{"bike_id":"08ac63c9-4d8d-4ccb-b6e2-3e0e8bccb16a","system_id":"levelo_inurba_marseille","lat":43.295563,"lon":5.422959,"is_reserved":false,"is_disabled":false,"rental_uris":{"android":"levelo://app?vid=08ac63c9-4d8d-4ccb-b6e2-3e0e8bccb16a","ios":"levelo://app?vid=08ac63c9-4d8d-4ccb-b6e2-3e0e8bccb16a"},"vehicle_type_id":"4","last_reported":1692814032,"current_range_meters":14000,"station_id":"","pricing_plan_id":"free"},{"bike_id":"5c5d9781-5a0f-4c4a-a037-96bcf432fc75","system_id":"levelo_inurba_marseille","lat":43.295511,"lon":5.422926,"is_reserved":false,"is_disabled":false,"rental_uris":{"android":"levelo://app?vid=5c5d9781-5a0f-4c4a-a037-96bcf432fc75","ios":"levelo://app?vid=5c5d9781-5a0f-4c4a-a037-96bcf432fc75"},"vehicle_type_id":"4","last_reported":1692814032,"current_range_meters":20400,"station_id":"ce4bhph2rcd13ifvqhdg","pricing_plan_id":"free"},{"bike_id":"fe7523df-fbc1-44a5-9033-aa0e7d79eb99","system_id":"levelo_inurba_marseille","lat":43.272118,"lon":5.391758,"is_reserved":false,"is_disabled":false,"rental_uris":{"android":"levelo://app?vid=fe7523df-fbc1-44a5-9033-aa0e7d79eb99","ios":"levelo://app?vid=fe7523df-fbc1-44a5-9033-aa0e7d79eb99"},"vehicle_type_id":"4","last_reported":1692814032,"current_range_meters":0,"station_id":"ce4bhhp2rcd13ifvqfm0","pricing_plan_id":"free"},{"bike_id":"801e658c-22b6-4860-b168-f3f426fceb08","system_id":"levelo_inurba_marseille","lat":43.27961,"lon":5.41051,"is_reserved":false,"is_disabled":false,"rental_uris":{"android":"levelo://app?vid=801e658c-22b6-4860-b168-f3f426fceb08","ios":"levelo://app?vid=801e658c-22b6-4860-b168-f3f426fceb08"},"vehicle_type_id":"4","last_reported":1692814032,"current_range_meters":14400,"station_id":"","pricing_plan_id":"free"},{"bike_id":"6e3ab586-a51c-4e6f-80fa-0b2ff07afb5e","system_id":"levelo_inurba_marseille","lat":43.2709,"lon":5.40031,"is_reserved":false,"is_disabled":false,"rental_uris":{"android":"levelo://app?vid=6e3ab586-a51c-4e6f-80fa-0b2ff07afb5e","ios":"levelo://app?vid=6e3ab586-a51c-4e6f-80fa-0b2ff07afb5e"},"vehicle_type_id":"4","last_reported":1692814032,"current_range_meters":18000,"station_id":"","pricing_plan_id":"free"},{"bike_id":"6ae727a2-5ae3-4f66-8d90-ef5e42d95ec9","system_id":"levelo_inurba_marseille","lat":43.26199,"lon":5.3744,"is_reserved":false,"is_disabled":false,"rental_uris":{"android":"levelo://app?vid=6ae727a2-5ae3-4f66-8d90-ef5e42d95ec9","ios":"levelo://app?vid=6ae727a2-5ae3-4f66-8d90-ef5e42d95ec9"},"vehicle_type_id":"4","last_reported":1692814032,"current_range_meters":23200,"station_id":"","pricing_plan_id":"free"},{"bike_id":"b929a262-6c5f-48c8-81d5-aa03c1b4a37c","system_id":"levelo_inurba_marseille","lat":43.26197,"lon":5.37439,"is_reserved":false,"is_disabled":false,"rental_uris":{"android":"levelo://app?vid=b929a262-6c5f-48c8-81d5-aa03c1b4a37c","ios":"levelo://app?vid=b929a262-6c5f-48c8-81d5-aa03c1b4a37c"},"vehicle_type_id":"4","last_reported":1692814032,"current_range_meters":23200,"station_id":"","pricing_plan_id":"free"},{"bike_id":"533a2e42-32a0-4783-8345-1a03957ec5aa","system_id":"levelo_inurba_marseille","lat":43.26197,"lon":5.3744,"is_reserved":false,"is_disabled":false,"rental_uris":{"android":"levelo://app?vid=533a2e42-32a0-4783-8345-1a03957ec5aa","ios":"levelo://app?vid=533a2e42-32a0-4783-8345-1a03957ec5aa"},"vehicle_type_id":"4","last_reported":1692814032,"current_range_meters":8000,"station_id":"","pricing_plan_id":"free"},{"bike_id":"2b8753b3-b226-4da7-9ec0-d5ba7d1767c9","system_id":"levelo_inurba_marseille","lat":43.26196,"lon":5.37438,"is_reserved":false,"is_disabled":false,"rental_uris":{"android":"levelo://app?vid=2b8753b3-b226-4da7-9ec0-d5ba7d1767c9","ios":"levelo://app?vid=2b8753b3-b226-4da7-9ec0-d5ba7d1767c9"},"vehicle_type_id":"4","last_reported":1692814032,"current_range_meters":23600,"station_id":"","pricing_plan_id":"free"},{"bike_id":"2abd92dd-c711-4c21-b13a-3fe1e759cde2","system_id":"levelo_inurba_marseille","lat":43.26195,"lon":5.37437,"is_reserved":false,"is_disabled":false,"rental_uris":{"android":"levelo://app?vid=2abd92dd-c711-4c21-b13a-3fe1e759cde2","ios":"levelo://app?vid=2abd92dd-c711-4c21-b13a-3fe1e759cde2"},"vehicle_type_id":"4","last_reported":1692814032,"current_range_meters":24800,"station_id":"","pricing_plan_id":"free"},{"bike_id":"7e0a2d0d-4298-4a70-ab31-ae0752dbc14d","system_id":"levelo_inurba_marseille","lat":43.26195,"lon":5.37437,"is_reserved":false,"is_disabled":false,"rental_uris":{"android":"levelo://app?vid=7e0a2d0d-4298-4a70-ab31-ae0752dbc14d","ios":"levelo://app?vid=7e0a2d0d-4298-4a70-ab31-ae0752dbc14d"},"vehicle_type_id":"4","last_reported":1692814032,"current_range_meters":30800,"station_id":"","pricing_plan_id":"free"},{"bike_id":"5d50ebee-ad96-4241-b24d-91920d5d7799","system_id":"levelo_inurba_marseille","lat":43.26195,"lon":5.37438,"is_reserved":false,"is_disabled":false,"rental_uris":{"android":"levelo://app?vid=5d50ebee-ad96-4241-b24d-91920d5d7799","ios":"levelo://app?vid=5d50ebee-ad96-4241-b24d-91920d5d7799"},"vehicle_type_id":"4","last_reported":1692814032,"current_range_meters":31200,"station_id":"","pricing_plan_id":"free"},{"bike_id":"33a74228-ed2d-4fd0-bf1b-8fb5bd373a96","system_id":"levelo_inurba_marseille","lat":43.26194,"lon":5.37439,"is_reserved":false,"is_disabled":false,"rental_uris":{"android":"levelo://app?vid=33a74228-ed2d-4fd0-bf1b-8fb5bd373a96","ios":"levelo://app?vid=33a74228-ed2d-4fd0-bf1b-8fb5bd373a96"},"vehicle_type_id":"4","last_reported":1692814032,"current_range_meters":30800,"station_id":"ce4bhr92rcd13ifvqhrg","pricing_plan_id":"free"},{"bike_id":"fd871611-78a3-44e8-b8ea-2aaab5f67078","system_id":"levelo_inurba_marseille","lat":43.26194,"lon":5.37439,"is_reserved":false,"is_disabled":false,"rental_uris":{"android":"levelo://app?vid=fd871611-78a3-44e8-b8ea-2aaab5f67078","ios":"levelo://app?vid=fd871611-78a3-44e8-b8ea-2aaab5f67078"},"vehicle_type_id":"4","last_reported":1692814032,"current_range_meters":25600,"station_id":"","pricing_plan_id":"free"},{"bike_id":"0d9f8705-5d8e-455b-a395-c0ee6fb27320","system_id":"levelo_inurba_marseille","lat":43.26194,"lon":5.37442,"is_reserved":false,"is_disabled":false,"rental_uris":{"android":"levelo://app?vid=0d9f8705-5d8e-455b-a395-c0ee6fb27320","ios":"levelo://app?vid=0d9f8705-5d8e-455b-a395-c0ee6fb27320"},"vehicle_type_id":"4","last_reported":1692814032,"current_range_meters":13600,"station_id":"","pricing_plan_id":"free"},{"bike_id":"0c088409-ae42-4703-9f1e-1cf55024e01e","system_id":"levelo_inurba_marseille","lat":43.26193,"lon":5.37441,"is_reserved":false,"is_disabled":false,"rental_uris":{"android":"levelo://app?vid=0c088409-ae42-4703-9f1e-1cf55024e01e","ios":"levelo://app?vid=0c088409-ae42-4703-9f1e-1cf55024e01e"},"vehicle_type_id":"4","last_reported":1692814032,"current_range_meters":7200,"station_id":"","pricing_plan_id":"free"},{"bike_id":"a66d4037-d071-41c5-8e9c-864a8f15cbfe","system_id":"levelo_inurba_marseille","lat":43.26193,"lon":5.37442,"is_reserved":false,"is_disabled":false,"rental_uris":{"android":"levelo://app?vid=a66d4037-d071-41c5-8e9c-864a8f15cbfe","ios":"levelo://app?vid=a66d4037-d071-41c5-8e9c-864a8f15cbfe"},"vehicle_type_id":"4","last_reported":1692814032,"current_range_meters":400,"station_id":"","pricing_plan_id":"free"},{"bike_id":"4b78bda1-d2bf-4449-ae73-42a1de2b4a0b","system_id":"levelo_inurba_marseille","lat":43.26193,"lon":5.37443,"is_reserved":false,"is_disabled":false,"rental_uris":{"android":"levelo://app?vid=4b78bda1-d2bf-4449-ae73-42a1de2b4a0b","ios":"levelo://app?vid=4b78bda1-d2bf-4449-ae73-42a1de2b4a0b"},"vehicle_type_id":"4","last_reported":1692814032,"current_range_meters":25200,"station_id":"","pricing_plan_id":"free"},{"bike_id":"9cbfe92d-a140-495f-a1ce-31626f24fcf4","system_id":"levelo_inurba_marseille","lat":43.26192,"lon":5.37441,"is_reserved":false,"is_disabled":false,"rental_uris":{"android":"levelo://app?vid=9cbfe92d-a140-495f-a1ce-31626f24fcf4","ios":"levelo://app?vid=9cbfe92d-a140-495f-a1ce-31626f24fcf4"},"vehicle_type_id":"4","last_reported":1692814032,"current_range_meters":18800,"station_id":"","pricing_plan_id":"free"},{"bike_id":"1fbc8067-ced3-4834-a57b-c1f9f1f9f448","system_id":"levelo_inurba_marseille","lat":43.26191,"lon":5.37442,"is_reserved":false,"is_disabled":false,"rental_uris":{"android":"levelo://app?vid=1fbc8067-ced3-4834-a57b-c1f9f1f9f448","ios":"levelo://app?vid=1fbc8067-ced3-4834-a57b-c1f9f1f9f448"},"vehicle_type_id":"4","last_reported":1692814032,"current_range_meters":4800,"station_id":"","pricing_plan_id":"free"},{"bike_id":"49918631-0b92-4e68-b5df-8b84f602cd2a","system_id":"levelo_inurba_marseille","lat":43.2619,"lon":5.37441,"is_reserved":false,"is_disabled":false,"rental_uris":{"android":"levelo://app?vid=49918631-0b92-4e68-b5df-8b84f602cd2a","ios":"levelo://app?vid=49918631-0b92-4e68-b5df-8b84f602cd2a"},"vehicle_type_id":"4","last_reported":1692814032,"current_range_meters":1600,"station_id":"","pricing_plan_id":"free"},{"bike_id":"bda25328-9178-4b9e-8a66-d331aaecaa51","system_id":"levelo_inurba_marseille","lat":43.26189,"lon":5.37436,"is_reserved":false,"is_disabled":false,"rental_uris":{"android":"levelo://app?vid=bda25328-9178-4b9e-8a66-d331aaecaa51","ios":"levelo://app?vid=bda25328-9178-4b9e-8a66-d331aaecaa51"},"vehicle_type_id":"4","last_reported":1692814032,"current_range_meters":4400,"station_id":"","pricing_plan_id":"free"},{"bike_id":"c490d561-97e3-4841-8d68-2486ab419e48","system_id":"levelo_inurba_marseille","lat":43.26189,"lon":5.3744,"is_reserved":false,"is_disabled":false,"rental_uris":{"android":"levelo://app?vid=c490d561-97e3-4841-8d68-2486ab419e48","ios":"levelo://app?vid=c490d561-97e3-4841-8d68-2486ab419e48"},"vehicle_type_id":"4","last_reported":1692814032,"current_range_meters":20800,"station_id":"","pricing_plan_id":"free"},{"bike_id":"445f1742-128a-4304-8386-1636732e78c1","system_id":"levelo_inurba_marseille","lat":43.26189,"lon":5.3744,"is_reserved":false,"is_disabled":false,"rental_uris":{"android":"levelo://app?vid=445f1742-128a-4304-8386-1636732e78c1","ios":"levelo://app?vid=445f1742-128a-4304-8386-1636732e78c1"},"vehicle_type_id":"4","last_reported":1692814032,"current_range_meters":14000,"station_id":"","pricing_plan_id":"free"},{"bike_id":"7df296f5-b6fe-414c-9df1-e888ef62110f","system_id":"levelo_inurba_marseille","lat":43.26189,"lon":5.37443,"is_reserved":false,"is_disabled":false,"rental_uris":{"android":"levelo://app?vid=7df296f5-b6fe-414c-9df1-e888ef62110f","ios":"levelo://app?vid=7df296f5-b6fe-414c-9df1-e888ef62110f"},"vehicle_type_id":"4","last_reported":1692814032,"current_range_meters":5600,"station_id":"","pricing_plan_id":"free"},{"bike_id":"1c6436cd-22b2-49ca-9a69-752ef47182c7","system_id":"levelo_inurba_marseille","lat":43.26188,"lon":5.37439,"is_reserved":false,"is_disabled":false,"rental_uris":{"android":"levelo://app?vid=1c6436cd-22b2-49ca-9a69-752ef47182c7","ios":"levelo://app?vid=1c6436cd-22b2-49ca-9a69-752ef47182c7"},"vehicle_type_id":"4","last_reported":1692814032,"current_range_meters":19200,"station_id":"","pricing_plan_id":"free"},{"bike_id":"f76f08f6-c538-4c7f-b809-06889c40169d","system_id":"levelo_inurba_marseille","lat":43.26188,"lon":5.37443,"is_reserved":false,"is_disabled":false,"rental_uris":{"android":"levelo://app?vid=f76f08f6-c538-4c7f-b809-06889c40169d","ios":"levelo://app?vid=f76f08f6-c538-4c7f-b809-06889c40169d"},"vehicle_type_id":"4","last_reported":1692814032,"current_range_meters":23200,"station_id":"","pricing_plan_id":"free"},{"bike_id":"fb89495e-96fa-4a50-a791-01c261478274","system_id":"levelo_inurba_marseille","lat":43.26186,"lon":5.3744,"is_reserved":false,"is_disabled":false,"rental_uris":{"android":"levelo://app?vid=fb89495e-96fa-4a50-a791-01c261478274","ios":"levelo://app?vid=fb89495e-96fa-4a50-a791-01c261478274"},"vehicle_type_id":"4","last_reported":1692814032,"current_range_meters":0,"station_id":"","pricing_plan_id":"free"},{"bike_id":"2f8a7043-a224-47f6-8be9-57a58d8e34c6","system_id":"levelo_inurba_marseille","lat":43.26186,"lon":5.37442,"is_reserved":false,"is_disabled":false,"rental_uris":{"android":"levelo://app?vid=2f8a7043-a224-47f6-8be9-57a58d8e34c6","ios":"levelo://app?vid=2f8a7043-a224-47f6-8be9-57a58d8e34c6"},"vehicle_type_id":"4","last_reported":1692814032,"current_range_meters":22800,"station_id":"","pricing_plan_id":"free"},{"bike_id":"0de3ccad-8a12-4b7c-9826-8f2cc5b7ccbf","system_id":"levelo_inurba_marseille","lat":43.26186,"lon":5.37444,"is_reserved":false,"is_disabled":false,"rental_uris":{"android":"levelo://app?vid=0de3ccad-8a12-4b7c-9826-8f2cc5b7ccbf","ios":"levelo://app?vid=0de3ccad-8a12-4b7c-9826-8f2cc5b7ccbf"},"vehicle_type_id":"4","last_reported":1692814032,"current_range_meters":17200,"station_id":"","pricing_plan_id":"free"},{"bike_id":"44975547-283a-4a33-aca0-7f9ee9b3fde9","system_id":"levelo_inurba_marseille","lat":43.26185,"lon":5.37441,"is_reserved":false,"is_disabled":false,"rental_uris":{"android":"levelo://app?vid=44975547-283a-4a33-aca0-7f9ee9b3fde9","ios":"levelo://app?vid=44975547-283a-4a33-aca0-7f9ee9b3fde9"},"vehicle_type_id":"4","last_reported":1692814032,"current_range_meters":9200,"station_id":"","pricing_plan_id":"free"},{"bike_id":"9013d4e2-3bef-495a-9799-061e29f0a04f","system_id":"levelo_inurba_marseille","lat":43.26185,"lon":5.37443,"is_reserved":false,"is_disabled":false,"rental_uris":{"android":"levelo://app?vid=9013d4e2-3bef-495a-9799-061e29f0a04f","ios":"levelo://app?vid=9013d4e2-3bef-495a-9799-061e29f0a04f"},"vehicle_type_id":"4","last_reported":1692814032,"current_range_meters":16000,"station_id":"","pricing_plan_id":"free"},{"bike_id":"1aa0b890-7175-4724-8004-3067df6944f2","system_id":"levelo_inurba_marseille","lat":43.26184,"lon":5.37441,"is_reserved":false,"is_disabled":false,"rental_uris":{"android":"levelo://app?vid=1aa0b890-7175-4724-8004-3067df6944f2","ios":"levelo://app?vid=1aa0b890-7175-4724-8004-3067df6944f2"},"vehicle_type_id":"4","last_reported":1692814032,"current_range_meters":27600,"station_id":"","pricing_plan_id":"free"},{"bike_id":"94ddb37a-f384-4190-a72f-7d79c0bae637","system_id":"levelo_inurba_marseille","lat":43.26184,"lon":5.37444,"is_reserved":false,"is_disabled":false,"rental_uris":{"android":"levelo://app?vid=94ddb37a-f384-4190-a72f-7d79c0bae637","ios":"levelo://app?vid=94ddb37a-f384-4190-a72f-7d79c0bae637"},"vehicle_type_id":"4","last_reported":1692814032,"current_range_meters":14800,"station_id":"","pricing_plan_id":"free"},{"bike_id":"00202963-650a-4042-9099-8a90db156583","system_id":"levelo_inurba_marseille","lat":43.26184,"lon":5.37448,"is_reserved":false,"is_disabled":false,"rental_uris":{"android":"levelo://app?vid=00202963-650a-4042-9099-8a90db156583","ios":"levelo://app?vid=00202963-650a-4042-9099-8a90db156583"},"vehicle_type_id":"4","last_reported":1692814032,"current_range_meters":6400,"station_id":"","pricing_plan_id":"free"},{"bike_id":"776ec1ba-2194-4ce3-b3cb-823ed878d018","system_id":"levelo_inurba_marseille","lat":43.26183,"lon":5.3744,"is_reserved":false,"is_disabled":false,"rental_uris":{"android":"levelo://app?vid=776ec1ba-2194-4ce3-b3cb-823ed878d018","ios":"levelo://app?vid=776ec1ba-2194-4ce3-b3cb-823ed878d018"},"vehicle_type_id":"4","last_reported":1692814032,"current_range_meters":31200,"station_id":"","pricing_plan_id":"free"},{"bike_id":"fef2120b-bea9-4505-ad62-584bd490006f","system_id":"levelo_inurba_marseille","lat":43.317104,"lon":5.436818,"is_reserved":false,"is_disabled":false,"rental_uris":{"android":"levelo://app?vid=fef2120b-bea9-4505-ad62-584bd490006f","ios":"levelo://app?vid=fef2120b-bea9-4505-ad62-584bd490006f"},"vehicle_type_id":"4","last_reported":1692814032,"current_range_meters":9200,"station_id":"ce4bhp92rcd13ifvqhcg","pricing_plan_id":"free"},{"bike_id":"f315e142-8cbe-4667-86a2-2dfda110c1fd","system_id":"levelo_inurba_marseille","lat":43.317104,"lon":5.436818,"is_reserved":false,"is_disabled":false,"rental_uris":{"android":"levelo://app?vid=f315e142-8cbe-4667-86a2-2dfda110c1fd","ios":"levelo://app?vid=f315e142-8cbe-4667-86a2-2dfda110c1fd"},"vehicle_type_id":"4","last_reported":1692814032,"current_range_meters":8800,"station_id":"ce4bhp92rcd13ifvqhcg","pricing_plan_id":"free"},{"bike_id":"829942e6-2fe4-46f2-87c7-0e85b70ab6c4","system_id":"levelo_inurba_marseille","lat":43.26208,"lon":5.37927,"is_reserved":false,"is_disabled":false,"rental_uris":{"android":"levelo://app?vid=829942e6-2fe4-46f2-87c7-0e85b70ab6c4","ios":"levelo://app?vid=829942e6-2fe4-46f2-87c7-0e85b70ab6c4"},"vehicle_type_id":"4","last_reported":1692814032,"current_range_meters":20400,"station_id":"ce4bhjp2rcd13ifvqg90","pricing_plan_id":"free"},{"bike_id":"fc69ec92-c6a2-4fa0-a15c-e3a659ae2006","system_id":"levelo_inurba_marseille","lat":43.262012,"lon":5.379307,"is_reserved":false,"is_disabled":false,"rental_uris":{"android":"levelo://app?vid=fc69ec92-c6a2-4fa0-a15c-e3a659ae2006","ios":"levelo://app?vid=fc69ec92-c6a2-4fa0-a15c-e3a659ae2006"},"vehicle_type_id":"4","last_reported":1692814032,"current_range_meters":31200,"station_id":"ce4bhjp2rcd13ifvqg90","pricing_plan_id":"free"},{"bike_id":"3de7cf20-34fe-481a-97ce-f90e8e3a098a","system_id":"levelo_inurba_marseille","lat":43.26202,"lon":5.37923,"is_reserved":false,"is_disabled":false,"rental_uris":{"android":"levelo://app?vid=3de7cf20-34fe-481a-97ce-f90e8e3a098a","ios":"levelo://app?vid=3de7cf20-34fe-481a-97ce-f90e8e3a098a"},"vehicle_type_id":"4","last_reported":1692814032,"current_range_meters":400,"station_id":"ce4bhjp2rcd13ifvqg90","pricing_plan_id":"free"},{"bike_id":"1c70711e-f613-4ee2-b3b2-5eac5f7330fd","system_id":"levelo_inurba_marseille","lat":43.26203,"lon":5.37933,"is_reserved":false,"is_disabled":false,"rental_uris":{"android":"levelo://app?vid=1c70711e-f613-4ee2-b3b2-5eac5f7330fd","ios":"levelo://app?vid=1c70711e-f613-4ee2-b3b2-5eac5f7330fd"},"vehicle_type_id":"4","last_reported":1692814032,"current_range_meters":20800,"station_id":"ce4bhjp2rcd13ifvqg90","pricing_plan_id":"free"},{"bike_id":"eb92e9a7-5556-46b0-a195-a82a87a1f375","system_id":"levelo_inurba_marseille","lat":43.271368,"lon":5.40928,"is_reserved":false,"is_disabled":false,"rental_uris":{"android":"levelo://app?vid=eb92e9a7-5556-46b0-a195-a82a87a1f375","ios":"levelo://app?vid=eb92e9a7-5556-46b0-a195-a82a87a1f375"},"vehicle_type_id":"4","last_reported":1692814032,"current_range_meters":30000,"station_id":"ce4bhl12rcd13ifvqgf0","pricing_plan_id":"free"},{"bike_id":"bf30814a-7b46-4a70-b63c-3e4dd014ec52","system_id":"levelo_inurba_marseille","lat":43.26202,"lon":5.37935,"is_reserved":false,"is_disabled":false,"rental_uris":{"android":"levelo://app?vid=bf30814a-7b46-4a70-b63c-3e4dd014ec52","ios":"levelo://app?vid=bf30814a-7b46-4a70-b63c-3e4dd014ec52"},"vehicle_type_id":"4","last_reported":1692814032,"current_range_meters":16800,"station_id":"ce4bhjp2rcd13ifvqg90","pricing_plan_id":"free"},{"bike_id":"6c890d56-897b-4d5e-8489-f03367be74d5","system_id":"levelo_inurba_marseille","lat":43.262012,"lon":5.379307,"is_reserved":false,"is_disabled":false,"rental_uris":{"android":"levelo://app?vid=6c890d56-897b-4d5e-8489-f03367be74d5","ios":"levelo://app?vid=6c890d56-897b-4d5e-8489-f03367be74d5"},"vehicle_type_id":"4","last_reported":1692814032,"current_range_meters":31200,"station_id":"ce4bhjp2rcd13ifvqg90","pricing_plan_id":"free"},{"bike_id":"701d8900-c095-4e15-ba9f-d4c6ecdc8675","system_id":"levelo_inurba_marseille","lat":43.262,"lon":5.37928,"is_reserved":false,"is_disabled":false,"rental_uris":{"android":"levelo://app?vid=701d8900-c095-4e15-ba9f-d4c6ecdc8675","ios":"levelo://app?vid=701d8900-c095-4e15-ba9f-d4c6ecdc8675"},"vehicle_type_id":"4","last_reported":1692814032,"current_range_meters":10400,"station_id":"ce4bhjp2rcd13ifvqg90","pricing_plan_id":"free"},{"bike_id":"55d83f0b-a93d-4051-9e04-0b9568f88db2","system_id":"levelo_inurba_marseille","lat":43.271368,"lon":5.40928,"is_reserved":false,"is_disabled":false,"rental_uris":{"android":"levelo://app?vid=55d83f0b-a93d-4051-9e04-0b9568f88db2","ios":"levelo://app?vid=55d83f0b-a93d-4051-9e04-0b9568f88db2"},"vehicle_type_id":"4","last_reported":1692814032,"current_range_meters":31200,"station_id":"ce4bhl12rcd13ifvqgf0","pricing_plan_id":"free"},{"bike_id":"57cfdf51-cc4d-42f3-bedb-5f174c0925c5","system_id":"levelo_inurba_marseille","lat":43.271388,"lon":5.409269,"is_reserved":false,"is_disabled":false,"rental_uris":{"android":"levelo://app?vid=57cfdf51-cc4d-42f3-bedb-5f174c0925c5","ios":"levelo://app?vid=57cfdf51-cc4d-42f3-bedb-5f174c0925c5"},"vehicle_type_id":"4","last_reported":1692814032,"current_range_meters":22800,"station_id":"ce4bhl12rcd13ifvqgf0","pricing_plan_id":"free"},{"bike_id":"ef219cb9-16f3-40e0-b6b5-84a0c4fccc88","system_id":"levelo_inurba_marseille","lat":43.271368,"lon":5.40928,"is_reserved":false,"is_disabled":false,"rental_uris":{"android":"levelo://app?vid=ef219cb9-16f3-40e0-b6b5-84a0c4fccc88","ios":"levelo://app?vid=ef219cb9-16f3-40e0-b6b5-84a0c4fccc88"},"vehicle_type_id":"4","last_reported":1692814032,"current_range_meters":31600,"station_id":"ce4bhl12rcd13ifvqgf0","pricing_plan_id":"free"},{"bike_id":"d2d43eb2-c5ed-41d8-8ae6-de68c2e7c102","system_id":"levelo_inurba_marseille","lat":43.271368,"lon":5.40928,"is_reserved":false,"is_disabled":false,"rental_uris":{"android":"levelo://app?vid=d2d43eb2-c5ed-41d8-8ae6-de68c2e7c102","ios":"levelo://app?vid=d2d43eb2-c5ed-41d8-8ae6-de68c2e7c102"},"vehicle_type_id":"4","last_reported":1692814032,"current_range_meters":31200,"station_id":"ce4bhl12rcd13ifvqgf0","pricing_plan_id":"free"},{"bike_id":"b1f7e6ad-b8e1-469e-8369-6d788a704665","system_id":"levelo_inurba_marseille","lat":43.271388,"lon":5.409269,"is_reserved":false,"is_disabled":false,"rental_uris":{"android":"levelo://app?vid=b1f7e6ad-b8e1-469e-8369-6d788a704665","ios":"levelo://app?vid=b1f7e6ad-b8e1-469e-8369-6d788a704665"},"vehicle_type_id":"4","last_reported":1692814032,"current_range_meters":31200,"station_id":"ce4bhl12rcd13ifvqgf0","pricing_plan_id":"free"},{"bike_id":"eb523d26-6248-425b-bfa0-51296342adf9","system_id":"levelo_inurba_marseille","lat":43.271388,"lon":5.409269,"is_reserved":false,"is_disabled":false,"rental_uris":{"android":"levelo://app?vid=eb523d26-6248-425b-bfa0-51296342adf9","ios":"levelo://app?vid=eb523d26-6248-425b-bfa0-51296342adf9"},"vehicle_type_id":"4","last_reported":1692814032,"current_range_meters":31600,"station_id":"ce4bhl12rcd13ifvqgf0","pricing_plan_id":"free"},{"bike_id":"3f4f3222-3c69-4a83-a451-7e1fd631ab4a","system_id":"levelo_inurba_marseille","lat":43.26195,"lon":5.37932,"is_reserved":false,"is_disabled":false,"rental_uris":{"android":"levelo://app?vid=3f4f3222-3c69-4a83-a451-7e1fd631ab4a","ios":"levelo://app?vid=3f4f3222-3c69-4a83-a451-7e1fd631ab4a"},"vehicle_type_id":"4","last_reported":1692814032,"current_range_meters":31200,"station_id":"ce4bhjp2rcd13ifvqg90","pricing_plan_id":"free"},{"bike_id":"8be56ac7-ada7-44f6-9946-62cc68c8343c","system_id":"levelo_inurba_marseille","lat":43.271388,"lon":5.409269,"is_reserved":false,"is_disabled":false,"rental_uris":{"android":"levelo://app?vid=8be56ac7-ada7-44f6-9946-62cc68c8343c","ios":"levelo://app?vid=8be56ac7-ada7-44f6-9946-62cc68c8343c"},"vehicle_type_id":"4","last_reported":1692814032,"current_range_meters":4800,"station_id":"ce4bhl12rcd13ifvqgf0","pricing_plan_id":"free"},{"bike_id":"a9607eb4-9c26-4bed-a9be-772aefa2cf54","system_id":"levelo_inurba_marseille","lat":43.271368,"lon":5.40928,"is_reserved":false,"is_disabled":false,"rental_uris":{"android":"levelo://app?vid=a9607eb4-9c26-4bed-a9be-772aefa2cf54","ios":"levelo://app?vid=a9607eb4-9c26-4bed-a9be-772aefa2cf54"},"vehicle_type_id":"4","last_reported":1692814032,"current_range_meters":4800,"station_id":"ce4bhl12rcd13ifvqgf0","pricing_plan_id":"free"},{"bike_id":"e9ede368-5c27-4911-8194-c72481e06d26","system_id":"levelo_inurba_marseille","lat":43.271368,"lon":5.40928,"is_reserved":false,"is_disabled":false,"rental_uris":{"android":"levelo://app?vid=e9ede368-5c27-4911-8194-c72481e06d26","ios":"levelo://app?vid=e9ede368-5c27-4911-8194-c72481e06d26"},"vehicle_type_id":"4","last_reported":1692814032,"current_range_meters":27600,"station_id":"ce4bhl12rcd13ifvqgf0","pricing_plan_id":"free"},{"bike_id":"7b0b64db-57d9-4481-b185-2278d657053c","system_id":"levelo_inurba_marseille","lat":43.271368,"lon":5.40928,"is_reserved":false,"is_disabled":false,"rental_uris":{"android":"levelo://app?vid=7b0b64db-57d9-4481-b185-2278d657053c","ios":"levelo://app?vid=7b0b64db-57d9-4481-b185-2278d657053c"},"vehicle_type_id":"4","last_reported":1692814032,"current_range_meters":6400,"station_id":"ce4bhl12rcd13ifvqgf0","pricing_plan_id":"free"},{"bike_id":"b21b34d4-c48d-4853-8402-b9ceb698b8ea","system_id":"levelo_inurba_marseille","lat":43.271388,"lon":5.409269,"is_reserved":false,"is_disabled":false,"rental_uris":{"android":"levelo://app?vid=b21b34d4-c48d-4853-8402-b9ceb698b8ea","ios":"levelo://app?vid=b21b34d4-c48d-4853-8402-b9ceb698b8ea"},"vehicle_type_id":"4","last_reported":1692814032,"current_range_meters":13200,"station_id":"ce4bhl12rcd13ifvqgf0","pricing_plan_id":"free"},