{"last_updated":1726348023,"ttl":30,"version":"2.2","data":{"bikes":[{"bike_id":"da74842e-8b51-42a6-8c35-5d7d26dd14c1","system_id":"levelo_inurba_marseille","lat":43.31088,"lon":5.38351,"is_reserved":false,"is_disabled":false,"rental_uris":{"android":"levelo://app?vid=da74842e-8b51-42a6-8c35-5d7d26dd14c1","ios":"levelo://app?vid=da74842e-8b51-42a6-8c35-5d7d26dd14c1"},"vehicle_type_id":"4","last_reported":1726348023,"current_range_meters":38800,"station_id":"ce4bgv92rcd13ifvqcr0","pricing_plan_id":"cebpf4jnsgd1na2vs0mg"},{"bike_id":"6f07e33c-9340-4c52-9888-5ab2fe87c960","system_id":"levelo_inurba_marseille","lat":43.28349,"lon":5.38119,"is_reserved":false,"is_disabled":false,"rental_uris":{"android":"levelo://app?vid=6f07e33c-9340-4c52-9888-5ab2fe87c960","ios":"levelo://app?vid=6f07e33c-9340-4c52-9888-5ab2fe87c960"},"vehicle_type_id":"4","last_reported":1726348023,"current_range_meters":38800,"station_id":"ce4bh412rcd13ifvqdr0","pricing_plan_id":"cebpf4jnsgd1na2vs0mg"},{"bike_id":"cf218508-2eb5-4647-865a-14c64208161f","system_id":"levelo_inurba_marseille","lat":43.30886,"lon":5.3719,"is_reserved":false,"is_disabled":false,"rental_uris":{"android":"levelo://app?vid=cf218508-2eb5-4647-865a-14c64208161f","ios":"levelo://app?vid=cf218508-2eb5-4647-865a-14c64208161f"},"vehicle_type_id":"4","last_reported":1726348023,"current_range_meters":36800,"station_id":"ce4bguh2rcd13ifvqckg","pricing_plan_id":"cebpf4jnsgd1na2vs0mg"},{"bike_id":"a9a28913-6db6-4db2-8d78-9a3449d23e3e","system_id":"levelo_inurba_marseille","lat":43.23195,"lon":5.35547,"is_reserved":false,"is_disabled":false,"rental_uris":{"android":"levelo://app?vid=a9a28913-6db6-4db2-8d78-9a3449d23e3e","ios":"levelo://app?vid=a9a28913-6db6-4db2-8d78-9a3449d23e3e"},"vehicle_type_id":"4","last_reported":1726348023,"current_range_meters":28800,"station_id":"ce4bhu92rcd13ifvqi70","pricing_plan_id":"cebpf4jnsgd1na2vs0mg"},{"bike_id":"083984dd-1abd-4a7d-84c6-e8ceb7b63abe","system_id":"levelo_inurba_marseille","lat":43.31294,"lon":5.37812,"is_reserved":false,"is_disabled":false,"rental_uris":{"android":"levelo://app?vid=083984dd-1abd-4a7d-84c6-e8ceb7b63abe","ios":"levelo://app?vid=083984dd-1abd-4a7d-84c6-e8ceb7b63abe"},"vehicle_type_id":"4","last_reported":1726348023,"current_range_meters":36800,"station_id":"","pricing_plan_id":"cebpf4jnsgd1na2vs0mg"},{"bike_id":"5ead8fdb-3118-4fd9-ba33-5ac9d171d28e","system_id":"levelo_inurba_marseille","lat":43.32536,"lon":5.36481,"is_reserved":false,"is_disabled":false,"rental_uris":{"android":"levelo://app?vid=5ead8fdb-3118-4fd9-ba33-5ac9d171d28e","ios":"levelo://app?vid=5ead8fdb-3118-4fd9-ba33-5ac9d171d28e"},"vehicle_type_id":"4","last_reported":1726348023,"current_range_meters":8400,"station_id":"","pricing_plan_id":"cebpf4jnsgd1na2vs0mg"},{"bike_id":"5841eb25-e604-40ef-ab6e-390cd814294e","system_id":"levelo_inurba_marseille","lat":43.30797,"lon":5.3815,"is_reserved":false,"is_disabled":false,"rental_uris":{"android":"levelo://app?vid=5841eb25-e604-40ef-ab6e-390cd814294e","ios":"levelo://app?vid=5841eb25-e604-40ef-ab6e-390cd814294e"},"vehicle_type_id":"4","last_reported":1726348023,"current_range_meters":38000,"station_id":"ce4bgt12rcd13ifvqce0","pricing_plan_id":"cebpf4jnsgd1na2vs0mg"},{"bike_id":"be13ad90-bbb4-40da-9e8c-853f0dfe2473","system_id":"levelo_inurba_marseille","lat":43.30923,"lon":5.40143,"is_reserved":false,"is_disabled":false,"rental_uris":{"android":"levelo://app?vid=be13ad90-bbb4-40da-9e8c-853f0dfe2473","ios":"levelo://app?vid=be13ad90-bbb4-40da-9e8c-853f0dfe2473"},"vehicle_type_id":"4","last_reported":1726348023,"current_range_meters":8000,"station_id":"ce4bgvp2rcd13ifvqct0","pricing_plan_id":"cebpf4jnsgd1na2vs0mg"},{"bike_id":"082a1e2b-df09-42b8-a28e-97d478c33c90","system_id":"levelo_inurba_marseille","lat":43.28439,"lon":5.39204,"is_reserved":false,"is_disabled":false,"rental_uris":{"android":"levelo://app?vid=082a1e2b-df09-42b8-a28e-97d478c33c90","ios":"levelo://app?vid=082a1e2b-df09-42b8-a28e-97d478c33c90"},"vehicle_type_id":"4","last_reported":1726348023,"current_range_meters":36000,"station_id":"ce4bhoh2rcd13ifvqh5g","pricing_plan_id":"cebpf4jnsgd1na2vs0mg"},{"bike_id":"61d5d784-0532-4e51-bcd1-8db386464ea9","system_id":"levelo_inurba_marseille","lat":43.30947,"lon":5.39037,"is_reserved":false,"is_disabled":false,"rental_uris":{"android":"levelo://app?vid=61d5d784-0532-4e51-bcd1-8db386464ea9","ios":"levelo://app?vid=61d5d784-0532-4e51-bcd1-8db386464ea9"},"vehicle_type_id":"4","last_reported":1726348023,"current_range_meters":20800,"station_id":"ce4bgup2rcd13ifvqco0","pricing_plan_id":"cebpf4jnsgd1na2vs0mg"},{"bike_id":"13c4bde3-79a1-495d-a0c0-1dbceff892e5","system_id":"levelo_inurba_marseille","lat":43.25932,"lon":5.40911,"is_reserved":false,"is_disabled":false,"rental_uris":{"android":"levelo://app?vid=13c4bde3-79a1-495d-a0c0-1dbceff892e5","ios":"levelo://app?vid=13c4bde3-79a1-495d-a0c0-1dbceff892e5"},"vehicle_type_id":"4","last_reported":1726348023,"current_range_meters":6800,"station_id":"ce4bhm92rcd13ifvqglg","pricing_plan_id":"cebpf4jnsgd1na2vs0mg"},{"bike_id":"13ec4916-f0ea-4897-8afc-596425b42c42","system_id":"levelo_inurba_marseille","lat":43.23188,"lon":5.35549,"is_reserved":false,"is_disabled":false,"rental_uris":{"android":"levelo://app?vid=13ec4916-f0ea-4897-8afc-596425b42c42","ios":"levelo://app?vid=13ec4916-f0ea-4897-8afc-596425b42c42"},"vehicle_type_id":"4","last_reported":1726348023,"current_range_meters":25200,"station_id":"ce4bhu92rcd13ifvqi70","pricing_plan_id":"cebpf4jnsgd1na2vs0mg"},{"bike_id":"55bc50a0-bff1-4069-a730-21497c0a58ef","system_id":"levelo_inurba_marseille","lat":43.29198,"lon":5.39333,"is_reserved":false,"is_disabled":false,"rental_uris":{"android":"levelo://app?vid=55bc50a0-bff1-4069-a730-21497c0a58ef","ios":"levelo://app?vid=55bc50a0-bff1-4069-a730-21497c0a58ef"},"vehicle_type_id":"4","last_reported":1726348023,"current_range_meters":20000,"station_id":"ce4bh192rcd13ifvqdd0","pricing_plan_id":"cebpf4jnsgd1na2vs0mg"},{"bike_id":"147a3728-a648-4ff4-add2-7e1483cf33ca","system_id":"levelo_inurba_marseille","lat":43.3171,"lon":5.43711,"is_reserved":false,"is_disabled":false,"rental_uris":{"android":"levelo://app?vid=147a3728-a648-4ff4-add2-7e1483cf33ca","ios":"levelo://app?vid=147a3728-a648-4ff4-add2-7e1483cf33ca"},"vehicle_type_id":"4","last_reported":1726348023,"current_range_meters":6000,"station_id":"ce4bhp92rcd13ifvqhcg","pricing_plan_id":"cebpf4jnsgd1na2vs0mg"},{"bike_id":"fe9d6cdb-8f2b-4f8a-bc6d-4ab115fceb80","system_id":"levelo_inurba_marseille","lat":43.28668,"lon":5.38673,"is_reserved":false,"is_disabled":false,"rental_uris":{"android":"levelo://app?vid=fe9d6cdb-8f2b-4f8a-bc6d-4ab115fceb80","ios":"levelo://app?vid=fe9d6cdb-8f2b-4f8a-bc6d-4ab115fceb80"},"vehicle_type_id":"4","last_reported":1726348023,"current_range_meters":24000,"station_id":"ce4bh492rcd13ifvqdug","pricing_plan_id":"cebpf4jnsgd1na2vs0mg"},{"bike_id":"1b69e28d-b657-4802-b5dd-aa17fb5a768b","system_id":"levelo_inurba_marseille","lat":43.27126,"lon":5.42792,"is_reserved":false,"is_disabled":false,"rental_uris":{"android":"levelo://app?vid=1b69e28d-b657-4802-b5dd-aa17fb5a768b","ios":"levelo://app?vid=1b69e28d-b657-4802-b5dd-aa17fb5a768b"},"vehicle_type_id":"4","last_reported":1726348023,"current_range_meters":24800,"station_id":"","pricing_plan_id":"cebpf4jnsgd1na2vs0mg"},{"bike_id":"44187fb5-188b-4fa4-ae3a-4e1ff1a39327","system_id":"levelo_inurba_marseille","lat":43.2949,"lon":5.37843,"is_reserved":false,"is_disabled":false,"rental_uris":{"android":"levelo://app?vid=44187fb5-188b-4fa4-ae3a-4e1ff1a39327","ios":"levelo://app?vid=44187fb5-188b-4fa4-ae3a-4e1ff1a39327"},"vehicle_type_id":"4","last_reported":1726348023,"current_range_meters":8000,"station_id":"ce4bgqh2rcd13ifvqc5g","pricing_plan_id":"cebpf4jnsgd1na2vs0mg"},{"bike_id":"1f4a87d8-adf5-485f-a6c6-f88783176e48","system_id":"levelo_inurba_marseille","lat":43.27987,"lon":5.38746,"is_reserved":false,"is_disabled":false,"rental_uris":{"android":"levelo://app?vid=1f4a87d8-adf5-485f-a6c6-f88783176e48","ios":"levelo://app?vid=1f4a87d8-adf5-485f-a6c6-f88783176e48"},"vehicle_type_id":"4","last_reported":1726348023,"current_range_meters":38000,"station_id":"ce4bhg12rcd13ifvqf80","pricing_plan_id":"cebpf4jnsgd1na2vs0mg"},{"bike_id":"995d3a7e-289e-4ebd-b785-9d2da426ad57","system_id":"levelo_inurba_marseille","lat":43.23189,"lon":5.35549,"is_reserved":false,"is_disabled":false,"rental_uris":{"android":"levelo://app?vid=995d3a7e-289e-4ebd-b785-9d2da426ad57","ios":"levelo://app?vid=995d3a7e-289e-4ebd-b785-9d2da426ad57"},"vehicle_type_id":"4","last_reported":1726348023,"current_range_meters":18000,"station_id":"ce4bhu92rcd13ifvqi70","pricing_plan_id":"cebpf4jnsgd1na2vs0mg"},{"bike_id":"74c67d55-8a5f-40c9-8066-d68354718f8c","system_id":"levelo_inurba_marseille","lat":43.2319,"lon":5.35557,"is_reserved":false,"is_disabled":false,"rental_uris":{"android":"levelo://app?vid=74c67d55-8a5f-40c9-8066-d68354718f8c","ios":"levelo://app?vid=74c67d55-8a5f-40c9-8066-d68354718f8c"},"vehicle_type_id":"4","last_reported":1726348023,"current_range_meters":24000,"station_id":"ce4bhu92rcd13ifvqi70","pricing_plan_id":"cebpf4jnsgd1na2vs0mg"},{"bike_id":"bbf4e502-3b7d-4ad7-916b-3acdd83d342b","system_id":"levelo_inurba_marseille","lat":43.30126,"lon":5.39864,"is_reserved":false,"is_disabled":false,"rental_uris":{"android":"levelo://app?vid=bbf4e502-3b7d-4ad7-916b-3acdd83d342b","ios":"levelo://app?vid=bbf4e502-3b7d-4ad7-916b-3acdd83d342b"},"vehicle_type_id":"4","last_reported":1726348023,"current_range_meters":22400,"station_id":"ce4bh0h2rcd13ifvqd40","pricing_plan_id":"cebpf4jnsgd1na2vs0mg"},{"bike_id":"31a9f4fe-2f31-4ccb-849a-e9ae9d00f093","system_id":"levelo_inurba_marseille","lat":43.3136,"lon":5.38497,"is_reserved":false,"is_disabled":false,"rental_uris":{"android":"levelo://app?vid=31a9f4fe-2f31-4ccb-849a-e9ae9d00f093","ios":"levelo://app?vid=31a9f4fe-2f31-4ccb-849a-e9ae9d00f093"},"vehicle_type_id":"4","last_reported":1726348023,"current_range_meters":38800,"station_id":"ce4bgt92rcd13ifvqcf0","pricing_plan_id":"cebpf4jnsgd1na2vs0mg"},{"bike_id":"44e42094-a624-4246-a524-0a5fb813c105","system_id":"levelo_inurba_marseille","lat":43.31369,"lon":5.38494,"is_reserved":false,"is_disabled":false,"rental_uris":{"android":"levelo://app?vid=44e42094-a624-4246-a524-0a5fb813c105","ios":"levelo://app?vid=44e42094-a624-4246-a524-0a5fb813c105"},"vehicle_type_id":"4","last_reported":1726348023,"current_range_meters":38800,"station_id":"ce4bgt92rcd13ifvqcf0","pricing_plan_id":"cebpf4jnsgd1na2vs0mg"},{"bike_id":"2348432a-2e1b-4480-8221-dc0ae33b40e8","system_id":"levelo_inurba_marseille","lat":43.24391,"lon":5.37062,"is_reserved":false,"is_disabled":false,"rental_uris":{"android":"levelo://app?vid=2348432a-2e1b-4480-8221-dc0ae33b40e8","ios":"levelo://app?vid=2348432a-2e1b-4480-8221-dc0ae33b40e8"},"vehicle_type_id":"4","last_reported":1726348023,"current_range_meters":20000,"station_id":"ce4bhhh2rcd13ifvqfk0","pricing_plan_id":"cebpf4jnsgd1na2vs0mg"},{"bike_id":"2ab41b8d-9306-478c-8dc2-5705f2df0ae5","system_id":"levelo_inurba_marseille","lat":43.32363,"lon":5.38881,"is_reserved":false,"is_disabled":false,"rental_uris":{"android":"levelo://app?vid=2ab41b8d-9306-478c-8dc2-5705f2df0ae5","ios":"levelo://app?vid=2ab41b8d-9306-478c-8dc2-5705f2df0ae5"},"vehicle_type_id":"4","last_reported":1726348023,"current_range_meters":10000,"station_id":"ce4bhqp2rcd13ifvqhog","pricing_plan_id":"cebpf4jnsgd1na2vs0mg"},{"bike_id":"66386529-89a8-45e6-8f11-bc267872aa9c","system_id":"levelo_inurba_marseille","lat":43.293304,"lon":5.37159,"is_reserved":false,"is_disabled":false,"rental_uris":{"android":"levelo://app?vid=66386529-89a8-45e6-8f11-bc267872aa9c","ios":"levelo://app?vid=66386529-89a8-45e6-8f11-bc267872aa9c"},"vehicle_type_id":"4","last_reported":1726348023,"current_range_meters":24400,"station_id":"ce4bhhp2rcd13ifvqfm0","pricing_plan_id":"cebpf4jnsgd1na2vs0mg"},{"bike_id":"bf163d4f-8221-4fc1-aa83-ebe7d7a41dd8","system_id":"levelo_inurba_marseille","lat":43.26023,"lon":5.37549,"is_reserved":false,"is_disabled":false,"rental_uris":{"android":"levelo://app?vid=bf163d4f-8221-4fc1-aa83-ebe7d7a41dd8","ios":"levelo://app?vid=bf163d4f-8221-4fc1-aa83-ebe7d7a41dd8"},"vehicle_type_id":"4","last_reported":1726348023,"current_range_meters":36800,"station_id":"ce4bhgh2rcd13ifvqfa0","pricing_plan_id":"cebpf4jnsgd1na2vs0mg"},{"bike_id":"dfb89513-f211-47bc-95b2-ffac780f14a8","system_id":"levelo_inurba_marseille","lat":43.23193,"lon":5.35556,"is_reserved":false,"is_disabled":false,"rental_uris":{"android":"levelo://app?vid=dfb89513-f211-47bc-95b2-ffac780f14a8","ios":"levelo://app?vid=dfb89513-f211-47bc-95b2-ffac780f14a8"},"vehicle_type_id":"4","last_reported":1726348023,"current_range_meters":11200,"station_id":"ce4bhu92rcd13ifvqi70","pricing_plan_id":"cebpf4jnsgd1na2vs0mg"},{"bike_id":"027af7ce-c72d-4149-b575-62636d5fb3c1","system_id":"levelo_inurba_marseille","lat":43.28729,"lon":5.37946,"is_reserved":false,"is_disabled":false,"rental_uris":{"android":"levelo://app?vid=027af7ce-c72d-4149-b575-62636d5fb3c1","ios":"levelo://app?vid=027af7ce-c72d-4149-b575-62636d5fb3c1"},"vehicle_type_id":"4","last_reported":1726348023,"current_range_meters":16400,"station_id":"ce4bh9p2rcd13ifvqec0","pricing_plan_id":"cebpf4jnsgd1na2vs0mg"},{"bike_id":"5695be2b-9a5b-4c85-9c3e-237c284c36d2","system_id":"levelo_inurba_marseille","lat":43.32293,"lon":5.38265,"is_reserved":false,"is_disabled":false,"rental_uris":{"android":"levelo://app?vid=5695be2b-9a5b-4c85-9c3e-237c284c36d2","ios":"levelo://app?vid=5695be2b-9a5b-4c85-9c3e-237c284c36d2"},"vehicle_type_id":"4","last_reported":1726348023,"current_range_meters":39200,"station_id":"ce4bhr12rcd13ifvqhqg","pricing_plan_id":"cebpf4jnsgd1na2vs0mg"},{"bike_id":"282df74a-fc48-4048-98c0-c7e7da0b0e4a","system_id":"levelo_inurba_marseille","lat":43.28446,"lon":5.39191,"is_reserved":false,"is_disabled":false,"rental_uris":{"android":"levelo://app?vid=282df74a-fc48-4048-98c0-c7e7da0b0e4a","ios":"levelo://app?vid=282df74a-fc48-4048-98c0-c7e7da0b0e4a"},"vehicle_type_id":"4","last_reported":1726348023,"current_range_meters":33600,"station_id":"ce4bhoh2rcd13ifvqh5g","pricing_plan_id":"cebpf4jnsgd1na2vs0mg"},{"bike_id":"80c462ab-97ff-4b7a-bb6f-ced858f8f6da","system_id":"levelo_inurba_marseille","lat":43.30301,"lon":5.39207,"is_reserved":false,"is_disabled":false,"rental_uris":{"android":"levelo://app?vid=80c462ab-97ff-4b7a-bb6f-ced858f8f6da","ios":"levelo://app?vid=80c462ab-97ff-4b7a-bb6f-ced858f8f6da"},"vehicle_type_id":"4","last_reported":1726348023,"current_range_meters":38400,"station_id":"ce4bgkh2rcd13ifvqbk0","pricing_plan_id":"cebpf4jnsgd1na2vs0mg"},{"bike_id":"aac07f6f-d068-41e5-80ed-ad695afca2fa","system_id":"levelo_inurba_marseille","lat":43.25719,"lon":5.41114,"is_reserved":false,"is_disabled":false,"rental_uris":{"android":"levelo://app?vid=aac07f6f-d068-41e5-80ed-ad695afca2fa","ios":"levelo://app?vid=aac07f6f-d068-41e5-80ed-ad695afca2fa"},"vehicle_type_id":"4","last_reported":1726348023,"current_range_meters":35600,"station_id":"ce4bhkp2rcd13ifvqgd0","pricing_plan_id":"cebpf4jnsgd1na2vs0mg"},{"bike_id":"8f7d2222-b8b1-4df4-8f4e-3209ab742980","system_id":"levelo_inurba_marseille","lat":43.30879,"lon":5.39638,"is_reserved":false,"is_disabled":false,"rental_uris":{"android":"levelo://app?vid=8f7d2222-b8b1-4df4-8f4e-3209ab742980","ios":"levelo://app?vid=8f7d2222-b8b1-4df4-8f4e-3209ab742980"},"vehicle_type_id":"4","last_reported":1726348023,"current_range_meters":27200,"station_id":"ce4bh012rcd13ifvqcv0","pricing_plan_id":"cebpf4jnsgd1na2vs0mg"},{"bike_id":"ff71f197-f35a-428d-85a9-8d54dd70f7ac","system_id":"levelo_inurba_marseille","lat":43.29412,"lon":5.3863,"is_reserved":false,"is_disabled":false,"rental_uris":{"android":"levelo://app?vid=ff71f197-f35a-428d-85a9-8d54dd70f7ac","ios":"levelo://app?vid=ff71f197-f35a-428d-85a9-8d54dd70f7ac"},"vehicle_type_id":"4","last_reported":1726348023,"current_range_meters":2800,"station_id":"ce4bh2h2rcd13ifvqdh0","pricing_plan_id":"cebpf4jnsgd1na2vs0mg"},{"bike_id":"1ff366e9-e1c8-45b3-b253-c4180e65f400","system_id":"levelo_inurba_marseille","lat":43.2988,"lon":5.38908,"is_reserved":false,"is_disabled":false,"rental_uris":{"android":"levelo://app?vid=1ff366e9-e1c8-45b3-b253-c4180e65f400","ios":"levelo://app?vid=1ff366e9-e1c8-45b3-b253-c4180e65f400"},"vehicle_type_id":"4","last_reported":1726348023,"current_range_meters":25600,"station_id":"ce4bh392rcd13ifvqdl0","pricing_plan_id":"cebpf4jnsgd1na2vs0mg"},{"bike_id":"30fc1f51-20b6-4e13-8f56-75175e166910","system_id":"levelo_inurba_marseille","lat":43.2306,"lon":5.35492,"is_reserved":false,"is_disabled":false,"rental_uris":{"android":"levelo://app?vid=30fc1f51-20b6-4e13-8f56-75175e166910","ios":"levelo://app?vid=30fc1f51-20b6-4e13-8f56-75175e166910"},"vehicle_type_id":"4","last_reported":1726348023,"current_range_meters":38400,"station_id":"cpo3342slgdg3j2ifvpg","pricing_plan_id":"cebpf4jnsgd1na2vs0mg"},{"bike_id":"2fef7e9e-a36e-4cb1-b75d-12b751af0e14","system_id":"levelo_inurba_marseille","lat":43.28366,"lon":5.38099,"is_reserved":false,"is_disabled":false,"rental_uris":{"android":"levelo://app?vid=2fef7e9e-a36e-4cb1-b75d-12b751af0e14","ios":"levelo://app?vid=2fef7e9e-a36e-4cb1-b75d-12b751af0e14"},"vehicle_type_id":"4","last_reported":1726348023,"current_range_meters":10000,"station_id":"ce4bh412rcd13ifvqdr0","pricing_plan_id":"cebpf4jnsgd1na2vs0mg"},{"bike_id":"0bba7cc8-449f-4082-ae64-43460c75ad4f","system_id":"levelo_inurba_marseille","lat":43.30544,"lon":5.36709,"is_reserved":false,"is_disabled":false,"rental_uris":{"android":"levelo://app?vid=0bba7cc8-449f-4082-ae64-43460c75ad4f","ios":"levelo://app?vid=0bba7cc8-449f-4082-ae64-43460c75ad4f"},"vehicle_type_id":"4","last_reported":1726348023,"current_range_meters":36800,"station_id":"ce4bgrp2rcd13ifvqc9g","pricing_plan_id":"cebpf4jnsgd1na2vs0mg"},{"bike_id":"872cd4aa-e34d-48c8-b071-121143f4a33f","system_id":"levelo_inurba_marseille","lat":43.25721,"lon":5.41106,"is_reserved":false,"is_disabled":false,"rental_uris":{"android":"levelo://app?vid=872cd4aa-e34d-48c8-b071-121143f4a33f","ios":"levelo://app?vid=872cd4aa-e34d-48c8-b071-121143f4a33f"},"vehicle_type_id":"4","last_reported":1726348023,"current_range_meters":38800,"station_id":"ce4bhkp2rcd13ifvqgd0","pricing_plan_id":"cebpf4jnsgd1na2vs0mg"},{"bike_id":"41df1c5a-02ec-49ac-b03d-2447abc61174","system_id":"levelo_inurba_marseille","lat":43.31366,"lon":5.385,"is_reserved":false,"is_disabled":false,"rental_uris":{"android":"levelo://app?vid=41df1c5a-02ec-49ac-b03d-2447abc61174","ios":"levelo://app?vid=41df1c5a-02ec-49ac-b03d-2447abc61174"},"vehicle_type_id":"4","last_reported":1726348023,"current_range_meters":20400,"station_id":"ce4bgt92rcd13ifvqcf0","pricing_plan_id":"cebpf4jnsgd1na2vs0mg"},{"bike_id":"2ca786a4-e722-41fb-83e7-b1828687d7d6","system_id":"levelo_inurba_marseille","lat":43.30796,"lon":5.38152,"is_reserved":false,"is_disabled":false,"rental_uris":{"android":"levelo://app?vid=2ca786a4-e722-41fb-83e7-b1828687d7d6","ios":"levelo://app?vid=2ca786a4-e722-41fb-83e7-b1828687d7d6"},"vehicle_type_id":"4","last_reported":1726348023,"current_range_meters":35600,"station_id":"ce4bgt12rcd13ifvqce0","pricing_plan_id":"cebpf4jnsgd1na2vs0mg"},{"bike_id":"2e13ca3e-0d3a-4c1f-b918-f48783186081","system_id":"levelo_inurba_marseille","lat":43.30588,"lon":5.39353,"is_reserved":false,"is_disabled":false,"rental_uris":{"android":"levelo://app?vid=2e13ca3e-0d3a-4c1f-b918-f48783186081","ios":"levelo://app?vid=2e13ca3e-0d3a-4c1f-b918-f48783186081"},"vehicle_type_id":"4","last_reported":1726348023,"current_range_meters":38000,"station_id":"ce4bh0p2rcd13ifvqd80","pricing_plan_id":"cebpf4jnsgd1na2vs0mg"},{"bike_id":"a5637c79-75b1-485f-83f5-51c1e62faacb","system_id":"levelo_inurba_marseille","lat":43.29007,"lon":5.35616,"is_reserved":false,"is_disabled":false,"rental_uris":{"android":"levelo://app?vid=a5637c79-75b1-485f-83f5-51c1e62faacb","ios":"levelo://app?vid=a5637c79-75b1-485f-83f5-51c1e62faacb"},"vehicle_type_id":"4","last_reported":1726348023,"current_range_meters":32000,"station_id":"ce4bhb92rcd13ifvqen0","pricing_plan_id":"cebpf4jnsgd1na2vs0mg"},{"bike_id":"c86b0092-7fc7-4b72-93c6-667605627665","system_id":"levelo_inurba_marseille","lat":43.30744,"lon":5.38298,"is_reserved":false,"is_disabled":false,"rental_uris":{"android":"levelo://app?vid=c86b0092-7fc7-4b72-93c6-667605627665","ios":"levelo://app?vid=c86b0092-7fc7-4b72-93c6-667605627665"},"vehicle_type_id":"4","last_reported":1726348023,"current_range_meters":7200,"station_id":"","pricing_plan_id":"cebpf4jnsgd1na2vs0mg"},{"bike_id":"f89ebaff-608b-48c6-99bf-a4efd018954e","system_id":"levelo_inurba_marseille","lat":43.25721,"lon":5.41117,"is_reserved":false,"is_disabled":false,"rental_uris":{"android":"levelo://app?vid=f89ebaff-608b-48c6-99bf-a4efd018954e","ios":"levelo://app?vid=f89ebaff-608b-48c6-99bf-a4efd018954e"},"vehicle_type_id":"4","last_reported":1726348023,"current_range_meters":19600,"station_id":"ce4bhkp2rcd13ifvqgd0","pricing_plan_id":"cebpf4jnsgd1na2vs0mg"},{"bike_id":"cc1ed7f8-4fa8-40e1-b964-30bb80a3cc87","system_id":"levelo_inurba_marseille","lat":43.24809,"lon":5.3746,"is_reserved":false,"is_disabled":false,"rental_uris":{"android":"levelo://app?vid=cc1ed7f8-4fa8-40e1-b964-30bb80a3cc87","ios":"levelo://app?vid=cc1ed7f8-4fa8-40e1-b964-30bb80a3cc87"},"vehicle_type_id":"4","last_reported":1726348023,"current_range_meters":30400,"station_id":"ce4bhgh2rcd13ifvqfb0","pricing_plan_id":"cebpf4jnsgd1na2vs0mg"},{"bike_id":"f6437437-0271-4253-b265-47225f3ca4d8","system_id":"levelo_inurba_marseille","lat":43.294098,"lon":5.386252,"is_reserved":false,"is_disabled":false,"rental_uris":{"android":"levelo://app?vid=f6437437-0271-4253-b265-47225f3ca4d8","ios":"levelo://app?vid=f6437437-0271-4253-b265-47225f3ca4d8"},"vehicle_type_id":"4","last_reported":1726348023,"current_range_meters":25200,"station_id":"ce4bh2h2rcd13ifvqdh0","pricing_plan_id":"cebpf4jnsgd1na2vs0mg"},{"bike_id":"fc8b27c4-f2ac-4aa3-a72e-f0799ca48e22","system_id":"levelo_inurba_marseille","lat":43.23147,"lon":5.43709,"is_reserved":false,"is_disabled":false,"rental_uris":{"android":"levelo://app?vid=fc8b27c4-f2ac-4aa3-a72e-f0799ca48e22","ios":"levelo://app?vid=fc8b27c4-f2ac-4aa3-a72e-f0799ca48e22"},"vehicle_type_id":"4","last_reported":1726348023,"current_range_meters":14400,"station_id":"ce4bhmp2rcd13ifvqgog","pricing_plan_id":"cebpf4jnsgd1na2vs0mg"},{"bike_id":"b163cf08-6ce3-4d2f-a3d2-6a4eb4ce7991","system_id":"levelo_inurba_marseille","lat":43.28153,"lon":5.42648,"is_reserved":false,"is_disabled":false,"rental_uris":{"android":"levelo://app?vid=b163cf08-6ce3-4d2f-a3d2-6a4eb4ce7991","ios":"levelo://app?vid=b163cf08-6ce3-4d2f-a3d2-6a4eb4ce7991"},"vehicle_type_id":"4","last_reported":1726348023,"current_range_meters":11200,"station_id":"ce4bhnh2rcd13ifvqgug","pricing_plan_id":"cebpf4jnsgd1na2vs0mg"},{"bike_id":"2690214e-f814-462a-adbe-7512c993181c","system_id":"levelo_inurba_marseille","lat":43.29263,"lon":5.38444,"is_reserved":false,"is_disabled":false,"rental_uris":{"android":"levelo://app?vid=2690214e-f814-462a-adbe-7512c993181c","ios":"levelo://app?vid=2690214e-f814-462a-adbe-7512c993181c"},"vehicle_type_id":"4","last_reported":1726348023,"current_range_meters":38800,"station_id":"ce4bh692rcd13ifvqea0","pricing_plan_id":"cebpf4jnsgd1na2vs0mg"},{"bike_id":"1731a3b2-0ff1-45ed-9d84-25fa4a45c929","system_id":"levelo_inurba_marseille","lat":43.27575,"lon":5.38407,"is_reserved":false,"is_disabled":false,"rental_uris":{"android":"levelo://app?vid=1731a3b2-0ff1-45ed-9d84-25fa4a45c929","ios":"levelo://app?vid=1731a3b2-0ff1-45ed-9d84-25fa4a45c929"},"vehicle_type_id":"4","last_reported":1726348023,"current_range_meters":36000,"station_id":"ce4bhh92rcd13ifvqfi0","pricing_plan_id":"cebpf4jnsgd1na2vs0mg"},{"bike_id":"f79ff168-7c1f-43a6-9a48-819ae1e3b151","system_id":"levelo_inurba_marseille","lat":43.24076,"lon":5.37762,"is_reserved":false,"is_disabled":false,"rental_uris":{"android":"levelo://app?vid=f79ff168-7c1f-43a6-9a48-819ae1e3b151","ios":"levelo://app?vid=f79ff168-7c1f-43a6-9a48-819ae1e3b151"},"vehicle_type_id":"4","last_reported":1726348023,"current_range_meters":17200,"station_id":"ce4bhnp2rcd13ifvqgvg","pricing_plan_id":"cebpf4jnsgd1na2vs0mg"},{"bike_id":"37aa0e75-da6f-4c08-b56e-acbda555996b","system_id":"levelo_inurba_marseille","lat":43.29274,"lon":5.40118,"is_reserved":false,"is_disabled":false,"rental_uris":{"android":"levelo://app?vid=37aa0e75-da6f-4c08-b56e-acbda555996b","ios":"levelo://app?vid=37aa0e75-da6f-4c08-b56e-acbda555996b"},"vehicle_type_id":"4","last_reported":1726348023,"current_range_meters":2800,"station_id":"ce4bh312rcd13ifvqdk0","pricing_plan_id":"cebpf4jnsgd1na2vs0mg"},{"bike_id":"db598570-6e0a-46e4-9d53-c0d3586a1208","system_id":"levelo_inurba_marseille","lat":43.29411,"lon":5.38635,"is_reserved":false,"is_disabled":false,"rental_uris":{"android":"levelo://app?vid=db598570-6e0a-46e4-9d53-c0d3586a1208","ios":"levelo://app?vid=db598570-6e0a-46e4-9d53-c0d3586a1208"},"vehicle_type_id":"4","last_reported":1726348023,"current_range_meters":38800,"station_id":"ce4bh2h2rcd13ifvqdh0","pricing_plan_id":"cebpf4jnsgd1na2vs0mg"},{"bike_id":"7a82031c-9328-4b94-8669-9d14eed89c16","system_id":"levelo_inurba_marseille","lat":43.28687,"lon":5.39976,"is_reserved":false,"is_disabled":false,"rental_uris":{"android":"levelo://app?vid=7a82031c-9328-4b94-8669-9d14eed89c16","ios":"levelo://app?vid=7a82031c-9328-4b94-8669-9d14eed89c16"},"vehicle_type_id":"4","last_reported":1726348023,"current_range_meters":14400,"station_id":"ce4bho92rcd13ifvqh3g","pricing_plan_id":"cebpf4jnsgd1na2vs0mg"},{"bike_id":"90521811-f8fd-48e1-ade7-4d07ddb065bb","system_id":"levelo_inurba_marseille","lat":43.23197,"lon":5.35555,"is_reserved":false,"is_disabled":false,"rental_uris":{"android":"levelo://app?vid=90521811-f8fd-48e1-ade7-4d07ddb065bb","ios":"levelo://app?vid=90521811-f8fd-48e1-ade7-4d07ddb065bb"},"vehicle_type_id":"4","last_reported":1726348023,"current_range_meters":16400,"station_id":"ce4bhu92rcd13ifvqi70","pricing_plan_id":"cebpf4jnsgd1na2vs0mg"},{"bike_id":"80929e07-48af-4599-8292-4265dda28cd5","system_id":"levelo_inurba_marseille","lat":43.31114,"lon":5.37769,"is_reserved":false,"is_disabled":false,"rental_uris":{"android":"levelo://app?vid=80929e07-48af-4599-8292-4265dda28cd5","ios":"levelo://app?vid=80929e07-48af-4599-8292-4265dda28cd5"},"vehicle_type_id":"4","last_reported":1726348023,"current_range_meters":38000,"station_id":"ce4bgt92rcd13ifvqcg0","pricing_plan_id":"cebpf4jnsgd1na2vs0mg"},{"bike_id":"dafcc4cd-b2f7-4125-9846-74323a3593b1","system_id":"levelo_inurba_marseille","lat":43.23182,"lon":5.39987,"is_reserved":false,"is_disabled":false,"rental_uris":{"android":"levelo://app?vid=dafcc4cd-b2f7-4125-9846-74323a3593b1","ios":"levelo://app?vid=dafcc4cd-b2f7-4125-9846-74323a3593b1"},"vehicle_type_id":"4","last_reported":1726348023,"current_range_meters":9600,"station_id":"ce4bhn12rcd13ifvqgqg","pricing_plan_id":"cebpf4jnsgd1na2vs0mg"},{"bike_id":"1fb5da9e-6df7-4106-a459-3f96f567eb25","system_id":"levelo_inurba_marseille","lat":43.231507,"lon":5.437198,"is_reserved":false,"is_disabled":false,"rental_uris":{"android":"levelo://app?vid=1fb5da9e-6df7-4106-a459-3f96f567eb25","ios":"levelo://app?vid=1fb5da9e-6df7-4106-a459-3f96f567eb25"},"vehicle_type_id":"4","last_reported":1726348023,"current_range_meters":39200,"station_id":"ce4bhmp2rcd13ifvqgog","pricing_plan_id":"cebpf4jnsgd1na2vs0mg"},{"bike_id":"f524e6ce-bd11-4cfb-bffa-8bd27d264bc1","system_id":"levelo_inurba_marseille","lat":43.2511,"lon":5.40323,"is_reserved":false,"is_disabled":false,"rental_uris":{"android":"levelo://app?vid=f524e6ce-bd11-4cfb-bffa-8bd27d264bc1","ios":"levelo://app?vid=f524e6ce-bd11-4cfb-bffa-8bd27d264bc1"},"vehicle_type_id":"4","last_reported":1726348023,"current_range_meters":39200,"station_id":"ce4bhlh2rcd13ifvqgig","pricing_plan_id":"cebpf4jnsgd1na2vs0mg"},{"bike_id":"892311a1-352f-4624-a89d-ee7863cf54d9","system_id":"levelo_inurba_marseille","lat":43.295135,"lon":5.423004,"is_reserved":false,"is_disabled":false,"rental_uris":{"android":"levelo://app?vid=892311a1-352f-4624-a89d-ee7863cf54d9","ios":"levelo://app?vid=892311a1-352f-4624-a89d-ee7863cf54d9"},"vehicle_type_id":"4","last_reported":1726348023,"current_range_meters":9200,"station_id":"ce4bhph2rcd13ifvqhdg","pricing_plan_id":"cebpf4jnsgd1na2vs0mg"},{"bike_id":"25811bc6-94cc-429e-8d58-a38b067102d3","system_id":"levelo_inurba_marseille","lat":43.29513,"lon":5.39045,"is_reserved":false,"is_disabled":false,"rental_uris":{"android":"levelo://app?vid=25811bc6-94cc-429e-8d58-a38b067102d3","ios":"levelo://app?vid=25811bc6-94cc-429e-8d58-a38b067102d3"},"vehicle_type_id":"4","last_reported":1726348023,"current_range_meters":26800,"station_id":"ce4bh3p2rcd13ifvqdp0","pricing_plan_id":"cebpf4jnsgd1na2vs0mg"},{"bike_id":"fe7d7640-31b4-4680-bbc0-971c61390d2e","system_id":"levelo_inurba_marseille","lat":43.25087,"lon":5.39513,"is_reserved":false,"is_disabled":false,"rental_uris":{"android":"levelo://app?vid=fe7d7640-31b4-4680-bbc0-971c61390d2e","ios":"levelo://app?vid=fe7d7640-31b4-4680-bbc0-971c61390d2e"},"vehicle_type_id":"4","last_reported":1726348023,"current_range_meters":32000,"station_id":"ce4bhm12rcd13ifvqgkg","pricing_plan_id":"cebpf4jnsgd1na2vs0mg"},{"bike_id":"26db0265-0a91-4c66-8aa8-67a94f7eef0d","system_id":"levelo_inurba_marseille","lat":43.26937,"lon":5.40059,"is_reserved":false,"is_disabled":false,"rental_uris":{"android":"levelo://app?vid=26db0265-0a91-4c66-8aa8-67a94f7eef0d","ios":"levelo://app?vid=26db0265-0a91-4c66-8aa8-67a94f7eef0d"},"vehicle_type_id":"4","last_reported":1726348023,"current_range_meters":15200,"station_id":"","pricing_plan_id":"cebpf4jnsgd1na2vs0mg"},{"bike_id":"9b49fc06-69dc-4375-9bc8-2ab31283d424","system_id":"levelo_inurba_marseille","lat":43.29903,"lon":5.43662,"is_reserved":false,"is_disabled":false,"rental_uris":{"android":"levelo://app?vid=9b49fc06-69dc-4375-9bc8-2ab31283d424","ios":"levelo://app?vid=9b49fc06-69dc-4375-9bc8-2ab31283d424"},"vehicle_type_id":"4","last_reported":1726348023,"current_range_meters":30400,"station_id":"ce4bhpp2rcd13ifvqhfg","pricing_plan_id":"cebpf4jnsgd1na2vs0mg"},{"bike_id":"cf730975-9c85-43ad-9cf6-3e12bb4d29c8","system_id":"levelo_inurba_marseille","lat":43.30585,"lon":5.39358,"is_reserved":false,"is_disabled":false,"rental_uris":{"android":"levelo://app?vid=cf730975-9c85-43ad-9cf6-3e12bb4d29c8","ios":"levelo://app?vid=cf730975-9c85-43ad-9cf6-3e12bb4d29c8"},"vehicle_type_id":"4","last_reported":1726348023,"current_range_meters":38000,"station_id":"ce4bh0p2rcd13ifvqd80","pricing_plan_id":"cebpf4jnsgd1na2vs0mg"},{"bike_id":"8ac209fb-f004-4d4e-85ea-8a32abcdb849","system_id":"levelo_inurba_marseille","lat":43.29415,"lon":5.38626,"is_reserved":false,"is_disabled":false,"rental_uris":{"android":"levelo://app?vid=8ac209fb-f004-4d4e-85ea-8a32abcdb849","ios":"levelo://app?vid=8ac209fb-f004-4d4e-85ea-8a32abcdb849"},"vehicle_type_id":"4","last_reported":1726348023,"current_range_meters":38800,"station_id":"ce4bh2h2rcd13ifvqdh0","pricing_plan_id":"cebpf4jnsgd1na2vs0mg"},{"bike_id":"50848448-0c1b-4db2-b02b-7f54d96f2c9c","system_id":"levelo_inurba_marseille","lat":43.29422,"lon":5.38621,"is_reserved":false,"is_disabled":false,"rental_uris":{"android":"levelo://app?vid=50848448-0c1b-4db2-b02b-7f54d96f2c9c","ios":"levelo://app?vid=50848448-0c1b-4db2-b02b-7f54d96f2c9c"},"vehicle_type_id":"4","last_reported":1726348023,"current_range_meters":39200,"station_id":"ce4bh2h2rcd13ifvqdh0","pricing_plan_id":"cebpf4jnsgd1na2vs0mg"},{"bike_id":"14c7c49e-ac4e-4dba-94e4-3e14fb40b26f","system_id":"levelo_inurba_marseille","lat":43.30797,"lon":5.38154,"is_reserved":false,"is_disabled":false,"rental_uris":{"android":"levelo://app?vid=14c7c49e-ac4e-4dba-94e4-3e14fb40b26f","ios":"levelo://app?vid=14c7c49e-ac4e-4dba-94e4-3e14fb40b26f"},"vehicle_type_id":"4","last_reported":1726348023,"current_range_meters":28000,"station_id":"ce4bgt12rcd13ifvqce0","pricing_plan_id":"cebpf4jnsgd1na2vs0mg"},{"bike_id":"9ae8ef08-9c82-4a56-8bb3-338241d62d6c","system_id":"levelo_inurba_marseille","lat":43.29967,"lon":5.38494,"is_reserved":false,"is_disabled":false,"rental_uris":{"android":"levelo://app?vid=9ae8ef08-9c82-4a56-8bb3-338241d62d6c","ios":"levelo://app?vid=9ae8ef08-9c82-4a56-8bb3-338241d62d6c"},"vehicle_type_id":"4","last_reported":1726348023,"current_range_meters":16400,"station_id":"ce4bgj92rcd13ifvqbd0","pricing_plan_id":"cebpf4jnsgd1na2vs0mg"},{"bike_id":"fbac2abb-8487-44aa-abfe-507b0349d953","system_id":"levelo_inurba_marseille","lat":43.29868,"lon":5.39734,"is_reserved":false,"is_disabled":false,"rental_uris":{"android":"levelo://app?vid=fbac2abb-8487-44aa-abfe-507b0349d953","ios":"levelo://app?vid=fbac2abb-8487-44aa-abfe-507b0349d953"},"vehicle_type_id":"4","last_reported":1726348023,"current_range_meters":8800,"station_id":"ce4bh0h2rcd13ifvqd50","pricing_plan_id":"cebpf4jnsgd1na2vs0mg"},{"bike_id":"76bffc56-4c80-4f6f-bdfb-f93288287a43","system_id":"levelo_inurba_marseille","lat":43.30594,"lon":5.39352,"is_reserved":false,"is_disabled":false,"rental_uris":{"android":"levelo://app?vid=76bffc56-4c80-4f6f-bdfb-f93288287a43","ios":"levelo://app?vid=76bffc56-4c80-4f6f-bdfb-f93288287a43"},"vehicle_type_id":"4","last_reported":1726348023,"current_range_meters":39200,"station_id":"ce4bh0p2rcd13ifvqd80","pricing_plan_id":"cebpf4jnsgd1na2vs0mg"},{"bike_id":"fa0bba81-ae28-438c-aaa0-a2a0c9d69ac5","system_id":"levelo_inurba_marseille","lat":43.29558,"lon":5.42292,"is_reserved":false,"is_disabled":false,"rental_uris":{"android":"levelo://app?vid=fa0bba81-ae28-438c-aaa0-a2a0c9d69ac5","ios":"levelo://app?vid=fa0bba81-ae28-438c-aaa0-a2a0c9d69ac5"},"vehicle_type_id":"4","last_reported":1726348023,"current_range_meters":33200,"station_id":"ce4bhph2rcd13ifvqhdg","pricing_plan_id":"cebpf4jnsgd1na2vs0mg"},{"bike_id":"e00d038a-00c7-4258-ab4b-259bdb081cfd","system_id":"levelo_inurba_marseille","lat":43.23187,"lon":5.35548,"is_reserved":false,"is_disabled":false,"rental_uris":{"android":"levelo://app?vid=e00d038a-00c7-4258-ab4b-259bdb081cfd","ios":"levelo://app?vid=e00d038a-00c7-4258-ab4b-259bdb081cfd"},"vehicle_type_id":"4","last_reported":1726348023,"current_range_meters":32800,"station_id":"ce4bhu92rcd13ifvqi70","pricing_plan_id":"cebpf4jnsgd1na2vs0mg"},{"bike_id":"4f847161-8733-40c0-9d1a-924c211b3057","system_id":"levelo_inurba_marseille","lat":43.23199,"lon":5.35546,"is_reserved":false,"is_disabled":false,"rental_uris":{"android":"levelo://app?vid=4f847161-8733-40c0-9d1a-924c211b3057","ios":"levelo://app?vid=4f847161-8733-40c0-9d1a-924c211b3057"},"vehicle_type_id":"4","last_reported":1726348023,"current_range_meters":36400,"station_id":"ce4bhu92rcd13ifvqi70","pricing_plan_id":"cebpf4jnsgd1na2vs0mg"},{"bike_id":"bca845e6-fe68-40cf-82c0-67c22abfd968","system_id":"levelo_inurba_marseille","lat":43.27909,"lon":5.38018,"is_reserved":false,"is_disabled":false,"rental_uris":{"android":"levelo://app?vid=bca845e6-fe68-40cf-82c0-67c22abfd968","ios":"levelo://app?vid=bca845e6-fe68-40cf-82c0-67c22abfd968"},"vehicle_type_id":"4","last_reported":1726348023,"current_range_meters":36400,"station_id":"ce4bhf92rcd13ifvqf50","pricing_plan_id":"cebpf4jnsgd1na2vs0mg"},{"bike_id":"4aeed261-2506-4a24-b396-48bb3e62632b","system_id":"levelo_inurba_marseille","lat":43.297102,"lon":5.368022,"is_reserved":false,"is_disabled":false,"rental_uris":{"android":"levelo://app?vid=4aeed261-2506-4a24-b396-48bb3e62632b","ios":"levelo://app?vid=4aeed261-2506-4a24-b396-48bb3e62632b"},"vehicle_type_id":"4","last_reported":1726348023,"current_range_meters":10000,"station_id":"ce4bgn12rcd13ifvqbt0","pricing_plan_id":"cebpf4jnsgd1na2vs0mg"},{"bike_id":"aced5ab7-b508-4250-8809-353d2c8a330a","system_id":"levelo_inurba_marseille","lat":43.255829,"lon":5.38236,"is_reserved":false,"is_disabled":false,"rental_uris":{"android":"levelo://app?vid=aced5ab7-b508-4250-8809-353d2c8a330a","ios":"levelo://app?vid=aced5ab7-b508-4250-8809-353d2c8a330a"},"vehicle_type_id":"4","last_reported":1726348023,"current_range_meters":17600,"station_id":"ce4bhih2rcd13ifvqfs0","pricing_plan_id":"cebpf4jnsgd1na2vs0mg"},{"bike_id":"9bf0b98a-713d-40c9-bdbe-7080f403dafc","system_id":"levelo_inurba_marseille","lat":43.31727,"lon":5.424,"is_reserved":false,"is_disabled":false,"rental_uris":{"android":"levelo://app?vid=9bf0b98a-713d-40c9-bdbe-7080f403dafc","ios":"levelo://app?vid=9bf0b98a-713d-40c9-bdbe-7080f403dafc"},"vehicle_type_id":"4","last_reported":1726348023,"current_range_meters":34000,"station_id":"ce4bhp92rcd13ifvqhbg","pricing_plan_id":"cebpf4jnsgd1na2vs0mg"},{"bike_id":"d51969b3-5bfa-4793-980f-d27084f0befb","system_id":"levelo_inurba_marseille","lat":43.29508,"lon":5.39046,"is_reserved":false,"is_disabled":false,"rental_uris":{"android":"levelo://app?vid=d51969b3-5bfa-4793-980f-d27084f0befb","ios":"levelo://app?vid=d51969b3-5bfa-4793-980f-d27084f0befb"},"vehicle_type_id":"4","last_reported":1726348023,"current_range_meters":39200,"station_id":"ce4bh3p2rcd13ifvqdp0","pricing_plan_id":"cebpf4jnsgd1na2vs0mg"},{"bike_id":"ab175665-a8e7-4f74-91c0-9034e100e1d8","system_id":"levelo_inurba_marseille","lat":43.297882,"lon":5.381094,"is_reserved":false,"is_disabled":false,"rental_uris":{"android":"levelo://app?vid=ab175665-a8e7-4f74-91c0-9034e100e1d8","ios":"levelo://app?vid=ab175665-a8e7-4f74-91c0-9034e100e1d8"},"vehicle_type_id":"4","last_reported":1726348023,"current_range_meters":34800,"station_id":"ce4bh092rcd13ifvqd20","pricing_plan_id":"cebpf4jnsgd1na2vs0mg"},{"bike_id":"cf4306ab-ec49-44e9-a678-fc57450de71b","system_id":"levelo_inurba_marseille","lat":43.31527,"lon":5.38035,"is_reserved":false,"is_disabled":false,"rental_uris":{"android":"levelo://app?vid=cf4306ab-ec49-44e9-a678-fc57450de71b","ios":"levelo://app?vid=cf4306ab-ec49-44e9-a678-fc57450de71b"},"vehicle_type_id":"4","last_reported":1726348023,"current_range_meters":38800,"station_id":"ce4bhsp2rcd13ifvqi50","pricing_plan_id":"cebpf4jnsgd1na2vs0mg"},{"bike_id":"71210084-c263-4c77-9876-82513872411c","system_id":"levelo_inurba_marseille","lat":43.24543,"lon":5.39527,"is_reserved":false,"is_disabled":false,"rental_uris":{"android":"levelo://app?vid=71210084-c263-4c77-9876-82513872411c","ios":"levelo://app?vid=71210084-c263-4c77-9876-82513872411c"},"vehicle_type_id":"4","last_reported":1726348023,"current_range_meters":16800,"station_id":"ce4bhlp2rcd13ifvqgjg","pricing_plan_id":"cebpf4jnsgd1na2vs0mg"},{"bike_id":"7ec6bc60-e018-4092-b39f-664e99b172a2","system_id":"levelo_inurba_marseille","lat":43.31344,"lon":5.36723,"is_reserved":false,"is_disabled":false,"rental_uris":{"android":"levelo://app?vid=7ec6bc60-e018-4092-b39f-664e99b172a2","ios":"levelo://app?vid=7ec6bc60-e018-4092-b39f-664e99b172a2"},"vehicle_type_id":"4","last_reported":1726348023,"current_range_meters":35600,"station_id":"ce4bgr92rcd13ifvqc6g","pricing_plan_id":"cebpf4jnsgd1na2vs0mg"},{"bike_id":"f755c03b-59f8-4f0b-bdcf-df859e9a82e3","system_id":"levelo_inurba_marseille","lat":43.30803,"lon":5.38158,"is_reserved":false,"is_disabled":false,"rental_uris":{"android":"levelo://app?vid=f755c03b-59f8-4f0b-bdcf-df859e9a82e3","ios":"levelo://app?vid=f755c03b-59f8-4f0b-bdcf-df859e9a82e3"},"vehicle_type_id":"4","last_reported":1726348023,"current_range_meters":38800,"station_id":"ce4bgt12rcd13ifvqce0","pricing_plan_id":"cebpf4jnsgd1na2vs0mg"},{"bike_id":"ecf88f3d-c783-4ecf-8c04-111143aa8802","system_id":"levelo_inurba_marseille","lat":43.29029,"lon":5.38649,"is_reserved":false,"is_disabled":false,"rental_uris":{"android":"levelo://app?vid=ecf88f3d-c783-4ecf-8c04-111143aa8802","ios":"levelo://app?vid=ecf88f3d-c783-4ecf-8c04-111143aa8802"},"vehicle_type_id":"4","last_reported":1726348023,"current_range_meters":3200,"station_id":"ce4bh4p2rcd13ifvqe0g","pricing_plan_id":"cebpf4jnsgd1na2vs0mg"},{"bike_id":"a0ed5178-484f-47cc-bd63-846aeaa97be3","system_id":"levelo_inurba_marseille","lat":43.30777,"lon":5.37649,"is_reserved":false,"is_disabled":false,"rental_uris":{"android":"levelo://app?vid=a0ed5178-484f-47cc-bd63-846aeaa97be3","ios":"levelo://app?vid=a0ed5178-484f-47cc-bd63-846aeaa97be3"},"vehicle_type_id":"4","last_reported":1726348023,"current_range_meters":38800,"station_id":"ce4bgv92rcd13ifvqcq0","pricing_plan_id":"cebpf4jnsgd1na2vs0mg"},{"bike_id":"997a5551-7921-4f59-89a0-0ef85447785b","system_id":"levelo_inurba_marseille","lat":43.30794,"lon":5.38157,"is_reserved":false,"is_disabled":false,"rental_uris":{"android":"levelo://app?vid=997a5551-7921-4f59-89a0-0ef85447785b","ios":"levelo://app?vid=997a5551-7921-4f59-89a0-0ef85447785b"},"vehicle_type_id":"4","last_reported":1726348023,"current_range_meters":38800,"station_id":"ce4bgt12rcd13ifvqce0","pricing_plan_id":"cebpf4jnsgd1na2vs0mg"},{"bike_id":"b1db6496-7d7b-4acc-a88c-e5406d38e100","system_id":"levelo_inurba_marseille","lat":43.23189,"lon":5.35546,"is_reserved":false,"is_disabled":false,"rental_uris":{"android":"levelo://app?vid=b1db6496-7d7b-4acc-a88c-e5406d38e100","ios":"levelo://app?vid=b1db6496-7d7b-4acc-a88c-e5406d38e100"},"vehicle_type_id":"4","last_reported":1726348023,"current_range_meters":38800,"station_id":"ce4bhu92rcd13ifvqi70","pricing_plan_id":"cebpf4jnsgd1na2vs0mg"},{"bike_id":"ee721f16-71d0-49c8-9da4-858f78b55bcb","system_id":"levelo_inurba_marseille","lat":43.25937,"lon":5.40904,"is_reserved":false,"is_disabled":false,"rental_uris":{"android":"levelo://app?vid=ee721f16-71d0-49c8-9da4-858f78b55bcb","ios":"levelo://app?vid=ee721f16-71d0-49c8-9da4-858f78b55bcb"},"vehicle_type_id":"4","last_reported":1726348023,"current_range_meters":28400,"station_id":"ce4bhm92rcd13ifvqglg","pricing_plan_id":"cebpf4jnsgd1na2vs0mg"},{"bike_id":"4af6fd3a-aef1-43db-816e-c64d386db18f","system_id":"levelo_inurba_marseille","lat":43.30892,"lon":5.37197,"is_reserved":false,"is_disabled":false,"rental_uris":{"android":"levelo://app?vid=4af6fd3a-aef1-43db-816e-c64d386db18f","ios":"levelo://app?vid=4af6fd3a-aef1-43db-816e-c64d386db18f"},"vehicle_type_id":"4","last_reported":1726348023,"current_range_meters":10800,"station_id":"ce4bguh2rcd13ifvqckg","pricing_plan_id":"cebpf4jnsgd1na2vs0mg"},{"bike_id":"e4f3b482-c2a7-4569-bb11-96d66363ffb6","system_id":"levelo_inurba_marseille","lat":43.24545,"lon":5.39527,"is_reserved":false,"is_disabled":false,"rental_uris":{"android":"levelo://app?vid=e4f3b482-c2a7-4569-bb11-96d66363ffb6","ios":"levelo://app?vid=e4f3b482-c2a7-4569-bb11-96d66363ffb6"},"vehicle_type_id":"4","last_reported":1726348023,"current_range_meters":17600,"station_id":"ce4bhlp2rcd13ifvqgjg","pricing_plan_id":"cebpf4jnsgd1na2vs0mg"},{"bike_id":"74b5489a-05bb-4d4b-a080-428632e17d50","system_id":"levelo_inurba_marseille","lat":43.29257,"lon":5.38447,"is_reserved":false,"is_disabled":false,"rental_uris":{"android":"levelo://app?vid=74b5489a-05bb-4d4b-a080-428632e17d50","ios":"levelo://app?vid=74b5489a-05bb-4d4b-a080-428632e17d50"},"vehicle_type_id":"4","last_reported":1726348023,"current_range_meters":38800,"station_id":"ce4bh692rcd13ifvqea0","pricing_plan_id":"cebpf4jnsgd1na2vs0mg"},{"bike_id":"5d57090e-631a-43c2-bed6-50c5bdc6029c","system_id":"levelo_inurba_marseille","lat":43.31221,"lon":5.36857,"is_reserved":false,"is_disabled":false,"rental_uris":{"android":"levelo://app?vid=5d57090e-631a-43c2-bed6-50c5bdc6029c","ios":"levelo://app?vid=5d57090e-631a-43c2-bed6-50c5bdc6029c"},"vehicle_type_id":"4","last_reported":1726348023,"current_range_meters":28400,"station_id":"ce4bgl92rcd13ifvqbq0","pricing_plan_id":"cebpf4jnsgd1na2vs0mg"},{"bike_id":"7f938198-b3f2-442e-8683-d6820098532f","system_id":"levelo_inurba_marseille","lat":43.28156,"lon":5.42642,"is_reserved":false,"is_disabled":false,"rental_uris":{"android":"levelo://app?vid=7f938198-b3f2-442e-8683-d6820098532f","ios":"levelo://app?vid=7f938198-b3f2-442e-8683-d6820098532f"},"vehicle_type_id":"4","last_reported":1726348023,"current_range_meters":22800,"station_id":"ce4bhnh2rcd13ifvqgug","pricing_plan_id":"cebpf4jnsgd1na2vs0mg"},{"bike_id":"dfc7e944-178a-43bd-85e8-0abf1cafc416","system_id":"levelo_inurba_marseille","lat":43.22922,"lon":5.35379,"is_reserved":false,"is_disabled":false,"rental_uris":{"android":"levelo://app?vid=dfc7e944-178a-43bd-85e8-0abf1cafc416","ios":"levelo://app?vid=dfc7e944-178a-43bd-85e8-0abf1cafc416"},"vehicle_type_id":"4","last_reported":1726348023,"current_range_meters":24800,"station_id":"cpo3532slgdg3j2ikp40","pricing_plan_id":"cebpf4jnsgd1na2vs0mg"},{"bike_id":"9d9ce7a9-d2a9-4e27-bb7a-a5c58f916288","system_id":"levelo_inurba_marseille","lat":43.29628,"lon":5.37717,"is_reserved":false,"is_disabled":false,"rental_uris":{"android":"levelo://app?vid=9d9ce7a9-d2a9-4e27-bb7a-a5c58f916288","ios":"levelo://app?vid=9d9ce7a9-d2a9-4e27-bb7a-a5c58f916288"},"vehicle_type_id":"4","last_reported":1726348023,"current_range_meters":2000,"station_id":"ce4bgi92rcd13ifvqb90","pricing_plan_id":"cebpf4jnsgd1na2vs0mg"},{"bike_id":"6dddbab5-c16e-4541-846f-31261364d687","system_id":"levelo_inurba_marseille","lat":43.31327,"lon":5.39701,"is_reserved":false,"is_disabled":false,"rental_uris":{"android":"levelo://app?vid=6dddbab5-c16e-4541-846f-31261364d687","ios":"levelo://app?vid=6dddbab5-c16e-4541-846f-31261364d687"},"vehicle_type_id":"4","last_reported":1726348023,"current_range_meters":16000,"station_id":"ce4bgvp2rcd13ifvqcu0","pricing_plan_id":"cebpf4jnsgd1na2vs0mg"},{"bike_id":"e72d2a8e-3d45-4dc1-b748-2e07afcab6d9","system_id":"levelo_inurba_marseille","lat":43.25085,"lon":5.39525,"is_reserved":false,"is_disabled":false,"rental_uris":{"android":"levelo://app?vid=e72d2a8e-3d45-4dc1-b748-2e07afcab6d9","ios":"levelo://app?vid=e72d2a8e-3d45-4dc1-b748-2e07afcab6d9"},"vehicle_type_id":"4","last_reported":1726348023,"current_range_meters":28000,"station_id":"ce4bhm12rcd13ifvqgkg","pricing_plan_id":"cebpf4jnsgd1na2vs0mg"},{"bike_id":"f1a060cd-b023-45af-b205-f4250fba925a","system_id":"levelo_inurba_marseille","lat":43.2466,"lon":5.38167,"is_reserved":false,"is_disabled":false,"rental_uris":{"android":"levelo://app?vid=f1a060cd-b023-45af-b205-f4250fba925a","ios":"levelo://app?vid=f1a060cd-b023-45af-b205-f4250fba925a"},"vehicle_type_id":"4","last_reported":1726348023,"current_range_meters":4800,"station_id":"ce4bhih2rcd13ifvqfr0","pricing_plan_id":"cebpf4jnsgd1na2vs0mg"},{"bike_id":"b645ac77-0d58-4fa9-8ad3-947af8bdb1d9","system_id":"levelo_inurba_marseille","lat":43.29899,"lon":5.43671,"is_reserved":false,"is_disabled":false,"rental_uris":{"android":"levelo://app?vid=b645ac77-0d58-4fa9-8ad3-947af8bdb1d9","ios":"levelo://app?vid=b645ac77-0d58-4fa9-8ad3-947af8bdb1d9"},"vehicle_type_id":"4","last_reported":1726348023,"current_range_meters":36800,"station_id":"ce4bhpp2rcd13ifvqhfg","pricing_plan_id":"cebpf4jnsgd1na2vs0mg"},{"bike_id":"03515e55-0de8-4f6d-953a-abbf71a9cce4","system_id":"levelo_inurba_marseille","lat":43.2407,"lon":5.37761,"is_reserved":false,"is_disabled":false,"rental_uris":{"android":"levelo://app?vid=03515e55-0de8-4f6d-953a-abbf71a9cce4","ios":"levelo://app?vid=03515e55-0de8-4f6d-953a-abbf71a9cce4"},"vehicle_type_id":"4","last_reported":1726348023,"current_range_meters":20800,"station_id":"ce4bhnp2rcd13ifvqgvg","pricing_plan_id":"cebpf4jnsgd1na2vs0mg"},{"bike_id":"a5678295-0458-4f6d-9ccb-6897bde67101","system_id":"levelo_inurba_marseille","lat":43.24166,"lon":5.36442,"is_reserved":false,"is_disabled":false,"rental_uris":{"android":"levelo://app?vid=a5678295-0458-4f6d-9ccb-6897bde67101","ios":"levelo://app?vid=a5678295-0458-4f6d-9ccb-6897bde67101"},"vehicle_type_id":"4","last_reported":1726348023,"current_range_meters":38400,"station_id":"cpo36qri1sfpv3e86is0","pricing_plan_id":"cebpf4jnsgd1na2vs0mg"},{"bike_id":"91d155a1-0e95-42f4-9cf2-24e586735a13","system_id":"levelo_inurba_marseille","lat":43.33727,"lon":5.39185,"is_reserved":false,"is_disabled":false,"rental_uris":{"android":"levelo://app?vid=91d155a1-0e95-42f4-9cf2-24e586735a13","ios":"levelo://app?vid=91d155a1-0e95-42f4-9cf2-24e586735a13"},"vehicle_type_id":"4","last_reported":1726348023,"current_range_meters":38800,"station_id":"ce4bhr92rcd13ifvqhsg","pricing_plan_id":"cebpf4jnsgd1na2vs0mg"},{"bike_id":"5cbfba17-7966-47bc-bd57-385605875a81","system_id":"levelo_inurba_marseille","lat":43.24809,"lon":5.37463,"is_reserved":false,"is_disabled":false,"rental_uris":{"android":"levelo://app?vid=5cbfba17-7966-47bc-bd57-385605875a81","ios":"levelo://app?vid=5cbfba17-7966-47bc-bd57-385605875a81"},"vehicle_type_id":"4","last_reported":1726348023,"current_range_meters":38400,"station_id":"ce4bhgh2rcd13ifvqfb0","pricing_plan_id":"cebpf4jnsgd1na2vs0mg"},{"bike_id":"c11f97d6-87cf-4460-8a76-9af979a978f6","system_id":"levelo_inurba_marseille","lat":43.30908,"lon":5.36855,"is_reserved":false,"is_disabled":false,"rental_uris":{"android":"levelo://app?vid=c11f97d6-87cf-4460-8a76-9af979a978f6","ios":"levelo://app?vid=c11f97d6-87cf-4460-8a76-9af979a978f6"},"vehicle_type_id":"4","last_reported":1726348023,"current_range_meters":12000,"station_id":"ce4bgn92rcd13ifvqbvg","pricing_plan_id":"cebpf4jnsgd1na2vs0mg"},{"bike_id":"4123515d-635a-4a62-9f56-c2589ef20496","system_id":"levelo_inurba_marseille","lat":43.29894,"lon":5.43669,"is_reserved":false,"is_disabled":false,"rental_uris":{"android":"levelo://app?vid=4123515d-635a-4a62-9f56-c2589ef20496","ios":"levelo://app?vid=4123515d-635a-4a62-9f56-c2589ef20496"},"vehicle_type_id":"4","last_reported":1726348023,"current_range_meters":39200,"station_id":"ce4bhpp2rcd13ifvqhfg","pricing_plan_id":"cebpf4jnsgd1na2vs0mg"},{"bike_id":"75dc4747-00b3-4738-9457-9f2a8b095d9c","system_id":"levelo_inurba_marseille","lat":43.29181,"lon":5.37162,"is_reserved":false,"is_disabled":false,"rental_uris":{"android":"levelo://app?vid=75dc4747-00b3-4738-9457-9f2a8b095d9c","ios":"levelo://app?vid=75dc4747-00b3-4738-9457-9f2a8b095d9c"},"vehicle_type_id":"4","last_reported":1726348023,"current_range_meters":22800,"station_id":"ce4bha92rcd13ifvqeh0","pricing_plan_id":"cebpf4jnsgd1na2vs0mg"},{"bike_id":"680b296f-8a9e-4ce9-90dd-5edf4faa61c1","system_id":"levelo_inurba_marseille","lat":43.31757,"lon":5.39023,"is_reserved":false,"is_disabled":false,"rental_uris":{"android":"levelo://app?vid=680b296f-8a9e-4ce9-90dd-5edf4faa61c1","ios":"levelo://app?vid=680b296f-8a9e-4ce9-90dd-5edf4faa61c1"},"vehicle_type_id":"4","last_reported":1726348023,"current_range_meters":38800,"station_id":"ce4bhqp2rcd13ifvqhng","pricing_plan_id":"cebpf4jnsgd1na2vs0mg"},{"bike_id":"bbd2450a-84a7-42e1-bc94-af6bf7be8eb5","system_id":"levelo_inurba_marseille","lat":43.33023,"lon":5.3906,"is_reserved":false,"is_disabled":false,"rental_uris":{"android":"levelo://app?vid=bbd2450a-84a7-42e1-bc94-af6bf7be8eb5","ios":"levelo://app?vid=bbd2450a-84a7-42e1-bc94-af6bf7be8eb5"},"vehicle_type_id":"4","last_reported":1726348023,"current_range_meters":36400,"station_id":"ce4bhr92rcd13ifvqhrg","pricing_plan_id":"cebpf4jnsgd1na2vs0mg"},{"bike_id":"e8a9a88f-e3dd-4130-8491-dcbfd4fb4893","system_id":"levelo_inurba_marseille","lat":43.33724,"lon":5.39185,"is_reserved":false,"is_disabled":false,"rental_uris":{"android":"levelo://app?vid=e8a9a88f-e3dd-4130-8491-dcbfd4fb4893","ios":"levelo://app?vid=e8a9a88f-e3dd-4130-8491-dcbfd4fb4893"},"vehicle_type_id":"4","last_reported":1726348023,"current_range_meters":38800,"station_id":"ce4bhr92rcd13ifvqhsg","pricing_plan_id":"cebpf4jnsgd1na2vs0mg"},{"bike_id":"46fa0628-63da-403c-a9e3-76cf9989cf96","system_id":"levelo_inurba_marseille","lat":43.31328,"lon":5.3969,"is_reserved":false,"is_disabled":false,"rental_uris":{"android":"levelo://app?vid=46fa0628-63da-403c-a9e3-76cf9989cf96","ios":"levelo://app?vid=46fa0628-63da-403c-a9e3-76cf9989cf96"},"vehicle_type_id":"4","last_reported":1726348023,"current_range_meters":35600,"station_id":"ce4bgvp2rcd13ifvqcu0","pricing_plan_id":"cebpf4jnsgd1na2vs0mg"},{"bike_id":"f75baf92-fbf3-4af7-9093-746d70401ea6","system_id":"levelo_inurba_marseille","lat":43.24548,"lon":5.39524,"is_reserved":false,"is_disabled":false,"rental_uris":{"android":"levelo://app?vid=f75baf92-fbf3-4af7-9093-746d70401ea6","ios":"levelo://app?vid=f75baf92-fbf3-4af7-9093-746d70401ea6"},"vehicle_type_id":"4","last_reported":1726348023,"current_range_meters":28400,"station_id":"ce4bhlp2rcd13ifvqgjg","pricing_plan_id":"cebpf4jnsgd1na2vs0mg"},{"bike_id":"a3f3a915-5f8f-45e6-915b-3b6c14242ea7","system_id":"levelo_inurba_marseille","lat":43.30178,"lon":5.36613,"is_reserved":false,"is_disabled":false,"rental_uris":{"android":"levelo://app?vid=a3f3a915-5f8f-45e6-915b-3b6c14242ea7","ios":"levelo://app?vid=a3f3a915-5f8f-45e6-915b-3b6c14242ea7"},"vehicle_type_id":"4","last_reported":1726348023,"current_range_meters":36400,"station_id":"ce4bgrh2rcd13ifvqc8g","pricing_plan_id":"cebpf4jnsgd1na2vs0mg"},{"bike_id":"ac2f8b18-c4e8-4836-947b-b533a20a9549","system_id":"levelo_inurba_marseille","lat":43.29026,"lon":5.35917,"is_reserved":false,"is_disabled":false,"rental_uris":{"android":"levelo://app?vid=ac2f8b18-c4e8-4836-947b-b533a20a9549","ios":"levelo://app?vid=ac2f8b18-c4e8-4836-947b-b533a20a9549"},"vehicle_type_id":"4","last_reported":1726348023,"current_range_meters":26800,"station_id":"ce4bha92rcd13ifvqeg0","pricing_plan_id":"cebpf4jnsgd1na2vs0mg"},{"bike_id":"552ccea4-a0ab-4fa2-9015-1ea8da64cd61","system_id":"levelo_inurba_marseille","lat":43.2557,"lon":5.38231,"is_reserved":false,"is_disabled":false,"rental_uris":{"android":"levelo://app?vid=552ccea4-a0ab-4fa2-9015-1ea8da64cd61","ios":"levelo://app?vid=552ccea4-a0ab-4fa2-9015-1ea8da64cd61"},"vehicle_type_id":"4","last_reported":1726348023,"current_range_meters":5600,"station_id":"ce4bhih2rcd13ifvqfs0","pricing_plan_id":"cebpf4jnsgd1na2vs0mg"},{"bike_id":"9891c37e-0015-4fb5-b721-3755085cd71a","system_id":"levelo_inurba_marseille","lat":43.31327,"lon":5.39705,"is_reserved":false,"is_disabled":false,"rental_uris":{"android":"levelo://app?vid=9891c37e-0015-4fb5-b721-3755085cd71a","ios":"levelo://app?vid=9891c37e-0015-4fb5-b721-3755085cd71a"},"vehicle_type_id":"4","last_reported":1726348023,"current_range_meters":38800,"station_id":"ce4bgvp2rcd13ifvqcu0","pricing_plan_id":"cebpf4jnsgd1na2vs0mg"},{"bike_id":"8627201f-193e-46aa-a24d-1e8c1f1910b1","system_id":"levelo_inurba_marseille","lat":43.29471,"lon":5.38696,"is_reserved":false,"is_disabled":false,"rental_uris":{"android":"levelo://app?vid=8627201f-193e-46aa-a24d-1e8c1f1910b1","ios":"levelo://app?vid=8627201f-193e-46aa-a24d-1e8c1f1910b1"},"vehicle_type_id":"4","last_reported":1726348023,"current_range_meters":14000,"station_id":"","pricing_plan_id":"cebpf4jnsgd1na2vs0mg"},{"bike_id":"fcafe588-e066-4363-a334-b72ceae44603","system_id":"levelo_inurba_marseille","lat":43.31709,"lon":5.43704,"is_reserved":false,"is_disabled":false,"rental_uris":{"android":"levelo://app?vid=fcafe588-e066-4363-a334-b72ceae44603","ios":"levelo://app?vid=fcafe588-e066-4363-a334-b72ceae44603"},"vehicle_type_id":"4","last_reported":1726348023,"current_range_meters":38800,"station_id":"ce4bhp92rcd13ifvqhcg","pricing_plan_id":"cebpf4jnsgd1na2vs0mg"},{"bike_id":"06a4474b-9574-4d82-977d-1163f17b7819","system_id":"levelo_inurba_marseille","lat":43.24653,"lon":5.38167,"is_reserved":false,"is_disabled":false,"rental_uris":{"android":"levelo://app?vid=06a4474b-9574-4d82-977d-1163f17b7819","ios":"levelo://app?vid=06a4474b-9574-4d82-977d-1163f17b7819"},"vehicle_type_id":"4","last_reported":1726348023,"current_range_meters":38800,"station_id":"ce4bhih2rcd13ifvqfr0","pricing_plan_id":"cebpf4jnsgd1na2vs0mg"},{"bike_id":"e913674e-3e20-42a5-890a-6007ca92b33d","system_id":"levelo_inurba_marseille","lat":43.31325,"lon":5.39695,"is_reserved":false,"is_disabled":false,"rental_uris":{"android":"levelo://app?vid=e913674e-3e20-42a5-890a-6007ca92b33d","ios":"levelo://app?vid=e913674e-3e20-42a5-890a-6007ca92b33d"},"vehicle_type_id":"4","last_reported":1726348023,"current_range_meters":33200,"station_id":"ce4bgvp2rcd13ifvqcu0","pricing_plan_id":"cebpf4jnsgd1na2vs0mg"},{"bike_id":"b766668a-80ea-425a-b855-cf43fb38183f","system_id":"levelo_inurba_marseille","lat":43.26487,"lon":5.3957,"is_reserved":false,"is_disabled":false,"rental_uris":{"android":"levelo://app?vid=b766668a-80ea-425a-b855-cf43fb38183f","ios":"levelo://app?vid=b766668a-80ea-425a-b855-cf43fb38183f"},"vehicle_type_id":"4","last_reported":1726348023,"current_range_meters":38800,"station_id":"ce4bhi12rcd13ifvqfq0","pricing_plan_id":"cebpf4jnsgd1na2vs0mg"},{"bike_id":"7251d55d-befd-400d-90d9-ab0b68ba8caa","system_id":"levelo_inurba_marseille","lat":43.24811,"lon":5.37455,"is_reserved":false,"is_disabled":false,"rental_uris":{"android":"levelo://app?vid=7251d55d-befd-400d-90d9-ab0b68ba8caa","ios":"levelo://app?vid=7251d55d-befd-400d-90d9-ab0b68ba8caa"},"vehicle_type_id":"4","last_reported":1726348023,"current_range_meters":38800,"station_id":"ce4bhgh2rcd13ifvqfb0","pricing_plan_id":"cebpf4jnsgd1na2vs0mg"},{"bike_id":"53a2d874-293d-47cc-bdbd-a03b3468623b","system_id":"levelo_inurba_marseille","lat":43.29898,"lon":5.43689,"is_reserved":false,"is_disabled":false,"rental_uris":{"android":"levelo://app?vid=53a2d874-293d-47cc-bdbd-a03b3468623b","ios":"levelo://app?vid=53a2d874-293d-47cc-bdbd-a03b3468623b"},"vehicle_type_id":"4","last_reported":1726348023,"current_range_meters":8000,"station_id":"ce4bhpp2rcd13ifvqhfg","pricing_plan_id":"cebpf4jnsgd1na2vs0mg"},{"bike_id":"667f841a-38bd-416e-aa2b-3d465ae68086","system_id":"levelo_inurba_marseille","lat":43.31362,"lon":5.36701,"is_reserved":false,"is_disabled":false,"rental_uris":{"android":"levelo://app?vid=667f841a-38bd-416e-aa2b-3d465ae68086","ios":"levelo://app?vid=667f841a-38bd-416e-aa2b-3d465ae68086"},"vehicle_type_id":"4","last_reported":1726348023,"current_range_meters":9600,"station_id":"ce4bgr92rcd13ifvqc6g","pricing_plan_id":"cebpf4jnsgd1na2vs0mg"},{"bike_id":"bb7acf50-b6bc-4b2d-adf4-833abc23b24c","system_id":"levelo_inurba_marseille","lat":43.23195,"lon":5.35546,"is_reserved":false,"is_disabled":false,"rental_uris":{"android":"levelo://app?vid=bb7acf50-b6bc-4b2d-adf4-833abc23b24c","ios":"levelo://app?vid=bb7acf50-b6bc-4b2d-adf4-833abc23b24c"},"vehicle_type_id":"4","last_reported":1726348023,"current_range_meters":39200,"station_id":"ce4bhu92rcd13ifvqi70","pricing_plan_id":"cebpf4jnsgd1na2vs0mg"},{"bike_id":"19628bd1-9172-46c3-bfa1-37d603408e00","system_id":"levelo_inurba_marseille","lat":43.31329,"lon":5.39695,"is_reserved":false,"is_disabled":false,"rental_uris":{"android":"levelo://app?vid=19628bd1-9172-46c3-bfa1-37d603408e00","ios":"levelo://app?vid=19628bd1-9172-46c3-bfa1-37d603408e00"},"vehicle_type_id":"4","last_reported":1726348023,"current_range_meters":39200,"station_id":"ce4bgvp2rcd13ifvqcu0","pricing_plan_id":"cebpf4jnsgd1na2vs0mg"},{"bike_id":"f6de5503-3f64-4c45-a987-7e74ca5c7044","system_id":"levelo_inurba_marseille","lat":43.24169,"lon":5.364,"is_reserved":false,"is_disabled":false,"rental_uris":{"android":"levelo://app?vid=f6de5503-3f64-4c45-a987-7e74ca5c7044","ios":"levelo://app?vid=f6de5503-3f64-4c45-a987-7e74ca5c7044"},"vehicle_type_id":"4","last_reported":1726348023,"current_range_meters":28800,"station_id":"cpo36qri1sfpv3e86is0","pricing_plan_id":"cebpf4jnsgd1na2vs0mg"},{"bike_id":"873785ec-968c-4b38-ae10-4de656ea2051","system_id":"levelo_inurba_marseille","lat":43.29418,"lon":5.38621,"is_reserved":false,"is_disabled":false,"rental_uris":{"android":"levelo://app?vid=873785ec-968c-4b38-ae10-4de656ea2051","ios":"levelo://app?vid=873785ec-968c-4b38-ae10-4de656ea2051"},"vehicle_type_id":"4","last_reported":1726348023,"current_range_meters":27200,"station_id":"ce4bh2h2rcd13ifvqdh0","pricing_plan_id":"cebpf4jnsgd1na2vs0mg"},{"bike_id":"6f618e2b-81a6-43dc-a8a1-c186e04f69ee","system_id":"levelo_inurba_marseille","lat":43.27985,"lon":5.41651,"is_reserved":false,"is_disabled":false,"rental_uris":{"android":"levelo://app?vid=6f618e2b-81a6-43dc-a8a1-c186e04f69ee","ios":"levelo://app?vid=6f618e2b-81a6-43dc-a8a1-c186e04f69ee"},"vehicle_type_id":"4","last_reported":1726348023,"current_range_meters":30800,"station_id":"ce4bho12rcd13ifvqh1g","pricing_plan_id":"cebpf4jnsgd1na2vs0mg"},{"bike_id":"0e45f569-2e44-4e68-8b20-a0944937cde0","system_id":"levelo_inurba_marseille","lat":43.24666,"lon":5.38167,"is_reserved":false,"is_disabled":false,"rental_uris":{"android":"levelo://app?vid=0e45f569-2e44-4e68-8b20-a0944937cde0","ios":"levelo://app?vid=0e45f569-2e44-4e68-8b20-a0944937cde0"},"vehicle_type_id":"4","last_reported":1726348023,"current_range_meters":8000,"station_id":"ce4bhih2rcd13ifvqfr0","pricing_plan_id":"cebpf4jnsgd1na2vs0mg"},{"bike_id":"fc3e7f6d-c0fd-45e1-8c72-c9d8bf69a2f1","system_id":"levelo_inurba_marseille","lat":43.29596,"lon":5.38111,"is_reserved":false,"is_disabled":false,"rental_uris":{"android":"levelo://app?vid=fc3e7f6d-c0fd-45e1-8c72-c9d8bf69a2f1","ios":"levelo://app?vid=fc3e7f6d-c0fd-45e1-8c72-c9d8bf69a2f1"},"vehicle_type_id":"4","last_reported":1726348023,"current_range_meters":18800,"station_id":"ce4bgl12rcd13ifvqbo0","pricing_plan_id":"cebpf4jnsgd1na2vs0mg"},{"bike_id":"f7c9731b-1b41-4fa8-83aa-686419453b3a","system_id":"levelo_inurba_marseille","lat":43.31716,"lon":5.42401,"is_reserved":false,"is_disabled":false,"rental_uris":{"android":"levelo://app?vid=f7c9731b-1b41-4fa8-83aa-686419453b3a","ios":"levelo://app?vid=f7c9731b-1b41-4fa8-83aa-686419453b3a"},"vehicle_type_id":"4","last_reported":1726348023,"current_range_meters":20400,"station_id":"ce4bhp92rcd13ifvqhbg","pricing_plan_id":"cebpf4jnsgd1na2vs0mg"},{"bike_id":"a123cff2-5943-4b60-947d-1875baf68db5","system_id":"levelo_inurba_marseille","lat":43.30778,"lon":5.37659,"is_reserved":false,"is_disabled":false,"rental_uris":{"android":"levelo://app?vid=a123cff2-5943-4b60-947d-1875baf68db5","ios":"levelo://app?vid=a123cff2-5943-4b60-947d-1875baf68db5"},"vehicle_type_id":"4","last_reported":1726348023,"current_range_meters":26000,"station_id":"ce4bgv92rcd13ifvqcq0","pricing_plan_id":"cebpf4jnsgd1na2vs0mg"},{"bike_id":"d530c2df-3a9f-4acb-8845-daeae55a79f5","system_id":"levelo_inurba_marseille","lat":43.29904,"lon":5.37477,"is_reserved":false,"is_disabled":false,"rental_uris":{"android":"levelo://app?vid=d530c2df-3a9f-4acb-8845-daeae55a79f5","ios":"levelo://app?vid=d530c2df-3a9f-4acb-8845-daeae55a79f5"},"vehicle_type_id":"4","last_reported":1726348023,"current_range_meters":38400,"station_id":"ce4bgjh2rcd13ifvqbg0","pricing_plan_id":"cebpf4jnsgd1na2vs0mg"},{"bike_id":"72b474e5-3cd2-4656-9b3e-a682f150d1ce","system_id":"levelo_inurba_marseille","lat":43.295959,"lon":5.381036,"is_reserved":false,"is_disabled":false,"rental_uris":{"android":"levelo://app?vid=72b474e5-3cd2-4656-9b3e-a682f150d1ce","ios":"levelo://app?vid=72b474e5-3cd2-4656-9b3e-a682f150d1ce"},"vehicle_type_id":"4","last_reported":1726348023,"current_range_meters":38800,"station_id":"ce4bgl12rcd13ifvqbo0","pricing_plan_id":"cebpf4jnsgd1na2vs0mg"},{"bike_id":"bb046787-1b6f-4a52-9f6c-67f38be48f9e","system_id":"levelo_inurba_marseille","lat":43.24539,"lon":5.39532,"is_reserved":false,"is_disabled":false,"rental_uris":{"android":"levelo://app?vid=bb046787-1b6f-4a52-9f6c-67f38be48f9e","ios":"levelo://app?vid=bb046787-1b6f-4a52-9f6c-67f38be48f9e"},"vehicle_type_id":"4","last_reported":1726348023,"current_range_meters":35200,"station_id":"ce4bhlp2rcd13ifvqgjg","pricing_plan_id":"cebpf4jnsgd1na2vs0mg"},{"bike_id":"971d0ea7-bcd1-48a8-8c99-9f0985cd040c","system_id":"levelo_inurba_marseille","lat":43.295309,"lon":5.375027,"is_reserved":false,"is_disabled":false,"rental_uris":{"android":"levelo://app?vid=971d0ea7-bcd1-48a8-8c99-9f0985cd040c","ios":"levelo://app?vid=971d0ea7-bcd1-48a8-8c99-9f0985cd040c"},"vehicle_type_id":"4","last_reported":1726348023,"current_range_meters":36000,"station_id":"ce4bgkp2rcd13ifvqbmg","pricing_plan_id":"cebpf4jnsgd1na2vs0mg"},{"bike_id":"7c8c6eba-a560-4156-84e4-27f73dca20c1","system_id":"levelo_inurba_marseille","lat":43.30809,"lon":5.38157,"is_reserved":false,"is_disabled":false,"rental_uris":{"android":"levelo://app?vid=7c8c6eba-a560-4156-84e4-27f73dca20c1","ios":"levelo://app?vid=7c8c6eba-a560-4156-84e4-27f73dca20c1"},"vehicle_type_id":"4","last_reported":1726348023,"current_range_meters":26000,"station_id":"ce4bgt12rcd13ifvqce0","pricing_plan_id":"cebpf4jnsgd1na2vs0mg"},{"bike_id":"b0e922a4-0c0c-4916-8d83-f96b9eb184a9","system_id":"levelo_inurba_marseille","lat":43.2942,"lon":5.38636,"is_reserved":false,"is_disabled":false,"rental_uris":{"android":"levelo://app?vid=b0e922a4-0c0c-4916-8d83-f96b9eb184a9","ios":"levelo://app?vid=b0e922a4-0c0c-4916-8d83-f96b9eb184a9"},"vehicle_type_id":"4","last_reported":1726348023,"current_range_meters":20000,"station_id":"ce4bh2h2rcd13ifvqdh0","pricing_plan_id":"cebpf4jnsgd1na2vs0mg"},{"bike_id":"5e0b25a4-5458-460c-960f-e5c84d2977b7","system_id":"levelo_inurba_marseille","lat":43.29514,"lon":5.39408,"is_reserved":false,"is_disabled":false,"rental_uris":{"android":"levelo://app?vid=5e0b25a4-5458-460c-960f-e5c84d2977b7","ios":"levelo://app?vid=5e0b25a4-5458-460c-960f-e5c84d2977b7"},"vehicle_type_id":"4","last_reported":1726348023,"current_range_meters":28400,"station_id":"ce4bh292rcd13ifvqdf0","pricing_plan_id":"cebpf4jnsgd1na2vs0mg"},{"bike_id":"d8346437-a8a5-4c60-bf2d-f16983de1f17","system_id":"levelo_inurba_marseille","lat":43.28037,"lon":5.36942,"is_reserved":false,"is_disabled":false,"rental_uris":{"android":"levelo://app?vid=d8346437-a8a5-4c60-bf2d-f16983de1f17","ios":"levelo://app?vid=d8346437-a8a5-4c60-bf2d-f16983de1f17"},"vehicle_type_id":"4","last_reported":1726348023,"current_range_meters":36000,"station_id":"ce4bha12rcd13ifvqef0","pricing_plan_id":"cebpf4jnsgd1na2vs0mg"},{"bike_id":"026a8105-a313-4bd8-96fb-a8d6d1b140a9","system_id":"levelo_inurba_marseille","lat":43.23196,"lon":5.35552,"is_reserved":false,"is_disabled":false,"rental_uris":{"android":"levelo://app?vid=026a8105-a313-4bd8-96fb-a8d6d1b140a9","ios":"levelo://app?vid=026a8105-a313-4bd8-96fb-a8d6d1b140a9"},"vehicle_type_id":"4","last_reported":1726348023,"current_range_meters":36800,"station_id":"ce4bhu92rcd13ifvqi70","pricing_plan_id":"cebpf4jnsgd1na2vs0mg"},{"bike_id":"d65408a7-49aa-449d-b0e1-71dc49ae4031","system_id":"levelo_inurba_marseille","lat":43.31358,"lon":5.38503,"is_reserved":false,"is_disabled":false,"rental_uris":{"android":"levelo://app?vid=d65408a7-49aa-449d-b0e1-71dc49ae4031","ios":"levelo://app?vid=d65408a7-49aa-449d-b0e1-71dc49ae4031"},"vehicle_type_id":"4","last_reported":1726348023,"current_range_meters":38800,"station_id":"ce4bgt92rcd13ifvqcf0","pricing_plan_id":"cebpf4jnsgd1na2vs0mg"},{"bike_id":"b4e37b1f-c814-4281-bb70-788a67c85fa2","system_id":"levelo_inurba_marseille","lat":43.24665,"lon":5.38169,"is_reserved":false,"is_disabled":false,"rental_uris":{"android":"levelo://app?vid=b4e37b1f-c814-4281-bb70-788a67c85fa2","ios":"levelo://app?vid=b4e37b1f-c814-4281-bb70-788a67c85fa2"},"vehicle_type_id":"4","last_reported":1726348023,"current_range_meters":10800,"station_id":"ce4bhih2rcd13ifvqfr0","pricing_plan_id":"cebpf4jnsgd1na2vs0mg"},{"bike_id":"832b8ff1-0765-4b4e-96d6-665b916f6416","system_id":"levelo_inurba_marseille","lat":43.28413,"lon":5.37521,"is_reserved":false,"is_disabled":false,"rental_uris":{"android":"levelo://app?vid=832b8ff1-0765-4b4e-96d6-665b916f6416","ios":"levelo://app?vid=832b8ff1-0765-4b4e-96d6-665b916f6416"},"vehicle_type_id":"4","last_reported":1726348023,"current_range_meters":34800,"station_id":"ce4bh412rcd13ifvqds0","pricing_plan_id":"cebpf4jnsgd1na2vs0mg"},{"bike_id":"ccc81115-c769-40cb-a420-a414e3f0cc3b","system_id":"levelo_inurba_marseille","lat":43.24394,"lon":5.37066,"is_reserved":false,"is_disabled":false,"rental_uris":{"android":"levelo://app?vid=ccc81115-c769-40cb-a420-a414e3f0cc3b","ios":"levelo://app?vid=ccc81115-c769-40cb-a420-a414e3f0cc3b"},"vehicle_type_id":"4","last_reported":1726348023,"current_range_meters":38800,"station_id":"ce4bhhh2rcd13ifvqfk0","pricing_plan_id":"cebpf4jnsgd1na2vs0mg"},{"bike_id":"f70b5c68-909b-4b3d-a2b3-5256dc464c2e","system_id":"levelo_inurba_marseille","lat":43.28396,"lon":5.37517,"is_reserved":false,"is_disabled":false,"rental_uris":{"android":"levelo://app?vid=f70b5c68-909b-4b3d-a2b3-5256dc464c2e","ios":"levelo://app?vid=f70b5c68-909b-4b3d-a2b3-5256dc464c2e"},"vehicle_type_id":"4","last_reported":1726348023,"current_range_meters":38800,"station_id":"ce4bh412rcd13ifvqds0","pricing_plan_id":"cebpf4jnsgd1na2vs0mg"},{"bike_id":"fccc931d-24e4-4faf-9a77-91c013956ef7","system_id":"levelo_inurba_marseille","lat":43.29402,"lon":5.38634,"is_reserved":false,"is_disabled":false,"rental_uris":{"android":"levelo://app?vid=fccc931d-24e4-4faf-9a77-91c013956ef7","ios":"levelo://app?vid=fccc931d-24e4-4faf-9a77-91c013956ef7"},"vehicle_type_id":"4","last_reported":1726348023,"current_range_meters":19200,"station_id":"ce4bh2h2rcd13ifvqdh0","pricing_plan_id":"cebpf4jnsgd1na2vs0mg"},{"bike_id":"364290a4-076b-4d63-adcf-27249cc77e92","system_id":"levelo_inurba_marseille","lat":43.28726,"lon":5.36078,"is_reserved":false,"is_disabled":false,"rental_uris":{"android":"levelo://app?vid=364290a4-076b-4d63-adcf-27249cc77e92","ios":"levelo://app?vid=364290a4-076b-4d63-adcf-27249cc77e92"},"vehicle_type_id":"4","last_reported":1726348023,"current_range_meters":6800,"station_id":"cki0cbj6b192h4jlfktg","pricing_plan_id":"cebpf4jnsgd1na2vs0mg"},{"bike_id":"be63ca06-e556-41d9-aaca-5c677a39360e","system_id":"levelo_inurba_marseille","lat":43.29531,"lon":5.38548,"is_reserved":false,"is_disabled":false,"rental_uris":{"android":"levelo://app?vid=be63ca06-e556-41d9-aaca-5c677a39360e","ios":"levelo://app?vid=be63ca06-e556-41d9-aaca-5c677a39360e"},"vehicle_type_id":"4","last_reported":1726348023,"current_range_meters":38800,"station_id":"ce4bgih2rcd13ifvqba0","pricing_plan_id":"cebpf4jnsgd1na2vs0mg"},{"bike_id":"d64ff330-9d4c-4f23-b4ee-184a7750b243","system_id":"levelo_inurba_marseille","lat":43.25498,"lon":5.37654,"is_reserved":false,"is_disabled":false,"rental_uris":{"android":"levelo://app?vid=d64ff330-9d4c-4f23-b4ee-184a7750b243","ios":"levelo://app?vid=d64ff330-9d4c-4f23-b4ee-184a7750b243"},"vehicle_type_id":"4","last_reported":1726348023,"current_range_meters":34000,"station_id":"ce4bhh12rcd13ifvqff0","pricing_plan_id":"cebpf4jnsgd1na2vs0mg"},{"bike_id":"d725d647-419f-4111-85f3-247c95251475","system_id":"levelo_inurba_marseille","lat":43.25722,"lon":5.41115,"is_reserved":false,"is_disabled":false,"rental_uris":{"android":"levelo://app?vid=d725d647-419f-4111-85f3-247c95251475","ios":"levelo://app?vid=d725d647-419f-4111-85f3-247c95251475"},"vehicle_type_id":"4","last_reported":1726348023,"current_range_meters":27600,"station_id":"ce4bhkp2rcd13ifvqgd0","pricing_plan_id":"cebpf4jnsgd1na2vs0mg"},{"bike_id":"a3dd5e80-8020-4a5f-9efa-6e714227dbba","system_id":"levelo_inurba_marseille","lat":43.28271,"lon":5.35066,"is_reserved":false,"is_disabled":false,"rental_uris":{"android":"levelo://app?vid=a3dd5e80-8020-4a5f-9efa-6e714227dbba","ios":"levelo://app?vid=a3dd5e80-8020-4a5f-9efa-6e714227dbba"},"vehicle_type_id":"4","last_reported":1726348023,"current_range_meters":34800,"station_id":"ce4bhbp2rcd13ifvqerg","pricing_plan_id":"cebpf4jnsgd1na2vs0mg"},{"bike_id":"6d2f1fdf-ef85-4dbc-b421-2602e9d32ca8","system_id":"levelo_inurba_marseille","lat":43.25933,"lon":5.40911,"is_reserved":false,"is_disabled":false,"rental_uris":{"android":"levelo://app?vid=6d2f1fdf-ef85-4dbc-b421-2602e9d32ca8","ios":"levelo://app?vid=6d2f1fdf-ef85-4dbc-b421-2602e9d32ca8"},"vehicle_type_id":"4","last_reported":1726348023,"current_range_meters":24400,"station_id":"ce4bhm92rcd13ifvqglg","pricing_plan_id":"cebpf4jnsgd1na2vs0mg"},{"bike_id":"49bde273-916a-412d-a186-c537ea5303ff","system_id":"levelo_inurba_marseille","lat":43.28156,"lon":5.42641,"is_reserved":false,"is_disabled":false,"rental_uris":{"android":"levelo://app?vid=49bde273-916a-412d-a186-c537ea5303ff","ios":"levelo://app?vid=49bde273-916a-412d-a186-c537ea5303ff"},"vehicle_type_id":"4","last_reported":1726348023,"current_range_meters":24000,"station_id":"ce4bh0h2rcd13ifvqd50","pricing_plan_id":"cebpf4jnsgd1na2vs0mg"},{"bike_id":"d09aedb3-0212-456b-a0d7-0a019f75665d","system_id":"levelo_inurba_marseille","lat":43.23153,"lon":5.43707,"is_reserved":false,"is_disabled":false,"rental_uris":{"android":"levelo://app?vid=d09aedb3-0212-456b-a0d7-0a019f75665d","ios":"levelo://app?vid=d09aedb3-0212-456b-a0d7-0a019f75665d"},"vehicle_type_id":"4","last_reported":1726348023,"current_range_meters":39200,"station_id":"ce4bhmp2rcd13ifvqgog","pricing_plan_id":"cebpf4jnsgd1na2vs0mg"},{"bike_id":"1f72af41-6b31-488d-b16b-aa9b5b8a842e","system_id":"levelo_inurba_marseille","lat":43.27382,"lon":5.36264,"is_reserved":false,"is_disabled":false,"rental_uris":{"android":"levelo://app?vid=1f72af41-6b31-488d-b16b-aa9b5b8a842e","ios":"levelo://app?vid=1f72af41-6b31-488d-b16b-aa9b5b8a842e"},"vehicle_type_id":"4","last_reported":1726348023,"current_range_meters":21600,"station_id":"ce4bhbh2rcd13ifvqeo0","pricing_plan_id":"cebpf4jnsgd1na2vs0mg"},{"bike_id":"efef0581-7862-46d9-83f9-8f888bf1fcff","system_id":"levelo_inurba_marseille","lat":43.23178,"lon":5.39998,"is_reserved":false,"is_disabled":false,"rental_uris":{"android":"levelo://app?vid=efef0581-7862-46d9-83f9-8f888bf1fcff","ios":"levelo://app?vid=efef0581-7862-46d9-83f9-8f888bf1fcff"},"vehicle_type_id":"4","last_reported":1726348023,"current_range_meters":38800,"station_id":"ce4bhn12rcd13ifvqgqg","pricing_plan_id":"cebpf4jnsgd1na2vs0mg"},{"bike_id":"43412657-8f93-44d7-90fb-da7639962547","system_id":"levelo_inurba_marseille","lat":43.33715,"lon":5.39184,"is_reserved":false,"is_disabled":false,"rental_uris":{"android":"levelo://app?vid=43412657-8f93-44d7-90fb-da7639962547","ios":"levelo://app?vid=43412657-8f93-44d7-90fb-da7639962547"},"vehicle_type_id":"4","last_reported":1726348023,"current_range_meters":24800,"station_id":"ce4bhr92rcd13ifvqhsg","pricing_plan_id":"cebpf4jnsgd1na2vs0mg"},{"bike_id":"9c45b430-37cb-4496-b5f4-aaba63906ca9","system_id":"levelo_inurba_marseille","lat":43.28153,"lon":5.42644,"is_reserved":false,"is_disabled":false,"rental_uris":{"android":"levelo://app?vid=9c45b430-37cb-4496-b5f4-aaba63906ca9","ios":"levelo://app?vid=9c45b430-37cb-4496-b5f4-aaba63906ca9"},"vehicle_type_id":"4","last_reported":1726348023,"current_range_meters":17600,"station_id":"ce4bhnh2rcd13ifvqgug","pricing_plan_id":"cebpf4jnsgd1na2vs0mg"},{"bike_id":"006e14de-c317-44fa-93cf-75cfeb2dad14","system_id":"levelo_inurba_marseille","lat":43.25491,"lon":5.37648,"is_reserved":false,"is_disabled":false,"rental_uris":{"android":"levelo://app?vid=006e14de-c317-44fa-93cf-75cfeb2dad14","ios":"levelo://app?vid=006e14de-c317-44fa-93cf-75cfeb2dad14"},"vehicle_type_id":"4","last_reported":1726348023,"current_range_meters":24400,"station_id":"ce4bhh12rcd13ifvqff0","pricing_plan_id":"cebpf4jnsgd1na2vs0mg"},{"bike_id":"7bcf5b96-7f9e-487c-9740-9b3e9f14ca10","system_id":"levelo_inurba_marseille","lat":43.28467,"lon":5.35894,"is_reserved":false,"is_disabled":false,"rental_uris":{"android":"levelo://app?vid=7bcf5b96-7f9e-487c-9740-9b3e9f14ca10","ios":"levelo://app?vid=7bcf5b96-7f9e-487c-9740-9b3e9f14ca10"},"vehicle_type_id":"4","last_reported":1726348023,"current_range_meters":38800,"station_id":"ce4bhah2rcd13ifvqei0","pricing_plan_id":"cebpf4jnsgd1na2vs0mg"},{"bike_id":"3f32b786-3ad7-44bb-a7cd-61c8396564db","system_id":"levelo_inurba_marseille","lat":43.24546,"lon":5.39527,"is_reserved":false,"is_disabled":false,"rental_uris":{"android":"levelo://app?vid=3f32b786-3ad7-44bb-a7cd-61c8396564db","ios":"levelo://app?vid=3f32b786-3ad7-44bb-a7cd-61c8396564db"},"vehicle_type_id":"4","last_reported":1726348023,"current_range_meters":23200,"station_id":"ce4bhlp2rcd13ifvqgjg","pricing_plan_id":"cebpf4jnsgd1na2vs0mg"},{"bike_id":"35e46e1e-3cad-4d90-bc94-c0cc6e26a963","system_id":"levelo_inurba_marseille","lat":43.31362,"lon":5.36703,"is_reserved":false,"is_disabled":false,"rental_uris":{"android":"levelo://app?vid=35e46e1e-3cad-4d90-bc94-c0cc6e26a963","ios":"levelo://app?vid=35e46e1e-3cad-4d90-bc94-c0cc6e26a963"},"vehicle_type_id":"4","last_reported":1726348023,"current_range_meters":14000,"station_id":"ce4bgr92rcd13ifvqc6g","pricing_plan_id":"cebpf4jnsgd1na2vs0mg"},{"bike_id":"61e00977-be43-400f-99ea-3c33330f7657","system_id":"levelo_inurba_marseille","lat":43.25008,"lon":5.38915,"is_reserved":false,"is_disabled":false,"rental_uris":{"android":"levelo://app?vid=61e00977-be43-400f-99ea-3c33330f7657","ios":"levelo://app?vid=61e00977-be43-400f-99ea-3c33330f7657"},"vehicle_type_id":"4","last_reported":1726348023,"current_range_meters":17600,"station_id":"ce4bhgp2rcd13ifvqfd0","pricing_plan_id":"cebpf4jnsgd1na2vs0mg"},{"bike_id":"546c5079-8504-40b0-b1a7-08585e30f1ce","system_id":"levelo_inurba_marseille","lat":43.28661,"lon":5.36357,"is_reserved":false,"is_disabled":false,"rental_uris":{"android":"levelo://app?vid=546c5079-8504-40b0-b1a7-08585e30f1ce","ios":"levelo://app?vid=546c5079-8504-40b0-b1a7-08585e30f1ce"},"vehicle_type_id":"4","last_reported":1726348023,"current_range_meters":2800,"station_id":"ce4bhah2rcd13ifvqej0","pricing_plan_id":"cebpf4jnsgd1na2vs0mg"},{"bike_id":"d1f38fcd-be46-4877-a9ac-34b365272c30","system_id":"levelo_inurba_marseille","lat":43.27096,"lon":5.43321,"is_reserved":false,"is_disabled":false,"rental_uris":{"android":"levelo://app?vid=d1f38fcd-be46-4877-a9ac-34b365272c30","ios":"levelo://app?vid=d1f38fcd-be46-4877-a9ac-34b365272c30"},"vehicle_type_id":"4","last_reported":1726348023,"current_range_meters":30800,"station_id":"","pricing_plan_id":"cebpf4jnsgd1na2vs0mg"},{"bike_id":"7ad70407-1feb-4e48-a00e-e72ddfe39a81","system_id":"levelo_inurba_marseille","lat":43.25867,"lon":5.39904,"is_reserved":false,"is_disabled":false,"rental_uris":{"android":"levelo://app?vid=7ad70407-1feb-4e48-a00e-e72ddfe39a81","ios":"levelo://app?vid=7ad70407-1feb-4e48-a00e-e72ddfe39a81"},"vehicle_type_id":"4","last_reported":1726348023,"current_range_meters":38800,"station_id":"ce4bhl92rcd13ifvqghg","pricing_plan_id":"cebpf4jnsgd1na2vs0mg"},{"bike_id":"2c36f173-7fe7-45a3-b0b4-69fddd6ecd2c","system_id":"levelo_inurba_marseille","lat":43.27611,"lon":5.36116,"is_reserved":false,"is_disabled":false,"rental_uris":{"android":"levelo://app?vid=2c36f173-7fe7-45a3-b0b4-69fddd6ecd2c","ios":"levelo://app?vid=2c36f173-7fe7-45a3-b0b4-69fddd6ecd2c"},"vehicle_type_id":"4","last_reported":1726348023,"current_range_meters":24000,"station_id":"ce4bgj92rcd13ifvqbe0","pricing_plan_id":"cebpf4jnsgd1na2vs0mg"},{"bike_id":"18b4077b-be6d-411b-ad24-2ccaff2b325c","system_id":"levelo_inurba_marseille","lat":43.29226,"lon":5.36064,"is_reserved":false,"is_disabled":false,"rental_uris":{"android":"levelo://app?vid=18b4077b-be6d-411b-ad24-2ccaff2b325c","ios":"levelo://app?vid=18b4077b-be6d-411b-ad24-2ccaff2b325c"},"vehicle_type_id":"4","last_reported":1726348023,"current_range_meters":38800,"station_id":"ce4bhbh2rcd13ifvqeqg","pricing_plan_id":"cebpf4jnsgd1na2vs0mg"},{"bike_id":"f9076aec-56e7-4b2e-a7b1-575337aca9d5","system_id":"levelo_inurba_marseille","lat":43.2417,"lon":5.36406,"is_reserved":false,"is_disabled":false,"rental_uris":{"android":"levelo://app?vid=f9076aec-56e7-4b2e-a7b1-575337aca9d5","ios":"levelo://app?vid=f9076aec-56e7-4b2e-a7b1-575337aca9d5"},"vehicle_type_id":"4","last_reported":1726348023,"current_range_meters":30800,"station_id":"cpo36qri1sfpv3e86is0","pricing_plan_id":"cebpf4jnsgd1na2vs0mg"},{"bike_id":"8936e558-a7ed-41e3-bcad-43fe4549abaf","system_id":"levelo_inurba_marseille","lat":43.29596,"lon":5.38105,"is_reserved":false,"is_disabled":false,"rental_uris":{"android":"levelo://app?vid=8936e558-a7ed-41e3-bcad-43fe4549abaf","ios":"levelo://app?vid=8936e558-a7ed-41e3-bcad-43fe4549abaf"},"vehicle_type_id":"4","last_reported":1726348023,"current_range_meters":16800,"station_id":"ce4bgl12rcd13ifvqbo0","pricing_plan_id":"cebpf4jnsgd1na2vs0mg"},{"bike_id":"52791758-18b4-4f89-8506-c71f6b7097d7","system_id":"levelo_inurba_marseille","lat":43.28415,"lon":5.3752,"is_reserved":false,"is_disabled":false,"rental_uris":{"android":"levelo://app?vid=52791758-18b4-4f89-8506-c71f6b7097d7","ios":"levelo://app?vid=52791758-18b4-4f89-8506-c71f6b7097d7"},"vehicle_type_id":"4","last_reported":1726348023,"current_range_meters":36000,"station_id":"ce4bh412rcd13ifvqds0","pricing_plan_id":"cebpf4jnsgd1na2vs0mg"},{"bike_id":"a4f18687-e126-425b-b639-a942cceab9e8","system_id":"levelo_inurba_marseille","lat":43.24647,"lon":5.3889,"is_reserved":false,"is_disabled":false,"rental_uris":{"android":"levelo://app?vid=a4f18687-e126-425b-b639-a942cceab9e8","ios":"levelo://app?vid=a4f18687-e126-425b-b639-a942cceab9e8"},"vehicle_type_id":"4","last_reported":1726348023,"current_range_meters":28800,"station_id":"ce4bhg12rcd13ifvqf60","pricing_plan_id":"cebpf4jnsgd1na2vs0mg"},{"bike_id":"09a2266b-9d5f-4b81-9270-f2c09c7cc0c6","system_id":"levelo_inurba_marseille","lat":43.25489,"lon":5.37649,"is_reserved":false,"is_disabled":false,"rental_uris":{"android":"levelo://app?vid=09a2266b-9d5f-4b81-9270-f2c09c7cc0c6","ios":"levelo://app?vid=09a2266b-9d5f-4b81-9270-f2c09c7cc0c6"},"vehicle_type_id":"4","last_reported":1726348023,"current_range_meters":9600,"station_id":"ce4bhh12rcd13ifvqff0","pricing_plan_id":"cebpf4jnsgd1na2vs0mg"},{"bike_id":"d4dcec5a-b0b6-4319-8584-aaf3103d153c","system_id":"levelo_inurba_marseille","lat":43.29562,"lon":5.42276,"is_reserved":false,"is_disabled":false,"rental_uris":{"android":"levelo://app?vid=d4dcec5a-b0b6-4319-8584-aaf3103d153c","ios":"levelo://app?vid=d4dcec5a-b0b6-4319-8584-aaf3103d153c"},"vehicle_type_id":"4","last_reported":1726348023,"current_range_meters":38800,"station_id":"ce4bhph2rcd13ifvqhdg","pricing_plan_id":"cebpf4jnsgd1na2vs0mg"},{"bike_id":"d59c1c41-4a60-4771-8a42-23bc8e42b7e8","system_id":"levelo_inurba_marseille","lat":43.29252,"lon":5.38442,"is_reserved":false,"is_disabled":false,"rental_uris":{"android":"levelo://app?vid=d59c1c41-4a60-4771-8a42-23bc8e42b7e8","ios":"levelo://app?vid=d59c1c41-4a60-4771-8a42-23bc8e42b7e8"},"vehicle_type_id":"4","last_reported":1726348023,"current_range_meters":38800,"station_id":"ce4bh692rcd13ifvqea0","pricing_plan_id":"cebpf4jnsgd1na2vs0mg"},{"bike_id":"7560168d-c555-4b8e-a518-1c66771c1c72","system_id":"levelo_inurba_marseille","lat":43.24171,"lon":5.39717,"is_reserved":false,"is_disabled":false,"rental_uris":{"android":"levelo://app?vid=7560168d-c555-4b8e-a518-1c66771c1c72","ios":"levelo://app?vid=7560168d-c555-4b8e-a518-1c66771c1c72"},"vehicle_type_id":"4","last_reported":1726348023,"current_range_meters":12800,"station_id":"ce4bhn12rcd13ifvqgpg","pricing_plan_id":"cebpf4jnsgd1na2vs0mg"},{"bike_id":"56772d79-f3b5-446f-9d40-b26ae635d8ee","system_id":"levelo_inurba_marseille","lat":43.27616,"lon":5.36117,"is_reserved":false,"is_disabled":false,"rental_uris":{"android":"levelo://app?vid=56772d79-f3b5-446f-9d40-b26ae635d8ee","ios":"levelo://app?vid=56772d79-f3b5-446f-9d40-b26ae635d8ee"},"vehicle_type_id":"4","last_reported":1726348023,"current_range_meters":38800,"station_id":"ce4bgj92rcd13ifvqbe0","pricing_plan_id":"cebpf4jnsgd1na2vs0mg"},{"bike_id":"33de4456-31c3-4a67-8287-d6624be6e67a","system_id":"levelo_inurba_marseille","lat":43.30179,"lon":5.36613,"is_reserved":false,"is_disabled":false,"rental_uris":{"android":"levelo://app?vid=33de4456-31c3-4a67-8287-d6624be6e67a","ios":"levelo://app?vid=33de4456-31c3-4a67-8287-d6624be6e67a"},"vehicle_type_id":"4","last_reported":1726348023,"current_range_meters":35200,"station_id":"ce4bgrh2rcd13ifvqc8g","pricing_plan_id":"cebpf4jnsgd1na2vs0mg"},{"bike_id":"fcc1810a-9ff2-41c7-b13e-016a47a053a8","system_id":"levelo_inurba_marseille","lat":43.32338,"lon":5.40626,"is_reserved":false,"is_disabled":false,"rental_uris":{"android":"levelo://app?vid=fcc1810a-9ff2-41c7-b13e-016a47a053a8","ios":"levelo://app?vid=fcc1810a-9ff2-41c7-b13e-016a47a053a8"},"vehicle_type_id":"4","last_reported":1726348023,"current_range_meters":38400,"station_id":"ce4bhq92rcd13ifvqhjg","pricing_plan_id":"cebpf4jnsgd1na2vs0mg"},{"bike_id":"4e26d67f-3260-467d-88af-075a11ad36b7","system_id":"levelo_inurba_marseille","lat":43.29945,"lon":5.38477,"is_reserved":false,"is_disabled":false,"rental_uris":{"android":"levelo://app?vid=4e26d67f-3260-467d-88af-075a11ad36b7","ios":"levelo://app?vid=4e26d67f-3260-467d-88af-075a11ad36b7"},"vehicle_type_id":"4","last_reported":1726348023,"current_range_meters":10000,"station_id":"ce4bgj92rcd13ifvqbd0","pricing_plan_id":"cebpf4jnsgd1na2vs0mg"},{"bike_id":"6f78f988-755a-4096-a190-3254b10aaa3e","system_id":"levelo_inurba_marseille","lat":43.27894,"lon":5.38016,"is_reserved":false,"is_disabled":false,"rental_uris":{"android":"levelo://app?vid=6f78f988-755a-4096-a190-3254b10aaa3e","ios":"levelo://app?vid=6f78f988-755a-4096-a190-3254b10aaa3e"},"vehicle_type_id":"4","last_reported":1726348023,"current_range_meters":22400,"station_id":"ce4bhf92rcd13ifvqf50","pricing_plan_id":"cebpf4jnsgd1na2vs0mg"},{"bike_id":"e6792098-2095-48c2-9857-5a54526eb842","system_id":"levelo_inurba_marseille","lat":43.30285,"lon":5.37698,"is_reserved":false,"is_disabled":false,"rental_uris":{"android":"levelo://app?vid=e6792098-2095-48c2-9857-5a54526eb842","ios":"levelo://app?vid=e6792098-2095-48c2-9857-5a54526eb842"},"vehicle_type_id":"4","last_reported":1726348023,"current_range_meters":28000,"station_id":"ce4bguh2rcd13ifvqcj0","pricing_plan_id":"cebpf4jnsgd1na2vs0mg"},{"bike_id":"ad07a252-9136-426d-b791-4e34b7974fb3","system_id":"levelo_inurba_marseille","lat":43.29703,"lon":5.37711,"is_reserved":false,"is_disabled":false,"rental_uris":{"android":"levelo://app?vid=ad07a252-9136-426d-b791-4e34b7974fb3","ios":"levelo://app?vid=ad07a252-9136-426d-b791-4e34b7974fb3"},"vehicle_type_id":"4","last_reported":1726348023,"current_range_meters":38800,"station_id":"ce4bgkh2rcd13ifvqbl0","pricing_plan_id":"cebpf4jnsgd1na2vs0mg"},{"bike_id":"60997c0d-21af-4a97-9be6-d3d01dff78f1","system_id":"levelo_inurba_marseille","lat":43.25822,"lon":5.39431,"is_reserved":false,"is_disabled":false,"rental_uris":{"android":"levelo://app?vid=60997c0d-21af-4a97-9be6-d3d01dff78f1","ios":"levelo://app?vid=60997c0d-21af-4a97-9be6-d3d01dff78f1"},"vehicle_type_id":"4","last_reported":1726348023,"current_range_meters":28800,"station_id":"ce4bhip2rcd13ifvqft0","pricing_plan_id":"cebpf4jnsgd1na2vs0mg"},{"bike_id":"abbc6a4d-e8de-4798-b51b-bf26b4f4d5c4","system_id":"levelo_inurba_marseille","lat":43.29524,"lon":5.39042,"is_reserved":false,"is_disabled":false,"rental_uris":{"android":"levelo://app?vid=abbc6a4d-e8de-4798-b51b-bf26b4f4d5c4","ios":"levelo://app?vid=abbc6a4d-e8de-4798-b51b-bf26b4f4d5c4"},"vehicle_type_id":"4","last_reported":1726348023,"current_range_meters":36800,"station_id":"ce4bh3p2rcd13ifvqdp0","pricing_plan_id":"cebpf4jnsgd1na2vs0mg"},{"bike_id":"0395325a-c0f4-4734-8f55-3dd3991fb343","system_id":"levelo_inurba_marseille","lat":43.30805,"lon":5.38162,"is_reserved":false,"is_disabled":false,"rental_uris":{"android":"levelo://app?vid=0395325a-c0f4-4734-8f55-3dd3991fb343","ios":"levelo://app?vid=0395325a-c0f4-4734-8f55-3dd3991fb343"},"vehicle_type_id":"4","last_reported":1726348023,"current_range_meters":37600,"station_id":"ce4bgt12rcd13ifvqce0","pricing_plan_id":"cebpf4jnsgd1na2vs0mg"},{"bike_id":"1d5bef20-4d23-4239-8b00-8120483045e1","system_id":"levelo_inurba_marseille","lat":43.305878,"lon":5.393644,"is_reserved":false,"is_disabled":false,"rental_uris":{"android":"levelo://app?vid=1d5bef20-4d23-4239-8b00-8120483045e1","ios":"levelo://app?vid=1d5bef20-4d23-4239-8b00-8120483045e1"},"vehicle_type_id":"4","last_reported":1726348023,"current_range_meters":38800,"station_id":"ce4bgt12rcd13ifvqce0","pricing_plan_id":"cebpf4jnsgd1na2vs0mg"},{"bike_id":"a6687b86-a8c1-4429-b1e1-60ef3b781995","system_id":"levelo_inurba_marseille","lat":43.29254,"lon":5.38443,"is_reserved":false,"is_disabled":false,"rental_uris":{"android":"levelo://app?vid=a6687b86-a8c1-4429-b1e1-60ef3b781995","ios":"levelo://app?vid=a6687b86-a8c1-4429-b1e1-60ef3b781995"},"vehicle_type_id":"4","last_reported":1726348023,"current_range_meters":38000,"station_id":"ce4bh5p2rcd13ifvqe4g","pricing_plan_id":"cebpf4jnsgd1na2vs0mg"},{"bike_id":"c4669902-b317-4444-8e3a-b2d73c7402ad","system_id":"levelo_inurba_marseille","lat":43.28465,"lon":5.35896,"is_reserved":false,"is_disabled":false,"rental_uris":{"android":"levelo://app?vid=c4669902-b317-4444-8e3a-b2d73c7402ad","ios":"levelo://app?vid=c4669902-b317-4444-8e3a-b2d73c7402ad"},"vehicle_type_id":"4","last_reported":1726348023,"current_range_meters":10000,"station_id":"ce4bhah2rcd13ifvqei0","pricing_plan_id":"cebpf4jnsgd1na2vs0mg"},{"bike_id":"1be4bcad-bdf2-46c2-8c7e-d9c3888fe276","system_id":"levelo_inurba_marseille","lat":43.32339,"lon":5.40626,"is_reserved":false,"is_disabled":false,"rental_uris":{"android":"levelo://app?vid=1be4bcad-bdf2-46c2-8c7e-d9c3888fe276","ios":"levelo://app?vid=1be4bcad-bdf2-46c2-8c7e-d9c3888fe276"},"vehicle_type_id":"4","last_reported":1726348023,"current_range_meters":33600,"station_id":"ce4bhq92rcd13ifvqhjg","pricing_plan_id":"cebpf4jnsgd1na2vs0mg"},{"bike_id":"ad6f2a99-5e7d-421c-91df-6e2b2cbbd548","system_id":"levelo_inurba_marseille","lat":43.29555,"lon":5.42293,"is_reserved":false,"is_disabled":false,"rental_uris":{"android":"levelo://app?vid=ad6f2a99-5e7d-421c-91df-6e2b2cbbd548","ios":"levelo://app?vid=ad6f2a99-5e7d-421c-91df-6e2b2cbbd548"},"vehicle_type_id":"4","last_reported":1726348023,"current_range_meters":21600,"station_id":"ce4bhph2rcd13ifvqhdg","pricing_plan_id":"cebpf4jnsgd1na2vs0mg"},{"bike_id":"3ef0e547-6cfc-47c8-983b-362a426f5642","system_id":"levelo_inurba_marseille","lat":43.29418,"lon":5.38627,"is_reserved":false,"is_disabled":false,"rental_uris":{"android":"levelo://app?vid=3ef0e547-6cfc-47c8-983b-362a426f5642","ios":"levelo://app?vid=3ef0e547-6cfc-47c8-983b-362a426f5642"},"vehicle_type_id":"4","last_reported":1726348023,"current_range_meters":30800,"station_id":"ce4bh2h2rcd13ifvqdh0","pricing_plan_id":"cebpf4jnsgd1na2vs0mg"},{"bike_id":"5853f56c-4943-4826-b8a5-f2a3d46e7000","system_id":"levelo_inurba_marseille","lat":43.31723,"lon":5.42405,"is_reserved":false,"is_disabled":false,"rental_uris":{"android":"levelo://app?vid=5853f56c-4943-4826-b8a5-f2a3d46e7000","ios":"levelo://app?vid=5853f56c-4943-4826-b8a5-f2a3d46e7000"},"vehicle_type_id":"4","last_reported":1726348023,"current_range_meters":27600,"station_id":"ce4bhp92rcd13ifvqhbg","pricing_plan_id":"cebpf4jnsgd1na2vs0mg"},{"bike_id":"eced4e5d-3976-48df-9338-f5470cba236f","system_id":"levelo_inurba_marseille","lat":43.31927,"lon":5.37445,"is_reserved":false,"is_disabled":false,"rental_uris":{"android":"levelo://app?vid=eced4e5d-3976-48df-9338-f5470cba236f","ios":"levelo://app?vid=eced4e5d-3976-48df-9338-f5470cba236f"},"vehicle_type_id":"4","last_reported":1726348023,"current_range_meters":8000,"station_id":"","pricing_plan_id":"cebpf4jnsgd1na2vs0mg"},{"bike_id":"1c831b92-d35c-4c62-8e32-9afc7c27b5df","system_id":"levelo_inurba_marseille","lat":43.2737,"lon":5.36266,"is_reserved":false,"is_disabled":false,"rental_uris":{"android":"levelo://app?vid=1c831b92-d35c-4c62-8e32-9afc7c27b5df","ios":"levelo://app?vid=1c831b92-d35c-4c62-8e32-9afc7c27b5df"},"vehicle_type_id":"4","last_reported":1726348023,"current_range_meters":5600,"station_id":"ce4bhbh2rcd13ifvqeo0","pricing_plan_id":"cebpf4jnsgd1na2vs0mg"},{"bike_id":"9697b9a6-c49d-4ca6-bdd0-7802cbf86023","system_id":"levelo_inurba_marseille","lat":43.28463,"lon":5.35889,"is_reserved":false,"is_disabled":false,"rental_uris":{"android":"levelo://app?vid=9697b9a6-c49d-4ca6-bdd0-7802cbf86023","ios":"levelo://app?vid=9697b9a6-c49d-4ca6-bdd0-7802cbf86023"},"vehicle_type_id":"4","last_reported":1726348023,"current_range_meters":8800,"station_id":"ce4bhah2rcd13ifvqei0","pricing_plan_id":"cebpf4jnsgd1na2vs0mg"},{"bike_id":"5bb9eeb2-9d6e-478b-9598-395ae66c9e19","system_id":"levelo_inurba_marseille","lat":43.25723,"lon":5.41104,"is_reserved":false,"is_disabled":false,"rental_uris":{"android":"levelo://app?vid=5bb9eeb2-9d6e-478b-9598-395ae66c9e19","ios":"levelo://app?vid=5bb9eeb2-9d6e-478b-9598-395ae66c9e19"},"vehicle_type_id":"4","last_reported":1726348023,"current_range_meters":38800,"station_id":"ce4bhkp2rcd13ifvqgd0","pricing_plan_id":"cebpf4jnsgd1na2vs0mg"},{"bike_id":"0cc2ae81-10b9-4350-851a-981e0c705484","system_id":"levelo_inurba_marseille","lat":43.29256,"lon":5.38437,"is_reserved":false,"is_disabled":false,"rental_uris":{"android":"levelo://app?vid=0cc2ae81-10b9-4350-851a-981e0c705484","ios":"levelo://app?vid=0cc2ae81-10b9-4350-851a-981e0c705484"},"vehicle_type_id":"4","last_reported":1726348023,"current_range_meters":36000,"station_id":"ce4bh692rcd13ifvqea0","pricing_plan_id":"cebpf4jnsgd1na2vs0mg"},{"bike_id":"4252997a-048e-467d-b47c-5290f1fef794","system_id":"levelo_inurba_marseille","lat":43.245904,"lon":5.394723,"is_reserved":false,"is_disabled":false,"rental_uris":{"android":"levelo://app?vid=4252997a-048e-467d-b47c-5290f1fef794","ios":"levelo://app?vid=4252997a-048e-467d-b47c-5290f1fef794"},"vehicle_type_id":"4","last_reported":1726348023,"current_range_meters":16000,"station_id":"ce4bhlp2rcd13ifvqgjg","pricing_plan_id":"cebpf4jnsgd1na2vs0mg"},{"bike_id":"1e157798-eec5-4286-9da7-a2099f677a50","system_id":"levelo_inurba_marseille","lat":43.294769,"lon":5.421427,"is_reserved":false,"is_disabled":false,"rental_uris":{"android":"levelo://app?vid=1e157798-eec5-4286-9da7-a2099f677a50","ios":"levelo://app?vid=1e157798-eec5-4286-9da7-a2099f677a50"},"vehicle_type_id":"4","last_reported":1726348023,"current_range_meters":32800,"station_id":"ce4bhph2rcd13ifvqhdg","pricing_plan_id":"cebpf4jnsgd1na2vs0mg"},{"bike_id":"328d45f9-980e-4811-97c0-47d761861509","system_id":"levelo_inurba_marseille","lat":43.29847,"lon":5.37836,"is_reserved":false,"is_disabled":false,"rental_uris":{"android":"levelo://app?vid=328d45f9-980e-4811-97c0-47d761861509","ios":"levelo://app?vid=328d45f9-980e-4811-97c0-47d761861509"},"vehicle_type_id":"4","last_reported":1726348023,"current_range_meters":30400,"station_id":"ce4bgkh2rcd13ifvqbl0","pricing_plan_id":"cebpf4jnsgd1na2vs0mg"},{"bike_id":"acae8c0d-2eef-4274-842a-1dfa8f63a0a4","system_id":"levelo_inurba_marseille","lat":43.29263,"lon":5.38445,"is_reserved":false,"is_disabled":false,"rental_uris":{"android":"levelo://app?vid=acae8c0d-2eef-4274-842a-1dfa8f63a0a4","ios":"levelo://app?vid=acae8c0d-2eef-4274-842a-1dfa8f63a0a4"},"vehicle_type_id":"4","last_reported":1726348023,"current_range_meters":4400,"station_id":"ce4bh692rcd13ifvqea0","pricing_plan_id":"cebpf4jnsgd1na2vs0mg"},{"bike_id":"3b51f764-c75e-47b9-9ce2-0fdae7022f59","system_id":"levelo_inurba_marseille","lat":43.24824,"lon":5.39217,"is_reserved":false,"is_disabled":false,"rental_uris":{"android":"levelo://app?vid=3b51f764-c75e-47b9-9ce2-0fdae7022f59","ios":"levelo://app?vid=3b51f764-c75e-47b9-9ce2-0fdae7022f59"},"vehicle_type_id":"4","last_reported":1726348023,"current_range_meters":8000,"station_id":"","pricing_plan_id":"cebpf4jnsgd1na2vs0mg"},{"bike_id":"faa2d853-3bf0-42f3-9b08-c8f61907b9d4","system_id":"levelo_inurba_marseille","lat":43.28707,"lon":5.37397,"is_reserved":false,"is_disabled":false,"rental_uris":{"android":"levelo://app?vid=faa2d853-3bf0-42f3-9b08-c8f61907b9d4","ios":"levelo://app?vid=faa2d853-3bf0-42f3-9b08-c8f61907b9d4"},"vehicle_type_id":"4","last_reported":1726348023,"current_range_meters":26800,"station_id":"ce4bh3p2rcd13ifvqdq0","pricing_plan_id":"cebpf4jnsgd1na2vs0mg"},{"bike_id":"cd67b182-8fe9-48d7-a87c-528fa9655604","system_id":"levelo_inurba_marseille","lat":43.295571,"lon":5.399889,"is_reserved":false,"is_disabled":false,"rental_uris":{"android":"levelo://app?vid=cd67b182-8fe9-48d7-a87c-528fa9655604","ios":"levelo://app?vid=cd67b182-8fe9-48d7-a87c-528fa9655604"},"vehicle_type_id":"4","last_reported":1726348023,"current_range_meters":39200,"station_id":"ce4bh312rcd13ifvqdj0","pricing_plan_id":"cebpf4jnsgd1na2vs0mg"},{"bike_id":"b0f3f0c3-4eba-4fc1-a3ac-ff7ee784e36a","system_id":"levelo_inurba_marseille","lat":43.29551,"lon":5.42291,"is_reserved":false,"is_disabled":false,"rental_uris":{"android":"levelo://app?vid=b0f3f0c3-4eba-4fc1-a3ac-ff7ee784e36a","ios":"levelo://app?vid=b0f3f0c3-4eba-4fc1-a3ac-ff7ee784e36a"},"vehicle_type_id":"4","last_reported":1726348023,"current_range_meters":38800,"station_id":"ce4bhph2rcd13ifvqhdg","pricing_plan_id":"cebpf4jnsgd1na2vs0mg"},{"bike_id":"4c7e9215-707e-4f02-a77b-25dadb66deba","system_id":"levelo_inurba_marseille","lat":43.30927,"lon":5.40142,"is_reserved":false,"is_disabled":false,"rental_uris":{"android":"levelo://app?vid=4c7e9215-707e-4f02-a77b-25dadb66deba","ios":"levelo://app?vid=4c7e9215-707e-4f02-a77b-25dadb66deba"},"vehicle_type_id":"4","last_reported":1726348023,"current_range_meters":29600,"station_id":"ce4bgvp2rcd13ifvqct0","pricing_plan_id":"cebpf4jnsgd1na2vs0mg"},{"bike_id":"d8586984-7885-4be7-8619-f7603e9bb168","system_id":"levelo_inurba_marseille","lat":43.27173,"lon":5.40993,"is_reserved":false,"is_disabled":false,"rental_uris":{"android":"levelo://app?vid=d8586984-7885-4be7-8619-f7603e9bb168","ios":"levelo://app?vid=d8586984-7885-4be7-8619-f7603e9bb168"},"vehicle_type_id":"4","last_reported":1726348023,"current_range_meters":33200,"station_id":"ce4bhl12rcd13ifvqgf0","pricing_plan_id":"cebpf4jnsgd1na2vs0mg"},{"bike_id":"589088e5-4e2c-4e6e-a615-8b4770ea728d","system_id":"levelo_inurba_marseille","lat":43.29535,"lon":5.38549,"is_reserved":false,"is_disabled":false,"rental_uris":{"android":"levelo://app?vid=589088e5-4e2c-4e6e-a615-8b4770ea728d","ios":"levelo://app?vid=589088e5-4e2c-4e6e-a615-8b4770ea728d"},"vehicle_type_id":"4","last_reported":1726348023,"current_range_meters":10000,"station_id":"ce4bgih2rcd13ifvqba0","pricing_plan_id":"cebpf4jnsgd1na2vs0mg"},{"bike_id":"fc76a35a-a564-4eb5-8688-a9c3d5237512","system_id":"levelo_inurba_marseille","lat":43.31755,"lon":5.39024,"is_reserved":false,"is_disabled":false,"rental_uris":{"android":"levelo://app?vid=fc76a35a-a564-4eb5-8688-a9c3d5237512","ios":"levelo://app?vid=fc76a35a-a564-4eb5-8688-a9c3d5237512"},"vehicle_type_id":"4","last_reported":1726348023,"current_range_meters":38800,"station_id":"ce4bhqp2rcd13ifvqhng","pricing_plan_id":"cebpf4jnsgd1na2vs0mg"},{"bike_id":"b3aabc3a-b8cb-4666-9bec-4da309264e1d","system_id":"levelo_inurba_marseille","lat":43.26555,"lon":5.37287,"is_reserved":false,"is_disabled":false,"rental_uris":{"android":"levelo://app?vid=b3aabc3a-b8cb-4666-9bec-4da309264e1d","ios":"levelo://app?vid=b3aabc3a-b8cb-4666-9bec-4da309264e1d"},"vehicle_type_id":"4","last_reported":1726348023,"current_range_meters":4000,"station_id":"ce4bhg12rcd13ifvqf70","pricing_plan_id":"cebpf4jnsgd1na2vs0mg"},{"bike_id":"8b608b96-fedf-4511-8d4b-09bad2606e1a","system_id":"levelo_inurba_marseille","lat":43.27732,"lon":5.4113,"is_reserved":false,"is_disabled":false,"rental_uris":{"android":"levelo://app?vid=8b608b96-fedf-4511-8d4b-09bad2606e1a","ios":"levelo://app?vid=8b608b96-fedf-4511-8d4b-09bad2606e1a"},"vehicle_type_id":"4","last_reported":1726348023,"current_range_meters":25200,"station_id":"","pricing_plan_id":"cebpf4jnsgd1na2vs0mg"},{"bike_id":"7f2f489f-9c10-46b1-b3ae-17bab896e02a","system_id":"levelo_inurba_marseille","lat":43.31719,"lon":5.42395,"is_reserved":false,"is_disabled":false,"rental_uris":{"android":"levelo://app?vid=7f2f489f-9c10-46b1-b3ae-17bab896e02a","ios":"levelo://app?vid=7f2f489f-9c10-46b1-b3ae-17bab896e02a"},"vehicle_type_id":"4","last_reported":1726348023,"current_range_meters":32000,"station_id":"ce4bhp92rcd13ifvqhbg","pricing_plan_id":"cebpf4jnsgd1na2vs0mg"},{"bike_id":"b9c005a4-6c5c-4cad-b9fd-98f1befb3df6","system_id":"levelo_inurba_marseille","lat":43.30834,"lon":5.38161,"is_reserved":false,"is_disabled":false,"rental_uris":{"android":"levelo://app?vid=b9c005a4-6c5c-4cad-b9fd-98f1befb3df6","ios":"levelo://app?vid=b9c005a4-6c5c-4cad-b9fd-98f1befb3df6"},"vehicle_type_id":"4","last_reported":1726348023,"current_range_meters":33200,"station_id":"ce4bgt12rcd13ifvqce0","pricing_plan_id":"cebpf4jnsgd1na2vs0mg"},{"bike_id":"ab167bf4-64dc-47a2-b395-04a9b1602953","system_id":"levelo_inurba_marseille","lat":43.25502,"lon":5.37651,"is_reserved":false,"is_disabled":false,"rental_uris":{"android":"levelo://app?vid=ab167bf4-64dc-47a2-b395-04a9b1602953","ios":"levelo://app?vid=ab167bf4-64dc-47a2-b395-04a9b1602953"},"vehicle_type_id":"4","last_reported":1726348023,"current_range_meters":38800,"station_id":"ce4bhh12rcd13ifvqff0","pricing_plan_id":"cebpf4jnsgd1na2vs0mg"},