{"last_updated":1732108768,"ttl":60,"version":"2.2","data":{"bikes":[{"bike_id":"a970bd55-05e0-4db4-a957-a7da19c133ac","system_id":"levelo_inurba_marseille","lat":43.26935,"lon":5.38923,"is_reserved":false,"is_disabled":false,"rental_uris":{"android":"levelo://app?vid=a970bd55-05e0-4db4-a957-a7da19c133ac","ios":"levelo://app?vid=a970bd55-05e0-4db4-a957-a7da19c133ac"},"vehicle_type_id":"4","last_reported":1732108769,"current_range_meters":17200,"station_id":"ce4bhhh2rcd13ifvqfl0","pricing_plan_id":"cebpf4jnsgd1na2vs0mg"},{"bike_id":"13132107-4350-423b-896b-b67d01c84bf1","system_id":"levelo_inurba_marseille","lat":43.30884,"lon":5.39656,"is_reserved":false,"is_disabled":false,"rental_uris":{"android":"levelo://app?vid=13132107-4350-423b-896b-b67d01c84bf1","ios":"levelo://app?vid=13132107-4350-423b-896b-b67d01c84bf1"},"vehicle_type_id":"4","last_reported":1732108769,"current_range_meters":38800,"station_id":"ce4bh012rcd13ifvqcv0","pricing_plan_id":"cebpf4jnsgd1na2vs0mg"},{"bike_id":"740ae0f4-690e-4909-a4ab-8443a16c90b8","system_id":"levelo_inurba_marseille","lat":43.28029,"lon":5.36958,"is_reserved":false,"is_disabled":false,"rental_uris":{"android":"levelo://app?vid=740ae0f4-690e-4909-a4ab-8443a16c90b8","ios":"levelo://app?vid=740ae0f4-690e-4909-a4ab-8443a16c90b8"},"vehicle_type_id":"4","last_reported":1732108769,"current_range_meters":38400,"station_id":"ce4bha12rcd13ifvqef0","pricing_plan_id":"cebpf4jnsgd1na2vs0mg"},{"bike_id":"3ef167aa-309b-48bc-b470-194be3fc10bf","system_id":"levelo_inurba_marseille","lat":43.26209,"lon":5.37444,"is_reserved":false,"is_disabled":false,"rental_uris":{"android":"levelo://app?vid=3ef167aa-309b-48bc-b470-194be3fc10bf","ios":"levelo://app?vid=3ef167aa-309b-48bc-b470-194be3fc10bf"},"vehicle_type_id":"4","last_reported":1732108769,"current_range_meters":38800,"station_id":"ce4bhgp2rcd13ifvqfc0","pricing_plan_id":"cebpf4jnsgd1na2vs0mg"},{"bike_id":"ad065e1b-a695-4ca7-9c8e-fe7c98272c45","system_id":"levelo_inurba_marseille","lat":43.28041,"lon":5.36947,"is_reserved":false,"is_disabled":false,"rental_uris":{"android":"levelo://app?vid=ad065e1b-a695-4ca7-9c8e-fe7c98272c45","ios":"levelo://app?vid=ad065e1b-a695-4ca7-9c8e-fe7c98272c45"},"vehicle_type_id":"4","last_reported":1732108769,"current_range_meters":38800,"station_id":"ce4bha12rcd13ifvqef0","pricing_plan_id":"cebpf4jnsgd1na2vs0mg"},{"bike_id":"81d34042-a037-42c7-9436-1187b5706698","system_id":"levelo_inurba_marseille","lat":43.3102,"lon":5.40299,"is_reserved":false,"is_disabled":false,"rental_uris":{"android":"levelo://app?vid=81d34042-a037-42c7-9436-1187b5706698","ios":"levelo://app?vid=81d34042-a037-42c7-9436-1187b5706698"},"vehicle_type_id":"4","last_reported":1732108769,"current_range_meters":17200,"station_id":"","pricing_plan_id":"cebpf4jnsgd1na2vs0mg"},{"bike_id":"beab6fbf-c410-445e-ac19-e4db447e6dba","system_id":"levelo_inurba_marseille","lat":43.25027,"lon":5.38069,"is_reserved":false,"is_disabled":true,"rental_uris":{"android":"levelo://app?vid=beab6fbf-c410-445e-ac19-e4db447e6dba","ios":"levelo://app?vid=beab6fbf-c410-445e-ac19-e4db447e6dba"},"vehicle_type_id":"4","last_reported":1732108769,"current_range_meters":28400,"station_id":"","pricing_plan_id":"cebpf4jnsgd1na2vs0mg"},{"bike_id":"57c8a187-61e5-47e3-ab84-0d2b63b271ea","system_id":"levelo_inurba_marseille","lat":43.25498,"lon":5.37644,"is_reserved":false,"is_disabled":false,"rental_uris":{"android":"levelo://app?vid=57c8a187-61e5-47e3-ab84-0d2b63b271ea","ios":"levelo://app?vid=57c8a187-61e5-47e3-ab84-0d2b63b271ea"},"vehicle_type_id":"4","last_reported":1732108769,"current_range_meters":16400,"station_id":"ce4bhh12rcd13ifvqff0","pricing_plan_id":"cebpf4jnsgd1na2vs0mg"},{"bike_id":"8676ddee-06ab-4484-8962-1748edf31a08","system_id":"levelo_inurba_marseille","lat":43.30885,"lon":5.39654,"is_reserved":false,"is_disabled":false,"rental_uris":{"android":"levelo://app?vid=8676ddee-06ab-4484-8962-1748edf31a08","ios":"levelo://app?vid=8676ddee-06ab-4484-8962-1748edf31a08"},"vehicle_type_id":"4","last_reported":1732108769,"current_range_meters":20800,"station_id":"ce4bh012rcd13ifvqcv0","pricing_plan_id":"cebpf4jnsgd1na2vs0mg"},{"bike_id":"d57be07f-ff2f-461c-8ab3-5d88f22b0c2f","system_id":"levelo_inurba_marseille","lat":43.32544,"lon":5.41422,"is_reserved":false,"is_disabled":false,"rental_uris":{"android":"levelo://app?vid=d57be07f-ff2f-461c-8ab3-5d88f22b0c2f","ios":"levelo://app?vid=d57be07f-ff2f-461c-8ab3-5d88f22b0c2f"},"vehicle_type_id":"4","last_reported":1732108769,"current_range_meters":12800,"station_id":"ce4bhq12rcd13ifvqhhg","pricing_plan_id":"cebpf4jnsgd1na2vs0mg"},{"bike_id":"1415a626-adb0-42c4-9637-b51d2a99bfa5","system_id":"levelo_inurba_marseille","lat":43.284629,"lon":5.392129,"is_reserved":false,"is_disabled":false,"rental_uris":{"android":"levelo://app?vid=1415a626-adb0-42c4-9637-b51d2a99bfa5","ios":"levelo://app?vid=1415a626-adb0-42c4-9637-b51d2a99bfa5"},"vehicle_type_id":"4","last_reported":1732108769,"current_range_meters":38000,"station_id":"ce4bhoh2rcd13ifvqh5g","pricing_plan_id":"cebpf4jnsgd1na2vs0mg"},{"bike_id":"84d4df27-2b97-423b-bf7d-6029ee544425","system_id":"levelo_inurba_marseille","lat":43.32477,"lon":5.365745,"is_reserved":false,"is_disabled":false,"rental_uris":{"android":"levelo://app?vid=84d4df27-2b97-423b-bf7d-6029ee544425","ios":"levelo://app?vid=84d4df27-2b97-423b-bf7d-6029ee544425"},"vehicle_type_id":"4","last_reported":1732108769,"current_range_meters":39200,"station_id":"ce4bhs12rcd13ifvqhvg","pricing_plan_id":"cebpf4jnsgd1na2vs0mg"},{"bike_id":"5107f305-55ca-475d-9acb-c0d2bfafce9d","system_id":"levelo_inurba_marseille","lat":43.29415,"lon":5.38626,"is_reserved":false,"is_disabled":false,"rental_uris":{"android":"levelo://app?vid=5107f305-55ca-475d-9acb-c0d2bfafce9d","ios":"levelo://app?vid=5107f305-55ca-475d-9acb-c0d2bfafce9d"},"vehicle_type_id":"4","last_reported":1732108769,"current_range_meters":19200,"station_id":"ce4bh2h2rcd13ifvqdh0","pricing_plan_id":"cebpf4jnsgd1na2vs0mg"},{"bike_id":"8a658aca-1a4f-4819-acdb-2f77761d09eb","system_id":"levelo_inurba_marseille","lat":43.29299,"lon":5.37457,"is_reserved":false,"is_disabled":false,"rental_uris":{"android":"levelo://app?vid=8a658aca-1a4f-4819-acdb-2f77761d09eb","ios":"levelo://app?vid=8a658aca-1a4f-4819-acdb-2f77761d09eb"},"vehicle_type_id":"4","last_reported":1732108769,"current_range_meters":37600,"station_id":"ce4bgi12rcd13ifvqb70","pricing_plan_id":"cebpf4jnsgd1na2vs0mg"},{"bike_id":"7f334fe4-d3c8-4916-aabd-6ce3aae1ab07","system_id":"levelo_inurba_marseille","lat":43.29031,"lon":5.38634,"is_reserved":false,"is_disabled":true,"rental_uris":{"android":"levelo://app?vid=7f334fe4-d3c8-4916-aabd-6ce3aae1ab07","ios":"levelo://app?vid=7f334fe4-d3c8-4916-aabd-6ce3aae1ab07"},"vehicle_type_id":"4","last_reported":1732108769,"current_range_meters":1200,"station_id":"ce4bh4p2rcd13ifvqe0g","pricing_plan_id":"cebpf4jnsgd1na2vs0mg"},{"bike_id":"c927b74d-29b7-42c1-8253-95810c18b6dc","system_id":"levelo_inurba_marseille","lat":43.25928,"lon":5.40905,"is_reserved":false,"is_disabled":true,"rental_uris":{"android":"levelo://app?vid=c927b74d-29b7-42c1-8253-95810c18b6dc","ios":"levelo://app?vid=c927b74d-29b7-42c1-8253-95810c18b6dc"},"vehicle_type_id":"4","last_reported":1732108769,"current_range_meters":32800,"station_id":"ce4bhm92rcd13ifvqglg","pricing_plan_id":"cebpf4jnsgd1na2vs0mg"},{"bike_id":"624a2152-52fa-4fa8-b229-d12bbeaf7cc2","system_id":"levelo_inurba_marseille","lat":43.33612,"lon":5.41036,"is_reserved":false,"is_disabled":false,"rental_uris":{"android":"levelo://app?vid=624a2152-52fa-4fa8-b229-d12bbeaf7cc2","ios":"levelo://app?vid=624a2152-52fa-4fa8-b229-d12bbeaf7cc2"},"vehicle_type_id":"4","last_reported":1732108769,"current_range_meters":36400,"station_id":"ce4bhqh2rcd13ifvqhmg","pricing_plan_id":"cebpf4jnsgd1na2vs0mg"},{"bike_id":"1cb797b5-4856-4e1e-9f22-d756158931ad","system_id":"levelo_inurba_marseille","lat":43.30126,"lon":5.39873,"is_reserved":false,"is_disabled":true,"rental_uris":{"android":"levelo://app?vid=1cb797b5-4856-4e1e-9f22-d756158931ad","ios":"levelo://app?vid=1cb797b5-4856-4e1e-9f22-d756158931ad"},"vehicle_type_id":"4","last_reported":1732108769,"current_range_meters":36000,"station_id":"ce4bh0h2rcd13ifvqd40","pricing_plan_id":"cebpf4jnsgd1na2vs0mg"},{"bike_id":"cd3c4b1e-8c00-4360-85b9-156a2c6811b0","system_id":"levelo_inurba_marseille","lat":43.31366,"lon":5.38501,"is_reserved":false,"is_disabled":false,"rental_uris":{"android":"levelo://app?vid=cd3c4b1e-8c00-4360-85b9-156a2c6811b0","ios":"levelo://app?vid=cd3c4b1e-8c00-4360-85b9-156a2c6811b0"},"vehicle_type_id":"4","last_reported":1732108769,"current_range_meters":38800,"station_id":"ce4bgt92rcd13ifvqcf0","pricing_plan_id":"cebpf4jnsgd1na2vs0mg"},{"bike_id":"0ea93326-5034-4b5e-97b8-0a33b4d38611","system_id":"levelo_inurba_marseille","lat":43.30152,"lon":5.38103,"is_reserved":false,"is_disabled":true,"rental_uris":{"android":"levelo://app?vid=0ea93326-5034-4b5e-97b8-0a33b4d38611","ios":"levelo://app?vid=0ea93326-5034-4b5e-97b8-0a33b4d38611"},"vehicle_type_id":"4","last_reported":1732108769,"current_range_meters":0,"station_id":"","pricing_plan_id":"cebpf4jnsgd1na2vs0mg"},{"bike_id":"f286a8f1-c6e5-43d6-ac6e-925f4e427032","system_id":"levelo_inurba_marseille","lat":43.29828,"lon":5.38067,"is_reserved":false,"is_disabled":false,"rental_uris":{"android":"levelo://app?vid=f286a8f1-c6e5-43d6-ac6e-925f4e427032","ios":"levelo://app?vid=f286a8f1-c6e5-43d6-ac6e-925f4e427032"},"vehicle_type_id":"4","last_reported":1732108769,"current_range_meters":36000,"station_id":"ce4bgip2rcd13ifvqbb0","pricing_plan_id":"cebpf4jnsgd1na2vs0mg"},{"bike_id":"4f13bb01-ca73-4886-b605-ebaf666e4c70","system_id":"levelo_inurba_marseille","lat":43.28096,"lon":5.37845,"is_reserved":false,"is_disabled":false,"rental_uris":{"android":"levelo://app?vid=4f13bb01-ca73-4886-b605-ebaf666e4c70","ios":"levelo://app?vid=4f13bb01-ca73-4886-b605-ebaf666e4c70"},"vehicle_type_id":"4","last_reported":1732108769,"current_range_meters":28000,"station_id":"ce4bha12rcd13ifvqee0","pricing_plan_id":"cebpf4jnsgd1na2vs0mg"},{"bike_id":"d2967ab4-0237-494f-9060-4cc5b232a7d3","system_id":"levelo_inurba_marseille","lat":43.28949,"lon":5.3641,"is_reserved":false,"is_disabled":false,"rental_uris":{"android":"levelo://app?vid=d2967ab4-0237-494f-9060-4cc5b232a7d3","ios":"levelo://app?vid=d2967ab4-0237-494f-9060-4cc5b232a7d3"},"vehicle_type_id":"4","last_reported":1732108769,"current_range_meters":30400,"station_id":"ce4bhc92rcd13ifvqetg","pricing_plan_id":"cebpf4jnsgd1na2vs0mg"},{"bike_id":"19b726e0-77db-43f4-ad7f-422032e9811f","system_id":"levelo_inurba_marseille","lat":43.29036,"lon":5.38653,"is_reserved":false,"is_disabled":true,"rental_uris":{"android":"levelo://app?vid=19b726e0-77db-43f4-ad7f-422032e9811f","ios":"levelo://app?vid=19b726e0-77db-43f4-ad7f-422032e9811f"},"vehicle_type_id":"4","last_reported":1732108769,"current_range_meters":23200,"station_id":"ce4bh4p2rcd13ifvqe0g","pricing_plan_id":"cebpf4jnsgd1na2vs0mg"},{"bike_id":"7f1701c1-1350-4302-a955-13dd34a4467d","system_id":"levelo_inurba_marseille","lat":43.23181,"lon":5.39985,"is_reserved":false,"is_disabled":false,"rental_uris":{"android":"levelo://app?vid=7f1701c1-1350-4302-a955-13dd34a4467d","ios":"levelo://app?vid=7f1701c1-1350-4302-a955-13dd34a4467d"},"vehicle_type_id":"4","last_reported":1732108769,"current_range_meters":38800,"station_id":"ce4bhn12rcd13ifvqgqg","pricing_plan_id":"cebpf4jnsgd1na2vs0mg"},{"bike_id":"aaa68104-60d6-454b-9438-4e38b46ffb6c","system_id":"levelo_inurba_marseille","lat":43.30812,"lon":5.37057,"is_reserved":false,"is_disabled":false,"rental_uris":{"android":"levelo://app?vid=aaa68104-60d6-454b-9438-4e38b46ffb6c","ios":"levelo://app?vid=aaa68104-60d6-454b-9438-4e38b46ffb6c"},"vehicle_type_id":"4","last_reported":1732108769,"current_range_meters":22400,"station_id":"","pricing_plan_id":"cebpf4jnsgd1na2vs0mg"},{"bike_id":"9b00db58-8871-4f7f-b2fb-18df15ddc1df","system_id":"levelo_inurba_marseille","lat":43.30632,"lon":5.40097,"is_reserved":false,"is_disabled":false,"rental_uris":{"android":"levelo://app?vid=9b00db58-8871-4f7f-b2fb-18df15ddc1df","ios":"levelo://app?vid=9b00db58-8871-4f7f-b2fb-18df15ddc1df"},"vehicle_type_id":"4","last_reported":1732108769,"current_range_meters":32400,"station_id":"ce4bh112rcd13ifvqda0","pricing_plan_id":"cebpf4jnsgd1na2vs0mg"},{"bike_id":"837d9479-5470-46d1-8a03-bdf27063ea4e","system_id":"levelo_inurba_marseille","lat":43.30536,"lon":5.36551,"is_reserved":false,"is_disabled":false,"rental_uris":{"android":"levelo://app?vid=837d9479-5470-46d1-8a03-bdf27063ea4e","ios":"levelo://app?vid=837d9479-5470-46d1-8a03-bdf27063ea4e"},"vehicle_type_id":"4","last_reported":1732108769,"current_range_meters":31200,"station_id":"ce4bgs12rcd13ifvqcag","pricing_plan_id":"cebpf4jnsgd1na2vs0mg"},{"bike_id":"123b7649-411d-495b-95bb-d79f349cc62b","system_id":"levelo_inurba_marseille","lat":43.30795,"lon":5.43525,"is_reserved":false,"is_disabled":false,"rental_uris":{"android":"levelo://app?vid=123b7649-411d-495b-95bb-d79f349cc62b","ios":"levelo://app?vid=123b7649-411d-495b-95bb-d79f349cc62b"},"vehicle_type_id":"4","last_reported":1732108769,"current_range_meters":38800,"station_id":"ce4bhph2rcd13ifvqheg","pricing_plan_id":"cebpf4jnsgd1na2vs0mg"},{"bike_id":"a749c3ee-ad99-4fe0-9045-21785886a641","system_id":"levelo_inurba_marseille","lat":43.28853,"lon":5.35857,"is_reserved":false,"is_disabled":false,"rental_uris":{"android":"levelo://app?vid=a749c3ee-ad99-4fe0-9045-21785886a641","ios":"levelo://app?vid=a749c3ee-ad99-4fe0-9045-21785886a641"},"vehicle_type_id":"4","last_reported":1732108769,"current_range_meters":38800,"station_id":"ce4bhb12rcd13ifvqem0","pricing_plan_id":"cebpf4jnsgd1na2vs0mg"},{"bike_id":"dbe74249-58cd-403e-a63d-5e0a1c17b552","system_id":"levelo_inurba_marseille","lat":43.24655,"lon":5.38156,"is_reserved":false,"is_disabled":true,"rental_uris":{"android":"levelo://app?vid=dbe74249-58cd-403e-a63d-5e0a1c17b552","ios":"levelo://app?vid=dbe74249-58cd-403e-a63d-5e0a1c17b552"},"vehicle_type_id":"4","last_reported":1732108769,"current_range_meters":0,"station_id":"","pricing_plan_id":"cebpf4jnsgd1na2vs0mg"},{"bike_id":"e4624f32-fae1-428f-a986-44f323453b9a","system_id":"levelo_inurba_marseille","lat":43.2955,"lon":5.4229,"is_reserved":false,"is_disabled":false,"rental_uris":{"android":"levelo://app?vid=e4624f32-fae1-428f-a986-44f323453b9a","ios":"levelo://app?vid=e4624f32-fae1-428f-a986-44f323453b9a"},"vehicle_type_id":"4","last_reported":1732108769,"current_range_meters":36000,"station_id":"ce4bhph2rcd13ifvqhdg","pricing_plan_id":"cebpf4jnsgd1na2vs0mg"},{"bike_id":"c856e729-2063-41ef-bd6b-84efb18c43f5","system_id":"levelo_inurba_marseille","lat":43.25087,"lon":5.39524,"is_reserved":false,"is_disabled":false,"rental_uris":{"android":"levelo://app?vid=c856e729-2063-41ef-bd6b-84efb18c43f5","ios":"levelo://app?vid=c856e729-2063-41ef-bd6b-84efb18c43f5"},"vehicle_type_id":"4","last_reported":1732108769,"current_range_meters":12000,"station_id":"ce4bhm12rcd13ifvqgkg","pricing_plan_id":"cebpf4jnsgd1na2vs0mg"},{"bike_id":"5faf9189-305e-40eb-aa8c-ab6102faa530","system_id":"levelo_inurba_marseille","lat":43.27582,"lon":5.38428,"is_reserved":false,"is_disabled":false,"rental_uris":{"android":"levelo://app?vid=5faf9189-305e-40eb-aa8c-ab6102faa530","ios":"levelo://app?vid=5faf9189-305e-40eb-aa8c-ab6102faa530"},"vehicle_type_id":"4","last_reported":1732108769,"current_range_meters":28400,"station_id":"ce4bhh92rcd13ifvqfi0","pricing_plan_id":"cebpf4jnsgd1na2vs0mg"},{"bike_id":"dfb656ce-a952-4232-be58-58af15a24d97","system_id":"levelo_inurba_marseille","lat":43.23146,"lon":5.43713,"is_reserved":false,"is_disabled":false,"rental_uris":{"android":"levelo://app?vid=dfb656ce-a952-4232-be58-58af15a24d97","ios":"levelo://app?vid=dfb656ce-a952-4232-be58-58af15a24d97"},"vehicle_type_id":"4","last_reported":1732108769,"current_range_meters":20000,"station_id":"ce4bhmp2rcd13ifvqgog","pricing_plan_id":"cebpf4jnsgd1na2vs0mg"},{"bike_id":"5c3000a0-a190-4007-a723-aa2707fd1ce3","system_id":"levelo_inurba_marseille","lat":43.22934,"lon":5.35387,"is_reserved":false,"is_disabled":false,"rental_uris":{"android":"levelo://app?vid=5c3000a0-a190-4007-a723-aa2707fd1ce3","ios":"levelo://app?vid=5c3000a0-a190-4007-a723-aa2707fd1ce3"},"vehicle_type_id":"4","last_reported":1732108769,"current_range_meters":39200,"station_id":"cpo3532slgdg3j2ikp40","pricing_plan_id":"cebpf4jnsgd1na2vs0mg"},{"bike_id":"090bee99-7f6a-45f8-ad0a-8e9a05397121","system_id":"levelo_inurba_marseille","lat":43.31522,"lon":5.38036,"is_reserved":false,"is_disabled":false,"rental_uris":{"android":"levelo://app?vid=090bee99-7f6a-45f8-ad0a-8e9a05397121","ios":"levelo://app?vid=090bee99-7f6a-45f8-ad0a-8e9a05397121"},"vehicle_type_id":"4","last_reported":1732108769,"current_range_meters":6800,"station_id":"ce4bhsp2rcd13ifvqi50","pricing_plan_id":"cebpf4jnsgd1na2vs0mg"},{"bike_id":"07dfa307-72b1-4fd3-aaec-cc158bba164b","system_id":"levelo_inurba_marseille","lat":43.31914,"lon":5.37455,"is_reserved":false,"is_disabled":false,"rental_uris":{"android":"levelo://app?vid=07dfa307-72b1-4fd3-aaec-cc158bba164b","ios":"levelo://app?vid=07dfa307-72b1-4fd3-aaec-cc158bba164b"},"vehicle_type_id":"4","last_reported":1732108769,"current_range_meters":38400,"station_id":"","pricing_plan_id":"cebpf4jnsgd1na2vs0mg"},{"bike_id":"3107f176-32b2-44ba-b4c2-26d43ab2704a","system_id":"levelo_inurba_marseille","lat":43.29007,"lon":5.35611,"is_reserved":false,"is_disabled":false,"rental_uris":{"android":"levelo://app?vid=3107f176-32b2-44ba-b4c2-26d43ab2704a","ios":"levelo://app?vid=3107f176-32b2-44ba-b4c2-26d43ab2704a"},"vehicle_type_id":"4","last_reported":1732108769,"current_range_meters":9600,"station_id":"ce4bhb92rcd13ifvqen0","pricing_plan_id":"cebpf4jnsgd1na2vs0mg"},{"bike_id":"80c97958-4d55-4d04-b0ef-a5b1a09d0125","system_id":"levelo_inurba_marseille","lat":43.31358,"lon":5.36705,"is_reserved":false,"is_disabled":false,"rental_uris":{"android":"levelo://app?vid=80c97958-4d55-4d04-b0ef-a5b1a09d0125","ios":"levelo://app?vid=80c97958-4d55-4d04-b0ef-a5b1a09d0125"},"vehicle_type_id":"4","last_reported":1732108769,"current_range_meters":25200,"station_id":"ce4bgr92rcd13ifvqc6g","pricing_plan_id":"cebpf4jnsgd1na2vs0mg"},{"bike_id":"e0b38293-d99b-4430-b64b-73ae136e0cbe","system_id":"levelo_inurba_marseille","lat":43.25938,"lon":5.40906,"is_reserved":false,"is_disabled":true,"rental_uris":{"android":"levelo://app?vid=e0b38293-d99b-4430-b64b-73ae136e0cbe","ios":"levelo://app?vid=e0b38293-d99b-4430-b64b-73ae136e0cbe"},"vehicle_type_id":"4","last_reported":1732108769,"current_range_meters":0,"station_id":"ce4bhm92rcd13ifvqglg","pricing_plan_id":"cebpf4jnsgd1na2vs0mg"},{"bike_id":"ee2c1471-927f-47bd-9306-c798c41b58b5","system_id":"levelo_inurba_marseille","lat":43.30547,"lon":5.3672,"is_reserved":false,"is_disabled":false,"rental_uris":{"android":"levelo://app?vid=ee2c1471-927f-47bd-9306-c798c41b58b5","ios":"levelo://app?vid=ee2c1471-927f-47bd-9306-c798c41b58b5"},"vehicle_type_id":"4","last_reported":1732108769,"current_range_meters":24000,"station_id":"ce4bgrp2rcd13ifvqc9g","pricing_plan_id":"cebpf4jnsgd1na2vs0mg"},{"bike_id":"2eecfa6d-7bdb-44db-b298-aa7786f0665e","system_id":"levelo_inurba_marseille","lat":43.31328,"lon":5.39692,"is_reserved":false,"is_disabled":false,"rental_uris":{"android":"levelo://app?vid=2eecfa6d-7bdb-44db-b298-aa7786f0665e","ios":"levelo://app?vid=2eecfa6d-7bdb-44db-b298-aa7786f0665e"},"vehicle_type_id":"4","last_reported":1732108769,"current_range_meters":36800,"station_id":"ce4bgvp2rcd13ifvqcu0","pricing_plan_id":"cebpf4jnsgd1na2vs0mg"},{"bike_id":"3a698a5b-c28d-41bd-a952-684ab6cd36fd","system_id":"levelo_inurba_marseille","lat":43.28038,"lon":5.36945,"is_reserved":false,"is_disabled":false,"rental_uris":{"android":"levelo://app?vid=3a698a5b-c28d-41bd-a952-684ab6cd36fd","ios":"levelo://app?vid=3a698a5b-c28d-41bd-a952-684ab6cd36fd"},"vehicle_type_id":"4","last_reported":1732108769,"current_range_meters":27200,"station_id":"ce4bha12rcd13ifvqef0","pricing_plan_id":"cebpf4jnsgd1na2vs0mg"},{"bike_id":"1cd0daee-d68a-4e66-9883-fbe67fd8260f","system_id":"levelo_inurba_marseille","lat":43.30598,"lon":5.37212,"is_reserved":false,"is_disabled":true,"rental_uris":{"android":"levelo://app?vid=1cd0daee-d68a-4e66-9883-fbe67fd8260f","ios":"levelo://app?vid=1cd0daee-d68a-4e66-9883-fbe67fd8260f"},"vehicle_type_id":"4","last_reported":1732108769,"current_range_meters":0,"station_id":"ce4bgqh2rcd13ifvqc4g","pricing_plan_id":"cebpf4jnsgd1na2vs0mg"},{"bike_id":"bc14e463-5825-4071-9c45-e0187e501788","system_id":"levelo_inurba_marseille","lat":43.24803,"lon":5.37453,"is_reserved":false,"is_disabled":true,"rental_uris":{"android":"levelo://app?vid=bc14e463-5825-4071-9c45-e0187e501788","ios":"levelo://app?vid=bc14e463-5825-4071-9c45-e0187e501788"},"vehicle_type_id":"4","last_reported":1732108769,"current_range_meters":1600,"station_id":"ce4bhgh2rcd13ifvqfb0","pricing_plan_id":"cebpf4jnsgd1na2vs0mg"},{"bike_id":"772ce743-8958-4198-b3ba-b6e0d96fa296","system_id":"levelo_inurba_marseille","lat":43.241675,"lon":5.364037,"is_reserved":false,"is_disabled":false,"rental_uris":{"android":"levelo://app?vid=772ce743-8958-4198-b3ba-b6e0d96fa296","ios":"levelo://app?vid=772ce743-8958-4198-b3ba-b6e0d96fa296"},"vehicle_type_id":"4","last_reported":1732108769,"current_range_meters":10800,"station_id":"cpo36qri1sfpv3e86is0","pricing_plan_id":"cebpf4jnsgd1na2vs0mg"},{"bike_id":"829b4d1a-ed3f-4acf-ac55-5925da3b6d1d","system_id":"levelo_inurba_marseille","lat":43.29275,"lon":5.36853,"is_reserved":false,"is_disabled":false,"rental_uris":{"android":"levelo://app?vid=829b4d1a-ed3f-4acf-ac55-5925da3b6d1d","ios":"levelo://app?vid=829b4d1a-ed3f-4acf-ac55-5925da3b6d1d"},"vehicle_type_id":"4","last_reported":1732108769,"current_range_meters":4800,"station_id":"ce4bhbp2rcd13ifvqesg","pricing_plan_id":"cebpf4jnsgd1na2vs0mg"},{"bike_id":"e6d4ea9e-d6c1-45d3-bcf1-642ec2814217","system_id":"levelo_inurba_marseille","lat":43.289518,"lon":5.366421,"is_reserved":false,"is_disabled":false,"rental_uris":{"android":"levelo://app?vid=e6d4ea9e-d6c1-45d3-bcf1-642ec2814217","ios":"levelo://app?vid=e6d4ea9e-d6c1-45d3-bcf1-642ec2814217"},"vehicle_type_id":"4","last_reported":1732108769,"current_range_meters":36400,"station_id":"ce4bhap2rcd13ifvqek0","pricing_plan_id":"cebpf4jnsgd1na2vs0mg"},{"bike_id":"597cb1c5-c680-49ef-9a1a-84a53b157037","system_id":"levelo_inurba_marseille","lat":43.32371,"lon":5.38881,"is_reserved":false,"is_disabled":false,"rental_uris":{"android":"levelo://app?vid=597cb1c5-c680-49ef-9a1a-84a53b157037","ios":"levelo://app?vid=597cb1c5-c680-49ef-9a1a-84a53b157037"},"vehicle_type_id":"4","last_reported":1732108769,"current_range_meters":22400,"station_id":"ce4bhqp2rcd13ifvqhog","pricing_plan_id":"cebpf4jnsgd1na2vs0mg"},{"bike_id":"d3abb7d5-a65b-406a-a30a-65e70ee4ffd2","system_id":"levelo_inurba_marseille","lat":43.28928,"lon":5.38401,"is_reserved":false,"is_disabled":false,"rental_uris":{"android":"levelo://app?vid=d3abb7d5-a65b-406a-a30a-65e70ee4ffd2","ios":"levelo://app?vid=d3abb7d5-a65b-406a-a30a-65e70ee4ffd2"},"vehicle_type_id":"4","last_reported":1732108769,"current_range_meters":39200,"station_id":"ce4bh612rcd13ifvqe6g","pricing_plan_id":"cebpf4jnsgd1na2vs0mg"},{"bike_id":"eeb3226e-788c-43ec-9c5e-af5a3517eafd","system_id":"levelo_inurba_marseille","lat":43.2453,"lon":5.41251,"is_reserved":false,"is_disabled":false,"rental_uris":{"android":"levelo://app?vid=eeb3226e-788c-43ec-9c5e-af5a3517eafd","ios":"levelo://app?vid=eeb3226e-788c-43ec-9c5e-af5a3517eafd"},"vehicle_type_id":"4","last_reported":1732108769,"current_range_meters":24800,"station_id":"","pricing_plan_id":"cebpf4jnsgd1na2vs0mg"},{"bike_id":"e4cce421-ce86-4af3-be13-f349c37fa71f","system_id":"levelo_inurba_marseille","lat":43.276044,"lon":5.360895,"is_reserved":false,"is_disabled":false,"rental_uris":{"android":"levelo://app?vid=e4cce421-ce86-4af3-be13-f349c37fa71f","ios":"levelo://app?vid=e4cce421-ce86-4af3-be13-f349c37fa71f"},"vehicle_type_id":"4","last_reported":1732108769,"current_range_meters":17600,"station_id":"ce4bgj92rcd13ifvqbe0","pricing_plan_id":"cebpf4jnsgd1na2vs0mg"},{"bike_id":"37d9d052-7112-494c-9f6f-8d9baa5ff1ad","system_id":"levelo_inurba_marseille","lat":43.29716,"lon":5.3769,"is_reserved":false,"is_disabled":false,"rental_uris":{"android":"levelo://app?vid=37d9d052-7112-494c-9f6f-8d9baa5ff1ad","ios":"levelo://app?vid=37d9d052-7112-494c-9f6f-8d9baa5ff1ad"},"vehicle_type_id":"4","last_reported":1732108769,"current_range_meters":28400,"station_id":"ce4bgkh2rcd13ifvqbl0","pricing_plan_id":"cebpf4jnsgd1na2vs0mg"},{"bike_id":"70651341-e065-46ae-a614-201dea591cb6","system_id":"levelo_inurba_marseille","lat":43.29509,"lon":5.39025,"is_reserved":false,"is_disabled":false,"rental_uris":{"android":"levelo://app?vid=70651341-e065-46ae-a614-201dea591cb6","ios":"levelo://app?vid=70651341-e065-46ae-a614-201dea591cb6"},"vehicle_type_id":"4","last_reported":1732108769,"current_range_meters":36400,"station_id":"ce4bh3p2rcd13ifvqdp0","pricing_plan_id":"cebpf4jnsgd1na2vs0mg"},{"bike_id":"0b638473-1411-434e-9d66-cbfde13ae8a3","system_id":"levelo_inurba_marseille","lat":43.29936,"lon":5.36543,"is_reserved":false,"is_disabled":false,"rental_uris":{"android":"levelo://app?vid=0b638473-1411-434e-9d66-cbfde13ae8a3","ios":"levelo://app?vid=0b638473-1411-434e-9d66-cbfde13ae8a3"},"vehicle_type_id":"4","last_reported":1732108769,"current_range_meters":28000,"station_id":"ce4bgm92rcd13ifvqbr0","pricing_plan_id":"cebpf4jnsgd1na2vs0mg"},{"bike_id":"7144fcf7-fada-4a34-bf79-af5abbb6bd30","system_id":"levelo_inurba_marseille","lat":43.32026,"lon":5.41491,"is_reserved":false,"is_disabled":false,"rental_uris":{"android":"levelo://app?vid=7144fcf7-fada-4a34-bf79-af5abbb6bd30","ios":"levelo://app?vid=7144fcf7-fada-4a34-bf79-af5abbb6bd30"},"vehicle_type_id":"4","last_reported":1732108769,"current_range_meters":38800,"station_id":"ce4bhq92rcd13ifvqhkg","pricing_plan_id":"cebpf4jnsgd1na2vs0mg"},{"bike_id":"de0d68c5-1b7d-4ef6-9874-0382070cee70","system_id":"levelo_inurba_marseille","lat":43.2926,"lon":5.4091,"is_reserved":false,"is_disabled":false,"rental_uris":{"android":"levelo://app?vid=de0d68c5-1b7d-4ef6-9874-0382070cee70","ios":"levelo://app?vid=de0d68c5-1b7d-4ef6-9874-0382070cee70"},"vehicle_type_id":"4","last_reported":1732108769,"current_range_meters":40000,"station_id":"ce4bh192rcd13ifvqdc0","pricing_plan_id":"cebpf4jnsgd1na2vs0mg"},{"bike_id":"b4516ec2-a978-4cde-91ab-30f07637762c","system_id":"levelo_inurba_marseille","lat":43.29728,"lon":5.37685,"is_reserved":false,"is_disabled":false,"rental_uris":{"android":"levelo://app?vid=b4516ec2-a978-4cde-91ab-30f07637762c","ios":"levelo://app?vid=b4516ec2-a978-4cde-91ab-30f07637762c"},"vehicle_type_id":"4","last_reported":1732108769,"current_range_meters":27200,"station_id":"ce4bgkh2rcd13ifvqbl0","pricing_plan_id":"cebpf4jnsgd1na2vs0mg"},{"bike_id":"59fe6ac7-ab5f-448b-a0dd-f0905e4f654e","system_id":"levelo_inurba_marseille","lat":43.28862,"lon":5.35847,"is_reserved":false,"is_disabled":false,"rental_uris":{"android":"levelo://app?vid=59fe6ac7-ab5f-448b-a0dd-f0905e4f654e","ios":"levelo://app?vid=59fe6ac7-ab5f-448b-a0dd-f0905e4f654e"},"vehicle_type_id":"4","last_reported":1732108769,"current_range_meters":24000,"station_id":"ce4bhb12rcd13ifvqem0","pricing_plan_id":"cebpf4jnsgd1na2vs0mg"},{"bike_id":"10815b4d-f630-46e4-b054-3a315a68514f","system_id":"levelo_inurba_marseille","lat":43.3372,"lon":5.39187,"is_reserved":false,"is_disabled":false,"rental_uris":{"android":"levelo://app?vid=10815b4d-f630-46e4-b054-3a315a68514f","ios":"levelo://app?vid=10815b4d-f630-46e4-b054-3a315a68514f"},"vehicle_type_id":"4","last_reported":1732108769,"current_range_meters":27200,"station_id":"ce4bhr92rcd13ifvqhsg","pricing_plan_id":"cebpf4jnsgd1na2vs0mg"},{"bike_id":"c7c133c2-0a8d-40a8-9b43-d3bc14e56bef","system_id":"levelo_inurba_marseille","lat":43.27575,"lon":5.38426,"is_reserved":false,"is_disabled":true,"rental_uris":{"android":"levelo://app?vid=c7c133c2-0a8d-40a8-9b43-d3bc14e56bef","ios":"levelo://app?vid=c7c133c2-0a8d-40a8-9b43-d3bc14e56bef"},"vehicle_type_id":"4","last_reported":1732108769,"current_range_meters":1200,"station_id":"ce4bhh92rcd13ifvqfi0","pricing_plan_id":"cebpf4jnsgd1na2vs0mg"},{"bike_id":"9dca6eee-44cb-49e6-9031-9b11543291c1","system_id":"levelo_inurba_marseille","lat":43.2572,"lon":5.41118,"is_reserved":false,"is_disabled":false,"rental_uris":{"android":"levelo://app?vid=9dca6eee-44cb-49e6-9031-9b11543291c1","ios":"levelo://app?vid=9dca6eee-44cb-49e6-9031-9b11543291c1"},"vehicle_type_id":"4","last_reported":1732108769,"current_range_meters":16000,"station_id":"ce4bhkp2rcd13ifvqgd0","pricing_plan_id":"cebpf4jnsgd1na2vs0mg"},{"bike_id":"49150ae4-5d3b-425c-bcef-85359c68b429","system_id":"levelo_inurba_marseille","lat":43.25101,"lon":5.40322,"is_reserved":false,"is_disabled":false,"rental_uris":{"android":"levelo://app?vid=49150ae4-5d3b-425c-bcef-85359c68b429","ios":"levelo://app?vid=49150ae4-5d3b-425c-bcef-85359c68b429"},"vehicle_type_id":"4","last_reported":1732108769,"current_range_meters":14400,"station_id":"ce4bhlh2rcd13ifvqgig","pricing_plan_id":"cebpf4jnsgd1na2vs0mg"},{"bike_id":"88f9ab07-2ae2-48dd-93d9-208c706ccab4","system_id":"levelo_inurba_marseille","lat":43.29279,"lon":5.40121,"is_reserved":false,"is_disabled":false,"rental_uris":{"android":"levelo://app?vid=88f9ab07-2ae2-48dd-93d9-208c706ccab4","ios":"levelo://app?vid=88f9ab07-2ae2-48dd-93d9-208c706ccab4"},"vehicle_type_id":"4","last_reported":1732108769,"current_range_meters":39200,"station_id":"ce4bh312rcd13ifvqdk0","pricing_plan_id":"cebpf4jnsgd1na2vs0mg"},{"bike_id":"0dcd8cb5-6d23-418f-8621-d4558f7ce32b","system_id":"levelo_inurba_marseille","lat":43.2804,"lon":5.36952,"is_reserved":false,"is_disabled":false,"rental_uris":{"android":"levelo://app?vid=0dcd8cb5-6d23-418f-8621-d4558f7ce32b","ios":"levelo://app?vid=0dcd8cb5-6d23-418f-8621-d4558f7ce32b"},"vehicle_type_id":"4","last_reported":1732108769,"current_range_meters":12000,"station_id":"ce4bha12rcd13ifvqef0","pricing_plan_id":"cebpf4jnsgd1na2vs0mg"},{"bike_id":"0dc4a3bf-2fba-424f-bfdf-6329c2972485","system_id":"levelo_inurba_marseille","lat":43.26686,"lon":5.3827,"is_reserved":false,"is_disabled":false,"rental_uris":{"android":"levelo://app?vid=0dc4a3bf-2fba-424f-bfdf-6329c2972485","ios":"levelo://app?vid=0dc4a3bf-2fba-424f-bfdf-6329c2972485"},"vehicle_type_id":"4","last_reported":1732108769,"current_range_meters":25200,"station_id":"ce4bhg92rcd13ifvqf90","pricing_plan_id":"cebpf4jnsgd1na2vs0mg"},{"bike_id":"a294dff0-fd60-4b5a-a5bb-f8c183996e85","system_id":"levelo_inurba_marseille","lat":43.30608,"lon":5.37219,"is_reserved":false,"is_disabled":false,"rental_uris":{"android":"levelo://app?vid=a294dff0-fd60-4b5a-a5bb-f8c183996e85","ios":"levelo://app?vid=a294dff0-fd60-4b5a-a5bb-f8c183996e85"},"vehicle_type_id":"4","last_reported":1732108769,"current_range_meters":7200,"station_id":"ce4bgqh2rcd13ifvqc4g","pricing_plan_id":"cebpf4jnsgd1na2vs0mg"},{"bike_id":"32d3a11a-6f2c-486c-9c99-eaddcd43abd0","system_id":"levelo_inurba_marseille","lat":43.26057,"lon":5.394,"is_reserved":false,"is_disabled":false,"rental_uris":{"android":"levelo://app?vid=32d3a11a-6f2c-486c-9c99-eaddcd43abd0","ios":"levelo://app?vid=32d3a11a-6f2c-486c-9c99-eaddcd43abd0"},"vehicle_type_id":"4","last_reported":1732108769,"current_range_meters":38000,"station_id":"ce4bhh92rcd13ifvqfj0","pricing_plan_id":"cebpf4jnsgd1na2vs0mg"},{"bike_id":"d674a550-723f-4e20-a0c2-89aa344c2ade","system_id":"levelo_inurba_marseille","lat":43.28209,"lon":5.4438,"is_reserved":false,"is_disabled":true,"rental_uris":{"android":"levelo://app?vid=d674a550-723f-4e20-a0c2-89aa344c2ade","ios":"levelo://app?vid=d674a550-723f-4e20-a0c2-89aa344c2ade"},"vehicle_type_id":"4","last_reported":1732108769,"current_range_meters":0,"station_id":"","pricing_plan_id":"cebpf4jnsgd1na2vs0mg"},{"bike_id":"53b99732-45e1-4642-9a24-a19d17579721","system_id":"levelo_inurba_marseille","lat":43.29066,"lon":5.37158,"is_reserved":false,"is_disabled":false,"rental_uris":{"android":"levelo://app?vid=53b99732-45e1-4642-9a24-a19d17579721","ios":"levelo://app?vid=53b99732-45e1-4642-9a24-a19d17579721"},"vehicle_type_id":"4","last_reported":1732108769,"current_range_meters":37600,"station_id":"ce4bh5p2rcd13ifvqe4g","pricing_plan_id":"cebpf4jnsgd1na2vs0mg"},{"bike_id":"c9189744-fc44-4511-b823-e10e7c063f95","system_id":"levelo_inurba_marseille","lat":43.30467,"lon":5.37898,"is_reserved":false,"is_disabled":false,"rental_uris":{"android":"levelo://app?vid=c9189744-fc44-4511-b823-e10e7c063f95","ios":"levelo://app?vid=c9189744-fc44-4511-b823-e10e7c063f95"},"vehicle_type_id":"4","last_reported":1732108769,"current_range_meters":37600,"station_id":"ce4bgup2rcd13ifvqcn0","pricing_plan_id":"cebpf4jnsgd1na2vs0mg"},{"bike_id":"6ff2b797-23e9-4a9c-8cd0-6471cc01eec6","system_id":"levelo_inurba_marseille","lat":43.25726,"lon":5.41112,"is_reserved":false,"is_disabled":true,"rental_uris":{"android":"levelo://app?vid=6ff2b797-23e9-4a9c-8cd0-6471cc01eec6","ios":"levelo://app?vid=6ff2b797-23e9-4a9c-8cd0-6471cc01eec6"},"vehicle_type_id":"4","last_reported":1732108769,"current_range_meters":30800,"station_id":"ce4bhkp2rcd13ifvqgd0","pricing_plan_id":"cebpf4jnsgd1na2vs0mg"},{"bike_id":"f5cf085e-8694-4c6f-ba9c-aa6e0d3c58c6","system_id":"levelo_inurba_marseille","lat":43.33667,"lon":5.35581,"is_reserved":false,"is_disabled":true,"rental_uris":{"android":"levelo://app?vid=f5cf085e-8694-4c6f-ba9c-aa6e0d3c58c6","ios":"levelo://app?vid=f5cf085e-8694-4c6f-ba9c-aa6e0d3c58c6"},"vehicle_type_id":"4","last_reported":1732108769,"current_range_meters":11600,"station_id":"","pricing_plan_id":"cebpf4jnsgd1na2vs0mg"},{"bike_id":"3d2beca7-eef0-4bae-98e1-8b3de347272c","system_id":"levelo_inurba_marseille","lat":43.23192,"lon":5.35554,"is_reserved":false,"is_disabled":false,"rental_uris":{"android":"levelo://app?vid=3d2beca7-eef0-4bae-98e1-8b3de347272c","ios":"levelo://app?vid=3d2beca7-eef0-4bae-98e1-8b3de347272c"},"vehicle_type_id":"4","last_reported":1732108769,"current_range_meters":38000,"station_id":"ce4bhu92rcd13ifvqi70","pricing_plan_id":"cebpf4jnsgd1na2vs0mg"},{"bike_id":"3274e2e0-6c9a-427a-aeef-d09c7ae3cb79","system_id":"levelo_inurba_marseille","lat":43.29775,"lon":5.39339,"is_reserved":false,"is_disabled":false,"rental_uris":{"android":"levelo://app?vid=3274e2e0-6c9a-427a-aeef-d09c7ae3cb79","ios":"levelo://app?vid=3274e2e0-6c9a-427a-aeef-d09c7ae3cb79"},"vehicle_type_id":"4","last_reported":1732108769,"current_range_meters":17600,"station_id":"chh1huq6cuj3fo74tm60","pricing_plan_id":"cebpf4jnsgd1na2vs0mg"},{"bike_id":"aaa8c4b4-edb6-481e-b05d-2851bddafa3d","system_id":"levelo_inurba_marseille","lat":43.27814,"lon":5.40721,"is_reserved":false,"is_disabled":false,"rental_uris":{"android":"levelo://app?vid=aaa8c4b4-edb6-481e-b05d-2851bddafa3d","ios":"levelo://app?vid=aaa8c4b4-edb6-481e-b05d-2851bddafa3d"},"vehicle_type_id":"4","last_reported":1732108769,"current_range_meters":30400,"station_id":"ce4bhnh2rcd13ifvqgtg","pricing_plan_id":"cebpf4jnsgd1na2vs0mg"},{"bike_id":"8936b6e9-b73e-463f-af9e-5bf873f7729a","system_id":"levelo_inurba_marseille","lat":43.31239,"lon":5.36875,"is_reserved":false,"is_disabled":false,"rental_uris":{"android":"levelo://app?vid=8936b6e9-b73e-463f-af9e-5bf873f7729a","ios":"levelo://app?vid=8936b6e9-b73e-463f-af9e-5bf873f7729a"},"vehicle_type_id":"4","last_reported":1732108769,"current_range_meters":29600,"station_id":"ce4bgl92rcd13ifvqbq0","pricing_plan_id":"cebpf4jnsgd1na2vs0mg"},{"bike_id":"e57590cc-a844-462b-b95c-023047b497c3","system_id":"levelo_inurba_marseille","lat":43.26024,"lon":5.37551,"is_reserved":false,"is_disabled":true,"rental_uris":{"android":"levelo://app?vid=e57590cc-a844-462b-b95c-023047b497c3","ios":"levelo://app?vid=e57590cc-a844-462b-b95c-023047b497c3"},"vehicle_type_id":"4","last_reported":1732108769,"current_range_meters":0,"station_id":"ce4bhgh2rcd13ifvqfa0","pricing_plan_id":"cebpf4jnsgd1na2vs0mg"},{"bike_id":"f3a52da7-9a20-424d-95b2-19ad07370146","system_id":"levelo_inurba_marseille","lat":43.31163,"lon":5.38722,"is_reserved":false,"is_disabled":false,"rental_uris":{"android":"levelo://app?vid=f3a52da7-9a20-424d-95b2-19ad07370146","ios":"levelo://app?vid=f3a52da7-9a20-424d-95b2-19ad07370146"},"vehicle_type_id":"4","last_reported":1732108769,"current_range_meters":3600,"station_id":"ce4bgv12rcd13ifvqcp0","pricing_plan_id":"cebpf4jnsgd1na2vs0mg"},{"bike_id":"ce9fbc65-d368-4bce-b14e-3a7e3b370062","system_id":"levelo_inurba_marseille","lat":43.29967,"lon":5.37161,"is_reserved":false,"is_disabled":false,"rental_uris":{"android":"levelo://app?vid=ce9fbc65-d368-4bce-b14e-3a7e3b370062","ios":"levelo://app?vid=ce9fbc65-d368-4bce-b14e-3a7e3b370062"},"vehicle_type_id":"4","last_reported":1732108769,"current_range_meters":9200,"station_id":"ce4bgr92rcd13ifvqc7g","pricing_plan_id":"cebpf4jnsgd1na2vs0mg"},{"bike_id":"f4431c05-84ca-4361-b023-ac46c2699636","system_id":"levelo_inurba_marseille","lat":43.29533,"lon":5.38552,"is_reserved":false,"is_disabled":false,"rental_uris":{"android":"levelo://app?vid=f4431c05-84ca-4361-b023-ac46c2699636","ios":"levelo://app?vid=f4431c05-84ca-4361-b023-ac46c2699636"},"vehicle_type_id":"4","last_reported":1732108769,"current_range_meters":38400,"station_id":"ce4bgih2rcd13ifvqba0","pricing_plan_id":"cebpf4jnsgd1na2vs0mg"},{"bike_id":"985d2807-5650-46e8-97ac-f6810dc62410","system_id":"levelo_inurba_marseille","lat":43.3254,"lon":5.41443,"is_reserved":false,"is_disabled":false,"rental_uris":{"android":"levelo://app?vid=985d2807-5650-46e8-97ac-f6810dc62410","ios":"levelo://app?vid=985d2807-5650-46e8-97ac-f6810dc62410"},"vehicle_type_id":"4","last_reported":1732108769,"current_range_meters":26000,"station_id":"ce4bhq12rcd13ifvqhhg","pricing_plan_id":"cebpf4jnsgd1na2vs0mg"},{"bike_id":"4b0a3ab0-2dc0-4269-8965-cd0b5e0c9605","system_id":"levelo_inurba_marseille","lat":43.29044,"lon":5.3592,"is_reserved":false,"is_disabled":false,"rental_uris":{"android":"levelo://app?vid=4b0a3ab0-2dc0-4269-8965-cd0b5e0c9605","ios":"levelo://app?vid=4b0a3ab0-2dc0-4269-8965-cd0b5e0c9605"},"vehicle_type_id":"4","last_reported":1732108769,"current_range_meters":22000,"station_id":"ce4bha92rcd13ifvqeg0","pricing_plan_id":"cebpf4jnsgd1na2vs0mg"},{"bike_id":"a53d5179-303f-4b0c-b63c-286f519ba35d","system_id":"levelo_inurba_marseille","lat":43.26953,"lon":5.38633,"is_reserved":false,"is_disabled":false,"rental_uris":{"android":"levelo://app?vid=a53d5179-303f-4b0c-b63c-286f519ba35d","ios":"levelo://app?vid=a53d5179-303f-4b0c-b63c-286f519ba35d"},"vehicle_type_id":"4","last_reported":1732108769,"current_range_meters":2000,"station_id":"ce4bhh92rcd13ifvqfh0","pricing_plan_id":"cebpf4jnsgd1na2vs0mg"},{"bike_id":"1c4a98a5-4288-4937-8815-18031bd48f6e","system_id":"levelo_inurba_marseille","lat":43.29626,"lon":5.37724,"is_reserved":false,"is_disabled":false,"rental_uris":{"android":"levelo://app?vid=1c4a98a5-4288-4937-8815-18031bd48f6e","ios":"levelo://app?vid=1c4a98a5-4288-4937-8815-18031bd48f6e"},"vehicle_type_id":"4","last_reported":1732108769,"current_range_meters":7200,"station_id":"ce4bgi92rcd13ifvqb90","pricing_plan_id":"cebpf4jnsgd1na2vs0mg"},{"bike_id":"89cb99fc-15b9-4540-990b-d877fe5510cb","system_id":"levelo_inurba_marseille","lat":43.29074,"lon":5.37169,"is_reserved":false,"is_disabled":false,"rental_uris":{"android":"levelo://app?vid=89cb99fc-15b9-4540-990b-d877fe5510cb","ios":"levelo://app?vid=89cb99fc-15b9-4540-990b-d877fe5510cb"},"vehicle_type_id":"4","last_reported":1732108769,"current_range_meters":12000,"station_id":"ce4bh5p2rcd13ifvqe4g","pricing_plan_id":"cebpf4jnsgd1na2vs0mg"},{"bike_id":"b577db40-99a8-416c-97ee-c118609a215a","system_id":"levelo_inurba_marseille","lat":43.26034,"lon":5.3755,"is_reserved":false,"is_disabled":false,"rental_uris":{"android":"levelo://app?vid=b577db40-99a8-416c-97ee-c118609a215a","ios":"levelo://app?vid=b577db40-99a8-416c-97ee-c118609a215a"},"vehicle_type_id":"4","last_reported":1732108769,"current_range_meters":36000,"station_id":"","pricing_plan_id":"cebpf4jnsgd1na2vs0mg"},{"bike_id":"eabe4f73-cbe4-46bc-b76e-1dbe7fcdadbd","system_id":"levelo_inurba_marseille","lat":43.3054,"lon":5.38427,"is_reserved":false,"is_disabled":false,"rental_uris":{"android":"levelo://app?vid=eabe4f73-cbe4-46bc-b76e-1dbe7fcdadbd","ios":"levelo://app?vid=eabe4f73-cbe4-46bc-b76e-1dbe7fcdadbd"},"vehicle_type_id":"4","last_reported":1732108769,"current_range_meters":38000,"station_id":"ce4bgg92rcd13ifvqb30","pricing_plan_id":"cebpf4jnsgd1na2vs0mg"},{"bike_id":"cdaafd2d-0da1-4fac-9881-15c66a7cd7c0","system_id":"levelo_inurba_marseille","lat":43.2315,"lon":5.43707,"is_reserved":false,"is_disabled":true,"rental_uris":{"android":"levelo://app?vid=cdaafd2d-0da1-4fac-9881-15c66a7cd7c0","ios":"levelo://app?vid=cdaafd2d-0da1-4fac-9881-15c66a7cd7c0"},"vehicle_type_id":"4","last_reported":1732108769,"current_range_meters":0,"station_id":"ce4bhmp2rcd13ifvqgog","pricing_plan_id":"cebpf4jnsgd1na2vs0mg"},{"bike_id":"571ebf17-9551-4693-af9a-d47668470fe6","system_id":"levelo_inurba_marseille","lat":43.32364,"lon":5.38885,"is_reserved":false,"is_disabled":false,"rental_uris":{"android":"levelo://app?vid=571ebf17-9551-4693-af9a-d47668470fe6","ios":"levelo://app?vid=571ebf17-9551-4693-af9a-d47668470fe6"},"vehicle_type_id":"4","last_reported":1732108769,"current_range_meters":8800,"station_id":"ce4bhqp2rcd13ifvqhog","pricing_plan_id":"cebpf4jnsgd1na2vs0mg"},{"bike_id":"151ea067-14d1-432d-a994-9465d614138c","system_id":"levelo_inurba_marseille","lat":43.3137,"lon":5.38497,"is_reserved":false,"is_disabled":false,"rental_uris":{"android":"levelo://app?vid=151ea067-14d1-432d-a994-9465d614138c","ios":"levelo://app?vid=151ea067-14d1-432d-a994-9465d614138c"},"vehicle_type_id":"4","last_reported":1732108769,"current_range_meters":10000,"station_id":"ce4bgt92rcd13ifvqcf0","pricing_plan_id":"cebpf4jnsgd1na2vs0mg"},{"bike_id":"8d5ad0a8-268e-4afd-be61-7919f93826c7","system_id":"levelo_inurba_marseille","lat":43.29916,"lon":5.37475,"is_reserved":false,"is_disabled":true,"rental_uris":{"android":"levelo://app?vid=8d5ad0a8-268e-4afd-be61-7919f93826c7","ios":"levelo://app?vid=8d5ad0a8-268e-4afd-be61-7919f93826c7"},"vehicle_type_id":"4","last_reported":1732108769,"current_range_meters":38000,"station_id":"ce4bgjh2rcd13ifvqbg0","pricing_plan_id":"cebpf4jnsgd1na2vs0mg"},{"bike_id":"f198b97b-88d4-49aa-b205-4610520421a6","system_id":"levelo_inurba_marseille","lat":43.33026,"lon":5.39039,"is_reserved":false,"is_disabled":false,"rental_uris":{"android":"levelo://app?vid=f198b97b-88d4-49aa-b205-4610520421a6","ios":"levelo://app?vid=f198b97b-88d4-49aa-b205-4610520421a6"},"vehicle_type_id":"4","last_reported":1732108769,"current_range_meters":29600,"station_id":"ce4bhr92rcd13ifvqhrg","pricing_plan_id":"cebpf4jnsgd1na2vs0mg"},{"bike_id":"b7975300-ba63-480b-8a82-8c5a1cbb8034","system_id":"levelo_inurba_marseille","lat":43.30946,"lon":5.39039,"is_reserved":false,"is_disabled":false,"rental_uris":{"android":"levelo://app?vid=b7975300-ba63-480b-8a82-8c5a1cbb8034","ios":"levelo://app?vid=b7975300-ba63-480b-8a82-8c5a1cbb8034"},"vehicle_type_id":"4","last_reported":1732108769,"current_range_meters":28400,"station_id":"ce4bgup2rcd13ifvqco0","pricing_plan_id":"cebpf4jnsgd1na2vs0mg"},{"bike_id":"20231e00-bfca-448e-9021-13e01c2711d0","system_id":"levelo_inurba_marseille","lat":43.25862,"lon":5.39897,"is_reserved":false,"is_disabled":false,"rental_uris":{"android":"levelo://app?vid=20231e00-bfca-448e-9021-13e01c2711d0","ios":"levelo://app?vid=20231e00-bfca-448e-9021-13e01c2711d0"},"vehicle_type_id":"4","last_reported":1732108769,"current_range_meters":27200,"station_id":"ce4bhl92rcd13ifvqghg","pricing_plan_id":"cebpf4jnsgd1na2vs0mg"},{"bike_id":"4a9a7800-13f1-427a-9c81-000b981e4c98","system_id":"levelo_inurba_marseille","lat":43.2736,"lon":5.36253,"is_reserved":false,"is_disabled":false,"rental_uris":{"android":"levelo://app?vid=4a9a7800-13f1-427a-9c81-000b981e4c98","ios":"levelo://app?vid=4a9a7800-13f1-427a-9c81-000b981e4c98"},"vehicle_type_id":"4","last_reported":1732108769,"current_range_meters":8400,"station_id":"ce4bhbh2rcd13ifvqeo0","pricing_plan_id":"cebpf4jnsgd1na2vs0mg"},{"bike_id":"d3e7f954-16ce-426c-b8f8-fa2346ee2a68","system_id":"levelo_inurba_marseille","lat":43.28667,"lon":5.36352,"is_reserved":false,"is_disabled":false,"rental_uris":{"android":"levelo://app?vid=d3e7f954-16ce-426c-b8f8-fa2346ee2a68","ios":"levelo://app?vid=d3e7f954-16ce-426c-b8f8-fa2346ee2a68"},"vehicle_type_id":"4","last_reported":1732108769,"current_range_meters":9600,"station_id":"ce4bhah2rcd13ifvqej0","pricing_plan_id":"cebpf4jnsgd1na2vs0mg"},{"bike_id":"6a9c3b42-bbed-4a17-9d21-9d400d11f331","system_id":"levelo_inurba_marseille","lat":43.32484,"lon":5.36569,"is_reserved":false,"is_disabled":false,"rental_uris":{"android":"levelo://app?vid=6a9c3b42-bbed-4a17-9d21-9d400d11f331","ios":"levelo://app?vid=6a9c3b42-bbed-4a17-9d21-9d400d11f331"},"vehicle_type_id":"4","last_reported":1732108769,"current_range_meters":37600,"station_id":"ce4bhs12rcd13ifvqhvg","pricing_plan_id":"cebpf4jnsgd1na2vs0mg"},{"bike_id":"d77e99d3-4473-4f3a-a588-d856cf1dc59a","system_id":"levelo_inurba_marseille","lat":43.2919,"lon":5.35796,"is_reserved":false,"is_disabled":false,"rental_uris":{"android":"levelo://app?vid=d77e99d3-4473-4f3a-a588-d856cf1dc59a","ios":"levelo://app?vid=d77e99d3-4473-4f3a-a588-d856cf1dc59a"},"vehicle_type_id":"4","last_reported":1732108769,"current_range_meters":7200,"station_id":"ce4bhb12rcd13ifvqel0","pricing_plan_id":"cebpf4jnsgd1na2vs0mg"},{"bike_id":"a2d3b74c-699b-4c5d-b34c-11e9b9f3d24f","system_id":"levelo_inurba_marseille","lat":43.30541,"lon":5.38437,"is_reserved":false,"is_disabled":false,"rental_uris":{"android":"levelo://app?vid=a2d3b74c-699b-4c5d-b34c-11e9b9f3d24f","ios":"levelo://app?vid=a2d3b74c-699b-4c5d-b34c-11e9b9f3d24f"},"vehicle_type_id":"4","last_reported":1732108769,"current_range_meters":37600,"station_id":"ce4bgg92rcd13ifvqb30","pricing_plan_id":"cebpf4jnsgd1na2vs0mg"},{"bike_id":"319639f6-c364-407e-9612-56f449d4d076","system_id":"levelo_inurba_marseille","lat":43.2807,"lon":5.3967,"is_reserved":false,"is_disabled":true,"rental_uris":{"android":"levelo://app?vid=319639f6-c364-407e-9612-56f449d4d076","ios":"levelo://app?vid=319639f6-c364-407e-9612-56f449d4d076"},"vehicle_type_id":"4","last_reported":1732108769,"current_range_meters":400,"station_id":"ce4bho12rcd13ifvqh2g","pricing_plan_id":"cebpf4jnsgd1na2vs0mg"},{"bike_id":"7d3c1b57-5722-493d-af8a-36155bbf6d08","system_id":"levelo_inurba_marseille","lat":43.28462,"lon":5.35891,"is_reserved":false,"is_disabled":false,"rental_uris":{"android":"levelo://app?vid=7d3c1b57-5722-493d-af8a-36155bbf6d08","ios":"levelo://app?vid=7d3c1b57-5722-493d-af8a-36155bbf6d08"},"vehicle_type_id":"4","last_reported":1732108769,"current_range_meters":34000,"station_id":"ce4bhah2rcd13ifvqei0","pricing_plan_id":"cebpf4jnsgd1na2vs0mg"},{"bike_id":"74d7e67b-00c8-4f2a-98c6-aad4abae8189","system_id":"levelo_inurba_marseille","lat":43.30808,"lon":5.38153,"is_reserved":false,"is_disabled":false,"rental_uris":{"android":"levelo://app?vid=74d7e67b-00c8-4f2a-98c6-aad4abae8189","ios":"levelo://app?vid=74d7e67b-00c8-4f2a-98c6-aad4abae8189"},"vehicle_type_id":"4","last_reported":1732108769,"current_range_meters":38800,"station_id":"ce4bgt12rcd13ifvqce0","pricing_plan_id":"cebpf4jnsgd1na2vs0mg"},{"bike_id":"2bd814a1-31fe-4fb9-9416-398b396e7296","system_id":"levelo_inurba_marseille","lat":43.29166,"lon":5.37171,"is_reserved":false,"is_disabled":false,"rental_uris":{"android":"levelo://app?vid=2bd814a1-31fe-4fb9-9416-398b396e7296","ios":"levelo://app?vid=2bd814a1-31fe-4fb9-9416-398b396e7296"},"vehicle_type_id":"4","last_reported":1732108769,"current_range_meters":13600,"station_id":"ce4bha92rcd13ifvqeh0","pricing_plan_id":"cebpf4jnsgd1na2vs0mg"},{"bike_id":"dd0e732a-65eb-407f-906d-f74caf84c28a","system_id":"levelo_inurba_marseille","lat":43.29725,"lon":5.37685,"is_reserved":false,"is_disabled":false,"rental_uris":{"android":"levelo://app?vid=dd0e732a-65eb-407f-906d-f74caf84c28a","ios":"levelo://app?vid=dd0e732a-65eb-407f-906d-f74caf84c28a"},"vehicle_type_id":"4","last_reported":1732108769,"current_range_meters":38000,"station_id":"ce4bgkh2rcd13ifvqbl0","pricing_plan_id":"cebpf4jnsgd1na2vs0mg"},{"bike_id":"cfd87b84-1a54-445c-a17e-1019b5f854e3","system_id":"levelo_inurba_marseille","lat":43.30947,"lon":5.39026,"is_reserved":false,"is_disabled":false,"rental_uris":{"android":"levelo://app?vid=cfd87b84-1a54-445c-a17e-1019b5f854e3","ios":"levelo://app?vid=cfd87b84-1a54-445c-a17e-1019b5f854e3"},"vehicle_type_id":"4","last_reported":1732108769,"current_range_meters":14000,"station_id":"ce4bgup2rcd13ifvqco0","pricing_plan_id":"cebpf4jnsgd1na2vs0mg"},{"bike_id":"f3ed74b7-b666-4dfa-8970-48319ed863a6","system_id":"levelo_inurba_marseille","lat":43.29009,"lon":5.35621,"is_reserved":false,"is_disabled":false,"rental_uris":{"android":"levelo://app?vid=f3ed74b7-b666-4dfa-8970-48319ed863a6","ios":"levelo://app?vid=f3ed74b7-b666-4dfa-8970-48319ed863a6"},"vehicle_type_id":"4","last_reported":1732108769,"current_range_meters":5600,"station_id":"ce4bhb92rcd13ifvqen0","pricing_plan_id":"cebpf4jnsgd1na2vs0mg"},{"bike_id":"a858d3c9-f611-4d50-9c6e-5d3eb791536e","system_id":"levelo_inurba_marseille","lat":43.31336,"lon":5.39693,"is_reserved":false,"is_disabled":false,"rental_uris":{"android":"levelo://app?vid=a858d3c9-f611-4d50-9c6e-5d3eb791536e","ios":"levelo://app?vid=a858d3c9-f611-4d50-9c6e-5d3eb791536e"},"vehicle_type_id":"4","last_reported":1732108769,"current_range_meters":31200,"station_id":"","pricing_plan_id":"cebpf4jnsgd1na2vs0mg"},{"bike_id":"9b4d52a8-a22b-418c-a556-65afaca3a235","system_id":"levelo_inurba_marseille","lat":43.33752,"lon":5.37452,"is_reserved":false,"is_disabled":false,"rental_uris":{"android":"levelo://app?vid=9b4d52a8-a22b-418c-a556-65afaca3a235","ios":"levelo://app?vid=9b4d52a8-a22b-418c-a556-65afaca3a235"},"vehicle_type_id":"4","last_reported":1732108769,"current_range_meters":16400,"station_id":"","pricing_plan_id":"cebpf4jnsgd1na2vs0mg"},{"bike_id":"4a480100-024d-48c9-89da-2b1b4df99533","system_id":"levelo_inurba_marseille","lat":43.30139,"lon":5.37416,"is_reserved":false,"is_disabled":false,"rental_uris":{"android":"levelo://app?vid=4a480100-024d-48c9-89da-2b1b4df99533","ios":"levelo://app?vid=4a480100-024d-48c9-89da-2b1b4df99533"},"vehicle_type_id":"4","last_reported":1732108769,"current_range_meters":19200,"station_id":"ce4bgs92rcd13ifvqcc0","pricing_plan_id":"cebpf4jnsgd1na2vs0mg"},{"bike_id":"28013382-a13f-438d-a816-6c0d874cbecc","system_id":"levelo_inurba_marseille","lat":43.32654,"lon":5.40996,"is_reserved":false,"is_disabled":false,"rental_uris":{"android":"levelo://app?vid=28013382-a13f-438d-a816-6c0d874cbecc","ios":"levelo://app?vid=28013382-a13f-438d-a816-6c0d874cbecc"},"vehicle_type_id":"4","last_reported":1732108769,"current_range_meters":23200,"station_id":"ce4bhpp2rcd13ifvqhgg","pricing_plan_id":"cebpf4jnsgd1na2vs0mg"},{"bike_id":"b483aa49-d973-45b3-9e82-f4a2b89610a3","system_id":"levelo_inurba_marseille","lat":43.28077,"lon":5.39645,"is_reserved":false,"is_disabled":false,"rental_uris":{"android":"levelo://app?vid=b483aa49-d973-45b3-9e82-f4a2b89610a3","ios":"levelo://app?vid=b483aa49-d973-45b3-9e82-f4a2b89610a3"},"vehicle_type_id":"4","last_reported":1732108769,"current_range_meters":38800,"station_id":"ce4bho12rcd13ifvqh2g","pricing_plan_id":"cebpf4jnsgd1na2vs0mg"},{"bike_id":"a2c14a54-a310-40c1-b994-3c63f67ad9d9","system_id":"levelo_inurba_marseille","lat":43.30922,"lon":5.40145,"is_reserved":false,"is_disabled":false,"rental_uris":{"android":"levelo://app?vid=a2c14a54-a310-40c1-b994-3c63f67ad9d9","ios":"levelo://app?vid=a2c14a54-a310-40c1-b994-3c63f67ad9d9"},"vehicle_type_id":"4","last_reported":1732108769,"current_range_meters":36000,"station_id":"ce4bgvp2rcd13ifvqct0","pricing_plan_id":"cebpf4jnsgd1na2vs0mg"},{"bike_id":"5adc63a5-1251-4e0f-a23d-8ee6ab24af22","system_id":"levelo_inurba_marseille","lat":43.27615,"lon":5.36113,"is_reserved":false,"is_disabled":false,"rental_uris":{"android":"levelo://app?vid=5adc63a5-1251-4e0f-a23d-8ee6ab24af22","ios":"levelo://app?vid=5adc63a5-1251-4e0f-a23d-8ee6ab24af22"},"vehicle_type_id":"4","last_reported":1732108769,"current_range_meters":28400,"station_id":"ce4bgj92rcd13ifvqbe0","pricing_plan_id":"cebpf4jnsgd1na2vs0mg"},{"bike_id":"e74e8692-56b5-455e-b107-3674a73c30f0","system_id":"levelo_inurba_marseille","lat":43.29276,"lon":5.36849,"is_reserved":false,"is_disabled":false,"rental_uris":{"android":"levelo://app?vid=e74e8692-56b5-455e-b107-3674a73c30f0","ios":"levelo://app?vid=e74e8692-56b5-455e-b107-3674a73c30f0"},"vehicle_type_id":"4","last_reported":1732108769,"current_range_meters":38800,"station_id":"ce4bhbp2rcd13ifvqesg","pricing_plan_id":"cebpf4jnsgd1na2vs0mg"},{"bike_id":"29286f9d-c0f0-4eb0-be14-0488e7d6d097","system_id":"levelo_inurba_marseille","lat":43.25496,"lon":5.37645,"is_reserved":false,"is_disabled":false,"rental_uris":{"android":"levelo://app?vid=29286f9d-c0f0-4eb0-be14-0488e7d6d097","ios":"levelo://app?vid=29286f9d-c0f0-4eb0-be14-0488e7d6d097"},"vehicle_type_id":"4","last_reported":1732108769,"current_range_meters":12000,"station_id":"ce4bhh12rcd13ifvqff0","pricing_plan_id":"cebpf4jnsgd1na2vs0mg"},{"bike_id":"6062c814-b29e-4547-857c-6b4aba6ee686","system_id":"levelo_inurba_marseille","lat":43.31334,"lon":5.36746,"is_reserved":false,"is_disabled":false,"rental_uris":{"android":"levelo://app?vid=6062c814-b29e-4547-857c-6b4aba6ee686","ios":"levelo://app?vid=6062c814-b29e-4547-857c-6b4aba6ee686"},"vehicle_type_id":"4","last_reported":1732108769,"current_range_meters":32000,"station_id":"ce4bgr92rcd13ifvqc6g","pricing_plan_id":"cebpf4jnsgd1na2vs0mg"},{"bike_id":"a32613c2-ce23-4c6b-99d9-f02f377bc95a","system_id":"levelo_inurba_marseille","lat":43.337444,"lon":5.374475,"is_reserved":false,"is_disabled":false,"rental_uris":{"android":"levelo://app?vid=a32613c2-ce23-4c6b-99d9-f02f377bc95a","ios":"levelo://app?vid=a32613c2-ce23-4c6b-99d9-f02f377bc95a"},"vehicle_type_id":"4","last_reported":1732108769,"current_range_meters":38400,"station_id":"","pricing_plan_id":"cebpf4jnsgd1na2vs0mg"},{"bike_id":"85bc2984-b93f-4bf1-9e83-b707bdbb5fc0","system_id":"levelo_inurba_marseille","lat":43.29092,"lon":5.38127,"is_reserved":false,"is_disabled":false,"rental_uris":{"android":"levelo://app?vid=85bc2984-b93f-4bf1-9e83-b707bdbb5fc0","ios":"levelo://app?vid=85bc2984-b93f-4bf1-9e83-b707bdbb5fc0"},"vehicle_type_id":"4","last_reported":1732108769,"current_range_meters":28400,"station_id":"ce4bh512rcd13ifvqe2g","pricing_plan_id":"cebpf4jnsgd1na2vs0mg"},{"bike_id":"9be5ca01-b8a5-4592-abb3-639940cc8225","system_id":"levelo_inurba_marseille","lat":43.28355,"lon":5.3863,"is_reserved":false,"is_disabled":false,"rental_uris":{"android":"levelo://app?vid=9be5ca01-b8a5-4592-abb3-639940cc8225","ios":"levelo://app?vid=9be5ca01-b8a5-4592-abb3-639940cc8225"},"vehicle_type_id":"4","last_reported":1732108769,"current_range_meters":32400,"station_id":"ce4bh492rcd13ifvqdvg","pricing_plan_id":"cebpf4jnsgd1na2vs0mg"},{"bike_id":"b776332e-40d1-4fd6-9c65-32803e6de98b","system_id":"levelo_inurba_marseille","lat":43.2961,"lon":5.37287,"is_reserved":false,"is_disabled":true,"rental_uris":{"android":"levelo://app?vid=b776332e-40d1-4fd6-9c65-32803e6de98b","ios":"levelo://app?vid=b776332e-40d1-4fd6-9c65-32803e6de98b"},"vehicle_type_id":"4","last_reported":1732108769,"current_range_meters":27600,"station_id":"","pricing_plan_id":"cebpf4jnsgd1na2vs0mg"},{"bike_id":"4afa76c3-e31f-438e-9260-da47dd039993","system_id":"levelo_inurba_marseille","lat":43.30132,"lon":5.37408,"is_reserved":false,"is_disabled":false,"rental_uris":{"android":"levelo://app?vid=4afa76c3-e31f-438e-9260-da47dd039993","ios":"levelo://app?vid=4afa76c3-e31f-438e-9260-da47dd039993"},"vehicle_type_id":"4","last_reported":1732108769,"current_range_meters":22800,"station_id":"ce4bgs92rcd13ifvqcc0","pricing_plan_id":"cebpf4jnsgd1na2vs0mg"},{"bike_id":"f4431127-8611-44b3-93ec-07b172a6f2aa","system_id":"levelo_inurba_marseille","lat":43.30351,"lon":5.4188,"is_reserved":false,"is_disabled":false,"rental_uris":{"android":"levelo://app?vid=f4431127-8611-44b3-93ec-07b172a6f2aa","ios":"levelo://app?vid=f4431127-8611-44b3-93ec-07b172a6f2aa"},"vehicle_type_id":"4","last_reported":1732108769,"current_range_meters":10800,"station_id":"ce4bhop2rcd13ifvqh7g","pricing_plan_id":"cebpf4jnsgd1na2vs0mg"},{"bike_id":"0b733133-03c9-4766-961e-92b775b50bbc","system_id":"levelo_inurba_marseille","lat":43.28222,"lon":5.4429,"is_reserved":false,"is_disabled":true,"rental_uris":{"android":"levelo://app?vid=0b733133-03c9-4766-961e-92b775b50bbc","ios":"levelo://app?vid=0b733133-03c9-4766-961e-92b775b50bbc"},"vehicle_type_id":"4","last_reported":1732108769,"current_range_meters":0,"station_id":"","pricing_plan_id":"cebpf4jnsgd1na2vs0mg"},{"bike_id":"4361da98-532b-4887-b85d-e7d76f30bc9f","system_id":"levelo_inurba_marseille","lat":43.30599,"lon":5.37225,"is_reserved":false,"is_disabled":false,"rental_uris":{"android":"levelo://app?vid=4361da98-532b-4887-b85d-e7d76f30bc9f","ios":"levelo://app?vid=4361da98-532b-4887-b85d-e7d76f30bc9f"},"vehicle_type_id":"4","last_reported":1732108769,"current_range_meters":38800,"station_id":"ce4bgqh2rcd13ifvqc4g","pricing_plan_id":"cebpf4jnsgd1na2vs0mg"},{"bike_id":"e45cb2f6-8795-47f9-b925-42b23cae84c8","system_id":"levelo_inurba_marseille","lat":43.3254,"lon":5.41446,"is_reserved":false,"is_disabled":false,"rental_uris":{"android":"levelo://app?vid=e45cb2f6-8795-47f9-b925-42b23cae84c8","ios":"levelo://app?vid=e45cb2f6-8795-47f9-b925-42b23cae84c8"},"vehicle_type_id":"4","last_reported":1732108769,"current_range_meters":28000,"station_id":"ce4bhq12rcd13ifvqhhg","pricing_plan_id":"cebpf4jnsgd1na2vs0mg"},{"bike_id":"e4c11769-2c19-46a4-a622-9a2180bb2646","system_id":"levelo_inurba_marseille","lat":43.23152,"lon":5.43717,"is_reserved":false,"is_disabled":false,"rental_uris":{"android":"levelo://app?vid=e4c11769-2c19-46a4-a622-9a2180bb2646","ios":"levelo://app?vid=e4c11769-2c19-46a4-a622-9a2180bb2646"},"vehicle_type_id":"4","last_reported":1732108769,"current_range_meters":39200,"station_id":"ce4bhmp2rcd13ifvqgog","pricing_plan_id":"cebpf4jnsgd1na2vs0mg"},{"bike_id":"9306b24a-9f97-4c4e-87cf-0a00991bd69f","system_id":"levelo_inurba_marseille","lat":43.3127,"lon":5.40168,"is_reserved":false,"is_disabled":false,"rental_uris":{"android":"levelo://app?vid=9306b24a-9f97-4c4e-87cf-0a00991bd69f","ios":"levelo://app?vid=9306b24a-9f97-4c4e-87cf-0a00991bd69f"},"vehicle_type_id":"4","last_reported":1732108769,"current_range_meters":38000,"station_id":"ce4bh092rcd13ifvqd30","pricing_plan_id":"cebpf4jnsgd1na2vs0mg"},{"bike_id":"972416ad-0214-4ca6-b842-4d3fb48a3dad","system_id":"levelo_inurba_marseille","lat":43.30544,"lon":5.36563,"is_reserved":false,"is_disabled":false,"rental_uris":{"android":"levelo://app?vid=972416ad-0214-4ca6-b842-4d3fb48a3dad","ios":"levelo://app?vid=972416ad-0214-4ca6-b842-4d3fb48a3dad"},"vehicle_type_id":"4","last_reported":1732108769,"current_range_meters":24400,"station_id":"ce4bgs12rcd13ifvqcag","pricing_plan_id":"cebpf4jnsgd1na2vs0mg"},{"bike_id":"a6eb028f-ec3f-4274-b618-56c594a327df","system_id":"levelo_inurba_marseille","lat":43.27566,"lon":5.38427,"is_reserved":false,"is_disabled":false,"rental_uris":{"android":"levelo://app?vid=a6eb028f-ec3f-4274-b618-56c594a327df","ios":"levelo://app?vid=a6eb028f-ec3f-4274-b618-56c594a327df"},"vehicle_type_id":"4","last_reported":1732108769,"current_range_meters":30000,"station_id":"ce4bhh92rcd13ifvqfi0","pricing_plan_id":"cebpf4jnsgd1na2vs0mg"},{"bike_id":"ee61b530-611f-416c-9f04-83f51292cbf8","system_id":"levelo_inurba_marseille","lat":43.29967,"lon":5.38492,"is_reserved":false,"is_disabled":false,"rental_uris":{"android":"levelo://app?vid=ee61b530-611f-416c-9f04-83f51292cbf8","ios":"levelo://app?vid=ee61b530-611f-416c-9f04-83f51292cbf8"},"vehicle_type_id":"4","last_reported":1732108769,"current_range_meters":14400,"station_id":"ce4bgj92rcd13ifvqbd0","pricing_plan_id":"cebpf4jnsgd1na2vs0mg"},{"bike_id":"8818b0a7-c814-4461-bb43-5fd8c33bac08","system_id":"levelo_inurba_marseille","lat":43.3302,"lon":5.39033,"is_reserved":false,"is_disabled":false,"rental_uris":{"android":"levelo://app?vid=8818b0a7-c814-4461-bb43-5fd8c33bac08","ios":"levelo://app?vid=8818b0a7-c814-4461-bb43-5fd8c33bac08"},"vehicle_type_id":"4","last_reported":1732108769,"current_range_meters":30400,"station_id":"ce4bhr92rcd13ifvqhrg","pricing_plan_id":"cebpf4jnsgd1na2vs0mg"},{"bike_id":"1904e4d6-e1e0-456f-9800-8b0e0e7107b4","system_id":"levelo_inurba_marseille","lat":43.23153,"lon":5.4371,"is_reserved":false,"is_disabled":true,"rental_uris":{"android":"levelo://app?vid=1904e4d6-e1e0-456f-9800-8b0e0e7107b4","ios":"levelo://app?vid=1904e4d6-e1e0-456f-9800-8b0e0e7107b4"},"vehicle_type_id":"4","last_reported":1732108769,"current_range_meters":0,"station_id":"ce4bhmp2rcd13ifvqgog","pricing_plan_id":"cebpf4jnsgd1na2vs0mg"},{"bike_id":"c7e1a942-597c-4548-b6ed-34b61f09edc5","system_id":"levelo_inurba_marseille","lat":43.29224,"lon":5.36075,"is_reserved":false,"is_disabled":false,"rental_uris":{"android":"levelo://app?vid=c7e1a942-597c-4548-b6ed-34b61f09edc5","ios":"levelo://app?vid=c7e1a942-597c-4548-b6ed-34b61f09edc5"},"vehicle_type_id":"4","last_reported":1732108769,"current_range_meters":22000,"station_id":"ce4bhbh2rcd13ifvqeqg","pricing_plan_id":"cebpf4jnsgd1na2vs0mg"},{"bike_id":"a2708557-70e1-4d18-b5aa-f0b2622febe1","system_id":"levelo_inurba_marseille","lat":43.31999,"lon":5.38154,"is_reserved":false,"is_disabled":true,"rental_uris":{"android":"levelo://app?vid=a2708557-70e1-4d18-b5aa-f0b2622febe1","ios":"levelo://app?vid=a2708557-70e1-4d18-b5aa-f0b2622febe1"},"vehicle_type_id":"4","last_reported":1732108769,"current_range_meters":0,"station_id":"ce4bhr12rcd13ifvqhpg","pricing_plan_id":"cebpf4jnsgd1na2vs0mg"},{"bike_id":"5bed771e-39e5-41eb-a8cc-e9dd79035ab2","system_id":"levelo_inurba_marseille","lat":43.32106,"lon":5.36778,"is_reserved":false,"is_disabled":false,"rental_uris":{"android":"levelo://app?vid=5bed771e-39e5-41eb-a8cc-e9dd79035ab2","ios":"levelo://app?vid=5bed771e-39e5-41eb-a8cc-e9dd79035ab2"},"vehicle_type_id":"4","last_reported":1732108769,"current_range_meters":25600,"station_id":"ce4bhrh2rcd13ifvqhug","pricing_plan_id":"cebpf4jnsgd1na2vs0mg"},{"bike_id":"1eff5ce5-2d56-4465-a12c-60db9ec2175a","system_id":"levelo_inurba_marseille","lat":43.22928,"lon":5.35375,"is_reserved":false,"is_disabled":false,"rental_uris":{"android":"levelo://app?vid=1eff5ce5-2d56-4465-a12c-60db9ec2175a","ios":"levelo://app?vid=1eff5ce5-2d56-4465-a12c-60db9ec2175a"},"vehicle_type_id":"4","last_reported":1732108769,"current_range_meters":16400,"station_id":"cpo3532slgdg3j2ikp40","pricing_plan_id":"cebpf4jnsgd1na2vs0mg"},{"bike_id":"57abd786-24f9-4817-80a9-2a2dfb14aeaa","system_id":"levelo_inurba_marseille","lat":43.29034,"lon":5.3997,"is_reserved":false,"is_disabled":false,"rental_uris":{"android":"levelo://app?vid=57abd786-24f9-4817-80a9-2a2dfb14aeaa","ios":"levelo://app?vid=57abd786-24f9-4817-80a9-2a2dfb14aeaa"},"vehicle_type_id":"4","last_reported":1732108769,"current_range_meters":6800,"station_id":"ce4bh392rcd13ifvqdm0","pricing_plan_id":"cebpf4jnsgd1na2vs0mg"},{"bike_id":"f1126846-151c-41db-a723-1b5f4b356b87","system_id":"levelo_inurba_marseille","lat":43.32363,"lon":5.38884,"is_reserved":false,"is_disabled":true,"rental_uris":{"android":"levelo://app?vid=f1126846-151c-41db-a723-1b5f4b356b87","ios":"levelo://app?vid=f1126846-151c-41db-a723-1b5f4b356b87"},"vehicle_type_id":"4","last_reported":1732108769,"current_range_meters":14400,"station_id":"ce4bhqp2rcd13ifvqhog","pricing_plan_id":"cebpf4jnsgd1na2vs0mg"},{"bike_id":"4689a830-a91a-48a2-893a-ce714e6bee37","system_id":"levelo_inurba_marseille","lat":43.2808,"lon":5.39662,"is_reserved":false,"is_disabled":false,"rental_uris":{"android":"levelo://app?vid=4689a830-a91a-48a2-893a-ce714e6bee37","ios":"levelo://app?vid=4689a830-a91a-48a2-893a-ce714e6bee37"},"vehicle_type_id":"4","last_reported":1732108769,"current_range_meters":8800,"station_id":"ce4bho12rcd13ifvqh2g","pricing_plan_id":"cebpf4jnsgd1na2vs0mg"},{"bike_id":"9f3572b0-c0a7-43aa-8c1e-c100148af63b","system_id":"levelo_inurba_marseille","lat":43.29194,"lon":5.35805,"is_reserved":false,"is_disabled":false,"rental_uris":{"android":"levelo://app?vid=9f3572b0-c0a7-43aa-8c1e-c100148af63b","ios":"levelo://app?vid=9f3572b0-c0a7-43aa-8c1e-c100148af63b"},"vehicle_type_id":"4","last_reported":1732108769,"current_range_meters":37600,"station_id":"ce4bhb12rcd13ifvqel0","pricing_plan_id":"cebpf4jnsgd1na2vs0mg"},{"bike_id":"954054ad-77ac-46c3-a1b5-c8fc266a522b","system_id":"levelo_inurba_marseille","lat":43.31725,"lon":5.42397,"is_reserved":false,"is_disabled":false,"rental_uris":{"android":"levelo://app?vid=954054ad-77ac-46c3-a1b5-c8fc266a522b","ios":"levelo://app?vid=954054ad-77ac-46c3-a1b5-c8fc266a522b"},"vehicle_type_id":"4","last_reported":1732108769,"current_range_meters":38800,"station_id":"ce4bhp92rcd13ifvqhbg","pricing_plan_id":"cebpf4jnsgd1na2vs0mg"},{"bike_id":"84616ed4-c805-47f3-b5e2-c74c21362174","system_id":"levelo_inurba_marseille","lat":43.30901,"lon":5.37201,"is_reserved":false,"is_disabled":false,"rental_uris":{"android":"levelo://app?vid=84616ed4-c805-47f3-b5e2-c74c21362174","ios":"levelo://app?vid=84616ed4-c805-47f3-b5e2-c74c21362174"},"vehicle_type_id":"4","last_reported":1732108769,"current_range_meters":11600,"station_id":"ce4bguh2rcd13ifvqckg","pricing_plan_id":"cebpf4jnsgd1na2vs0mg"},{"bike_id":"9c4a655e-2680-4a60-a844-6a2ea62fb4b1","system_id":"levelo_inurba_marseille","lat":43.26072,"lon":5.39398,"is_reserved":false,"is_disabled":false,"rental_uris":{"android":"levelo://app?vid=9c4a655e-2680-4a60-a844-6a2ea62fb4b1","ios":"levelo://app?vid=9c4a655e-2680-4a60-a844-6a2ea62fb4b1"},"vehicle_type_id":"4","last_reported":1732108769,"current_range_meters":24800,"station_id":"ce4bhh92rcd13ifvqfj0","pricing_plan_id":"cebpf4jnsgd1na2vs0mg"},{"bike_id":"0a060466-2924-4351-894c-4f0c87a44a2d","system_id":"levelo_inurba_marseille","lat":43.255,"lon":5.37652,"is_reserved":false,"is_disabled":false,"rental_uris":{"android":"levelo://app?vid=0a060466-2924-4351-894c-4f0c87a44a2d","ios":"levelo://app?vid=0a060466-2924-4351-894c-4f0c87a44a2d"},"vehicle_type_id":"4","last_reported":1732108769,"current_range_meters":35600,"station_id":"ce4bhh12rcd13ifvqff0","pricing_plan_id":"cebpf4jnsgd1na2vs0mg"},{"bike_id":"ff11b968-7752-4e13-865e-360e7723ecd2","system_id":"levelo_inurba_marseille","lat":43.30547,"lon":5.36696,"is_reserved":false,"is_disabled":false,"rental_uris":{"android":"levelo://app?vid=ff11b968-7752-4e13-865e-360e7723ecd2","ios":"levelo://app?vid=ff11b968-7752-4e13-865e-360e7723ecd2"},"vehicle_type_id":"4","last_reported":1732108769,"current_range_meters":37600,"station_id":"ce4bgrp2rcd13ifvqc9g","pricing_plan_id":"cebpf4jnsgd1na2vs0mg"},{"bike_id":"e840fe4f-47a0-4d31-8133-7c332a3d517a","system_id":"levelo_inurba_marseille","lat":43.31078,"lon":5.42432,"is_reserved":false,"is_disabled":true,"rental_uris":{"android":"levelo://app?vid=e840fe4f-47a0-4d31-8133-7c332a3d517a","ios":"levelo://app?vid=e840fe4f-47a0-4d31-8133-7c332a3d517a"},"vehicle_type_id":"4","last_reported":1732108769,"current_range_meters":10800,"station_id":"ce4bhp92rcd13ifvqhag","pricing_plan_id":"cebpf4jnsgd1na2vs0mg"},{"bike_id":"43fbabc0-6e3a-45c4-92e5-c6fffcee569e","system_id":"levelo_inurba_marseille","lat":43.28936,"lon":5.36641,"is_reserved":false,"is_disabled":false,"rental_uris":{"android":"levelo://app?vid=43fbabc0-6e3a-45c4-92e5-c6fffcee569e","ios":"levelo://app?vid=43fbabc0-6e3a-45c4-92e5-c6fffcee569e"},"vehicle_type_id":"4","last_reported":1732108769,"current_range_meters":38800,"station_id":"ce4bhap2rcd13ifvqek0","pricing_plan_id":"cebpf4jnsgd1na2vs0mg"},{"bike_id":"d42b59cb-0784-4ac2-915e-442f4f731589","system_id":"levelo_inurba_marseille","lat":43.30465,"lon":5.37903,"is_reserved":false,"is_disabled":false,"rental_uris":{"android":"levelo://app?vid=d42b59cb-0784-4ac2-915e-442f4f731589","ios":"levelo://app?vid=d42b59cb-0784-4ac2-915e-442f4f731589"},"vehicle_type_id":"4","last_reported":1732108769,"current_range_meters":24800,"station_id":"ce4bgup2rcd13ifvqcn0","pricing_plan_id":"cebpf4jnsgd1na2vs0mg"},{"bike_id":"a51d23a2-24dd-4073-a27b-f01da7d31255","system_id":"levelo_inurba_marseille","lat":43.28422,"lon":5.34978,"is_reserved":false,"is_disabled":false,"rental_uris":{"android":"levelo://app?vid=a51d23a2-24dd-4073-a27b-f01da7d31255","ios":"levelo://app?vid=a51d23a2-24dd-4073-a27b-f01da7d31255"},"vehicle_type_id":"4","last_reported":1732108769,"current_range_meters":27200,"station_id":"ce4bhbh2rcd13ifvqepg","pricing_plan_id":"cebpf4jnsgd1na2vs0mg"},{"bike_id":"a1cf6f06-44aa-4bc8-9eb2-8055a5e207a9","system_id":"levelo_inurba_marseille","lat":43.32482,"lon":5.36564,"is_reserved":false,"is_disabled":false,"rental_uris":{"android":"levelo://app?vid=a1cf6f06-44aa-4bc8-9eb2-8055a5e207a9","ios":"levelo://app?vid=a1cf6f06-44aa-4bc8-9eb2-8055a5e207a9"},"vehicle_type_id":"4","last_reported":1732108769,"current_range_meters":39200,"station_id":"ce4bhs12rcd13ifvqhvg","pricing_plan_id":"cebpf4jnsgd1na2vs0mg"},{"bike_id":"98b32e58-9186-4741-afff-13e77a09e04c","system_id":"levelo_inurba_marseille","lat":43.25088,"lon":5.39522,"is_reserved":false,"is_disabled":false,"rental_uris":{"android":"levelo://app?vid=98b32e58-9186-4741-afff-13e77a09e04c","ios":"levelo://app?vid=98b32e58-9186-4741-afff-13e77a09e04c"},"vehicle_type_id":"4","last_reported":1732108769,"current_range_meters":27200,"station_id":"ce4bhm12rcd13ifvqgkg","pricing_plan_id":"cebpf4jnsgd1na2vs0mg"},{"bike_id":"abe517e9-8b8d-4e44-b92c-a579cc6ba316","system_id":"levelo_inurba_marseille","lat":43.29972,"lon":5.37171,"is_reserved":false,"is_disabled":false,"rental_uris":{"android":"levelo://app?vid=abe517e9-8b8d-4e44-b92c-a579cc6ba316","ios":"levelo://app?vid=abe517e9-8b8d-4e44-b92c-a579cc6ba316"},"vehicle_type_id":"4","last_reported":1732108769,"current_range_meters":24000,"station_id":"ce4bgr92rcd13ifvqc7g","pricing_plan_id":"cebpf4jnsgd1na2vs0mg"},{"bike_id":"7bec47bd-edd4-4415-924c-dbdf57e3d376","system_id":"levelo_inurba_marseille","lat":43.31353,"lon":5.36708,"is_reserved":false,"is_disabled":false,"rental_uris":{"android":"levelo://app?vid=7bec47bd-edd4-4415-924c-dbdf57e3d376","ios":"levelo://app?vid=7bec47bd-edd4-4415-924c-dbdf57e3d376"},"vehicle_type_id":"4","last_reported":1732108769,"current_range_meters":38800,"station_id":"ce4bgr92rcd13ifvqc6g","pricing_plan_id":"cebpf4jnsgd1na2vs0mg"},{"bike_id":"bd3d0ea8-7d56-4858-8e5d-b32a9764d3b4","system_id":"levelo_inurba_marseille","lat":43.30153,"lon":5.38075,"is_reserved":false,"is_disabled":true,"rental_uris":{"android":"levelo://app?vid=bd3d0ea8-7d56-4858-8e5d-b32a9764d3b4","ios":"levelo://app?vid=bd3d0ea8-7d56-4858-8e5d-b32a9764d3b4"},"vehicle_type_id":"4","last_reported":1732108769,"current_range_meters":24000,"station_id":"ce4bgjp2rcd13ifvqbh0","pricing_plan_id":"cebpf4jnsgd1na2vs0mg"},{"bike_id":"36664ebb-4ca8-4637-b42b-d46c14de65dd","system_id":"levelo_inurba_marseille","lat":43.30609,"lon":5.3723,"is_reserved":false,"is_disabled":false,"rental_uris":{"android":"levelo://app?vid=36664ebb-4ca8-4637-b42b-d46c14de65dd","ios":"levelo://app?vid=36664ebb-4ca8-4637-b42b-d46c14de65dd"},"vehicle_type_id":"4","last_reported":1732108769,"current_range_meters":38800,"station_id":"ce4bgqh2rcd13ifvqc4g","pricing_plan_id":"cebpf4jnsgd1na2vs0mg"},{"bike_id":"144b7443-439b-4eb3-a8bb-304f595a9422","system_id":"levelo_inurba_marseille","lat":43.28,"lon":5.40016,"is_reserved":false,"is_disabled":false,"rental_uris":{"android":"levelo://app?vid=144b7443-439b-4eb3-a8bb-304f595a9422","ios":"levelo://app?vid=144b7443-439b-4eb3-a8bb-304f595a9422"},"vehicle_type_id":"4","last_reported":1732108769,"current_range_meters":39200,"station_id":"ce4bho92rcd13ifvqh4g","pricing_plan_id":"cebpf4jnsgd1na2vs0mg"},{"bike_id":"05725ad4-e1a4-4023-9f02-37bc3fcd6926","system_id":"levelo_inurba_marseille","lat":43.23151,"lon":5.43705,"is_reserved":false,"is_disabled":false,"rental_uris":{"android":"levelo://app?vid=05725ad4-e1a4-4023-9f02-37bc3fcd6926","ios":"levelo://app?vid=05725ad4-e1a4-4023-9f02-37bc3fcd6926"},"vehicle_type_id":"4","last_reported":1732108769,"current_range_meters":38800,"station_id":"ce4bhmp2rcd13ifvqgog","pricing_plan_id":"cebpf4jnsgd1na2vs0mg"},{"bike_id":"e3448c24-9aa6-4b64-8bc3-4b72efc34296","system_id":"levelo_inurba_marseille","lat":43.2797,"lon":5.38742,"is_reserved":false,"is_disabled":false,"rental_uris":{"android":"levelo://app?vid=e3448c24-9aa6-4b64-8bc3-4b72efc34296","ios":"levelo://app?vid=e3448c24-9aa6-4b64-8bc3-4b72efc34296"},"vehicle_type_id":"4","last_reported":1732108769,"current_range_meters":28000,"station_id":"ce4bhg12rcd13ifvqf80","pricing_plan_id":"cebpf4jnsgd1na2vs0mg"},{"bike_id":"c8cfc3df-530d-4c07-8631-f9e7aa1ea148","system_id":"levelo_inurba_marseille","lat":43.3054,"lon":5.36706,"is_reserved":false,"is_disabled":false,"rental_uris":{"android":"levelo://app?vid=c8cfc3df-530d-4c07-8631-f9e7aa1ea148","ios":"levelo://app?vid=c8cfc3df-530d-4c07-8631-f9e7aa1ea148"},"vehicle_type_id":"4","last_reported":1732108769,"current_range_meters":19200,"station_id":"ce4bgrp2rcd13ifvqc9g","pricing_plan_id":"cebpf4jnsgd1na2vs0mg"},{"bike_id":"07aefd15-a845-40e1-b682-f0d6059f2cb6","system_id":"levelo_inurba_marseille","lat":43.319935,"lon":5.38152,"is_reserved":false,"is_disabled":false,"rental_uris":{"android":"levelo://app?vid=07aefd15-a845-40e1-b682-f0d6059f2cb6","ios":"levelo://app?vid=07aefd15-a845-40e1-b682-f0d6059f2cb6"},"vehicle_type_id":"4","last_reported":1732108769,"current_range_meters":39200,"station_id":"ce4bhr12rcd13ifvqhpg","pricing_plan_id":"cebpf4jnsgd1na2vs0mg"},{"bike_id":"f541cc0c-1f03-480f-a60b-91395ec01ae7","system_id":"levelo_inurba_marseille","lat":43.24546,"lon":5.39521,"is_reserved":false,"is_disabled":false,"rental_uris":{"android":"levelo://app?vid=f541cc0c-1f03-480f-a60b-91395ec01ae7","ios":"levelo://app?vid=f541cc0c-1f03-480f-a60b-91395ec01ae7"},"vehicle_type_id":"4","last_reported":1732108769,"current_range_meters":12800,"station_id":"ce4bhlp2rcd13ifvqgjg","pricing_plan_id":"cebpf4jnsgd1na2vs0mg"},{"bike_id":"5b5f4604-3a82-4584-a08b-4bc79bf3d12b","system_id":"levelo_inurba_marseille","lat":43.30915,"lon":5.37163,"is_reserved":false,"is_disabled":false,"rental_uris":{"android":"levelo://app?vid=5b5f4604-3a82-4584-a08b-4bc79bf3d12b","ios":"levelo://app?vid=5b5f4604-3a82-4584-a08b-4bc79bf3d12b"},"vehicle_type_id":"4","last_reported":1732108769,"current_range_meters":14400,"station_id":"ce4bguh2rcd13ifvqckg","pricing_plan_id":"cebpf4jnsgd1na2vs0mg"},{"bike_id":"4be42907-a17d-4528-aadb-4ee1624a0554","system_id":"levelo_inurba_marseille","lat":43.28036,"lon":5.36956,"is_reserved":false,"is_disabled":false,"rental_uris":{"android":"levelo://app?vid=4be42907-a17d-4528-aadb-4ee1624a0554","ios":"levelo://app?vid=4be42907-a17d-4528-aadb-4ee1624a0554"},"vehicle_type_id":"4","last_reported":1732108769,"current_range_meters":39200,"station_id":"ce4bha12rcd13ifvqef0","pricing_plan_id":"cebpf4jnsgd1na2vs0mg"},{"bike_id":"e711ac68-767c-4cce-bdf2-584351be16e7","system_id":"levelo_inurba_marseille","lat":43.30192,"lon":5.36625,"is_reserved":false,"is_disabled":false,"rental_uris":{"android":"levelo://app?vid=e711ac68-767c-4cce-bdf2-584351be16e7","ios":"levelo://app?vid=e711ac68-767c-4cce-bdf2-584351be16e7"},"vehicle_type_id":"4","last_reported":1732108769,"current_range_meters":31200,"station_id":"ce4bgrh2rcd13ifvqc8g","pricing_plan_id":"cebpf4jnsgd1na2vs0mg"},{"bike_id":"f5f3f8ee-2210-4aed-bc82-7ad396cc3236","system_id":"levelo_inurba_marseille","lat":43.3057,"lon":5.36506,"is_reserved":false,"is_disabled":false,"rental_uris":{"android":"levelo://app?vid=f5f3f8ee-2210-4aed-bc82-7ad396cc3236","ios":"levelo://app?vid=f5f3f8ee-2210-4aed-bc82-7ad396cc3236"},"vehicle_type_id":"4","last_reported":1732108769,"current_range_meters":38800,"station_id":"ce4bgs12rcd13ifvqcag","pricing_plan_id":"cebpf4jnsgd1na2vs0mg"},{"bike_id":"efaa20f7-d2fb-4778-9ca3-b17e9193d440","system_id":"levelo_inurba_marseille","lat":43.337134,"lon":5.391686,"is_reserved":false,"is_disabled":false,"rental_uris":{"android":"levelo://app?vid=efaa20f7-d2fb-4778-9ca3-b17e9193d440","ios":"levelo://app?vid=efaa20f7-d2fb-4778-9ca3-b17e9193d440"},"vehicle_type_id":"4","last_reported":1732108769,"current_range_meters":34800,"station_id":"ce4bhr92rcd13ifvqhsg","pricing_plan_id":"cebpf4jnsgd1na2vs0mg"},{"bike_id":"4e766829-d577-49a3-822d-12e363345a1c","system_id":"levelo_inurba_marseille","lat":43.28965,"lon":5.37834,"is_reserved":false,"is_disabled":false,"rental_uris":{"android":"levelo://app?vid=4e766829-d577-49a3-822d-12e363345a1c","ios":"levelo://app?vid=4e766829-d577-49a3-822d-12e363345a1c"},"vehicle_type_id":"4","last_reported":1732108769,"current_range_meters":35600,"station_id":"ce4bh9p2rcd13ifvqed0","pricing_plan_id":"cebpf4jnsgd1na2vs0mg"},{"bike_id":"cbb19e09-aa20-4763-8e71-dc123172ec07","system_id":"levelo_inurba_marseille","lat":43.23152,"lon":5.4371,"is_reserved":false,"is_disabled":true,"rental_uris":{"android":"levelo://app?vid=cbb19e09-aa20-4763-8e71-dc123172ec07","ios":"levelo://app?vid=cbb19e09-aa20-4763-8e71-dc123172ec07"},"vehicle_type_id":"4","last_reported":1732108769,"current_range_meters":39200,"station_id":"ce4bhmp2rcd13ifvqgog","pricing_plan_id":"cebpf4jnsgd1na2vs0mg"},{"bike_id":"46162e90-0c0b-4afa-bc7f-edaf985c89d4","system_id":"levelo_inurba_marseille","lat":43.32036,"lon":5.41576,"is_reserved":false,"is_disabled":false,"rental_uris":{"android":"levelo://app?vid=46162e90-0c0b-4afa-bc7f-edaf985c89d4","ios":"levelo://app?vid=46162e90-0c0b-4afa-bc7f-edaf985c89d4"},"vehicle_type_id":"4","last_reported":1732108769,"current_range_meters":36400,"station_id":"ce4bhq92rcd13ifvqhkg","pricing_plan_id":"cebpf4jnsgd1na2vs0mg"},{"bike_id":"028e5427-36e2-49e1-b3db-260058fffb58","system_id":"levelo_inurba_marseille","lat":43.25581,"lon":5.38246,"is_reserved":false,"is_disabled":false,"rental_uris":{"android":"levelo://app?vid=028e5427-36e2-49e1-b3db-260058fffb58","ios":"levelo://app?vid=028e5427-36e2-49e1-b3db-260058fffb58"},"vehicle_type_id":"4","last_reported":1732108769,"current_range_meters":28000,"station_id":"ce4bhih2rcd13ifvqfs0","pricing_plan_id":"cebpf4jnsgd1na2vs0mg"},{"bike_id":"43f7df8b-619f-49d5-ba5a-a21954f27463","system_id":"levelo_inurba_marseille","lat":43.26944,"lon":5.40252,"is_reserved":false,"is_disabled":false,"rental_uris":{"android":"levelo://app?vid=43f7df8b-619f-49d5-ba5a-a21954f27463","ios":"levelo://app?vid=43f7df8b-619f-49d5-ba5a-a21954f27463"},"vehicle_type_id":"4","last_reported":1732108769,"current_range_meters":25200,"station_id":"cjm6bp8fraef2m0cb0m0","pricing_plan_id":"cebpf4jnsgd1na2vs0mg"},{"bike_id":"8a4657ff-4817-4886-8b7f-25396ab18f65","system_id":"levelo_inurba_marseille","lat":43.31231,"lon":5.36869,"is_reserved":false,"is_disabled":false,"rental_uris":{"android":"levelo://app?vid=8a4657ff-4817-4886-8b7f-25396ab18f65","ios":"levelo://app?vid=8a4657ff-4817-4886-8b7f-25396ab18f65"},"vehicle_type_id":"4","last_reported":1732108769,"current_range_meters":13600,"station_id":"ce4bgl92rcd13ifvqbq0","pricing_plan_id":"cebpf4jnsgd1na2vs0mg"},{"bike_id":"3f3cb42c-99f5-426c-b854-ceafda2d634f","system_id":"levelo_inurba_marseille","lat":43.2984,"lon":5.36267,"is_reserved":false,"is_disabled":false,"rental_uris":{"android":"levelo://app?vid=3f3cb42c-99f5-426c-b854-ceafda2d634f","ios":"levelo://app?vid=3f3cb42c-99f5-426c-b854-ceafda2d634f"},"vehicle_type_id":"4","last_reported":1732108769,"current_range_meters":16800,"station_id":"ce4bgpp2rcd13ifvqc3g","pricing_plan_id":"cebpf4jnsgd1na2vs0mg"},{"bike_id":"9e5155cc-9158-47b5-bb3f-3254ca5454c2","system_id":"levelo_inurba_marseille","lat":43.31326,"lon":5.36747,"is_reserved":false,"is_disabled":false,"rental_uris":{"android":"levelo://app?vid=9e5155cc-9158-47b5-bb3f-3254ca5454c2","ios":"levelo://app?vid=9e5155cc-9158-47b5-bb3f-3254ca5454c2"},"vehicle_type_id":"4","last_reported":1732108769,"current_range_meters":39200,"station_id":"ce4bgr92rcd13ifvqc6g","pricing_plan_id":"cebpf4jnsgd1na2vs0mg"},{"bike_id":"401c2a19-8b43-4a12-92ed-f8e71f230e4b","system_id":"levelo_inurba_marseille","lat":43.30157,"lon":5.38083,"is_reserved":false,"is_disabled":false,"rental_uris":{"android":"levelo://app?vid=401c2a19-8b43-4a12-92ed-f8e71f230e4b","ios":"levelo://app?vid=401c2a19-8b43-4a12-92ed-f8e71f230e4b"},"vehicle_type_id":"4","last_reported":1732108769,"current_range_meters":30400,"station_id":"ce4bgjp2rcd13ifvqbh0","pricing_plan_id":"cebpf4jnsgd1na2vs0mg"},{"bike_id":"d844fd78-dab2-432a-a1c7-259ceea58301","system_id":"levelo_inurba_marseille","lat":43.29197,"lon":5.35809,"is_reserved":false,"is_disabled":false,"rental_uris":{"android":"levelo://app?vid=d844fd78-dab2-432a-a1c7-259ceea58301","ios":"levelo://app?vid=d844fd78-dab2-432a-a1c7-259ceea58301"},"vehicle_type_id":"4","last_reported":1732108769,"current_range_meters":38800,"station_id":"ce4bhb12rcd13ifvqel0","pricing_plan_id":"cebpf4jnsgd1na2vs0mg"},{"bike_id":"41b66025-5082-421d-922c-552de41f1f1b","system_id":"levelo_inurba_marseille","lat":43.33795,"lon":5.37474,"is_reserved":false,"is_disabled":false,"rental_uris":{"android":"levelo://app?vid=41b66025-5082-421d-922c-552de41f1f1b","ios":"levelo://app?vid=41b66025-5082-421d-922c-552de41f1f1b"},"vehicle_type_id":"4","last_reported":1732108769,"current_range_meters":36000,"station_id":"","pricing_plan_id":"cebpf4jnsgd1na2vs0mg"},{"bike_id":"ae28f309-442b-481a-b36d-497f21a8e6e0","system_id":"levelo_inurba_marseille","lat":43.31759,"lon":5.39017,"is_reserved":false,"is_disabled":false,"rental_uris":{"android":"levelo://app?vid=ae28f309-442b-481a-b36d-497f21a8e6e0","ios":"levelo://app?vid=ae28f309-442b-481a-b36d-497f21a8e6e0"},"vehicle_type_id":"4","last_reported":1732108769,"current_range_meters":38800,"station_id":"ce4bhqp2rcd13ifvqhng","pricing_plan_id":"cebpf4jnsgd1na2vs0mg"},{"bike_id":"12fdd9ff-e807-4006-8235-7441deeb81b9","system_id":"levelo_inurba_marseille","lat":43.28153,"lon":5.42645,"is_reserved":false,"is_disabled":false,"rental_uris":{"android":"levelo://app?vid=12fdd9ff-e807-4006-8235-7441deeb81b9","ios":"levelo://app?vid=12fdd9ff-e807-4006-8235-7441deeb81b9"},"vehicle_type_id":"4","last_reported":1732108769,"current_range_meters":9200,"station_id":"ce4bhnh2rcd13ifvqgug","pricing_plan_id":"cebpf4jnsgd1na2vs0mg"},{"bike_id":"7e355d9d-3bbe-4a9a-99a2-5cff40267267","system_id":"levelo_inurba_marseille","lat":43.32661,"lon":5.40995,"is_reserved":false,"is_disabled":false,"rental_uris":{"android":"levelo://app?vid=7e355d9d-3bbe-4a9a-99a2-5cff40267267","ios":"levelo://app?vid=7e355d9d-3bbe-4a9a-99a2-5cff40267267"},"vehicle_type_id":"4","last_reported":1732108769,"current_range_meters":17200,"station_id":"ce4bhpp2rcd13ifvqhgg","pricing_plan_id":"cebpf4jnsgd1na2vs0mg"},{"bike_id":"b6a5dd45-3299-4794-bb3d-6c5c2b5a78a1","system_id":"levelo_inurba_marseille","lat":43.33023,"lon":5.39041,"is_reserved":false,"is_disabled":false,"rental_uris":{"android":"levelo://app?vid=b6a5dd45-3299-4794-bb3d-6c5c2b5a78a1","ios":"levelo://app?vid=b6a5dd45-3299-4794-bb3d-6c5c2b5a78a1"},"vehicle_type_id":"4","last_reported":1732108769,"current_range_meters":38000,"station_id":"ce4bhr92rcd13ifvqhrg","pricing_plan_id":"cebpf4jnsgd1na2vs0mg"},{"bike_id":"433ee41d-7427-4f2a-94aa-6f35decac4c7","system_id":"levelo_inurba_marseille","lat":43.2603,"lon":5.37547,"is_reserved":false,"is_disabled":false,"rental_uris":{"android":"levelo://app?vid=433ee41d-7427-4f2a-94aa-6f35decac4c7","ios":"levelo://app?vid=433ee41d-7427-4f2a-94aa-6f35decac4c7"},"vehicle_type_id":"4","last_reported":1732108769,"current_range_meters":37600,"station_id":"ce4bhgh2rcd13ifvqfa0","pricing_plan_id":"cebpf4jnsgd1na2vs0mg"},{"bike_id":"422724e5-20b6-4c82-99a6-14994c43927d","system_id":"levelo_inurba_marseille","lat":43.29003,"lon":5.35608,"is_reserved":false,"is_disabled":false,"rental_uris":{"android":"levelo://app?vid=422724e5-20b6-4c82-99a6-14994c43927d","ios":"levelo://app?vid=422724e5-20b6-4c82-99a6-14994c43927d"},"vehicle_type_id":"4","last_reported":1732108769,"current_range_meters":38800,"station_id":"ce4bhb92rcd13ifvqen0","pricing_plan_id":"cebpf4jnsgd1na2vs0mg"},{"bike_id":"084b2ba3-8231-409c-9e1f-fb7dd13211df","system_id":"levelo_inurba_marseille","lat":43.26679,"lon":5.38274,"is_reserved":false,"is_disabled":false,"rental_uris":{"android":"levelo://app?vid=084b2ba3-8231-409c-9e1f-fb7dd13211df","ios":"levelo://app?vid=084b2ba3-8231-409c-9e1f-fb7dd13211df"},"vehicle_type_id":"4","last_reported":1732108769,"current_range_meters":18800,"station_id":"ce4bhg92rcd13ifvqf90","pricing_plan_id":"cebpf4jnsgd1na2vs0mg"},{"bike_id":"7309cb26-82da-4555-a6c1-cf843fdb9da0","system_id":"levelo_inurba_marseille","lat":43.31883,"lon":5.40735,"is_reserved":false,"is_disabled":false,"rental_uris":{"android":"levelo://app?vid=7309cb26-82da-4555-a6c1-cf843fdb9da0","ios":"levelo://app?vid=7309cb26-82da-4555-a6c1-cf843fdb9da0"},"vehicle_type_id":"4","last_reported":1732108769,"current_range_meters":38800,"station_id":"ce4bhq12rcd13ifvqhig","pricing_plan_id":"cebpf4jnsgd1na2vs0mg"},{"bike_id":"a370ddc1-3beb-4a4a-8d93-6fc4cc97099f","system_id":"levelo_inurba_marseille","lat":43.23141,"lon":5.43712,"is_reserved":false,"is_disabled":false,"rental_uris":{"android":"levelo://app?vid=a370ddc1-3beb-4a4a-8d93-6fc4cc97099f","ios":"levelo://app?vid=a370ddc1-3beb-4a4a-8d93-6fc4cc97099f"},"vehicle_type_id":"4","last_reported":1732108769,"current_range_meters":23200,"station_id":"ce4bhmp2rcd13ifvqgog","pricing_plan_id":"cebpf4jnsgd1na2vs0mg"},{"bike_id":"0b067f3c-e55c-4de2-897c-3d262d3f1f7e","system_id":"levelo_inurba_marseille","lat":43.31331,"lon":5.39685,"is_reserved":false,"is_disabled":false,"rental_uris":{"android":"levelo://app?vid=0b067f3c-e55c-4de2-897c-3d262d3f1f7e","ios":"levelo://app?vid=0b067f3c-e55c-4de2-897c-3d262d3f1f7e"},"vehicle_type_id":"4","last_reported":1732108769,"current_range_meters":38000,"station_id":"ce4bgvp2rcd13ifvqcu0","pricing_plan_id":"cebpf4jnsgd1na2vs0mg"},{"bike_id":"0227366f-4b96-4ec6-b83a-f587254b2af6","system_id":"levelo_inurba_marseille","lat":43.31753,"lon":5.39031,"is_reserved":false,"is_disabled":false,"rental_uris":{"android":"levelo://app?vid=0227366f-4b96-4ec6-b83a-f587254b2af6","ios":"levelo://app?vid=0227366f-4b96-4ec6-b83a-f587254b2af6"},"vehicle_type_id":"4","last_reported":1732108769,"current_range_meters":20800,"station_id":"ce4bhqp2rcd13ifvqhng","pricing_plan_id":"cebpf4jnsgd1na2vs0mg"},{"bike_id":"44f1c56e-9ee5-48c3-9f67-5ed57fbc1b5d","system_id":"levelo_inurba_marseille","lat":43.25826,"lon":5.39427,"is_reserved":false,"is_disabled":false,"rental_uris":{"android":"levelo://app?vid=44f1c56e-9ee5-48c3-9f67-5ed57fbc1b5d","ios":"levelo://app?vid=44f1c56e-9ee5-48c3-9f67-5ed57fbc1b5d"},"vehicle_type_id":"4","last_reported":1732108769,"current_range_meters":31200,"station_id":"ce4bhip2rcd13ifvqft0","pricing_plan_id":"cebpf4jnsgd1na2vs0mg"},{"bike_id":"e5951ee3-4a5a-4ebb-b469-096c5188dfa3","system_id":"levelo_inurba_marseille","lat":43.23191,"lon":5.35561,"is_reserved":false,"is_disabled":true,"rental_uris":{"android":"levelo://app?vid=e5951ee3-4a5a-4ebb-b469-096c5188dfa3","ios":"levelo://app?vid=e5951ee3-4a5a-4ebb-b469-096c5188dfa3"},"vehicle_type_id":"4","last_reported":1732108769,"current_range_meters":0,"station_id":"ce4bhu92rcd13ifvqi70","pricing_plan_id":"cebpf4jnsgd1na2vs0mg"},{"bike_id":"66784a2d-07a2-4fa4-bc4b-54416a63e78d","system_id":"levelo_inurba_marseille","lat":43.30148,"lon":5.38085,"is_reserved":false,"is_disabled":false,"rental_uris":{"android":"levelo://app?vid=66784a2d-07a2-4fa4-bc4b-54416a63e78d","ios":"levelo://app?vid=66784a2d-07a2-4fa4-bc4b-54416a63e78d"},"vehicle_type_id":"4","last_reported":1732108769,"current_range_meters":18800,"station_id":"ce4bgjp2rcd13ifvqbh0","pricing_plan_id":"cebpf4jnsgd1na2vs0mg"},{"bike_id":"b2f6b9cf-69db-40ab-8230-689c41a2c16c","system_id":"levelo_inurba_marseille","lat":43.24166,"lon":5.36393,"is_reserved":false,"is_disabled":false,"rental_uris":{"android":"levelo://app?vid=b2f6b9cf-69db-40ab-8230-689c41a2c16c","ios":"levelo://app?vid=b2f6b9cf-69db-40ab-8230-689c41a2c16c"},"vehicle_type_id":"4","last_reported":1732108769,"current_range_meters":37600,"station_id":"cpo36qri1sfpv3e86is0","pricing_plan_id":"cebpf4jnsgd1na2vs0mg"},{"bike_id":"b8ccf5c1-5ac6-47e7-b7ff-56c39cc2dd57","system_id":"levelo_inurba_marseille","lat":43.33606,"lon":5.41033,"is_reserved":false,"is_disabled":false,"rental_uris":{"android":"levelo://app?vid=b8ccf5c1-5ac6-47e7-b7ff-56c39cc2dd57","ios":"levelo://app?vid=b8ccf5c1-5ac6-47e7-b7ff-56c39cc2dd57"},"vehicle_type_id":"4","last_reported":1732108769,"current_range_meters":12800,"station_id":"ce4bhqh2rcd13ifvqhmg","pricing_plan_id":"cebpf4jnsgd1na2vs0mg"},{"bike_id":"7552fdf6-68b4-42db-aad1-86f289198bda","system_id":"levelo_inurba_marseille","lat":43.26547,"lon":5.37292,"is_reserved":false,"is_disabled":false,"rental_uris":{"android":"levelo://app?vid=7552fdf6-68b4-42db-aad1-86f289198bda","ios":"levelo://app?vid=7552fdf6-68b4-42db-aad1-86f289198bda"},"vehicle_type_id":"4","last_reported":1732108769,"current_range_meters":36000,"station_id":"ce4bhg12rcd13ifvqf70","pricing_plan_id":"cebpf4jnsgd1na2vs0mg"},{"bike_id":"9c2f2764-6c98-4600-8b7b-4a479e36ad6f","system_id":"levelo_inurba_marseille","lat":43.28672,"lon":5.36352,"is_reserved":false,"is_disabled":false,"rental_uris":{"android":"levelo://app?vid=9c2f2764-6c98-4600-8b7b-4a479e36ad6f","ios":"levelo://app?vid=9c2f2764-6c98-4600-8b7b-4a479e36ad6f"},"vehicle_type_id":"4","last_reported":1732108769,"current_range_meters":38800,"station_id":"ce4bhah2rcd13ifvqej0","pricing_plan_id":"cebpf4jnsgd1na2vs0mg"},{"bike_id":"42631039-a1b1-42c3-96cb-261ddb2b0ee4","system_id":"levelo_inurba_marseille","lat":43.30183,"lon":5.36615,"is_reserved":false,"is_disabled":false,"rental_uris":{"android":"levelo://app?vid=42631039-a1b1-42c3-96cb-261ddb2b0ee4","ios":"levelo://app?vid=42631039-a1b1-42c3-96cb-261ddb2b0ee4"},"vehicle_type_id":"4","last_reported":1732108769,"current_range_meters":38800,"station_id":"ce4bgrh2rcd13ifvqc8g","pricing_plan_id":"cebpf4jnsgd1na2vs0mg"},{"bike_id":"8a857686-e3d3-4f6a-b605-76be15bc9a20","system_id":"levelo_inurba_marseille","lat":43.295048,"lon":5.374711,"is_reserved":false,"is_disabled":false,"rental_uris":{"android":"levelo://app?vid=8a857686-e3d3-4f6a-b605-76be15bc9a20","ios":"levelo://app?vid=8a857686-e3d3-4f6a-b605-76be15bc9a20"},"vehicle_type_id":"4","last_reported":1732108769,"current_range_meters":7200,"station_id":"ce4bgkp2rcd13ifvqbmg","pricing_plan_id":"cebpf4jnsgd1na2vs0mg"},{"bike_id":"da118503-6ab7-4c94-98bc-2b63accd50d2","system_id":"levelo_inurba_marseille","lat":43.31083,"lon":5.42433,"is_reserved":false,"is_disabled":false,"rental_uris":{"android":"levelo://app?vid=da118503-6ab7-4c94-98bc-2b63accd50d2","ios":"levelo://app?vid=da118503-6ab7-4c94-98bc-2b63accd50d2"},"vehicle_type_id":"4","last_reported":1732108769,"current_range_meters":38800,"station_id":"ce4bhp92rcd13ifvqhag","pricing_plan_id":"cebpf4jnsgd1na2vs0mg"},{"bike_id":"f55181d4-2053-40e2-9cda-06227a4b9bdf","system_id":"levelo_inurba_marseille","lat":43.32478,"lon":5.36554,"is_reserved":false,"is_disabled":false,"rental_uris":{"android":"levelo://app?vid=f55181d4-2053-40e2-9cda-06227a4b9bdf","ios":"levelo://app?vid=f55181d4-2053-40e2-9cda-06227a4b9bdf"},"vehicle_type_id":"4","last_reported":1732108769,"current_range_meters":38400,"station_id":"ce4bhs12rcd13ifvqhvg","pricing_plan_id":"cebpf4jnsgd1na2vs0mg"},{"bike_id":"036145f2-25f3-431d-8452-bf74254a5141","system_id":"levelo_inurba_marseille","lat":43.31756,"lon":5.39012,"is_reserved":false,"is_disabled":false,"rental_uris":{"android":"levelo://app?vid=036145f2-25f3-431d-8452-bf74254a5141","ios":"levelo://app?vid=036145f2-25f3-431d-8452-bf74254a5141"},"vehicle_type_id":"4","last_reported":1732108769,"current_range_meters":37600,"station_id":"ce4bhqp2rcd13ifvqhng","pricing_plan_id":"cebpf4jnsgd1na2vs0mg"},{"bike_id":"26e78f2d-4344-400f-8f43-41ed73a48f30","system_id":"levelo_inurba_marseille","lat":43.27072,"lon":5.42282,"is_reserved":false,"is_disabled":false,"rental_uris":{"android":"levelo://app?vid=26e78f2d-4344-400f-8f43-41ed73a48f30","ios":"levelo://app?vid=26e78f2d-4344-400f-8f43-41ed73a48f30"},"vehicle_type_id":"4","last_reported":1732108769,"current_range_meters":16000,"station_id":"ce4bhk92rcd13ifvqgb0","pricing_plan_id":"cebpf4jnsgd1na2vs0mg"},{"bike_id":"a899e6bf-3bb7-4cf3-b160-88a650208135","system_id":"levelo_inurba_marseille","lat":43.31176,"lon":5.38726,"is_reserved":false,"is_disabled":false,"rental_uris":{"android":"levelo://app?vid=a899e6bf-3bb7-4cf3-b160-88a650208135","ios":"levelo://app?vid=a899e6bf-3bb7-4cf3-b160-88a650208135"},"vehicle_type_id":"4","last_reported":1732108769,"current_range_meters":12400,"station_id":"ce4bgv12rcd13ifvqcp0","pricing_plan_id":"cebpf4jnsgd1na2vs0mg"},{"bike_id":"4c8ed69d-903a-47a6-a719-b8a1ba33ec6e","system_id":"levelo_inurba_marseille","lat":43.260323,"lon":5.375423,"is_reserved":false,"is_disabled":false,"rental_uris":{"android":"levelo://app?vid=4c8ed69d-903a-47a6-a719-b8a1ba33ec6e","ios":"levelo://app?vid=4c8ed69d-903a-47a6-a719-b8a1ba33ec6e"},"vehicle_type_id":"4","last_reported":1732108769,"current_range_meters":24000,"station_id":"ce4bhgh2rcd13ifvqfa0","pricing_plan_id":"cebpf4jnsgd1na2vs0mg"},{"bike_id":"3c7e994c-2d4e-41e5-8385-d2e84dedef54","system_id":"levelo_inurba_marseille","lat":43.27571,"lon":5.38442,"is_reserved":false,"is_disabled":false,"rental_uris":{"android":"levelo://app?vid=3c7e994c-2d4e-41e5-8385-d2e84dedef54","ios":"levelo://app?vid=3c7e994c-2d4e-41e5-8385-d2e84dedef54"},"vehicle_type_id":"4","last_reported":1732108769,"current_range_meters":37600,"station_id":"ce4bhh92rcd13ifvqfi0","pricing_plan_id":"cebpf4jnsgd1na2vs0mg"},{"bike_id":"18375270-5c96-4148-9480-b075066f6b66","system_id":"levelo_inurba_marseille","lat":43.30547,"lon":5.36533,"is_reserved":false,"is_disabled":true,"rental_uris":{"android":"levelo://app?vid=18375270-5c96-4148-9480-b075066f6b66","ios":"levelo://app?vid=18375270-5c96-4148-9480-b075066f6b66"},"vehicle_type_id":"4","last_reported":1732108769,"current_range_meters":35600,"station_id":"ce4bgs12rcd13ifvqcag","pricing_plan_id":"cebpf4jnsgd1na2vs0mg"},{"bike_id":"a7adcab0-3ff0-47f5-9771-4c26f4b29439","system_id":"levelo_inurba_marseille","lat":43.27809,"lon":5.40714,"is_reserved":false,"is_disabled":false,"rental_uris":{"android":"levelo://app?vid=a7adcab0-3ff0-47f5-9771-4c26f4b29439","ios":"levelo://app?vid=a7adcab0-3ff0-47f5-9771-4c26f4b29439"},"vehicle_type_id":"4","last_reported":1732108769,"current_range_meters":9600,"station_id":"ce4bhnh2rcd13ifvqgtg","pricing_plan_id":"cebpf4jnsgd1na2vs0mg"},{"bike_id":"1f6184e6-16e9-423d-b3e0-a3aa386ef26b","system_id":"levelo_inurba_marseille","lat":43.33023,"lon":5.39036,"is_reserved":false,"is_disabled":false,"rental_uris":{"android":"levelo://app?vid=1f6184e6-16e9-423d-b3e0-a3aa386ef26b","ios":"levelo://app?vid=1f6184e6-16e9-423d-b3e0-a3aa386ef26b"},"vehicle_type_id":"4","last_reported":1732108769,"current_range_meters":36400,"station_id":"ce4bhr92rcd13ifvqhrg","pricing_plan_id":"cebpf4jnsgd1na2vs0mg"},{"bike_id":"6d96a83e-2bdc-433e-a321-a75a4600be61","system_id":"levelo_inurba_marseille","lat":43.28952,"lon":5.36411,"is_reserved":false,"is_disabled":false,"rental_uris":{"android":"levelo://app?vid=6d96a83e-2bdc-433e-a321-a75a4600be61","ios":"levelo://app?vid=6d96a83e-2bdc-433e-a321-a75a4600be61"},"vehicle_type_id":"4","last_reported":1732108769,"current_range_meters":2800,"station_id":"ce4bhc92rcd13ifvqetg","pricing_plan_id":"cebpf4jnsgd1na2vs0mg"},{"bike_id":"cde5eb04-35f5-4971-aec4-8004f9b2dcd9","system_id":"levelo_inurba_marseille","lat":43.28271,"lon":5.35069,"is_reserved":false,"is_disabled":true,"rental_uris":{"android":"levelo://app?vid=cde5eb04-35f5-4971-aec4-8004f9b2dcd9","ios":"levelo://app?vid=cde5eb04-35f5-4971-aec4-8004f9b2dcd9"},"vehicle_type_id":"4","last_reported":1732108769,"current_range_meters":0,"station_id":"ce4bhbp2rcd13ifvqerg","pricing_plan_id":"cebpf4jnsgd1na2vs0mg"},{"bike_id":"daf04fcd-c935-4aac-a351-f6674c5ab957","system_id":"levelo_inurba_marseille","lat":43.2603,"lon":5.37546,"is_reserved":false,"is_disabled":false,"rental_uris":{"android":"levelo://app?vid=daf04fcd-c935-4aac-a351-f6674c5ab957","ios":"levelo://app?vid=daf04fcd-c935-4aac-a351-f6674c5ab957"},"vehicle_type_id":"4","last_reported":1732108769,"current_range_meters":25200,"station_id":"ce4bhgh2rcd13ifvqfa0","pricing_plan_id":"cebpf4jnsgd1na2vs0mg"},{"bike_id":"745c81c8-f72f-42a3-97c1-f5402c23afe2","system_id":"levelo_inurba_marseille","lat":43.27965,"lon":5.38716,"is_reserved":false,"is_disabled":true,"rental_uris":{"android":"levelo://app?vid=745c81c8-f72f-42a3-97c1-f5402c23afe2","ios":"levelo://app?vid=745c81c8-f72f-42a3-97c1-f5402c23afe2"},"vehicle_type_id":"4","last_reported":1732108769,"current_range_meters":400,"station_id":"ce4bhg12rcd13ifvqf80","pricing_plan_id":"cebpf4jnsgd1na2vs0mg"},{"bike_id":"dafe288f-6610-42cc-8445-fee21019d8dc","system_id":"levelo_inurba_marseille","lat":43.23152,"lon":5.43714,"is_reserved":false,"is_disabled":false,"rental_uris":{"android":"levelo://app?vid=dafe288f-6610-42cc-8445-fee21019d8dc","ios":"levelo://app?vid=dafe288f-6610-42cc-8445-fee21019d8dc"},"vehicle_type_id":"4","last_reported":1732108769,"current_range_meters":12800,"station_id":"ce4bhmp2rcd13ifvqgog","pricing_plan_id":"cebpf4jnsgd1na2vs0mg"},{"bike_id":"1e32d089-9836-4b1d-b09a-6f77cbbbcbf2","system_id":"levelo_inurba_marseille","lat":43.30908,"lon":5.36861,"is_reserved":false,"is_disabled":false,"rental_uris":{"android":"levelo://app?vid=1e32d089-9836-4b1d-b09a-6f77cbbbcbf2","ios":"levelo://app?vid=1e32d089-9836-4b1d-b09a-6f77cbbbcbf2"},"vehicle_type_id":"4","last_reported":1732108769,"current_range_meters":38800,"station_id":"ce4bgn92rcd13ifvqbvg","pricing_plan_id":"cebpf4jnsgd1na2vs0mg"},{"bike_id":"9249cf24-ba1e-4622-b600-5f0c35133a35","system_id":"levelo_inurba_marseille","lat":43.30181,"lon":5.36626,"is_reserved":false,"is_disabled":false,"rental_uris":{"android":"levelo://app?vid=9249cf24-ba1e-4622-b600-5f0c35133a35","ios":"levelo://app?vid=9249cf24-ba1e-4622-b600-5f0c35133a35"},"vehicle_type_id":"4","last_reported":1732108769,"current_range_meters":34800,"station_id":"ce4bgrh2rcd13ifvqc8g","pricing_plan_id":"cebpf4jnsgd1na2vs0mg"},{"bike_id":"76bd91cd-888e-4c8f-b297-4bdbb7324f23","system_id":"levelo_inurba_marseille","lat":43.29044,"lon":5.39971,"is_reserved":false,"is_disabled":false,"rental_uris":{"android":"levelo://app?vid=76bd91cd-888e-4c8f-b297-4bdbb7324f23","ios":"levelo://app?vid=76bd91cd-888e-4c8f-b297-4bdbb7324f23"},"vehicle_type_id":"4","last_reported":1732108769,"current_range_meters":27200,"station_id":"ce4bh392rcd13ifvqdm0","pricing_plan_id":"cebpf4jnsgd1na2vs0mg"},{"bike_id":"bd0f3ed6-4cba-4f56-9205-c76f2a9cc9c8","system_id":"levelo_inurba_marseille","lat":43.30185,"lon":5.36608,"is_reserved":false,"is_disabled":false,"rental_uris":{"android":"levelo://app?vid=bd0f3ed6-4cba-4f56-9205-c76f2a9cc9c8","ios":"levelo://app?vid=bd0f3ed6-4cba-4f56-9205-c76f2a9cc9c8"},"vehicle_type_id":"4","last_reported":1732108769,"current_range_meters":38800,"station_id":"ce4bgrh2rcd13ifvqc8g","pricing_plan_id":"cebpf4jnsgd1na2vs0mg"},{"bike_id":"c3bc0f64-f384-48a7-9517-04f95522a7e3","system_id":"levelo_inurba_marseille","lat":43.318242,"lon":5.37611,"is_reserved":false,"is_disabled":true,"rental_uris":{"android":"levelo://app?vid=c3bc0f64-f384-48a7-9517-04f95522a7e3","ios":"levelo://app?vid=c3bc0f64-f384-48a7-9517-04f95522a7e3"},"vehicle_type_id":"4","last_reported":1732108769,"current_range_meters":10800,"station_id":"","pricing_plan_id":"cebpf4jnsgd1na2vs0mg"},{"bike_id":"89429ed2-f839-4749-bcb9-3e5230fe3bfb","system_id":"levelo_inurba_marseille","lat":43.3372,"lon":5.39183,"is_reserved":false,"is_disabled":false,"rental_uris":{"android":"levelo://app?vid=89429ed2-f839-4749-bcb9-3e5230fe3bfb","ios":"levelo://app?vid=89429ed2-f839-4749-bcb9-3e5230fe3bfb"},