{"last_updated":1758547313,"ttl":60,"version":"2.2","data":{"bikes":[{"bike_id":"fcb3f6af-c7d4-4ccc-be82-7f951e8865a2","system_id":"levelo_inurba_marseille","lat":43.21174,"lon":5.35028,"is_reserved":false,"is_disabled":false,"rental_uris":{"android":"levelo://app?vid=fcb3f6af-c7d4-4ccc-be82-7f951e8865a2","ios":"levelo://app?vid=fcb3f6af-c7d4-4ccc-be82-7f951e8865a2"},"vehicle_type_id":"4","last_reported":1758547314,"current_range_meters":2800,"station_id":"","pricing_plan_id":"cebpf4jnsgd1na2vs0mg"},{"bike_id":"5b84af94-a4d6-4b46-a63f-085ff5681f73","system_id":"levelo_inurba_marseille","lat":43.21185,"lon":5.35072,"is_reserved":false,"is_disabled":false,"rental_uris":{"android":"levelo://app?vid=5b84af94-a4d6-4b46-a63f-085ff5681f73","ios":"levelo://app?vid=5b84af94-a4d6-4b46-a63f-085ff5681f73"},"vehicle_type_id":"4","last_reported":1758547314,"current_range_meters":2800,"station_id":"st_cvj6sg6p6f1abm77japg","pricing_plan_id":"cebpf4jnsgd1na2vs0mg"},{"bike_id":"c50562ba-d714-4f38-a641-5e0cb170bed4","system_id":"levelo_inurba_marseille","lat":43.30916,"lon":5.36837,"is_reserved":false,"is_disabled":false,"rental_uris":{"android":"levelo://app?vid=c50562ba-d714-4f38-a641-5e0cb170bed4","ios":"levelo://app?vid=c50562ba-d714-4f38-a641-5e0cb170bed4"},"vehicle_type_id":"4","last_reported":1758547314,"current_range_meters":3200,"station_id":"ce4bgn92rcd13ifvqbvg","pricing_plan_id":"cebpf4jnsgd1na2vs0mg"},{"bike_id":"05f70375-bad0-4ab9-82d3-ee61443fef70","system_id":"levelo_inurba_marseille","lat":43.29526,"lon":5.38546,"is_reserved":false,"is_disabled":false,"rental_uris":{"android":"levelo://app?vid=05f70375-bad0-4ab9-82d3-ee61443fef70","ios":"levelo://app?vid=05f70375-bad0-4ab9-82d3-ee61443fef70"},"vehicle_type_id":"4","last_reported":1758547314,"current_range_meters":3200,"station_id":"ce4bgih2rcd13ifvqba0","pricing_plan_id":"cebpf4jnsgd1na2vs0mg"},{"bike_id":"4355c610-d384-40c3-9eed-2026ae698a31","system_id":"levelo_inurba_marseille","lat":43.29548,"lon":5.42289,"is_reserved":false,"is_disabled":false,"rental_uris":{"android":"levelo://app?vid=4355c610-d384-40c3-9eed-2026ae698a31","ios":"levelo://app?vid=4355c610-d384-40c3-9eed-2026ae698a31"},"vehicle_type_id":"4","last_reported":1758547314,"current_range_meters":3200,"station_id":"ce4bhph2rcd13ifvqhdg","pricing_plan_id":"cebpf4jnsgd1na2vs0mg"},{"bike_id":"498a5912-0f62-4603-ac64-fd5d6e1f6992","system_id":"levelo_inurba_marseille","lat":43.2582,"lon":5.39402,"is_reserved":false,"is_disabled":false,"rental_uris":{"android":"levelo://app?vid=498a5912-0f62-4603-ac64-fd5d6e1f6992","ios":"levelo://app?vid=498a5912-0f62-4603-ac64-fd5d6e1f6992"},"vehicle_type_id":"4","last_reported":1758547314,"current_range_meters":3200,"station_id":"ce4bhip2rcd13ifvqft0","pricing_plan_id":"cebpf4jnsgd1na2vs0mg"},{"bike_id":"cfe7c7e6-a996-41d0-9d47-5253f7b4c7c3","system_id":"levelo_inurba_marseille","lat":43.27057,"lon":5.40272,"is_reserved":false,"is_disabled":false,"rental_uris":{"android":"levelo://app?vid=cfe7c7e6-a996-41d0-9d47-5253f7b4c7c3","ios":"levelo://app?vid=cfe7c7e6-a996-41d0-9d47-5253f7b4c7c3"},"vehicle_type_id":"4","last_reported":1758547314,"current_range_meters":3200,"station_id":"ce4bhk92rcd13ifvqgc0","pricing_plan_id":"cebpf4jnsgd1na2vs0mg"},{"bike_id":"8db4579a-cbae-45b6-bd0d-2f13f28dd7df","system_id":"levelo_inurba_marseille","lat":43.307847,"lon":5.381402,"is_reserved":false,"is_disabled":false,"rental_uris":{"android":"levelo://app?vid=8db4579a-cbae-45b6-bd0d-2f13f28dd7df","ios":"levelo://app?vid=8db4579a-cbae-45b6-bd0d-2f13f28dd7df"},"vehicle_type_id":"4","last_reported":1758547314,"current_range_meters":2800,"station_id":"ce4bgt12rcd13ifvqce0","pricing_plan_id":"cebpf4jnsgd1na2vs0mg"},{"bike_id":"617dca4b-4508-4d52-9e62-d583d919ac44","system_id":"levelo_inurba_marseille","lat":43.29742,"lon":5.37107,"is_reserved":false,"is_disabled":false,"rental_uris":{"android":"levelo://app?vid=617dca4b-4508-4d52-9e62-d583d919ac44","ios":"levelo://app?vid=617dca4b-4508-4d52-9e62-d583d919ac44"},"vehicle_type_id":"4","last_reported":1758547314,"current_range_meters":3200,"station_id":"ce4bgop2rcd13ifvqc1g","pricing_plan_id":"cebpf4jnsgd1na2vs0mg"},{"bike_id":"39292a1b-3198-48ea-91b5-ea10f3132f34","system_id":"levelo_inurba_marseille","lat":43.29082,"lon":5.38168,"is_reserved":false,"is_disabled":false,"rental_uris":{"android":"levelo://app?vid=39292a1b-3198-48ea-91b5-ea10f3132f34","ios":"levelo://app?vid=39292a1b-3198-48ea-91b5-ea10f3132f34"},"vehicle_type_id":"4","last_reported":1758547314,"current_range_meters":3200,"station_id":"ce4bh512rcd13ifvqe2g","pricing_plan_id":"cebpf4jnsgd1na2vs0mg"},{"bike_id":"7f8546b1-b73b-4ae1-8e17-ca39446c0ce8","system_id":"levelo_inurba_marseille","lat":43.26021,"lon":5.37559,"is_reserved":false,"is_disabled":false,"rental_uris":{"android":"levelo://app?vid=7f8546b1-b73b-4ae1-8e17-ca39446c0ce8","ios":"levelo://app?vid=7f8546b1-b73b-4ae1-8e17-ca39446c0ce8"},"vehicle_type_id":"4","last_reported":1758547314,"current_range_meters":3600,"station_id":"ce4bhgh2rcd13ifvqfa0","pricing_plan_id":"cebpf4jnsgd1na2vs0mg"},{"bike_id":"5749a615-fab7-4121-8efd-dace53548b7a","system_id":"levelo_inurba_marseille","lat":43.31229,"lon":5.36858,"is_reserved":false,"is_disabled":false,"rental_uris":{"android":"levelo://app?vid=5749a615-fab7-4121-8efd-dace53548b7a","ios":"levelo://app?vid=5749a615-fab7-4121-8efd-dace53548b7a"},"vehicle_type_id":"4","last_reported":1758547314,"current_range_meters":3600,"station_id":"ce4bgl92rcd13ifvqbq0","pricing_plan_id":"cebpf4jnsgd1na2vs0mg"},{"bike_id":"d7c25918-4ee2-4f07-aafe-045313861472","system_id":"levelo_inurba_marseille","lat":43.27441,"lon":5.36106,"is_reserved":false,"is_disabled":false,"rental_uris":{"android":"levelo://app?vid=d7c25918-4ee2-4f07-aafe-045313861472","ios":"levelo://app?vid=d7c25918-4ee2-4f07-aafe-045313861472"},"vehicle_type_id":"4","last_reported":1758547314,"current_range_meters":3600,"station_id":"","pricing_plan_id":"cebpf4jnsgd1na2vs0mg"},{"bike_id":"defbc9e4-91f9-4a65-98e0-1d790fb7f0fe","system_id":"levelo_inurba_marseille","lat":43.290375,"lon":5.399681,"is_reserved":false,"is_disabled":false,"rental_uris":{"android":"levelo://app?vid=defbc9e4-91f9-4a65-98e0-1d790fb7f0fe","ios":"levelo://app?vid=defbc9e4-91f9-4a65-98e0-1d790fb7f0fe"},"vehicle_type_id":"4","last_reported":1758547314,"current_range_meters":3600,"station_id":"ce4bh392rcd13ifvqdm0","pricing_plan_id":"cebpf4jnsgd1na2vs0mg"},{"bike_id":"acc8355b-6d5b-45ac-9caf-d072029dcf44","system_id":"levelo_inurba_marseille","lat":43.27671,"lon":5.38871,"is_reserved":false,"is_disabled":false,"rental_uris":{"android":"levelo://app?vid=acc8355b-6d5b-45ac-9caf-d072029dcf44","ios":"levelo://app?vid=acc8355b-6d5b-45ac-9caf-d072029dcf44"},"vehicle_type_id":"4","last_reported":1758547314,"current_range_meters":6400,"station_id":"ce4bhi12rcd13ifvqfo0","pricing_plan_id":"cebpf4jnsgd1na2vs0mg"},{"bike_id":"0f7caa9f-1d1a-40d7-9b4a-2f8720e63681","system_id":"levelo_inurba_marseille","lat":43.30865,"lon":5.37619,"is_reserved":false,"is_disabled":false,"rental_uris":{"android":"levelo://app?vid=0f7caa9f-1d1a-40d7-9b4a-2f8720e63681","ios":"levelo://app?vid=0f7caa9f-1d1a-40d7-9b4a-2f8720e63681"},"vehicle_type_id":"4","last_reported":1758547314,"current_range_meters":4400,"station_id":"","pricing_plan_id":"cebpf4jnsgd1na2vs0mg"},{"bike_id":"7e39f761-0fe4-4eb9-8592-5744db05ea96","system_id":"levelo_inurba_marseille","lat":43.30904,"lon":5.37164,"is_reserved":false,"is_disabled":false,"rental_uris":{"android":"levelo://app?vid=7e39f761-0fe4-4eb9-8592-5744db05ea96","ios":"levelo://app?vid=7e39f761-0fe4-4eb9-8592-5744db05ea96"},"vehicle_type_id":"4","last_reported":1758547314,"current_range_meters":4400,"station_id":"ce4bguh2rcd13ifvqckg","pricing_plan_id":"cebpf4jnsgd1na2vs0mg"},{"bike_id":"0fb5eefc-d6f6-4d04-ba9c-2447f91f45d9","system_id":"levelo_inurba_marseille","lat":43.26815,"lon":5.39367,"is_reserved":false,"is_disabled":false,"rental_uris":{"android":"levelo://app?vid=0fb5eefc-d6f6-4d04-ba9c-2447f91f45d9","ios":"levelo://app?vid=0fb5eefc-d6f6-4d04-ba9c-2447f91f45d9"},"vehicle_type_id":"4","last_reported":1758547314,"current_range_meters":4800,"station_id":"ce4bhg12rcd13ifvqf80","pricing_plan_id":"cebpf4jnsgd1na2vs0mg"},{"bike_id":"c0cf1d57-e771-4ee3-8c8e-7f15c21270be","system_id":"levelo_inurba_marseille","lat":43.29912,"lon":5.37474,"is_reserved":false,"is_disabled":false,"rental_uris":{"android":"levelo://app?vid=c0cf1d57-e771-4ee3-8c8e-7f15c21270be","ios":"levelo://app?vid=c0cf1d57-e771-4ee3-8c8e-7f15c21270be"},"vehicle_type_id":"4","last_reported":1758547314,"current_range_meters":4800,"station_id":"ce4bgjh2rcd13ifvqbg0","pricing_plan_id":"cebpf4jnsgd1na2vs0mg"},{"bike_id":"83235eee-e06c-49a1-a0a8-f64b7f9c3e0e","system_id":"levelo_inurba_marseille","lat":43.229442,"lon":5.353626,"is_reserved":false,"is_disabled":false,"rental_uris":{"android":"levelo://app?vid=83235eee-e06c-49a1-a0a8-f64b7f9c3e0e","ios":"levelo://app?vid=83235eee-e06c-49a1-a0a8-f64b7f9c3e0e"},"vehicle_type_id":"4","last_reported":1758547314,"current_range_meters":5600,"station_id":"cpo3532slgdg3j2ikp40","pricing_plan_id":"cebpf4jnsgd1na2vs0mg"},{"bike_id":"bb5dc1ee-68d3-41d6-9fa1-f63ac6737740","system_id":"levelo_inurba_marseille","lat":43.29905,"lon":5.43666,"is_reserved":false,"is_disabled":false,"rental_uris":{"android":"levelo://app?vid=bb5dc1ee-68d3-41d6-9fa1-f63ac6737740","ios":"levelo://app?vid=bb5dc1ee-68d3-41d6-9fa1-f63ac6737740"},"vehicle_type_id":"4","last_reported":1758547314,"current_range_meters":5600,"station_id":"ce4bhpp2rcd13ifvqhfg","pricing_plan_id":"cebpf4jnsgd1na2vs0mg"},{"bike_id":"c1843d42-9f15-4235-8c7f-0c60147cb155","system_id":"levelo_inurba_marseille","lat":43.211967,"lon":5.350665,"is_reserved":false,"is_disabled":false,"rental_uris":{"android":"levelo://app?vid=c1843d42-9f15-4235-8c7f-0c60147cb155","ios":"levelo://app?vid=c1843d42-9f15-4235-8c7f-0c60147cb155"},"vehicle_type_id":"4","last_reported":1758547314,"current_range_meters":5600,"station_id":"st_cvj6sg6p6f1abm77japg","pricing_plan_id":"cebpf4jnsgd1na2vs0mg"},{"bike_id":"3ebbbb34-c2b3-4e77-ad34-8a848d714924","system_id":"levelo_inurba_marseille","lat":43.29977,"lon":5.3717,"is_reserved":false,"is_disabled":false,"rental_uris":{"android":"levelo://app?vid=3ebbbb34-c2b3-4e77-ad34-8a848d714924","ios":"levelo://app?vid=3ebbbb34-c2b3-4e77-ad34-8a848d714924"},"vehicle_type_id":"4","last_reported":1758547314,"current_range_meters":5600,"station_id":"ce4bgr92rcd13ifvqc7g","pricing_plan_id":"cebpf4jnsgd1na2vs0mg"},{"bike_id":"a07a513e-e5a9-4481-8592-d991379bc662","system_id":"levelo_inurba_marseille","lat":43.337536,"lon":5.374536,"is_reserved":false,"is_disabled":false,"rental_uris":{"android":"levelo://app?vid=a07a513e-e5a9-4481-8592-d991379bc662","ios":"levelo://app?vid=a07a513e-e5a9-4481-8592-d991379bc662"},"vehicle_type_id":"4","last_reported":1758547314,"current_range_meters":5600,"station_id":"","pricing_plan_id":"cebpf4jnsgd1na2vs0mg"},{"bike_id":"99aaf21c-6567-4828-b7e3-2d51814eb73d","system_id":"levelo_inurba_marseille","lat":43.30209,"lon":5.39454,"is_reserved":false,"is_disabled":false,"rental_uris":{"android":"levelo://app?vid=99aaf21c-6567-4828-b7e3-2d51814eb73d","ios":"levelo://app?vid=99aaf21c-6567-4828-b7e3-2d51814eb73d"},"vehicle_type_id":"4","last_reported":1758547314,"current_range_meters":6000,"station_id":"ce4bh0p2rcd13ifvqd70","pricing_plan_id":"cebpf4jnsgd1na2vs0mg"},{"bike_id":"73a47ed3-2bac-4b25-b142-c2965ea2594a","system_id":"levelo_inurba_marseille","lat":43.29209,"lon":5.39322,"is_reserved":false,"is_disabled":false,"rental_uris":{"android":"levelo://app?vid=73a47ed3-2bac-4b25-b142-c2965ea2594a","ios":"levelo://app?vid=73a47ed3-2bac-4b25-b142-c2965ea2594a"},"vehicle_type_id":"4","last_reported":1758547314,"current_range_meters":5600,"station_id":"ce4bh192rcd13ifvqdd0","pricing_plan_id":"cebpf4jnsgd1na2vs0mg"},{"bike_id":"53955af7-86ee-401f-a9a7-101a2a204311","system_id":"levelo_inurba_marseille","lat":43.28466,"lon":5.35893,"is_reserved":false,"is_disabled":false,"rental_uris":{"android":"levelo://app?vid=53955af7-86ee-401f-a9a7-101a2a204311","ios":"levelo://app?vid=53955af7-86ee-401f-a9a7-101a2a204311"},"vehicle_type_id":"4","last_reported":1758547314,"current_range_meters":5600,"station_id":"ce4bhah2rcd13ifvqei0","pricing_plan_id":"cebpf4jnsgd1na2vs0mg"},{"bike_id":"213f818a-2fc2-423a-8734-2921a1895f7c","system_id":"levelo_inurba_marseille","lat":43.21188,"lon":5.35077,"is_reserved":false,"is_disabled":false,"rental_uris":{"android":"levelo://app?vid=213f818a-2fc2-423a-8734-2921a1895f7c","ios":"levelo://app?vid=213f818a-2fc2-423a-8734-2921a1895f7c"},"vehicle_type_id":"4","last_reported":1758547314,"current_range_meters":6800,"station_id":"st_cvj6sg6p6f1abm77japg","pricing_plan_id":"cebpf4jnsgd1na2vs0mg"},{"bike_id":"f8a102b4-63eb-4389-bc0d-e61b0c999e32","system_id":"levelo_inurba_marseille","lat":43.30201,"lon":5.39452,"is_reserved":false,"is_disabled":false,"rental_uris":{"android":"levelo://app?vid=f8a102b4-63eb-4389-bc0d-e61b0c999e32","ios":"levelo://app?vid=f8a102b4-63eb-4389-bc0d-e61b0c999e32"},"vehicle_type_id":"4","last_reported":1758547314,"current_range_meters":6400,"station_id":"ce4bh0p2rcd13ifvqd70","pricing_plan_id":"cebpf4jnsgd1na2vs0mg"},{"bike_id":"4fa50408-98f8-45a9-a8d2-2f2b97729674","system_id":"levelo_inurba_marseille","lat":43.29226,"lon":5.36065,"is_reserved":false,"is_disabled":false,"rental_uris":{"android":"levelo://app?vid=4fa50408-98f8-45a9-a8d2-2f2b97729674","ios":"levelo://app?vid=4fa50408-98f8-45a9-a8d2-2f2b97729674"},"vehicle_type_id":"4","last_reported":1758547314,"current_range_meters":6400,"station_id":"ce4bhbh2rcd13ifvqeqg","pricing_plan_id":"cebpf4jnsgd1na2vs0mg"},{"bike_id":"a2bce34f-e067-42c8-b51f-ee5336a60ee8","system_id":"levelo_inurba_marseille","lat":43.2417,"lon":5.364,"is_reserved":false,"is_disabled":false,"rental_uris":{"android":"levelo://app?vid=a2bce34f-e067-42c8-b51f-ee5336a60ee8","ios":"levelo://app?vid=a2bce34f-e067-42c8-b51f-ee5336a60ee8"},"vehicle_type_id":"4","last_reported":1758547314,"current_range_meters":6400,"station_id":"cpo36qri1sfpv3e86is0","pricing_plan_id":"cebpf4jnsgd1na2vs0mg"},{"bike_id":"32d88058-9fd5-4be6-aab5-17fed1728396","system_id":"levelo_inurba_marseille","lat":43.24084,"lon":5.37747,"is_reserved":false,"is_disabled":false,"rental_uris":{"android":"levelo://app?vid=32d88058-9fd5-4be6-aab5-17fed1728396","ios":"levelo://app?vid=32d88058-9fd5-4be6-aab5-17fed1728396"},"vehicle_type_id":"4","last_reported":1758547314,"current_range_meters":1600,"station_id":"ce4bhnp2rcd13ifvqgvg","pricing_plan_id":"cebpf4jnsgd1na2vs0mg"},{"bike_id":"4bc02256-5e2b-44c0-9f77-e499671e456e","system_id":"levelo_inurba_marseille","lat":43.25577,"lon":5.38229,"is_reserved":false,"is_disabled":false,"rental_uris":{"android":"levelo://app?vid=4bc02256-5e2b-44c0-9f77-e499671e456e","ios":"levelo://app?vid=4bc02256-5e2b-44c0-9f77-e499671e456e"},"vehicle_type_id":"4","last_reported":1758547314,"current_range_meters":8800,"station_id":"ce4bhih2rcd13ifvqfs0","pricing_plan_id":"cebpf4jnsgd1na2vs0mg"},{"bike_id":"2289a0ff-9c3e-4f79-ad38-4b41158d6057","system_id":"levelo_inurba_marseille","lat":43.29882,"lon":5.37911,"is_reserved":false,"is_disabled":false,"rental_uris":{"android":"levelo://app?vid=2289a0ff-9c3e-4f79-ad38-4b41158d6057","ios":"levelo://app?vid=2289a0ff-9c3e-4f79-ad38-4b41158d6057"},"vehicle_type_id":"4","last_reported":1758547314,"current_range_meters":6800,"station_id":"","pricing_plan_id":"cebpf4jnsgd1na2vs0mg"},{"bike_id":"55d1bc08-fd54-4a82-afc7-2adcaa7b1c4e","system_id":"levelo_inurba_marseille","lat":43.300293,"lon":5.376943,"is_reserved":false,"is_disabled":false,"rental_uris":{"android":"levelo://app?vid=55d1bc08-fd54-4a82-afc7-2adcaa7b1c4e","ios":"levelo://app?vid=55d1bc08-fd54-4a82-afc7-2adcaa7b1c4e"},"vehicle_type_id":"4","last_reported":1758547314,"current_range_meters":6800,"station_id":"","pricing_plan_id":"cebpf4jnsgd1na2vs0mg"},{"bike_id":"475e093d-8e92-4dd0-88a6-11a94eeed570","system_id":"levelo_inurba_marseille","lat":43.29923,"lon":5.37466,"is_reserved":false,"is_disabled":false,"rental_uris":{"android":"levelo://app?vid=475e093d-8e92-4dd0-88a6-11a94eeed570","ios":"levelo://app?vid=475e093d-8e92-4dd0-88a6-11a94eeed570"},"vehicle_type_id":"4","last_reported":1758547314,"current_range_meters":6800,"station_id":"ce4bgjh2rcd13ifvqbg0","pricing_plan_id":"cebpf4jnsgd1na2vs0mg"},{"bike_id":"25e8e431-25e4-4dc0-a7dd-3bcebff24ddf","system_id":"levelo_inurba_marseille","lat":43.29968,"lon":5.38498,"is_reserved":false,"is_disabled":false,"rental_uris":{"android":"levelo://app?vid=25e8e431-25e4-4dc0-a7dd-3bcebff24ddf","ios":"levelo://app?vid=25e8e431-25e4-4dc0-a7dd-3bcebff24ddf"},"vehicle_type_id":"4","last_reported":1758547314,"current_range_meters":6800,"station_id":"ce4bgj92rcd13ifvqbd0","pricing_plan_id":"cebpf4jnsgd1na2vs0mg"},{"bike_id":"2015c1f2-c286-408a-b930-50d865ce0bb9","system_id":"levelo_inurba_marseille","lat":43.21228,"lon":5.35059,"is_reserved":false,"is_disabled":false,"rental_uris":{"android":"levelo://app?vid=2015c1f2-c286-408a-b930-50d865ce0bb9","ios":"levelo://app?vid=2015c1f2-c286-408a-b930-50d865ce0bb9"},"vehicle_type_id":"4","last_reported":1758547314,"current_range_meters":6800,"station_id":"st_cvj6sg6p6f1abm77japg","pricing_plan_id":"cebpf4jnsgd1na2vs0mg"},{"bike_id":"0d10eeb2-6a6b-4787-8be1-5e6e566cc513","system_id":"levelo_inurba_marseille","lat":43.28702,"lon":5.37372,"is_reserved":false,"is_disabled":false,"rental_uris":{"android":"levelo://app?vid=0d10eeb2-6a6b-4787-8be1-5e6e566cc513","ios":"levelo://app?vid=0d10eeb2-6a6b-4787-8be1-5e6e566cc513"},"vehicle_type_id":"4","last_reported":1758547314,"current_range_meters":7200,"station_id":"ce4bh3p2rcd13ifvqdq0","pricing_plan_id":"cebpf4jnsgd1na2vs0mg"},{"bike_id":"fcb06e79-f6fd-4ecf-bf54-7530ee2e9f65","system_id":"levelo_inurba_marseille","lat":43.28259,"lon":5.35067,"is_reserved":false,"is_disabled":false,"rental_uris":{"android":"levelo://app?vid=fcb06e79-f6fd-4ecf-bf54-7530ee2e9f65","ios":"levelo://app?vid=fcb06e79-f6fd-4ecf-bf54-7530ee2e9f65"},"vehicle_type_id":"4","last_reported":1758547314,"current_range_meters":7200,"station_id":"ce4bhbp2rcd13ifvqerg","pricing_plan_id":"cebpf4jnsgd1na2vs0mg"},{"bike_id":"68adab37-f5ad-4072-b58a-fe6c68285ca6","system_id":"levelo_inurba_marseille","lat":43.30624,"lon":5.3766,"is_reserved":false,"is_disabled":false,"rental_uris":{"android":"levelo://app?vid=68adab37-f5ad-4072-b58a-fe6c68285ca6","ios":"levelo://app?vid=68adab37-f5ad-4072-b58a-fe6c68285ca6"},"vehicle_type_id":"4","last_reported":1758547314,"current_range_meters":7200,"station_id":"","pricing_plan_id":"cebpf4jnsgd1na2vs0mg"},{"bike_id":"577d0e24-bf90-43b8-a759-bea08b7d7e19","system_id":"levelo_inurba_marseille","lat":43.23056,"lon":5.35487,"is_reserved":false,"is_disabled":false,"rental_uris":{"android":"levelo://app?vid=577d0e24-bf90-43b8-a759-bea08b7d7e19","ios":"levelo://app?vid=577d0e24-bf90-43b8-a759-bea08b7d7e19"},"vehicle_type_id":"4","last_reported":1758547314,"current_range_meters":6800,"station_id":"cpo3342slgdg3j2ifvpg","pricing_plan_id":"cebpf4jnsgd1na2vs0mg"},{"bike_id":"5319fae8-be79-4d87-b5d0-b333eba32d6a","system_id":"levelo_inurba_marseille","lat":43.211604,"lon":5.350908,"is_reserved":false,"is_disabled":false,"rental_uris":{"android":"levelo://app?vid=5319fae8-be79-4d87-b5d0-b333eba32d6a","ios":"levelo://app?vid=5319fae8-be79-4d87-b5d0-b333eba32d6a"},"vehicle_type_id":"4","last_reported":1758547314,"current_range_meters":7200,"station_id":"st_cvj6sg6p6f1abm77japg","pricing_plan_id":"cebpf4jnsgd1na2vs0mg"},{"bike_id":"3fbf6f99-68a1-4209-87cd-2ace6dc8b82a","system_id":"levelo_inurba_marseille","lat":43.29371,"lon":5.37848,"is_reserved":false,"is_disabled":false,"rental_uris":{"android":"levelo://app?vid=3fbf6f99-68a1-4209-87cd-2ace6dc8b82a","ios":"levelo://app?vid=3fbf6f99-68a1-4209-87cd-2ace6dc8b82a"},"vehicle_type_id":"4","last_reported":1758547314,"current_range_meters":7200,"station_id":"ce4bgjh2rcd13ifvqbf0","pricing_plan_id":"cebpf4jnsgd1na2vs0mg"},{"bike_id":"f69f9714-93e7-4b9c-a46e-fabf7655f836","system_id":"levelo_inurba_marseille","lat":43.22556,"lon":5.4163,"is_reserved":false,"is_disabled":false,"rental_uris":{"android":"levelo://app?vid=f69f9714-93e7-4b9c-a46e-fabf7655f836","ios":"levelo://app?vid=f69f9714-93e7-4b9c-a46e-fabf7655f836"},"vehicle_type_id":"4","last_reported":1758547314,"current_range_meters":7200,"station_id":"st_d2o4gvlbi1j2169b742g","pricing_plan_id":"cebpf4jnsgd1na2vs0mg"},{"bike_id":"91264260-b6b7-434a-a934-b56aeaa96c1c","system_id":"levelo_inurba_marseille","lat":43.29264,"lon":5.37614,"is_reserved":false,"is_disabled":false,"rental_uris":{"android":"levelo://app?vid=91264260-b6b7-434a-a934-b56aeaa96c1c","ios":"levelo://app?vid=91264260-b6b7-434a-a934-b56aeaa96c1c"},"vehicle_type_id":"4","last_reported":1758547314,"current_range_meters":8000,"station_id":"ce4bgi12rcd13ifvqb80","pricing_plan_id":"cebpf4jnsgd1na2vs0mg"},{"bike_id":"59e4fbc8-58d7-4b5b-be6b-596aae423ca4","system_id":"levelo_inurba_marseille","lat":43.3078,"lon":5.37652,"is_reserved":false,"is_disabled":false,"rental_uris":{"android":"levelo://app?vid=59e4fbc8-58d7-4b5b-be6b-596aae423ca4","ios":"levelo://app?vid=59e4fbc8-58d7-4b5b-be6b-596aae423ca4"},"vehicle_type_id":"4","last_reported":1758547314,"current_range_meters":8000,"station_id":"ce4bgv92rcd13ifvqcq0","pricing_plan_id":"cebpf4jnsgd1na2vs0mg"},{"bike_id":"9fd2730e-1bc9-4242-b903-3fbea2c0fab7","system_id":"levelo_inurba_marseille","lat":43.3199,"lon":5.38163,"is_reserved":false,"is_disabled":false,"rental_uris":{"android":"levelo://app?vid=9fd2730e-1bc9-4242-b903-3fbea2c0fab7","ios":"levelo://app?vid=9fd2730e-1bc9-4242-b903-3fbea2c0fab7"},"vehicle_type_id":"4","last_reported":1758547314,"current_range_meters":7200,"station_id":"ce4bhr12rcd13ifvqhpg","pricing_plan_id":"cebpf4jnsgd1na2vs0mg"},{"bike_id":"04c4c50a-3c3d-4e99-89ce-657a77b37991","system_id":"levelo_inurba_marseille","lat":43.30434,"lon":5.38882,"is_reserved":false,"is_disabled":false,"rental_uris":{"android":"levelo://app?vid=04c4c50a-3c3d-4e99-89ce-657a77b37991","ios":"levelo://app?vid=04c4c50a-3c3d-4e99-89ce-657a77b37991"},"vehicle_type_id":"4","last_reported":1758547314,"current_range_meters":8000,"station_id":"ce4bgk12rcd13ifvqbi0","pricing_plan_id":"cebpf4jnsgd1na2vs0mg"},{"bike_id":"d775192e-ad2b-4995-a97c-fdca1da20e9d","system_id":"levelo_inurba_marseille","lat":43.23966,"lon":5.36629,"is_reserved":false,"is_disabled":false,"rental_uris":{"android":"levelo://app?vid=d775192e-ad2b-4995-a97c-fdca1da20e9d","ios":"levelo://app?vid=d775192e-ad2b-4995-a97c-fdca1da20e9d"},"vehicle_type_id":"4","last_reported":1758547314,"current_range_meters":8000,"station_id":"ce4bhi12rcd13ifvqfp0","pricing_plan_id":"cebpf4jnsgd1na2vs0mg"},{"bike_id":"8eb8c09e-f6f3-4cf6-9873-046110f81ad2","system_id":"levelo_inurba_marseille","lat":43.29533,"lon":5.3855,"is_reserved":false,"is_disabled":false,"rental_uris":{"android":"levelo://app?vid=8eb8c09e-f6f3-4cf6-9873-046110f81ad2","ios":"levelo://app?vid=8eb8c09e-f6f3-4cf6-9873-046110f81ad2"},"vehicle_type_id":"4","last_reported":1758547314,"current_range_meters":8000,"station_id":"ce4bgih2rcd13ifvqba0","pricing_plan_id":"cebpf4jnsgd1na2vs0mg"},{"bike_id":"58966a1d-7cdb-4e48-be94-66e6a5364079","system_id":"levelo_inurba_marseille","lat":43.31522,"lon":5.38037,"is_reserved":false,"is_disabled":false,"rental_uris":{"android":"levelo://app?vid=58966a1d-7cdb-4e48-be94-66e6a5364079","ios":"levelo://app?vid=58966a1d-7cdb-4e48-be94-66e6a5364079"},"vehicle_type_id":"4","last_reported":1758547314,"current_range_meters":8000,"station_id":"ce4bhsp2rcd13ifvqi50","pricing_plan_id":"cebpf4jnsgd1na2vs0mg"},{"bike_id":"dc16fe0c-d4a8-4881-bbe4-0421e16be95c","system_id":"levelo_inurba_marseille","lat":43.29589,"lon":5.38102,"is_reserved":false,"is_disabled":false,"rental_uris":{"android":"levelo://app?vid=dc16fe0c-d4a8-4881-bbe4-0421e16be95c","ios":"levelo://app?vid=dc16fe0c-d4a8-4881-bbe4-0421e16be95c"},"vehicle_type_id":"4","last_reported":1758547314,"current_range_meters":8400,"station_id":"ce4bgl12rcd13ifvqbo0","pricing_plan_id":"cebpf4jnsgd1na2vs0mg"},{"bike_id":"3bdd5bb9-a0e9-4635-93b6-b52acf859d7a","system_id":"levelo_inurba_marseille","lat":43.28261,"lon":5.35048,"is_reserved":false,"is_disabled":true,"rental_uris":{"android":"levelo://app?vid=3bdd5bb9-a0e9-4635-93b6-b52acf859d7a","ios":"levelo://app?vid=3bdd5bb9-a0e9-4635-93b6-b52acf859d7a"},"vehicle_type_id":"4","last_reported":1758547314,"current_range_meters":8400,"station_id":"ce4bhbp2rcd13ifvqerg","pricing_plan_id":"cebpf4jnsgd1na2vs0mg"},{"bike_id":"43a2fc07-5a26-42d8-b1ea-63363f9962fe","system_id":"levelo_inurba_marseille","lat":43.31727,"lon":5.40409,"is_reserved":false,"is_disabled":false,"rental_uris":{"android":"levelo://app?vid=43a2fc07-5a26-42d8-b1ea-63363f9962fe","ios":"levelo://app?vid=43a2fc07-5a26-42d8-b1ea-63363f9962fe"},"vehicle_type_id":"4","last_reported":1758547314,"current_range_meters":8400,"station_id":"ce4bh012rcd13ifvqd00","pricing_plan_id":"cebpf4jnsgd1na2vs0mg"},{"bike_id":"a19ab9a0-7b29-4ef1-9433-62953b866275","system_id":"levelo_inurba_marseille","lat":43.317045,"lon":5.377341,"is_reserved":false,"is_disabled":false,"rental_uris":{"android":"levelo://app?vid=a19ab9a0-7b29-4ef1-9433-62953b866275","ios":"levelo://app?vid=a19ab9a0-7b29-4ef1-9433-62953b866275"},"vehicle_type_id":"4","last_reported":1758547314,"current_range_meters":8400,"station_id":"ce4bgth2rcd13ifvqch0","pricing_plan_id":"cebpf4jnsgd1na2vs0mg"},{"bike_id":"cd91dfeb-6eb0-4d3e-a1fd-e6e1021d4e69","system_id":"levelo_inurba_marseille","lat":43.28044,"lon":5.36942,"is_reserved":false,"is_disabled":false,"rental_uris":{"android":"levelo://app?vid=cd91dfeb-6eb0-4d3e-a1fd-e6e1021d4e69","ios":"levelo://app?vid=cd91dfeb-6eb0-4d3e-a1fd-e6e1021d4e69"},"vehicle_type_id":"4","last_reported":1758547314,"current_range_meters":8400,"station_id":"ce4bha12rcd13ifvqef0","pricing_plan_id":"cebpf4jnsgd1na2vs0mg"},{"bike_id":"d2667e4e-8f97-413d-81b1-13a394c6285f","system_id":"levelo_inurba_marseille","lat":43.23063,"lon":5.35489,"is_reserved":false,"is_disabled":true,"rental_uris":{"android":"levelo://app?vid=d2667e4e-8f97-413d-81b1-13a394c6285f","ios":"levelo://app?vid=d2667e4e-8f97-413d-81b1-13a394c6285f"},"vehicle_type_id":"4","last_reported":1758547314,"current_range_meters":8400,"station_id":"cpo3342slgdg3j2ifvpg","pricing_plan_id":"cebpf4jnsgd1na2vs0mg"},{"bike_id":"2a89ad27-080f-4d45-833d-c99fce47a989","system_id":"levelo_inurba_marseille","lat":43.30551,"lon":5.36782,"is_reserved":false,"is_disabled":false,"rental_uris":{"android":"levelo://app?vid=2a89ad27-080f-4d45-833d-c99fce47a989","ios":"levelo://app?vid=2a89ad27-080f-4d45-833d-c99fce47a989"},"vehicle_type_id":"4","last_reported":1758547314,"current_range_meters":8400,"station_id":"ce4bgrp2rcd13ifvqc9g","pricing_plan_id":"cebpf4jnsgd1na2vs0mg"},{"bike_id":"f581ccb4-ae4a-44ef-9aee-8da2f62ff531","system_id":"levelo_inurba_marseille","lat":43.31244,"lon":5.36824,"is_reserved":false,"is_disabled":false,"rental_uris":{"android":"levelo://app?vid=f581ccb4-ae4a-44ef-9aee-8da2f62ff531","ios":"levelo://app?vid=f581ccb4-ae4a-44ef-9aee-8da2f62ff531"},"vehicle_type_id":"4","last_reported":1758547314,"current_range_meters":8800,"station_id":"ce4bgl92rcd13ifvqbq0","pricing_plan_id":"cebpf4jnsgd1na2vs0mg"},{"bike_id":"b8bf5636-18a1-4741-8cba-3537f41b10e5","system_id":"levelo_inurba_marseille","lat":43.30608,"lon":5.37219,"is_reserved":false,"is_disabled":false,"rental_uris":{"android":"levelo://app?vid=b8bf5636-18a1-4741-8cba-3537f41b10e5","ios":"levelo://app?vid=b8bf5636-18a1-4741-8cba-3537f41b10e5"},"vehicle_type_id":"4","last_reported":1758547314,"current_range_meters":8800,"station_id":"ce4bgqh2rcd13ifvqc4g","pricing_plan_id":"cebpf4jnsgd1na2vs0mg"},{"bike_id":"585f28e2-a8a3-4e07-bf25-73f4153f193e","system_id":"levelo_inurba_marseille","lat":43.27677,"lon":5.3887,"is_reserved":false,"is_disabled":false,"rental_uris":{"android":"levelo://app?vid=585f28e2-a8a3-4e07-bf25-73f4153f193e","ios":"levelo://app?vid=585f28e2-a8a3-4e07-bf25-73f4153f193e"},"vehicle_type_id":"4","last_reported":1758547314,"current_range_meters":8800,"station_id":"ce4bhi12rcd13ifvqfo0","pricing_plan_id":"cebpf4jnsgd1na2vs0mg"},{"bike_id":"e86857f8-f405-4657-b145-ec58ed187087","system_id":"levelo_inurba_marseille","lat":43.31484,"lon":5.3881,"is_reserved":false,"is_disabled":false,"rental_uris":{"android":"levelo://app?vid=e86857f8-f405-4657-b145-ec58ed187087","ios":"levelo://app?vid=e86857f8-f405-4657-b145-ec58ed187087"},"vehicle_type_id":"4","last_reported":1758547314,"current_range_meters":8800,"station_id":"ce4bgt92rcd13ifvqcf0","pricing_plan_id":"cebpf4jnsgd1na2vs0mg"},{"bike_id":"ce46a35a-66a2-4b69-a078-6bc30ff44698","system_id":"levelo_inurba_marseille","lat":43.284576,"lon":5.358857,"is_reserved":false,"is_disabled":false,"rental_uris":{"android":"levelo://app?vid=ce46a35a-66a2-4b69-a078-6bc30ff44698","ios":"levelo://app?vid=ce46a35a-66a2-4b69-a078-6bc30ff44698"},"vehicle_type_id":"4","last_reported":1758547314,"current_range_meters":8800,"station_id":"ce4bhah2rcd13ifvqei0","pricing_plan_id":"cebpf4jnsgd1na2vs0mg"},{"bike_id":"a9a21997-ffa6-4b7a-8713-2bc3b80877f0","system_id":"levelo_inurba_marseille","lat":43.3122,"lon":5.36857,"is_reserved":false,"is_disabled":false,"rental_uris":{"android":"levelo://app?vid=a9a21997-ffa6-4b7a-8713-2bc3b80877f0","ios":"levelo://app?vid=a9a21997-ffa6-4b7a-8713-2bc3b80877f0"},"vehicle_type_id":"4","last_reported":1758547314,"current_range_meters":9200,"station_id":"ce4bgl92rcd13ifvqbq0","pricing_plan_id":"cebpf4jnsgd1na2vs0mg"},{"bike_id":"023698cb-3403-40af-877d-58a5423804f5","system_id":"levelo_inurba_marseille","lat":43.29598,"lon":5.38103,"is_reserved":false,"is_disabled":false,"rental_uris":{"android":"levelo://app?vid=023698cb-3403-40af-877d-58a5423804f5","ios":"levelo://app?vid=023698cb-3403-40af-877d-58a5423804f5"},"vehicle_type_id":"4","last_reported":1758547314,"current_range_meters":9200,"station_id":"ce4bgl12rcd13ifvqbo0","pricing_plan_id":"cebpf4jnsgd1na2vs0mg"},{"bike_id":"c7d9baed-f830-46ee-9f85-be29f3fdbe9c","system_id":"levelo_inurba_marseille","lat":43.29528,"lon":5.39045,"is_reserved":false,"is_disabled":false,"rental_uris":{"android":"levelo://app?vid=c7d9baed-f830-46ee-9f85-be29f3fdbe9c","ios":"levelo://app?vid=c7d9baed-f830-46ee-9f85-be29f3fdbe9c"},"vehicle_type_id":"4","last_reported":1758547314,"current_range_meters":8800,"station_id":"ce4bh3p2rcd13ifvqdp0","pricing_plan_id":"cebpf4jnsgd1na2vs0mg"},{"bike_id":"f258f673-d6e2-426c-8111-987e545cdaa0","system_id":"levelo_inurba_marseille","lat":43.21748,"lon":5.34582,"is_reserved":false,"is_disabled":false,"rental_uris":{"android":"levelo://app?vid=f258f673-d6e2-426c-8111-987e545cdaa0","ios":"levelo://app?vid=f258f673-d6e2-426c-8111-987e545cdaa0"},"vehicle_type_id":"4","last_reported":1758547314,"current_range_meters":9200,"station_id":"st_cvj6r9ubvosntc0bgbag","pricing_plan_id":"cebpf4jnsgd1na2vs0mg"},{"bike_id":"2cc61483-45e6-4f1b-9138-0d750c5cae2d","system_id":"levelo_inurba_marseille","lat":43.29361,"lon":5.37838,"is_reserved":false,"is_disabled":false,"rental_uris":{"android":"levelo://app?vid=2cc61483-45e6-4f1b-9138-0d750c5cae2d","ios":"levelo://app?vid=2cc61483-45e6-4f1b-9138-0d750c5cae2d"},"vehicle_type_id":"4","last_reported":1758547314,"current_range_meters":9200,"station_id":"ce4bgjh2rcd13ifvqbf0","pricing_plan_id":"cebpf4jnsgd1na2vs0mg"},{"bike_id":"76bbf107-7ec5-4826-b296-ab629ecd14ab","system_id":"levelo_inurba_marseille","lat":43.298078,"lon":5.421276,"is_reserved":false,"is_disabled":false,"rental_uris":{"android":"levelo://app?vid=76bbf107-7ec5-4826-b296-ab629ecd14ab","ios":"levelo://app?vid=76bbf107-7ec5-4826-b296-ab629ecd14ab"},"vehicle_type_id":"4","last_reported":1758547314,"current_range_meters":9200,"station_id":"","pricing_plan_id":"cebpf4jnsgd1na2vs0mg"},{"bike_id":"118b6d7e-3328-44e2-ae13-d04071b8c00f","system_id":"levelo_inurba_marseille","lat":43.21205,"lon":5.35055,"is_reserved":false,"is_disabled":false,"rental_uris":{"android":"levelo://app?vid=118b6d7e-3328-44e2-ae13-d04071b8c00f","ios":"levelo://app?vid=118b6d7e-3328-44e2-ae13-d04071b8c00f"},"vehicle_type_id":"4","last_reported":1758547314,"current_range_meters":9600,"station_id":"st_cvj6sg6p6f1abm77japg","pricing_plan_id":"cebpf4jnsgd1na2vs0mg"},{"bike_id":"0c8a92f3-f5d4-48dc-bbf5-8177c0a48b95","system_id":"levelo_inurba_marseille","lat":43.29635,"lon":5.38124,"is_reserved":false,"is_disabled":false,"rental_uris":{"android":"levelo://app?vid=0c8a92f3-f5d4-48dc-bbf5-8177c0a48b95","ios":"levelo://app?vid=0c8a92f3-f5d4-48dc-bbf5-8177c0a48b95"},"vehicle_type_id":"4","last_reported":1758547314,"current_range_meters":9600,"station_id":"ce4bgl12rcd13ifvqbo0","pricing_plan_id":"cebpf4jnsgd1na2vs0mg"},{"bike_id":"8a569a47-46ff-4e91-972f-c6991b590b75","system_id":"levelo_inurba_marseille","lat":43.30238,"lon":5.40077,"is_reserved":false,"is_disabled":false,"rental_uris":{"android":"levelo://app?vid=8a569a47-46ff-4e91-972f-c6991b590b75","ios":"levelo://app?vid=8a569a47-46ff-4e91-972f-c6991b590b75"},"vehicle_type_id":"4","last_reported":1758547314,"current_range_meters":9600,"station_id":"ce4bgvh2rcd13ifvqcs0","pricing_plan_id":"cebpf4jnsgd1na2vs0mg"},{"bike_id":"c694db7e-b82a-4d4e-b00c-951066700880","system_id":"levelo_inurba_marseille","lat":43.31116,"lon":5.37776,"is_reserved":false,"is_disabled":false,"rental_uris":{"android":"levelo://app?vid=c694db7e-b82a-4d4e-b00c-951066700880","ios":"levelo://app?vid=c694db7e-b82a-4d4e-b00c-951066700880"},"vehicle_type_id":"4","last_reported":1758547314,"current_range_meters":9200,"station_id":"ce4bgt92rcd13ifvqcg0","pricing_plan_id":"cebpf4jnsgd1na2vs0mg"},{"bike_id":"ca7cfd93-60d9-4fda-b2da-28a86ec02074","system_id":"levelo_inurba_marseille","lat":43.33483,"lon":5.36255,"is_reserved":false,"is_disabled":false,"rental_uris":{"android":"levelo://app?vid=ca7cfd93-60d9-4fda-b2da-28a86ec02074","ios":"levelo://app?vid=ca7cfd93-60d9-4fda-b2da-28a86ec02074"},"vehicle_type_id":"4","last_reported":1758547314,"current_range_meters":9600,"station_id":"","pricing_plan_id":"cebpf4jnsgd1na2vs0mg"},{"bike_id":"a95a546a-691f-414b-9f19-eb455305a59b","system_id":"levelo_inurba_marseille","lat":43.21757,"lon":5.34599,"is_reserved":false,"is_disabled":false,"rental_uris":{"android":"levelo://app?vid=a95a546a-691f-414b-9f19-eb455305a59b","ios":"levelo://app?vid=a95a546a-691f-414b-9f19-eb455305a59b"},"vehicle_type_id":"4","last_reported":1758547314,"current_range_meters":9600,"station_id":"st_cvj6r9ubvosntc0bgbag","pricing_plan_id":"cebpf4jnsgd1na2vs0mg"},{"bike_id":"9176512c-2cc1-4df2-a8e0-6be514fbcdbf","system_id":"levelo_inurba_marseille","lat":43.33748,"lon":5.37465,"is_reserved":false,"is_disabled":false,"rental_uris":{"android":"levelo://app?vid=9176512c-2cc1-4df2-a8e0-6be514fbcdbf","ios":"levelo://app?vid=9176512c-2cc1-4df2-a8e0-6be514fbcdbf"},"vehicle_type_id":"4","last_reported":1758547314,"current_range_meters":9600,"station_id":"","pricing_plan_id":"cebpf4jnsgd1na2vs0mg"},{"bike_id":"a8257798-e888-4b44-8802-affc27eeb43f","system_id":"levelo_inurba_marseille","lat":43.29646,"lon":5.3719,"is_reserved":false,"is_disabled":false,"rental_uris":{"android":"levelo://app?vid=a8257798-e888-4b44-8802-affc27eeb43f","ios":"levelo://app?vid=a8257798-e888-4b44-8802-affc27eeb43f"},"vehicle_type_id":"4","last_reported":1758547314,"current_range_meters":9600,"station_id":"ce4bgk12rcd13ifvqbj0","pricing_plan_id":"cebpf4jnsgd1na2vs0mg"},{"bike_id":"363d99e5-837c-43c8-abcc-c80ef2e2786a","system_id":"levelo_inurba_marseille","lat":43.211903,"lon":5.350775,"is_reserved":false,"is_disabled":false,"rental_uris":{"android":"levelo://app?vid=363d99e5-837c-43c8-abcc-c80ef2e2786a","ios":"levelo://app?vid=363d99e5-837c-43c8-abcc-c80ef2e2786a"},"vehicle_type_id":"4","last_reported":1758547314,"current_range_meters":9600,"station_id":"st_cvj6sg6p6f1abm77japg","pricing_plan_id":"cebpf4jnsgd1na2vs0mg"},{"bike_id":"29c74516-e9b5-4dcd-ab7c-95a3fda3ecd6","system_id":"levelo_inurba_marseille","lat":43.28671,"lon":5.38662,"is_reserved":false,"is_disabled":false,"rental_uris":{"android":"levelo://app?vid=29c74516-e9b5-4dcd-ab7c-95a3fda3ecd6","ios":"levelo://app?vid=29c74516-e9b5-4dcd-ab7c-95a3fda3ecd6"},"vehicle_type_id":"4","last_reported":1758547314,"current_range_meters":9600,"station_id":"ce4bh492rcd13ifvqdug","pricing_plan_id":"cebpf4jnsgd1na2vs0mg"},{"bike_id":"eea1f853-e331-46a1-aa17-e0051a89f4b0","system_id":"levelo_inurba_marseille","lat":43.29095,"lon":5.38153,"is_reserved":false,"is_disabled":false,"rental_uris":{"android":"levelo://app?vid=eea1f853-e331-46a1-aa17-e0051a89f4b0","ios":"levelo://app?vid=eea1f853-e331-46a1-aa17-e0051a89f4b0"},"vehicle_type_id":"4","last_reported":1758547314,"current_range_meters":9600,"station_id":"ce4bh512rcd13ifvqe2g","pricing_plan_id":"cebpf4jnsgd1na2vs0mg"},{"bike_id":"d9d7c670-b484-4fe1-9c07-618699fe7a16","system_id":"levelo_inurba_marseille","lat":43.246256,"lon":5.388862,"is_reserved":false,"is_disabled":false,"rental_uris":{"android":"levelo://app?vid=d9d7c670-b484-4fe1-9c07-618699fe7a16","ios":"levelo://app?vid=d9d7c670-b484-4fe1-9c07-618699fe7a16"},"vehicle_type_id":"4","last_reported":1758547314,"current_range_meters":10000,"station_id":"ce4bhg12rcd13ifvqf60","pricing_plan_id":"cebpf4jnsgd1na2vs0mg"},{"bike_id":"0402438e-d72b-4870-8e22-17facef5f22b","system_id":"levelo_inurba_marseille","lat":43.295994,"lon":5.391583,"is_reserved":false,"is_disabled":false,"rental_uris":{"android":"levelo://app?vid=0402438e-d72b-4870-8e22-17facef5f22b","ios":"levelo://app?vid=0402438e-d72b-4870-8e22-17facef5f22b"},"vehicle_type_id":"4","last_reported":1758547314,"current_range_meters":10000,"station_id":"","pricing_plan_id":"cebpf4jnsgd1na2vs0mg"},{"bike_id":"7acddd06-6f4a-4a9b-a273-014d046cebb0","system_id":"levelo_inurba_marseille","lat":43.30295,"lon":5.39204,"is_reserved":false,"is_disabled":false,"rental_uris":{"android":"levelo://app?vid=7acddd06-6f4a-4a9b-a273-014d046cebb0","ios":"levelo://app?vid=7acddd06-6f4a-4a9b-a273-014d046cebb0"},"vehicle_type_id":"4","last_reported":1758547314,"current_range_meters":10000,"station_id":"ce4bgkh2rcd13ifvqbk0","pricing_plan_id":"cebpf4jnsgd1na2vs0mg"},{"bike_id":"f7745353-e767-49e8-be5c-5e729fb35a09","system_id":"levelo_inurba_marseille","lat":43.28627,"lon":5.38216,"is_reserved":false,"is_disabled":false,"rental_uris":{"android":"levelo://app?vid=f7745353-e767-49e8-be5c-5e729fb35a09","ios":"levelo://app?vid=f7745353-e767-49e8-be5c-5e729fb35a09"},"vehicle_type_id":"4","last_reported":1758547314,"current_range_meters":10000,"station_id":"","pricing_plan_id":"cebpf4jnsgd1na2vs0mg"},{"bike_id":"db1a87b3-9753-48e8-b5c9-20417f7fcfdf","system_id":"levelo_inurba_marseille","lat":43.30282,"lon":5.37705,"is_reserved":false,"is_disabled":false,"rental_uris":{"android":"levelo://app?vid=db1a87b3-9753-48e8-b5c9-20417f7fcfdf","ios":"levelo://app?vid=db1a87b3-9753-48e8-b5c9-20417f7fcfdf"},"vehicle_type_id":"4","last_reported":1758547314,"current_range_meters":10000,"station_id":"ce4bguh2rcd13ifvqcj0","pricing_plan_id":"cebpf4jnsgd1na2vs0mg"},{"bike_id":"d344a5a6-ecd3-4290-8ed0-770794776383","system_id":"levelo_inurba_marseille","lat":43.32272,"lon":5.3826,"is_reserved":false,"is_disabled":false,"rental_uris":{"android":"levelo://app?vid=d344a5a6-ecd3-4290-8ed0-770794776383","ios":"levelo://app?vid=d344a5a6-ecd3-4290-8ed0-770794776383"},"vehicle_type_id":"4","last_reported":1758547314,"current_range_meters":10000,"station_id":"ce4bhr12rcd13ifvqhqg","pricing_plan_id":"cebpf4jnsgd1na2vs0mg"},{"bike_id":"438ead59-de14-4fa0-a61d-03a70a4122ae","system_id":"levelo_inurba_marseille","lat":43.97285,"lon":4.89134,"is_reserved":false,"is_disabled":true,"rental_uris":{"android":"levelo://app?vid=438ead59-de14-4fa0-a61d-03a70a4122ae","ios":"levelo://app?vid=438ead59-de14-4fa0-a61d-03a70a4122ae"},"vehicle_type_id":"4","last_reported":1758547314,"current_range_meters":10000,"station_id":"","pricing_plan_id":"cebpf4jnsgd1na2vs0mg"},{"bike_id":"4b7965aa-d15e-4358-8e44-54ca10a7d84b","system_id":"levelo_inurba_marseille","lat":43.28776,"lon":5.38614,"is_reserved":false,"is_disabled":false,"rental_uris":{"android":"levelo://app?vid=4b7965aa-d15e-4358-8e44-54ca10a7d84b","ios":"levelo://app?vid=4b7965aa-d15e-4358-8e44-54ca10a7d84b"},"vehicle_type_id":"4","last_reported":1758547314,"current_range_meters":10800,"station_id":"","pricing_plan_id":"cebpf4jnsgd1na2vs0mg"},{"bike_id":"7bf5befc-be22-4c06-933c-7b374ef7b173","system_id":"levelo_inurba_marseille","lat":43.30428,"lon":5.38878,"is_reserved":false,"is_disabled":false,"rental_uris":{"android":"levelo://app?vid=7bf5befc-be22-4c06-933c-7b374ef7b173","ios":"levelo://app?vid=7bf5befc-be22-4c06-933c-7b374ef7b173"},"vehicle_type_id":"4","last_reported":1758547314,"current_range_meters":10800,"station_id":"ce4bgk12rcd13ifvqbi0","pricing_plan_id":"cebpf4jnsgd1na2vs0mg"},{"bike_id":"bf6ffef4-5b77-4cb4-b46c-13eb1f2aa63e","system_id":"levelo_inurba_marseille","lat":43.29527,"lon":5.38542,"is_reserved":false,"is_disabled":false,"rental_uris":{"android":"levelo://app?vid=bf6ffef4-5b77-4cb4-b46c-13eb1f2aa63e","ios":"levelo://app?vid=bf6ffef4-5b77-4cb4-b46c-13eb1f2aa63e"},"vehicle_type_id":"4","last_reported":1758547314,"current_range_meters":10000,"station_id":"ce4bgih2rcd13ifvqba0","pricing_plan_id":"cebpf4jnsgd1na2vs0mg"},{"bike_id":"be01a9af-db6a-4865-9800-938ac2ab16b3","system_id":"levelo_inurba_marseille","lat":43.31074,"lon":5.38351,"is_reserved":false,"is_disabled":false,"rental_uris":{"android":"levelo://app?vid=be01a9af-db6a-4865-9800-938ac2ab16b3","ios":"levelo://app?vid=be01a9af-db6a-4865-9800-938ac2ab16b3"},"vehicle_type_id":"4","last_reported":1758547314,"current_range_meters":11200,"station_id":"ce4bgv92rcd13ifvqcr0","pricing_plan_id":"cebpf4jnsgd1na2vs0mg"},{"bike_id":"1acc509b-af85-4b58-bd74-e0c052811dd7","system_id":"levelo_inurba_marseille","lat":43.30284,"lon":5.396613,"is_reserved":false,"is_disabled":false,"rental_uris":{"android":"levelo://app?vid=1acc509b-af85-4b58-bd74-e0c052811dd7","ios":"levelo://app?vid=1acc509b-af85-4b58-bd74-e0c052811dd7"},"vehicle_type_id":"4","last_reported":1758547314,"current_range_meters":11200,"station_id":"","pricing_plan_id":"cebpf4jnsgd1na2vs0mg"},{"bike_id":"f3805ac9-2ab6-41f8-b374-0887d951860e","system_id":"levelo_inurba_marseille","lat":43.23064,"lon":5.3549,"is_reserved":false,"is_disabled":false,"rental_uris":{"android":"levelo://app?vid=f3805ac9-2ab6-41f8-b374-0887d951860e","ios":"levelo://app?vid=f3805ac9-2ab6-41f8-b374-0887d951860e"},"vehicle_type_id":"4","last_reported":1758547314,"current_range_meters":11200,"station_id":"cpo3342slgdg3j2ifvpg","pricing_plan_id":"cebpf4jnsgd1na2vs0mg"},{"bike_id":"5d871e6c-1fcc-48d5-adc3-95c2a8031c50","system_id":"levelo_inurba_marseille","lat":43.27488,"lon":5.42444,"is_reserved":false,"is_disabled":false,"rental_uris":{"android":"levelo://app?vid=5d871e6c-1fcc-48d5-adc3-95c2a8031c50","ios":"levelo://app?vid=5d871e6c-1fcc-48d5-adc3-95c2a8031c50"},"vehicle_type_id":"4","last_reported":1758547314,"current_range_meters":11200,"station_id":"ce4bhn92rcd13ifvqgrg","pricing_plan_id":"cebpf4jnsgd1na2vs0mg"},{"bike_id":"7fd5eb67-1f35-455f-bc5f-fc60ba6adf5c","system_id":"levelo_inurba_marseille","lat":43.29031,"lon":5.37556,"is_reserved":false,"is_disabled":false,"rental_uris":{"android":"levelo://app?vid=7fd5eb67-1f35-455f-bc5f-fc60ba6adf5c","ios":"levelo://app?vid=7fd5eb67-1f35-455f-bc5f-fc60ba6adf5c"},"vehicle_type_id":"4","last_reported":1758547314,"current_range_meters":11200,"station_id":"ce4bh692rcd13ifvqe90","pricing_plan_id":"cebpf4jnsgd1na2vs0mg"},{"bike_id":"37d47c27-b8fe-4cc2-aa50-fee59317b28d","system_id":"levelo_inurba_marseille","lat":43.25336,"lon":5.42171,"is_reserved":false,"is_disabled":false,"rental_uris":{"android":"levelo://app?vid=37d47c27-b8fe-4cc2-aa50-fee59317b28d","ios":"levelo://app?vid=37d47c27-b8fe-4cc2-aa50-fee59317b28d"},"vehicle_type_id":"4","last_reported":1758547314,"current_range_meters":11200,"station_id":"st_d2m65c5bi1j21697t3ng","pricing_plan_id":"cebpf4jnsgd1na2vs0mg"},{"bike_id":"e6bda7f0-2237-4d50-b7ca-c25207b3c961","system_id":"levelo_inurba_marseille","lat":43.27993,"lon":5.41668,"is_reserved":false,"is_disabled":false,"rental_uris":{"android":"levelo://app?vid=e6bda7f0-2237-4d50-b7ca-c25207b3c961","ios":"levelo://app?vid=e6bda7f0-2237-4d50-b7ca-c25207b3c961"},"vehicle_type_id":"4","last_reported":1758547314,"current_range_meters":11200,"station_id":"ce4bho12rcd13ifvqh1g","pricing_plan_id":"cebpf4jnsgd1na2vs0mg"},{"bike_id":"c3e9ec78-d16b-45ba-a192-2cfab652bb22","system_id":"levelo_inurba_marseille","lat":43.296088,"lon":5.369785,"is_reserved":false,"is_disabled":false,"rental_uris":{"android":"levelo://app?vid=c3e9ec78-d16b-45ba-a192-2cfab652bb22","ios":"levelo://app?vid=c3e9ec78-d16b-45ba-a192-2cfab652bb22"},"vehicle_type_id":"4","last_reported":1758547314,"current_range_meters":11200,"station_id":"","pricing_plan_id":"cebpf4jnsgd1na2vs0mg"},{"bike_id":"b8ca04f3-fe6c-4980-951a-f17740f76400","system_id":"levelo_inurba_marseille","lat":43.30936,"lon":5.3686,"is_reserved":false,"is_disabled":false,"rental_uris":{"android":"levelo://app?vid=b8ca04f3-fe6c-4980-951a-f17740f76400","ios":"levelo://app?vid=b8ca04f3-fe6c-4980-951a-f17740f76400"},"vehicle_type_id":"4","last_reported":1758547314,"current_range_meters":11600,"station_id":"ce4bgn92rcd13ifvqbvg","pricing_plan_id":"cebpf4jnsgd1na2vs0mg"},{"bike_id":"20bd5b79-365f-4b5d-b0bf-01d48e842c42","system_id":"levelo_inurba_marseille","lat":43.30144,"lon":5.39844,"is_reserved":false,"is_disabled":false,"rental_uris":{"android":"levelo://app?vid=20bd5b79-365f-4b5d-b0bf-01d48e842c42","ios":"levelo://app?vid=20bd5b79-365f-4b5d-b0bf-01d48e842c42"},"vehicle_type_id":"4","last_reported":1758547314,"current_range_meters":11200,"station_id":"ce4bh0h2rcd13ifvqd40","pricing_plan_id":"cebpf4jnsgd1na2vs0mg"},{"bike_id":"d662d586-6b92-43ec-97c9-8e079edcda76","system_id":"levelo_inurba_marseille","lat":43.23184,"lon":5.39983,"is_reserved":false,"is_disabled":false,"rental_uris":{"android":"levelo://app?vid=d662d586-6b92-43ec-97c9-8e079edcda76","ios":"levelo://app?vid=d662d586-6b92-43ec-97c9-8e079edcda76"},"vehicle_type_id":"4","last_reported":1758547314,"current_range_meters":11600,"station_id":"ce4bhn12rcd13ifvqgqg","pricing_plan_id":"cebpf4jnsgd1na2vs0mg"},{"bike_id":"c66f41b0-f79c-469f-a6a2-620e068e261e","system_id":"levelo_inurba_marseille","lat":43.28715,"lon":5.37936,"is_reserved":false,"is_disabled":false,"rental_uris":{"android":"levelo://app?vid=c66f41b0-f79c-469f-a6a2-620e068e261e","ios":"levelo://app?vid=c66f41b0-f79c-469f-a6a2-620e068e261e"},"vehicle_type_id":"4","last_reported":1758547314,"current_range_meters":11200,"station_id":"ce4bh9p2rcd13ifvqec0","pricing_plan_id":"cebpf4jnsgd1na2vs0mg"},{"bike_id":"6016b523-ffa5-4fde-ab30-ed8e65f0ce6f","system_id":"levelo_inurba_marseille","lat":43.29515,"lon":5.39042,"is_reserved":false,"is_disabled":false,"rental_uris":{"android":"levelo://app?vid=6016b523-ffa5-4fde-ab30-ed8e65f0ce6f","ios":"levelo://app?vid=6016b523-ffa5-4fde-ab30-ed8e65f0ce6f"},"vehicle_type_id":"4","last_reported":1758547314,"current_range_meters":11600,"station_id":"ce4bh3p2rcd13ifvqdp0","pricing_plan_id":"cebpf4jnsgd1na2vs0mg"},{"bike_id":"fc96cfd3-d46d-41d9-9808-b53c90eab13c","system_id":"levelo_inurba_marseille","lat":43.28968,"lon":5.37816,"is_reserved":false,"is_disabled":false,"rental_uris":{"android":"levelo://app?vid=fc96cfd3-d46d-41d9-9808-b53c90eab13c","ios":"levelo://app?vid=fc96cfd3-d46d-41d9-9808-b53c90eab13c"},"vehicle_type_id":"4","last_reported":1758547314,"current_range_meters":11600,"station_id":"ce4bh9p2rcd13ifvqed0","pricing_plan_id":"cebpf4jnsgd1na2vs0mg"},{"bike_id":"80341c0a-b728-4800-99ff-e61e960d4955","system_id":"levelo_inurba_marseille","lat":43.29911,"lon":5.37469,"is_reserved":false,"is_disabled":false,"rental_uris":{"android":"levelo://app?vid=80341c0a-b728-4800-99ff-e61e960d4955","ios":"levelo://app?vid=80341c0a-b728-4800-99ff-e61e960d4955"},"vehicle_type_id":"4","last_reported":1758547314,"current_range_meters":12000,"station_id":"ce4bgjh2rcd13ifvqbg0","pricing_plan_id":"cebpf4jnsgd1na2vs0mg"},{"bike_id":"d64a3c34-4f58-4a33-9858-96d7eeac0575","system_id":"levelo_inurba_marseille","lat":43.2294,"lon":5.35376,"is_reserved":false,"is_disabled":false,"rental_uris":{"android":"levelo://app?vid=d64a3c34-4f58-4a33-9858-96d7eeac0575","ios":"levelo://app?vid=d64a3c34-4f58-4a33-9858-96d7eeac0575"},"vehicle_type_id":"4","last_reported":1758547314,"current_range_meters":12000,"station_id":"cpo3532slgdg3j2ikp40","pricing_plan_id":"cebpf4jnsgd1na2vs0mg"},{"bike_id":"f8e45868-0255-4480-81ec-36d51cc9f1d0","system_id":"levelo_inurba_marseille","lat":43.23182,"lon":5.39989,"is_reserved":false,"is_disabled":false,"rental_uris":{"android":"levelo://app?vid=f8e45868-0255-4480-81ec-36d51cc9f1d0","ios":"levelo://app?vid=f8e45868-0255-4480-81ec-36d51cc9f1d0"},"vehicle_type_id":"4","last_reported":1758547314,"current_range_meters":12000,"station_id":"ce4bhn12rcd13ifvqgqg","pricing_plan_id":"cebpf4jnsgd1na2vs0mg"},{"bike_id":"1d6f41ec-e4cd-49a3-bb66-7487f870edf2","system_id":"levelo_inurba_marseille","lat":43.27619,"lon":5.36107,"is_reserved":false,"is_disabled":false,"rental_uris":{"android":"levelo://app?vid=1d6f41ec-e4cd-49a3-bb66-7487f870edf2","ios":"levelo://app?vid=1d6f41ec-e4cd-49a3-bb66-7487f870edf2"},"vehicle_type_id":"4","last_reported":1758547314,"current_range_meters":12000,"station_id":"ce4bgj92rcd13ifvqbe0","pricing_plan_id":"cebpf4jnsgd1na2vs0mg"},{"bike_id":"c46575d3-d222-4081-9970-3a38bb708282","system_id":"levelo_inurba_marseille","lat":43.22924,"lon":5.35416,"is_reserved":false,"is_disabled":false,"rental_uris":{"android":"levelo://app?vid=c46575d3-d222-4081-9970-3a38bb708282","ios":"levelo://app?vid=c46575d3-d222-4081-9970-3a38bb708282"},"vehicle_type_id":"4","last_reported":1758547314,"current_range_meters":12000,"station_id":"cpo3532slgdg3j2ikp40","pricing_plan_id":"cebpf4jnsgd1na2vs0mg"},{"bike_id":"43d57fd4-047e-4ac8-97e5-ec9b96239472","system_id":"levelo_inurba_marseille","lat":43.33123,"lon":5.39726,"is_reserved":false,"is_disabled":false,"rental_uris":{"android":"levelo://app?vid=43d57fd4-047e-4ac8-97e5-ec9b96239472","ios":"levelo://app?vid=43d57fd4-047e-4ac8-97e5-ec9b96239472"},"vehicle_type_id":"4","last_reported":1758547314,"current_range_meters":12000,"station_id":"","pricing_plan_id":"cebpf4jnsgd1na2vs0mg"},{"bike_id":"0e3fe692-0715-4b11-84d0-e197b805536d","system_id":"levelo_inurba_marseille","lat":43.336068,"lon":5.410502,"is_reserved":false,"is_disabled":false,"rental_uris":{"android":"levelo://app?vid=0e3fe692-0715-4b11-84d0-e197b805536d","ios":"levelo://app?vid=0e3fe692-0715-4b11-84d0-e197b805536d"},"vehicle_type_id":"4","last_reported":1758547314,"current_range_meters":12400,"station_id":"ce4bhqh2rcd13ifvqhmg","pricing_plan_id":"cebpf4jnsgd1na2vs0mg"},{"bike_id":"4f645b2f-8e26-48da-bb4b-8c374ac13384","system_id":"levelo_inurba_marseille","lat":43.21198,"lon":5.35061,"is_reserved":false,"is_disabled":false,"rental_uris":{"android":"levelo://app?vid=4f645b2f-8e26-48da-bb4b-8c374ac13384","ios":"levelo://app?vid=4f645b2f-8e26-48da-bb4b-8c374ac13384"},"vehicle_type_id":"4","last_reported":1758547314,"current_range_meters":12400,"station_id":"st_cvj6sg6p6f1abm77japg","pricing_plan_id":"cebpf4jnsgd1na2vs0mg"},{"bike_id":"4212e7a5-b2c0-4410-a088-eb772f64c4b7","system_id":"levelo_inurba_marseille","lat":43.271751,"lon":5.409945,"is_reserved":false,"is_disabled":false,"rental_uris":{"android":"levelo://app?vid=4212e7a5-b2c0-4410-a088-eb772f64c4b7","ios":"levelo://app?vid=4212e7a5-b2c0-4410-a088-eb772f64c4b7"},"vehicle_type_id":"4","last_reported":1758547314,"current_range_meters":12000,"station_id":"ce4bhl12rcd13ifvqgf0","pricing_plan_id":"cebpf4jnsgd1na2vs0mg"},{"bike_id":"a7e0fcb1-7f23-4053-a317-0cae7d88620c","system_id":"levelo_inurba_marseille","lat":43.30529,"lon":5.365337,"is_reserved":false,"is_disabled":false,"rental_uris":{"android":"levelo://app?vid=a7e0fcb1-7f23-4053-a317-0cae7d88620c","ios":"levelo://app?vid=a7e0fcb1-7f23-4053-a317-0cae7d88620c"},"vehicle_type_id":"4","last_reported":1758547314,"current_range_meters":12800,"station_id":"ce4bgs12rcd13ifvqcag","pricing_plan_id":"cebpf4jnsgd1na2vs0mg"},{"bike_id":"13a79454-5f9c-4bad-ab85-5d8f476a768a","system_id":"levelo_inurba_marseille","lat":43.27997,"lon":5.41654,"is_reserved":false,"is_disabled":false,"rental_uris":{"android":"levelo://app?vid=13a79454-5f9c-4bad-ab85-5d8f476a768a","ios":"levelo://app?vid=13a79454-5f9c-4bad-ab85-5d8f476a768a"},"vehicle_type_id":"4","last_reported":1758547314,"current_range_meters":12400,"station_id":"ce4bho12rcd13ifvqh1g","pricing_plan_id":"cebpf4jnsgd1na2vs0mg"},{"bike_id":"6a574e46-b472-4470-a7c7-e4293d3f5226","system_id":"levelo_inurba_marseille","lat":43.32668,"lon":5.41005,"is_reserved":false,"is_disabled":false,"rental_uris":{"android":"levelo://app?vid=6a574e46-b472-4470-a7c7-e4293d3f5226","ios":"levelo://app?vid=6a574e46-b472-4470-a7c7-e4293d3f5226"},"vehicle_type_id":"4","last_reported":1758547314,"current_range_meters":12400,"station_id":"ce4bhpp2rcd13ifvqhgg","pricing_plan_id":"cebpf4jnsgd1na2vs0mg"},{"bike_id":"aa615de6-88cf-4553-9e37-2b398204d202","system_id":"levelo_inurba_marseille","lat":43.21203,"lon":5.35085,"is_reserved":false,"is_disabled":false,"rental_uris":{"android":"levelo://app?vid=aa615de6-88cf-4553-9e37-2b398204d202","ios":"levelo://app?vid=aa615de6-88cf-4553-9e37-2b398204d202"},"vehicle_type_id":"4","last_reported":1758547314,"current_range_meters":12800,"station_id":"st_cvj6sg6p6f1abm77japg","pricing_plan_id":"cebpf4jnsgd1na2vs0mg"},{"bike_id":"06cda1c2-cdee-4e34-8bec-c511f8d1421d","system_id":"levelo_inurba_marseille","lat":43.291,"lon":5.38132,"is_reserved":false,"is_disabled":false,"rental_uris":{"android":"levelo://app?vid=06cda1c2-cdee-4e34-8bec-c511f8d1421d","ios":"levelo://app?vid=06cda1c2-cdee-4e34-8bec-c511f8d1421d"},"vehicle_type_id":"4","last_reported":1758547314,"current_range_meters":13600,"station_id":"ce4bh512rcd13ifvqe2g","pricing_plan_id":"cebpf4jnsgd1na2vs0mg"},{"bike_id":"12e77a2f-3171-44d0-8d53-e7a881052ae9","system_id":"levelo_inurba_marseille","lat":43.23063,"lon":5.35486,"is_reserved":false,"is_disabled":false,"rental_uris":{"android":"levelo://app?vid=12e77a2f-3171-44d0-8d53-e7a881052ae9","ios":"levelo://app?vid=12e77a2f-3171-44d0-8d53-e7a881052ae9"},"vehicle_type_id":"4","last_reported":1758547314,"current_range_meters":12800,"station_id":"cpo3342slgdg3j2ifvpg","pricing_plan_id":"cebpf4jnsgd1na2vs0mg"},{"bike_id":"f20f4a43-713b-4987-8dba-c341e0bc0e57","system_id":"levelo_inurba_marseille","lat":43.27069,"lon":5.4228,"is_reserved":false,"is_disabled":false,"rental_uris":{"android":"levelo://app?vid=f20f4a43-713b-4987-8dba-c341e0bc0e57","ios":"levelo://app?vid=f20f4a43-713b-4987-8dba-c341e0bc0e57"},"vehicle_type_id":"4","last_reported":1758547314,"current_range_meters":12800,"station_id":"ce4bhk92rcd13ifvqgb0","pricing_plan_id":"cebpf4jnsgd1na2vs0mg"},{"bike_id":"4ffb7803-8363-477e-8aa8-b8247a5ab92d","system_id":"levelo_inurba_marseille","lat":43.29968,"lon":5.38488,"is_reserved":false,"is_disabled":false,"rental_uris":{"android":"levelo://app?vid=4ffb7803-8363-477e-8aa8-b8247a5ab92d","ios":"levelo://app?vid=4ffb7803-8363-477e-8aa8-b8247a5ab92d"},"vehicle_type_id":"4","last_reported":1758547314,"current_range_meters":12800,"station_id":"ce4bgj92rcd13ifvqbd0","pricing_plan_id":"cebpf4jnsgd1na2vs0mg"},{"bike_id":"b0ece6dd-02df-4a38-b85c-23b3341d3a19","system_id":"levelo_inurba_marseille","lat":43.30262,"lon":5.40121,"is_reserved":false,"is_disabled":false,"rental_uris":{"android":"levelo://app?vid=b0ece6dd-02df-4a38-b85c-23b3341d3a19","ios":"levelo://app?vid=b0ece6dd-02df-4a38-b85c-23b3341d3a19"},"vehicle_type_id":"4","last_reported":1758547314,"current_range_meters":12800,"station_id":"ce4bgvh2rcd13ifvqcs0","pricing_plan_id":"cebpf4jnsgd1na2vs0mg"},{"bike_id":"2bc0a34a-1f97-4b08-8781-257efd89471c","system_id":"levelo_inurba_marseille","lat":43.32925,"lon":5.3997,"is_reserved":false,"is_disabled":false,"rental_uris":{"android":"levelo://app?vid=2bc0a34a-1f97-4b08-8781-257efd89471c","ios":"levelo://app?vid=2bc0a34a-1f97-4b08-8781-257efd89471c"},"vehicle_type_id":"4","last_reported":1758547314,"current_range_meters":12800,"station_id":"","pricing_plan_id":"cebpf4jnsgd1na2vs0mg"},{"bike_id":"023657f1-8e87-4e5e-8f37-54224de37205","system_id":"levelo_inurba_marseille","lat":43.29003,"lon":5.35604,"is_reserved":false,"is_disabled":false,"rental_uris":{"android":"levelo://app?vid=023657f1-8e87-4e5e-8f37-54224de37205","ios":"levelo://app?vid=023657f1-8e87-4e5e-8f37-54224de37205"},"vehicle_type_id":"4","last_reported":1758547314,"current_range_meters":12800,"station_id":"ce4bhb92rcd13ifvqen0","pricing_plan_id":"cebpf4jnsgd1na2vs0mg"},{"bike_id":"40e948ef-baaf-4666-b1e4-f799ea86a8d4","system_id":"levelo_inurba_marseille","lat":43.32285,"lon":5.38245,"is_reserved":false,"is_disabled":false,"rental_uris":{"android":"levelo://app?vid=40e948ef-baaf-4666-b1e4-f799ea86a8d4","ios":"levelo://app?vid=40e948ef-baaf-4666-b1e4-f799ea86a8d4"},"vehicle_type_id":"4","last_reported":1758547314,"current_range_meters":12800,"station_id":"ce4bhr12rcd13ifvqhqg","pricing_plan_id":"cebpf4jnsgd1na2vs0mg"},{"bike_id":"3c1ba13e-5d4d-4661-9384-9868ca28d847","system_id":"levelo_inurba_marseille","lat":43.29531,"lon":5.39035,"is_reserved":false,"is_disabled":false,"rental_uris":{"android":"levelo://app?vid=3c1ba13e-5d4d-4661-9384-9868ca28d847","ios":"levelo://app?vid=3c1ba13e-5d4d-4661-9384-9868ca28d847"},"vehicle_type_id":"4","last_reported":1758547314,"current_range_meters":13600,"station_id":"ce4bh3p2rcd13ifvqdp0","pricing_plan_id":"cebpf4jnsgd1na2vs0mg"},{"bike_id":"ec14155c-f9ac-4f1a-ba06-934b61e8e6c8","system_id":"levelo_inurba_marseille","lat":43.3249,"lon":5.36579,"is_reserved":false,"is_disabled":false,"rental_uris":{"android":"levelo://app?vid=ec14155c-f9ac-4f1a-ba06-934b61e8e6c8","ios":"levelo://app?vid=ec14155c-f9ac-4f1a-ba06-934b61e8e6c8"},"vehicle_type_id":"4","last_reported":1758547314,"current_range_meters":13600,"station_id":"ce4bhs12rcd13ifvqhvg","pricing_plan_id":"cebpf4jnsgd1na2vs0mg"},{"bike_id":"3fc867c9-ec47-4da0-bc27-177a911f177a","system_id":"levelo_inurba_marseille","lat":43.30556,"lon":5.36683,"is_reserved":false,"is_disabled":false,"rental_uris":{"android":"levelo://app?vid=3fc867c9-ec47-4da0-bc27-177a911f177a","ios":"levelo://app?vid=3fc867c9-ec47-4da0-bc27-177a911f177a"},"vehicle_type_id":"4","last_reported":1758547314,"current_range_meters":13600,"station_id":"ce4bgrp2rcd13ifvqc9g","pricing_plan_id":"cebpf4jnsgd1na2vs0mg"},{"bike_id":"535ea8ab-6bbf-4308-a063-98b6d205f8fb","system_id":"levelo_inurba_marseille","lat":43.26565,"lon":5.39005,"is_reserved":false,"is_disabled":false,"rental_uris":{"android":"levelo://app?vid=535ea8ab-6bbf-4308-a063-98b6d205f8fb","ios":"levelo://app?vid=535ea8ab-6bbf-4308-a063-98b6d205f8fb"},"vehicle_type_id":"4","last_reported":1758547314,"current_range_meters":13600,"station_id":"ce4bhe12rcd13ifvqf30","pricing_plan_id":"cebpf4jnsgd1na2vs0mg"},{"bike_id":"90e14a2d-1c9e-457a-a1d7-7257e3270581","system_id":"levelo_inurba_marseille","lat":43.28001,"lon":5.41663,"is_reserved":false,"is_disabled":true,"rental_uris":{"android":"levelo://app?vid=90e14a2d-1c9e-457a-a1d7-7257e3270581","ios":"levelo://app?vid=90e14a2d-1c9e-457a-a1d7-7257e3270581"},"vehicle_type_id":"4","last_reported":1758547314,"current_range_meters":13600,"station_id":"ce4bho12rcd13ifvqh1g","pricing_plan_id":"cebpf4jnsgd1na2vs0mg"},{"bike_id":"f0fca713-2b9c-4144-bedb-3a48811b75eb","system_id":"levelo_inurba_marseille","lat":43.32286,"lon":5.38291,"is_reserved":false,"is_disabled":false,"rental_uris":{"android":"levelo://app?vid=f0fca713-2b9c-4144-bedb-3a48811b75eb","ios":"levelo://app?vid=f0fca713-2b9c-4144-bedb-3a48811b75eb"},"vehicle_type_id":"4","last_reported":1758547314,"current_range_meters":13600,"station_id":"ce4bhr12rcd13ifvqhqg","pricing_plan_id":"cebpf4jnsgd1na2vs0mg"},{"bike_id":"94dc763b-5c60-4e8c-a6fc-573bcaf8f7f0","system_id":"levelo_inurba_marseille","lat":43.32471,"lon":5.36559,"is_reserved":false,"is_disabled":false,"rental_uris":{"android":"levelo://app?vid=94dc763b-5c60-4e8c-a6fc-573bcaf8f7f0","ios":"levelo://app?vid=94dc763b-5c60-4e8c-a6fc-573bcaf8f7f0"},"vehicle_type_id":"4","last_reported":1758547314,"current_range_meters":14000,"station_id":"ce4bhs12rcd13ifvqhvg","pricing_plan_id":"cebpf4jnsgd1na2vs0mg"},{"bike_id":"57328824-0b74-4e0f-af29-46d948722f56","system_id":"levelo_inurba_marseille","lat":43.291088,"lon":5.381139,"is_reserved":false,"is_disabled":false,"rental_uris":{"android":"levelo://app?vid=57328824-0b74-4e0f-af29-46d948722f56","ios":"levelo://app?vid=57328824-0b74-4e0f-af29-46d948722f56"},"vehicle_type_id":"4","last_reported":1758547314,"current_range_meters":13600,"station_id":"ce4bh512rcd13ifvqe2g","pricing_plan_id":"cebpf4jnsgd1na2vs0mg"},{"bike_id":"51d92c87-aa59-4783-b818-f9c5a7eebd73","system_id":"levelo_inurba_marseille","lat":43.295167,"lon":5.373943,"is_reserved":false,"is_disabled":false,"rental_uris":{"android":"levelo://app?vid=51d92c87-aa59-4783-b818-f9c5a7eebd73","ios":"levelo://app?vid=51d92c87-aa59-4783-b818-f9c5a7eebd73"},"vehicle_type_id":"4","last_reported":1758547314,"current_range_meters":14400,"station_id":"","pricing_plan_id":"cebpf4jnsgd1na2vs0mg"},{"bike_id":"63b561f5-776f-4da4-aebd-9feef7477b33","system_id":"levelo_inurba_marseille","lat":43.30946,"lon":5.39018,"is_reserved":false,"is_disabled":false,"rental_uris":{"android":"levelo://app?vid=63b561f5-776f-4da4-aebd-9feef7477b33","ios":"levelo://app?vid=63b561f5-776f-4da4-aebd-9feef7477b33"},"vehicle_type_id":"4","last_reported":1758547314,"current_range_meters":14400,"station_id":"ce4bgup2rcd13ifvqco0","pricing_plan_id":"cebpf4jnsgd1na2vs0mg"},{"bike_id":"0b2230e3-adb9-421c-91b1-c113eb397705","system_id":"levelo_inurba_marseille","lat":43.28917,"lon":5.37632,"is_reserved":false,"is_disabled":false,"rental_uris":{"android":"levelo://app?vid=0b2230e3-adb9-421c-91b1-c113eb397705","ios":"levelo://app?vid=0b2230e3-adb9-421c-91b1-c113eb397705"},"vehicle_type_id":"4","last_reported":1758547314,"current_range_meters":14400,"station_id":"","pricing_plan_id":"cebpf4jnsgd1na2vs0mg"},{"bike_id":"c1b8bb54-328d-4d53-b541-cfb9ce34db66","system_id":"levelo_inurba_marseille","lat":43.29933,"lon":5.3655,"is_reserved":false,"is_disabled":false,"rental_uris":{"android":"levelo://app?vid=c1b8bb54-328d-4d53-b541-cfb9ce34db66","ios":"levelo://app?vid=c1b8bb54-328d-4d53-b541-cfb9ce34db66"},"vehicle_type_id":"4","last_reported":1758547314,"current_range_meters":14400,"station_id":"ce4bgm92rcd13ifvqbr0","pricing_plan_id":"cebpf4jnsgd1na2vs0mg"},{"bike_id":"ad2db62e-2dbb-48a8-8dee-fe17b8496425","system_id":"levelo_inurba_marseille","lat":43.30163,"lon":5.37396,"is_reserved":false,"is_disabled":false,"rental_uris":{"android":"levelo://app?vid=ad2db62e-2dbb-48a8-8dee-fe17b8496425","ios":"levelo://app?vid=ad2db62e-2dbb-48a8-8dee-fe17b8496425"},"vehicle_type_id":"4","last_reported":1758547314,"current_range_meters":14400,"station_id":"ce4bgs92rcd13ifvqcc0","pricing_plan_id":"cebpf4jnsgd1na2vs0mg"},{"bike_id":"b2be2404-53eb-4f74-9829-8104df3de106","system_id":"levelo_inurba_marseille","lat":43.33634,"lon":5.35448,"is_reserved":false,"is_disabled":false,"rental_uris":{"android":"levelo://app?vid=b2be2404-53eb-4f74-9829-8104df3de106","ios":"levelo://app?vid=b2be2404-53eb-4f74-9829-8104df3de106"},"vehicle_type_id":"4","last_reported":1758547314,"current_range_meters":14400,"station_id":"","pricing_plan_id":"cebpf4jnsgd1na2vs0mg"},{"bike_id":"a545d611-006a-48f6-a34f-1e07956e279e","system_id":"levelo_inurba_marseille","lat":43.31539,"lon":5.38025,"is_reserved":false,"is_disabled":false,"rental_uris":{"android":"levelo://app?vid=a545d611-006a-48f6-a34f-1e07956e279e","ios":"levelo://app?vid=a545d611-006a-48f6-a34f-1e07956e279e"},"vehicle_type_id":"4","last_reported":1758547314,"current_range_meters":14800,"station_id":"ce4bhsp2rcd13ifvqi50","pricing_plan_id":"cebpf4jnsgd1na2vs0mg"},{"bike_id":"3c1f8d36-3f53-4c54-9d0e-bef36c7b1388","system_id":"levelo_inurba_marseille","lat":43.301453,"lon":5.374142,"is_reserved":false,"is_disabled":false,"rental_uris":{"android":"levelo://app?vid=3c1f8d36-3f53-4c54-9d0e-bef36c7b1388","ios":"levelo://app?vid=3c1f8d36-3f53-4c54-9d0e-bef36c7b1388"},"vehicle_type_id":"4","last_reported":1758547314,"current_range_meters":14800,"station_id":"ce4bgs92rcd13ifvqcc0","pricing_plan_id":"cebpf4jnsgd1na2vs0mg"},{"bike_id":"94d430e6-52b3-4d21-80c9-c6dd4519a8fb","system_id":"levelo_inurba_marseille","lat":43.3178,"lon":5.38295,"is_reserved":false,"is_disabled":false,"rental_uris":{"android":"levelo://app?vid=94d430e6-52b3-4d21-80c9-c6dd4519a8fb","ios":"levelo://app?vid=94d430e6-52b3-4d21-80c9-c6dd4519a8fb"},"vehicle_type_id":"4","last_reported":1758547314,"current_range_meters":14800,"station_id":"","pricing_plan_id":"cebpf4jnsgd1na2vs0mg"},{"bike_id":"21bb353f-2989-4607-b5fb-56a4b46b67bb","system_id":"levelo_inurba_marseille","lat":43.24169,"lon":5.36385,"is_reserved":false,"is_disabled":false,"rental_uris":{"android":"levelo://app?vid=21bb353f-2989-4607-b5fb-56a4b46b67bb","ios":"levelo://app?vid=21bb353f-2989-4607-b5fb-56a4b46b67bb"},"vehicle_type_id":"4","last_reported":1758547314,"current_range_meters":14800,"station_id":"cpo36qri1sfpv3e86is0","pricing_plan_id":"cebpf4jnsgd1na2vs0mg"},{"bike_id":"a0b8fe8b-0978-42a0-9702-aa69f355173a","system_id":"levelo_inurba_marseille","lat":43.30275,"lon":5.37698,"is_reserved":false,"is_disabled":false,"rental_uris":{"android":"levelo://app?vid=a0b8fe8b-0978-42a0-9702-aa69f355173a","ios":"levelo://app?vid=a0b8fe8b-0978-42a0-9702-aa69f355173a"},"vehicle_type_id":"4","last_reported":1758547314,"current_range_meters":14800,"station_id":"ce4bguh2rcd13ifvqcj0","pricing_plan_id":"cebpf4jnsgd1na2vs0mg"},{"bike_id":"734f7642-3883-459d-a35c-8b9c5ee266ae","system_id":"levelo_inurba_marseille","lat":43.27077,"lon":5.42282,"is_reserved":false,"is_disabled":false,"rental_uris":{"android":"levelo://app?vid=734f7642-3883-459d-a35c-8b9c5ee266ae","ios":"levelo://app?vid=734f7642-3883-459d-a35c-8b9c5ee266ae"},"vehicle_type_id":"4","last_reported":1758547314,"current_range_meters":15200,"station_id":"ce4bhk92rcd13ifvqgb0","pricing_plan_id":"cebpf4jnsgd1na2vs0mg"},{"bike_id":"7e0b464a-905d-4ed9-b19f-3d5b62534e50","system_id":"levelo_inurba_marseille","lat":43.2119,"lon":5.35041,"is_reserved":false,"is_disabled":false,"rental_uris":{"android":"levelo://app?vid=7e0b464a-905d-4ed9-b19f-3d5b62534e50","ios":"levelo://app?vid=7e0b464a-905d-4ed9-b19f-3d5b62534e50"},"vehicle_type_id":"4","last_reported":1758547314,"current_range_meters":15200,"station_id":"st_cvj6sg6p6f1abm77japg","pricing_plan_id":"cebpf4jnsgd1na2vs0mg"},{"bike_id":"13150c61-152d-436d-8daa-c280ed483848","system_id":"levelo_inurba_marseille","lat":43.32014,"lon":5.41544,"is_reserved":false,"is_disabled":false,"rental_uris":{"android":"levelo://app?vid=13150c61-152d-436d-8daa-c280ed483848","ios":"levelo://app?vid=13150c61-152d-436d-8daa-c280ed483848"},"vehicle_type_id":"4","last_reported":1758547314,"current_range_meters":15200,"station_id":"ce4bhq92rcd13ifvqhkg","pricing_plan_id":"cebpf4jnsgd1na2vs0mg"},{"bike_id":"bcc26225-3fc0-4f7b-b807-ef403cb82bf9","system_id":"levelo_inurba_marseille","lat":43.2655,"lon":5.37297,"is_reserved":false,"is_disabled":false,"rental_uris":{"android":"levelo://app?vid=bcc26225-3fc0-4f7b-b807-ef403cb82bf9","ios":"levelo://app?vid=bcc26225-3fc0-4f7b-b807-ef403cb82bf9"},"vehicle_type_id":"4","last_reported":1758547314,"current_range_meters":15200,"station_id":"ce4bhg12rcd13ifvqf70","pricing_plan_id":"cebpf4jnsgd1na2vs0mg"},{"bike_id":"dc060917-4ac8-4299-a106-b25803a4d792","system_id":"levelo_inurba_marseille","lat":43.24077,"lon":5.3776,"is_reserved":false,"is_disabled":false,"rental_uris":{"android":"levelo://app?vid=dc060917-4ac8-4299-a106-b25803a4d792","ios":"levelo://app?vid=dc060917-4ac8-4299-a106-b25803a4d792"},"vehicle_type_id":"4","last_reported":1758547314,"current_range_meters":15200,"station_id":"ce4bhnp2rcd13ifvqgvg","pricing_plan_id":"cebpf4jnsgd1na2vs0mg"},{"bike_id":"aec795af-edb4-4cb9-ad24-bcd1425b355e","system_id":"levelo_inurba_marseille","lat":43.27685,"lon":5.38874,"is_reserved":false,"is_disabled":false,"rental_uris":{"android":"levelo://app?vid=aec795af-edb4-4cb9-ad24-bcd1425b355e","ios":"levelo://app?vid=aec795af-edb4-4cb9-ad24-bcd1425b355e"},"vehicle_type_id":"4","last_reported":1758547314,"current_range_meters":15200,"station_id":"ce4bhi12rcd13ifvqfo0","pricing_plan_id":"cebpf4jnsgd1na2vs0mg"},{"bike_id":"5f842832-4ff8-49ff-8ba3-51ff241068df","system_id":"levelo_inurba_marseille","lat":43.27214,"lon":5.39181,"is_reserved":false,"is_disabled":false,"rental_uris":{"android":"levelo://app?vid=5f842832-4ff8-49ff-8ba3-51ff241068df","ios":"levelo://app?vid=5f842832-4ff8-49ff-8ba3-51ff241068df"},"vehicle_type_id":"4","last_reported":1758547314,"current_range_meters":16000,"station_id":"ce4bhhp2rcd13ifvqfm0","pricing_plan_id":"cebpf4jnsgd1na2vs0mg"},{"bike_id":"ef75d15d-c28a-4fe7-853a-ed887e41d629","system_id":"levelo_inurba_marseille","lat":43.217522,"lon":5.345984,"is_reserved":false,"is_disabled":false,"rental_uris":{"android":"levelo://app?vid=ef75d15d-c28a-4fe7-853a-ed887e41d629","ios":"levelo://app?vid=ef75d15d-c28a-4fe7-853a-ed887e41d629"},"vehicle_type_id":"4","last_reported":1758547314,"current_range_meters":16000,"station_id":"st_cvj6r9ubvosntc0bgbag","pricing_plan_id":"cebpf4jnsgd1na2vs0mg"},{"bike_id":"4c011120-58cb-47bd-988b-7f1cba38a456","system_id":"levelo_inurba_marseille","lat":43.24654,"lon":5.43141,"is_reserved":false,"is_disabled":false,"rental_uris":{"android":"levelo://app?vid=4c011120-58cb-47bd-988b-7f1cba38a456","ios":"levelo://app?vid=4c011120-58cb-47bd-988b-7f1cba38a456"},"vehicle_type_id":"4","last_reported":1758547314,"current_range_meters":16000,"station_id":"st_d2m6c4gdas8pm72e190g","pricing_plan_id":"cebpf4jnsgd1na2vs0mg"},{"bike_id":"34072093-f9b6-4017-998e-95b181d82c91","system_id":"levelo_inurba_marseille","lat":43.294389,"lon":5.388175,"is_reserved":false,"is_disabled":false,"rental_uris":{"android":"levelo://app?vid=34072093-f9b6-4017-998e-95b181d82c91","ios":"levelo://app?vid=34072093-f9b6-4017-998e-95b181d82c91"},"vehicle_type_id":"4","last_reported":1758547314,"current_range_meters":16000,"station_id":"","pricing_plan_id":"cebpf4jnsgd1na2vs0mg"},{"bike_id":"953a7b62-5b9e-4efe-9217-b37cf1896bf0","system_id":"levelo_inurba_marseille","lat":43.21191,"lon":5.35088,"is_reserved":false,"is_disabled":false,"rental_uris":{"android":"levelo://app?vid=953a7b62-5b9e-4efe-9217-b37cf1896bf0","ios":"levelo://app?vid=953a7b62-5b9e-4efe-9217-b37cf1896bf0"},"vehicle_type_id":"4","last_reported":1758547314,"current_range_meters":16000,"station_id":"st_cvj6sg6p6f1abm77japg","pricing_plan_id":"cebpf4jnsgd1na2vs0mg"},{"bike_id":"d80cb768-6893-4d2e-b91c-58c7f98e4468","system_id":"levelo_inurba_marseille","lat":43.27065,"lon":5.4226,"is_reserved":false,"is_disabled":false,"rental_uris":{"android":"levelo://app?vid=d80cb768-6893-4d2e-b91c-58c7f98e4468","ios":"levelo://app?vid=d80cb768-6893-4d2e-b91c-58c7f98e4468"},"vehicle_type_id":"4","last_reported":1758547314,"current_range_meters":16400,"station_id":"ce4bhk92rcd13ifvqgb0","pricing_plan_id":"cebpf4jnsgd1na2vs0mg"},{"bike_id":"f5554f7f-92cb-42ea-ba5a-4846ce19b04f","system_id":"levelo_inurba_marseille","lat":43.27177,"lon":5.39137,"is_reserved":false,"is_disabled":false,"rental_uris":{"android":"levelo://app?vid=f5554f7f-92cb-42ea-ba5a-4846ce19b04f","ios":"levelo://app?vid=f5554f7f-92cb-42ea-ba5a-4846ce19b04f"},"vehicle_type_id":"4","last_reported":1758547314,"current_range_meters":16400,"station_id":"ce4bhhp2rcd13ifvqfm0","pricing_plan_id":"cebpf4jnsgd1na2vs0mg"},{"bike_id":"256595de-240d-4c5f-a89b-19203ce847b4","system_id":"levelo_inurba_marseille","lat":43.28708,"lon":5.37943,"is_reserved":false,"is_disabled":false,"rental_uris":{"android":"levelo://app?vid=256595de-240d-4c5f-a89b-19203ce847b4","ios":"levelo://app?vid=256595de-240d-4c5f-a89b-19203ce847b4"},"vehicle_type_id":"4","last_reported":1758547314,"current_range_meters":16400,"station_id":"ce4bh9p2rcd13ifvqec0","pricing_plan_id":"cebpf4jnsgd1na2vs0mg"},{"bike_id":"b35b66a7-f6ef-4e76-bccf-871f4c1954ce","system_id":"levelo_inurba_marseille","lat":43.29568,"lon":5.39966,"is_reserved":false,"is_disabled":false,"rental_uris":{"android":"levelo://app?vid=b35b66a7-f6ef-4e76-bccf-871f4c1954ce","ios":"levelo://app?vid=b35b66a7-f6ef-4e76-bccf-871f4c1954ce"},"vehicle_type_id":"4","last_reported":1758547314,"current_range_meters":16000,"station_id":"ce4bh312rcd13ifvqdj0","pricing_plan_id":"cebpf4jnsgd1na2vs0mg"},{"bike_id":"6c2ccec1-b13f-4ca6-9191-d1ab1fc484ed","system_id":"levelo_inurba_marseille","lat":43.21207,"lon":5.35037,"is_reserved":false,"is_disabled":false,"rental_uris":{"android":"levelo://app?vid=6c2ccec1-b13f-4ca6-9191-d1ab1fc484ed","ios":"levelo://app?vid=6c2ccec1-b13f-4ca6-9191-d1ab1fc484ed"},"vehicle_type_id":"4","last_reported":1758547314,"current_range_meters":16400,"station_id":"","pricing_plan_id":"cebpf4jnsgd1na2vs0mg"},{"bike_id":"75aab3be-272c-40dd-839c-82de4a155771","system_id":"levelo_inurba_marseille","lat":43.27938,"lon":5.38791,"is_reserved":false,"is_disabled":false,"rental_uris":{"android":"levelo://app?vid=75aab3be-272c-40dd-839c-82de4a155771","ios":"levelo://app?vid=75aab3be-272c-40dd-839c-82de4a155771"},"vehicle_type_id":"4","last_reported":1758547314,"current_range_meters":16400,"station_id":"","pricing_plan_id":"cebpf4jnsgd1na2vs0mg"},{"bike_id":"4519ded0-f3b9-42bd-af35-e69456d100e8","system_id":"levelo_inurba_marseille","lat":43.29284,"lon":5.3834,"is_reserved":false,"is_disabled":false,"rental_uris":{"android":"levelo://app?vid=4519ded0-f3b9-42bd-af35-e69456d100e8","ios":"levelo://app?vid=4519ded0-f3b9-42bd-af35-e69456d100e8"},"vehicle_type_id":"4","last_reported":1758547314,"current_range_meters":16400,"station_id":"","pricing_plan_id":"cebpf4jnsgd1na2vs0mg"},{"bike_id":"df1dfc6f-ed41-43d8-aa4d-f1e91b76d7fe","system_id":"levelo_inurba_marseille","lat":43.25024,"lon":5.38909,"is_reserved":false,"is_disabled":false,"rental_uris":{"android":"levelo://app?vid=df1dfc6f-ed41-43d8-aa4d-f1e91b76d7fe","ios":"levelo://app?vid=df1dfc6f-ed41-43d8-aa4d-f1e91b76d7fe"},"vehicle_type_id":"4","last_reported":1758547314,"current_range_meters":16800,"station_id":"ce4bhgp2rcd13ifvqfd0","pricing_plan_id":"cebpf4jnsgd1na2vs0mg"},{"bike_id":"0163730e-f682-4707-a459-be35b6d5d3a4","system_id":"levelo_inurba_marseille","lat":43.33039,"lon":5.39035,"is_reserved":false,"is_disabled":false,"rental_uris":{"android":"levelo://app?vid=0163730e-f682-4707-a459-be35b6d5d3a4","ios":"levelo://app?vid=0163730e-f682-4707-a459-be35b6d5d3a4"},"vehicle_type_id":"4","last_reported":1758547314,"current_range_meters":16800,"station_id":"ce4bhr92rcd13ifvqhrg","pricing_plan_id":"cebpf4jnsgd1na2vs0mg"},{"bike_id":"75cdae86-aa3c-46f9-92bf-f3662c1063cf","system_id":"levelo_inurba_marseille","lat":43.33738,"lon":5.39191,"is_reserved":false,"is_disabled":false,"rental_uris":{"android":"levelo://app?vid=75cdae86-aa3c-46f9-92bf-f3662c1063cf","ios":"levelo://app?vid=75cdae86-aa3c-46f9-92bf-f3662c1063cf"},"vehicle_type_id":"4","last_reported":1758547314,"current_range_meters":16800,"station_id":"ce4bhr92rcd13ifvqhsg","pricing_plan_id":"cebpf4jnsgd1na2vs0mg"},{"bike_id":"b36ead3f-3423-4ec9-bb4c-323023f64e4e","system_id":"levelo_inurba_marseille","lat":43.32038,"lon":5.41549,"is_reserved":false,"is_disabled":false,"rental_uris":{"android":"levelo://app?vid=b36ead3f-3423-4ec9-bb4c-323023f64e4e","ios":"levelo://app?vid=b36ead3f-3423-4ec9-bb4c-323023f64e4e"},"vehicle_type_id":"4","last_reported":1758547314,"current_range_meters":16800,"station_id":"ce4bhq92rcd13ifvqhkg","pricing_plan_id":"cebpf4jnsgd1na2vs0mg"},{"bike_id":"09312089-91bd-4c3f-bdc0-5cd0bebed1e3","system_id":"levelo_inurba_marseille","lat":43.29298,"lon":5.3746,"is_reserved":false,"is_disabled":false,"rental_uris":{"android":"levelo://app?vid=09312089-91bd-4c3f-bdc0-5cd0bebed1e3","ios":"levelo://app?vid=09312089-91bd-4c3f-bdc0-5cd0bebed1e3"},"vehicle_type_id":"4","last_reported":1758547314,"current_range_meters":16800,"station_id":"ce4bgi12rcd13ifvqb70","pricing_plan_id":"cebpf4jnsgd1na2vs0mg"},{"bike_id":"ec2660f7-68b1-4255-8dc4-559a4741aea0","system_id":"levelo_inurba_marseille","lat":43.30543,"lon":5.36531,"is_reserved":false,"is_disabled":false,"rental_uris":{"android":"levelo://app?vid=ec2660f7-68b1-4255-8dc4-559a4741aea0","ios":"levelo://app?vid=ec2660f7-68b1-4255-8dc4-559a4741aea0"},"vehicle_type_id":"4","last_reported":1758547314,"current_range_meters":16800,"station_id":"ce4bgs12rcd13ifvqcag","pricing_plan_id":"cebpf4jnsgd1na2vs0mg"},{"bike_id":"6b0e78fb-e15f-41b1-a191-b4b5ca219d2a","system_id":"levelo_inurba_marseille","lat":43.25684,"lon":5.41131,"is_reserved":false,"is_disabled":false,"rental_uris":{"android":"levelo://app?vid=6b0e78fb-e15f-41b1-a191-b4b5ca219d2a","ios":"levelo://app?vid=6b0e78fb-e15f-41b1-a191-b4b5ca219d2a"},"vehicle_type_id":"4","last_reported":1758547314,"current_range_meters":16800,"station_id":"ce4bhkp2rcd13ifvqgd0","pricing_plan_id":"cebpf4jnsgd1na2vs0mg"},{"bike_id":"8aa1f4a5-ce10-4dc8-ad09-652566773495","system_id":"levelo_inurba_marseille","lat":43.312298,"lon":5.36891,"is_reserved":false,"is_disabled":true,"rental_uris":{"android":"levelo://app?vid=8aa1f4a5-ce10-4dc8-ad09-652566773495","ios":"levelo://app?vid=8aa1f4a5-ce10-4dc8-ad09-652566773495"},"vehicle_type_id":"4","last_reported":1758547314,"current_range_meters":16800,"station_id":"ce4bgl92rcd13ifvqbq0","pricing_plan_id":"cebpf4jnsgd1na2vs0mg"},{"bike_id":"6210641e-392b-400e-990b-b6f0b5af54f0","system_id":"levelo_inurba_marseille","lat":43.32367,"lon":5.36778,"is_reserved":false,"is_disabled":false,"rental_uris":{"android":"levelo://app?vid=6210641e-392b-400e-990b-b6f0b5af54f0","ios":"levelo://app?vid=6210641e-392b-400e-990b-b6f0b5af54f0"},"vehicle_type_id":"4","last_reported":1758547314,"current_range_meters":16800,"station_id":"ce4bhsh2rcd13ifvqi2g","pricing_plan_id":"cebpf4jnsgd1na2vs0mg"},{"bike_id":"4e416ea8-8ff9-4de9-b3a4-e969017608aa","system_id":"levelo_inurba_marseille","lat":43.23966,"lon":5.36623,"is_reserved":false,"is_disabled":false,"rental_uris":{"android":"levelo://app?vid=4e416ea8-8ff9-4de9-b3a4-e969017608aa","ios":"levelo://app?vid=4e416ea8-8ff9-4de9-b3a4-e969017608aa"},"vehicle_type_id":"4","last_reported":1758547314,"current_range_meters":17200,"station_id":"ce4bhi12rcd13ifvqfp0","pricing_plan_id":"cebpf4jnsgd1na2vs0mg"},{"bike_id":"5337dcdc-c6f5-44ae-a466-a1ebe14dfbb3","system_id":"levelo_inurba_marseille","lat":43.24171,"lon":5.36397,"is_reserved":false,"is_disabled":false,"rental_uris":{"android":"levelo://app?vid=5337dcdc-c6f5-44ae-a466-a1ebe14dfbb3","ios":"levelo://app?vid=5337dcdc-c6f5-44ae-a466-a1ebe14dfbb3"},"vehicle_type_id":"4","last_reported":1758547314,"current_range_meters":17200,"station_id":"cpo36qri1sfpv3e86is0","pricing_plan_id":"cebpf4jnsgd1na2vs0mg"},{"bike_id":"8081ba73-d2a6-490e-a03b-d8260dd18c01","system_id":"levelo_inurba_marseille","lat":43.265797,"lon":5.390165,"is_reserved":false,"is_disabled":false,"rental_uris":{"android":"levelo://app?vid=8081ba73-d2a6-490e-a03b-d8260dd18c01","ios":"levelo://app?vid=8081ba73-d2a6-490e-a03b-d8260dd18c01"},"vehicle_type_id":"4","last_reported":1758547314,"current_range_meters":17200,"station_id":"ce4bhe12rcd13ifvqf30","pricing_plan_id":"cebpf4jnsgd1na2vs0mg"},{"bike_id":"00097665-a835-434a-87df-bc4092c235bd","system_id":"levelo_inurba_marseille","lat":43.30549,"lon":5.36521,"is_reserved":false,"is_disabled":false,"rental_uris":{"android":"levelo://app?vid=00097665-a835-434a-87df-bc4092c235bd","ios":"levelo://app?vid=00097665-a835-434a-87df-bc4092c235bd"},"vehicle_type_id":"4","last_reported":1758547314,"current_range_meters":17200,"station_id":"ce4bgs12rcd13ifvqcag","pricing_plan_id":"cebpf4jnsgd1na2vs0mg"},{"bike_id":"e0275819-05ec-4feb-8da6-e9c11fb730f6","system_id":"levelo_inurba_marseille","lat":43.29956,"lon":5.4131,"is_reserved":false,"is_disabled":false,"rental_uris":{"android":"levelo://app?vid=e0275819-05ec-4feb-8da6-e9c11fb730f6","ios":"levelo://app?vid=e0275819-05ec-4feb-8da6-e9c11fb730f6"},"vehicle_type_id":"4","last_reported":1758547314,"current_range_meters":16800,"station_id":"ce4bhp12rcd13ifvqh9g","pricing_plan_id":"cebpf4jnsgd1na2vs0mg"},{"bike_id":"0b53635f-f17e-45ad-81c1-5680b91c3102","system_id":"levelo_inurba_marseille","lat":43.32463,"lon":5.36589,"is_reserved":false,"is_disabled":false,"rental_uris":{"android":"levelo://app?vid=0b53635f-f17e-45ad-81c1-5680b91c3102","ios":"levelo://app?vid=0b53635f-f17e-45ad-81c1-5680b91c3102"},"vehicle_type_id":"4","last_reported":1758547314,"current_range_meters":17200,"station_id":"ce4bhs12rcd13ifvqhvg","pricing_plan_id":"cebpf4jnsgd1na2vs0mg"},{"bike_id":"bee46eba-68ef-4798-9e55-94438be76791","system_id":"levelo_inurba_marseille","lat":43.26783,"lon":5.3941,"is_reserved":false,"is_disabled":false,"rental_uris":{"android":"levelo://app?vid=bee46eba-68ef-4798-9e55-94438be76791","ios":"levelo://app?vid=bee46eba-68ef-4798-9e55-94438be76791"},"vehicle_type_id":"4","last_reported":1758547314,"current_range_meters":17600,"station_id":"ce4bhh12rcd13ifvqfg0","pricing_plan_id":"cebpf4jnsgd1na2vs0mg"},{"bike_id":"a5d0de0c-c347-4fb2-94a8-e7b61dcda61f","system_id":"levelo_inurba_marseille","lat":43.31711,"lon":5.37741,"is_reserved":false,"is_disabled":false,"rental_uris":{"android":"levelo://app?vid=a5d0de0c-c347-4fb2-94a8-e7b61dcda61f","ios":"levelo://app?vid=a5d0de0c-c347-4fb2-94a8-e7b61dcda61f"},"vehicle_type_id":"4","last_reported":1758547314,"current_range_meters":17200,"station_id":"ce4bgth2rcd13ifvqch0","pricing_plan_id":"cebpf4jnsgd1na2vs0mg"},{"bike_id":"2de23a17-a03f-480d-8655-33fb2ed2f58a","system_id":"levelo_inurba_marseille","lat":43.25116,"lon":5.40318,"is_reserved":false,"is_disabled":false,"rental_uris":{"android":"levelo://app?vid=2de23a17-a03f-480d-8655-33fb2ed2f58a","ios":"levelo://app?vid=2de23a17-a03f-480d-8655-33fb2ed2f58a"},"vehicle_type_id":"4","last_reported":1758547314,"current_range_meters":17200,"station_id":"ce4bhlh2rcd13ifvqgig","pricing_plan_id":"cebpf4jnsgd1na2vs0mg"},{"bike_id":"19eb8b7d-763c-4f55-ba53-60f78cb9c6fd","system_id":"levelo_inurba_marseille","lat":43.28434,"lon":5.3919,"is_reserved":false,"is_disabled":false,"rental_uris":{"android":"levelo://app?vid=19eb8b7d-763c-4f55-ba53-60f78cb9c6fd","ios":"levelo://app?vid=19eb8b7d-763c-4f55-ba53-60f78cb9c6fd"},"vehicle_type_id":"4","last_reported":1758547314,"current_range_meters":17200,"station_id":"ce4bhoh2rcd13ifvqh5g","pricing_plan_id":"cebpf4jnsgd1na2vs0mg"},{"bike_id":"6b0da98e-726f-4eb0-8948-47470f3f03d2","system_id":"levelo_inurba_marseille","lat":43.28417,"lon":5.34965,"is_reserved":false,"is_disabled":false,"rental_uris":{"android":"levelo://app?vid=6b0da98e-726f-4eb0-8948-47470f3f03d2","ios":"levelo://app?vid=6b0da98e-726f-4eb0-8948-47470f3f03d2"},"vehicle_type_id":"4","last_reported":1758547314,"current_range_meters":17600,"station_id":"ce4bhbh2rcd13ifvqepg","pricing_plan_id":"cebpf4jnsgd1na2vs0mg"},{"bike_id":"ebed45e9-1796-44c2-846f-e16d593f1fe4","system_id":"levelo_inurba_marseille","lat":43.2293,"lon":5.35369,"is_reserved":false,"is_disabled":false,"rental_uris":{"android":"levelo://app?vid=ebed45e9-1796-44c2-846f-e16d593f1fe4","ios":"levelo://app?vid=ebed45e9-1796-44c2-846f-e16d593f1fe4"},"vehicle_type_id":"4","last_reported":1758547314,"current_range_meters":17600,"station_id":"cpo3532slgdg3j2ikp40","pricing_plan_id":"cebpf4jnsgd1na2vs0mg"},{"bike_id":"2b8a7b75-2ac8-48a2-8531-7901e18dd054","system_id":"levelo_inurba_marseille","lat":43.243873,"lon":5.370618,"is_reserved":false,"is_disabled":false,"rental_uris":{"android":"levelo://app?vid=2b8a7b75-2ac8-48a2-8531-7901e18dd054","ios":"levelo://app?vid=2b8a7b75-2ac8-48a2-8531-7901e18dd054"},"vehicle_type_id":"4","last_reported":1758547314,"current_range_meters":18000,"station_id":"","pricing_plan_id":"cebpf4jnsgd1na2vs0mg"},{"bike_id":"22136d5e-bfd1-49d2-850c-62768d603cca","system_id":"levelo_inurba_marseille","lat":43.25587,"lon":5.38237,"is_reserved":false,"is_disabled":false,"rental_uris":{"android":"levelo://app?vid=22136d5e-bfd1-49d2-850c-62768d603cca","ios":"levelo://app?vid=22136d5e-bfd1-49d2-850c-62768d603cca"},"vehicle_type_id":"4","last_reported":1758547314,"current_range_meters":18000,"station_id":"ce4bhih2rcd13ifvqfs0","pricing_plan_id":"cebpf4jnsgd1na2vs0mg"},{"bike_id":"28eb32c4-4f86-476b-8b2a-eb674175843e","system_id":"levelo_inurba_marseille","lat":43.26561,"lon":5.39002,"is_reserved":false,"is_disabled":false,"rental_uris":{"android":"levelo://app?vid=28eb32c4-4f86-476b-8b2a-eb674175843e","ios":"levelo://app?vid=28eb32c4-4f86-476b-8b2a-eb674175843e"},"vehicle_type_id":"4","last_reported":1758547314,"current_range_meters":18000,"station_id":"ce4bhe12rcd13ifvqf30","pricing_plan_id":"cebpf4jnsgd1na2vs0mg"},{"bike_id":"4289f147-3fa1-47c9-be23-03ad2de17af0","system_id":"levelo_inurba_marseille","lat":43.30928,"lon":5.4014,"is_reserved":false,"is_disabled":false,"rental_uris":{"android":"levelo://app?vid=4289f147-3fa1-47c9-be23-03ad2de17af0","ios":"levelo://app?vid=4289f147-3fa1-47c9-be23-03ad2de17af0"},"vehicle_type_id":"4","last_reported":1758547314,"current_range_meters":18000,"station_id":"ce4bgvp2rcd13ifvqct0","pricing_plan_id":"cebpf4jnsgd1na2vs0mg"},{"bike_id":"9b40446f-f8d2-4a20-99e5-65de1af9112f","system_id":"levelo_inurba_marseille","lat":43.260307,"lon":5.375468,"is_reserved":false,"is_disabled":false,"rental_uris":{"android":"levelo://app?vid=9b40446f-f8d2-4a20-99e5-65de1af9112f","ios":"levelo://app?vid=9b40446f-f8d2-4a20-99e5-65de1af9112f"},"vehicle_type_id":"4","last_reported":1758547314,"current_range_meters":18000,"station_id":"","pricing_plan_id":"cebpf4jnsgd1na2vs0mg"},{"bike_id":"4dfb4c69-9635-4461-bd30-9650c147c871","system_id":"levelo_inurba_marseille","lat":43.31698,"lon":5.37728,"is_reserved":false,"is_disabled":false,"rental_uris":{"android":"levelo://app?vid=4dfb4c69-9635-4461-bd30-9650c147c871","ios":"levelo://app?vid=4dfb4c69-9635-4461-bd30-9650c147c871"},"vehicle_type_id":"4","last_reported":1758547314,"current_range_meters":18000,"station_id":"ce4bgth2rcd13ifvqch0","pricing_plan_id":"cebpf4jnsgd1na2vs0mg"},{"bike_id":"07074187-f7d0-4c9c-8007-3c4d0edd4745","system_id":"levelo_inurba_marseille","lat":43.3136,"lon":5.36723,"is_reserved":false,"is_disabled":false,"rental_uris":{"android":"levelo://app?vid=07074187-f7d0-4c9c-8007-3c4d0edd4745","ios":"levelo://app?vid=07074187-f7d0-4c9c-8007-3c4d0edd4745"},"vehicle_type_id":"4","last_reported":1758547314,"current_range_meters":18000,"station_id":"ce4bgr92rcd13ifvqc6g","pricing_plan_id":"cebpf4jnsgd1na2vs0mg"},{"bike_id":"f481e50f-987b-4504-94d1-b566e7e32921","system_id":"levelo_inurba_marseille","lat":43.3188,"lon":5.40732,"is_reserved":false,"is_disabled":false,"rental_uris":{"android":"levelo://app?vid=f481e50f-987b-4504-94d1-b566e7e32921","ios":"levelo://app?vid=f481e50f-987b-4504-94d1-b566e7e32921"},"vehicle_type_id":"4","last_reported":1758547314,"current_range_meters":18000,"station_id":"ce4bhq12rcd13ifvqhig","pricing_plan_id":"cebpf4jnsgd1na2vs0mg"},{"bike_id":"e83293b0-47d4-4c03-b763-bbc7de1a66db","system_id":"levelo_inurba_marseille","lat":43.26956,"lon":5.38633,"is_reserved":false,"is_disabled":false,"rental_uris":{"android":"levelo://app?vid=e83293b0-47d4-4c03-b763-bbc7de1a66db","ios":"levelo://app?vid=e83293b0-47d4-4c03-b763-bbc7de1a66db"},"vehicle_type_id":"4","last_reported":1758547314,"current_range_meters":18000,"station_id":"ce4bhh92rcd13ifvqfh0","pricing_plan_id":"cebpf4jnsgd1na2vs0mg"},{"bike_id":"3a2f0200-19f6-4563-8356-bbb5c698396a","system_id":"levelo_inurba_marseille","lat":43.21753,"lon":5.34603,"is_reserved":false,"is_disabled":false,"rental_uris":{"android":"levelo://app?vid=3a2f0200-19f6-4563-8356-bbb5c698396a","ios":"levelo://app?vid=3a2f0200-19f6-4563-8356-bbb5c698396a"},"vehicle_type_id":"4","last_reported":1758547314,"current_range_meters":18000,"station_id":"st_cvj6r9ubvosntc0bgbag","pricing_plan_id":"cebpf4jnsgd1na2vs0mg"},{"bike_id":"ac9446ad-2559-424b-84f7-b936ebcaa52c","system_id":"levelo_inurba_marseille","lat":43.29015,"lon":5.3813,"is_reserved":false,"is_disabled":false,"rental_uris":{"android":"levelo://app?vid=ac9446ad-2559-424b-84f7-b936ebcaa52c","ios":"levelo://app?vid=ac9446ad-2559-424b-84f7-b936ebcaa52c"},"vehicle_type_id":"4","last_reported":1758547314,"current_range_meters":18000,"station_id":"ce4bh4p2rcd13ifvqe1g","pricing_plan_id":"cebpf4jnsgd1na2vs0mg"},{"bike_id":"fb0a7a03-c05d-43d4-9aaa-c58ba873a797","system_id":"levelo_inurba_marseille","lat":43.30424,"lon":5.39737,"is_reserved":false,"is_disabled":false,"rental_uris":{"android":"levelo://app?vid=fb0a7a03-c05d-43d4-9aaa-c58ba873a797","ios":"levelo://app?vid=fb0a7a03-c05d-43d4-9aaa-c58ba873a797"},"vehicle_type_id":"4","last_reported":1758547314,"current_range_meters":17600,"station_id":"ce4bh092rcd13ifvqd20","pricing_plan_id":"cebpf4jnsgd1na2vs0mg"},{"bike_id":"a3957254-c7b5-441b-a03f-ab5ad0d2f066","system_id":"levelo_inurba_marseille","lat":43.28412,"lon":5.34973,"is_reserved":false,"is_disabled":false,"rental_uris":{"android":"levelo://app?vid=a3957254-c7b5-441b-a03f-ab5ad0d2f066","ios":"levelo://app?vid=a3957254-c7b5-441b-a03f-ab5ad0d2f066"},"vehicle_type_id":"4","last_reported":1758547314,"current_range_meters":18800,"station_id":"ce4bhbh2rcd13ifvqepg","pricing_plan_id":"cebpf4jnsgd1na2vs0mg"},{"bike_id":"2e195247-11f9-440b-bc51-9300e1a0e171","system_id":"levelo_inurba_marseille","lat":43.32292,"lon":5.3828,"is_reserved":false,"is_disabled":false,"rental_uris":{"android":"levelo://app?vid=2e195247-11f9-440b-bc51-9300e1a0e171","ios":"levelo://app?vid=2e195247-11f9-440b-bc51-9300e1a0e171"},"vehicle_type_id":"4","last_reported":1758547314,"current_range_meters":18800,"station_id":"ce4bhr12rcd13ifvqhqg","pricing_plan_id":"cebpf4jnsgd1na2vs0mg"},{"bike_id":"95563e35-5787-445a-b66f-d345f805dd41","system_id":"levelo_inurba_marseille","lat":43.25934,"lon":5.40909,"is_reserved":false,"is_disabled":false,"rental_uris":{"android":"levelo://app?vid=95563e35-5787-445a-b66f-d345f805dd41","ios":"levelo://app?vid=95563e35-5787-445a-b66f-d345f805dd41"},"vehicle_type_id":"4","last_reported":1758547314,"current_range_meters":18800,"station_id":"ce4bhm92rcd13ifvqglg","pricing_plan_id":"cebpf4jnsgd1na2vs0mg"},{"bike_id":"07452487-ae1b-4f57-89cc-9eb38bf796de","system_id":"levelo_inurba_marseille","lat":43.28927,"lon":5.38394,"is_reserved":false,"is_disabled":false,"rental_uris":{"android":"levelo://app?vid=07452487-ae1b-4f57-89cc-9eb38bf796de","ios":"levelo://app?vid=07452487-ae1b-4f57-89cc-9eb38bf796de"},"vehicle_type_id":"4","last_reported":1758547314,"current_range_meters":18800,"station_id":"ce4bh612rcd13ifvqe6g","pricing_plan_id":"cebpf4jnsgd1na2vs0mg"},{"bike_id":"c4349acd-8478-4731-95c3-84be594f529f","system_id":"levelo_inurba_marseille","lat":43.30925,"lon":5.40144,"is_reserved":false,"is_disabled":false,"rental_uris":{"android":"levelo://app?vid=c4349acd-8478-4731-95c3-84be594f529f","ios":"levelo://app?vid=c4349acd-8478-4731-95c3-84be594f529f"},"vehicle_type_id":"4","last_reported":1758547314,"current_range_meters":18800,"station_id":"ce4bgvp2rcd13ifvqct0","pricing_plan_id":"cebpf4jnsgd1na2vs0mg"},{"bike_id":"b9c44632-132f-4f55-8c6b-aee7f2d2ffc8","system_id":"levelo_inurba_marseille","lat":43.274961,"lon":5.424436,"is_reserved":false,"is_disabled":false,"rental_uris":{"android":"levelo://app?vid=b9c44632-132f-4f55-8c6b-aee7f2d2ffc8","ios":"levelo://app?vid=b9c44632-132f-4f55-8c6b-aee7f2d2ffc8"},"vehicle_type_id":"4","last_reported":1758547314,"current_range_meters":18800,"station_id":"ce4bhn92rcd13ifvqgrg","pricing_plan_id":"cebpf4jnsgd1na2vs0mg"},{"bike_id":"d0bd8550-6edb-4a20-b60d-0db75ea73dbf","system_id":"levelo_inurba_marseille","lat":43.2258,"lon":5.41603,"is_reserved":false,"is_disabled":false,"rental_uris":{"android":"levelo://app?vid=d0bd8550-6edb-4a20-b60d-0db75ea73dbf","ios":"levelo://app?vid=d0bd8550-6edb-4a20-b60d-0db75ea73dbf"},"vehicle_type_id":"4","last_reported":1758547314,"current_range_meters":18800,"station_id":"st_d2o4gvlbi1j2169b742g","pricing_plan_id":"cebpf4jnsgd1na2vs0mg"},{"bike_id":"8c6ec981-673e-4087-a438-e08d5ca5d9c1","system_id":"levelo_inurba_marseille","lat":43.241652,"lon":5.363914,"is_reserved":false,"is_disabled":false,"rental_uris":{"android":"levelo://app?vid=8c6ec981-673e-4087-a438-e08d5ca5d9c1","ios":"levelo://app?vid=8c6ec981-673e-4087-a438-e08d5ca5d9c1"},"vehicle_type_id":"4","last_reported":1758547314,"current_range_meters":18800,"station_id":"cpo36qri1sfpv3e86is0","pricing_plan_id":"cebpf4jnsgd1na2vs0mg"},{"bike_id":"84be3e54-c732-4508-9904-6aceaca4b3cb","system_id":"levelo_inurba_marseille","lat":43.31238,"lon":5.36866,"is_reserved":false,"is_disabled":false,"rental_uris":{"android":"levelo://app?vid=84be3e54-c732-4508-9904-6aceaca4b3cb","ios":"levelo://app?vid=84be3e54-c732-4508-9904-6aceaca4b3cb"},"vehicle_type_id":"4","last_reported":1758547314,"current_range_meters":18800,"station_id":"ce4bgl92rcd13ifvqbq0","pricing_plan_id":"cebpf4jnsgd1na2vs0mg"},{"bike_id":"620438fb-11f0-49cb-b600-78739d113653","system_id":"levelo_inurba_marseille","lat":43.28543,"lon":5.38422,"is_reserved":false,"is_disabled":false,"rental_uris":{"android":"levelo://app?vid=620438fb-11f0-49cb-b600-78739d113653","ios":"levelo://app?vid=620438fb-11f0-49cb-b600-78739d113653"},"vehicle_type_id":"4","last_reported":1758547314,"current_range_meters":18800,"station_id":"","pricing_plan_id":"cebpf4jnsgd1na2vs0mg"},{"bike_id":"7c0482c3-9253-4d1b-b4f3-be55cdb7721d","system_id":"levelo_inurba_marseille","lat":43.33757,"lon":5.37466,"is_reserved":false,"is_disabled":false,"rental_uris":{"android":"levelo://app?vid=7c0482c3-9253-4d1b-b4f3-be55cdb7721d","ios":"levelo://app?vid=7c0482c3-9253-4d1b-b4f3-be55cdb7721d"},"vehicle_type_id":"4","last_reported":1758547314,"current_range_meters":19200,"station_id":"","pricing_plan_id":"cebpf4jnsgd1na2vs0mg"},{"bike_id":"2db44baf-4a94-4382-bb59-341e7ab4ac67","system_id":"levelo_inurba_marseille","lat":43.2439,"lon":5.37052,"is_reserved":false,"is_disabled":false,"rental_uris":{"android":"levelo://app?vid=2db44baf-4a94-4382-bb59-341e7ab4ac67","ios":"levelo://app?vid=2db44baf-4a94-4382-bb59-341e7ab4ac67"},"vehicle_type_id":"4","last_reported":1758547314,"current_range_meters":18800,"station_id":"ce4bhhh2rcd13ifvqfk0","pricing_plan_id":"cebpf4jnsgd1na2vs0mg"},{"bike_id":"4a664203-1ddd-4106-a7b0-c02e89f1f5cd","system_id":"levelo_inurba_marseille","lat":43.28432,"lon":5.39194,"is_reserved":false,"is_disabled":false,"rental_uris":{"android":"levelo://app?vid=4a664203-1ddd-4106-a7b0-c02e89f1f5cd","ios":"levelo://app?vid=4a664203-1ddd-4106-a7b0-c02e89f1f5cd"},"vehicle_type_id":"4","last_reported":1758547314,"current_range_meters":19200,"station_id":"ce4bhoh2rcd13ifvqh5g","pricing_plan_id":"cebpf4jnsgd1na2vs0mg"},{"bike_id":"e5a8f9c5-0111-420a-b6b2-826a201183b9","system_id":"levelo_inurba_marseille","lat":43.295945,"lon":5.381015,"is_reserved":false,"is_disabled":false,"rental_uris":{"android":"levelo://app?vid=e5a8f9c5-0111-420a-b6b2-826a201183b9","ios":"levelo://app?vid=e5a8f9c5-0111-420a-b6b2-826a201183b9"},"vehicle_type_id":"4","last_reported":1758547314,"current_range_meters":18800,"station_id":"ce4bgl12rcd13ifvqbo0","pricing_plan_id":"cebpf4jnsgd1na2vs0mg"},{"bike_id":"7c168d52-716a-4676-83ac-ac5c19212d7c","system_id":"levelo_inurba_marseille","lat":43.28286,"lon":5.35073,"is_reserved":false,"is_disabled":false,"rental_uris":{"android":"levelo://app?vid=7c168d52-716a-4676-83ac-ac5c19212d7c","ios":"levelo://app?vid=7c168d52-716a-4676-83ac-ac5c19212d7c"},"vehicle_type_id":"4","last_reported":1758547314,"current_range_meters":19200,"station_id":"ce4bhbp2rcd13ifvqerg","pricing_plan_id":"cebpf4jnsgd1na2vs0mg"},{"bike_id":"781f61f1-9221-4b14-842e-c3a99e74f6c3","system_id":"levelo_inurba_marseille","lat":43.270702,"lon":5.422798,"is_reserved":false,"is_disabled":false,"rental_uris":{"android":"levelo://app?vid=781f61f1-9221-4b14-842e-c3a99e74f6c3","ios":"levelo://app?vid=781f61f1-9221-4b14-842e-c3a99e74f6c3"},"vehicle_type_id":"4","last_reported":1758547314,"current_range_meters":19200,"station_id":"","pricing_plan_id":"cebpf4jnsgd1na2vs0mg"},{"bike_id":"1964a7c4-f341-4518-b3f3-4cff78a650f1","system_id":"levelo_inurba_marseille","lat":43.32474,"lon":5.3656,"is_reserved":false,"is_disabled":false,"rental_uris":{"android":"levelo://app?vid=1964a7c4-f341-4518-b3f3-4cff78a650f1","ios":"levelo://app?vid=1964a7c4-f341-4518-b3f3-4cff78a650f1"},"vehicle_type_id":"4","last_reported":1758547314,"current_range_meters":19200,"station_id":"ce4bhs12rcd13ifvqhvg","pricing_plan_id":"cebpf4jnsgd1na2vs0mg"},{"bike_id":"2766ac55-17a6-4e49-9caf-4cbb5dff4963","system_id":"levelo_inurba_marseille","lat":43.30548,"lon":5.36531,"is_reserved":false,"is_disabled":false,"rental_uris":{"android":"levelo://app?vid=2766ac55-17a6-4e49-9caf-4cbb5dff4963","ios":"levelo://app?vid=2766ac55-17a6-4e49-9caf-4cbb5dff4963"},"vehicle_type_id":"4","last_reported":1758547314,"current_range_meters":19600,"station_id":"ce4bgs12rcd13ifvqcag","pricing_plan_id":"cebpf4jnsgd1na2vs0mg"},{"bike_id":"db4d7647-36e3-4de2-8ffa-8f6e45616ca4","system_id":"levelo_inurba_marseille","lat":43.30148,"lon":5.39871,"is_reserved":false,"is_disabled":false,"rental_uris":{"android":"levelo://app?vid=db4d7647-36e3-4de2-8ffa-8f6e45616ca4","ios":"levelo://app?vid=db4d7647-36e3-4de2-8ffa-8f6e45616ca4"},"vehicle_type_id":"4","last_reported":1758547314,"current_range_meters":19200,"station_id":"ce4bh0h2rcd13ifvqd40","pricing_plan_id":"cebpf4jnsgd1na2vs0mg"},{"bike_id":"f227a537-3fd2-41ba-93f2-3c6b0d99b47c","system_id":"levelo_inurba_marseille","lat":43.24957,"lon":5.40491,"is_reserved":false,"is_disabled":false,"rental_uris":{"android":"levelo://app?vid=f227a537-3fd2-41ba-93f2-3c6b0d99b47c","ios":"levelo://app?vid=f227a537-3fd2-41ba-93f2-3c6b0d99b47c"},"vehicle_type_id":"4","last_reported":1758547314,"current_range_meters":20000,"station_id":"st_d2ngiaodas8pm72gd1h0","pricing_plan_id":"cebpf4jnsgd1na2vs0mg"},{"bike_id":"06a24bce-028d-4b4a-b4a3-d45296145db5","system_id":"levelo_inurba_marseille","lat":43.28425,"lon":5.34991,"is_reserved":false,"is_disabled":true,"rental_uris":{"android":"levelo://app?vid=06a24bce-028d-4b4a-b4a3-d45296145db5","ios":"levelo://app?vid=06a24bce-028d-4b4a-b4a3-d45296145db5"},"vehicle_type_id":"4","last_reported":1758547314,"current_range_meters":19600,"station_id":"ce4bhch2rcd13ifvqeug","pricing_plan_id":"cebpf4jnsgd1na2vs0mg"},{"bike_id":"315df36b-57a6-4c3f-9de4-ac73c15e0d22","system_id":"levelo_inurba_marseille","lat":43.32348,"lon":5.36702,"is_reserved":false,"is_disabled":false,"rental_uris":{"android":"levelo://app?vid=315df36b-57a6-4c3f-9de4-ac73c15e0d22","ios":"levelo://app?vid=315df36b-57a6-4c3f-9de4-ac73c15e0d22"},"vehicle_type_id":"4","last_reported":1758547314,"current_range_meters":19600,"station_id":"ce4bhsh2rcd13ifvqi2g","pricing_plan_id":"cebpf4jnsgd1na2vs0mg"},{"bike_id":"139a6865-ac5c-448e-8a95-2191c0043cd2","system_id":"levelo_inurba_marseille","lat":43.320419,"lon":5.415413,"is_reserved":false,"is_disabled":false,"rental_uris":{"android":"levelo://app?vid=139a6865-ac5c-448e-8a95-2191c0043cd2","ios":"levelo://app?vid=139a6865-ac5c-448e-8a95-2191c0043cd2"},"vehicle_type_id":"4","last_reported":1758547314,"current_range_meters":19600,"station_id":"ce4bhq92rcd13ifvqhkg","pricing_plan_id":"cebpf4jnsgd1na2vs0mg"},{"bike_id":"f57256bd-c8e0-4527-b1f9-fc715123a171","system_id":"levelo_inurba_marseille","lat":43.24163,"lon":5.36391,"is_reserved":false,"is_disabled":false,"rental_uris":{"android":"levelo://app?vid=f57256bd-c8e0-4527-b1f9-fc715123a171","ios":"levelo://app?vid=f57256bd-c8e0-4527-b1f9-fc715123a171"},"vehicle_type_id":"4","last_reported":1758547314,"current_range_meters":19600,"station_id":"cpo36qri1sfpv3e86is0","pricing_plan_id":"cebpf4jnsgd1na2vs0mg"},