{"last_updated":1761505638,"ttl":60,"version":"2.2","data":{"bikes":[{"bike_id":"f5bccfcc-bcce-4f97-8b2a-38191a5b128c","system_id":"levelo_inurba_marseille","lat":43.257256,"lon":5.411088,"is_reserved":false,"is_disabled":false,"rental_uris":{"android":"levelo://app?vid=f5bccfcc-bcce-4f97-8b2a-38191a5b128c","ios":"levelo://app?vid=f5bccfcc-bcce-4f97-8b2a-38191a5b128c"},"vehicle_type_id":"4","last_reported":1761505639,"current_range_meters":2800,"station_id":"ce4bhkp2rcd13ifvqgd0","pricing_plan_id":"cebpf4jnsgd1na2vs0mg"},{"bike_id":"c97e2da3-f938-4bb6-a99e-7041ad969b33","system_id":"levelo_inurba_marseille","lat":43.28583,"lon":5.39918,"is_reserved":false,"is_disabled":false,"rental_uris":{"android":"levelo://app?vid=c97e2da3-f938-4bb6-a99e-7041ad969b33","ios":"levelo://app?vid=c97e2da3-f938-4bb6-a99e-7041ad969b33"},"vehicle_type_id":"4","last_reported":1761505639,"current_range_meters":2800,"station_id":"","pricing_plan_id":"cebpf4jnsgd1na2vs0mg"},{"bike_id":"0dd9690e-d283-4dc4-b33a-573872e1c402","system_id":"levelo_inurba_marseille","lat":43.27236,"lon":5.39172,"is_reserved":false,"is_disabled":false,"rental_uris":{"android":"levelo://app?vid=0dd9690e-d283-4dc4-b33a-573872e1c402","ios":"levelo://app?vid=0dd9690e-d283-4dc4-b33a-573872e1c402"},"vehicle_type_id":"4","last_reported":1761505639,"current_range_meters":2800,"station_id":"ce4bhhp2rcd13ifvqfm0","pricing_plan_id":"cebpf4jnsgd1na2vs0mg"},{"bike_id":"e35e1247-2ec0-4206-a360-6aaa534a130f","system_id":"levelo_inurba_marseille","lat":43.28491,"lon":5.48395,"is_reserved":false,"is_disabled":false,"rental_uris":{"android":"levelo://app?vid=e35e1247-2ec0-4206-a360-6aaa534a130f","ios":"levelo://app?vid=e35e1247-2ec0-4206-a360-6aaa534a130f"},"vehicle_type_id":"4","last_reported":1761505639,"current_range_meters":2800,"station_id":"","pricing_plan_id":"cebpf4jnsgd1na2vs0mg"},{"bike_id":"5f9debc0-c360-4a2e-b517-592e9a0c2818","system_id":"levelo_inurba_marseille","lat":43.32957,"lon":5.4278,"is_reserved":false,"is_disabled":false,"rental_uris":{"android":"levelo://app?vid=5f9debc0-c360-4a2e-b517-592e9a0c2818","ios":"levelo://app?vid=5f9debc0-c360-4a2e-b517-592e9a0c2818"},"vehicle_type_id":"4","last_reported":1761505639,"current_range_meters":3200,"station_id":"","pricing_plan_id":"cebpf4jnsgd1na2vs0mg"},{"bike_id":"2d4db9e4-fe6e-4f3d-8e18-c7cfcba64fb9","system_id":"levelo_inurba_marseille","lat":43.291748,"lon":5.408277,"is_reserved":false,"is_disabled":false,"rental_uris":{"android":"levelo://app?vid=2d4db9e4-fe6e-4f3d-8e18-c7cfcba64fb9","ios":"levelo://app?vid=2d4db9e4-fe6e-4f3d-8e18-c7cfcba64fb9"},"vehicle_type_id":"4","last_reported":1761505639,"current_range_meters":3200,"station_id":"ce4bh192rcd13ifvqdc0","pricing_plan_id":"cebpf4jnsgd1na2vs0mg"},{"bike_id":"35bb52c0-9055-465d-abe6-f204ef759217","system_id":"levelo_inurba_marseille","lat":43.281064,"lon":5.378255,"is_reserved":false,"is_disabled":false,"rental_uris":{"android":"levelo://app?vid=35bb52c0-9055-465d-abe6-f204ef759217","ios":"levelo://app?vid=35bb52c0-9055-465d-abe6-f204ef759217"},"vehicle_type_id":"4","last_reported":1761505639,"current_range_meters":3600,"station_id":"ce4bh692rcd13ifvqea0","pricing_plan_id":"cebpf4jnsgd1na2vs0mg"},{"bike_id":"d2a34fd0-1901-4864-95b9-21c1194e34a2","system_id":"levelo_inurba_marseille","lat":43.284485,"lon":5.391824,"is_reserved":false,"is_disabled":false,"rental_uris":{"android":"levelo://app?vid=d2a34fd0-1901-4864-95b9-21c1194e34a2","ios":"levelo://app?vid=d2a34fd0-1901-4864-95b9-21c1194e34a2"},"vehicle_type_id":"4","last_reported":1761505639,"current_range_meters":3600,"station_id":"ce4bhoh2rcd13ifvqh5g","pricing_plan_id":"cebpf4jnsgd1na2vs0mg"},{"bike_id":"a3d5b89b-3637-49c4-af76-d43eb61a94d8","system_id":"levelo_inurba_marseille","lat":43.28695,"lon":5.3738,"is_reserved":false,"is_disabled":false,"rental_uris":{"android":"levelo://app?vid=a3d5b89b-3637-49c4-af76-d43eb61a94d8","ios":"levelo://app?vid=a3d5b89b-3637-49c4-af76-d43eb61a94d8"},"vehicle_type_id":"4","last_reported":1761505639,"current_range_meters":3600,"station_id":"ce4bh3p2rcd13ifvqdq0","pricing_plan_id":"cebpf4jnsgd1na2vs0mg"},{"bike_id":"bc0cd2ce-57c6-4bf3-9efb-2bba3c0e0af8","system_id":"levelo_inurba_marseille","lat":43.29558,"lon":5.42272,"is_reserved":false,"is_disabled":false,"rental_uris":{"android":"levelo://app?vid=bc0cd2ce-57c6-4bf3-9efb-2bba3c0e0af8","ios":"levelo://app?vid=bc0cd2ce-57c6-4bf3-9efb-2bba3c0e0af8"},"vehicle_type_id":"4","last_reported":1761505639,"current_range_meters":3600,"station_id":"ce4bhph2rcd13ifvqhdg","pricing_plan_id":"cebpf4jnsgd1na2vs0mg"},{"bike_id":"b72ff452-c3cd-4a4a-b20d-377c018fdfb4","system_id":"levelo_inurba_marseille","lat":43.28773,"lon":5.38561,"is_reserved":false,"is_disabled":false,"rental_uris":{"android":"levelo://app?vid=b72ff452-c3cd-4a4a-b20d-377c018fdfb4","ios":"levelo://app?vid=b72ff452-c3cd-4a4a-b20d-377c018fdfb4"},"vehicle_type_id":"4","last_reported":1761505639,"current_range_meters":4000,"station_id":"","pricing_plan_id":"cebpf4jnsgd1na2vs0mg"},{"bike_id":"a6a8b423-e2b1-4434-81d6-88685dfc5af0","system_id":"levelo_inurba_marseille","lat":43.283433,"lon":5.38101,"is_reserved":false,"is_disabled":false,"rental_uris":{"android":"levelo://app?vid=a6a8b423-e2b1-4434-81d6-88685dfc5af0","ios":"levelo://app?vid=a6a8b423-e2b1-4434-81d6-88685dfc5af0"},"vehicle_type_id":"4","last_reported":1761505639,"current_range_meters":4400,"station_id":"ce4bh412rcd13ifvqdr0","pricing_plan_id":"cebpf4jnsgd1na2vs0mg"},{"bike_id":"3c68b102-7aee-45f4-913a-cfd84d70eac3","system_id":"levelo_inurba_marseille","lat":43.292603,"lon":5.384447,"is_reserved":false,"is_disabled":false,"rental_uris":{"android":"levelo://app?vid=3c68b102-7aee-45f4-913a-cfd84d70eac3","ios":"levelo://app?vid=3c68b102-7aee-45f4-913a-cfd84d70eac3"},"vehicle_type_id":"4","last_reported":1761505639,"current_range_meters":4400,"station_id":"","pricing_plan_id":"cebpf4jnsgd1na2vs0mg"},{"bike_id":"e94f57f2-601c-4cad-a187-6e953770aa25","system_id":"levelo_inurba_marseille","lat":43.31194,"lon":5.37849,"is_reserved":false,"is_disabled":false,"rental_uris":{"android":"levelo://app?vid=e94f57f2-601c-4cad-a187-6e953770aa25","ios":"levelo://app?vid=e94f57f2-601c-4cad-a187-6e953770aa25"},"vehicle_type_id":"4","last_reported":1761505639,"current_range_meters":4800,"station_id":"","pricing_plan_id":"cebpf4jnsgd1na2vs0mg"},{"bike_id":"548c3a32-b205-4978-985a-a404aa1e0dea","system_id":"levelo_inurba_marseille","lat":43.3213,"lon":5.36739,"is_reserved":false,"is_disabled":false,"rental_uris":{"android":"levelo://app?vid=548c3a32-b205-4978-985a-a404aa1e0dea","ios":"levelo://app?vid=548c3a32-b205-4978-985a-a404aa1e0dea"},"vehicle_type_id":"4","last_reported":1761505639,"current_range_meters":5600,"station_id":"ce4bhrh2rcd13ifvqhug","pricing_plan_id":"cebpf4jnsgd1na2vs0mg"},{"bike_id":"1f5c70c4-aa9c-41b6-bc75-124a0ed4644d","system_id":"levelo_inurba_marseille","lat":43.2894,"lon":5.36631,"is_reserved":false,"is_disabled":false,"rental_uris":{"android":"levelo://app?vid=1f5c70c4-aa9c-41b6-bc75-124a0ed4644d","ios":"levelo://app?vid=1f5c70c4-aa9c-41b6-bc75-124a0ed4644d"},"vehicle_type_id":"4","last_reported":1761505639,"current_range_meters":5600,"station_id":"ce4bhap2rcd13ifvqek0","pricing_plan_id":"cebpf4jnsgd1na2vs0mg"},{"bike_id":"fa063608-29c2-42ab-95b5-2fc82231eea9","system_id":"levelo_inurba_marseille","lat":43.21208,"lon":5.35083,"is_reserved":false,"is_disabled":false,"rental_uris":{"android":"levelo://app?vid=fa063608-29c2-42ab-95b5-2fc82231eea9","ios":"levelo://app?vid=fa063608-29c2-42ab-95b5-2fc82231eea9"},"vehicle_type_id":"4","last_reported":1761505639,"current_range_meters":5600,"station_id":"st_cvj6sg6p6f1abm77japg","pricing_plan_id":"cebpf4jnsgd1na2vs0mg"},{"bike_id":"2b08430f-3826-4249-8325-53b3985c5d73","system_id":"levelo_inurba_marseille","lat":43.27833,"lon":5.41489,"is_reserved":false,"is_disabled":false,"rental_uris":{"android":"levelo://app?vid=2b08430f-3826-4249-8325-53b3985c5d73","ios":"levelo://app?vid=2b08430f-3826-4249-8325-53b3985c5d73"},"vehicle_type_id":"4","last_reported":1761505639,"current_range_meters":6400,"station_id":"","pricing_plan_id":"cebpf4jnsgd1na2vs0mg"},{"bike_id":"3317a91e-355b-4beb-a71f-76fbd624d288","system_id":"levelo_inurba_marseille","lat":43.29754,"lon":5.42785,"is_reserved":false,"is_disabled":false,"rental_uris":{"android":"levelo://app?vid=3317a91e-355b-4beb-a71f-76fbd624d288","ios":"levelo://app?vid=3317a91e-355b-4beb-a71f-76fbd624d288"},"vehicle_type_id":"4","last_reported":1761505639,"current_range_meters":6400,"station_id":"st_d3md5207bmas73dh9klg","pricing_plan_id":"cebpf4jnsgd1na2vs0mg"},{"bike_id":"9887b574-954e-49a6-99e2-3a975508de1b","system_id":"levelo_inurba_marseille","lat":43.29361,"lon":5.37849,"is_reserved":false,"is_disabled":true,"rental_uris":{"android":"levelo://app?vid=9887b574-954e-49a6-99e2-3a975508de1b","ios":"levelo://app?vid=9887b574-954e-49a6-99e2-3a975508de1b"},"vehicle_type_id":"4","last_reported":1761505639,"current_range_meters":6400,"station_id":"ce4bgjh2rcd13ifvqbf0","pricing_plan_id":"cebpf4jnsgd1na2vs0mg"},{"bike_id":"5c016679-5c4b-4648-a103-a94696dda220","system_id":"levelo_inurba_marseille","lat":43.29233,"lon":5.38326,"is_reserved":false,"is_disabled":false,"rental_uris":{"android":"levelo://app?vid=5c016679-5c4b-4648-a103-a94696dda220","ios":"levelo://app?vid=5c016679-5c4b-4648-a103-a94696dda220"},"vehicle_type_id":"4","last_reported":1761505639,"current_range_meters":6400,"station_id":"","pricing_plan_id":"cebpf4jnsgd1na2vs0mg"},{"bike_id":"43d6359c-870f-4f83-a502-79bb07f74ce1","system_id":"levelo_inurba_marseille","lat":43.29786,"lon":5.39342,"is_reserved":false,"is_disabled":false,"rental_uris":{"android":"levelo://app?vid=43d6359c-870f-4f83-a502-79bb07f74ce1","ios":"levelo://app?vid=43d6359c-870f-4f83-a502-79bb07f74ce1"},"vehicle_type_id":"4","last_reported":1761505639,"current_range_meters":6400,"station_id":"chh1huq6cuj3fo74tm60","pricing_plan_id":"cebpf4jnsgd1na2vs0mg"},{"bike_id":"09a16548-b725-4ad8-975a-c8c7eadacf60","system_id":"levelo_inurba_marseille","lat":43.309599,"lon":5.401498,"is_reserved":false,"is_disabled":false,"rental_uris":{"android":"levelo://app?vid=09a16548-b725-4ad8-975a-c8c7eadacf60","ios":"levelo://app?vid=09a16548-b725-4ad8-975a-c8c7eadacf60"},"vehicle_type_id":"4","last_reported":1761505639,"current_range_meters":6400,"station_id":"ce4bgvp2rcd13ifvqct0","pricing_plan_id":"cebpf4jnsgd1na2vs0mg"},{"bike_id":"abb63ddf-42dc-438c-9ca8-04fc0006dcd6","system_id":"levelo_inurba_marseille","lat":43.31177,"lon":5.38712,"is_reserved":false,"is_disabled":false,"rental_uris":{"android":"levelo://app?vid=abb63ddf-42dc-438c-9ca8-04fc0006dcd6","ios":"levelo://app?vid=abb63ddf-42dc-438c-9ca8-04fc0006dcd6"},"vehicle_type_id":"4","last_reported":1761505639,"current_range_meters":6800,"station_id":"ce4bgv12rcd13ifvqcp0","pricing_plan_id":"cebpf4jnsgd1na2vs0mg"},{"bike_id":"754298ca-ecc3-4b5d-992a-5cdec23293c4","system_id":"levelo_inurba_marseille","lat":43.24634,"lon":5.43147,"is_reserved":false,"is_disabled":false,"rental_uris":{"android":"levelo://app?vid=754298ca-ecc3-4b5d-992a-5cdec23293c4","ios":"levelo://app?vid=754298ca-ecc3-4b5d-992a-5cdec23293c4"},"vehicle_type_id":"4","last_reported":1761505639,"current_range_meters":6800,"station_id":"st_d2m6c4gdas8pm72e190g","pricing_plan_id":"cebpf4jnsgd1na2vs0mg"},{"bike_id":"8b8192d3-b1bc-4dd3-966b-cfdf6904b993","system_id":"levelo_inurba_marseille","lat":43.29979,"lon":5.384829,"is_reserved":false,"is_disabled":false,"rental_uris":{"android":"levelo://app?vid=8b8192d3-b1bc-4dd3-966b-cfdf6904b993","ios":"levelo://app?vid=8b8192d3-b1bc-4dd3-966b-cfdf6904b993"},"vehicle_type_id":"4","last_reported":1761505639,"current_range_meters":6800,"station_id":"ce4bgj92rcd13ifvqbd0","pricing_plan_id":"cebpf4jnsgd1na2vs0mg"},{"bike_id":"2809a5d4-4a70-4afe-b570-6de297c8c3a5","system_id":"levelo_inurba_marseille","lat":43.30422,"lon":5.4128,"is_reserved":false,"is_disabled":false,"rental_uris":{"android":"levelo://app?vid=2809a5d4-4a70-4afe-b570-6de297c8c3a5","ios":"levelo://app?vid=2809a5d4-4a70-4afe-b570-6de297c8c3a5"},"vehicle_type_id":"4","last_reported":1761505639,"current_range_meters":6800,"station_id":"ce4bhop2rcd13ifvqh8g","pricing_plan_id":"cebpf4jnsgd1na2vs0mg"},{"bike_id":"51b614d1-6dfe-4e67-9a5e-bfd8acf52d94","system_id":"levelo_inurba_marseille","lat":43.30142,"lon":5.38779,"is_reserved":false,"is_disabled":true,"rental_uris":{"android":"levelo://app?vid=51b614d1-6dfe-4e67-9a5e-bfd8acf52d94","ios":"levelo://app?vid=51b614d1-6dfe-4e67-9a5e-bfd8acf52d94"},"vehicle_type_id":"4","last_reported":1761505639,"current_range_meters":6800,"station_id":"ce4bghh2rcd13ifvqb60","pricing_plan_id":"cebpf4jnsgd1na2vs0mg"},{"bike_id":"8be6a47c-9542-4fed-8109-f6d91a0f2b3f","system_id":"levelo_inurba_marseille","lat":43.29174,"lon":5.37161,"is_reserved":false,"is_disabled":false,"rental_uris":{"android":"levelo://app?vid=8be6a47c-9542-4fed-8109-f6d91a0f2b3f","ios":"levelo://app?vid=8be6a47c-9542-4fed-8109-f6d91a0f2b3f"},"vehicle_type_id":"4","last_reported":1761505639,"current_range_meters":6800,"station_id":"ce4bha92rcd13ifvqeh0","pricing_plan_id":"cebpf4jnsgd1na2vs0mg"},{"bike_id":"2d305dc6-e68d-4fc0-af3c-18b4adb6047b","system_id":"levelo_inurba_marseille","lat":43.225311,"lon":5.34837,"is_reserved":false,"is_disabled":false,"rental_uris":{"android":"levelo://app?vid=2d305dc6-e68d-4fc0-af3c-18b4adb6047b","ios":"levelo://app?vid=2d305dc6-e68d-4fc0-af3c-18b4adb6047b"},"vehicle_type_id":"4","last_reported":1761505639,"current_range_meters":6800,"station_id":"","pricing_plan_id":"cebpf4jnsgd1na2vs0mg"},{"bike_id":"a35a4922-b803-4cd9-8623-7e895c294787","system_id":"levelo_inurba_marseille","lat":43.29804,"lon":5.38212,"is_reserved":false,"is_disabled":true,"rental_uris":{"android":"levelo://app?vid=a35a4922-b803-4cd9-8623-7e895c294787","ios":"levelo://app?vid=a35a4922-b803-4cd9-8623-7e895c294787"},"vehicle_type_id":"4","last_reported":1761505639,"current_range_meters":6800,"station_id":"","pricing_plan_id":"cebpf4jnsgd1na2vs0mg"},{"bike_id":"ced6e4d8-6152-4156-9dff-24622190419f","system_id":"levelo_inurba_marseille","lat":43.27813,"lon":5.40712,"is_reserved":false,"is_disabled":false,"rental_uris":{"android":"levelo://app?vid=ced6e4d8-6152-4156-9dff-24622190419f","ios":"levelo://app?vid=ced6e4d8-6152-4156-9dff-24622190419f"},"vehicle_type_id":"4","last_reported":1761505639,"current_range_meters":6800,"station_id":"ce4bhnh2rcd13ifvqgtg","pricing_plan_id":"cebpf4jnsgd1na2vs0mg"},{"bike_id":"a6e2a75f-27ce-4cd5-bc71-de417ff3e96e","system_id":"levelo_inurba_marseille","lat":43.284588,"lon":5.358831,"is_reserved":false,"is_disabled":false,"rental_uris":{"android":"levelo://app?vid=a6e2a75f-27ce-4cd5-bc71-de417ff3e96e","ios":"levelo://app?vid=a6e2a75f-27ce-4cd5-bc71-de417ff3e96e"},"vehicle_type_id":"4","last_reported":1761505639,"current_range_meters":6800,"station_id":"ce4bhah2rcd13ifvqei0","pricing_plan_id":"cebpf4jnsgd1na2vs0mg"},{"bike_id":"b271dec7-e9c0-4031-a78b-d3a50b11d54a","system_id":"levelo_inurba_marseille","lat":43.28686,"lon":5.4126,"is_reserved":false,"is_disabled":false,"rental_uris":{"android":"levelo://app?vid=b271dec7-e9c0-4031-a78b-d3a50b11d54a","ios":"levelo://app?vid=b271dec7-e9c0-4031-a78b-d3a50b11d54a"},"vehicle_type_id":"4","last_reported":1761505639,"current_range_meters":6800,"station_id":"","pricing_plan_id":"cebpf4jnsgd1na2vs0mg"},{"bike_id":"dab36927-4328-48fa-bffb-145a737de07e","system_id":"levelo_inurba_marseille","lat":43.30802,"lon":5.43517,"is_reserved":false,"is_disabled":true,"rental_uris":{"android":"levelo://app?vid=dab36927-4328-48fa-bffb-145a737de07e","ios":"levelo://app?vid=dab36927-4328-48fa-bffb-145a737de07e"},"vehicle_type_id":"4","last_reported":1761505639,"current_range_meters":7200,"station_id":"ce4bhph2rcd13ifvqheg","pricing_plan_id":"cebpf4jnsgd1na2vs0mg"},{"bike_id":"af309b62-d2cd-4e59-917c-416ef9c899b6","system_id":"levelo_inurba_marseille","lat":43.26065,"lon":5.39385,"is_reserved":false,"is_disabled":true,"rental_uris":{"android":"levelo://app?vid=af309b62-d2cd-4e59-917c-416ef9c899b6","ios":"levelo://app?vid=af309b62-d2cd-4e59-917c-416ef9c899b6"},"vehicle_type_id":"4","last_reported":1761505639,"current_range_meters":7200,"station_id":"ce4bhh92rcd13ifvqfj0","pricing_plan_id":"cebpf4jnsgd1na2vs0mg"},{"bike_id":"9d964ec4-c537-4f1d-b21c-451d3f46b1bf","system_id":"levelo_inurba_marseille","lat":43.29916,"lon":5.37884,"is_reserved":false,"is_disabled":false,"rental_uris":{"android":"levelo://app?vid=9d964ec4-c537-4f1d-b21c-451d3f46b1bf","ios":"levelo://app?vid=9d964ec4-c537-4f1d-b21c-451d3f46b1bf"},"vehicle_type_id":"4","last_reported":1761505639,"current_range_meters":7200,"station_id":"","pricing_plan_id":"cebpf4jnsgd1na2vs0mg"},{"bike_id":"43117888-69d1-4bc6-a73a-697554e4a08e","system_id":"levelo_inurba_marseille","lat":43.25253,"lon":5.37795,"is_reserved":false,"is_disabled":false,"rental_uris":{"android":"levelo://app?vid=43117888-69d1-4bc6-a73a-697554e4a08e","ios":"levelo://app?vid=43117888-69d1-4bc6-a73a-697554e4a08e"},"vehicle_type_id":"4","last_reported":1761505639,"current_range_meters":8400,"station_id":"","pricing_plan_id":"cebpf4jnsgd1na2vs0mg"},{"bike_id":"45a8feb9-8f9f-45c5-9374-0e195d24493f","system_id":"levelo_inurba_marseille","lat":43.24811,"lon":5.37457,"is_reserved":false,"is_disabled":false,"rental_uris":{"android":"levelo://app?vid=45a8feb9-8f9f-45c5-9374-0e195d24493f","ios":"levelo://app?vid=45a8feb9-8f9f-45c5-9374-0e195d24493f"},"vehicle_type_id":"4","last_reported":1761505639,"current_range_meters":8400,"station_id":"ce4bhgh2rcd13ifvqfb0","pricing_plan_id":"cebpf4jnsgd1na2vs0mg"},{"bike_id":"69880247-38f2-48e7-ab49-326f3d5eca30","system_id":"levelo_inurba_marseille","lat":43.21204,"lon":5.35056,"is_reserved":false,"is_disabled":true,"rental_uris":{"android":"levelo://app?vid=69880247-38f2-48e7-ab49-326f3d5eca30","ios":"levelo://app?vid=69880247-38f2-48e7-ab49-326f3d5eca30"},"vehicle_type_id":"4","last_reported":1761505639,"current_range_meters":8400,"station_id":"","pricing_plan_id":"cebpf4jnsgd1na2vs0mg"},{"bike_id":"11ed3229-da96-464f-bee1-15ff06dff35a","system_id":"levelo_inurba_marseille","lat":43.21202,"lon":5.35076,"is_reserved":false,"is_disabled":false,"rental_uris":{"android":"levelo://app?vid=11ed3229-da96-464f-bee1-15ff06dff35a","ios":"levelo://app?vid=11ed3229-da96-464f-bee1-15ff06dff35a"},"vehicle_type_id":"4","last_reported":1761505639,"current_range_meters":8400,"station_id":"st_cvj6sg6p6f1abm77japg","pricing_plan_id":"cebpf4jnsgd1na2vs0mg"},{"bike_id":"f3d965bb-cb20-42cf-b731-0f351ef37849","system_id":"levelo_inurba_marseille","lat":43.29637,"lon":5.40589,"is_reserved":false,"is_disabled":false,"rental_uris":{"android":"levelo://app?vid=f3d965bb-cb20-42cf-b731-0f351ef37849","ios":"levelo://app?vid=f3d965bb-cb20-42cf-b731-0f351ef37849"},"vehicle_type_id":"4","last_reported":1761505639,"current_range_meters":8800,"station_id":"ce4bh0h2rcd13ifvqd60","pricing_plan_id":"cebpf4jnsgd1na2vs0mg"},{"bike_id":"e471d298-4389-4f1a-a989-8114af27aedd","system_id":"levelo_inurba_marseille","lat":43.30079,"lon":5.39069,"is_reserved":false,"is_disabled":false,"rental_uris":{"android":"levelo://app?vid=e471d298-4389-4f1a-a989-8114af27aedd","ios":"levelo://app?vid=e471d298-4389-4f1a-a989-8114af27aedd"},"vehicle_type_id":"4","last_reported":1761505639,"current_range_meters":8800,"station_id":"ce4bh192rcd13ifvqdb0","pricing_plan_id":"cebpf4jnsgd1na2vs0mg"},{"bike_id":"0a3fd212-ddeb-4505-96ac-3a8116208007","system_id":"levelo_inurba_marseille","lat":43.27823,"lon":5.40716,"is_reserved":false,"is_disabled":false,"rental_uris":{"android":"levelo://app?vid=0a3fd212-ddeb-4505-96ac-3a8116208007","ios":"levelo://app?vid=0a3fd212-ddeb-4505-96ac-3a8116208007"},"vehicle_type_id":"4","last_reported":1761505639,"current_range_meters":9200,"station_id":"ce4bhnh2rcd13ifvqgtg","pricing_plan_id":"cebpf4jnsgd1na2vs0mg"},{"bike_id":"cd6e6cf2-81b7-4372-bda4-dd77079f1cd7","system_id":"levelo_inurba_marseille","lat":43.26228,"lon":5.40456,"is_reserved":false,"is_disabled":false,"rental_uris":{"android":"levelo://app?vid=cd6e6cf2-81b7-4372-bda4-dd77079f1cd7","ios":"levelo://app?vid=cd6e6cf2-81b7-4372-bda4-dd77079f1cd7"},"vehicle_type_id":"4","last_reported":1761505639,"current_range_meters":9200,"station_id":"ce4bhmh2rcd13ifvqgmg","pricing_plan_id":"cebpf4jnsgd1na2vs0mg"},{"bike_id":"5dd04910-101f-4654-853d-341f84b98945","system_id":"levelo_inurba_marseille","lat":43.28992,"lon":5.37182,"is_reserved":false,"is_disabled":false,"rental_uris":{"android":"levelo://app?vid=5dd04910-101f-4654-853d-341f84b98945","ios":"levelo://app?vid=5dd04910-101f-4654-853d-341f84b98945"},"vehicle_type_id":"4","last_reported":1761505639,"current_range_meters":9200,"station_id":"","pricing_plan_id":"cebpf4jnsgd1na2vs0mg"},{"bike_id":"dce66f13-7a9b-404d-b128-59d6638df5e2","system_id":"levelo_inurba_marseille","lat":43.24812,"lon":5.37463,"is_reserved":false,"is_disabled":false,"rental_uris":{"android":"levelo://app?vid=dce66f13-7a9b-404d-b128-59d6638df5e2","ios":"levelo://app?vid=dce66f13-7a9b-404d-b128-59d6638df5e2"},"vehicle_type_id":"4","last_reported":1761505639,"current_range_meters":9200,"station_id":"ce4bhgh2rcd13ifvqfb0","pricing_plan_id":"cebpf4jnsgd1na2vs0mg"},{"bike_id":"d3145067-3ca0-4e72-b01a-ef78c0959aad","system_id":"levelo_inurba_marseille","lat":43.30238,"lon":5.40069,"is_reserved":false,"is_disabled":true,"rental_uris":{"android":"levelo://app?vid=d3145067-3ca0-4e72-b01a-ef78c0959aad","ios":"levelo://app?vid=d3145067-3ca0-4e72-b01a-ef78c0959aad"},"vehicle_type_id":"4","last_reported":1761505639,"current_range_meters":9200,"station_id":"ce4bgvh2rcd13ifvqcs0","pricing_plan_id":"cebpf4jnsgd1na2vs0mg"},{"bike_id":"12cefd40-c26f-402c-b50f-33cfb17b8e9f","system_id":"levelo_inurba_marseille","lat":43.30015,"lon":5.37654,"is_reserved":false,"is_disabled":false,"rental_uris":{"android":"levelo://app?vid=12cefd40-c26f-402c-b50f-33cfb17b8e9f","ios":"levelo://app?vid=12cefd40-c26f-402c-b50f-33cfb17b8e9f"},"vehicle_type_id":"4","last_reported":1761505639,"current_range_meters":9600,"station_id":"","pricing_plan_id":"cebpf4jnsgd1na2vs0mg"},{"bike_id":"0a7b5d0f-c4db-4004-8684-e7f57cab39da","system_id":"levelo_inurba_marseille","lat":43.289915,"lon":5.371615,"is_reserved":false,"is_disabled":false,"rental_uris":{"android":"levelo://app?vid=0a7b5d0f-c4db-4004-8684-e7f57cab39da","ios":"levelo://app?vid=0a7b5d0f-c4db-4004-8684-e7f57cab39da"},"vehicle_type_id":"4","last_reported":1761505639,"current_range_meters":9600,"station_id":"","pricing_plan_id":"cebpf4jnsgd1na2vs0mg"},{"bike_id":"f0b2aab8-257e-435f-8bd0-cd4742ea9316","system_id":"levelo_inurba_marseille","lat":43.28704,"lon":5.39988,"is_reserved":false,"is_disabled":false,"rental_uris":{"android":"levelo://app?vid=f0b2aab8-257e-435f-8bd0-cd4742ea9316","ios":"levelo://app?vid=f0b2aab8-257e-435f-8bd0-cd4742ea9316"},"vehicle_type_id":"4","last_reported":1761505639,"current_range_meters":9600,"station_id":"ce4bho92rcd13ifvqh3g","pricing_plan_id":"cebpf4jnsgd1na2vs0mg"},{"bike_id":"cfc001d5-c84c-44dc-a34b-b006bc56421f","system_id":"levelo_inurba_marseille","lat":43.29255,"lon":5.40919,"is_reserved":false,"is_disabled":false,"rental_uris":{"android":"levelo://app?vid=cfc001d5-c84c-44dc-a34b-b006bc56421f","ios":"levelo://app?vid=cfc001d5-c84c-44dc-a34b-b006bc56421f"},"vehicle_type_id":"4","last_reported":1761505639,"current_range_meters":9600,"station_id":"ce4bh192rcd13ifvqdc0","pricing_plan_id":"cebpf4jnsgd1na2vs0mg"},{"bike_id":"a4d86b2b-65c8-4d41-8fa4-b4d8d56bee99","system_id":"levelo_inurba_marseille","lat":43.290314,"lon":5.386581,"is_reserved":false,"is_disabled":false,"rental_uris":{"android":"levelo://app?vid=a4d86b2b-65c8-4d41-8fa4-b4d8d56bee99","ios":"levelo://app?vid=a4d86b2b-65c8-4d41-8fa4-b4d8d56bee99"},"vehicle_type_id":"4","last_reported":1761505639,"current_range_meters":9600,"station_id":"","pricing_plan_id":"cebpf4jnsgd1na2vs0mg"},{"bike_id":"68445726-0bc0-4a82-a222-5572bec14c6e","system_id":"levelo_inurba_marseille","lat":43.28343,"lon":5.38604,"is_reserved":false,"is_disabled":false,"rental_uris":{"android":"levelo://app?vid=68445726-0bc0-4a82-a222-5572bec14c6e","ios":"levelo://app?vid=68445726-0bc0-4a82-a222-5572bec14c6e"},"vehicle_type_id":"4","last_reported":1761505639,"current_range_meters":10000,"station_id":"ce4bh492rcd13ifvqdvg","pricing_plan_id":"cebpf4jnsgd1na2vs0mg"},{"bike_id":"7f35850d-e972-40c0-b8aa-d8dde462a749","system_id":"levelo_inurba_marseille","lat":43.31574,"lon":5.38474,"is_reserved":false,"is_disabled":false,"rental_uris":{"android":"levelo://app?vid=7f35850d-e972-40c0-b8aa-d8dde462a749","ios":"levelo://app?vid=7f35850d-e972-40c0-b8aa-d8dde462a749"},"vehicle_type_id":"4","last_reported":1761505639,"current_range_meters":10000,"station_id":"","pricing_plan_id":"cebpf4jnsgd1na2vs0mg"},{"bike_id":"231548a1-8513-4cc2-815b-681367315f5d","system_id":"levelo_inurba_marseille","lat":43.24634,"lon":5.43299,"is_reserved":false,"is_disabled":false,"rental_uris":{"android":"levelo://app?vid=231548a1-8513-4cc2-815b-681367315f5d","ios":"levelo://app?vid=231548a1-8513-4cc2-815b-681367315f5d"},"vehicle_type_id":"4","last_reported":1761505639,"current_range_meters":10800,"station_id":"","pricing_plan_id":"cebpf4jnsgd1na2vs0mg"},{"bike_id":"a193084a-3f20-48b8-81c9-e6d5470be12e","system_id":"levelo_inurba_marseille","lat":43.31264,"lon":5.36844,"is_reserved":false,"is_disabled":false,"rental_uris":{"android":"levelo://app?vid=a193084a-3f20-48b8-81c9-e6d5470be12e","ios":"levelo://app?vid=a193084a-3f20-48b8-81c9-e6d5470be12e"},"vehicle_type_id":"4","last_reported":1761505639,"current_range_meters":10800,"station_id":"ce4bgl92rcd13ifvqbq0","pricing_plan_id":"cebpf4jnsgd1na2vs0mg"},{"bike_id":"58360076-2683-4ae2-88f7-42d2be37b762","system_id":"levelo_inurba_marseille","lat":43.28664,"lon":5.3867,"is_reserved":false,"is_disabled":false,"rental_uris":{"android":"levelo://app?vid=58360076-2683-4ae2-88f7-42d2be37b762","ios":"levelo://app?vid=58360076-2683-4ae2-88f7-42d2be37b762"},"vehicle_type_id":"4","last_reported":1761505639,"current_range_meters":10800,"station_id":"ce4bh492rcd13ifvqdug","pricing_plan_id":"cebpf4jnsgd1na2vs0mg"},{"bike_id":"5947034f-19ea-4d71-bc4b-92db934cd50e","system_id":"levelo_inurba_marseille","lat":43.21184,"lon":5.35081,"is_reserved":false,"is_disabled":true,"rental_uris":{"android":"levelo://app?vid=5947034f-19ea-4d71-bc4b-92db934cd50e","ios":"levelo://app?vid=5947034f-19ea-4d71-bc4b-92db934cd50e"},"vehicle_type_id":"4","last_reported":1761505639,"current_range_meters":10800,"station_id":"st_cvj6sg6p6f1abm77japg","pricing_plan_id":"cebpf4jnsgd1na2vs0mg"},{"bike_id":"ba690a5e-915a-4c1c-8380-70a1c7dad472","system_id":"levelo_inurba_marseille","lat":43.28018,"lon":5.39982,"is_reserved":false,"is_disabled":false,"rental_uris":{"android":"levelo://app?vid=ba690a5e-915a-4c1c-8380-70a1c7dad472","ios":"levelo://app?vid=ba690a5e-915a-4c1c-8380-70a1c7dad472"},"vehicle_type_id":"4","last_reported":1761505639,"current_range_meters":10800,"station_id":"ce4bho92rcd13ifvqh4g","pricing_plan_id":"cebpf4jnsgd1na2vs0mg"},{"bike_id":"32da01b4-8c23-46d6-a4e4-f7b7538cc6fd","system_id":"levelo_inurba_marseille","lat":43.286171,"lon":5.35101,"is_reserved":false,"is_disabled":false,"rental_uris":{"android":"levelo://app?vid=32da01b4-8c23-46d6-a4e4-f7b7538cc6fd","ios":"levelo://app?vid=32da01b4-8c23-46d6-a4e4-f7b7538cc6fd"},"vehicle_type_id":"4","last_reported":1761505639,"current_range_meters":11200,"station_id":"ce4bhch2rcd13ifvqeug","pricing_plan_id":"cebpf4jnsgd1na2vs0mg"},{"bike_id":"45590a6b-966e-4533-b809-efc51cc9687d","system_id":"levelo_inurba_marseille","lat":43.31074,"lon":5.42436,"is_reserved":false,"is_disabled":false,"rental_uris":{"android":"levelo://app?vid=45590a6b-966e-4533-b809-efc51cc9687d","ios":"levelo://app?vid=45590a6b-966e-4533-b809-efc51cc9687d"},"vehicle_type_id":"4","last_reported":1761505639,"current_range_meters":11200,"station_id":"ce4bhp92rcd13ifvqhag","pricing_plan_id":"cebpf4jnsgd1na2vs0mg"},{"bike_id":"847fed3d-4489-459e-a38c-a3e6a04e3c44","system_id":"levelo_inurba_marseille","lat":43.30428,"lon":5.39747,"is_reserved":false,"is_disabled":false,"rental_uris":{"android":"levelo://app?vid=847fed3d-4489-459e-a38c-a3e6a04e3c44","ios":"levelo://app?vid=847fed3d-4489-459e-a38c-a3e6a04e3c44"},"vehicle_type_id":"4","last_reported":1761505639,"current_range_meters":11200,"station_id":"ce4bh092rcd13ifvqd20","pricing_plan_id":"cebpf4jnsgd1na2vs0mg"},{"bike_id":"a16bca06-a518-4286-ae97-d980bdb19954","system_id":"levelo_inurba_marseille","lat":43.273538,"lon":5.362388,"is_reserved":false,"is_disabled":false,"rental_uris":{"android":"levelo://app?vid=a16bca06-a518-4286-ae97-d980bdb19954","ios":"levelo://app?vid=a16bca06-a518-4286-ae97-d980bdb19954"},"vehicle_type_id":"4","last_reported":1761505639,"current_range_meters":11200,"station_id":"ce4bhbh2rcd13ifvqeo0","pricing_plan_id":"cebpf4jnsgd1na2vs0mg"},{"bike_id":"ac20b067-c44b-4e42-a5c1-8564c8c5e754","system_id":"levelo_inurba_marseille","lat":43.29277,"lon":5.37621,"is_reserved":false,"is_disabled":false,"rental_uris":{"android":"levelo://app?vid=ac20b067-c44b-4e42-a5c1-8564c8c5e754","ios":"levelo://app?vid=ac20b067-c44b-4e42-a5c1-8564c8c5e754"},"vehicle_type_id":"4","last_reported":1761505639,"current_range_meters":11200,"station_id":"ce4bgi12rcd13ifvqb80","pricing_plan_id":"cebpf4jnsgd1na2vs0mg"},{"bike_id":"4cfa2c9c-6a4e-4494-bc2c-1b8f7493deb4","system_id":"levelo_inurba_marseille","lat":43.27941,"lon":5.39897,"is_reserved":false,"is_disabled":false,"rental_uris":{"android":"levelo://app?vid=4cfa2c9c-6a4e-4494-bc2c-1b8f7493deb4","ios":"levelo://app?vid=4cfa2c9c-6a4e-4494-bc2c-1b8f7493deb4"},"vehicle_type_id":"4","last_reported":1761505639,"current_range_meters":11200,"station_id":"","pricing_plan_id":"cebpf4jnsgd1na2vs0mg"},{"bike_id":"2f70363b-d265-4f26-a53d-4de3c26025ad","system_id":"levelo_inurba_marseille","lat":43.291008,"lon":5.371523,"is_reserved":false,"is_disabled":false,"rental_uris":{"android":"levelo://app?vid=2f70363b-d265-4f26-a53d-4de3c26025ad","ios":"levelo://app?vid=2f70363b-d265-4f26-a53d-4de3c26025ad"},"vehicle_type_id":"4","last_reported":1761505639,"current_range_meters":11200,"station_id":"ce4bha92rcd13ifvqeh0","pricing_plan_id":"cebpf4jnsgd1na2vs0mg"},{"bike_id":"b2bb75fc-01c7-4544-a2ca-4b7e9e5998b2","system_id":"levelo_inurba_marseille","lat":43.28625,"lon":5.37033,"is_reserved":false,"is_disabled":false,"rental_uris":{"android":"levelo://app?vid=b2bb75fc-01c7-4544-a2ca-4b7e9e5998b2","ios":"levelo://app?vid=b2bb75fc-01c7-4544-a2ca-4b7e9e5998b2"},"vehicle_type_id":"4","last_reported":1761505639,"current_range_meters":11600,"station_id":"ce4bht12rcd13ifvqi60","pricing_plan_id":"cebpf4jnsgd1na2vs0mg"},{"bike_id":"41d45b45-3a52-4b5a-b2b3-1e62d5490ada","system_id":"levelo_inurba_marseille","lat":43.28541,"lon":5.44087,"is_reserved":false,"is_disabled":false,"rental_uris":{"android":"levelo://app?vid=41d45b45-3a52-4b5a-b2b3-1e62d5490ada","ios":"levelo://app?vid=41d45b45-3a52-4b5a-b2b3-1e62d5490ada"},"vehicle_type_id":"4","last_reported":1761505639,"current_range_meters":11600,"station_id":"st_d3j3df2ikq2c7380ej80","pricing_plan_id":"cebpf4jnsgd1na2vs0mg"},{"bike_id":"2ff820dd-4701-4c44-978c-027d1723e1a8","system_id":"levelo_inurba_marseille","lat":43.21756,"lon":5.34586,"is_reserved":false,"is_disabled":false,"rental_uris":{"android":"levelo://app?vid=2ff820dd-4701-4c44-978c-027d1723e1a8","ios":"levelo://app?vid=2ff820dd-4701-4c44-978c-027d1723e1a8"},"vehicle_type_id":"4","last_reported":1761505639,"current_range_meters":11600,"station_id":"","pricing_plan_id":"cebpf4jnsgd1na2vs0mg"},{"bike_id":"96619ea9-5232-48d9-9077-02b2a0c2783e","system_id":"levelo_inurba_marseille","lat":43.28138,"lon":5.37884,"is_reserved":false,"is_disabled":false,"rental_uris":{"android":"levelo://app?vid=96619ea9-5232-48d9-9077-02b2a0c2783e","ios":"levelo://app?vid=96619ea9-5232-48d9-9077-02b2a0c2783e"},"vehicle_type_id":"4","last_reported":1761505639,"current_range_meters":11600,"station_id":"ce4bha12rcd13ifvqee0","pricing_plan_id":"cebpf4jnsgd1na2vs0mg"},{"bike_id":"3da36b46-32f0-4723-8f3b-8cba39a84287","system_id":"levelo_inurba_marseille","lat":43.24384,"lon":5.37043,"is_reserved":false,"is_disabled":false,"rental_uris":{"android":"levelo://app?vid=3da36b46-32f0-4723-8f3b-8cba39a84287","ios":"levelo://app?vid=3da36b46-32f0-4723-8f3b-8cba39a84287"},"vehicle_type_id":"4","last_reported":1761505639,"current_range_meters":11600,"station_id":"ce4bhhh2rcd13ifvqfk0","pricing_plan_id":"cebpf4jnsgd1na2vs0mg"},{"bike_id":"6ff26e4b-bf6a-4729-9bd9-1299f9de2b9a","system_id":"levelo_inurba_marseille","lat":43.25705,"lon":5.38953,"is_reserved":false,"is_disabled":false,"rental_uris":{"android":"levelo://app?vid=6ff26e4b-bf6a-4729-9bd9-1299f9de2b9a","ios":"levelo://app?vid=6ff26e4b-bf6a-4729-9bd9-1299f9de2b9a"},"vehicle_type_id":"4","last_reported":1761505639,"current_range_meters":11600,"station_id":"","pricing_plan_id":"cebpf4jnsgd1na2vs0mg"},{"bike_id":"c0b81f28-bbba-4247-a74b-c55a34b31846","system_id":"levelo_inurba_marseille","lat":43.33258,"lon":5.41086,"is_reserved":false,"is_disabled":false,"rental_uris":{"android":"levelo://app?vid=c0b81f28-bbba-4247-a74b-c55a34b31846","ios":"levelo://app?vid=c0b81f28-bbba-4247-a74b-c55a34b31846"},"vehicle_type_id":"4","last_reported":1761505639,"current_range_meters":12000,"station_id":"","pricing_plan_id":"cebpf4jnsgd1na2vs0mg"},{"bike_id":"6ee611b3-bf13-495e-a0dc-dfd1a8718271","system_id":"levelo_inurba_marseille","lat":43.29817,"lon":5.44029,"is_reserved":false,"is_disabled":false,"rental_uris":{"android":"levelo://app?vid=6ee611b3-bf13-495e-a0dc-dfd1a8718271","ios":"levelo://app?vid=6ee611b3-bf13-495e-a0dc-dfd1a8718271"},"vehicle_type_id":"4","last_reported":1761505639,"current_range_meters":12000,"station_id":"st_d3jp68qikq2c7381ktn0","pricing_plan_id":"cebpf4jnsgd1na2vs0mg"},{"bike_id":"93854d26-120f-411d-bc34-ad32184378a3","system_id":"levelo_inurba_marseille","lat":43.29207,"lon":5.38476,"is_reserved":false,"is_disabled":false,"rental_uris":{"android":"levelo://app?vid=93854d26-120f-411d-bc34-ad32184378a3","ios":"levelo://app?vid=93854d26-120f-411d-bc34-ad32184378a3"},"vehicle_type_id":"4","last_reported":1761505639,"current_range_meters":12000,"station_id":"","pricing_plan_id":"cebpf4jnsgd1na2vs0mg"},{"bike_id":"46b0db6c-35c8-470b-a45d-db7e7afa9bfd","system_id":"levelo_inurba_marseille","lat":43.28384,"lon":5.37553,"is_reserved":false,"is_disabled":true,"rental_uris":{"android":"levelo://app?vid=46b0db6c-35c8-470b-a45d-db7e7afa9bfd","ios":"levelo://app?vid=46b0db6c-35c8-470b-a45d-db7e7afa9bfd"},"vehicle_type_id":"4","last_reported":1761505639,"current_range_meters":12000,"station_id":"ce4bh412rcd13ifvqds0","pricing_plan_id":"cebpf4jnsgd1na2vs0mg"},{"bike_id":"f912851b-5b6f-4e5e-8430-b8620b14e848","system_id":"levelo_inurba_marseille","lat":43.31071,"lon":5.38354,"is_reserved":false,"is_disabled":false,"rental_uris":{"android":"levelo://app?vid=f912851b-5b6f-4e5e-8430-b8620b14e848","ios":"levelo://app?vid=f912851b-5b6f-4e5e-8430-b8620b14e848"},"vehicle_type_id":"4","last_reported":1761505639,"current_range_meters":12000,"station_id":"ce4bgv92rcd13ifvqcr0","pricing_plan_id":"cebpf4jnsgd1na2vs0mg"},{"bike_id":"c8027f17-0c2c-4232-8e71-440178a0c2ca","system_id":"levelo_inurba_marseille","lat":43.29565,"lon":5.37499,"is_reserved":false,"is_disabled":true,"rental_uris":{"android":"levelo://app?vid=c8027f17-0c2c-4232-8e71-440178a0c2ca","ios":"levelo://app?vid=c8027f17-0c2c-4232-8e71-440178a0c2ca"},"vehicle_type_id":"4","last_reported":1761505639,"current_range_meters":12000,"station_id":"ce4bgh92rcd13ifvqb50","pricing_plan_id":"cebpf4jnsgd1na2vs0mg"},{"bike_id":"f412ba40-64c7-4631-957e-704715f6ca71","system_id":"levelo_inurba_marseille","lat":43.31085,"lon":5.42431,"is_reserved":false,"is_disabled":false,"rental_uris":{"android":"levelo://app?vid=f412ba40-64c7-4631-957e-704715f6ca71","ios":"levelo://app?vid=f412ba40-64c7-4631-957e-704715f6ca71"},"vehicle_type_id":"4","last_reported":1761505639,"current_range_meters":12000,"station_id":"ce4bhp92rcd13ifvqhag","pricing_plan_id":"cebpf4jnsgd1na2vs0mg"},{"bike_id":"67f8857f-0853-46d2-b9ef-96c5ce2639bc","system_id":"levelo_inurba_marseille","lat":43.23067,"lon":5.35489,"is_reserved":false,"is_disabled":false,"rental_uris":{"android":"levelo://app?vid=67f8857f-0853-46d2-b9ef-96c5ce2639bc","ios":"levelo://app?vid=67f8857f-0853-46d2-b9ef-96c5ce2639bc"},"vehicle_type_id":"4","last_reported":1761505639,"current_range_meters":12000,"station_id":"cpo3342slgdg3j2ifvpg","pricing_plan_id":"cebpf4jnsgd1na2vs0mg"},{"bike_id":"7cf1f223-e7a7-43e3-9bf3-4fb27bc0ea85","system_id":"levelo_inurba_marseille","lat":43.29794,"lon":5.37105,"is_reserved":false,"is_disabled":false,"rental_uris":{"android":"levelo://app?vid=7cf1f223-e7a7-43e3-9bf3-4fb27bc0ea85","ios":"levelo://app?vid=7cf1f223-e7a7-43e3-9bf3-4fb27bc0ea85"},"vehicle_type_id":"4","last_reported":1761505639,"current_range_meters":12000,"station_id":"ce4bgop2rcd13ifvqc1g","pricing_plan_id":"cebpf4jnsgd1na2vs0mg"},{"bike_id":"e4ccce50-4824-4895-aa8c-033835526f23","system_id":"levelo_inurba_marseille","lat":43.31879,"lon":5.39994,"is_reserved":false,"is_disabled":false,"rental_uris":{"android":"levelo://app?vid=e4ccce50-4824-4895-aa8c-033835526f23","ios":"levelo://app?vid=e4ccce50-4824-4895-aa8c-033835526f23"},"vehicle_type_id":"4","last_reported":1761505639,"current_range_meters":12000,"station_id":"","pricing_plan_id":"cebpf4jnsgd1na2vs0mg"},{"bike_id":"5e867c4a-c954-4f94-b624-f6856cada071","system_id":"levelo_inurba_marseille","lat":43.29597,"lon":5.38095,"is_reserved":false,"is_disabled":false,"rental_uris":{"android":"levelo://app?vid=5e867c4a-c954-4f94-b624-f6856cada071","ios":"levelo://app?vid=5e867c4a-c954-4f94-b624-f6856cada071"},"vehicle_type_id":"4","last_reported":1761505639,"current_range_meters":12400,"station_id":"ce4bgl12rcd13ifvqbo0","pricing_plan_id":"cebpf4jnsgd1na2vs0mg"},{"bike_id":"63e973f3-e7fc-4225-83ba-29a670d42b34","system_id":"levelo_inurba_marseille","lat":43.2316,"lon":5.43707,"is_reserved":false,"is_disabled":false,"rental_uris":{"android":"levelo://app?vid=63e973f3-e7fc-4225-83ba-29a670d42b34","ios":"levelo://app?vid=63e973f3-e7fc-4225-83ba-29a670d42b34"},"vehicle_type_id":"4","last_reported":1761505639,"current_range_meters":12400,"station_id":"ce4bhmp2rcd13ifvqgog","pricing_plan_id":"cebpf4jnsgd1na2vs0mg"},{"bike_id":"0a86396a-3345-4ebb-adbf-2fa4cb6ad0fb","system_id":"levelo_inurba_marseille","lat":43.28012,"lon":5.40014,"is_reserved":false,"is_disabled":false,"rental_uris":{"android":"levelo://app?vid=0a86396a-3345-4ebb-adbf-2fa4cb6ad0fb","ios":"levelo://app?vid=0a86396a-3345-4ebb-adbf-2fa4cb6ad0fb"},"vehicle_type_id":"4","last_reported":1761505639,"current_range_meters":12400,"station_id":"ce4bho92rcd13ifvqh4g","pricing_plan_id":"cebpf4jnsgd1na2vs0mg"},{"bike_id":"df56e0a3-f67e-4286-b3b2-3769c82cde2b","system_id":"levelo_inurba_marseille","lat":43.2534,"lon":5.42173,"is_reserved":false,"is_disabled":false,"rental_uris":{"android":"levelo://app?vid=df56e0a3-f67e-4286-b3b2-3769c82cde2b","ios":"levelo://app?vid=df56e0a3-f67e-4286-b3b2-3769c82cde2b"},"vehicle_type_id":"4","last_reported":1761505639,"current_range_meters":12400,"station_id":"st_d2m65c5bi1j21697t3ng","pricing_plan_id":"cebpf4jnsgd1na2vs0mg"},{"bike_id":"ca772d75-34f2-4f9d-a5b0-630f8e1a3fbb","system_id":"levelo_inurba_marseille","lat":43.24164,"lon":5.36381,"is_reserved":false,"is_disabled":false,"rental_uris":{"android":"levelo://app?vid=ca772d75-34f2-4f9d-a5b0-630f8e1a3fbb","ios":"levelo://app?vid=ca772d75-34f2-4f9d-a5b0-630f8e1a3fbb"},"vehicle_type_id":"4","last_reported":1761505639,"current_range_meters":12400,"station_id":"cpo36qri1sfpv3e86is0","pricing_plan_id":"cebpf4jnsgd1na2vs0mg"},{"bike_id":"de5cece4-6186-4ccb-b70e-a25e8bd3fc86","system_id":"levelo_inurba_marseille","lat":43.337444,"lon":5.374475,"is_reserved":false,"is_disabled":false,"rental_uris":{"android":"levelo://app?vid=de5cece4-6186-4ccb-b70e-a25e8bd3fc86","ios":"levelo://app?vid=de5cece4-6186-4ccb-b70e-a25e8bd3fc86"},"vehicle_type_id":"4","last_reported":1761505639,"current_range_meters":12400,"station_id":"","pricing_plan_id":"cebpf4jnsgd1na2vs0mg"},{"bike_id":"8847af5d-c1ad-4d8d-a5c1-273c3b41c105","system_id":"levelo_inurba_marseille","lat":43.322437,"lon":5.419667,"is_reserved":false,"is_disabled":false,"rental_uris":{"android":"levelo://app?vid=8847af5d-c1ad-4d8d-a5c1-273c3b41c105","ios":"levelo://app?vid=8847af5d-c1ad-4d8d-a5c1-273c3b41c105"},"vehicle_type_id":"4","last_reported":1761505639,"current_range_meters":12800,"station_id":"","pricing_plan_id":"cebpf4jnsgd1na2vs0mg"},{"bike_id":"46b98d7b-cb3a-4441-9872-74ceacaf69c2","system_id":"levelo_inurba_marseille","lat":43.29249,"lon":5.3845,"is_reserved":false,"is_disabled":false,"rental_uris":{"android":"levelo://app?vid=46b98d7b-cb3a-4441-9872-74ceacaf69c2","ios":"levelo://app?vid=46b98d7b-cb3a-4441-9872-74ceacaf69c2"},"vehicle_type_id":"4","last_reported":1761505639,"current_range_meters":12800,"station_id":"ce4bh692rcd13ifvqea0","pricing_plan_id":"cebpf4jnsgd1na2vs0mg"},{"bike_id":"da53deab-b37f-4bff-8d08-f9ed6194ab10","system_id":"levelo_inurba_marseille","lat":43.2465,"lon":5.38158,"is_reserved":false,"is_disabled":false,"rental_uris":{"android":"levelo://app?vid=da53deab-b37f-4bff-8d08-f9ed6194ab10","ios":"levelo://app?vid=da53deab-b37f-4bff-8d08-f9ed6194ab10"},"vehicle_type_id":"4","last_reported":1761505639,"current_range_meters":12800,"station_id":"ce4bhih2rcd13ifvqfr0","pricing_plan_id":"cebpf4jnsgd1na2vs0mg"},{"bike_id":"99db9f7f-bf49-419a-b162-d5c4a8bbac1f","system_id":"levelo_inurba_marseille","lat":43.29246,"lon":5.38439,"is_reserved":false,"is_disabled":false,"rental_uris":{"android":"levelo://app?vid=99db9f7f-bf49-419a-b162-d5c4a8bbac1f","ios":"levelo://app?vid=99db9f7f-bf49-419a-b162-d5c4a8bbac1f"},"vehicle_type_id":"4","last_reported":1761505639,"current_range_meters":12800,"station_id":"ce4bh692rcd13ifvqea0","pricing_plan_id":"cebpf4jnsgd1na2vs0mg"},{"bike_id":"64b75b4a-3497-4861-8cc2-90dd62cd9f5e","system_id":"levelo_inurba_marseille","lat":43.295,"lon":5.43297,"is_reserved":false,"is_disabled":false,"rental_uris":{"android":"levelo://app?vid=64b75b4a-3497-4861-8cc2-90dd62cd9f5e","ios":"levelo://app?vid=64b75b4a-3497-4861-8cc2-90dd62cd9f5e"},"vehicle_type_id":"4","last_reported":1761505639,"current_range_meters":12800,"station_id":"st_d3j5ugp08ojc73fj9d10","pricing_plan_id":"cebpf4jnsgd1na2vs0mg"},{"bike_id":"8d922c2e-fd1c-4861-a7c8-82dfdd23c009","system_id":"levelo_inurba_marseille","lat":43.24186,"lon":5.36403,"is_reserved":false,"is_disabled":false,"rental_uris":{"android":"levelo://app?vid=8d922c2e-fd1c-4861-a7c8-82dfdd23c009","ios":"levelo://app?vid=8d922c2e-fd1c-4861-a7c8-82dfdd23c009"},"vehicle_type_id":"4","last_reported":1761505639,"current_range_meters":12800,"station_id":"cpo36qri1sfpv3e86is0","pricing_plan_id":"cebpf4jnsgd1na2vs0mg"},{"bike_id":"287a68be-2ed4-408f-a034-77eda710ab9c","system_id":"levelo_inurba_marseille","lat":43.290275,"lon":5.386464,"is_reserved":false,"is_disabled":false,"rental_uris":{"android":"levelo://app?vid=287a68be-2ed4-408f-a034-77eda710ab9c","ios":"levelo://app?vid=287a68be-2ed4-408f-a034-77eda710ab9c"},"vehicle_type_id":"4","last_reported":1761505639,"current_range_meters":12800,"station_id":"ce4bh4p2rcd13ifvqe0g","pricing_plan_id":"cebpf4jnsgd1na2vs0mg"},{"bike_id":"e5aafa61-e384-4c69-800b-fe726c41fdc6","system_id":"levelo_inurba_marseille","lat":43.29976,"lon":5.38502,"is_reserved":false,"is_disabled":true,"rental_uris":{"android":"levelo://app?vid=e5aafa61-e384-4c69-800b-fe726c41fdc6","ios":"levelo://app?vid=e5aafa61-e384-4c69-800b-fe726c41fdc6"},"vehicle_type_id":"4","last_reported":1761505639,"current_range_meters":12800,"station_id":"ce4bgj92rcd13ifvqbd0","pricing_plan_id":"cebpf4jnsgd1na2vs0mg"},{"bike_id":"c124d4a0-9e47-48ec-ad7a-ea36eb6e5d35","system_id":"levelo_inurba_marseille","lat":43.24384,"lon":5.37059,"is_reserved":false,"is_disabled":false,"rental_uris":{"android":"levelo://app?vid=c124d4a0-9e47-48ec-ad7a-ea36eb6e5d35","ios":"levelo://app?vid=c124d4a0-9e47-48ec-ad7a-ea36eb6e5d35"},"vehicle_type_id":"4","last_reported":1761505639,"current_range_meters":12800,"station_id":"ce4bhhh2rcd13ifvqfk0","pricing_plan_id":"cebpf4jnsgd1na2vs0mg"},{"bike_id":"13f12d24-3fc3-4202-88f0-68cc1be473cc","system_id":"levelo_inurba_marseille","lat":43.2853,"lon":5.44097,"is_reserved":false,"is_disabled":false,"rental_uris":{"android":"levelo://app?vid=13f12d24-3fc3-4202-88f0-68cc1be473cc","ios":"levelo://app?vid=13f12d24-3fc3-4202-88f0-68cc1be473cc"},"vehicle_type_id":"4","last_reported":1761505639,"current_range_meters":13600,"station_id":"st_d3j3df2ikq2c7380ej80","pricing_plan_id":"cebpf4jnsgd1na2vs0mg"},{"bike_id":"ffd13ce5-8f79-40f7-bfc8-0243e89f122b","system_id":"levelo_inurba_marseille","lat":43.24411,"lon":5.37056,"is_reserved":false,"is_disabled":false,"rental_uris":{"android":"levelo://app?vid=ffd13ce5-8f79-40f7-bfc8-0243e89f122b","ios":"levelo://app?vid=ffd13ce5-8f79-40f7-bfc8-0243e89f122b"},"vehicle_type_id":"4","last_reported":1761505639,"current_range_meters":13600,"station_id":"ce4bhhh2rcd13ifvqfk0","pricing_plan_id":"cebpf4jnsgd1na2vs0mg"},{"bike_id":"d85011cb-7d6b-4b15-a412-59816da2b5c2","system_id":"levelo_inurba_marseille","lat":43.231899,"lon":5.355621,"is_reserved":false,"is_disabled":true,"rental_uris":{"android":"levelo://app?vid=d85011cb-7d6b-4b15-a412-59816da2b5c2","ios":"levelo://app?vid=d85011cb-7d6b-4b15-a412-59816da2b5c2"},"vehicle_type_id":"4","last_reported":1761505639,"current_range_meters":13600,"station_id":"ce4bhu92rcd13ifvqi70","pricing_plan_id":"cebpf4jnsgd1na2vs0mg"},{"bike_id":"5c1945b7-ed58-4245-b349-8ad435471c3e","system_id":"levelo_inurba_marseille","lat":43.27914,"lon":5.39579,"is_reserved":false,"is_disabled":false,"rental_uris":{"android":"levelo://app?vid=5c1945b7-ed58-4245-b349-8ad435471c3e","ios":"levelo://app?vid=5c1945b7-ed58-4245-b349-8ad435471c3e"},"vehicle_type_id":"4","last_reported":1761505639,"current_range_meters":13600,"station_id":"ce4bhf92rcd13ifvqf40","pricing_plan_id":"cebpf4jnsgd1na2vs0mg"},{"bike_id":"476ede32-cfdc-42f2-8cc1-233e266f9923","system_id":"levelo_inurba_marseille","lat":43.295699,"lon":5.37555,"is_reserved":false,"is_disabled":false,"rental_uris":{"android":"levelo://app?vid=476ede32-cfdc-42f2-8cc1-233e266f9923","ios":"levelo://app?vid=476ede32-cfdc-42f2-8cc1-233e266f9923"},"vehicle_type_id":"4","last_reported":1761505639,"current_range_meters":14000,"station_id":"","pricing_plan_id":"cebpf4jnsgd1na2vs0mg"},{"bike_id":"51b0f5f4-7f69-4459-986b-efcfa4f5713b","system_id":"levelo_inurba_marseille","lat":43.286057,"lon":5.370626,"is_reserved":false,"is_disabled":false,"rental_uris":{"android":"levelo://app?vid=51b0f5f4-7f69-4459-986b-efcfa4f5713b","ios":"levelo://app?vid=51b0f5f4-7f69-4459-986b-efcfa4f5713b"},"vehicle_type_id":"4","last_reported":1761505639,"current_range_meters":14000,"station_id":"ce4bht12rcd13ifvqi60","pricing_plan_id":"cebpf4jnsgd1na2vs0mg"},{"bike_id":"b9497059-6369-4206-9a6d-1126e4b1b32a","system_id":"levelo_inurba_marseille","lat":43.28638,"lon":5.35086,"is_reserved":false,"is_disabled":false,"rental_uris":{"android":"levelo://app?vid=b9497059-6369-4206-9a6d-1126e4b1b32a","ios":"levelo://app?vid=b9497059-6369-4206-9a6d-1126e4b1b32a"},"vehicle_type_id":"4","last_reported":1761505639,"current_range_meters":14000,"station_id":"ce4bhch2rcd13ifvqeug","pricing_plan_id":"cebpf4jnsgd1na2vs0mg"},{"bike_id":"317107fa-306d-4b8d-9380-a16cd06486ce","system_id":"levelo_inurba_marseille","lat":43.28436,"lon":5.3588,"is_reserved":false,"is_disabled":true,"rental_uris":{"android":"levelo://app?vid=317107fa-306d-4b8d-9380-a16cd06486ce","ios":"levelo://app?vid=317107fa-306d-4b8d-9380-a16cd06486ce"},"vehicle_type_id":"4","last_reported":1761505639,"current_range_meters":14000,"station_id":"ce4bhah2rcd13ifvqei0","pricing_plan_id":"cebpf4jnsgd1na2vs0mg"},{"bike_id":"c6c4ac78-6ec0-418f-909c-daef41b6971e","system_id":"levelo_inurba_marseille","lat":43.30317,"lon":5.369,"is_reserved":false,"is_disabled":false,"rental_uris":{"android":"levelo://app?vid=c6c4ac78-6ec0-418f-909c-daef41b6971e","ios":"levelo://app?vid=c6c4ac78-6ec0-418f-909c-daef41b6971e"},"vehicle_type_id":"4","last_reported":1761505639,"current_range_meters":14000,"station_id":"ce4bgqh2rcd13ifvqc5g","pricing_plan_id":"cebpf4jnsgd1na2vs0mg"},{"bike_id":"1895df7b-5dc5-4ecc-8f9a-9b31e3968d90","system_id":"levelo_inurba_marseille","lat":43.246354,"lon":5.431486,"is_reserved":false,"is_disabled":false,"rental_uris":{"android":"levelo://app?vid=1895df7b-5dc5-4ecc-8f9a-9b31e3968d90","ios":"levelo://app?vid=1895df7b-5dc5-4ecc-8f9a-9b31e3968d90"},"vehicle_type_id":"4","last_reported":1761505639,"current_range_meters":14000,"station_id":"st_d2m6c4gdas8pm72e190g","pricing_plan_id":"cebpf4jnsgd1na2vs0mg"},{"bike_id":"9cc0de43-9775-495c-90a1-990a5acab934","system_id":"levelo_inurba_marseille","lat":43.314325,"lon":5.370661,"is_reserved":false,"is_disabled":false,"rental_uris":{"android":"levelo://app?vid=9cc0de43-9775-495c-90a1-990a5acab934","ios":"levelo://app?vid=9cc0de43-9775-495c-90a1-990a5acab934"},"vehicle_type_id":"4","last_reported":1761505639,"current_range_meters":14000,"station_id":"ce4bgt12rcd13ifvqcd0","pricing_plan_id":"cebpf4jnsgd1na2vs0mg"},{"bike_id":"5b835d12-a565-435a-992a-633ed34ffcf1","system_id":"levelo_inurba_marseille","lat":43.25595,"lon":5.38229,"is_reserved":false,"is_disabled":false,"rental_uris":{"android":"levelo://app?vid=5b835d12-a565-435a-992a-633ed34ffcf1","ios":"levelo://app?vid=5b835d12-a565-435a-992a-633ed34ffcf1"},"vehicle_type_id":"4","last_reported":1761505639,"current_range_meters":14000,"station_id":"ce4bhih2rcd13ifvqfs0","pricing_plan_id":"cebpf4jnsgd1na2vs0mg"},{"bike_id":"e270848e-8d82-4e94-b92c-a05e046c1218","system_id":"levelo_inurba_marseille","lat":43.27092,"lon":5.38311,"is_reserved":false,"is_disabled":false,"rental_uris":{"android":"levelo://app?vid=e270848e-8d82-4e94-b92c-a05e046c1218","ios":"levelo://app?vid=e270848e-8d82-4e94-b92c-a05e046c1218"},"vehicle_type_id":"4","last_reported":1761505639,"current_range_meters":14000,"station_id":"st_d3n2fo6cfp8s73cte1j0","pricing_plan_id":"cebpf4jnsgd1na2vs0mg"},{"bike_id":"6f36a359-fa50-49f5-98a5-a2b2c4892adc","system_id":"levelo_inurba_marseille","lat":43.23195,"lon":5.35552,"is_reserved":false,"is_disabled":false,"rental_uris":{"android":"levelo://app?vid=6f36a359-fa50-49f5-98a5-a2b2c4892adc","ios":"levelo://app?vid=6f36a359-fa50-49f5-98a5-a2b2c4892adc"},"vehicle_type_id":"4","last_reported":1761505639,"current_range_meters":14400,"station_id":"ce4bhu92rcd13ifvqi70","pricing_plan_id":"cebpf4jnsgd1na2vs0mg"},{"bike_id":"a718bd94-ba92-4cd5-a92a-e52c25a44c99","system_id":"levelo_inurba_marseille","lat":43.310705,"lon":5.383449,"is_reserved":false,"is_disabled":false,"rental_uris":{"android":"levelo://app?vid=a718bd94-ba92-4cd5-a92a-e52c25a44c99","ios":"levelo://app?vid=a718bd94-ba92-4cd5-a92a-e52c25a44c99"},"vehicle_type_id":"4","last_reported":1761505639,"current_range_meters":14400,"station_id":"ce4bgv92rcd13ifvqcr0","pricing_plan_id":"cebpf4jnsgd1na2vs0mg"},{"bike_id":"526cddf7-e629-4e01-a3fa-d060ef7dfdd4","system_id":"levelo_inurba_marseille","lat":43.24643,"lon":5.38897,"is_reserved":false,"is_disabled":false,"rental_uris":{"android":"levelo://app?vid=526cddf7-e629-4e01-a3fa-d060ef7dfdd4","ios":"levelo://app?vid=526cddf7-e629-4e01-a3fa-d060ef7dfdd4"},"vehicle_type_id":"4","last_reported":1761505639,"current_range_meters":14400,"station_id":"ce4bhg12rcd13ifvqf60","pricing_plan_id":"cebpf4jnsgd1na2vs0mg"},{"bike_id":"3d8875d9-a726-4a55-af03-f8d2104f807e","system_id":"levelo_inurba_marseille","lat":43.29015,"lon":5.38619,"is_reserved":false,"is_disabled":false,"rental_uris":{"android":"levelo://app?vid=3d8875d9-a726-4a55-af03-f8d2104f807e","ios":"levelo://app?vid=3d8875d9-a726-4a55-af03-f8d2104f807e"},"vehicle_type_id":"4","last_reported":1761505639,"current_range_meters":14400,"station_id":"ce4bh4p2rcd13ifvqe0g","pricing_plan_id":"cebpf4jnsgd1na2vs0mg"},{"bike_id":"6b72c8e1-fe87-4635-90aa-72f1e663fb65","system_id":"levelo_inurba_marseille","lat":43.273773,"lon":5.362598,"is_reserved":false,"is_disabled":false,"rental_uris":{"android":"levelo://app?vid=6b72c8e1-fe87-4635-90aa-72f1e663fb65","ios":"levelo://app?vid=6b72c8e1-fe87-4635-90aa-72f1e663fb65"},"vehicle_type_id":"4","last_reported":1761505639,"current_range_meters":14400,"station_id":"ce4bhbh2rcd13ifvqeo0","pricing_plan_id":"cebpf4jnsgd1na2vs0mg"},{"bike_id":"3569258b-9717-4737-b3a7-8eaad0b2d9c1","system_id":"levelo_inurba_marseille","lat":43.29535,"lon":5.38538,"is_reserved":false,"is_disabled":false,"rental_uris":{"android":"levelo://app?vid=3569258b-9717-4737-b3a7-8eaad0b2d9c1","ios":"levelo://app?vid=3569258b-9717-4737-b3a7-8eaad0b2d9c1"},"vehicle_type_id":"4","last_reported":1761505639,"current_range_meters":14400,"station_id":"ce4bgih2rcd13ifvqba0","pricing_plan_id":"cebpf4jnsgd1na2vs0mg"},{"bike_id":"77735af7-e3ea-4e01-af34-1c7cdbdbe4d8","system_id":"levelo_inurba_marseille","lat":43.29251,"lon":5.38434,"is_reserved":false,"is_disabled":false,"rental_uris":{"android":"levelo://app?vid=77735af7-e3ea-4e01-af34-1c7cdbdbe4d8","ios":"levelo://app?vid=77735af7-e3ea-4e01-af34-1c7cdbdbe4d8"},"vehicle_type_id":"4","last_reported":1761505639,"current_range_meters":14400,"station_id":"ce4bh692rcd13ifvqea0","pricing_plan_id":"cebpf4jnsgd1na2vs0mg"},{"bike_id":"ed58cf63-7a6e-49b5-8ebb-dbae36c26d4e","system_id":"levelo_inurba_marseille","lat":43.278715,"lon":5.399359,"is_reserved":false,"is_disabled":false,"rental_uris":{"android":"levelo://app?vid=ed58cf63-7a6e-49b5-8ebb-dbae36c26d4e","ios":"levelo://app?vid=ed58cf63-7a6e-49b5-8ebb-dbae36c26d4e"},"vehicle_type_id":"4","last_reported":1761505639,"current_range_meters":14800,"station_id":"ce4bh4p2rcd13ifvqe1g","pricing_plan_id":"cebpf4jnsgd1na2vs0mg"},{"bike_id":"5f934ae2-18a2-4ea3-8435-f5db41767318","system_id":"levelo_inurba_marseille","lat":43.28006,"lon":5.40017,"is_reserved":false,"is_disabled":false,"rental_uris":{"android":"levelo://app?vid=5f934ae2-18a2-4ea3-8435-f5db41767318","ios":"levelo://app?vid=5f934ae2-18a2-4ea3-8435-f5db41767318"},"vehicle_type_id":"4","last_reported":1761505639,"current_range_meters":14800,"station_id":"ce4bho92rcd13ifvqh4g","pricing_plan_id":"cebpf4jnsgd1na2vs0mg"},{"bike_id":"08b89487-7647-4a54-9c05-2a9b71119650","system_id":"levelo_inurba_marseille","lat":43.32505,"lon":5.3656,"is_reserved":false,"is_disabled":false,"rental_uris":{"android":"levelo://app?vid=08b89487-7647-4a54-9c05-2a9b71119650","ios":"levelo://app?vid=08b89487-7647-4a54-9c05-2a9b71119650"},"vehicle_type_id":"4","last_reported":1761505639,"current_range_meters":14800,"station_id":"ce4bhs12rcd13ifvqhvg","pricing_plan_id":"cebpf4jnsgd1na2vs0mg"},{"bike_id":"4b5479d2-5562-4762-a007-d220f39c6279","system_id":"levelo_inurba_marseille","lat":43.26549,"lon":5.3731,"is_reserved":false,"is_disabled":false,"rental_uris":{"android":"levelo://app?vid=4b5479d2-5562-4762-a007-d220f39c6279","ios":"levelo://app?vid=4b5479d2-5562-4762-a007-d220f39c6279"},"vehicle_type_id":"4","last_reported":1761505639,"current_range_meters":14800,"station_id":"ce4bhg12rcd13ifvqf70","pricing_plan_id":"cebpf4jnsgd1na2vs0mg"},{"bike_id":"37257448-b8c5-46c2-9ebf-d74d7c0b992e","system_id":"levelo_inurba_marseille","lat":43.31105,"lon":5.37767,"is_reserved":false,"is_disabled":false,"rental_uris":{"android":"levelo://app?vid=37257448-b8c5-46c2-9ebf-d74d7c0b992e","ios":"levelo://app?vid=37257448-b8c5-46c2-9ebf-d74d7c0b992e"},"vehicle_type_id":"4","last_reported":1761505639,"current_range_meters":14800,"station_id":"ce4bgt92rcd13ifvqcg0","pricing_plan_id":"cebpf4jnsgd1na2vs0mg"},{"bike_id":"6e436bcd-27d9-4b2c-8a4f-a0333eec5b5c","system_id":"levelo_inurba_marseille","lat":43.30176,"lon":5.37413,"is_reserved":false,"is_disabled":false,"rental_uris":{"android":"levelo://app?vid=6e436bcd-27d9-4b2c-8a4f-a0333eec5b5c","ios":"levelo://app?vid=6e436bcd-27d9-4b2c-8a4f-a0333eec5b5c"},"vehicle_type_id":"4","last_reported":1761505639,"current_range_meters":14800,"station_id":"ce4bgs92rcd13ifvqcc0","pricing_plan_id":"cebpf4jnsgd1na2vs0mg"},{"bike_id":"ad166e8d-320f-47c2-bfd9-9e014a946d21","system_id":"levelo_inurba_marseille","lat":43.2782,"lon":5.40719,"is_reserved":false,"is_disabled":true,"rental_uris":{"android":"levelo://app?vid=ad166e8d-320f-47c2-bfd9-9e014a946d21","ios":"levelo://app?vid=ad166e8d-320f-47c2-bfd9-9e014a946d21"},"vehicle_type_id":"4","last_reported":1761505639,"current_range_meters":14800,"station_id":"ce4bhnh2rcd13ifvqgtg","pricing_plan_id":"cebpf4jnsgd1na2vs0mg"},{"bike_id":"de0ca7a8-116a-46c8-8c50-6b445a473423","system_id":"levelo_inurba_marseille","lat":43.28874,"lon":5.4251,"is_reserved":false,"is_disabled":false,"rental_uris":{"android":"levelo://app?vid=de0ca7a8-116a-46c8-8c50-6b445a473423","ios":"levelo://app?vid=de0ca7a8-116a-46c8-8c50-6b445a473423"},"vehicle_type_id":"4","last_reported":1761505639,"current_range_meters":15200,"station_id":"st_d3b462108ojc7389ooeg","pricing_plan_id":"cebpf4jnsgd1na2vs0mg"},{"bike_id":"897eebc8-f630-462f-b2fc-56d87e708f06","system_id":"levelo_inurba_marseille","lat":43.29245,"lon":5.38435,"is_reserved":false,"is_disabled":false,"rental_uris":{"android":"levelo://app?vid=897eebc8-f630-462f-b2fc-56d87e708f06","ios":"levelo://app?vid=897eebc8-f630-462f-b2fc-56d87e708f06"},"vehicle_type_id":"4","last_reported":1761505639,"current_range_meters":15200,"station_id":"ce4bh692rcd13ifvqea0","pricing_plan_id":"cebpf4jnsgd1na2vs0mg"},{"bike_id":"78fbbd6b-9a2c-4a49-870a-75ee641808dd","system_id":"levelo_inurba_marseille","lat":43.29245,"lon":5.38439,"is_reserved":false,"is_disabled":false,"rental_uris":{"android":"levelo://app?vid=78fbbd6b-9a2c-4a49-870a-75ee641808dd","ios":"levelo://app?vid=78fbbd6b-9a2c-4a49-870a-75ee641808dd"},"vehicle_type_id":"4","last_reported":1761505639,"current_range_meters":15200,"station_id":"ce4bh692rcd13ifvqea0","pricing_plan_id":"cebpf4jnsgd1na2vs0mg"},{"bike_id":"09508693-6788-43e6-a7b7-2c3ffa9d68f5","system_id":"levelo_inurba_marseille","lat":43.3046,"lon":5.37906,"is_reserved":false,"is_disabled":false,"rental_uris":{"android":"levelo://app?vid=09508693-6788-43e6-a7b7-2c3ffa9d68f5","ios":"levelo://app?vid=09508693-6788-43e6-a7b7-2c3ffa9d68f5"},"vehicle_type_id":"4","last_reported":1761505639,"current_range_meters":15200,"station_id":"ce4bgup2rcd13ifvqcn0","pricing_plan_id":"cebpf4jnsgd1na2vs0mg"},{"bike_id":"e34efcbe-36d4-4282-9234-780964927fcc","system_id":"levelo_inurba_marseille","lat":43.3106,"lon":5.38348,"is_reserved":false,"is_disabled":false,"rental_uris":{"android":"levelo://app?vid=e34efcbe-36d4-4282-9234-780964927fcc","ios":"levelo://app?vid=e34efcbe-36d4-4282-9234-780964927fcc"},"vehicle_type_id":"4","last_reported":1761505639,"current_range_meters":16000,"station_id":"ce4bgv92rcd13ifvqcr0","pricing_plan_id":"cebpf4jnsgd1na2vs0mg"},{"bike_id":"8e3d0e08-b97d-4968-869d-5fbe6eb8c3f7","system_id":"levelo_inurba_marseille","lat":43.24821,"lon":5.37461,"is_reserved":false,"is_disabled":false,"rental_uris":{"android":"levelo://app?vid=8e3d0e08-b97d-4968-869d-5fbe6eb8c3f7","ios":"levelo://app?vid=8e3d0e08-b97d-4968-869d-5fbe6eb8c3f7"},"vehicle_type_id":"4","last_reported":1761505639,"current_range_meters":16000,"station_id":"ce4bhgh2rcd13ifvqfb0","pricing_plan_id":"cebpf4jnsgd1na2vs0mg"},{"bike_id":"e93347a6-3aff-4943-ac8f-25fed98b8df8","system_id":"levelo_inurba_marseille","lat":43.23965,"lon":5.36627,"is_reserved":false,"is_disabled":false,"rental_uris":{"android":"levelo://app?vid=e93347a6-3aff-4943-ac8f-25fed98b8df8","ios":"levelo://app?vid=e93347a6-3aff-4943-ac8f-25fed98b8df8"},"vehicle_type_id":"4","last_reported":1761505639,"current_range_meters":16000,"station_id":"ce4bhi12rcd13ifvqfp0","pricing_plan_id":"cebpf4jnsgd1na2vs0mg"},{"bike_id":"a29dba5d-7160-4a50-bb77-16bb0d8dce08","system_id":"levelo_inurba_marseille","lat":43.26805,"lon":5.40271,"is_reserved":false,"is_disabled":false,"rental_uris":{"android":"levelo://app?vid=a29dba5d-7160-4a50-bb77-16bb0d8dce08","ios":"levelo://app?vid=a29dba5d-7160-4a50-bb77-16bb0d8dce08"},"vehicle_type_id":"4","last_reported":1761505639,"current_range_meters":16000,"station_id":"ce501612rcd8frsf0b60","pricing_plan_id":"cebpf4jnsgd1na2vs0mg"},{"bike_id":"53619b52-f6a4-4a36-9715-aa47e9e64dbc","system_id":"levelo_inurba_marseille","lat":43.29244,"lon":5.38436,"is_reserved":false,"is_disabled":true,"rental_uris":{"android":"levelo://app?vid=53619b52-f6a4-4a36-9715-aa47e9e64dbc","ios":"levelo://app?vid=53619b52-f6a4-4a36-9715-aa47e9e64dbc"},"vehicle_type_id":"4","last_reported":1761505639,"current_range_meters":16000,"station_id":"ce4bh692rcd13ifvqea0","pricing_plan_id":"cebpf4jnsgd1na2vs0mg"},{"bike_id":"50558261-392d-4ffd-bfaa-e3509fa31186","system_id":"levelo_inurba_marseille","lat":43.29307,"lon":5.40144,"is_reserved":false,"is_disabled":false,"rental_uris":{"android":"levelo://app?vid=50558261-392d-4ffd-bfaa-e3509fa31186","ios":"levelo://app?vid=50558261-392d-4ffd-bfaa-e3509fa31186"},"vehicle_type_id":"4","last_reported":1761505639,"current_range_meters":16000,"station_id":"ce4bh312rcd13ifvqdk0","pricing_plan_id":"cebpf4jnsgd1na2vs0mg"},{"bike_id":"7f21d583-19e3-4cd7-a6e1-1650e84611d0","system_id":"levelo_inurba_marseille","lat":43.29253,"lon":5.38434,"is_reserved":false,"is_disabled":false,"rental_uris":{"android":"levelo://app?vid=7f21d583-19e3-4cd7-a6e1-1650e84611d0","ios":"levelo://app?vid=7f21d583-19e3-4cd7-a6e1-1650e84611d0"},"vehicle_type_id":"4","last_reported":1761505639,"current_range_meters":16000,"station_id":"ce4bh692rcd13ifvqea0","pricing_plan_id":"cebpf4jnsgd1na2vs0mg"},{"bike_id":"53b086e9-aa57-457b-b662-d952fc1ed72f","system_id":"levelo_inurba_marseille","lat":43.28094,"lon":5.39652,"is_reserved":false,"is_disabled":false,"rental_uris":{"android":"levelo://app?vid=53b086e9-aa57-457b-b662-d952fc1ed72f","ios":"levelo://app?vid=53b086e9-aa57-457b-b662-d952fc1ed72f"},"vehicle_type_id":"4","last_reported":1761505639,"current_range_meters":16400,"station_id":"ce4bho12rcd13ifvqh2g","pricing_plan_id":"cebpf4jnsgd1na2vs0mg"},{"bike_id":"e034548d-bc0b-4ed5-8e1b-eaad8ad9dbf1","system_id":"levelo_inurba_marseille","lat":43.28456,"lon":5.392,"is_reserved":false,"is_disabled":false,"rental_uris":{"android":"levelo://app?vid=e034548d-bc0b-4ed5-8e1b-eaad8ad9dbf1","ios":"levelo://app?vid=e034548d-bc0b-4ed5-8e1b-eaad8ad9dbf1"},"vehicle_type_id":"4","last_reported":1761505639,"current_range_meters":16400,"station_id":"ce4bhoh2rcd13ifvqh5g","pricing_plan_id":"cebpf4jnsgd1na2vs0mg"},{"bike_id":"97714b25-a262-4cdb-b1c7-73ca1f91b2c2","system_id":"levelo_inurba_marseille","lat":43.24807,"lon":5.37456,"is_reserved":false,"is_disabled":false,"rental_uris":{"android":"levelo://app?vid=97714b25-a262-4cdb-b1c7-73ca1f91b2c2","ios":"levelo://app?vid=97714b25-a262-4cdb-b1c7-73ca1f91b2c2"},"vehicle_type_id":"4","last_reported":1761505639,"current_range_meters":16400,"station_id":"ce4bhgh2rcd13ifvqfb0","pricing_plan_id":"cebpf4jnsgd1na2vs0mg"},{"bike_id":"5ebd3c8d-8729-4ffe-873d-81c4b5d491a0","system_id":"levelo_inurba_marseille","lat":43.30789,"lon":5.38157,"is_reserved":false,"is_disabled":false,"rental_uris":{"android":"levelo://app?vid=5ebd3c8d-8729-4ffe-873d-81c4b5d491a0","ios":"levelo://app?vid=5ebd3c8d-8729-4ffe-873d-81c4b5d491a0"},"vehicle_type_id":"4","last_reported":1761505639,"current_range_meters":16400,"station_id":"ce4bgt12rcd13ifvqce0","pricing_plan_id":"cebpf4jnsgd1na2vs0mg"},{"bike_id":"d9bb607d-1ecc-49cc-9f82-e52383a3bc84","system_id":"levelo_inurba_marseille","lat":43.2933,"lon":5.41166,"is_reserved":false,"is_disabled":false,"rental_uris":{"android":"levelo://app?vid=d9bb607d-1ecc-49cc-9f82-e52383a3bc84","ios":"levelo://app?vid=d9bb607d-1ecc-49cc-9f82-e52383a3bc84"},"vehicle_type_id":"4","last_reported":1761505639,"current_range_meters":16400,"station_id":"","pricing_plan_id":"cebpf4jnsgd1na2vs0mg"},{"bike_id":"1478ea01-e8cd-4533-947c-a98167bec62c","system_id":"levelo_inurba_marseille","lat":43.29259,"lon":5.38444,"is_reserved":false,"is_disabled":false,"rental_uris":{"android":"levelo://app?vid=1478ea01-e8cd-4533-947c-a98167bec62c","ios":"levelo://app?vid=1478ea01-e8cd-4533-947c-a98167bec62c"},"vehicle_type_id":"4","last_reported":1761505639,"current_range_meters":16400,"station_id":"ce4bh692rcd13ifvqea0","pricing_plan_id":"cebpf4jnsgd1na2vs0mg"},{"bike_id":"ce15d64c-7bd4-4017-a01a-0dc353c2995b","system_id":"levelo_inurba_marseille","lat":43.281259,"lon":5.350306,"is_reserved":false,"is_disabled":false,"rental_uris":{"android":"levelo://app?vid=ce15d64c-7bd4-4017-a01a-0dc353c2995b","ios":"levelo://app?vid=ce15d64c-7bd4-4017-a01a-0dc353c2995b"},"vehicle_type_id":"4","last_reported":1761505639,"current_range_meters":16400,"station_id":"","pricing_plan_id":"cebpf4jnsgd1na2vs0mg"},{"bike_id":"6f3d1ad0-32f9-469f-aba5-ec1dd4b883c8","system_id":"levelo_inurba_marseille","lat":43.246395,"lon":5.388944,"is_reserved":false,"is_disabled":false,"rental_uris":{"android":"levelo://app?vid=6f3d1ad0-32f9-469f-aba5-ec1dd4b883c8","ios":"levelo://app?vid=6f3d1ad0-32f9-469f-aba5-ec1dd4b883c8"},"vehicle_type_id":"4","last_reported":1761505639,"current_range_meters":16800,"station_id":"ce4bhg12rcd13ifvqf60","pricing_plan_id":"cebpf4jnsgd1na2vs0mg"},{"bike_id":"dfc32f03-dd9f-47df-b204-94698d3e763d","system_id":"levelo_inurba_marseille","lat":43.26566,"lon":5.40325,"is_reserved":false,"is_disabled":false,"rental_uris":{"android":"levelo://app?vid=dfc32f03-dd9f-47df-b204-94698d3e763d","ios":"levelo://app?vid=dfc32f03-dd9f-47df-b204-94698d3e763d"},"vehicle_type_id":"4","last_reported":1761505639,"current_range_meters":16800,"station_id":"ce4bhmp2rcd13ifvqgng","pricing_plan_id":"cebpf4jnsgd1na2vs0mg"},{"bike_id":"7165d414-e8a5-415f-8a72-9e3295be2a67","system_id":"levelo_inurba_marseille","lat":43.31046,"lon":5.37893,"is_reserved":false,"is_disabled":false,"rental_uris":{"android":"levelo://app?vid=7165d414-e8a5-415f-8a72-9e3295be2a67","ios":"levelo://app?vid=7165d414-e8a5-415f-8a72-9e3295be2a67"},"vehicle_type_id":"4","last_reported":1761505639,"current_range_meters":16800,"station_id":"","pricing_plan_id":"cebpf4jnsgd1na2vs0mg"},{"bike_id":"6086f85f-ea6e-4c7e-bae2-1a0013265aa6","system_id":"levelo_inurba_marseille","lat":43.28957,"lon":5.36638,"is_reserved":false,"is_disabled":false,"rental_uris":{"android":"levelo://app?vid=6086f85f-ea6e-4c7e-bae2-1a0013265aa6","ios":"levelo://app?vid=6086f85f-ea6e-4c7e-bae2-1a0013265aa6"},"vehicle_type_id":"4","last_reported":1761505639,"current_range_meters":16800,"station_id":"ce4bhap2rcd13ifvqek0","pricing_plan_id":"cebpf4jnsgd1na2vs0mg"},{"bike_id":"e5a2ac9d-0ae2-4078-a781-9bc8a9834179","system_id":"levelo_inurba_marseille","lat":43.302394,"lon":5.401081,"is_reserved":false,"is_disabled":true,"rental_uris":{"android":"levelo://app?vid=e5a2ac9d-0ae2-4078-a781-9bc8a9834179","ios":"levelo://app?vid=e5a2ac9d-0ae2-4078-a781-9bc8a9834179"},"vehicle_type_id":"4","last_reported":1761505639,"current_range_meters":16800,"station_id":"ce4bgvh2rcd13ifvqcs0","pricing_plan_id":"cebpf4jnsgd1na2vs0mg"},{"bike_id":"ab7e0e5b-a8f2-41b3-b5ff-faa53408537a","system_id":"levelo_inurba_marseille","lat":43.28402,"lon":5.37509,"is_reserved":false,"is_disabled":false,"rental_uris":{"android":"levelo://app?vid=ab7e0e5b-a8f2-41b3-b5ff-faa53408537a","ios":"levelo://app?vid=ab7e0e5b-a8f2-41b3-b5ff-faa53408537a"},"vehicle_type_id":"4","last_reported":1761505639,"current_range_meters":16800,"station_id":"ce4bh412rcd13ifvqds0","pricing_plan_id":"cebpf4jnsgd1na2vs0mg"},{"bike_id":"c974089b-3905-41ae-88fd-64c1f696dc05","system_id":"levelo_inurba_marseille","lat":43.29243,"lon":5.38443,"is_reserved":false,"is_disabled":false,"rental_uris":{"android":"levelo://app?vid=c974089b-3905-41ae-88fd-64c1f696dc05","ios":"levelo://app?vid=c974089b-3905-41ae-88fd-64c1f696dc05"},"vehicle_type_id":"4","last_reported":1761505639,"current_range_meters":16800,"station_id":"ce4bh692rcd13ifvqea0","pricing_plan_id":"cebpf4jnsgd1na2vs0mg"},{"bike_id":"73e3d00c-eed9-4474-8470-2701da8f5335","system_id":"levelo_inurba_marseille","lat":43.257354,"lon":5.410347,"is_reserved":false,"is_disabled":false,"rental_uris":{"android":"levelo://app?vid=73e3d00c-eed9-4474-8470-2701da8f5335","ios":"levelo://app?vid=73e3d00c-eed9-4474-8470-2701da8f5335"},"vehicle_type_id":"4","last_reported":1761505639,"current_range_meters":17200,"station_id":"","pricing_plan_id":"cebpf4jnsgd1na2vs0mg"},{"bike_id":"94aaf935-55ff-4431-b612-265a39fb330c","system_id":"levelo_inurba_marseille","lat":43.29038,"lon":5.38611,"is_reserved":false,"is_disabled":true,"rental_uris":{"android":"levelo://app?vid=94aaf935-55ff-4431-b612-265a39fb330c","ios":"levelo://app?vid=94aaf935-55ff-4431-b612-265a39fb330c"},"vehicle_type_id":"4","last_reported":1761505639,"current_range_meters":17200,"station_id":"ce4bh4p2rcd13ifvqe0g","pricing_plan_id":"cebpf4jnsgd1na2vs0mg"},{"bike_id":"c9006c79-0fd8-42fd-b14f-27c519b5c1c6","system_id":"levelo_inurba_marseille","lat":43.24073,"lon":5.37763,"is_reserved":false,"is_disabled":false,"rental_uris":{"android":"levelo://app?vid=c9006c79-0fd8-42fd-b14f-27c519b5c1c6","ios":"levelo://app?vid=c9006c79-0fd8-42fd-b14f-27c519b5c1c6"},"vehicle_type_id":"4","last_reported":1761505639,"current_range_meters":17200,"station_id":"ce4bhnp2rcd13ifvqgvg","pricing_plan_id":"cebpf4jnsgd1na2vs0mg"},{"bike_id":"f6f41915-49e3-4fb8-8c5c-96d42e084e15","system_id":"levelo_inurba_marseille","lat":43.32041,"lon":5.37106,"is_reserved":false,"is_disabled":false,"rental_uris":{"android":"levelo://app?vid=f6f41915-49e3-4fb8-8c5c-96d42e084e15","ios":"levelo://app?vid=f6f41915-49e3-4fb8-8c5c-96d42e084e15"},"vehicle_type_id":"4","last_reported":1761505639,"current_range_meters":17200,"station_id":"","pricing_plan_id":"cebpf4jnsgd1na2vs0mg"},{"bike_id":"7cd06c8e-20e0-4a7b-bdd0-d1a902d0086a","system_id":"levelo_inurba_marseille","lat":43.26197,"lon":5.40327,"is_reserved":false,"is_disabled":false,"rental_uris":{"android":"levelo://app?vid=7cd06c8e-20e0-4a7b-bdd0-d1a902d0086a","ios":"levelo://app?vid=7cd06c8e-20e0-4a7b-bdd0-d1a902d0086a"},"vehicle_type_id":"4","last_reported":1761505639,"current_range_meters":17200,"station_id":"ce4bhmh2rcd13ifvqgmg","pricing_plan_id":"cebpf4jnsgd1na2vs0mg"},{"bike_id":"34de3730-e277-48dc-bad2-f1f28b5fa57d","system_id":"levelo_inurba_marseille","lat":43.31479,"lon":5.3731,"is_reserved":false,"is_disabled":false,"rental_uris":{"android":"levelo://app?vid=34de3730-e277-48dc-bad2-f1f28b5fa57d","ios":"levelo://app?vid=34de3730-e277-48dc-bad2-f1f28b5fa57d"},"vehicle_type_id":"4","last_reported":1761505639,"current_range_meters":17200,"station_id":"ce4bgt12rcd13ifvqcd0","pricing_plan_id":"cebpf4jnsgd1na2vs0mg"},{"bike_id":"c236a7f3-2f10-4806-b788-0b36373e1200","system_id":"levelo_inurba_marseille","lat":43.29258,"lon":5.40911,"is_reserved":false,"is_disabled":false,"rental_uris":{"android":"levelo://app?vid=c236a7f3-2f10-4806-b788-0b36373e1200","ios":"levelo://app?vid=c236a7f3-2f10-4806-b788-0b36373e1200"},"vehicle_type_id":"4","last_reported":1761505639,"current_range_meters":17200,"station_id":"ce4bh192rcd13ifvqdc0","pricing_plan_id":"cebpf4jnsgd1na2vs0mg"},{"bike_id":"441ac4f8-457e-402c-8884-722d9ed8028b","system_id":"levelo_inurba_marseille","lat":43.32365,"lon":5.38893,"is_reserved":false,"is_disabled":false,"rental_uris":{"android":"levelo://app?vid=441ac4f8-457e-402c-8884-722d9ed8028b","ios":"levelo://app?vid=441ac4f8-457e-402c-8884-722d9ed8028b"},"vehicle_type_id":"4","last_reported":1761505639,"current_range_meters":17200,"station_id":"ce4bhqp2rcd13ifvqhog","pricing_plan_id":"cebpf4jnsgd1na2vs0mg"},{"bike_id":"f506af0b-8dfd-4fc6-bd42-980b6481ca67","system_id":"levelo_inurba_marseille","lat":43.29804,"lon":5.37911,"is_reserved":false,"is_disabled":false,"rental_uris":{"android":"levelo://app?vid=f506af0b-8dfd-4fc6-bd42-980b6481ca67","ios":"levelo://app?vid=f506af0b-8dfd-4fc6-bd42-980b6481ca67"},"vehicle_type_id":"4","last_reported":1761505639,"current_range_meters":17600,"station_id":"","pricing_plan_id":"cebpf4jnsgd1na2vs0mg"},{"bike_id":"7b990b0b-23a7-4561-9669-4293e17dadca","system_id":"levelo_inurba_marseille","lat":43.29256,"lon":5.38443,"is_reserved":false,"is_disabled":false,"rental_uris":{"android":"levelo://app?vid=7b990b0b-23a7-4561-9669-4293e17dadca","ios":"levelo://app?vid=7b990b0b-23a7-4561-9669-4293e17dadca"},"vehicle_type_id":"4","last_reported":1761505639,"current_range_meters":17600,"station_id":"ce4bh692rcd13ifvqea0","pricing_plan_id":"cebpf4jnsgd1na2vs0mg"},{"bike_id":"71842746-40b2-41b8-8e09-941551379c62","system_id":"levelo_inurba_marseille","lat":43.30547,"lon":5.38429,"is_reserved":false,"is_disabled":false,"rental_uris":{"android":"levelo://app?vid=71842746-40b2-41b8-8e09-941551379c62","ios":"levelo://app?vid=71842746-40b2-41b8-8e09-941551379c62"},"vehicle_type_id":"4","last_reported":1761505639,"current_range_meters":17600,"station_id":"ce4bgg92rcd13ifvqb30","pricing_plan_id":"cebpf4jnsgd1na2vs0mg"},{"bike_id":"89e6cf97-4c06-4e7e-ace2-01f9795e32f1","system_id":"levelo_inurba_marseille","lat":43.29253,"lon":5.38439,"is_reserved":false,"is_disabled":false,"rental_uris":{"android":"levelo://app?vid=89e6cf97-4c06-4e7e-ace2-01f9795e32f1","ios":"levelo://app?vid=89e6cf97-4c06-4e7e-ace2-01f9795e32f1"},"vehicle_type_id":"4","last_reported":1761505639,"current_range_meters":17600,"station_id":"ce4bh692rcd13ifvqea0","pricing_plan_id":"cebpf4jnsgd1na2vs0mg"},{"bike_id":"a7c727f8-1067-498d-9cd7-a11e4fd1b1d5","system_id":"levelo_inurba_marseille","lat":43.29258,"lon":5.38433,"is_reserved":false,"is_disabled":false,"rental_uris":{"android":"levelo://app?vid=a7c727f8-1067-498d-9cd7-a11e4fd1b1d5","ios":"levelo://app?vid=a7c727f8-1067-498d-9cd7-a11e4fd1b1d5"},"vehicle_type_id":"4","last_reported":1761505639,"current_range_meters":17600,"station_id":"ce4bh692rcd13ifvqea0","pricing_plan_id":"cebpf4jnsgd1na2vs0mg"},{"bike_id":"d23bf304-8579-4071-b2a4-61dc68f83575","system_id":"levelo_inurba_marseille","lat":43.21195,"lon":5.35071,"is_reserved":false,"is_disabled":false,"rental_uris":{"android":"levelo://app?vid=d23bf304-8579-4071-b2a4-61dc68f83575","ios":"levelo://app?vid=d23bf304-8579-4071-b2a4-61dc68f83575"},"vehicle_type_id":"4","last_reported":1761505639,"current_range_meters":17600,"station_id":"st_cvj6sg6p6f1abm77japg","pricing_plan_id":"cebpf4jnsgd1na2vs0mg"},{"bike_id":"e588379e-3031-48c9-b4ff-c89629209002","system_id":"levelo_inurba_marseille","lat":43.301,"lon":5.39068,"is_reserved":false,"is_disabled":false,"rental_uris":{"android":"levelo://app?vid=e588379e-3031-48c9-b4ff-c89629209002","ios":"levelo://app?vid=e588379e-3031-48c9-b4ff-c89629209002"},"vehicle_type_id":"4","last_reported":1761505639,"current_range_meters":17600,"station_id":"ce4bh192rcd13ifvqdb0","pricing_plan_id":"cebpf4jnsgd1na2vs0mg"},{"bike_id":"8ce4acf9-3cce-4a2c-80a0-2e9ba0bb1c6c","system_id":"levelo_inurba_marseille","lat":43.24207,"lon":5.39687,"is_reserved":false,"is_disabled":false,"rental_uris":{"android":"levelo://app?vid=8ce4acf9-3cce-4a2c-80a0-2e9ba0bb1c6c","ios":"levelo://app?vid=8ce4acf9-3cce-4a2c-80a0-2e9ba0bb1c6c"},"vehicle_type_id":"4","last_reported":1761505639,"current_range_meters":17600,"station_id":"ce4bhn12rcd13ifvqgpg","pricing_plan_id":"cebpf4jnsgd1na2vs0mg"},{"bike_id":"da945370-32c7-4765-8b8c-dadee680d38e","system_id":"levelo_inurba_marseille","lat":43.34058,"lon":5.40415,"is_reserved":false,"is_disabled":false,"rental_uris":{"android":"levelo://app?vid=da945370-32c7-4765-8b8c-dadee680d38e","ios":"levelo://app?vid=da945370-32c7-4765-8b8c-dadee680d38e"},"vehicle_type_id":"4","last_reported":1761505639,"current_range_meters":17600,"station_id":"","pricing_plan_id":"cebpf4jnsgd1na2vs0mg"},{"bike_id":"e166a760-27ae-4dc2-8053-6d9bf32e3a1f","system_id":"levelo_inurba_marseille","lat":43.30142,"lon":5.39859,"is_reserved":false,"is_disabled":false,"rental_uris":{"android":"levelo://app?vid=e166a760-27ae-4dc2-8053-6d9bf32e3a1f","ios":"levelo://app?vid=e166a760-27ae-4dc2-8053-6d9bf32e3a1f"},"vehicle_type_id":"4","last_reported":1761505639,"current_range_meters":17600,"station_id":"ce4bh0h2rcd13ifvqd40","pricing_plan_id":"cebpf4jnsgd1na2vs0mg"},{"bike_id":"bbbf3dbb-fbe2-4b7e-bfad-c027ca4e1c25","system_id":"levelo_inurba_marseille","lat":43.28484,"lon":5.48393,"is_reserved":false,"is_disabled":false,"rental_uris":{"android":"levelo://app?vid=bbbf3dbb-fbe2-4b7e-bfad-c027ca4e1c25","ios":"levelo://app?vid=bbbf3dbb-fbe2-4b7e-bfad-c027ca4e1c25"},"vehicle_type_id":"4","last_reported":1761505639,"current_range_meters":18000,"station_id":"st_d3svhcjqgbts73a3dn0g","pricing_plan_id":"cebpf4jnsgd1na2vs0mg"},{"bike_id":"13a1567c-ffbb-43b9-a7c3-3c7601641a0a","system_id":"levelo_inurba_marseille","lat":43.24187,"lon":5.3971,"is_reserved":false,"is_disabled":false,"rental_uris":{"android":"levelo://app?vid=13a1567c-ffbb-43b9-a7c3-3c7601641a0a","ios":"levelo://app?vid=13a1567c-ffbb-43b9-a7c3-3c7601641a0a"},"vehicle_type_id":"4","last_reported":1761505639,"current_range_meters":18000,"station_id":"ce4bhn12rcd13ifvqgpg","pricing_plan_id":"cebpf4jnsgd1na2vs0mg"},{"bike_id":"26a33dcf-50de-4561-a5e9-8254886f89ed","system_id":"levelo_inurba_marseille","lat":43.2435,"lon":5.39191,"is_reserved":false,"is_disabled":false,"rental_uris":{"android":"levelo://app?vid=26a33dcf-50de-4561-a5e9-8254886f89ed","ios":"levelo://app?vid=26a33dcf-50de-4561-a5e9-8254886f89ed"},"vehicle_type_id":"4","last_reported":1761505639,"current_range_meters":18000,"station_id":"","pricing_plan_id":"cebpf4jnsgd1na2vs0mg"},{"bike_id":"83106217-f024-4381-9607-50194d3370ce","system_id":"levelo_inurba_marseille","lat":43.241678,"lon":5.364031,"is_reserved":false,"is_disabled":false,"rental_uris":{"android":"levelo://app?vid=83106217-f024-4381-9607-50194d3370ce","ios":"levelo://app?vid=83106217-f024-4381-9607-50194d3370ce"},"vehicle_type_id":"4","last_reported":1761505639,"current_range_meters":18000,"station_id":"cpo36qri1sfpv3e86is0","pricing_plan_id":"cebpf4jnsgd1na2vs0mg"},{"bike_id":"e92a5181-3093-4535-adde-2230374de0aa","system_id":"levelo_inurba_marseille","lat":43.31378,"lon":5.37681,"is_reserved":false,"is_disabled":false,"rental_uris":{"android":"levelo://app?vid=e92a5181-3093-4535-adde-2230374de0aa","ios":"levelo://app?vid=e92a5181-3093-4535-adde-2230374de0aa"},"vehicle_type_id":"4","last_reported":1761505639,"current_range_meters":18000,"station_id":"","pricing_plan_id":"cebpf4jnsgd1na2vs0mg"},{"bike_id":"1a17ca6c-2b9b-4e73-b76d-539b00005301","system_id":"levelo_inurba_marseille","lat":43.24395,"lon":5.37057,"is_reserved":false,"is_disabled":false,"rental_uris":{"android":"levelo://app?vid=1a17ca6c-2b9b-4e73-b76d-539b00005301","ios":"levelo://app?vid=1a17ca6c-2b9b-4e73-b76d-539b00005301"},"vehicle_type_id":"4","last_reported":1761505639,"current_range_meters":18000,"station_id":"ce4bhhh2rcd13ifvqfk0","pricing_plan_id":"cebpf4jnsgd1na2vs0mg"},{"bike_id":"231806e8-65ae-48b3-827b-36418e16ad63","system_id":"levelo_inurba_marseille","lat":43.28011,"lon":5.40028,"is_reserved":false,"is_disabled":false,"rental_uris":{"android":"levelo://app?vid=231806e8-65ae-48b3-827b-36418e16ad63","ios":"levelo://app?vid=231806e8-65ae-48b3-827b-36418e16ad63"},"vehicle_type_id":"4","last_reported":1761505639,"current_range_meters":18000,"station_id":"ce4bho92rcd13ifvqh4g","pricing_plan_id":"cebpf4jnsgd1na2vs0mg"},{"bike_id":"1b7829fd-c993-41fc-94f6-0cddf3da8a25","system_id":"levelo_inurba_marseille","lat":43.24811,"lon":5.37467,"is_reserved":false,"is_disabled":false,"rental_uris":{"android":"levelo://app?vid=1b7829fd-c993-41fc-94f6-0cddf3da8a25","ios":"levelo://app?vid=1b7829fd-c993-41fc-94f6-0cddf3da8a25"},"vehicle_type_id":"4","last_reported":1761505639,"current_range_meters":18000,"station_id":"ce4bhgh2rcd13ifvqfb0","pricing_plan_id":"cebpf4jnsgd1na2vs0mg"},{"bike_id":"b05a19cf-bafe-41a9-8b37-e97116109c3a","system_id":"levelo_inurba_marseille","lat":43.284705,"lon":5.357921,"is_reserved":false,"is_disabled":false,"rental_uris":{"android":"levelo://app?vid=b05a19cf-bafe-41a9-8b37-e97116109c3a","ios":"levelo://app?vid=b05a19cf-bafe-41a9-8b37-e97116109c3a"},"vehicle_type_id":"4","last_reported":1761505639,"current_range_meters":18000,"station_id":"ce4bhah2rcd13ifvqei0","pricing_plan_id":"cebpf4jnsgd1na2vs0mg"},{"bike_id":"b83891d3-7971-45ae-9af3-651a6e6209e2","system_id":"levelo_inurba_marseille","lat":43.232031,"lon":5.355687,"is_reserved":false,"is_disabled":false,"rental_uris":{"android":"levelo://app?vid=b83891d3-7971-45ae-9af3-651a6e6209e2","ios":"levelo://app?vid=b83891d3-7971-45ae-9af3-651a6e6209e2"},"vehicle_type_id":"4","last_reported":1761505639,"current_range_meters":18800,"station_id":"ce4bhu92rcd13ifvqi70","pricing_plan_id":"cebpf4jnsgd1na2vs0mg"},{"bike_id":"ef4b253e-e62d-403a-9049-37364ca48fca","system_id":"levelo_inurba_marseille","lat":43.28367,"lon":5.38121,"is_reserved":false,"is_disabled":false,"rental_uris":{"android":"levelo://app?vid=ef4b253e-e62d-403a-9049-37364ca48fca","ios":"levelo://app?vid=ef4b253e-e62d-403a-9049-37364ca48fca"},"vehicle_type_id":"4","last_reported":1761505639,"current_range_meters":18800,"station_id":"ce4bh412rcd13ifvqdr0","pricing_plan_id":"cebpf4jnsgd1na2vs0mg"},{"bike_id":"1880ebb9-7edb-463e-976b-226e958b9ebe","system_id":"levelo_inurba_marseille","lat":43.31097,"lon":5.37487,"is_reserved":false,"is_disabled":false,"rental_uris":{"android":"levelo://app?vid=1880ebb9-7edb-463e-976b-226e958b9ebe","ios":"levelo://app?vid=1880ebb9-7edb-463e-976b-226e958b9ebe"},"vehicle_type_id":"4","last_reported":1761505639,"current_range_meters":18800,"station_id":"ce4bgt12rcd13ifvqce0","pricing_plan_id":"cebpf4jnsgd1na2vs0mg"},{"bike_id":"93ef566c-0909-48d1-8deb-d11c9c5aea5b","system_id":"levelo_inurba_marseille","lat":43.323689,"lon":5.367367,"is_reserved":false,"is_disabled":false,"rental_uris":{"android":"levelo://app?vid=93ef566c-0909-48d1-8deb-d11c9c5aea5b","ios":"levelo://app?vid=93ef566c-0909-48d1-8deb-d11c9c5aea5b"},"vehicle_type_id":"4","last_reported":1761505639,"current_range_meters":18800,"station_id":"ce4bhsh2rcd13ifvqi2g","pricing_plan_id":"cebpf4jnsgd1na2vs0mg"},{"bike_id":"9d8ebc8c-f00c-42c5-a2de-7f9b8c36d074","system_id":"levelo_inurba_marseille","lat":43.258,"lon":5.38694,"is_reserved":false,"is_disabled":false,"rental_uris":{"android":"levelo://app?vid=9d8ebc8c-f00c-42c5-a2de-7f9b8c36d074","ios":"levelo://app?vid=9d8ebc8c-f00c-42c5-a2de-7f9b8c36d074"},"vehicle_type_id":"4","last_reported":1761505639,"current_range_meters":18800,"station_id":"","pricing_plan_id":"cebpf4jnsgd1na2vs0mg"},{"bike_id":"3a92b650-23af-469d-bef0-ec6278979c33","system_id":"levelo_inurba_marseille","lat":43.25958,"lon":5.40896,"is_reserved":false,"is_disabled":false,"rental_uris":{"android":"levelo://app?vid=3a92b650-23af-469d-bef0-ec6278979c33","ios":"levelo://app?vid=3a92b650-23af-469d-bef0-ec6278979c33"},"vehicle_type_id":"4","last_reported":1761505639,"current_range_meters":18800,"station_id":"ce4bhm92rcd13ifvqglg","pricing_plan_id":"cebpf4jnsgd1na2vs0mg"},{"bike_id":"74440bb7-72c3-4ad8-9dec-9a57ed6d17c9","system_id":"levelo_inurba_marseille","lat":43.32395,"lon":5.38874,"is_reserved":false,"is_disabled":false,"rental_uris":{"android":"levelo://app?vid=74440bb7-72c3-4ad8-9dec-9a57ed6d17c9","ios":"levelo://app?vid=74440bb7-72c3-4ad8-9dec-9a57ed6d17c9"},"vehicle_type_id":"4","last_reported":1761505639,"current_range_meters":18800,"station_id":"ce4bhqp2rcd13ifvqhog","pricing_plan_id":"cebpf4jnsgd1na2vs0mg"},{"bike_id":"268021b2-df68-4bf9-a252-5a50b819d536","system_id":"levelo_inurba_marseille","lat":43.29788,"lon":5.39339,"is_reserved":false,"is_disabled":false,"rental_uris":{"android":"levelo://app?vid=268021b2-df68-4bf9-a252-5a50b819d536","ios":"levelo://app?vid=268021b2-df68-4bf9-a252-5a50b819d536"},"vehicle_type_id":"4","last_reported":1761505639,"current_range_meters":18800,"station_id":"chh1huq6cuj3fo74tm60","pricing_plan_id":"cebpf4jnsgd1na2vs0mg"},{"bike_id":"f92908bb-e696-4a85-bc17-a0e815da35f8","system_id":"levelo_inurba_marseille","lat":43.26224,"lon":5.40455,"is_reserved":false,"is_disabled":false,"rental_uris":{"android":"levelo://app?vid=f92908bb-e696-4a85-bc17-a0e815da35f8","ios":"levelo://app?vid=f92908bb-e696-4a85-bc17-a0e815da35f8"},"vehicle_type_id":"4","last_reported":1761505639,"current_range_meters":18800,"station_id":"ce4bhmh2rcd13ifvqgmg","pricing_plan_id":"cebpf4jnsgd1na2vs0mg"},{"bike_id":"f2023c20-52c8-403c-a022-804609efe387","system_id":"levelo_inurba_marseille","lat":43.28079,"lon":5.39659,"is_reserved":false,"is_disabled":false,"rental_uris":{"android":"levelo://app?vid=f2023c20-52c8-403c-a022-804609efe387","ios":"levelo://app?vid=f2023c20-52c8-403c-a022-804609efe387"},"vehicle_type_id":"4","last_reported":1761505639,"current_range_meters":18800,"station_id":"ce4bho12rcd13ifvqh2g","pricing_plan_id":"cebpf4jnsgd1na2vs0mg"},{"bike_id":"fdc43030-5704-454e-ad42-cd94061c06a1","system_id":"levelo_inurba_marseille","lat":43.32094,"lon":5.36746,"is_reserved":false,"is_disabled":false,"rental_uris":{"android":"levelo://app?vid=fdc43030-5704-454e-ad42-cd94061c06a1","ios":"levelo://app?vid=fdc43030-5704-454e-ad42-cd94061c06a1"},"vehicle_type_id":"4","last_reported":1761505639,"current_range_meters":18800,"station_id":"ce4bhrh2rcd13ifvqhug","pricing_plan_id":"cebpf4jnsgd1na2vs0mg"},{"bike_id":"6c9a57fc-007a-40e1-97bd-60a955a6de5f","system_id":"levelo_inurba_marseille","lat":43.29297,"lon":5.37438,"is_reserved":false,"is_disabled":false,"rental_uris":{"android":"levelo://app?vid=6c9a57fc-007a-40e1-97bd-60a955a6de5f","ios":"levelo://app?vid=6c9a57fc-007a-40e1-97bd-60a955a6de5f"},"vehicle_type_id":"4","last_reported":1761505639,"current_range_meters":19200,"station_id":"ce4bgi12rcd13ifvqb70","pricing_plan_id":"cebpf4jnsgd1na2vs0mg"},{"bike_id":"a2e58b15-c20b-46cd-b390-f4ad950e71e0","system_id":"levelo_inurba_marseille","lat":43.25821,"lon":5.39422,"is_reserved":false,"is_disabled":false,"rental_uris":{"android":"levelo://app?vid=a2e58b15-c20b-46cd-b390-f4ad950e71e0","ios":"levelo://app?vid=a2e58b15-c20b-46cd-b390-f4ad950e71e0"},"vehicle_type_id":"4","last_reported":1761505639,"current_range_meters":19200,"station_id":"ce4bhip2rcd13ifvqft0","pricing_plan_id":"cebpf4jnsgd1na2vs0mg"},{"bike_id":"71fe0d6a-f99e-45a0-9c75-e294b78524b2","system_id":"levelo_inurba_marseille","lat":43.2118,"lon":5.35092,"is_reserved":false,"is_disabled":false,"rental_uris":{"android":"levelo://app?vid=71fe0d6a-f99e-45a0-9c75-e294b78524b2","ios":"levelo://app?vid=71fe0d6a-f99e-45a0-9c75-e294b78524b2"},"vehicle_type_id":"4","last_reported":1761505639,"current_range_meters":19200,"station_id":"st_cvj6sg6p6f1abm77japg","pricing_plan_id":"cebpf4jnsgd1na2vs0mg"},{"bike_id":"a507e789-f440-40a8-85cf-09841d81676c","system_id":"levelo_inurba_marseille","lat":43.22558,"lon":5.3486,"is_reserved":false,"is_disabled":false,"rental_uris":{"android":"levelo://app?vid=a507e789-f440-40a8-85cf-09841d81676c","ios":"levelo://app?vid=a507e789-f440-40a8-85cf-09841d81676c"},"vehicle_type_id":"4","last_reported":1761505639,"current_range_meters":19200,"station_id":"","pricing_plan_id":"cebpf4jnsgd1na2vs0mg"},{"bike_id":"5837d1ef-6ff3-4b6b-9d0b-6fb51011d077","system_id":"levelo_inurba_marseille","lat":43.27454,"lon":5.39411,"is_reserved":false,"is_disabled":true,"rental_uris":{"android":"levelo://app?vid=5837d1ef-6ff3-4b6b-9d0b-6fb51011d077","ios":"levelo://app?vid=5837d1ef-6ff3-4b6b-9d0b-6fb51011d077"},"vehicle_type_id":"4","last_reported":1761505639,"current_range_meters":19200,"station_id":"ce4bhdp2rcd13ifvqf20","pricing_plan_id":"cebpf4jnsgd1na2vs0mg"},{"bike_id":"a3100ff0-76ab-498b-bebf-b9c52f3d2538","system_id":"levelo_inurba_marseille","lat":43.28487,"lon":5.48389,"is_reserved":false,"is_disabled":false,"rental_uris":{"android":"levelo://app?vid=a3100ff0-76ab-498b-bebf-b9c52f3d2538","ios":"levelo://app?vid=a3100ff0-76ab-498b-bebf-b9c52f3d2538"},"vehicle_type_id":"4","last_reported":1761505639,"current_range_meters":19200,"station_id":"","pricing_plan_id":"cebpf4jnsgd1na2vs0mg"},{"bike_id":"15a31fcf-3781-4e44-bce0-0d538f4d62d5","system_id":"levelo_inurba_marseille","lat":43.29622,"lon":5.40595,"is_reserved":false,"is_disabled":false,"rental_uris":{"android":"levelo://app?vid=15a31fcf-3781-4e44-bce0-0d538f4d62d5","ios":"levelo://app?vid=15a31fcf-3781-4e44-bce0-0d538f4d62d5"},"vehicle_type_id":"4","last_reported":1761505639,"current_range_meters":19200,"station_id":"ce4bh0h2rcd13ifvqd60","pricing_plan_id":"cebpf4jnsgd1na2vs0mg"},{"bike_id":"f1875d0f-b239-4abc-ba84-3f75c251c7fb","system_id":"levelo_inurba_marseille","lat":43.24411,"lon":5.37058,"is_reserved":false,"is_disabled":false,"rental_uris":{"android":"levelo://app?vid=f1875d0f-b239-4abc-ba84-3f75c251c7fb","ios":"levelo://app?vid=f1875d0f-b239-4abc-ba84-3f75c251c7fb"},"vehicle_type_id":"4","last_reported":1761505639,"current_range_meters":19200,"station_id":"ce4bhhh2rcd13ifvqfk0","pricing_plan_id":"cebpf4jnsgd1na2vs0mg"},{"bike_id":"5cad5f9e-7dcb-407b-934c-073ae8f39872","system_id":"levelo_inurba_marseille","lat":43.29253,"lon":5.38445,"is_reserved":false,"is_disabled":false,"rental_uris":{"android":"levelo://app?vid=5cad5f9e-7dcb-407b-934c-073ae8f39872","ios":"levelo://app?vid=5cad5f9e-7dcb-407b-934c-073ae8f39872"},"vehicle_type_id":"4","last_reported":1761505639,"current_range_meters":19200,"station_id":"ce4bh692rcd13ifvqea0","pricing_plan_id":"cebpf4jnsgd1na2vs0mg"},{"bike_id":"c8447bd3-7a8d-4e08-9410-932484b4735b","system_id":"levelo_inurba_marseille","lat":43.26946,"lon":5.4025,"is_reserved":false,"is_disabled":false,"rental_uris":{"android":"levelo://app?vid=c8447bd3-7a8d-4e08-9410-932484b4735b","ios":"levelo://app?vid=c8447bd3-7a8d-4e08-9410-932484b4735b"},"vehicle_type_id":"4","last_reported":1761505639,"current_range_meters":19600,"station_id":"cjm6bp8fraef2m0cb0m0","pricing_plan_id":"cebpf4jnsgd1na2vs0mg"},{"bike_id":"b893a40c-0805-4bf8-9553-79606bbce417","system_id":"levelo_inurba_marseille","lat":43.24166,"lon":5.36399,"is_reserved":false,"is_disabled":false,"rental_uris":{"android":"levelo://app?vid=b893a40c-0805-4bf8-9553-79606bbce417","ios":"levelo://app?vid=b893a40c-0805-4bf8-9553-79606bbce417"},"vehicle_type_id":"4","last_reported":1761505639,"current_range_meters":19600,"station_id":"cpo36qri1sfpv3e86is0","pricing_plan_id":"cebpf4jnsgd1na2vs0mg"},{"bike_id":"a3742816-3b43-434e-9db0-9ab9379fa4b3","system_id":"levelo_inurba_marseille","lat":43.27387,"lon":5.36223,"is_reserved":false,"is_disabled":true,"rental_uris":{"android":"levelo://app?vid=a3742816-3b43-434e-9db0-9ab9379fa4b3","ios":"levelo://app?vid=a3742816-3b43-434e-9db0-9ab9379fa4b3"},"vehicle_type_id":"4","last_reported":1761505639,"current_range_meters":19600,"station_id":"ce4bhbh2rcd13ifvqeo0","pricing_plan_id":"cebpf4jnsgd1na2vs0mg"},{"bike_id":"4b79cd67-69ab-40fd-b365-b7ce430de511","system_id":"levelo_inurba_marseille","lat":43.30438,"lon":5.38894,"is_reserved":false,"is_disabled":false,"rental_uris":{"android":"levelo://app?vid=4b79cd67-69ab-40fd-b365-b7ce430de511","ios":"levelo://app?vid=4b79cd67-69ab-40fd-b365-b7ce430de511"},"vehicle_type_id":"4","last_reported":1761505639,"current_range_meters":19600,"station_id":"ce4bgk12rcd13ifvqbi0","pricing_plan_id":"cebpf4jnsgd1na2vs0mg"},{"bike_id":"596e07e5-ee28-4f19-90c1-99ddc246077a","system_id":"levelo_inurba_marseille","lat":43.29752,"lon":5.42782,"is_reserved":false,"is_disabled":false,"rental_uris":{"android":"levelo://app?vid=596e07e5-ee28-4f19-90c1-99ddc246077a","ios":"levelo://app?vid=596e07e5-ee28-4f19-90c1-99ddc246077a"},"vehicle_type_id":"4","last_reported":1761505639,"current_range_meters":19600,"station_id":"st_d3md5207bmas73dh9klg","pricing_plan_id":"cebpf4jnsgd1na2vs0mg"},{"bike_id":"7dedefa1-25c6-4a38-8958-1ade319ec23b","system_id":"levelo_inurba_marseille","lat":43.3237,"lon":5.38874,"is_reserved":false,"is_disabled":false,"rental_uris":{"android":"levelo://app?vid=7dedefa1-25c6-4a38-8958-1ade319ec23b","ios":"levelo://app?vid=7dedefa1-25c6-4a38-8958-1ade319ec23b"},"vehicle_type_id":"4","last_reported":1761505639,"current_range_meters":19600,"station_id":"ce4bhqp2rcd13ifvqhog","pricing_plan_id":"cebpf4jnsgd1na2vs0mg"},{"bike_id":"854f75e5-7be7-405b-a9b1-90d98a659350","system_id":"levelo_inurba_marseille","lat":43.27115,"lon":5.38313,"is_reserved":false,"is_disabled":false,"rental_uris":{"android":"levelo://app?vid=854f75e5-7be7-405b-a9b1-90d98a659350","ios":"levelo://app?vid=854f75e5-7be7-405b-a9b1-90d98a659350"},"vehicle_type_id":"4","last_reported":1761505639,"current_range_meters":19600,"station_id":"st_d3n2fo6cfp8s73cte1j0","pricing_plan_id":"cebpf4jnsgd1na2vs0mg"},{"bike_id":"dc71290a-91a8-4c55-90ec-5063d599e747","system_id":"levelo_inurba_marseille","lat":43.25841,"lon":5.39423,"is_reserved":false,"is_disabled":false,"rental_uris":{"android":"levelo://app?vid=dc71290a-91a8-4c55-90ec-5063d599e747","ios":"levelo://app?vid=dc71290a-91a8-4c55-90ec-5063d599e747"},"vehicle_type_id":"4","last_reported":1761505639,"current_range_meters":19600,"station_id":"ce4bhip2rcd13ifvqft0","pricing_plan_id":"cebpf4jnsgd1na2vs0mg"},{"bike_id":"92a3dba9-f859-4cd4-bd51-41603973dcb8","system_id":"levelo_inurba_marseille","lat":43.30811,"lon":5.38161,"is_reserved":false,"is_disabled":false,"rental_uris":{"android":"levelo://app?vid=92a3dba9-f859-4cd4-bd51-41603973dcb8","ios":"levelo://app?vid=92a3dba9-f859-4cd4-bd51-41603973dcb8"},"vehicle_type_id":"4","last_reported":1761505639,"current_range_meters":19600,"station_id":"ce4bgt12rcd13ifvqce0","pricing_plan_id":"cebpf4jnsgd1na2vs0mg"},{"bike_id":"b6b362d3-3fc5-4e7f-91b8-52f17bf1b23d","system_id":"levelo_inurba_marseille","lat":43.2958,"lon":5.37501,"is_reserved":false,"is_disabled":false,"rental_uris":{"android":"levelo://app?vid=b6b362d3-3fc5-4e7f-91b8-52f17bf1b23d","ios":"levelo://app?vid=b6b362d3-3fc5-4e7f-91b8-52f17bf1b23d"},"vehicle_type_id":"4","last_reported":1761505639,"current_range_meters":19600,"station_id":"ce4bgh92rcd13ifvqb50","pricing_plan_id":"cebpf4jnsgd1na2vs0mg"},{"bike_id":"f41a6845-02a5-45fd-8f67-03fd68d78092","system_id":"levelo_inurba_marseille","lat":43.29778,"lon":5.4278,"is_reserved":false,"is_disabled":false,"rental_uris":{"android":"levelo://app?vid=f41a6845-02a5-45fd-8f67-03fd68d78092","ios":"levelo://app?vid=f41a6845-02a5-45fd-8f67-03fd68d78092"},"vehicle_type_id":"4","last_reported":1761505639,"current_range_meters":19600,"station_id":"st_d3md5207bmas73dh9klg","pricing_plan_id":"cebpf4jnsgd1na2vs0mg"},{"bike_id":"21dbf7f2-eb19-4663-b1c0-879822879492","system_id":"levelo_inurba_marseille","lat":43.337619,"lon":5.374425,"is_reserved":false,"is_disabled":false,"rental_uris":{"android":"levelo://app?vid=21dbf7f2-eb19-4663-b1c0-879822879492","ios":"levelo://app?vid=21dbf7f2-eb19-4663-b1c0-879822879492"},"vehicle_type_id":"4","last_reported":1761505639,"current_range_meters":19600,"station_id":"","pricing_plan_id":"cebpf4jnsgd1na2vs0mg"},{"bike_id":"b689a5bf-875d-4ab1-9212-a71e85899faa","system_id":"levelo_inurba_marseille","lat":43.29757,"lon":5.42783,"is_reserved":false,"is_disabled":false,"rental_uris":{"android":"levelo://app?vid=b689a5bf-875d-4ab1-9212-a71e85899faa","ios":"levelo://app?vid=b689a5bf-875d-4ab1-9212-a71e85899faa"},"vehicle_type_id":"4","last_reported":1761505639,"current_range_meters":20000,"station_id":"st_d3md5207bmas73dh9klg","pricing_plan_id":"cebpf4jnsgd1na2vs0mg"},{"bike_id":"cd16d065-31a1-485b-89ac-dd88aa98e0da","system_id":"levelo_inurba_marseille","lat":43.28023,"lon":5.3999,"is_reserved":false,"is_disabled":false,"rental_uris":{"android":"levelo://app?vid=cd16d065-31a1-485b-89ac-dd88aa98e0da","ios":"levelo://app?vid=cd16d065-31a1-485b-89ac-dd88aa98e0da"},"vehicle_type_id":"4","last_reported":1761505639,"current_range_meters":20000,"station_id":"ce4bho92rcd13ifvqh4g","pricing_plan_id":"cebpf4jnsgd1na2vs0mg"},{"bike_id":"3954b47f-d67c-4918-8740-613350503fee","system_id":"levelo_inurba_marseille","lat":43.29524,"lon":5.39396,"is_reserved":false,"is_disabled":false,"rental_uris":{"android":"levelo://app?vid=3954b47f-d67c-4918-8740-613350503fee","ios":"levelo://app?vid=3954b47f-d67c-4918-8740-613350503fee"},"vehicle_type_id":"4","last_reported":1761505639,"current_range_meters":20000,"station_id":"ce4bh292rcd13ifvqdf0","pricing_plan_id":"cebpf4jnsgd1na2vs0mg"},{"bike_id":"bb3d6f43-fe8d-4027-a7f4-02cf8b0450bf","system_id":"levelo_inurba_marseille","lat":43.28845,"lon":5.35858,"is_reserved":false,"is_disabled":true,"rental_uris":{"android":"levelo://app?vid=bb3d6f43-fe8d-4027-a7f4-02cf8b0450bf","ios":"levelo://app?vid=bb3d6f43-fe8d-4027-a7f4-02cf8b0450bf"},"vehicle_type_id":"4","last_reported":1761505639,"current_range_meters":20000,"station_id":"ce4bhb12rcd13ifvqem0","pricing_plan_id":"cebpf4jnsgd1na2vs0mg"},{"bike_id":"2a1f9787-76e6-49d2-b693-05554f036188","system_id":"levelo_inurba_marseille","lat":43.31053,"lon":5.38351,"is_reserved":false,"is_disabled":false,"rental_uris":{"android":"levelo://app?vid=2a1f9787-76e6-49d2-b693-05554f036188","ios":"levelo://app?vid=2a1f9787-76e6-49d2-b693-05554f036188"},"vehicle_type_id":"4","last_reported":1761505639,"current_range_meters":20000,"station_id":"ce4bgv92rcd13ifvqcr0","pricing_plan_id":"cebpf4jnsgd1na2vs0mg"},{"bike_id":"54e3140b-5a8a-49db-91cf-63b6975a72a0","system_id":"levelo_inurba_marseille","lat":43.29252,"lon":5.40913,"is_reserved":false,"is_disabled":false,"rental_uris":{"android":"levelo://app?vid=54e3140b-5a8a-49db-91cf-63b6975a72a0","ios":"levelo://app?vid=54e3140b-5a8a-49db-91cf-63b6975a72a0"},"vehicle_type_id":"4","last_reported":1761505639,"current_range_meters":20000,"station_id":"ce4bh192rcd13ifvqdc0","pricing_plan_id":"cebpf4jnsgd1na2vs0mg"},{"bike_id":"a045f864-d0f0-4dc6-b247-3f30f5eb7421","system_id":"levelo_inurba_marseille","lat":43.2849,"lon":5.44129,"is_reserved":false,"is_disabled":false,"rental_uris":{"android":"levelo://app?vid=a045f864-d0f0-4dc6-b247-3f30f5eb7421","ios":"levelo://app?vid=a045f864-d0f0-4dc6-b247-3f30f5eb7421"},"vehicle_type_id":"4","last_reported":1761505639,"current_range_meters":20000,"station_id":"st_d3j3df2ikq2c7380ej80","pricing_plan_id":"cebpf4jnsgd1na2vs0mg"},{"bike_id":"c051c6d5-62eb-4f17-b8b5-b0f31b64f756","system_id":"levelo_inurba_marseille","lat":43.31711,"lon":5.43702,"is_reserved":false,"is_disabled":false,"rental_uris":{"android":"levelo://app?vid=c051c6d5-62eb-4f17-b8b5-b0f31b64f756","ios":"levelo://app?vid=c051c6d5-62eb-4f17-b8b5-b0f31b64f756"},"vehicle_type_id":"4","last_reported":1761505639,"current_range_meters":20000,"station_id":"ce4bhp92rcd13ifvqhcg","pricing_plan_id":"cebpf4jnsgd1na2vs0mg"},{"bike_id":"b5776598-3fe1-4bb8-9115-dc33c053afbd","system_id":"levelo_inurba_marseille","lat":43.29191,"lon":5.35788,"is_reserved":false,"is_disabled":true,"rental_uris":{"android":"levelo://app?vid=b5776598-3fe1-4bb8-9115-dc33c053afbd","ios":"levelo://app?vid=b5776598-3fe1-4bb8-9115-dc33c053afbd"},"vehicle_type_id":"4","last_reported":1761505639,"current_range_meters":20000,"station_id":"ce4bhb12rcd13ifvqel0","pricing_plan_id":"cebpf4jnsgd1na2vs0mg"},{"bike_id":"f6e142ca-d56f-4873-a06b-442b39340c54","system_id":"levelo_inurba_marseille","lat":43.29602,"lon":5.38101,"is_reserved":false,"is_disabled":false,"rental_uris":{"android":"levelo://app?vid=f6e142ca-d56f-4873-a06b-442b39340c54","ios":"levelo://app?vid=f6e142ca-d56f-4873-a06b-442b39340c54"},"vehicle_type_id":"4","last_reported":1761505639,"current_range_meters":20400,"station_id":"ce4bgl12rcd13ifvqbo0","pricing_plan_id":"cebpf4jnsgd1na2vs0mg"},{"bike_id":"68685cfb-0a0a-4822-b6cc-910397a0de67","system_id":"levelo_inurba_marseille","lat":43.27377,"lon":5.36261,"is_reserved":false,"is_disabled":false,"rental_uris":{"android":"levelo://app?vid=68685cfb-0a0a-4822-b6cc-910397a0de67","ios":"levelo://app?vid=68685cfb-0a0a-4822-b6cc-910397a0de67"},"vehicle_type_id":"4","last_reported":1761505639,"current_range_meters":20400,"station_id":"ce4bhbh2rcd13ifvqeo0","pricing_plan_id":"cebpf4jnsgd1na2vs0mg"},