{"last_updated":1778291889,"ttl":60,"version":"2.2","data":{"bikes":[{"bike_id":"68042ed3-2899-44e5-be96-db2ed15455e6","system_id":"levelo_inurba_marseille","lat":43.27943,"lon":5.41055,"is_reserved":false,"is_disabled":false,"rental_uris":{"android":"levelo://app?vid=68042ed3-2899-44e5-be96-db2ed15455e6","ios":"levelo://app?vid=68042ed3-2899-44e5-be96-db2ed15455e6"},"vehicle_type_id":"4","last_reported":1778291889,"current_range_meters":2800,"station_id":"ce4bhnp2rcd13ifvqh0g","pricing_plan_id":"cebpf4jnsgd1na2vs0mg"},{"bike_id":"eb2d00c4-5eee-4f74-8af9-14e5029fda21","system_id":"levelo_inurba_marseille","lat":43.30218,"lon":5.38087,"is_reserved":false,"is_disabled":true,"rental_uris":{"android":"levelo://app?vid=eb2d00c4-5eee-4f74-8af9-14e5029fda21","ios":"levelo://app?vid=eb2d00c4-5eee-4f74-8af9-14e5029fda21"},"vehicle_type_id":"4","last_reported":1778291889,"current_range_meters":2800,"station_id":"","pricing_plan_id":"cebpf4jnsgd1na2vs0mg"},{"bike_id":"e73f306c-3987-4d65-a998-6b5f6ae120f9","system_id":"levelo_inurba_marseille","lat":43.31163,"lon":5.38733,"is_reserved":false,"is_disabled":false,"rental_uris":{"android":"levelo://app?vid=e73f306c-3987-4d65-a998-6b5f6ae120f9","ios":"levelo://app?vid=e73f306c-3987-4d65-a998-6b5f6ae120f9"},"vehicle_type_id":"4","last_reported":1778291889,"current_range_meters":2800,"station_id":"ce4bgv12rcd13ifvqcp0","pricing_plan_id":"cebpf4jnsgd1na2vs0mg"},{"bike_id":"d1965583-dcb5-4292-81a2-e52d5f84ef92","system_id":"levelo_inurba_marseille","lat":43.27378,"lon":5.36253,"is_reserved":false,"is_disabled":true,"rental_uris":{"android":"levelo://app?vid=d1965583-dcb5-4292-81a2-e52d5f84ef92","ios":"levelo://app?vid=d1965583-dcb5-4292-81a2-e52d5f84ef92"},"vehicle_type_id":"4","last_reported":1778291889,"current_range_meters":2800,"station_id":"ce4bhbh2rcd13ifvqeo0","pricing_plan_id":"cebpf4jnsgd1na2vs0mg"},{"bike_id":"b5668d4b-3344-4040-8830-5fbdb8dd1859","system_id":"levelo_inurba_marseille","lat":43.27227,"lon":5.39063,"is_reserved":false,"is_disabled":false,"rental_uris":{"android":"levelo://app?vid=b5668d4b-3344-4040-8830-5fbdb8dd1859","ios":"levelo://app?vid=b5668d4b-3344-4040-8830-5fbdb8dd1859"},"vehicle_type_id":"4","last_reported":1778291889,"current_range_meters":2800,"station_id":"","pricing_plan_id":"cebpf4jnsgd1na2vs0mg"},{"bike_id":"34be596a-bf82-477b-a07e-6719d261a47e","system_id":"levelo_inurba_marseille","lat":43.2508,"lon":5.39492,"is_reserved":false,"is_disabled":false,"rental_uris":{"android":"levelo://app?vid=34be596a-bf82-477b-a07e-6719d261a47e","ios":"levelo://app?vid=34be596a-bf82-477b-a07e-6719d261a47e"},"vehicle_type_id":"4","last_reported":1778291889,"current_range_meters":2800,"station_id":"ce4bhm12rcd13ifvqgkg","pricing_plan_id":"cebpf4jnsgd1na2vs0mg"},{"bike_id":"dd7e2a16-55c8-4796-8974-0afa585e1160","system_id":"levelo_inurba_marseille","lat":43.25483,"lon":5.37649,"is_reserved":false,"is_disabled":true,"rental_uris":{"android":"levelo://app?vid=dd7e2a16-55c8-4796-8974-0afa585e1160","ios":"levelo://app?vid=dd7e2a16-55c8-4796-8974-0afa585e1160"},"vehicle_type_id":"4","last_reported":1778291889,"current_range_meters":2800,"station_id":"ce4bhh12rcd13ifvqff0","pricing_plan_id":"cebpf4jnsgd1na2vs0mg"},{"bike_id":"36799395-1837-41f7-86bf-5e0e1aa3c60c","system_id":"levelo_inurba_marseille","lat":43.30934,"lon":5.40137,"is_reserved":false,"is_disabled":false,"rental_uris":{"android":"levelo://app?vid=36799395-1837-41f7-86bf-5e0e1aa3c60c","ios":"levelo://app?vid=36799395-1837-41f7-86bf-5e0e1aa3c60c"},"vehicle_type_id":"4","last_reported":1778291889,"current_range_meters":2800,"station_id":"ce4bgvp2rcd13ifvqct0","pricing_plan_id":"cebpf4jnsgd1na2vs0mg"},{"bike_id":"b7747a29-4ab9-4600-99c2-c1555eceffb1","system_id":"levelo_inurba_marseille","lat":43.3091,"lon":5.38283,"is_reserved":false,"is_disabled":false,"rental_uris":{"android":"levelo://app?vid=b7747a29-4ab9-4600-99c2-c1555eceffb1","ios":"levelo://app?vid=b7747a29-4ab9-4600-99c2-c1555eceffb1"},"vehicle_type_id":"4","last_reported":1778291889,"current_range_meters":2800,"station_id":"","pricing_plan_id":"cebpf4jnsgd1na2vs0mg"},{"bike_id":"a46bc289-ee30-43b9-a582-f84154664881","system_id":"levelo_inurba_marseille","lat":43.29977,"lon":5.38464,"is_reserved":false,"is_disabled":false,"rental_uris":{"android":"levelo://app?vid=a46bc289-ee30-43b9-a582-f84154664881","ios":"levelo://app?vid=a46bc289-ee30-43b9-a582-f84154664881"},"vehicle_type_id":"4","last_reported":1778291889,"current_range_meters":3200,"station_id":"ce4bgj92rcd13ifvqbd0","pricing_plan_id":"cebpf4jnsgd1na2vs0mg"},{"bike_id":"a4604b93-f525-4862-bcaf-2cd40c58a787","system_id":"levelo_inurba_marseille","lat":43.29201,"lon":5.35815,"is_reserved":false,"is_disabled":false,"rental_uris":{"android":"levelo://app?vid=a4604b93-f525-4862-bcaf-2cd40c58a787","ios":"levelo://app?vid=a4604b93-f525-4862-bcaf-2cd40c58a787"},"vehicle_type_id":"4","last_reported":1778291889,"current_range_meters":3200,"station_id":"ce4bhb12rcd13ifvqel0","pricing_plan_id":"cebpf4jnsgd1na2vs0mg"},{"bike_id":"b800ad74-3b4b-45c8-ae12-e10270cb2914","system_id":"levelo_inurba_marseille","lat":43.27945,"lon":5.38718,"is_reserved":false,"is_disabled":false,"rental_uris":{"android":"levelo://app?vid=b800ad74-3b4b-45c8-ae12-e10270cb2914","ios":"levelo://app?vid=b800ad74-3b4b-45c8-ae12-e10270cb2914"},"vehicle_type_id":"4","last_reported":1778291889,"current_range_meters":3200,"station_id":"ce4bhg12rcd13ifvqf80","pricing_plan_id":"cebpf4jnsgd1na2vs0mg"},{"bike_id":"6246a765-b778-462f-b922-b84d59bc552c","system_id":"levelo_inurba_marseille","lat":43.24384,"lon":5.37079,"is_reserved":false,"is_disabled":false,"rental_uris":{"android":"levelo://app?vid=6246a765-b778-462f-b922-b84d59bc552c","ios":"levelo://app?vid=6246a765-b778-462f-b922-b84d59bc552c"},"vehicle_type_id":"4","last_reported":1778291889,"current_range_meters":3200,"station_id":"ce4bhhh2rcd13ifvqfk0","pricing_plan_id":"cebpf4jnsgd1na2vs0mg"},{"bike_id":"d44cc199-235c-403d-ae58-3d4a17f3de38","system_id":"levelo_inurba_marseille","lat":43.27672,"lon":5.38934,"is_reserved":false,"is_disabled":false,"rental_uris":{"android":"levelo://app?vid=d44cc199-235c-403d-ae58-3d4a17f3de38","ios":"levelo://app?vid=d44cc199-235c-403d-ae58-3d4a17f3de38"},"vehicle_type_id":"4","last_reported":1778291889,"current_range_meters":3200,"station_id":"ce4bhi12rcd13ifvqfo0","pricing_plan_id":"cebpf4jnsgd1na2vs0mg"},{"bike_id":"b9da57a1-fd2a-49e5-8ce1-daf7e8132834","system_id":"levelo_inurba_marseille","lat":43.28337,"lon":5.38096,"is_reserved":false,"is_disabled":false,"rental_uris":{"android":"levelo://app?vid=b9da57a1-fd2a-49e5-8ce1-daf7e8132834","ios":"levelo://app?vid=b9da57a1-fd2a-49e5-8ce1-daf7e8132834"},"vehicle_type_id":"4","last_reported":1778291889,"current_range_meters":3200,"station_id":"ce4bh412rcd13ifvqdr0","pricing_plan_id":"cebpf4jnsgd1na2vs0mg"},{"bike_id":"f8430446-7d85-46a8-8125-34f5eb0c4b59","system_id":"levelo_inurba_marseille","lat":43.24789,"lon":5.37489,"is_reserved":false,"is_disabled":false,"rental_uris":{"android":"levelo://app?vid=f8430446-7d85-46a8-8125-34f5eb0c4b59","ios":"levelo://app?vid=f8430446-7d85-46a8-8125-34f5eb0c4b59"},"vehicle_type_id":"4","last_reported":1778291889,"current_range_meters":3600,"station_id":"ce4bhgh2rcd13ifvqfb0","pricing_plan_id":"cebpf4jnsgd1na2vs0mg"},{"bike_id":"78603c2e-11b9-4397-9e69-0d2887e5cdd7","system_id":"levelo_inurba_marseille","lat":43.33165,"lon":5.37682,"is_reserved":false,"is_disabled":false,"rental_uris":{"android":"levelo://app?vid=78603c2e-11b9-4397-9e69-0d2887e5cdd7","ios":"levelo://app?vid=78603c2e-11b9-4397-9e69-0d2887e5cdd7"},"vehicle_type_id":"4","last_reported":1778291889,"current_range_meters":3600,"station_id":"st_d46cu089ee8s73dldbu0","pricing_plan_id":"cebpf4jnsgd1na2vs0mg"},{"bike_id":"be4270c6-aac0-474c-8ec5-e008fdfb68dd","system_id":"levelo_inurba_marseille","lat":43.26548,"lon":5.37292,"is_reserved":false,"is_disabled":false,"rental_uris":{"android":"levelo://app?vid=be4270c6-aac0-474c-8ec5-e008fdfb68dd","ios":"levelo://app?vid=be4270c6-aac0-474c-8ec5-e008fdfb68dd"},"vehicle_type_id":"4","last_reported":1778291889,"current_range_meters":3600,"station_id":"ce4bhg12rcd13ifvqf70","pricing_plan_id":"cebpf4jnsgd1na2vs0mg"},{"bike_id":"7ebded6a-b44e-4b27-9624-d27cf666a3c2","system_id":"levelo_inurba_marseille","lat":43.26178,"lon":5.37044,"is_reserved":false,"is_disabled":false,"rental_uris":{"android":"levelo://app?vid=7ebded6a-b44e-4b27-9624-d27cf666a3c2","ios":"levelo://app?vid=7ebded6a-b44e-4b27-9624-d27cf666a3c2"},"vehicle_type_id":"4","last_reported":1778291889,"current_range_meters":3600,"station_id":"","pricing_plan_id":"cebpf4jnsgd1na2vs0mg"},{"bike_id":"02d0e242-bf50-4acc-8fae-02b4a73cc75e","system_id":"levelo_inurba_marseille","lat":43.24456,"lon":5.42549,"is_reserved":false,"is_disabled":false,"rental_uris":{"android":"levelo://app?vid=02d0e242-bf50-4acc-8fae-02b4a73cc75e","ios":"levelo://app?vid=02d0e242-bf50-4acc-8fae-02b4a73cc75e"},"vehicle_type_id":"4","last_reported":1778291889,"current_range_meters":3600,"station_id":"st_d4a3vfp97mjs738cd8kg","pricing_plan_id":"cebpf4jnsgd1na2vs0mg"},{"bike_id":"3576c2a2-2c20-40e0-8316-6d5558e51c8a","system_id":"levelo_inurba_marseille","lat":43.2418,"lon":5.39721,"is_reserved":false,"is_disabled":false,"rental_uris":{"android":"levelo://app?vid=3576c2a2-2c20-40e0-8316-6d5558e51c8a","ios":"levelo://app?vid=3576c2a2-2c20-40e0-8316-6d5558e51c8a"},"vehicle_type_id":"4","last_reported":1778291889,"current_range_meters":3600,"station_id":"ce4bhn12rcd13ifvqgpg","pricing_plan_id":"cebpf4jnsgd1na2vs0mg"},{"bike_id":"acda420d-c0c2-4021-b9df-ca6acbade99f","system_id":"levelo_inurba_marseille","lat":43.28936,"lon":5.39668,"is_reserved":false,"is_disabled":true,"rental_uris":{"android":"levelo://app?vid=acda420d-c0c2-4021-b9df-ca6acbade99f","ios":"levelo://app?vid=acda420d-c0c2-4021-b9df-ca6acbade99f"},"vehicle_type_id":"4","last_reported":1778291889,"current_range_meters":3600,"station_id":"ce4bh3h2rcd13ifvqdn0","pricing_plan_id":"cebpf4jnsgd1na2vs0mg"},{"bike_id":"26808864-edd9-48ef-b4f9-6a35d8d7c7ef","system_id":"levelo_inurba_marseille","lat":43.23965,"lon":5.36631,"is_reserved":false,"is_disabled":true,"rental_uris":{"android":"levelo://app?vid=26808864-edd9-48ef-b4f9-6a35d8d7c7ef","ios":"levelo://app?vid=26808864-edd9-48ef-b4f9-6a35d8d7c7ef"},"vehicle_type_id":"4","last_reported":1778291889,"current_range_meters":3600,"station_id":"ce4bhi12rcd13ifvqfp0","pricing_plan_id":"cebpf4jnsgd1na2vs0mg"},{"bike_id":"e4d33083-7f78-49f3-93e5-b4b669df7054","system_id":"levelo_inurba_marseille","lat":43.31251,"lon":5.40211,"is_reserved":false,"is_disabled":false,"rental_uris":{"android":"levelo://app?vid=e4d33083-7f78-49f3-93e5-b4b669df7054","ios":"levelo://app?vid=e4d33083-7f78-49f3-93e5-b4b669df7054"},"vehicle_type_id":"4","last_reported":1778291889,"current_range_meters":3600,"station_id":"ce4bh092rcd13ifvqd30","pricing_plan_id":"cebpf4jnsgd1na2vs0mg"},{"bike_id":"22540de7-8630-43e4-a5f4-94906185db58","system_id":"levelo_inurba_marseille","lat":43.28616,"lon":5.3511,"is_reserved":false,"is_disabled":true,"rental_uris":{"android":"levelo://app?vid=22540de7-8630-43e4-a5f4-94906185db58","ios":"levelo://app?vid=22540de7-8630-43e4-a5f4-94906185db58"},"vehicle_type_id":"4","last_reported":1778291889,"current_range_meters":3600,"station_id":"ce4bhch2rcd13ifvqeug","pricing_plan_id":"cebpf4jnsgd1na2vs0mg"},{"bike_id":"ae15c2d1-b79c-472a-aa23-dbd2b063bdad","system_id":"levelo_inurba_marseille","lat":43.25284,"lon":5.39281,"is_reserved":false,"is_disabled":false,"rental_uris":{"android":"levelo://app?vid=ae15c2d1-b79c-472a-aa23-dbd2b063bdad","ios":"levelo://app?vid=ae15c2d1-b79c-472a-aa23-dbd2b063bdad"},"vehicle_type_id":"4","last_reported":1778291889,"current_range_meters":3600,"station_id":"","pricing_plan_id":"cebpf4jnsgd1na2vs0mg"},{"bike_id":"7ac272f1-93d7-437e-a7ad-9515e3c575bb","system_id":"levelo_inurba_marseille","lat":43.29262,"lon":5.35755,"is_reserved":false,"is_disabled":false,"rental_uris":{"android":"levelo://app?vid=7ac272f1-93d7-437e-a7ad-9515e3c575bb","ios":"levelo://app?vid=7ac272f1-93d7-437e-a7ad-9515e3c575bb"},"vehicle_type_id":"4","last_reported":1778291889,"current_range_meters":3600,"station_id":"","pricing_plan_id":"cebpf4jnsgd1na2vs0mg"},{"bike_id":"a3753e6c-cd14-49f5-88bd-6d1dcb4618bf","system_id":"levelo_inurba_marseille","lat":43.28392,"lon":5.37545,"is_reserved":false,"is_disabled":false,"rental_uris":{"android":"levelo://app?vid=a3753e6c-cd14-49f5-88bd-6d1dcb4618bf","ios":"levelo://app?vid=a3753e6c-cd14-49f5-88bd-6d1dcb4618bf"},"vehicle_type_id":"4","last_reported":1778291889,"current_range_meters":3600,"station_id":"ce4bh412rcd13ifvqds0","pricing_plan_id":"cebpf4jnsgd1na2vs0mg"},{"bike_id":"839dd660-f7f5-4436-a4be-05214ace9f90","system_id":"levelo_inurba_marseille","lat":43.25876,"lon":5.39926,"is_reserved":false,"is_disabled":false,"rental_uris":{"android":"levelo://app?vid=839dd660-f7f5-4436-a4be-05214ace9f90","ios":"levelo://app?vid=839dd660-f7f5-4436-a4be-05214ace9f90"},"vehicle_type_id":"4","last_reported":1778291889,"current_range_meters":3600,"station_id":"ce4bhl92rcd13ifvqghg","pricing_plan_id":"cebpf4jnsgd1na2vs0mg"},{"bike_id":"c8cfc10f-ea34-4155-ac7f-9b531f0b9b22","system_id":"levelo_inurba_marseille","lat":43.26381,"lon":5.42292,"is_reserved":false,"is_disabled":false,"rental_uris":{"android":"levelo://app?vid=c8cfc10f-ea34-4155-ac7f-9b531f0b9b22","ios":"levelo://app?vid=c8cfc10f-ea34-4155-ac7f-9b531f0b9b22"},"vehicle_type_id":"4","last_reported":1778291889,"current_range_meters":3600,"station_id":"","pricing_plan_id":"cebpf4jnsgd1na2vs0mg"},{"bike_id":"89513982-8e0f-49a9-85aa-89f0a8805cf8","system_id":"levelo_inurba_marseille","lat":43.27315,"lon":5.39126,"is_reserved":false,"is_disabled":false,"rental_uris":{"android":"levelo://app?vid=89513982-8e0f-49a9-85aa-89f0a8805cf8","ios":"levelo://app?vid=89513982-8e0f-49a9-85aa-89f0a8805cf8"},"vehicle_type_id":"4","last_reported":1778291889,"current_range_meters":4000,"station_id":"ce4bhgp2rcd13ifvqfe0","pricing_plan_id":"cebpf4jnsgd1na2vs0mg"},{"bike_id":"79528d5b-05a7-48e7-9ccf-eb3dcf2a91b1","system_id":"levelo_inurba_marseille","lat":43.26193,"lon":5.37462,"is_reserved":false,"is_disabled":true,"rental_uris":{"android":"levelo://app?vid=79528d5b-05a7-48e7-9ccf-eb3dcf2a91b1","ios":"levelo://app?vid=79528d5b-05a7-48e7-9ccf-eb3dcf2a91b1"},"vehicle_type_id":"4","last_reported":1778291889,"current_range_meters":4000,"station_id":"ce4bhgp2rcd13ifvqfc0","pricing_plan_id":"cebpf4jnsgd1na2vs0mg"},{"bike_id":"26f3db29-42ec-4698-9db1-0a24a6260b7c","system_id":"levelo_inurba_marseille","lat":43.2918,"lon":5.358,"is_reserved":false,"is_disabled":false,"rental_uris":{"android":"levelo://app?vid=26f3db29-42ec-4698-9db1-0a24a6260b7c","ios":"levelo://app?vid=26f3db29-42ec-4698-9db1-0a24a6260b7c"},"vehicle_type_id":"4","last_reported":1778291889,"current_range_meters":4000,"station_id":"ce4bhb12rcd13ifvqel0","pricing_plan_id":"cebpf4jnsgd1na2vs0mg"},{"bike_id":"75dddf4b-8367-46bc-a9a7-0eb67ee811a7","system_id":"levelo_inurba_marseille","lat":43.23179,"lon":5.36586,"is_reserved":false,"is_disabled":false,"rental_uris":{"android":"levelo://app?vid=75dddf4b-8367-46bc-a9a7-0eb67ee811a7","ios":"levelo://app?vid=75dddf4b-8367-46bc-a9a7-0eb67ee811a7"},"vehicle_type_id":"4","last_reported":1778291889,"current_range_meters":4000,"station_id":"","pricing_plan_id":"cebpf4jnsgd1na2vs0mg"},{"bike_id":"e028b17e-094a-4eac-adf4-cd5de2ec26e1","system_id":"levelo_inurba_marseille","lat":43.28564,"lon":5.39502,"is_reserved":false,"is_disabled":false,"rental_uris":{"android":"levelo://app?vid=e028b17e-094a-4eac-adf4-cd5de2ec26e1","ios":"levelo://app?vid=e028b17e-094a-4eac-adf4-cd5de2ec26e1"},"vehicle_type_id":"4","last_reported":1778291889,"current_range_meters":4000,"station_id":"ce4bh292rcd13ifvqdg0","pricing_plan_id":"cebpf4jnsgd1na2vs0mg"},{"bike_id":"8c8e87ea-717b-4837-a2da-491fd2f1bf28","system_id":"levelo_inurba_marseille","lat":43.28969,"lon":5.37837,"is_reserved":false,"is_disabled":true,"rental_uris":{"android":"levelo://app?vid=8c8e87ea-717b-4837-a2da-491fd2f1bf28","ios":"levelo://app?vid=8c8e87ea-717b-4837-a2da-491fd2f1bf28"},"vehicle_type_id":"4","last_reported":1778291889,"current_range_meters":4000,"station_id":"ce4bh9p2rcd13ifvqed0","pricing_plan_id":"cebpf4jnsgd1na2vs0mg"},{"bike_id":"aea1a9e6-2a9b-4cba-bf25-1488f9d8a686","system_id":"levelo_inurba_marseille","lat":43.32496,"lon":5.38293,"is_reserved":false,"is_disabled":false,"rental_uris":{"android":"levelo://app?vid=aea1a9e6-2a9b-4cba-bf25-1488f9d8a686","ios":"levelo://app?vid=aea1a9e6-2a9b-4cba-bf25-1488f9d8a686"},"vehicle_type_id":"4","last_reported":1778291889,"current_range_meters":4000,"station_id":"st_d4asgbiv49dc73anf9m0","pricing_plan_id":"cebpf4jnsgd1na2vs0mg"},{"bike_id":"54bdac41-dc50-4afe-87cf-607065949d9b","system_id":"levelo_inurba_marseille","lat":43.29877,"lon":5.38921,"is_reserved":false,"is_disabled":true,"rental_uris":{"android":"levelo://app?vid=54bdac41-dc50-4afe-87cf-607065949d9b","ios":"levelo://app?vid=54bdac41-dc50-4afe-87cf-607065949d9b"},"vehicle_type_id":"4","last_reported":1778291889,"current_range_meters":4000,"station_id":"ce4bh392rcd13ifvqdl0","pricing_plan_id":"cebpf4jnsgd1na2vs0mg"},{"bike_id":"78216b7a-e2cc-4e1a-a8a8-a8a2a337ad91","system_id":"levelo_inurba_marseille","lat":43.29211,"lon":5.40727,"is_reserved":false,"is_disabled":false,"rental_uris":{"android":"levelo://app?vid=78216b7a-e2cc-4e1a-a8a8-a8a2a337ad91","ios":"levelo://app?vid=78216b7a-e2cc-4e1a-a8a8-a8a2a337ad91"},"vehicle_type_id":"4","last_reported":1778291889,"current_range_meters":4000,"station_id":"","pricing_plan_id":"cebpf4jnsgd1na2vs0mg"},{"bike_id":"29c47587-f18b-42f0-8cfc-38dfdf722184","system_id":"levelo_inurba_marseille","lat":43.29921,"lon":5.38244,"is_reserved":false,"is_disabled":false,"rental_uris":{"android":"levelo://app?vid=29c47587-f18b-42f0-8cfc-38dfdf722184","ios":"levelo://app?vid=29c47587-f18b-42f0-8cfc-38dfdf722184"},"vehicle_type_id":"4","last_reported":1778291889,"current_range_meters":4000,"station_id":"","pricing_plan_id":"cebpf4jnsgd1na2vs0mg"},{"bike_id":"59136f4b-2b9d-4463-bdd9-311b5a39b35e","system_id":"levelo_inurba_marseille","lat":43.28434,"lon":5.39194,"is_reserved":false,"is_disabled":false,"rental_uris":{"android":"levelo://app?vid=59136f4b-2b9d-4463-bdd9-311b5a39b35e","ios":"levelo://app?vid=59136f4b-2b9d-4463-bdd9-311b5a39b35e"},"vehicle_type_id":"4","last_reported":1778291889,"current_range_meters":4000,"station_id":"ce4bhoh2rcd13ifvqh5g","pricing_plan_id":"cebpf4jnsgd1na2vs0mg"},{"bike_id":"eb69d245-4c11-4082-b033-bfef8903721a","system_id":"levelo_inurba_marseille","lat":43.29865,"lon":5.39748,"is_reserved":false,"is_disabled":false,"rental_uris":{"android":"levelo://app?vid=eb69d245-4c11-4082-b033-bfef8903721a","ios":"levelo://app?vid=eb69d245-4c11-4082-b033-bfef8903721a"},"vehicle_type_id":"4","last_reported":1778291889,"current_range_meters":4000,"station_id":"ce4bh0h2rcd13ifvqd50","pricing_plan_id":"cebpf4jnsgd1na2vs0mg"},{"bike_id":"4292e8ce-e1a6-4a8f-a403-35f7f77e0e07","system_id":"levelo_inurba_marseille","lat":43.28405,"lon":5.37559,"is_reserved":false,"is_disabled":false,"rental_uris":{"android":"levelo://app?vid=4292e8ce-e1a6-4a8f-a403-35f7f77e0e07","ios":"levelo://app?vid=4292e8ce-e1a6-4a8f-a403-35f7f77e0e07"},"vehicle_type_id":"4","last_reported":1778291889,"current_range_meters":4000,"station_id":"ce4bh412rcd13ifvqds0","pricing_plan_id":"cebpf4jnsgd1na2vs0mg"},{"bike_id":"b8033fcc-dc55-40bf-a115-206a22e96996","system_id":"levelo_inurba_marseille","lat":43.24168,"lon":5.39692,"is_reserved":false,"is_disabled":false,"rental_uris":{"android":"levelo://app?vid=b8033fcc-dc55-40bf-a115-206a22e96996","ios":"levelo://app?vid=b8033fcc-dc55-40bf-a115-206a22e96996"},"vehicle_type_id":"4","last_reported":1778291889,"current_range_meters":4000,"station_id":"ce4bhn12rcd13ifvqgpg","pricing_plan_id":"cebpf4jnsgd1na2vs0mg"},{"bike_id":"139fafbd-1b7e-43be-b9c7-de867d9ec84e","system_id":"levelo_inurba_marseille","lat":43.23194,"lon":5.39985,"is_reserved":false,"is_disabled":false,"rental_uris":{"android":"levelo://app?vid=139fafbd-1b7e-43be-b9c7-de867d9ec84e","ios":"levelo://app?vid=139fafbd-1b7e-43be-b9c7-de867d9ec84e"},"vehicle_type_id":"4","last_reported":1778291889,"current_range_meters":4000,"station_id":"ce4bhn12rcd13ifvqgqg","pricing_plan_id":"cebpf4jnsgd1na2vs0mg"},{"bike_id":"bc7689e6-08ad-4ce6-b101-ffff1b93ca0c","system_id":"levelo_inurba_marseille","lat":43.29244,"lon":5.3717,"is_reserved":false,"is_disabled":false,"rental_uris":{"android":"levelo://app?vid=bc7689e6-08ad-4ce6-b101-ffff1b93ca0c","ios":"levelo://app?vid=bc7689e6-08ad-4ce6-b101-ffff1b93ca0c"},"vehicle_type_id":"4","last_reported":1778291889,"current_range_meters":4400,"station_id":"","pricing_plan_id":"cebpf4jnsgd1na2vs0mg"},{"bike_id":"66adbe4b-0003-4013-9210-7b62817bc7b4","system_id":"levelo_inurba_marseille","lat":43.2988,"lon":5.38945,"is_reserved":false,"is_disabled":false,"rental_uris":{"android":"levelo://app?vid=66adbe4b-0003-4013-9210-7b62817bc7b4","ios":"levelo://app?vid=66adbe4b-0003-4013-9210-7b62817bc7b4"},"vehicle_type_id":"4","last_reported":1778291889,"current_range_meters":4400,"station_id":"ce4bh392rcd13ifvqdl0","pricing_plan_id":"cebpf4jnsgd1na2vs0mg"},{"bike_id":"c76b949c-e9d9-4ce5-a8ff-f0d9bac0080b","system_id":"levelo_inurba_marseille","lat":43.31365,"lon":5.38498,"is_reserved":false,"is_disabled":false,"rental_uris":{"android":"levelo://app?vid=c76b949c-e9d9-4ce5-a8ff-f0d9bac0080b","ios":"levelo://app?vid=c76b949c-e9d9-4ce5-a8ff-f0d9bac0080b"},"vehicle_type_id":"4","last_reported":1778291889,"current_range_meters":4400,"station_id":"ce4bgt92rcd13ifvqcf0","pricing_plan_id":"cebpf4jnsgd1na2vs0mg"},{"bike_id":"43b9c369-eec7-4801-b65c-0c3b3c87bd4f","system_id":"levelo_inurba_marseille","lat":43.3355,"lon":5.37474,"is_reserved":false,"is_disabled":false,"rental_uris":{"android":"levelo://app?vid=43b9c369-eec7-4801-b65c-0c3b3c87bd4f","ios":"levelo://app?vid=43b9c369-eec7-4801-b65c-0c3b3c87bd4f"},"vehicle_type_id":"4","last_reported":1778291889,"current_range_meters":4400,"station_id":"st_d46tts09ee8s73dlu43g","pricing_plan_id":"cebpf4jnsgd1na2vs0mg"},{"bike_id":"3f268525-db91-4c64-a179-42ecb6c80f46","system_id":"levelo_inurba_marseille","lat":43.27952,"lon":5.37222,"is_reserved":false,"is_disabled":false,"rental_uris":{"android":"levelo://app?vid=3f268525-db91-4c64-a179-42ecb6c80f46","ios":"levelo://app?vid=3f268525-db91-4c64-a179-42ecb6c80f46"},"vehicle_type_id":"4","last_reported":1778291889,"current_range_meters":4400,"station_id":"","pricing_plan_id":"cebpf4jnsgd1na2vs0mg"},{"bike_id":"c59e1bd6-ece3-4e94-9308-3c08876ef280","system_id":"levelo_inurba_marseille","lat":43.26488,"lon":5.39002,"is_reserved":false,"is_disabled":false,"rental_uris":{"android":"levelo://app?vid=c59e1bd6-ece3-4e94-9308-3c08876ef280","ios":"levelo://app?vid=c59e1bd6-ece3-4e94-9308-3c08876ef280"},"vehicle_type_id":"4","last_reported":1778291889,"current_range_meters":4400,"station_id":"","pricing_plan_id":"cebpf4jnsgd1na2vs0mg"},{"bike_id":"97254ce8-f9a1-42f3-964a-ff6f1c7a90d1","system_id":"levelo_inurba_marseille","lat":43.29604,"lon":5.38082,"is_reserved":false,"is_disabled":false,"rental_uris":{"android":"levelo://app?vid=97254ce8-f9a1-42f3-964a-ff6f1c7a90d1","ios":"levelo://app?vid=97254ce8-f9a1-42f3-964a-ff6f1c7a90d1"},"vehicle_type_id":"4","last_reported":1778291889,"current_range_meters":4400,"station_id":"ce4bgl12rcd13ifvqbo0","pricing_plan_id":"cebpf4jnsgd1na2vs0mg"},{"bike_id":"e733dca3-1a07-42d5-9243-38eb460a686c","system_id":"levelo_inurba_marseille","lat":43.28641,"lon":5.39957,"is_reserved":false,"is_disabled":false,"rental_uris":{"android":"levelo://app?vid=e733dca3-1a07-42d5-9243-38eb460a686c","ios":"levelo://app?vid=e733dca3-1a07-42d5-9243-38eb460a686c"},"vehicle_type_id":"4","last_reported":1778291889,"current_range_meters":4400,"station_id":"st_d4a7ka997mjs738ck50g","pricing_plan_id":"cebpf4jnsgd1na2vs0mg"},{"bike_id":"3122ba5c-241c-4b18-a8de-67da515b61a7","system_id":"levelo_inurba_marseille","lat":43.25582,"lon":5.3828,"is_reserved":false,"is_disabled":true,"rental_uris":{"android":"levelo://app?vid=3122ba5c-241c-4b18-a8de-67da515b61a7","ios":"levelo://app?vid=3122ba5c-241c-4b18-a8de-67da515b61a7"},"vehicle_type_id":"4","last_reported":1778291889,"current_range_meters":4400,"station_id":"ce4bhih2rcd13ifvqfs0","pricing_plan_id":"cebpf4jnsgd1na2vs0mg"},{"bike_id":"9c7f7c5a-6e1f-4adc-b2ea-f1b66f023f9c","system_id":"levelo_inurba_marseille","lat":43.31284,"lon":5.38335,"is_reserved":false,"is_disabled":false,"rental_uris":{"android":"levelo://app?vid=9c7f7c5a-6e1f-4adc-b2ea-f1b66f023f9c","ios":"levelo://app?vid=9c7f7c5a-6e1f-4adc-b2ea-f1b66f023f9c"},"vehicle_type_id":"4","last_reported":1778291889,"current_range_meters":4400,"station_id":"","pricing_plan_id":"cebpf4jnsgd1na2vs0mg"},{"bike_id":"1709f6c4-df38-4392-a22b-79877bea9f71","system_id":"levelo_inurba_marseille","lat":43.26272,"lon":5.39156,"is_reserved":false,"is_disabled":false,"rental_uris":{"android":"levelo://app?vid=1709f6c4-df38-4392-a22b-79877bea9f71","ios":"levelo://app?vid=1709f6c4-df38-4392-a22b-79877bea9f71"},"vehicle_type_id":"4","last_reported":1778291889,"current_range_meters":4800,"station_id":"","pricing_plan_id":"cebpf4jnsgd1na2vs0mg"},{"bike_id":"5f06a8a1-2ff5-4ac3-a16d-8044e5eff3c8","system_id":"levelo_inurba_marseille","lat":43.23406,"lon":5.35954,"is_reserved":false,"is_disabled":false,"rental_uris":{"android":"levelo://app?vid=5f06a8a1-2ff5-4ac3-a16d-8044e5eff3c8","ios":"levelo://app?vid=5f06a8a1-2ff5-4ac3-a16d-8044e5eff3c8"},"vehicle_type_id":"4","last_reported":1778291889,"current_range_meters":4800,"station_id":"","pricing_plan_id":"cebpf4jnsgd1na2vs0mg"},{"bike_id":"ac5248c1-4fa9-4b63-9686-5ac601b0f9b1","system_id":"levelo_inurba_marseille","lat":43.29909,"lon":5.37818,"is_reserved":false,"is_disabled":false,"rental_uris":{"android":"levelo://app?vid=ac5248c1-4fa9-4b63-9686-5ac601b0f9b1","ios":"levelo://app?vid=ac5248c1-4fa9-4b63-9686-5ac601b0f9b1"},"vehicle_type_id":"4","last_reported":1778291889,"current_range_meters":4800,"station_id":"","pricing_plan_id":"cebpf4jnsgd1na2vs0mg"},{"bike_id":"f9765471-797c-4251-b388-a11b5bbe30f0","system_id":"levelo_inurba_marseille","lat":43.3355,"lon":5.37496,"is_reserved":false,"is_disabled":false,"rental_uris":{"android":"levelo://app?vid=f9765471-797c-4251-b388-a11b5bbe30f0","ios":"levelo://app?vid=f9765471-797c-4251-b388-a11b5bbe30f0"},"vehicle_type_id":"4","last_reported":1778291889,"current_range_meters":4800,"station_id":"st_d46tts09ee8s73dlu43g","pricing_plan_id":"cebpf4jnsgd1na2vs0mg"},{"bike_id":"6ec9e9c0-5c00-4ebb-a812-7b74cdafe255","system_id":"levelo_inurba_marseille","lat":43.28748,"lon":5.39925,"is_reserved":false,"is_disabled":false,"rental_uris":{"android":"levelo://app?vid=6ec9e9c0-5c00-4ebb-a812-7b74cdafe255","ios":"levelo://app?vid=6ec9e9c0-5c00-4ebb-a812-7b74cdafe255"},"vehicle_type_id":"4","last_reported":1778291889,"current_range_meters":4800,"station_id":"","pricing_plan_id":"cebpf4jnsgd1na2vs0mg"},{"bike_id":"ff4d1d92-3c09-4393-bd19-a95497791c85","system_id":"levelo_inurba_marseille","lat":43.26565,"lon":5.39033,"is_reserved":false,"is_disabled":false,"rental_uris":{"android":"levelo://app?vid=ff4d1d92-3c09-4393-bd19-a95497791c85","ios":"levelo://app?vid=ff4d1d92-3c09-4393-bd19-a95497791c85"},"vehicle_type_id":"4","last_reported":1778291889,"current_range_meters":4800,"station_id":"ce4bhe12rcd13ifvqf30","pricing_plan_id":"cebpf4jnsgd1na2vs0mg"},{"bike_id":"3c448e94-09fa-4e14-bfed-9eae4cc96d57","system_id":"levelo_inurba_marseille","lat":43.31434,"lon":5.37389,"is_reserved":false,"is_disabled":false,"rental_uris":{"android":"levelo://app?vid=3c448e94-09fa-4e14-bfed-9eae4cc96d57","ios":"levelo://app?vid=3c448e94-09fa-4e14-bfed-9eae4cc96d57"},"vehicle_type_id":"4","last_reported":1778291889,"current_range_meters":4800,"station_id":"","pricing_plan_id":"cebpf4jnsgd1na2vs0mg"},{"bike_id":"ab41857e-5e1d-4ef6-93ba-57193093c0da","system_id":"levelo_inurba_marseille","lat":43.30881,"lon":5.39627,"is_reserved":false,"is_disabled":false,"rental_uris":{"android":"levelo://app?vid=ab41857e-5e1d-4ef6-93ba-57193093c0da","ios":"levelo://app?vid=ab41857e-5e1d-4ef6-93ba-57193093c0da"},"vehicle_type_id":"4","last_reported":1778291889,"current_range_meters":4800,"station_id":"ce4bh012rcd13ifvqcv0","pricing_plan_id":"cebpf4jnsgd1na2vs0mg"},{"bike_id":"3056c84a-f614-437e-b41b-b1adbc616cfd","system_id":"levelo_inurba_marseille","lat":43.31878,"lon":5.36836,"is_reserved":false,"is_disabled":false,"rental_uris":{"android":"levelo://app?vid=3056c84a-f614-437e-b41b-b1adbc616cfd","ios":"levelo://app?vid=3056c84a-f614-437e-b41b-b1adbc616cfd"},"vehicle_type_id":"4","last_reported":1778291889,"current_range_meters":4800,"station_id":"st_d6o2h0d0559c73evc1b0","pricing_plan_id":"cebpf4jnsgd1na2vs0mg"},{"bike_id":"78bfcf6a-8002-47c3-bd0a-fd7693c617bf","system_id":"levelo_inurba_marseille","lat":43.26549,"lon":5.3905,"is_reserved":false,"is_disabled":false,"rental_uris":{"android":"levelo://app?vid=78bfcf6a-8002-47c3-bd0a-fd7693c617bf","ios":"levelo://app?vid=78bfcf6a-8002-47c3-bd0a-fd7693c617bf"},"vehicle_type_id":"4","last_reported":1778291889,"current_range_meters":4800,"station_id":"ce4bhe12rcd13ifvqf30","pricing_plan_id":"cebpf4jnsgd1na2vs0mg"},{"bike_id":"fca1379a-b8cf-4029-b527-a5b5e2451884","system_id":"levelo_inurba_marseille","lat":43.23154,"lon":5.43713,"is_reserved":false,"is_disabled":false,"rental_uris":{"android":"levelo://app?vid=fca1379a-b8cf-4029-b527-a5b5e2451884","ios":"levelo://app?vid=fca1379a-b8cf-4029-b527-a5b5e2451884"},"vehicle_type_id":"4","last_reported":1778291889,"current_range_meters":4800,"station_id":"ce4bhmp2rcd13ifvqgog","pricing_plan_id":"cebpf4jnsgd1na2vs0mg"},{"bike_id":"ea5c7c3f-3bbb-47c8-a2b9-9e1f6e6f584d","system_id":"levelo_inurba_marseille","lat":43.29582,"lon":5.36926,"is_reserved":false,"is_disabled":false,"rental_uris":{"android":"levelo://app?vid=ea5c7c3f-3bbb-47c8-a2b9-9e1f6e6f584d","ios":"levelo://app?vid=ea5c7c3f-3bbb-47c8-a2b9-9e1f6e6f584d"},"vehicle_type_id":"4","last_reported":1778291889,"current_range_meters":4800,"station_id":"","pricing_plan_id":"cebpf4jnsgd1na2vs0mg"},{"bike_id":"b2294491-b091-4f21-a219-0d82de5f39e6","system_id":"levelo_inurba_marseille","lat":43.28931,"lon":5.36658,"is_reserved":false,"is_disabled":false,"rental_uris":{"android":"levelo://app?vid=b2294491-b091-4f21-a219-0d82de5f39e6","ios":"levelo://app?vid=b2294491-b091-4f21-a219-0d82de5f39e6"},"vehicle_type_id":"4","last_reported":1778291889,"current_range_meters":4800,"station_id":"ce4bhap2rcd13ifvqek0","pricing_plan_id":"cebpf4jnsgd1na2vs0mg"},{"bike_id":"48fff531-107f-4daf-bbb2-efc4df2af605","system_id":"levelo_inurba_marseille","lat":43.24067,"lon":5.37763,"is_reserved":false,"is_disabled":false,"rental_uris":{"android":"levelo://app?vid=48fff531-107f-4daf-bbb2-efc4df2af605","ios":"levelo://app?vid=48fff531-107f-4daf-bbb2-efc4df2af605"},"vehicle_type_id":"4","last_reported":1778291889,"current_range_meters":4800,"station_id":"ce4bhnp2rcd13ifvqgvg","pricing_plan_id":"cebpf4jnsgd1na2vs0mg"},{"bike_id":"7f8d6214-079b-4a9e-a057-6a752160efd0","system_id":"levelo_inurba_marseille","lat":43.30188,"lon":5.36619,"is_reserved":false,"is_disabled":false,"rental_uris":{"android":"levelo://app?vid=7f8d6214-079b-4a9e-a057-6a752160efd0","ios":"levelo://app?vid=7f8d6214-079b-4a9e-a057-6a752160efd0"},"vehicle_type_id":"4","last_reported":1778291889,"current_range_meters":5600,"station_id":"ce4bgrh2rcd13ifvqc8g","pricing_plan_id":"cebpf4jnsgd1na2vs0mg"},{"bike_id":"1443c9f0-139b-4d04-8945-c2db5286a83d","system_id":"levelo_inurba_marseille","lat":43.3061,"lon":5.37245,"is_reserved":false,"is_disabled":false,"rental_uris":{"android":"levelo://app?vid=1443c9f0-139b-4d04-8945-c2db5286a83d","ios":"levelo://app?vid=1443c9f0-139b-4d04-8945-c2db5286a83d"},"vehicle_type_id":"4","last_reported":1778291889,"current_range_meters":5600,"station_id":"ce4bgqh2rcd13ifvqc4g","pricing_plan_id":"cebpf4jnsgd1na2vs0mg"},{"bike_id":"d85df8c4-2a4c-4a0f-b116-b1d1c40ce681","system_id":"levelo_inurba_marseille","lat":43.265394,"lon":5.372973,"is_reserved":false,"is_disabled":false,"rental_uris":{"android":"levelo://app?vid=d85df8c4-2a4c-4a0f-b116-b1d1c40ce681","ios":"levelo://app?vid=d85df8c4-2a4c-4a0f-b116-b1d1c40ce681"},"vehicle_type_id":"4","last_reported":1778291889,"current_range_meters":5600,"station_id":"ce4bhg12rcd13ifvqf70","pricing_plan_id":"cebpf4jnsgd1na2vs0mg"},{"bike_id":"28591a20-c550-4108-9263-49d1bdca52ed","system_id":"levelo_inurba_marseille","lat":43.28465,"lon":5.48404,"is_reserved":false,"is_disabled":false,"rental_uris":{"android":"levelo://app?vid=28591a20-c550-4108-9263-49d1bdca52ed","ios":"levelo://app?vid=28591a20-c550-4108-9263-49d1bdca52ed"},"vehicle_type_id":"4","last_reported":1778291889,"current_range_meters":5600,"station_id":"","pricing_plan_id":"cebpf4jnsgd1na2vs0mg"},{"bike_id":"a8e53a68-8ca8-4860-8572-7d53cb37b150","system_id":"levelo_inurba_marseille","lat":43.27636,"lon":5.38972,"is_reserved":false,"is_disabled":false,"rental_uris":{"android":"levelo://app?vid=a8e53a68-8ca8-4860-8572-7d53cb37b150","ios":"levelo://app?vid=a8e53a68-8ca8-4860-8572-7d53cb37b150"},"vehicle_type_id":"4","last_reported":1778291889,"current_range_meters":5600,"station_id":"","pricing_plan_id":"cebpf4jnsgd1na2vs0mg"},{"bike_id":"bc4dd8e3-cbe0-4f07-a20e-5f98922252e8","system_id":"levelo_inurba_marseille","lat":43.25088,"lon":5.3951,"is_reserved":false,"is_disabled":false,"rental_uris":{"android":"levelo://app?vid=bc4dd8e3-cbe0-4f07-a20e-5f98922252e8","ios":"levelo://app?vid=bc4dd8e3-cbe0-4f07-a20e-5f98922252e8"},"vehicle_type_id":"4","last_reported":1778291889,"current_range_meters":5600,"station_id":"ce4bhm12rcd13ifvqgkg","pricing_plan_id":"cebpf4jnsgd1na2vs0mg"},{"bike_id":"06ab7e03-6cc1-4519-8625-3652421fe315","system_id":"levelo_inurba_marseille","lat":43.33165,"lon":5.37687,"is_reserved":false,"is_disabled":false,"rental_uris":{"android":"levelo://app?vid=06ab7e03-6cc1-4519-8625-3652421fe315","ios":"levelo://app?vid=06ab7e03-6cc1-4519-8625-3652421fe315"},"vehicle_type_id":"4","last_reported":1778291889,"current_range_meters":5600,"station_id":"st_d46cu089ee8s73dldbu0","pricing_plan_id":"cebpf4jnsgd1na2vs0mg"},{"bike_id":"9a3140d6-e3fa-492e-8460-9c6f22636700","system_id":"levelo_inurba_marseille","lat":43.3136,"lon":5.39976,"is_reserved":false,"is_disabled":false,"rental_uris":{"android":"levelo://app?vid=9a3140d6-e3fa-492e-8460-9c6f22636700","ios":"levelo://app?vid=9a3140d6-e3fa-492e-8460-9c6f22636700"},"vehicle_type_id":"4","last_reported":1778291889,"current_range_meters":5600,"station_id":"","pricing_plan_id":"cebpf4jnsgd1na2vs0mg"},{"bike_id":"63f7549f-bcc7-413a-be66-564a28e78021","system_id":"levelo_inurba_marseille","lat":43.28044,"lon":5.3696,"is_reserved":false,"is_disabled":false,"rental_uris":{"android":"levelo://app?vid=63f7549f-bcc7-413a-be66-564a28e78021","ios":"levelo://app?vid=63f7549f-bcc7-413a-be66-564a28e78021"},"vehicle_type_id":"4","last_reported":1778291889,"current_range_meters":5600,"station_id":"ce4bha12rcd13ifvqef0","pricing_plan_id":"cebpf4jnsgd1na2vs0mg"},{"bike_id":"2ca1200b-d2cd-4f07-b6c3-a694118821f9","system_id":"levelo_inurba_marseille","lat":43.29915,"lon":5.37471,"is_reserved":false,"is_disabled":false,"rental_uris":{"android":"levelo://app?vid=2ca1200b-d2cd-4f07-b6c3-a694118821f9","ios":"levelo://app?vid=2ca1200b-d2cd-4f07-b6c3-a694118821f9"},"vehicle_type_id":"4","last_reported":1778291889,"current_range_meters":5600,"station_id":"ce4bgjh2rcd13ifvqbg0","pricing_plan_id":"cebpf4jnsgd1na2vs0mg"},{"bike_id":"1b207e49-6602-4978-900d-fc4b9ef4c85b","system_id":"levelo_inurba_marseille","lat":43.31357,"lon":5.38517,"is_reserved":false,"is_disabled":false,"rental_uris":{"android":"levelo://app?vid=1b207e49-6602-4978-900d-fc4b9ef4c85b","ios":"levelo://app?vid=1b207e49-6602-4978-900d-fc4b9ef4c85b"},"vehicle_type_id":"4","last_reported":1778291889,"current_range_meters":5600,"station_id":"ce4bgt92rcd13ifvqcf0","pricing_plan_id":"cebpf4jnsgd1na2vs0mg"},{"bike_id":"621ef308-33a9-4a52-9e82-b4966d1a8f8d","system_id":"levelo_inurba_marseille","lat":43.28704,"lon":5.40027,"is_reserved":false,"is_disabled":true,"rental_uris":{"android":"levelo://app?vid=621ef308-33a9-4a52-9e82-b4966d1a8f8d","ios":"levelo://app?vid=621ef308-33a9-4a52-9e82-b4966d1a8f8d"},"vehicle_type_id":"4","last_reported":1778291889,"current_range_meters":5600,"station_id":"ce4bho92rcd13ifvqh3g","pricing_plan_id":"cebpf4jnsgd1na2vs0mg"},{"bike_id":"7d6e83f9-235f-4895-aea5-62b0c5201dff","system_id":"levelo_inurba_marseille","lat":43.29882,"lon":5.37481,"is_reserved":false,"is_disabled":false,"rental_uris":{"android":"levelo://app?vid=7d6e83f9-235f-4895-aea5-62b0c5201dff","ios":"levelo://app?vid=7d6e83f9-235f-4895-aea5-62b0c5201dff"},"vehicle_type_id":"4","last_reported":1778291889,"current_range_meters":5600,"station_id":"ce4bgjh2rcd13ifvqbg0","pricing_plan_id":"cebpf4jnsgd1na2vs0mg"},{"bike_id":"758c8ce9-535b-4800-93d7-846bd85146e6","system_id":"levelo_inurba_marseille","lat":43.24938,"lon":5.40496,"is_reserved":false,"is_disabled":false,"rental_uris":{"android":"levelo://app?vid=758c8ce9-535b-4800-93d7-846bd85146e6","ios":"levelo://app?vid=758c8ce9-535b-4800-93d7-846bd85146e6"},"vehicle_type_id":"4","last_reported":1778291889,"current_range_meters":5600,"station_id":"st_d2ngiaodas8pm72gd1h0","pricing_plan_id":"cebpf4jnsgd1na2vs0mg"},{"bike_id":"68029624-300c-479c-aa66-fe4719109569","system_id":"levelo_inurba_marseille","lat":43.29029,"lon":5.39973,"is_reserved":false,"is_disabled":false,"rental_uris":{"android":"levelo://app?vid=68029624-300c-479c-aa66-fe4719109569","ios":"levelo://app?vid=68029624-300c-479c-aa66-fe4719109569"},"vehicle_type_id":"4","last_reported":1778291889,"current_range_meters":5600,"station_id":"ce4bh392rcd13ifvqdm0","pricing_plan_id":"cebpf4jnsgd1na2vs0mg"},{"bike_id":"c81f80a9-bccf-42c4-90d3-496a1498aeb7","system_id":"levelo_inurba_marseille","lat":43.26024,"lon":5.37556,"is_reserved":false,"is_disabled":true,"rental_uris":{"android":"levelo://app?vid=c81f80a9-bccf-42c4-90d3-496a1498aeb7","ios":"levelo://app?vid=c81f80a9-bccf-42c4-90d3-496a1498aeb7"},"vehicle_type_id":"4","last_reported":1778291889,"current_range_meters":5600,"station_id":"ce4bhgh2rcd13ifvqfa0","pricing_plan_id":"cebpf4jnsgd1na2vs0mg"},{"bike_id":"8bd3ae88-471d-4238-9dfc-c1af1fca006a","system_id":"levelo_inurba_marseille","lat":43.2924,"lon":5.38448,"is_reserved":false,"is_disabled":true,"rental_uris":{"android":"levelo://app?vid=8bd3ae88-471d-4238-9dfc-c1af1fca006a","ios":"levelo://app?vid=8bd3ae88-471d-4238-9dfc-c1af1fca006a"},"vehicle_type_id":"4","last_reported":1778291889,"current_range_meters":5600,"station_id":"ce4bh692rcd13ifvqea0","pricing_plan_id":"cebpf4jnsgd1na2vs0mg"},{"bike_id":"4914e9ad-2671-4a20-a60d-4fb13fede2c7","system_id":"levelo_inurba_marseille","lat":43.26547,"lon":5.3728,"is_reserved":false,"is_disabled":false,"rental_uris":{"android":"levelo://app?vid=4914e9ad-2671-4a20-a60d-4fb13fede2c7","ios":"levelo://app?vid=4914e9ad-2671-4a20-a60d-4fb13fede2c7"},"vehicle_type_id":"4","last_reported":1778291889,"current_range_meters":6000,"station_id":"ce4bhg12rcd13ifvqf70","pricing_plan_id":"cebpf4jnsgd1na2vs0mg"},{"bike_id":"271e283d-2f8c-4648-a622-26b7eba777d8","system_id":"levelo_inurba_marseille","lat":43.24789,"lon":5.37472,"is_reserved":false,"is_disabled":false,"rental_uris":{"android":"levelo://app?vid=271e283d-2f8c-4648-a622-26b7eba777d8","ios":"levelo://app?vid=271e283d-2f8c-4648-a622-26b7eba777d8"},"vehicle_type_id":"4","last_reported":1778291889,"current_range_meters":6000,"station_id":"ce4bhgh2rcd13ifvqfb0","pricing_plan_id":"cebpf4jnsgd1na2vs0mg"},{"bike_id":"c8ac96d0-ef16-4c8c-a940-b886f6e1a598","system_id":"levelo_inurba_marseille","lat":43.29024,"lon":5.38645,"is_reserved":false,"is_disabled":false,"rental_uris":{"android":"levelo://app?vid=c8ac96d0-ef16-4c8c-a940-b886f6e1a598","ios":"levelo://app?vid=c8ac96d0-ef16-4c8c-a940-b886f6e1a598"},"vehicle_type_id":"4","last_reported":1778291889,"current_range_meters":6000,"station_id":"ce4bh4p2rcd13ifvqe0g","pricing_plan_id":"cebpf4jnsgd1na2vs0mg"},{"bike_id":"4b65741e-5ed9-4da8-8620-3a00f88659d6","system_id":"levelo_inurba_marseille","lat":43.28466,"lon":5.4841,"is_reserved":false,"is_disabled":false,"rental_uris":{"android":"levelo://app?vid=4b65741e-5ed9-4da8-8620-3a00f88659d6","ios":"levelo://app?vid=4b65741e-5ed9-4da8-8620-3a00f88659d6"},"vehicle_type_id":"4","last_reported":1778291889,"current_range_meters":6000,"station_id":"","pricing_plan_id":"cebpf4jnsgd1na2vs0mg"},{"bike_id":"37998d8c-8065-4b38-b75b-e58f03489059","system_id":"levelo_inurba_marseille","lat":43.29769,"lon":5.37129,"is_reserved":false,"is_disabled":true,"rental_uris":{"android":"levelo://app?vid=37998d8c-8065-4b38-b75b-e58f03489059","ios":"levelo://app?vid=37998d8c-8065-4b38-b75b-e58f03489059"},"vehicle_type_id":"4","last_reported":1778291889,"current_range_meters":6000,"station_id":"ce4bgop2rcd13ifvqc1g","pricing_plan_id":"cebpf4jnsgd1na2vs0mg"},{"bike_id":"a35ae0e4-76a9-41eb-9a5e-26ec5e80290c","system_id":"levelo_inurba_marseille","lat":43.28699,"lon":5.36104,"is_reserved":false,"is_disabled":true,"rental_uris":{"android":"levelo://app?vid=a35ae0e4-76a9-41eb-9a5e-26ec5e80290c","ios":"levelo://app?vid=a35ae0e4-76a9-41eb-9a5e-26ec5e80290c"},"vehicle_type_id":"4","last_reported":1778291889,"current_range_meters":6000,"station_id":"cki0cbj6b192h4jlfktg","pricing_plan_id":"cebpf4jnsgd1na2vs0mg"},{"bike_id":"287fafd1-d806-4b3f-a1f3-af43d40f3ef9","system_id":"levelo_inurba_marseille","lat":43.31487,"lon":5.37293,"is_reserved":false,"is_disabled":false,"rental_uris":{"android":"levelo://app?vid=287fafd1-d806-4b3f-a1f3-af43d40f3ef9","ios":"levelo://app?vid=287fafd1-d806-4b3f-a1f3-af43d40f3ef9"},"vehicle_type_id":"4","last_reported":1778291889,"current_range_meters":6000,"station_id":"ce4bgt12rcd13ifvqcd0","pricing_plan_id":"cebpf4jnsgd1na2vs0mg"},{"bike_id":"00f07616-d550-4224-bad4-4b031ab0edc8","system_id":"levelo_inurba_marseille","lat":43.24732,"lon":5.40096,"is_reserved":false,"is_disabled":false,"rental_uris":{"android":"levelo://app?vid=00f07616-d550-4224-bad4-4b031ab0edc8","ios":"levelo://app?vid=00f07616-d550-4224-bad4-4b031ab0edc8"},"vehicle_type_id":"4","last_reported":1778291889,"current_range_meters":6000,"station_id":"","pricing_plan_id":"cebpf4jnsgd1na2vs0mg"},{"bike_id":"3529ab88-c139-4f1b-9bd8-eff637a56844","system_id":"levelo_inurba_marseille","lat":43.25412,"lon":5.41489,"is_reserved":false,"is_disabled":false,"rental_uris":{"android":"levelo://app?vid=3529ab88-c139-4f1b-9bd8-eff637a56844","ios":"levelo://app?vid=3529ab88-c139-4f1b-9bd8-eff637a56844"},"vehicle_type_id":"4","last_reported":1778291889,"current_range_meters":6000,"station_id":"","pricing_plan_id":"cebpf4jnsgd1na2vs0mg"},{"bike_id":"4adab041-9f44-4793-9f5f-5a30aefef920","system_id":"levelo_inurba_marseille","lat":43.28621,"lon":5.3988,"is_reserved":false,"is_disabled":false,"rental_uris":{"android":"levelo://app?vid=4adab041-9f44-4793-9f5f-5a30aefef920","ios":"levelo://app?vid=4adab041-9f44-4793-9f5f-5a30aefef920"},"vehicle_type_id":"4","last_reported":1778291889,"current_range_meters":6000,"station_id":"st_d4a7ka997mjs738ck50g","pricing_plan_id":"cebpf4jnsgd1na2vs0mg"},{"bike_id":"98bef945-3165-4b80-9af1-9bac2a9ad948","system_id":"levelo_inurba_marseille","lat":43.24067,"lon":5.37752,"is_reserved":false,"is_disabled":false,"rental_uris":{"android":"levelo://app?vid=98bef945-3165-4b80-9af1-9bac2a9ad948","ios":"levelo://app?vid=98bef945-3165-4b80-9af1-9bac2a9ad948"},"vehicle_type_id":"4","last_reported":1778291889,"current_range_meters":6000,"station_id":"ce4bhnp2rcd13ifvqgvg","pricing_plan_id":"cebpf4jnsgd1na2vs0mg"},{"bike_id":"cbc65248-03cc-4144-a0cb-baf3e5a8f89e","system_id":"levelo_inurba_marseille","lat":43.2992,"lon":5.39745,"is_reserved":false,"is_disabled":false,"rental_uris":{"android":"levelo://app?vid=cbc65248-03cc-4144-a0cb-baf3e5a8f89e","ios":"levelo://app?vid=cbc65248-03cc-4144-a0cb-baf3e5a8f89e"},"vehicle_type_id":"4","last_reported":1778291889,"current_range_meters":6000,"station_id":"","pricing_plan_id":"cebpf4jnsgd1na2vs0mg"},{"bike_id":"f986817d-6392-43f8-9ac4-27c0873d810e","system_id":"levelo_inurba_marseille","lat":43.24794,"lon":5.37447,"is_reserved":false,"is_disabled":false,"rental_uris":{"android":"levelo://app?vid=f986817d-6392-43f8-9ac4-27c0873d810e","ios":"levelo://app?vid=f986817d-6392-43f8-9ac4-27c0873d810e"},"vehicle_type_id":"4","last_reported":1778291889,"current_range_meters":6400,"station_id":"ce4bhgh2rcd13ifvqfb0","pricing_plan_id":"cebpf4jnsgd1na2vs0mg"},{"bike_id":"e84a663b-feb3-4e68-ae50-be27e6b7d8af","system_id":"levelo_inurba_marseille","lat":43.29605,"lon":5.3808,"is_reserved":false,"is_disabled":false,"rental_uris":{"android":"levelo://app?vid=e84a663b-feb3-4e68-ae50-be27e6b7d8af","ios":"levelo://app?vid=e84a663b-feb3-4e68-ae50-be27e6b7d8af"},"vehicle_type_id":"4","last_reported":1778291889,"current_range_meters":6400,"station_id":"ce4bgl12rcd13ifvqbo0","pricing_plan_id":"cebpf4jnsgd1na2vs0mg"},{"bike_id":"6452db2c-1182-4afc-94bd-93e76ac56d68","system_id":"levelo_inurba_marseille","lat":43.27077,"lon":5.42293,"is_reserved":false,"is_disabled":false,"rental_uris":{"android":"levelo://app?vid=6452db2c-1182-4afc-94bd-93e76ac56d68","ios":"levelo://app?vid=6452db2c-1182-4afc-94bd-93e76ac56d68"},"vehicle_type_id":"4","last_reported":1778291889,"current_range_meters":6400,"station_id":"ce4bhk92rcd13ifvqgb0","pricing_plan_id":"cebpf4jnsgd1na2vs0mg"},{"bike_id":"894cda9e-9123-496e-85d4-3eb0f38b46f7","system_id":"levelo_inurba_marseille","lat":43.29891,"lon":5.39751,"is_reserved":false,"is_disabled":false,"rental_uris":{"android":"levelo://app?vid=894cda9e-9123-496e-85d4-3eb0f38b46f7","ios":"levelo://app?vid=894cda9e-9123-496e-85d4-3eb0f38b46f7"},"vehicle_type_id":"4","last_reported":1778291889,"current_range_meters":6400,"station_id":"ce4bh0h2rcd13ifvqd50","pricing_plan_id":"cebpf4jnsgd1na2vs0mg"},{"bike_id":"ce6d5dbc-0b80-4f3a-abfd-d46149cf65d1","system_id":"levelo_inurba_marseille","lat":43.2993,"lon":5.37474,"is_reserved":false,"is_disabled":false,"rental_uris":{"android":"levelo://app?vid=ce6d5dbc-0b80-4f3a-abfd-d46149cf65d1","ios":"levelo://app?vid=ce6d5dbc-0b80-4f3a-abfd-d46149cf65d1"},"vehicle_type_id":"4","last_reported":1778291889,"current_range_meters":6400,"station_id":"ce4bgjh2rcd13ifvqbg0","pricing_plan_id":"cebpf4jnsgd1na2vs0mg"},{"bike_id":"8eea14e8-81f9-450a-9f42-646e56a018e2","system_id":"levelo_inurba_marseille","lat":43.28858,"lon":5.42547,"is_reserved":false,"is_disabled":true,"rental_uris":{"android":"levelo://app?vid=8eea14e8-81f9-450a-9f42-646e56a018e2","ios":"levelo://app?vid=8eea14e8-81f9-450a-9f42-646e56a018e2"},"vehicle_type_id":"4","last_reported":1778291889,"current_range_meters":6400,"station_id":"st_d3b462108ojc7389ooeg","pricing_plan_id":"cebpf4jnsgd1na2vs0mg"},{"bike_id":"415142c7-f50e-411e-adf6-f39700e22f6d","system_id":"levelo_inurba_marseille","lat":43.32664,"lon":5.35511,"is_reserved":false,"is_disabled":false,"rental_uris":{"android":"levelo://app?vid=415142c7-f50e-411e-adf6-f39700e22f6d","ios":"levelo://app?vid=415142c7-f50e-411e-adf6-f39700e22f6d"},"vehicle_type_id":"4","last_reported":1778291889,"current_range_meters":6400,"station_id":"","pricing_plan_id":"cebpf4jnsgd1na2vs0mg"},{"bike_id":"5b17b337-4e55-486b-b310-212b10614e57","system_id":"levelo_inurba_marseille","lat":43.32336,"lon":5.36721,"is_reserved":false,"is_disabled":false,"rental_uris":{"android":"levelo://app?vid=5b17b337-4e55-486b-b310-212b10614e57","ios":"levelo://app?vid=5b17b337-4e55-486b-b310-212b10614e57"},"vehicle_type_id":"4","last_reported":1778291889,"current_range_meters":6400,"station_id":"ce4bhsh2rcd13ifvqi2g","pricing_plan_id":"cebpf4jnsgd1na2vs0mg"},{"bike_id":"a933bc52-a89e-4daa-86a9-13b9ff856b18","system_id":"levelo_inurba_marseille","lat":43.28572,"lon":5.39512,"is_reserved":false,"is_disabled":false,"rental_uris":{"android":"levelo://app?vid=a933bc52-a89e-4daa-86a9-13b9ff856b18","ios":"levelo://app?vid=a933bc52-a89e-4daa-86a9-13b9ff856b18"},"vehicle_type_id":"4","last_reported":1778291889,"current_range_meters":6400,"station_id":"ce4bh292rcd13ifvqdg0","pricing_plan_id":"cebpf4jnsgd1na2vs0mg"},{"bike_id":"c1a97594-c328-414c-a4af-a7778a5a6311","system_id":"levelo_inurba_marseille","lat":43.2734,"lon":5.39095,"is_reserved":false,"is_disabled":false,"rental_uris":{"android":"levelo://app?vid=c1a97594-c328-414c-a4af-a7778a5a6311","ios":"levelo://app?vid=c1a97594-c328-414c-a4af-a7778a5a6311"},"vehicle_type_id":"4","last_reported":1778291889,"current_range_meters":6400,"station_id":"ce4bhgp2rcd13ifvqfe0","pricing_plan_id":"cebpf4jnsgd1na2vs0mg"},{"bike_id":"a1519436-19c1-429e-984e-3339bca9e7af","system_id":"levelo_inurba_marseille","lat":43.29028,"lon":5.38639,"is_reserved":false,"is_disabled":false,"rental_uris":{"android":"levelo://app?vid=a1519436-19c1-429e-984e-3339bca9e7af","ios":"levelo://app?vid=a1519436-19c1-429e-984e-3339bca9e7af"},"vehicle_type_id":"4","last_reported":1778291889,"current_range_meters":6400,"station_id":"ce4bh4p2rcd13ifvqe0g","pricing_plan_id":"cebpf4jnsgd1na2vs0mg"},{"bike_id":"2eff6c3c-b3c7-4f79-9177-294eb1d510e0","system_id":"levelo_inurba_marseille","lat":43.21224,"lon":5.34985,"is_reserved":false,"is_disabled":false,"rental_uris":{"android":"levelo://app?vid=2eff6c3c-b3c7-4f79-9177-294eb1d510e0","ios":"levelo://app?vid=2eff6c3c-b3c7-4f79-9177-294eb1d510e0"},"vehicle_type_id":"4","last_reported":1778291889,"current_range_meters":6400,"station_id":"","pricing_plan_id":"cebpf4jnsgd1na2vs0mg"},{"bike_id":"feecb4be-b14f-4f21-b0cd-b401783be40f","system_id":"levelo_inurba_marseille","lat":43.2794,"lon":5.41054,"is_reserved":false,"is_disabled":false,"rental_uris":{"android":"levelo://app?vid=feecb4be-b14f-4f21-b0cd-b401783be40f","ios":"levelo://app?vid=feecb4be-b14f-4f21-b0cd-b401783be40f"},"vehicle_type_id":"4","last_reported":1778291889,"current_range_meters":6400,"station_id":"ce4bhnp2rcd13ifvqh0g","pricing_plan_id":"cebpf4jnsgd1na2vs0mg"},{"bike_id":"338578b3-d500-4475-89bc-43f6d832f4c5","system_id":"levelo_inurba_marseille","lat":43.248064,"lon":5.374581,"is_reserved":false,"is_disabled":false,"rental_uris":{"android":"levelo://app?vid=338578b3-d500-4475-89bc-43f6d832f4c5","ios":"levelo://app?vid=338578b3-d500-4475-89bc-43f6d832f4c5"},"vehicle_type_id":"4","last_reported":1778291889,"current_range_meters":6800,"station_id":"ce4bhgh2rcd13ifvqfb0","pricing_plan_id":"cebpf4jnsgd1na2vs0mg"},{"bike_id":"05ea95a4-cd67-4fc1-a218-6926df79c21d","system_id":"levelo_inurba_marseille","lat":43.31074,"lon":5.37818,"is_reserved":false,"is_disabled":false,"rental_uris":{"android":"levelo://app?vid=05ea95a4-cd67-4fc1-a218-6926df79c21d","ios":"levelo://app?vid=05ea95a4-cd67-4fc1-a218-6926df79c21d"},"vehicle_type_id":"4","last_reported":1778291889,"current_range_meters":6800,"station_id":"","pricing_plan_id":"cebpf4jnsgd1na2vs0mg"},{"bike_id":"7c56137a-05b5-47d0-b192-873a2f490371","system_id":"levelo_inurba_marseille","lat":43.24399,"lon":5.37051,"is_reserved":false,"is_disabled":false,"rental_uris":{"android":"levelo://app?vid=7c56137a-05b5-47d0-b192-873a2f490371","ios":"levelo://app?vid=7c56137a-05b5-47d0-b192-873a2f490371"},"vehicle_type_id":"4","last_reported":1778291889,"current_range_meters":6800,"station_id":"ce4bhhh2rcd13ifvqfk0","pricing_plan_id":"cebpf4jnsgd1na2vs0mg"},{"bike_id":"82f907ec-863d-443b-9a33-e018df21131b","system_id":"levelo_inurba_marseille","lat":43.27958,"lon":5.38684,"is_reserved":false,"is_disabled":false,"rental_uris":{"android":"levelo://app?vid=82f907ec-863d-443b-9a33-e018df21131b","ios":"levelo://app?vid=82f907ec-863d-443b-9a33-e018df21131b"},"vehicle_type_id":"4","last_reported":1778291889,"current_range_meters":6800,"station_id":"ce4bhg12rcd13ifvqf80","pricing_plan_id":"cebpf4jnsgd1na2vs0mg"},{"bike_id":"025be5e0-0c74-454f-99f9-781faca9cdbe","system_id":"levelo_inurba_marseille","lat":43.29797,"lon":5.3811,"is_reserved":false,"is_disabled":true,"rental_uris":{"android":"levelo://app?vid=025be5e0-0c74-454f-99f9-781faca9cdbe","ios":"levelo://app?vid=025be5e0-0c74-454f-99f9-781faca9cdbe"},"vehicle_type_id":"4","last_reported":1778291889,"current_range_meters":6800,"station_id":"ce4bgip2rcd13ifvqbb0","pricing_plan_id":"cebpf4jnsgd1na2vs0mg"},{"bike_id":"7b416787-800a-4e18-b782-4ef145ce6930","system_id":"levelo_inurba_marseille","lat":43.27918,"lon":5.38689,"is_reserved":false,"is_disabled":false,"rental_uris":{"android":"levelo://app?vid=7b416787-800a-4e18-b782-4ef145ce6930","ios":"levelo://app?vid=7b416787-800a-4e18-b782-4ef145ce6930"},"vehicle_type_id":"4","last_reported":1778291889,"current_range_meters":6800,"station_id":"","pricing_plan_id":"cebpf4jnsgd1na2vs0mg"},{"bike_id":"c081e2e6-b6d3-466f-b56c-4844cab8d639","system_id":"levelo_inurba_marseille","lat":43.23793,"lon":5.41468,"is_reserved":false,"is_disabled":false,"rental_uris":{"android":"levelo://app?vid=c081e2e6-b6d3-466f-b56c-4844cab8d639","ios":"levelo://app?vid=c081e2e6-b6d3-466f-b56c-4844cab8d639"},"vehicle_type_id":"4","last_reported":1778291889,"current_range_meters":6800,"station_id":"","pricing_plan_id":"cebpf4jnsgd1na2vs0mg"},{"bike_id":"6052b460-2ae9-4384-970a-feb21203acee","system_id":"levelo_inurba_marseille","lat":43.29928,"lon":5.37465,"is_reserved":false,"is_disabled":false,"rental_uris":{"android":"levelo://app?vid=6052b460-2ae9-4384-970a-feb21203acee","ios":"levelo://app?vid=6052b460-2ae9-4384-970a-feb21203acee"},"vehicle_type_id":"4","last_reported":1778291889,"current_range_meters":6800,"station_id":"ce4bgjh2rcd13ifvqbg0","pricing_plan_id":"cebpf4jnsgd1na2vs0mg"},{"bike_id":"9f135140-bc51-471a-99ba-2c149cd74964","system_id":"levelo_inurba_marseille","lat":43.22563,"lon":5.41643,"is_reserved":false,"is_disabled":false,"rental_uris":{"android":"levelo://app?vid=9f135140-bc51-471a-99ba-2c149cd74964","ios":"levelo://app?vid=9f135140-bc51-471a-99ba-2c149cd74964"},"vehicle_type_id":"4","last_reported":1778291889,"current_range_meters":6800,"station_id":"st_d2o4gvlbi1j2169b742g","pricing_plan_id":"cebpf4jnsgd1na2vs0mg"},{"bike_id":"9091060c-4cba-4c31-9803-bad920e5f577","system_id":"levelo_inurba_marseille","lat":43.29875,"lon":5.3895,"is_reserved":false,"is_disabled":true,"rental_uris":{"android":"levelo://app?vid=9091060c-4cba-4c31-9803-bad920e5f577","ios":"levelo://app?vid=9091060c-4cba-4c31-9803-bad920e5f577"},"vehicle_type_id":"4","last_reported":1778291889,"current_range_meters":6800,"station_id":"ce4bh392rcd13ifvqdl0","pricing_plan_id":"cebpf4jnsgd1na2vs0mg"},{"bike_id":"fa833790-fea7-4b87-ab01-22a9071ab066","system_id":"levelo_inurba_marseille","lat":43.28461,"lon":5.48408,"is_reserved":false,"is_disabled":false,"rental_uris":{"android":"levelo://app?vid=fa833790-fea7-4b87-ab01-22a9071ab066","ios":"levelo://app?vid=fa833790-fea7-4b87-ab01-22a9071ab066"},"vehicle_type_id":"4","last_reported":1778291889,"current_range_meters":6800,"station_id":"st_d3svhcjqgbts73a3dn0g","pricing_plan_id":"cebpf4jnsgd1na2vs0mg"},{"bike_id":"95489a07-b280-4aea-935b-70fc8cc33653","system_id":"levelo_inurba_marseille","lat":43.21748,"lon":5.34614,"is_reserved":false,"is_disabled":true,"rental_uris":{"android":"levelo://app?vid=95489a07-b280-4aea-935b-70fc8cc33653","ios":"levelo://app?vid=95489a07-b280-4aea-935b-70fc8cc33653"},"vehicle_type_id":"4","last_reported":1778291889,"current_range_meters":6800,"station_id":"st_cvj6r9ubvosntc0bgbag","pricing_plan_id":"cebpf4jnsgd1na2vs0mg"},{"bike_id":"5fc85a70-cd51-491b-a363-a46b0850da15","system_id":"levelo_inurba_marseille","lat":43.32912,"lon":5.36729,"is_reserved":false,"is_disabled":false,"rental_uris":{"android":"levelo://app?vid=5fc85a70-cd51-491b-a363-a46b0850da15","ios":"levelo://app?vid=5fc85a70-cd51-491b-a363-a46b0850da15"},"vehicle_type_id":"4","last_reported":1778291889,"current_range_meters":6800,"station_id":"","pricing_plan_id":"cebpf4jnsgd1na2vs0mg"},{"bike_id":"0259c7f9-4a67-468b-967d-555f1f780b18","system_id":"levelo_inurba_marseille","lat":43.24684,"lon":5.38142,"is_reserved":false,"is_disabled":false,"rental_uris":{"android":"levelo://app?vid=0259c7f9-4a67-468b-967d-555f1f780b18","ios":"levelo://app?vid=0259c7f9-4a67-468b-967d-555f1f780b18"},"vehicle_type_id":"4","last_reported":1778291889,"current_range_meters":6800,"station_id":"ce4bhih2rcd13ifvqfr0","pricing_plan_id":"cebpf4jnsgd1na2vs0mg"},{"bike_id":"13b1bcc7-e9d8-48b8-a72f-6d1f9d17e51d","system_id":"levelo_inurba_marseille","lat":43.24924,"lon":5.38971,"is_reserved":false,"is_disabled":false,"rental_uris":{"android":"levelo://app?vid=13b1bcc7-e9d8-48b8-a72f-6d1f9d17e51d","ios":"levelo://app?vid=13b1bcc7-e9d8-48b8-a72f-6d1f9d17e51d"},"vehicle_type_id":"4","last_reported":1778291889,"current_range_meters":6800,"station_id":"","pricing_plan_id":"cebpf4jnsgd1na2vs0mg"},{"bike_id":"c0537e4f-b6e6-4613-829c-d3ab2e31740e","system_id":"levelo_inurba_marseille","lat":43.27069,"lon":5.42278,"is_reserved":false,"is_disabled":false,"rental_uris":{"android":"levelo://app?vid=c0537e4f-b6e6-4613-829c-d3ab2e31740e","ios":"levelo://app?vid=c0537e4f-b6e6-4613-829c-d3ab2e31740e"},"vehicle_type_id":"4","last_reported":1778291889,"current_range_meters":6800,"station_id":"ce4bhk92rcd13ifvqgb0","pricing_plan_id":"cebpf4jnsgd1na2vs0mg"},{"bike_id":"c98331c2-38ef-4684-ad8e-ccd8810effee","system_id":"levelo_inurba_marseille","lat":43.31125,"lon":5.37808,"is_reserved":false,"is_disabled":false,"rental_uris":{"android":"levelo://app?vid=c98331c2-38ef-4684-ad8e-ccd8810effee","ios":"levelo://app?vid=c98331c2-38ef-4684-ad8e-ccd8810effee"},"vehicle_type_id":"4","last_reported":1778291889,"current_range_meters":6800,"station_id":"ce4bgt92rcd13ifvqcg0","pricing_plan_id":"cebpf4jnsgd1na2vs0mg"},{"bike_id":"ddd754b5-e4d7-4aea-80de-a30ed6a67b1f","system_id":"levelo_inurba_marseille","lat":43.29786,"lon":5.39371,"is_reserved":false,"is_disabled":false,"rental_uris":{"android":"levelo://app?vid=ddd754b5-e4d7-4aea-80de-a30ed6a67b1f","ios":"levelo://app?vid=ddd754b5-e4d7-4aea-80de-a30ed6a67b1f"},"vehicle_type_id":"4","last_reported":1778291889,"current_range_meters":6800,"station_id":"chh1huq6cuj3fo74tm60","pricing_plan_id":"cebpf4jnsgd1na2vs0mg"},{"bike_id":"8cd9cdae-ca50-4160-9401-a463368603f2","system_id":"levelo_inurba_marseille","lat":43.31377,"lon":5.39685,"is_reserved":false,"is_disabled":false,"rental_uris":{"android":"levelo://app?vid=8cd9cdae-ca50-4160-9401-a463368603f2","ios":"levelo://app?vid=8cd9cdae-ca50-4160-9401-a463368603f2"},"vehicle_type_id":"4","last_reported":1778291889,"current_range_meters":6800,"station_id":"","pricing_plan_id":"cebpf4jnsgd1na2vs0mg"},{"bike_id":"f1341701-ce72-4914-bad3-31e4950fc2b5","system_id":"levelo_inurba_marseille","lat":43.29027,"lon":5.38142,"is_reserved":false,"is_disabled":true,"rental_uris":{"android":"levelo://app?vid=f1341701-ce72-4914-bad3-31e4950fc2b5","ios":"levelo://app?vid=f1341701-ce72-4914-bad3-31e4950fc2b5"},"vehicle_type_id":"4","last_reported":1778291889,"current_range_meters":6800,"station_id":"ce4bh4p2rcd13ifvqe1g","pricing_plan_id":"cebpf4jnsgd1na2vs0mg"},{"bike_id":"0bc66aaf-5baf-4527-9d78-345db4e62b37","system_id":"levelo_inurba_marseille","lat":43.27494,"lon":5.41618,"is_reserved":false,"is_disabled":false,"rental_uris":{"android":"levelo://app?vid=0bc66aaf-5baf-4527-9d78-345db4e62b37","ios":"levelo://app?vid=0bc66aaf-5baf-4527-9d78-345db4e62b37"},"vehicle_type_id":"4","last_reported":1778291889,"current_range_meters":6800,"station_id":"st_d6im8g6chgec73a5pndg","pricing_plan_id":"cebpf4jnsgd1na2vs0mg"},{"bike_id":"48a3f40b-b41c-45ee-82b8-00b871da13dc","system_id":"levelo_inurba_marseille","lat":43.26549,"lon":5.40358,"is_reserved":false,"is_disabled":false,"rental_uris":{"android":"levelo://app?vid=48a3f40b-b41c-45ee-82b8-00b871da13dc","ios":"levelo://app?vid=48a3f40b-b41c-45ee-82b8-00b871da13dc"},"vehicle_type_id":"4","last_reported":1778291889,"current_range_meters":7200,"station_id":"ce4bhmp2rcd13ifvqgng","pricing_plan_id":"cebpf4jnsgd1na2vs0mg"},{"bike_id":"ba1a84df-99bc-4f91-b102-9b8b01f50ffc","system_id":"levelo_inurba_marseille","lat":43.31897,"lon":5.36813,"is_reserved":false,"is_disabled":false,"rental_uris":{"android":"levelo://app?vid=ba1a84df-99bc-4f91-b102-9b8b01f50ffc","ios":"levelo://app?vid=ba1a84df-99bc-4f91-b102-9b8b01f50ffc"},"vehicle_type_id":"4","last_reported":1778291889,"current_range_meters":7200,"station_id":"st_d6o2h0d0559c73evc1b0","pricing_plan_id":"cebpf4jnsgd1na2vs0mg"},{"bike_id":"6fe4ba82-0048-4e70-941c-4452870ef26d","system_id":"levelo_inurba_marseille","lat":43.24794,"lon":5.37471,"is_reserved":false,"is_disabled":false,"rental_uris":{"android":"levelo://app?vid=6fe4ba82-0048-4e70-941c-4452870ef26d","ios":"levelo://app?vid=6fe4ba82-0048-4e70-941c-4452870ef26d"},"vehicle_type_id":"4","last_reported":1778291889,"current_range_meters":7200,"station_id":"ce4bhgh2rcd13ifvqfb0","pricing_plan_id":"cebpf4jnsgd1na2vs0mg"},{"bike_id":"240f83cd-e330-45fb-9f58-4a13270cfff0","system_id":"levelo_inurba_marseille","lat":43.28141,"lon":5.42638,"is_reserved":false,"is_disabled":false,"rental_uris":{"android":"levelo://app?vid=240f83cd-e330-45fb-9f58-4a13270cfff0","ios":"levelo://app?vid=240f83cd-e330-45fb-9f58-4a13270cfff0"},"vehicle_type_id":"4","last_reported":1778291889,"current_range_meters":7200,"station_id":"ce4bhnh2rcd13ifvqgug","pricing_plan_id":"cebpf4jnsgd1na2vs0mg"},{"bike_id":"09f03c71-3135-488b-aa1b-16f1834011a9","system_id":"levelo_inurba_marseille","lat":43.29198,"lon":5.35677,"is_reserved":false,"is_disabled":false,"rental_uris":{"android":"levelo://app?vid=09f03c71-3135-488b-aa1b-16f1834011a9","ios":"levelo://app?vid=09f03c71-3135-488b-aa1b-16f1834011a9"},"vehicle_type_id":"4","last_reported":1778291889,"current_range_meters":7200,"station_id":"","pricing_plan_id":"cebpf4jnsgd1na2vs0mg"},{"bike_id":"f03e9416-653d-45fd-aba7-c2ee459eb1bb","system_id":"levelo_inurba_marseille","lat":43.33522,"lon":5.37459,"is_reserved":false,"is_disabled":false,"rental_uris":{"android":"levelo://app?vid=f03e9416-653d-45fd-aba7-c2ee459eb1bb","ios":"levelo://app?vid=f03e9416-653d-45fd-aba7-c2ee459eb1bb"},"vehicle_type_id":"4","last_reported":1778291889,"current_range_meters":7200,"station_id":"st_d46tts09ee8s73dlu43g","pricing_plan_id":"cebpf4jnsgd1na2vs0mg"},{"bike_id":"fe719e21-ec18-4bb4-81a4-fa2c0ee31e9b","system_id":"levelo_inurba_marseille","lat":43.30787,"lon":5.38159,"is_reserved":false,"is_disabled":false,"rental_uris":{"android":"levelo://app?vid=fe719e21-ec18-4bb4-81a4-fa2c0ee31e9b","ios":"levelo://app?vid=fe719e21-ec18-4bb4-81a4-fa2c0ee31e9b"},"vehicle_type_id":"4","last_reported":1778291889,"current_range_meters":7200,"station_id":"ce4bgt12rcd13ifvqce0","pricing_plan_id":"cebpf4jnsgd1na2vs0mg"},{"bike_id":"c61964c8-c89c-477d-b76c-a022d4861077","system_id":"levelo_inurba_marseille","lat":43.30989,"lon":5.40148,"is_reserved":false,"is_disabled":false,"rental_uris":{"android":"levelo://app?vid=c61964c8-c89c-477d-b76c-a022d4861077","ios":"levelo://app?vid=c61964c8-c89c-477d-b76c-a022d4861077"},"vehicle_type_id":"4","last_reported":1778291889,"current_range_meters":7200,"station_id":"","pricing_plan_id":"cebpf4jnsgd1na2vs0mg"},{"bike_id":"c90e6cae-dbe6-402b-9a31-659b3311ab55","system_id":"levelo_inurba_marseille","lat":43.28097,"lon":5.37866,"is_reserved":false,"is_disabled":false,"rental_uris":{"android":"levelo://app?vid=c90e6cae-dbe6-402b-9a31-659b3311ab55","ios":"levelo://app?vid=c90e6cae-dbe6-402b-9a31-659b3311ab55"},"vehicle_type_id":"4","last_reported":1778291889,"current_range_meters":7200,"station_id":"ce4bha12rcd13ifvqee0","pricing_plan_id":"cebpf4jnsgd1na2vs0mg"},{"bike_id":"f860bad2-5a34-4764-88dc-0617442994f5","system_id":"levelo_inurba_marseille","lat":43.33597,"lon":5.41041,"is_reserved":false,"is_disabled":false,"rental_uris":{"android":"levelo://app?vid=f860bad2-5a34-4764-88dc-0617442994f5","ios":"levelo://app?vid=f860bad2-5a34-4764-88dc-0617442994f5"},"vehicle_type_id":"4","last_reported":1778291889,"current_range_meters":7200,"station_id":"ce4bhqh2rcd13ifvqhmg","pricing_plan_id":"cebpf4jnsgd1na2vs0mg"},{"bike_id":"9d19633a-09dc-421b-9646-d96c48669e07","system_id":"levelo_inurba_marseille","lat":43.24175,"lon":5.39737,"is_reserved":false,"is_disabled":false,"rental_uris":{"android":"levelo://app?vid=9d19633a-09dc-421b-9646-d96c48669e07","ios":"levelo://app?vid=9d19633a-09dc-421b-9646-d96c48669e07"},"vehicle_type_id":"4","last_reported":1778291889,"current_range_meters":7200,"station_id":"ce4bhn12rcd13ifvqgpg","pricing_plan_id":"cebpf4jnsgd1na2vs0mg"},{"bike_id":"065d1e12-869d-43d0-9b86-a36f20e2540f","system_id":"levelo_inurba_marseille","lat":43.31717,"lon":5.40487,"is_reserved":false,"is_disabled":false,"rental_uris":{"android":"levelo://app?vid=065d1e12-869d-43d0-9b86-a36f20e2540f","ios":"levelo://app?vid=065d1e12-869d-43d0-9b86-a36f20e2540f"},"vehicle_type_id":"4","last_reported":1778291889,"current_range_meters":7200,"station_id":"ce4bh012rcd13ifvqd00","pricing_plan_id":"cebpf4jnsgd1na2vs0mg"},{"bike_id":"c1b768b5-78ad-4562-8b11-acf628f13106","system_id":"levelo_inurba_marseille","lat":43.27994,"lon":5.44242,"is_reserved":false,"is_disabled":false,"rental_uris":{"android":"levelo://app?vid=c1b768b5-78ad-4562-8b11-acf628f13106","ios":"levelo://app?vid=c1b768b5-78ad-4562-8b11-acf628f13106"},"vehicle_type_id":"4","last_reported":1778291889,"current_range_meters":7200,"station_id":"","pricing_plan_id":"cebpf4jnsgd1na2vs0mg"},{"bike_id":"ae74d419-5446-4526-9f90-f5d9bdddc612","system_id":"levelo_inurba_marseille","lat":43.30307,"lon":5.39229,"is_reserved":false,"is_disabled":false,"rental_uris":{"android":"levelo://app?vid=ae74d419-5446-4526-9f90-f5d9bdddc612","ios":"levelo://app?vid=ae74d419-5446-4526-9f90-f5d9bdddc612"},"vehicle_type_id":"4","last_reported":1778291889,"current_range_meters":7200,"station_id":"ce4bgkh2rcd13ifvqbk0","pricing_plan_id":"cebpf4jnsgd1na2vs0mg"},{"bike_id":"4ee78646-fefd-4446-9cad-30077bd1d04f","system_id":"levelo_inurba_marseille","lat":43.30247,"lon":5.40042,"is_reserved":false,"is_disabled":true,"rental_uris":{"android":"levelo://app?vid=4ee78646-fefd-4446-9cad-30077bd1d04f","ios":"levelo://app?vid=4ee78646-fefd-4446-9cad-30077bd1d04f"},"vehicle_type_id":"4","last_reported":1778291889,"current_range_meters":7200,"station_id":"ce4bgvh2rcd13ifvqcs0","pricing_plan_id":"cebpf4jnsgd1na2vs0mg"},{"bike_id":"bdd7e5e6-a507-4b27-9760-4ad4469a7c6c","system_id":"levelo_inurba_marseille","lat":43.299253,"lon":5.374698,"is_reserved":false,"is_disabled":false,"rental_uris":{"android":"levelo://app?vid=bdd7e5e6-a507-4b27-9760-4ad4469a7c6c","ios":"levelo://app?vid=bdd7e5e6-a507-4b27-9760-4ad4469a7c6c"},"vehicle_type_id":"4","last_reported":1778291889,"current_range_meters":7200,"station_id":"ce4bgjh2rcd13ifvqbg0","pricing_plan_id":"cebpf4jnsgd1na2vs0mg"},{"bike_id":"e8461b56-9af7-4d44-a288-92e063783260","system_id":"levelo_inurba_marseille","lat":43.26216,"lon":5.40458,"is_reserved":false,"is_disabled":false,"rental_uris":{"android":"levelo://app?vid=e8461b56-9af7-4d44-a288-92e063783260","ios":"levelo://app?vid=e8461b56-9af7-4d44-a288-92e063783260"},"vehicle_type_id":"4","last_reported":1778291889,"current_range_meters":7200,"station_id":"ce4bhmh2rcd13ifvqgmg","pricing_plan_id":"cebpf4jnsgd1na2vs0mg"},{"bike_id":"bfb0916e-2b00-499b-8dce-6828f49a497a","system_id":"levelo_inurba_marseille","lat":43.25065,"lon":5.39514,"is_reserved":false,"is_disabled":false,"rental_uris":{"android":"levelo://app?vid=bfb0916e-2b00-499b-8dce-6828f49a497a","ios":"levelo://app?vid=bfb0916e-2b00-499b-8dce-6828f49a497a"},"vehicle_type_id":"4","last_reported":1778291889,"current_range_meters":7200,"station_id":"ce4bhm12rcd13ifvqgkg","pricing_plan_id":"cebpf4jnsgd1na2vs0mg"},{"bike_id":"e8b1e16d-8120-4289-bd8d-f5e10e7fd582","system_id":"levelo_inurba_marseille","lat":43.30927,"lon":5.4018,"is_reserved":false,"is_disabled":false,"rental_uris":{"android":"levelo://app?vid=e8b1e16d-8120-4289-bd8d-f5e10e7fd582","ios":"levelo://app?vid=e8b1e16d-8120-4289-bd8d-f5e10e7fd582"},"vehicle_type_id":"4","last_reported":1778291889,"current_range_meters":7200,"station_id":"ce4bgvp2rcd13ifvqct0","pricing_plan_id":"cebpf4jnsgd1na2vs0mg"},{"bike_id":"12633ac5-c16f-4db3-80b2-9ed2ef625bfd","system_id":"levelo_inurba_marseille","lat":43.29035,"lon":5.39963,"is_reserved":false,"is_disabled":false,"rental_uris":{"android":"levelo://app?vid=12633ac5-c16f-4db3-80b2-9ed2ef625bfd","ios":"levelo://app?vid=12633ac5-c16f-4db3-80b2-9ed2ef625bfd"},"vehicle_type_id":"4","last_reported":1778291889,"current_range_meters":7200,"station_id":"ce4bh392rcd13ifvqdm0","pricing_plan_id":"cebpf4jnsgd1na2vs0mg"},{"bike_id":"a2255690-14bf-4d7c-b2f6-ffd493bfffd8","system_id":"levelo_inurba_marseille","lat":43.24161,"lon":5.36397,"is_reserved":false,"is_disabled":false,"rental_uris":{"android":"levelo://app?vid=a2255690-14bf-4d7c-b2f6-ffd493bfffd8","ios":"levelo://app?vid=a2255690-14bf-4d7c-b2f6-ffd493bfffd8"},"vehicle_type_id":"4","last_reported":1778291889,"current_range_meters":8000,"station_id":"cpo36qri1sfpv3e86is0","pricing_plan_id":"cebpf4jnsgd1na2vs0mg"},{"bike_id":"eee51eae-5aaa-4a90-b6bb-0ee2250819e2","system_id":"levelo_inurba_marseille","lat":43.2789,"lon":5.38726,"is_reserved":false,"is_disabled":false,"rental_uris":{"android":"levelo://app?vid=eee51eae-5aaa-4a90-b6bb-0ee2250819e2","ios":"levelo://app?vid=eee51eae-5aaa-4a90-b6bb-0ee2250819e2"},"vehicle_type_id":"4","last_reported":1778291889,"current_range_meters":8000,"station_id":"","pricing_plan_id":"cebpf4jnsgd1na2vs0mg"},{"bike_id":"36bf5966-883a-4820-975e-e8801ce08727","system_id":"levelo_inurba_marseille","lat":43.29317,"lon":5.37143,"is_reserved":false,"is_disabled":false,"rental_uris":{"android":"levelo://app?vid=36bf5966-883a-4820-975e-e8801ce08727","ios":"levelo://app?vid=36bf5966-883a-4820-975e-e8801ce08727"},"vehicle_type_id":"4","last_reported":1778291889,"current_range_meters":8000,"station_id":"ce4bgh92rcd13ifvqb40","pricing_plan_id":"cebpf4jnsgd1na2vs0mg"},{"bike_id":"b100fa5d-3b77-461d-916a-54106b277431","system_id":"levelo_inurba_marseille","lat":43.29184,"lon":5.39274,"is_reserved":false,"is_disabled":false,"rental_uris":{"android":"levelo://app?vid=b100fa5d-3b77-461d-916a-54106b277431","ios":"levelo://app?vid=b100fa5d-3b77-461d-916a-54106b277431"},"vehicle_type_id":"4","last_reported":1778291889,"current_range_meters":8000,"station_id":"ce4bh192rcd13ifvqdd0","pricing_plan_id":"cebpf4jnsgd1na2vs0mg"},{"bike_id":"8fdbe986-716a-4dce-a50d-3af695e9688c","system_id":"levelo_inurba_marseille","lat":43.33529,"lon":5.37465,"is_reserved":false,"is_disabled":false,"rental_uris":{"android":"levelo://app?vid=8fdbe986-716a-4dce-a50d-3af695e9688c","ios":"levelo://app?vid=8fdbe986-716a-4dce-a50d-3af695e9688c"},"vehicle_type_id":"4","last_reported":1778291889,"current_range_meters":8000,"station_id":"st_d46tts09ee8s73dlu43g","pricing_plan_id":"cebpf4jnsgd1na2vs0mg"},{"bike_id":"1a8c1511-a5c4-4f88-9446-0c157bdbb297","system_id":"levelo_inurba_marseille","lat":43.30608,"lon":5.37157,"is_reserved":false,"is_disabled":false,"rental_uris":{"android":"levelo://app?vid=1a8c1511-a5c4-4f88-9446-0c157bdbb297","ios":"levelo://app?vid=1a8c1511-a5c4-4f88-9446-0c157bdbb297"},"vehicle_type_id":"4","last_reported":1778291889,"current_range_meters":8000,"station_id":"","pricing_plan_id":"cebpf4jnsgd1na2vs0mg"},{"bike_id":"e9603e54-ff6b-4fae-9e9b-b17dd395cbe4","system_id":"levelo_inurba_marseille","lat":43.26344,"lon":5.3994,"is_reserved":false,"is_disabled":false,"rental_uris":{"android":"levelo://app?vid=e9603e54-ff6b-4fae-9e9b-b17dd395cbe4","ios":"levelo://app?vid=e9603e54-ff6b-4fae-9e9b-b17dd395cbe4"},"vehicle_type_id":"4","last_reported":1778291889,"current_range_meters":8000,"station_id":"","pricing_plan_id":"cebpf4jnsgd1na2vs0mg"},{"bike_id":"6c3d5351-2208-48c2-96be-574f565340dd","system_id":"levelo_inurba_marseille","lat":43.28982,"lon":5.37857,"is_reserved":false,"is_disabled":true,"rental_uris":{"android":"levelo://app?vid=6c3d5351-2208-48c2-96be-574f565340dd","ios":"levelo://app?vid=6c3d5351-2208-48c2-96be-574f565340dd"},"vehicle_type_id":"4","last_reported":1778291889,"current_range_meters":8000,"station_id":"ce4bh9p2rcd13ifvqed0","pricing_plan_id":"cebpf4jnsgd1na2vs0mg"},{"bike_id":"55eae868-1b1d-4225-9916-dd72feb22dd0","system_id":"levelo_inurba_marseille","lat":43.3042,"lon":5.42432,"is_reserved":false,"is_disabled":false,"rental_uris":{"android":"levelo://app?vid=55eae868-1b1d-4225-9916-dd72feb22dd0","ios":"levelo://app?vid=55eae868-1b1d-4225-9916-dd72feb22dd0"},"vehicle_type_id":"4","last_reported":1778291889,"current_range_meters":8000,"station_id":"ce4bhoh2rcd13ifvqh6g","pricing_plan_id":"cebpf4jnsgd1na2vs0mg"},{"bike_id":"12e5cba1-94dd-4f9e-ae7f-4cb4b29cbc76","system_id":"levelo_inurba_marseille","lat":43.29275,"lon":5.40863,"is_reserved":false,"is_disabled":false,"rental_uris":{"android":"levelo://app?vid=12e5cba1-94dd-4f9e-ae7f-4cb4b29cbc76","ios":"levelo://app?vid=12e5cba1-94dd-4f9e-ae7f-4cb4b29cbc76"},"vehicle_type_id":"4","last_reported":1778291889,"current_range_meters":8000,"station_id":"ce4bh192rcd13ifvqdc0","pricing_plan_id":"cebpf4jnsgd1na2vs0mg"},{"bike_id":"9d6e5803-f86e-480f-8608-b1264f61154e","system_id":"levelo_inurba_marseille","lat":43.32104,"lon":5.36809,"is_reserved":false,"is_disabled":false,"rental_uris":{"android":"levelo://app?vid=9d6e5803-f86e-480f-8608-b1264f61154e","ios":"levelo://app?vid=9d6e5803-f86e-480f-8608-b1264f61154e"},"vehicle_type_id":"4","last_reported":1778291889,"current_range_meters":8000,"station_id":"ce4bhrh2rcd13ifvqhug","pricing_plan_id":"cebpf4jnsgd1na2vs0mg"},{"bike_id":"5dda00a1-f787-488a-aa64-058079c40c64","system_id":"levelo_inurba_marseille","lat":43.269467,"lon":5.393522,"is_reserved":false,"is_disabled":false,"rental_uris":{"android":"levelo://app?vid=5dda00a1-f787-488a-aa64-058079c40c64","ios":"levelo://app?vid=5dda00a1-f787-488a-aa64-058079c40c64"},"vehicle_type_id":"4","last_reported":1778291889,"current_range_meters":8000,"station_id":"","pricing_plan_id":"cebpf4jnsgd1na2vs0mg"},{"bike_id":"2bfeb872-3b6a-44bd-aaf4-d49eee479e56","system_id":"levelo_inurba_marseille","lat":43.21745,"lon":5.34606,"is_reserved":false,"is_disabled":true,"rental_uris":{"android":"levelo://app?vid=2bfeb872-3b6a-44bd-aaf4-d49eee479e56","ios":"levelo://app?vid=2bfeb872-3b6a-44bd-aaf4-d49eee479e56"},"vehicle_type_id":"4","last_reported":1778291889,"current_range_meters":8000,"station_id":"st_cvj6r9ubvosntc0bgbag","pricing_plan_id":"cebpf4jnsgd1na2vs0mg"},{"bike_id":"2d4086a4-858c-483d-b34b-ed85e093cb96","system_id":"levelo_inurba_marseille","lat":43.30187,"lon":5.38197,"is_reserved":false,"is_disabled":false,"rental_uris":{"android":"levelo://app?vid=2d4086a4-858c-483d-b34b-ed85e093cb96","ios":"levelo://app?vid=2d4086a4-858c-483d-b34b-ed85e093cb96"},"vehicle_type_id":"4","last_reported":1778291889,"current_range_meters":8000,"station_id":"","pricing_plan_id":"cebpf4jnsgd1na2vs0mg"},{"bike_id":"c440543a-fc70-44c0-b21f-aa93407f1be5","system_id":"levelo_inurba_marseille","lat":43.34142,"lon":5.40928,"is_reserved":false,"is_disabled":false,"rental_uris":{"android":"levelo://app?vid=c440543a-fc70-44c0-b21f-aa93407f1be5","ios":"levelo://app?vid=c440543a-fc70-44c0-b21f-aa93407f1be5"},"vehicle_type_id":"4","last_reported":1778291889,"current_range_meters":8000,"station_id":"ce4bhqh2rcd13ifvqhlg","pricing_plan_id":"cebpf4jnsgd1na2vs0mg"},{"bike_id":"48f460bf-a506-4ac0-8337-530ebbfaf540","system_id":"levelo_inurba_marseille","lat":43.31154,"lon":5.38726,"is_reserved":false,"is_disabled":false,"rental_uris":{"android":"levelo://app?vid=48f460bf-a506-4ac0-8337-530ebbfaf540","ios":"levelo://app?vid=48f460bf-a506-4ac0-8337-530ebbfaf540"},"vehicle_type_id":"4","last_reported":1778291889,"current_range_meters":8000,"station_id":"ce4bgv12rcd13ifvqcp0","pricing_plan_id":"cebpf4jnsgd1na2vs0mg"},{"bike_id":"b96a03bb-0b9e-45ed-b50b-c63d0177c3e9","system_id":"levelo_inurba_marseille","lat":43.29185,"lon":5.358,"is_reserved":false,"is_disabled":false,"rental_uris":{"android":"levelo://app?vid=b96a03bb-0b9e-45ed-b50b-c63d0177c3e9","ios":"levelo://app?vid=b96a03bb-0b9e-45ed-b50b-c63d0177c3e9"},"vehicle_type_id":"4","last_reported":1778291889,"current_range_meters":8000,"station_id":"ce4bhb12rcd13ifvqel0","pricing_plan_id":"cebpf4jnsgd1na2vs0mg"},{"bike_id":"951b6db6-d85c-48f6-b3b4-039884f81be9","system_id":"levelo_inurba_marseille","lat":43.30892,"lon":5.3959,"is_reserved":false,"is_disabled":false,"rental_uris":{"android":"levelo://app?vid=951b6db6-d85c-48f6-b3b4-039884f81be9","ios":"levelo://app?vid=951b6db6-d85c-48f6-b3b4-039884f81be9"},"vehicle_type_id":"4","last_reported":1778291889,"current_range_meters":8000,"station_id":"","pricing_plan_id":"cebpf4jnsgd1na2vs0mg"},{"bike_id":"14d2a79c-a2f4-4072-8c12-ce9b05fbf93b","system_id":"levelo_inurba_marseille","lat":43.24543,"lon":5.39536,"is_reserved":false,"is_disabled":false,"rental_uris":{"android":"levelo://app?vid=14d2a79c-a2f4-4072-8c12-ce9b05fbf93b","ios":"levelo://app?vid=14d2a79c-a2f4-4072-8c12-ce9b05fbf93b"},"vehicle_type_id":"4","last_reported":1778291889,"current_range_meters":8000,"station_id":"ce4bhlp2rcd13ifvqgjg","pricing_plan_id":"cebpf4jnsgd1na2vs0mg"},{"bike_id":"72cc19a6-3683-4d61-b0ef-5424b3725abe","system_id":"levelo_inurba_marseille","lat":43.27807,"lon":5.40732,"is_reserved":false,"is_disabled":false,"rental_uris":{"android":"levelo://app?vid=72cc19a6-3683-4d61-b0ef-5424b3725abe","ios":"levelo://app?vid=72cc19a6-3683-4d61-b0ef-5424b3725abe"},"vehicle_type_id":"4","last_reported":1778291889,"current_range_meters":8000,"station_id":"ce4bhnh2rcd13ifvqgtg","pricing_plan_id":"cebpf4jnsgd1na2vs0mg"},{"bike_id":"bfa74098-47c7-47b1-a79b-5692a6814bb8","system_id":"levelo_inurba_marseille","lat":43.24729,"lon":5.40113,"is_reserved":false,"is_disabled":false,"rental_uris":{"android":"levelo://app?vid=bfa74098-47c7-47b1-a79b-5692a6814bb8","ios":"levelo://app?vid=bfa74098-47c7-47b1-a79b-5692a6814bb8"},"vehicle_type_id":"4","last_reported":1778291889,"current_range_meters":8000,"station_id":"","pricing_plan_id":"cebpf4jnsgd1na2vs0mg"},{"bike_id":"af1d8397-506f-4bf0-bfa8-913728aa6b72","system_id":"levelo_inurba_marseille","lat":43.30869,"lon":5.39647,"is_reserved":false,"is_disabled":false,"rental_uris":{"android":"levelo://app?vid=af1d8397-506f-4bf0-bfa8-913728aa6b72","ios":"levelo://app?vid=af1d8397-506f-4bf0-bfa8-913728aa6b72"},"vehicle_type_id":"4","last_reported":1778291889,"current_range_meters":8000,"station_id":"ce4bh012rcd13ifvqcv0","pricing_plan_id":"cebpf4jnsgd1na2vs0mg"},{"bike_id":"60c211e6-e18d-4b70-b2b5-f2ecacf6f011","system_id":"levelo_inurba_marseille","lat":43.28722,"lon":5.39996,"is_reserved":false,"is_disabled":false,"rental_uris":{"android":"levelo://app?vid=60c211e6-e18d-4b70-b2b5-f2ecacf6f011","ios":"levelo://app?vid=60c211e6-e18d-4b70-b2b5-f2ecacf6f011"},"vehicle_type_id":"4","last_reported":1778291889,"current_range_meters":8400,"station_id":"ce4bho92rcd13ifvqh3g","pricing_plan_id":"cebpf4jnsgd1na2vs0mg"},{"bike_id":"ef4c0d2f-d37c-409b-be4c-7cceaa4aabfa","system_id":"levelo_inurba_marseille","lat":43.28502,"lon":5.48396,"is_reserved":false,"is_disabled":false,"rental_uris":{"android":"levelo://app?vid=ef4c0d2f-d37c-409b-be4c-7cceaa4aabfa","ios":"levelo://app?vid=ef4c0d2f-d37c-409b-be4c-7cceaa4aabfa"},"vehicle_type_id":"4","last_reported":1778291889,"current_range_meters":8400,"station_id":"st_d3svhcjqgbts73a3dn0g","pricing_plan_id":"cebpf4jnsgd1na2vs0mg"},{"bike_id":"72d42090-5bb1-42d2-8258-66748f74b226","system_id":"levelo_inurba_marseille","lat":43.29006,"lon":5.39605,"is_reserved":false,"is_disabled":true,"rental_uris":{"android":"levelo://app?vid=72d42090-5bb1-42d2-8258-66748f74b226","ios":"levelo://app?vid=72d42090-5bb1-42d2-8258-66748f74b226"},"vehicle_type_id":"4","last_reported":1778291889,"current_range_meters":8400,"station_id":"","pricing_plan_id":"cebpf4jnsgd1na2vs0mg"},{"bike_id":"8a852fed-d7dd-4420-bba2-92667b6841e9","system_id":"levelo_inurba_marseille","lat":43.29029,"lon":5.39986,"is_reserved":false,"is_disabled":false,"rental_uris":{"android":"levelo://app?vid=8a852fed-d7dd-4420-bba2-92667b6841e9","ios":"levelo://app?vid=8a852fed-d7dd-4420-bba2-92667b6841e9"},"vehicle_type_id":"4","last_reported":1778291889,"current_range_meters":8400,"station_id":"ce4bh392rcd13ifvqdm0","pricing_plan_id":"cebpf4jnsgd1na2vs0mg"},{"bike_id":"798dd442-ecce-41be-b4b9-436ee7f8a467","system_id":"levelo_inurba_marseille","lat":43.272094,"lon":5.390291,"is_reserved":false,"is_disabled":false,"rental_uris":{"android":"levelo://app?vid=798dd442-ecce-41be-b4b9-436ee7f8a467","ios":"levelo://app?vid=798dd442-ecce-41be-b4b9-436ee7f8a467"},"vehicle_type_id":"4","last_reported":1778291889,"current_range_meters":8400,"station_id":"ce4bhhp2rcd13ifvqfm0","pricing_plan_id":"cebpf4jnsgd1na2vs0mg"},{"bike_id":"281f7e49-1f6f-4c0d-a23b-2864fd35a6bd","system_id":"levelo_inurba_marseille","lat":43.2696,"lon":5.4025,"is_reserved":false,"is_disabled":false,"rental_uris":{"android":"levelo://app?vid=281f7e49-1f6f-4c0d-a23b-2864fd35a6bd","ios":"levelo://app?vid=281f7e49-1f6f-4c0d-a23b-2864fd35a6bd"},"vehicle_type_id":"4","last_reported":1778291889,"current_range_meters":8400,"station_id":"cjm6bp8fraef2m0cb0m0","pricing_plan_id":"cebpf4jnsgd1na2vs0mg"},{"bike_id":"89e60c09-d607-4c05-88a7-ef49c882e139","system_id":"levelo_inurba_marseille","lat":43.24173,"lon":5.36406,"is_reserved":false,"is_disabled":false,"rental_uris":{"android":"levelo://app?vid=89e60c09-d607-4c05-88a7-ef49c882e139","ios":"levelo://app?vid=89e60c09-d607-4c05-88a7-ef49c882e139"},"vehicle_type_id":"4","last_reported":1778291889,"current_range_meters":8400,"station_id":"cpo36qri1sfpv3e86is0","pricing_plan_id":"cebpf4jnsgd1na2vs0mg"},{"bike_id":"24ddfd4a-4143-402b-9a18-24695f949e9a","system_id":"levelo_inurba_marseille","lat":43.30373,"lon":5.42488,"is_reserved":false,"is_disabled":false,"rental_uris":{"android":"levelo://app?vid=24ddfd4a-4143-402b-9a18-24695f949e9a","ios":"levelo://app?vid=24ddfd4a-4143-402b-9a18-24695f949e9a"},"vehicle_type_id":"4","last_reported":1778291889,"current_range_meters":8400,"station_id":"ce4bhoh2rcd13ifvqh6g","pricing_plan_id":"cebpf4jnsgd1na2vs0mg"},{"bike_id":"06750813-80e5-4eb6-b50a-57ffe9fa6b8b","system_id":"levelo_inurba_marseille","lat":43.25546,"lon":5.38272,"is_reserved":false,"is_disabled":true,"rental_uris":{"android":"levelo://app?vid=06750813-80e5-4eb6-b50a-57ffe9fa6b8b","ios":"levelo://app?vid=06750813-80e5-4eb6-b50a-57ffe9fa6b8b"},"vehicle_type_id":"4","last_reported":1778291889,"current_range_meters":8400,"station_id":"ce4bhih2rcd13ifvqfs0","pricing_plan_id":"cebpf4jnsgd1na2vs0mg"},{"bike_id":"407e9612-ad93-4d7c-a713-0ff1764d5034","system_id":"levelo_inurba_marseille","lat":43.31376,"lon":5.41518,"is_reserved":false,"is_disabled":false,"rental_uris":{"android":"levelo://app?vid=407e9612-ad93-4d7c-a713-0ff1764d5034","ios":"levelo://app?vid=407e9612-ad93-4d7c-a713-0ff1764d5034"},"vehicle_type_id":"4","last_reported":1778291889,"current_range_meters":8400,"station_id":"","pricing_plan_id":"cebpf4jnsgd1na2vs0mg"},{"bike_id":"e744fd51-d53a-4993-92a1-3a6752e7a33c","system_id":"levelo_inurba_marseille","lat":43.32074,"lon":5.36817,"is_reserved":false,"is_disabled":false,"rental_uris":{"android":"levelo://app?vid=e744fd51-d53a-4993-92a1-3a6752e7a33c","ios":"levelo://app?vid=e744fd51-d53a-4993-92a1-3a6752e7a33c"},"vehicle_type_id":"4","last_reported":1778291889,"current_range_meters":8400,"station_id":"ce4bhrh2rcd13ifvqhug","pricing_plan_id":"cebpf4jnsgd1na2vs0mg"},{"bike_id":"a30008ae-a2df-4129-8ea6-0f377536b8ba","system_id":"levelo_inurba_marseille","lat":43.32084,"lon":5.36795,"is_reserved":false,"is_disabled":false,"rental_uris":{"android":"levelo://app?vid=a30008ae-a2df-4129-8ea6-0f377536b8ba","ios":"levelo://app?vid=a30008ae-a2df-4129-8ea6-0f377536b8ba"},"vehicle_type_id":"4","last_reported":1778291889,"current_range_meters":8400,"station_id":"ce4bhrh2rcd13ifvqhug","pricing_plan_id":"cebpf4jnsgd1na2vs0mg"},{"bike_id":"6b3cb1cc-9882-47b1-bdc8-79b0dcb9abda","system_id":"levelo_inurba_marseille","lat":43.27996,"lon":5.43648,"is_reserved":false,"is_disabled":false,"rental_uris":{"android":"levelo://app?vid=6b3cb1cc-9882-47b1-bdc8-79b0dcb9abda","ios":"levelo://app?vid=6b3cb1cc-9882-47b1-bdc8-79b0dcb9abda"},"vehicle_type_id":"4","last_reported":1778291889,"current_range_meters":8400,"station_id":"","pricing_plan_id":"cebpf4jnsgd1na2vs0mg"},{"bike_id":"ac669cf6-3802-49e7-8567-a514ce79081d","system_id":"levelo_inurba_marseille","lat":43.29123,"lon":5.38523,"is_reserved":false,"is_disabled":false,"rental_uris":{"android":"levelo://app?vid=ac669cf6-3802-49e7-8567-a514ce79081d","ios":"levelo://app?vid=ac669cf6-3802-49e7-8567-a514ce79081d"},"vehicle_type_id":"4","last_reported":1778291889,"current_range_meters":8400,"station_id":"","pricing_plan_id":"cebpf4jnsgd1na2vs0mg"},{"bike_id":"07829fdc-c599-44a2-8a5d-d38b8b9f7bb8","system_id":"levelo_inurba_marseille","lat":43.30385,"lon":5.42499,"is_reserved":false,"is_disabled":true,"rental_uris":{"android":"levelo://app?vid=07829fdc-c599-44a2-8a5d-d38b8b9f7bb8","ios":"levelo://app?vid=07829fdc-c599-44a2-8a5d-d38b8b9f7bb8"},"vehicle_type_id":"4","last_reported":1778291889,"current_range_meters":8400,"station_id":"ce4bhoh2rcd13ifvqh6g","pricing_plan_id":"cebpf4jnsgd1na2vs0mg"},{"bike_id":"b1eefa37-96ae-4f95-a344-438091e1d04d","system_id":"levelo_inurba_marseille","lat":43.31045,"lon":5.39382,"is_reserved":false,"is_disabled":false,"rental_uris":{"android":"levelo://app?vid=b1eefa37-96ae-4f95-a344-438091e1d04d","ios":"levelo://app?vid=b1eefa37-96ae-4f95-a344-438091e1d04d"},"vehicle_type_id":"4","last_reported":1778291889,"current_range_meters":8400,"station_id":"","pricing_plan_id":"cebpf4jnsgd1na2vs0mg"},{"bike_id":"496ef005-3b28-4f89-8627-d41c73f67f06","system_id":"levelo_inurba_marseille","lat":43.317,"lon":5.40518,"is_reserved":false,"is_disabled":false,"rental_uris":{"android":"levelo://app?vid=496ef005-3b28-4f89-8627-d41c73f67f06","ios":"levelo://app?vid=496ef005-3b28-4f89-8627-d41c73f67f06"},"vehicle_type_id":"4","last_reported":1778291889,"current_range_meters":8400,"station_id":"ce4bh012rcd13ifvqd00","pricing_plan_id":"cebpf4jnsgd1na2vs0mg"},{"bike_id":"a9b6caf4-cf49-4aec-a6fc-9f0762250c26","system_id":"levelo_inurba_marseille","lat":43.24443,"lon":5.42557,"is_reserved":false,"is_disabled":false,"rental_uris":{"android":"levelo://app?vid=a9b6caf4-cf49-4aec-a6fc-9f0762250c26","ios":"levelo://app?vid=a9b6caf4-cf49-4aec-a6fc-9f0762250c26"},"vehicle_type_id":"4","last_reported":1778291889,"current_range_meters":8400,"station_id":"st_d4a3vfp97mjs738cd8kg","pricing_plan_id":"cebpf4jnsgd1na2vs0mg"},{"bike_id":"ba9999b1-4282-4f46-9032-3a0c9b4ec963","system_id":"levelo_inurba_marseille","lat":43.24877,"lon":5.41818,"is_reserved":false,"is_disabled":false,"rental_uris":{"android":"levelo://app?vid=ba9999b1-4282-4f46-9032-3a0c9b4ec963","ios":"levelo://app?vid=ba9999b1-4282-4f46-9032-3a0c9b4ec963"},"vehicle_type_id":"4","last_reported":1778291889,"current_range_meters":8400,"station_id":"","pricing_plan_id":"cebpf4jnsgd1na2vs0mg"},{"bike_id":"c74991ed-3578-4827-98b9-e12bf38aed62","system_id":"levelo_inurba_marseille","lat":43.22567,"lon":5.41639,"is_reserved":false,"is_disabled":false,"rental_uris":{"android":"levelo://app?vid=c74991ed-3578-4827-98b9-e12bf38aed62","ios":"levelo://app?vid=c74991ed-3578-4827-98b9-e12bf38aed62"},"vehicle_type_id":"4","last_reported":1778291889,"current_range_meters":8400,"station_id":"st_d2o4gvlbi1j2169b742g","pricing_plan_id":"cebpf4jnsgd1na2vs0mg"},{"bike_id":"1261a57e-b9db-4e44-b05c-c17513cf7550","system_id":"levelo_inurba_marseille","lat":43.2707,"lon":5.4229,"is_reserved":false,"is_disabled":false,"rental_uris":{"android":"levelo://app?vid=1261a57e-b9db-4e44-b05c-c17513cf7550","ios":"levelo://app?vid=1261a57e-b9db-4e44-b05c-c17513cf7550"},"vehicle_type_id":"4","last_reported":1778291889,"current_range_meters":8400,"station_id":"ce4bhk92rcd13ifvqgb0","pricing_plan_id":"cebpf4jnsgd1na2vs0mg"},{"bike_id":"fd0b6860-a19b-4020-922a-b1b2204bdf0b","system_id":"levelo_inurba_marseille","lat":43.31168,"lon":5.3873,"is_reserved":false,"is_disabled":false,"rental_uris":{"android":"levelo://app?vid=fd0b6860-a19b-4020-922a-b1b2204bdf0b","ios":"levelo://app?vid=fd0b6860-a19b-4020-922a-b1b2204bdf0b"},"vehicle_type_id":"4","last_reported":1778291889,"current_range_meters":8400,"station_id":"ce4bgv12rcd13ifvqcp0","pricing_plan_id":"cebpf4jnsgd1na2vs0mg"},{"bike_id":"627ea465-4e71-4046-a508-023e31352421","system_id":"levelo_inurba_marseille","lat":43.25063,"lon":5.40498,"is_reserved":false,"is_disabled":false,"rental_uris":{"android":"levelo://app?vid=627ea465-4e71-4046-a508-023e31352421","ios":"levelo://app?vid=627ea465-4e71-4046-a508-023e31352421"},"vehicle_type_id":"4","last_reported":1778291889,"current_range_meters":8400,"station_id":"","pricing_plan_id":"cebpf4jnsgd1na2vs0mg"},{"bike_id":"43705be5-0b0d-4249-9a45-6509fa354e7e","system_id":"levelo_inurba_marseille","lat":43.29971,"lon":5.36999,"is_reserved":false,"is_disabled":false,"rental_uris":{"android":"levelo://app?vid=43705be5-0b0d-4249-9a45-6509fa354e7e","ios":"levelo://app?vid=43705be5-0b0d-4249-9a45-6509fa354e7e"},"vehicle_type_id":"4","last_reported":1778291889,"current_range_meters":8400,"station_id":"","pricing_plan_id":"cebpf4jnsgd1na2vs0mg"},{"bike_id":"c115c8b6-b19e-449b-95a6-e5e87fcc567f","system_id":"levelo_inurba_marseille","lat":43.28156,"lon":5.42636,"is_reserved":false,"is_disabled":false,"rental_uris":{"android":"levelo://app?vid=c115c8b6-b19e-449b-95a6-e5e87fcc567f","ios":"levelo://app?vid=c115c8b6-b19e-449b-95a6-e5e87fcc567f"},"vehicle_type_id":"4","last_reported":1778291889,"current_range_meters":8400,"station_id":"ce4bhnh2rcd13ifvqgug","pricing_plan_id":"cebpf4jnsgd1na2vs0mg"},{"bike_id":"a0c19b63-2c1f-4c1e-983a-5581ff0a42a8","system_id":"levelo_inurba_marseille","lat":43.29297,"lon":5.44591,"is_reserved":false,"is_disabled":false,"rental_uris":{"android":"levelo://app?vid=a0c19b63-2c1f-4c1e-983a-5581ff0a42a8","ios":"levelo://app?vid=a0c19b63-2c1f-4c1e-983a-5581ff0a42a8"},"vehicle_type_id":"4","last_reported":1778291889,"current_range_meters":8400,"station_id":"","pricing_plan_id":"cebpf4jnsgd1na2vs0mg"},{"bike_id":"ffe0cb96-af34-4cc2-8ffa-153f35a471f1","system_id":"levelo_inurba_marseille","lat":43.28853,"lon":5.42553,"is_reserved":false,"is_disabled":false,"rental_uris":{"android":"levelo://app?vid=ffe0cb96-af34-4cc2-8ffa-153f35a471f1","ios":"levelo://app?vid=ffe0cb96-af34-4cc2-8ffa-153f35a471f1"},"vehicle_type_id":"4","last_reported":1778291889,"current_range_meters":8400,"station_id":"st_d3b462108ojc7389ooeg","pricing_plan_id":"cebpf4jnsgd1na2vs0mg"},{"bike_id":"0c7d2fbb-13a2-4b84-b36b-3bb945348f14","system_id":"levelo_inurba_marseille","lat":43.28434,"lon":5.37518,"is_reserved":false,"is_disabled":true,"rental_uris":{"android":"levelo://app?vid=0c7d2fbb-13a2-4b84-b36b-3bb945348f14","ios":"levelo://app?vid=0c7d2fbb-13a2-4b84-b36b-3bb945348f14"},"vehicle_type_id":"4","last_reported":1778291889,"current_range_meters":8400,"station_id":"ce4bh412rcd13ifvqds0","pricing_plan_id":"cebpf4jnsgd1na2vs0mg"},{"bike_id":"4ea77c9e-651a-4f8e-90c5-8d44df937562","system_id":"levelo_inurba_marseille","lat":43.2905,"lon":5.39906,"is_reserved":false,"is_disabled":false,"rental_uris":{"android":"levelo://app?vid=4ea77c9e-651a-4f8e-90c5-8d44df937562","ios":"levelo://app?vid=4ea77c9e-651a-4f8e-90c5-8d44df937562"},"vehicle_type_id":"4","last_reported":1778291889,"current_range_meters":8800,"station_id":"ce4bh392rcd13ifvqdm0","pricing_plan_id":"cebpf4jnsgd1na2vs0mg"},{"bike_id":"59e4a1ef-cde3-435c-ac35-1590f3c40ae5","system_id":"levelo_inurba_marseille","lat":43.26547,"lon":5.37311,"is_reserved":false,"is_disabled":false,"rental_uris":{"android":"levelo://app?vid=59e4a1ef-cde3-435c-ac35-1590f3c40ae5","ios":"levelo://app?vid=59e4a1ef-cde3-435c-ac35-1590f3c40ae5"},"vehicle_type_id":"4","last_reported":1778291889,"current_range_meters":8800,"station_id":"ce4bhg12rcd13ifvqf70","pricing_plan_id":"cebpf4jnsgd1na2vs0mg"},{"bike_id":"e6bd8138-3d56-4ae6-9878-8794caa087c5","system_id":"levelo_inurba_marseille","lat":43.24457,"lon":5.42546,"is_reserved":false,"is_disabled":false,"rental_uris":{"android":"levelo://app?vid=e6bd8138-3d56-4ae6-9878-8794caa087c5","ios":"levelo://app?vid=e6bd8138-3d56-4ae6-9878-8794caa087c5"},"vehicle_type_id":"4","last_reported":1778291889,"current_range_meters":8800,"station_id":"st_d4a3vfp97mjs738cd8kg","pricing_plan_id":"cebpf4jnsgd1na2vs0mg"},{"bike_id":"f539bb17-16cf-4505-8a99-d64e79a69d9e","system_id":"levelo_inurba_marseille","lat":43.32108,"lon":5.3682,"is_reserved":false,"is_disabled":false,"rental_uris":{"android":"levelo://app?vid=f539bb17-16cf-4505-8a99-d64e79a69d9e","ios":"levelo://app?vid=f539bb17-16cf-4505-8a99-d64e79a69d9e"},"vehicle_type_id":"4","last_reported":1778291889,"current_range_meters":8800,"station_id":"ce4bhrh2rcd13ifvqhug","pricing_plan_id":"cebpf4jnsgd1na2vs0mg"},{"bike_id":"799a7949-9d1a-4b53-8d07-a66fdf531119","system_id":"levelo_inurba_marseille","lat":43.2703,"lon":5.40278,"is_reserved":false,"is_disabled":false,"rental_uris":{"android":"levelo://app?vid=799a7949-9d1a-4b53-8d07-a66fdf531119","ios":"levelo://app?vid=799a7949-9d1a-4b53-8d07-a66fdf531119"},"vehicle_type_id":"4","last_reported":1778291889,"current_range_meters":8800,"station_id":"ce4bhk92rcd13ifvqgc0","pricing_plan_id":"cebpf4jnsgd1na2vs0mg"},{"bike_id":"93dda1bf-40d7-4bf0-b156-ba33b7414cd1","system_id":"levelo_inurba_marseille","lat":43.22555,"lon":5.41618,"is_reserved":false,"is_disabled":false,"rental_uris":{"android":"levelo://app?vid=93dda1bf-40d7-4bf0-b156-ba33b7414cd1","ios":"levelo://app?vid=93dda1bf-40d7-4bf0-b156-ba33b7414cd1"},"vehicle_type_id":"4","last_reported":1778291889,"current_range_meters":8800,"station_id":"st_d2o4gvlbi1j2169b742g","pricing_plan_id":"cebpf4jnsgd1na2vs0mg"},{"bike_id":"432c89d1-620e-4292-8dbf-6ebb3657e025","system_id":"levelo_inurba_marseille","lat":43.31739,"lon":5.39012,"is_reserved":false,"is_disabled":true,"rental_uris":{"android":"levelo://app?vid=432c89d1-620e-4292-8dbf-6ebb3657e025","ios":"levelo://app?vid=432c89d1-620e-4292-8dbf-6ebb3657e025"},"vehicle_type_id":"4","last_reported":1778291889,"current_range_meters":8800,"station_id":"ce4bhqp2rcd13ifvqhng","pricing_plan_id":"cebpf4jnsgd1na2vs0mg"},{"bike_id":"f422b51e-1ef9-42a2-8365-1d33f807a8e0","system_id":"levelo_inurba_marseille","lat":43.23874,"lon":5.37483,"is_reserved":false,"is_disabled":true,"rental_uris":{"android":"levelo://app?vid=f422b51e-1ef9-42a2-8365-1d33f807a8e0","ios":"levelo://app?vid=f422b51e-1ef9-42a2-8365-1d33f807a8e0"},"vehicle_type_id":"4","last_reported":1778291889,"current_range_meters":8800,"station_id":"st_d6sm7csbq4hs73f8fpjg","pricing_plan_id":"cebpf4jnsgd1na2vs0mg"},{"bike_id":"74a938f2-f578-4294-9976-174677fe2f35","system_id":"levelo_inurba_marseille","lat":43.29477,"lon":5.43303,"is_reserved":false,"is_disabled":true,"rental_uris":{"android":"levelo://app?vid=74a938f2-f578-4294-9976-174677fe2f35","ios":"levelo://app?vid=74a938f2-f578-4294-9976-174677fe2f35"},"vehicle_type_id":"4","last_reported":1778291889,"current_range_meters":8800,"station_id":"st_d3j5ugp08ojc73fj9d10","pricing_plan_id":"cebpf4jnsgd1na2vs0mg"},{"bike_id":"7a1b5433-70f4-4aa1-9807-2916f1dafcb6","system_id":"levelo_inurba_marseille","lat":43.30887,"lon":5.39664,"is_reserved":false,"is_disabled":false,"rental_uris":{"android":"levelo://app?vid=7a1b5433-70f4-4aa1-9807-2916f1dafcb6","ios":"levelo://app?vid=7a1b5433-70f4-4aa1-9807-2916f1dafcb6"},"vehicle_type_id":"4","last_reported":1778291889,"current_range_meters":8800,"station_id":"ce4bh012rcd13ifvqcv0","pricing_plan_id":"cebpf4jnsgd1na2vs0mg"},{"bike_id":"080915f6-df4c-4af9-8ea4-57ab55674d2e","system_id":"levelo_inurba_marseille","lat":43.29927,"lon":5.37479,"is_reserved":false,"is_disabled":false,"rental_uris":{"android":"levelo://app?vid=080915f6-df4c-4af9-8ea4-57ab55674d2e","ios":"levelo://app?vid=080915f6-df4c-4af9-8ea4-57ab55674d2e"},"vehicle_type_id":"4","last_reported":1778291889,"current_range_meters":8800,"station_id":"ce4bgjh2rcd13ifvqbg0","pricing_plan_id":"cebpf4jnsgd1na2vs0mg"},{"bike_id":"bb14baeb-3016-4cc2-93fa-30395fb0af59","system_id":"levelo_inurba_marseille","lat":43.2677,"lon":5.39429,"is_reserved":false,"is_disabled":true,"rental_uris":{"android":"levelo://app?vid=bb14baeb-3016-4cc2-93fa-30395fb0af59","ios":"levelo://app?vid=bb14baeb-3016-4cc2-93fa-30395fb0af59"},"vehicle_type_id":"4","last_reported":1778291889,"current_range_meters":8800,"station_id":"ce4bhh12rcd13ifvqfg0","pricing_plan_id":"cebpf4jnsgd1na2vs0mg"},{"bike_id":"e477c5f0-4b62-491b-9863-990a0efda1db","system_id":"levelo_inurba_marseille","lat":43.31885,"lon":5.36817,"is_reserved":false,"is_disabled":false,"rental_uris":{"android":"levelo://app?vid=e477c5f0-4b62-491b-9863-990a0efda1db","ios":"levelo://app?vid=e477c5f0-4b62-491b-9863-990a0efda1db"},"vehicle_type_id":"4","last_reported":1778291889,"current_range_meters":8800,"station_id":"st_d6o2h0d0559c73evc1b0","pricing_plan_id":"cebpf4jnsgd1na2vs0mg"},{"bike_id":"24508c03-cf5b-41c5-b29e-ddb3c108d7be","system_id":"levelo_inurba_marseille","lat":43.33012,"lon":5.3902,"is_reserved":false,"is_disabled":false,"rental_uris":{"android":"levelo://app?vid=24508c03-cf5b-41c5-b29e-ddb3c108d7be","ios":"levelo://app?vid=24508c03-cf5b-41c5-b29e-ddb3c108d7be"},"vehicle_type_id":"4","last_reported":1778291889,"current_range_meters":8800,"station_id":"ce4bhr92rcd13ifvqhrg","pricing_plan_id":"cebpf4jnsgd1na2vs0mg"},{"bike_id":"3e63ca9f-52b9-4901-a1d9-7f430e423bd0","system_id":"levelo_inurba_marseille","lat":43.31463,"lon":5.44117,"is_reserved":false,"is_disabled":false,"rental_uris":{"android":"levelo://app?vid=3e63ca9f-52b9-4901-a1d9-7f430e423bd0","ios":"levelo://app?vid=3e63ca9f-52b9-4901-a1d9-7f430e423bd0"},"vehicle_type_id":"4","last_reported":1778291889,"current_range_meters":8800,"station_id":"","pricing_plan_id":"cebpf4jnsgd1na2vs0mg"},{"bike_id":"9963445d-0140-42ed-b05a-cee82ba1ae29","system_id":"levelo_inurba_marseille","lat":43.24887,"lon":5.37477,"is_reserved":false,"is_disabled":false,"rental_uris":{"android":"levelo://app?vid=9963445d-0140-42ed-b05a-cee82ba1ae29","ios":"levelo://app?vid=9963445d-0140-42ed-b05a-cee82ba1ae29"},"vehicle_type_id":"4","last_reported":1778291889,"current_range_meters":8800,"station_id":"","pricing_plan_id":"cebpf4jnsgd1na2vs0mg"},{"bike_id":"3d22a6b7-1b35-450e-95ec-0bfb2eba181e","system_id":"levelo_inurba_marseille","lat":43.29821,"lon":5.44079,"is_reserved":false,"is_disabled":false,"rental_uris":{"android":"levelo://app?vid=3d22a6b7-1b35-450e-95ec-0bfb2eba181e","ios":"levelo://app?vid=3d22a6b7-1b35-450e-95ec-0bfb2eba181e"},"vehicle_type_id":"4","last_reported":1778291889,"current_range_meters":9200,"station_id":"st_d3jp68qikq2c7381ktn0","pricing_plan_id":"cebpf4jnsgd1na2vs0mg"},{"bike_id":"5a6c4d1f-5abf-4b00-974f-ebca937c59c1","system_id":"levelo_inurba_marseille","lat":43.29922,"lon":5.37468,"is_reserved":false,"is_disabled":false,"rental_uris":{"android":"levelo://app?vid=5a6c4d1f-5abf-4b00-974f-ebca937c59c1","ios":"levelo://app?vid=5a6c4d1f-5abf-4b00-974f-ebca937c59c1"},"vehicle_type_id":"4","last_reported":1778291889,"current_range_meters":9200,"station_id":"ce4bgjh2rcd13ifvqbg0","pricing_plan_id":"cebpf4jnsgd1na2vs0mg"},{"bike_id":"9dc61640-987a-437c-ada7-637d7471e1db","system_id":"levelo_inurba_marseille","lat":43.33127,"lon":5.37707,"is_reserved":false,"is_disabled":false,"rental_uris":{"android":"levelo://app?vid=9dc61640-987a-437c-ada7-637d7471e1db","ios":"levelo://app?vid=9dc61640-987a-437c-ada7-637d7471e1db"},"vehicle_type_id":"4","last_reported":1778291889,"current_range_meters":9200,"station_id":"st_d46cu089ee8s73dldbu0","pricing_plan_id":"cebpf4jnsgd1na2vs0mg"},