{"last_updated":1760707253,"ttl":60,"version":"2.2","data":{"bikes":[{"bike_id":"0c081e2d-5ad3-4573-b09c-95410a9bfd6b","system_id":"levelo_inurba_marseille","lat":43.30605,"lon":5.37227,"is_reserved":false,"is_disabled":false,"rental_uris":{"android":"levelo://app?vid=0c081e2d-5ad3-4573-b09c-95410a9bfd6b","ios":"levelo://app?vid=0c081e2d-5ad3-4573-b09c-95410a9bfd6b"},"vehicle_type_id":"4","last_reported":1760707253,"current_range_meters":2800,"station_id":"ce4bgqh2rcd13ifvqc4g","pricing_plan_id":"cebpf4jnsgd1na2vs0mg"},{"bike_id":"edf1826d-4c94-41f7-b41b-9e4934e632f6","system_id":"levelo_inurba_marseille","lat":43.25186,"lon":5.37919,"is_reserved":false,"is_disabled":false,"rental_uris":{"android":"levelo://app?vid=edf1826d-4c94-41f7-b41b-9e4934e632f6","ios":"levelo://app?vid=edf1826d-4c94-41f7-b41b-9e4934e632f6"},"vehicle_type_id":"4","last_reported":1760707253,"current_range_meters":2800,"station_id":"","pricing_plan_id":"cebpf4jnsgd1na2vs0mg"},{"bike_id":"c548b8b8-9beb-491c-9535-0dc02ebd2023","system_id":"levelo_inurba_marseille","lat":43.310804,"lon":5.4006,"is_reserved":false,"is_disabled":false,"rental_uris":{"android":"levelo://app?vid=c548b8b8-9beb-491c-9535-0dc02ebd2023","ios":"levelo://app?vid=c548b8b8-9beb-491c-9535-0dc02ebd2023"},"vehicle_type_id":"4","last_reported":1760707253,"current_range_meters":2800,"station_id":"ce4bh092rcd13ifvqd30","pricing_plan_id":"cebpf4jnsgd1na2vs0mg"},{"bike_id":"029a6d2e-03dd-4232-841e-e411359822a2","system_id":"levelo_inurba_marseille","lat":43.28352,"lon":5.38103,"is_reserved":false,"is_disabled":false,"rental_uris":{"android":"levelo://app?vid=029a6d2e-03dd-4232-841e-e411359822a2","ios":"levelo://app?vid=029a6d2e-03dd-4232-841e-e411359822a2"},"vehicle_type_id":"4","last_reported":1760707253,"current_range_meters":2800,"station_id":"ce4bh412rcd13ifvqdr0","pricing_plan_id":"cebpf4jnsgd1na2vs0mg"},{"bike_id":"b4052f7a-27b6-479b-bdb3-900e233c35a7","system_id":"levelo_inurba_marseille","lat":43.29583,"lon":5.36415,"is_reserved":false,"is_disabled":false,"rental_uris":{"android":"levelo://app?vid=b4052f7a-27b6-479b-bdb3-900e233c35a7","ios":"levelo://app?vid=b4052f7a-27b6-479b-bdb3-900e233c35a7"},"vehicle_type_id":"4","last_reported":1760707253,"current_range_meters":2800,"station_id":"","pricing_plan_id":"cebpf4jnsgd1na2vs0mg"},{"bike_id":"e30d67c9-af34-4fa7-b2db-f744c4f1c938","system_id":"levelo_inurba_marseille","lat":43.28854,"lon":5.35858,"is_reserved":false,"is_disabled":false,"rental_uris":{"android":"levelo://app?vid=e30d67c9-af34-4fa7-b2db-f744c4f1c938","ios":"levelo://app?vid=e30d67c9-af34-4fa7-b2db-f744c4f1c938"},"vehicle_type_id":"4","last_reported":1760707253,"current_range_meters":2800,"station_id":"ce4bhb12rcd13ifvqem0","pricing_plan_id":"cebpf4jnsgd1na2vs0mg"},{"bike_id":"477e7c5f-bc97-4b56-b889-9cb25109e6de","system_id":"levelo_inurba_marseille","lat":43.28078,"lon":5.3966,"is_reserved":false,"is_disabled":false,"rental_uris":{"android":"levelo://app?vid=477e7c5f-bc97-4b56-b889-9cb25109e6de","ios":"levelo://app?vid=477e7c5f-bc97-4b56-b889-9cb25109e6de"},"vehicle_type_id":"4","last_reported":1760707253,"current_range_meters":3200,"station_id":"ce4bho12rcd13ifvqh2g","pricing_plan_id":"cebpf4jnsgd1na2vs0mg"},{"bike_id":"56e8f168-0239-4dab-a231-9caf80fb776c","system_id":"levelo_inurba_marseille","lat":43.292676,"lon":5.376168,"is_reserved":false,"is_disabled":false,"rental_uris":{"android":"levelo://app?vid=56e8f168-0239-4dab-a231-9caf80fb776c","ios":"levelo://app?vid=56e8f168-0239-4dab-a231-9caf80fb776c"},"vehicle_type_id":"4","last_reported":1760707253,"current_range_meters":3200,"station_id":"","pricing_plan_id":"cebpf4jnsgd1na2vs0mg"},{"bike_id":"e0863f88-6065-41da-9ecd-468f1156f9d8","system_id":"levelo_inurba_marseille","lat":43.273433,"lon":5.414214,"is_reserved":false,"is_disabled":false,"rental_uris":{"android":"levelo://app?vid=e0863f88-6065-41da-9ecd-468f1156f9d8","ios":"levelo://app?vid=e0863f88-6065-41da-9ecd-468f1156f9d8"},"vehicle_type_id":"4","last_reported":1760707253,"current_range_meters":3200,"station_id":"","pricing_plan_id":"cebpf4jnsgd1na2vs0mg"},{"bike_id":"76b02960-529e-4c69-ba4e-7e305e08b52b","system_id":"levelo_inurba_marseille","lat":43.29297,"lon":5.37455,"is_reserved":false,"is_disabled":false,"rental_uris":{"android":"levelo://app?vid=76b02960-529e-4c69-ba4e-7e305e08b52b","ios":"levelo://app?vid=76b02960-529e-4c69-ba4e-7e305e08b52b"},"vehicle_type_id":"4","last_reported":1760707253,"current_range_meters":3200,"station_id":"ce4bgi12rcd13ifvqb70","pricing_plan_id":"cebpf4jnsgd1na2vs0mg"},{"bike_id":"f0622547-115c-4aab-a330-c8c9f80dea9e","system_id":"levelo_inurba_marseille","lat":43.28083,"lon":5.35222,"is_reserved":false,"is_disabled":false,"rental_uris":{"android":"levelo://app?vid=f0622547-115c-4aab-a330-c8c9f80dea9e","ios":"levelo://app?vid=f0622547-115c-4aab-a330-c8c9f80dea9e"},"vehicle_type_id":"4","last_reported":1760707253,"current_range_meters":3200,"station_id":"","pricing_plan_id":"cebpf4jnsgd1na2vs0mg"},{"bike_id":"4a4e6bd4-ddec-4974-8d3f-1b587e19361b","system_id":"levelo_inurba_marseille","lat":43.29932,"lon":5.36543,"is_reserved":false,"is_disabled":false,"rental_uris":{"android":"levelo://app?vid=4a4e6bd4-ddec-4974-8d3f-1b587e19361b","ios":"levelo://app?vid=4a4e6bd4-ddec-4974-8d3f-1b587e19361b"},"vehicle_type_id":"4","last_reported":1760707253,"current_range_meters":3200,"station_id":"ce4bgm92rcd13ifvqbr0","pricing_plan_id":"cebpf4jnsgd1na2vs0mg"},{"bike_id":"5b18de2c-fe98-43aa-b9a4-df0c597309aa","system_id":"levelo_inurba_marseille","lat":43.29038,"lon":5.37557,"is_reserved":false,"is_disabled":false,"rental_uris":{"android":"levelo://app?vid=5b18de2c-fe98-43aa-b9a4-df0c597309aa","ios":"levelo://app?vid=5b18de2c-fe98-43aa-b9a4-df0c597309aa"},"vehicle_type_id":"4","last_reported":1760707253,"current_range_meters":3600,"station_id":"ce4bh692rcd13ifvqe90","pricing_plan_id":"cebpf4jnsgd1na2vs0mg"},{"bike_id":"efb23f08-b577-45d8-a0b9-231229cb393d","system_id":"levelo_inurba_marseille","lat":43.243839,"lon":5.370574,"is_reserved":false,"is_disabled":false,"rental_uris":{"android":"levelo://app?vid=efb23f08-b577-45d8-a0b9-231229cb393d","ios":"levelo://app?vid=efb23f08-b577-45d8-a0b9-231229cb393d"},"vehicle_type_id":"4","last_reported":1760707253,"current_range_meters":3600,"station_id":"ce4bhhh2rcd13ifvqfk0","pricing_plan_id":"cebpf4jnsgd1na2vs0mg"},{"bike_id":"66cff7ac-7cbd-4e0a-9bcc-f3e132e5b155","system_id":"levelo_inurba_marseille","lat":43.29694,"lon":5.3855,"is_reserved":false,"is_disabled":false,"rental_uris":{"android":"levelo://app?vid=66cff7ac-7cbd-4e0a-9bcc-f3e132e5b155","ios":"levelo://app?vid=66cff7ac-7cbd-4e0a-9bcc-f3e132e5b155"},"vehicle_type_id":"4","last_reported":1760707253,"current_range_meters":3600,"station_id":"","pricing_plan_id":"cebpf4jnsgd1na2vs0mg"},{"bike_id":"b0e3fac0-2cba-43db-8a27-05393f9977ec","system_id":"levelo_inurba_marseille","lat":43.297242,"lon":5.373265,"is_reserved":false,"is_disabled":false,"rental_uris":{"android":"levelo://app?vid=b0e3fac0-2cba-43db-8a27-05393f9977ec","ios":"levelo://app?vid=b0e3fac0-2cba-43db-8a27-05393f9977ec"},"vehicle_type_id":"4","last_reported":1760707253,"current_range_meters":3600,"station_id":"","pricing_plan_id":"cebpf4jnsgd1na2vs0mg"},{"bike_id":"afd3a141-6f64-4928-ba91-fca21b7af038","system_id":"levelo_inurba_marseille","lat":43.29582,"lon":5.36422,"is_reserved":false,"is_disabled":false,"rental_uris":{"android":"levelo://app?vid=afd3a141-6f64-4928-ba91-fca21b7af038","ios":"levelo://app?vid=afd3a141-6f64-4928-ba91-fca21b7af038"},"vehicle_type_id":"4","last_reported":1760707253,"current_range_meters":4000,"station_id":"","pricing_plan_id":"cebpf4jnsgd1na2vs0mg"},{"bike_id":"d92ccac3-9488-410c-9ab0-bd0aafb7d6e8","system_id":"levelo_inurba_marseille","lat":43.318832,"lon":5.407418,"is_reserved":false,"is_disabled":false,"rental_uris":{"android":"levelo://app?vid=d92ccac3-9488-410c-9ab0-bd0aafb7d6e8","ios":"levelo://app?vid=d92ccac3-9488-410c-9ab0-bd0aafb7d6e8"},"vehicle_type_id":"4","last_reported":1760707253,"current_range_meters":4000,"station_id":"ce4bhq12rcd13ifvqhig","pricing_plan_id":"cebpf4jnsgd1na2vs0mg"},{"bike_id":"b9bf8773-1267-4c90-bca9-07d553115013","system_id":"levelo_inurba_marseille","lat":43.23152,"lon":5.43702,"is_reserved":false,"is_disabled":false,"rental_uris":{"android":"levelo://app?vid=b9bf8773-1267-4c90-bca9-07d553115013","ios":"levelo://app?vid=b9bf8773-1267-4c90-bca9-07d553115013"},"vehicle_type_id":"4","last_reported":1760707253,"current_range_meters":4000,"station_id":"ce4bhmp2rcd13ifvqgog","pricing_plan_id":"cebpf4jnsgd1na2vs0mg"},{"bike_id":"c10806ec-6d45-481a-ae58-b2aac1e05e16","system_id":"levelo_inurba_marseille","lat":43.233684,"lon":5.40499,"is_reserved":false,"is_disabled":false,"rental_uris":{"android":"levelo://app?vid=c10806ec-6d45-481a-ae58-b2aac1e05e16","ios":"levelo://app?vid=c10806ec-6d45-481a-ae58-b2aac1e05e16"},"vehicle_type_id":"4","last_reported":1760707253,"current_range_meters":4000,"station_id":"","pricing_plan_id":"cebpf4jnsgd1na2vs0mg"},{"bike_id":"00dcfec2-bd80-4414-88d1-b2b4d7f640d7","system_id":"levelo_inurba_marseille","lat":43.30325,"lon":5.4044,"is_reserved":false,"is_disabled":false,"rental_uris":{"android":"levelo://app?vid=00dcfec2-bd80-4414-88d1-b2b4d7f640d7","ios":"levelo://app?vid=00dcfec2-bd80-4414-88d1-b2b4d7f640d7"},"vehicle_type_id":"4","last_reported":1760707253,"current_range_meters":4000,"station_id":"ce4bh012rcd13ifvqd10","pricing_plan_id":"cebpf4jnsgd1na2vs0mg"},{"bike_id":"8d87c466-d09d-4097-bae0-d455d3d19546","system_id":"levelo_inurba_marseille","lat":43.32999,"lon":5.39054,"is_reserved":false,"is_disabled":false,"rental_uris":{"android":"levelo://app?vid=8d87c466-d09d-4097-bae0-d455d3d19546","ios":"levelo://app?vid=8d87c466-d09d-4097-bae0-d455d3d19546"},"vehicle_type_id":"4","last_reported":1760707253,"current_range_meters":4000,"station_id":"ce4bhr92rcd13ifvqhrg","pricing_plan_id":"cebpf4jnsgd1na2vs0mg"},{"bike_id":"75e671d2-4d08-44c0-80b4-b9a63d2638d8","system_id":"levelo_inurba_marseille","lat":43.217398,"lon":5.345779,"is_reserved":false,"is_disabled":false,"rental_uris":{"android":"levelo://app?vid=75e671d2-4d08-44c0-80b4-b9a63d2638d8","ios":"levelo://app?vid=75e671d2-4d08-44c0-80b4-b9a63d2638d8"},"vehicle_type_id":"4","last_reported":1760707253,"current_range_meters":4400,"station_id":"st_cvj6r9ubvosntc0bgbag","pricing_plan_id":"cebpf4jnsgd1na2vs0mg"},{"bike_id":"326321cc-5ff0-419b-be6c-cfdc1e42633a","system_id":"levelo_inurba_marseille","lat":43.28448,"lon":5.35894,"is_reserved":false,"is_disabled":false,"rental_uris":{"android":"levelo://app?vid=326321cc-5ff0-419b-be6c-cfdc1e42633a","ios":"levelo://app?vid=326321cc-5ff0-419b-be6c-cfdc1e42633a"},"vehicle_type_id":"4","last_reported":1760707253,"current_range_meters":4400,"station_id":"ce4bhah2rcd13ifvqei0","pricing_plan_id":"cebpf4jnsgd1na2vs0mg"},{"bike_id":"ecd9150a-82d1-439a-8ac1-0ab83b979277","system_id":"levelo_inurba_marseille","lat":43.30801,"lon":5.43522,"is_reserved":false,"is_disabled":true,"rental_uris":{"android":"levelo://app?vid=ecd9150a-82d1-439a-8ac1-0ab83b979277","ios":"levelo://app?vid=ecd9150a-82d1-439a-8ac1-0ab83b979277"},"vehicle_type_id":"4","last_reported":1760707253,"current_range_meters":4400,"station_id":"ce4bhph2rcd13ifvqheg","pricing_plan_id":"cebpf4jnsgd1na2vs0mg"},{"bike_id":"a594c581-1474-4275-a0cd-b118ce08d25f","system_id":"levelo_inurba_marseille","lat":43.287,"lon":5.37384,"is_reserved":false,"is_disabled":false,"rental_uris":{"android":"levelo://app?vid=a594c581-1474-4275-a0cd-b118ce08d25f","ios":"levelo://app?vid=a594c581-1474-4275-a0cd-b118ce08d25f"},"vehicle_type_id":"4","last_reported":1760707253,"current_range_meters":4400,"station_id":"ce4bh3p2rcd13ifvqdq0","pricing_plan_id":"cebpf4jnsgd1na2vs0mg"},{"bike_id":"6cd16192-c813-4136-876c-ae8ebf20d344","system_id":"levelo_inurba_marseille","lat":43.337664,"lon":5.374885,"is_reserved":false,"is_disabled":false,"rental_uris":{"android":"levelo://app?vid=6cd16192-c813-4136-876c-ae8ebf20d344","ios":"levelo://app?vid=6cd16192-c813-4136-876c-ae8ebf20d344"},"vehicle_type_id":"4","last_reported":1760707253,"current_range_meters":4800,"station_id":"","pricing_plan_id":"cebpf4jnsgd1na2vs0mg"},{"bike_id":"6483499d-db89-4a4d-8be2-8f527c888204","system_id":"levelo_inurba_marseille","lat":43.30957,"lon":5.39035,"is_reserved":false,"is_disabled":false,"rental_uris":{"android":"levelo://app?vid=6483499d-db89-4a4d-8be2-8f527c888204","ios":"levelo://app?vid=6483499d-db89-4a4d-8be2-8f527c888204"},"vehicle_type_id":"4","last_reported":1760707253,"current_range_meters":4800,"station_id":"ce4bgup2rcd13ifvqco0","pricing_plan_id":"cebpf4jnsgd1na2vs0mg"},{"bike_id":"40542705-b0c9-48a7-b1bd-eb7875adc1dc","system_id":"levelo_inurba_marseille","lat":43.292755,"lon":5.384494,"is_reserved":false,"is_disabled":false,"rental_uris":{"android":"levelo://app?vid=40542705-b0c9-48a7-b1bd-eb7875adc1dc","ios":"levelo://app?vid=40542705-b0c9-48a7-b1bd-eb7875adc1dc"},"vehicle_type_id":"4","last_reported":1760707253,"current_range_meters":4800,"station_id":"ce4bh692rcd13ifvqea0","pricing_plan_id":"cebpf4jnsgd1na2vs0mg"},{"bike_id":"581b9b13-417e-4879-b11a-9f230a20258d","system_id":"levelo_inurba_marseille","lat":43.29529,"lon":5.38545,"is_reserved":false,"is_disabled":false,"rental_uris":{"android":"levelo://app?vid=581b9b13-417e-4879-b11a-9f230a20258d","ios":"levelo://app?vid=581b9b13-417e-4879-b11a-9f230a20258d"},"vehicle_type_id":"4","last_reported":1760707253,"current_range_meters":5600,"station_id":"ce4bgih2rcd13ifvqba0","pricing_plan_id":"cebpf4jnsgd1na2vs0mg"},{"bike_id":"a794a8d7-b0f4-4816-9567-10e9d8cf2529","system_id":"levelo_inurba_marseille","lat":43.27347,"lon":5.39091,"is_reserved":false,"is_disabled":false,"rental_uris":{"android":"levelo://app?vid=a794a8d7-b0f4-4816-9567-10e9d8cf2529","ios":"levelo://app?vid=a794a8d7-b0f4-4816-9567-10e9d8cf2529"},"vehicle_type_id":"4","last_reported":1760707253,"current_range_meters":6000,"station_id":"","pricing_plan_id":"cebpf4jnsgd1na2vs0mg"},{"bike_id":"deeca1c7-91af-404b-a89c-fca6c0349b1b","system_id":"levelo_inurba_marseille","lat":43.30424,"lon":5.39736,"is_reserved":false,"is_disabled":false,"rental_uris":{"android":"levelo://app?vid=deeca1c7-91af-404b-a89c-fca6c0349b1b","ios":"levelo://app?vid=deeca1c7-91af-404b-a89c-fca6c0349b1b"},"vehicle_type_id":"4","last_reported":1760707253,"current_range_meters":6000,"station_id":"ce4bh092rcd13ifvqd20","pricing_plan_id":"cebpf4jnsgd1na2vs0mg"},{"bike_id":"d68b41be-366f-40d7-a414-434cfe0517a5","system_id":"levelo_inurba_marseille","lat":43.31784,"lon":5.42219,"is_reserved":false,"is_disabled":false,"rental_uris":{"android":"levelo://app?vid=d68b41be-366f-40d7-a414-434cfe0517a5","ios":"levelo://app?vid=d68b41be-366f-40d7-a414-434cfe0517a5"},"vehicle_type_id":"4","last_reported":1760707253,"current_range_meters":6000,"station_id":"","pricing_plan_id":"cebpf4jnsgd1na2vs0mg"},{"bike_id":"26687b80-a95a-4b9e-92ba-141845af93e9","system_id":"levelo_inurba_marseille","lat":43.23204,"lon":5.35535,"is_reserved":false,"is_disabled":false,"rental_uris":{"android":"levelo://app?vid=26687b80-a95a-4b9e-92ba-141845af93e9","ios":"levelo://app?vid=26687b80-a95a-4b9e-92ba-141845af93e9"},"vehicle_type_id":"4","last_reported":1760707253,"current_range_meters":6000,"station_id":"ce4bhu92rcd13ifvqi70","pricing_plan_id":"cebpf4jnsgd1na2vs0mg"},{"bike_id":"22924f23-4e42-4ed0-9082-21f2dac47f4c","system_id":"levelo_inurba_marseille","lat":43.23777,"lon":5.36632,"is_reserved":false,"is_disabled":false,"rental_uris":{"android":"levelo://app?vid=22924f23-4e42-4ed0-9082-21f2dac47f4c","ios":"levelo://app?vid=22924f23-4e42-4ed0-9082-21f2dac47f4c"},"vehicle_type_id":"4","last_reported":1760707253,"current_range_meters":6000,"station_id":"st_d3nk18o9ro0c73en2l3g","pricing_plan_id":"cebpf4jnsgd1na2vs0mg"},{"bike_id":"247bff0e-90ca-402d-bc17-b7f5083e24cb","system_id":"levelo_inurba_marseille","lat":43.26942,"lon":5.40258,"is_reserved":false,"is_disabled":false,"rental_uris":{"android":"levelo://app?vid=247bff0e-90ca-402d-bc17-b7f5083e24cb","ios":"levelo://app?vid=247bff0e-90ca-402d-bc17-b7f5083e24cb"},"vehicle_type_id":"4","last_reported":1760707253,"current_range_meters":6400,"station_id":"cjm6bp8fraef2m0cb0m0","pricing_plan_id":"cebpf4jnsgd1na2vs0mg"},{"bike_id":"0e30b930-dbba-454f-b54d-4609030c1a48","system_id":"levelo_inurba_marseille","lat":43.306396,"lon":5.40097,"is_reserved":false,"is_disabled":false,"rental_uris":{"android":"levelo://app?vid=0e30b930-dbba-454f-b54d-4609030c1a48","ios":"levelo://app?vid=0e30b930-dbba-454f-b54d-4609030c1a48"},"vehicle_type_id":"4","last_reported":1760707253,"current_range_meters":6400,"station_id":"ce4bh112rcd13ifvqda0","pricing_plan_id":"cebpf4jnsgd1na2vs0mg"},{"bike_id":"ee4786e9-7ef0-4808-b783-1c44d36d192f","system_id":"levelo_inurba_marseille","lat":43.26554,"lon":5.37286,"is_reserved":false,"is_disabled":false,"rental_uris":{"android":"levelo://app?vid=ee4786e9-7ef0-4808-b783-1c44d36d192f","ios":"levelo://app?vid=ee4786e9-7ef0-4808-b783-1c44d36d192f"},"vehicle_type_id":"4","last_reported":1760707253,"current_range_meters":6400,"station_id":"ce4bhg12rcd13ifvqf70","pricing_plan_id":"cebpf4jnsgd1na2vs0mg"},{"bike_id":"7856590a-1572-412a-918e-77843d1b598a","system_id":"levelo_inurba_marseille","lat":43.28074,"lon":5.42186,"is_reserved":false,"is_disabled":false,"rental_uris":{"android":"levelo://app?vid=7856590a-1572-412a-918e-77843d1b598a","ios":"levelo://app?vid=7856590a-1572-412a-918e-77843d1b598a"},"vehicle_type_id":"4","last_reported":1760707253,"current_range_meters":6400,"station_id":"","pricing_plan_id":"cebpf4jnsgd1na2vs0mg"},{"bike_id":"9eae30da-c094-469b-a6c5-d90920aefd1a","system_id":"levelo_inurba_marseille","lat":43.28856,"lon":5.35832,"is_reserved":false,"is_disabled":false,"rental_uris":{"android":"levelo://app?vid=9eae30da-c094-469b-a6c5-d90920aefd1a","ios":"levelo://app?vid=9eae30da-c094-469b-a6c5-d90920aefd1a"},"vehicle_type_id":"4","last_reported":1760707253,"current_range_meters":6400,"station_id":"ce4bhb12rcd13ifvqem0","pricing_plan_id":"cebpf4jnsgd1na2vs0mg"},{"bike_id":"08a6c464-0d5e-43a8-a20a-d249a624fcad","system_id":"levelo_inurba_marseille","lat":43.29912,"lon":5.37461,"is_reserved":false,"is_disabled":false,"rental_uris":{"android":"levelo://app?vid=08a6c464-0d5e-43a8-a20a-d249a624fcad","ios":"levelo://app?vid=08a6c464-0d5e-43a8-a20a-d249a624fcad"},"vehicle_type_id":"4","last_reported":1760707253,"current_range_meters":6400,"station_id":"ce4bgjh2rcd13ifvqbg0","pricing_plan_id":"cebpf4jnsgd1na2vs0mg"},{"bike_id":"d8e9b8f7-08e2-4408-ba5a-bf3e71307936","system_id":"levelo_inurba_marseille","lat":43.21191,"lon":5.35074,"is_reserved":false,"is_disabled":false,"rental_uris":{"android":"levelo://app?vid=d8e9b8f7-08e2-4408-ba5a-bf3e71307936","ios":"levelo://app?vid=d8e9b8f7-08e2-4408-ba5a-bf3e71307936"},"vehicle_type_id":"4","last_reported":1760707253,"current_range_meters":6800,"station_id":"st_cvj6sg6p6f1abm77japg","pricing_plan_id":"cebpf4jnsgd1na2vs0mg"},{"bike_id":"2cebb4f6-3364-4658-83fe-1e73ca62c675","system_id":"levelo_inurba_marseille","lat":43.28865,"lon":5.35839,"is_reserved":false,"is_disabled":false,"rental_uris":{"android":"levelo://app?vid=2cebb4f6-3364-4658-83fe-1e73ca62c675","ios":"levelo://app?vid=2cebb4f6-3364-4658-83fe-1e73ca62c675"},"vehicle_type_id":"4","last_reported":1760707253,"current_range_meters":6800,"station_id":"ce4bhb12rcd13ifvqem0","pricing_plan_id":"cebpf4jnsgd1na2vs0mg"},{"bike_id":"7a63795d-d6ae-4db3-866d-c16b2af002f1","system_id":"levelo_inurba_marseille","lat":43.29969,"lon":5.37534,"is_reserved":false,"is_disabled":false,"rental_uris":{"android":"levelo://app?vid=7a63795d-d6ae-4db3-866d-c16b2af002f1","ios":"levelo://app?vid=7a63795d-d6ae-4db3-866d-c16b2af002f1"},"vehicle_type_id":"4","last_reported":1760707253,"current_range_meters":6800,"station_id":"","pricing_plan_id":"cebpf4jnsgd1na2vs0mg"},{"bike_id":"7e444206-20cf-47e2-a819-82c6ab3d59a7","system_id":"levelo_inurba_marseille","lat":43.330535,"lon":5.404363,"is_reserved":false,"is_disabled":false,"rental_uris":{"android":"levelo://app?vid=7e444206-20cf-47e2-a819-82c6ab3d59a7","ios":"levelo://app?vid=7e444206-20cf-47e2-a819-82c6ab3d59a7"},"vehicle_type_id":"4","last_reported":1760707253,"current_range_meters":6800,"station_id":"","pricing_plan_id":"cebpf4jnsgd1na2vs0mg"},{"bike_id":"662e034f-ec92-417c-a838-68762f3020bc","system_id":"levelo_inurba_marseille","lat":43.30656,"lon":5.36736,"is_reserved":false,"is_disabled":false,"rental_uris":{"android":"levelo://app?vid=662e034f-ec92-417c-a838-68762f3020bc","ios":"levelo://app?vid=662e034f-ec92-417c-a838-68762f3020bc"},"vehicle_type_id":"4","last_reported":1760707253,"current_range_meters":6800,"station_id":"","pricing_plan_id":"cebpf4jnsgd1na2vs0mg"},{"bike_id":"25e3c87d-e41e-4886-83c1-fab5f2c48172","system_id":"levelo_inurba_marseille","lat":43.31983,"lon":5.38133,"is_reserved":false,"is_disabled":false,"rental_uris":{"android":"levelo://app?vid=25e3c87d-e41e-4886-83c1-fab5f2c48172","ios":"levelo://app?vid=25e3c87d-e41e-4886-83c1-fab5f2c48172"},"vehicle_type_id":"4","last_reported":1760707253,"current_range_meters":6800,"station_id":"ce4bhr12rcd13ifvqhpg","pricing_plan_id":"cebpf4jnsgd1na2vs0mg"},{"bike_id":"1dc3768d-0b4e-4859-817c-5a4ee299d7ad","system_id":"levelo_inurba_marseille","lat":43.29725,"lon":5.37879,"is_reserved":false,"is_disabled":false,"rental_uris":{"android":"levelo://app?vid=1dc3768d-0b4e-4859-817c-5a4ee299d7ad","ios":"levelo://app?vid=1dc3768d-0b4e-4859-817c-5a4ee299d7ad"},"vehicle_type_id":"4","last_reported":1760707253,"current_range_meters":6800,"station_id":"","pricing_plan_id":"cebpf4jnsgd1na2vs0mg"},{"bike_id":"d3aba4c3-bee3-4e56-afb1-6ca7d2b1e5fe","system_id":"levelo_inurba_marseille","lat":43.28455,"lon":5.35892,"is_reserved":false,"is_disabled":false,"rental_uris":{"android":"levelo://app?vid=d3aba4c3-bee3-4e56-afb1-6ca7d2b1e5fe","ios":"levelo://app?vid=d3aba4c3-bee3-4e56-afb1-6ca7d2b1e5fe"},"vehicle_type_id":"4","last_reported":1760707253,"current_range_meters":6800,"station_id":"ce4bhah2rcd13ifvqei0","pricing_plan_id":"cebpf4jnsgd1na2vs0mg"},{"bike_id":"eb091316-8f4f-460f-ae89-5cb4862a9128","system_id":"levelo_inurba_marseille","lat":43.31154,"lon":5.38719,"is_reserved":false,"is_disabled":false,"rental_uris":{"android":"levelo://app?vid=eb091316-8f4f-460f-ae89-5cb4862a9128","ios":"levelo://app?vid=eb091316-8f4f-460f-ae89-5cb4862a9128"},"vehicle_type_id":"4","last_reported":1760707253,"current_range_meters":7200,"station_id":"ce4bgv12rcd13ifvqcp0","pricing_plan_id":"cebpf4jnsgd1na2vs0mg"},{"bike_id":"e37bf78d-4d5b-4f25-b1c2-8c578e88ddbd","system_id":"levelo_inurba_marseille","lat":43.31726,"lon":5.42392,"is_reserved":false,"is_disabled":false,"rental_uris":{"android":"levelo://app?vid=e37bf78d-4d5b-4f25-b1c2-8c578e88ddbd","ios":"levelo://app?vid=e37bf78d-4d5b-4f25-b1c2-8c578e88ddbd"},"vehicle_type_id":"4","last_reported":1760707253,"current_range_meters":7200,"station_id":"ce4bhp92rcd13ifvqhbg","pricing_plan_id":"cebpf4jnsgd1na2vs0mg"},{"bike_id":"af96e380-ef8b-412e-8dbe-07ad526806b5","system_id":"levelo_inurba_marseille","lat":43.337444,"lon":5.374475,"is_reserved":false,"is_disabled":false,"rental_uris":{"android":"levelo://app?vid=af96e380-ef8b-412e-8dbe-07ad526806b5","ios":"levelo://app?vid=af96e380-ef8b-412e-8dbe-07ad526806b5"},"vehicle_type_id":"4","last_reported":1760707253,"current_range_meters":7200,"station_id":"","pricing_plan_id":"cebpf4jnsgd1na2vs0mg"},{"bike_id":"e550f5da-de43-46ea-a16e-5ba4236de9d7","system_id":"levelo_inurba_marseille","lat":43.24651,"lon":5.3889,"is_reserved":false,"is_disabled":false,"rental_uris":{"android":"levelo://app?vid=e550f5da-de43-46ea-a16e-5ba4236de9d7","ios":"levelo://app?vid=e550f5da-de43-46ea-a16e-5ba4236de9d7"},"vehicle_type_id":"4","last_reported":1760707253,"current_range_meters":7200,"station_id":"ce4bhg12rcd13ifvqf60","pricing_plan_id":"cebpf4jnsgd1na2vs0mg"},{"bike_id":"a87a72bd-77ba-4bff-9047-0547c96b1a29","system_id":"levelo_inurba_marseille","lat":43.262,"lon":5.37933,"is_reserved":false,"is_disabled":false,"rental_uris":{"android":"levelo://app?vid=a87a72bd-77ba-4bff-9047-0547c96b1a29","ios":"levelo://app?vid=a87a72bd-77ba-4bff-9047-0547c96b1a29"},"vehicle_type_id":"4","last_reported":1760707253,"current_range_meters":7200,"station_id":"ce4bhjp2rcd13ifvqg90","pricing_plan_id":"cebpf4jnsgd1na2vs0mg"},{"bike_id":"48bc10e8-1a51-42f4-82c1-05ec6ca6dd73","system_id":"levelo_inurba_marseille","lat":43.31112,"lon":5.37774,"is_reserved":false,"is_disabled":false,"rental_uris":{"android":"levelo://app?vid=48bc10e8-1a51-42f4-82c1-05ec6ca6dd73","ios":"levelo://app?vid=48bc10e8-1a51-42f4-82c1-05ec6ca6dd73"},"vehicle_type_id":"4","last_reported":1760707253,"current_range_meters":8000,"station_id":"ce4bgt92rcd13ifvqcg0","pricing_plan_id":"cebpf4jnsgd1na2vs0mg"},{"bike_id":"1e39bd64-46a0-43c3-8087-d9bb5e37a5f0","system_id":"levelo_inurba_marseille","lat":43.23064,"lon":5.35494,"is_reserved":false,"is_disabled":false,"rental_uris":{"android":"levelo://app?vid=1e39bd64-46a0-43c3-8087-d9bb5e37a5f0","ios":"levelo://app?vid=1e39bd64-46a0-43c3-8087-d9bb5e37a5f0"},"vehicle_type_id":"4","last_reported":1760707253,"current_range_meters":8000,"station_id":"cpo3342slgdg3j2ifvpg","pricing_plan_id":"cebpf4jnsgd1na2vs0mg"},{"bike_id":"c871ca87-9ea0-4c82-8f96-1d74fe568265","system_id":"levelo_inurba_marseille","lat":43.285734,"lon":5.414754,"is_reserved":false,"is_disabled":false,"rental_uris":{"android":"levelo://app?vid=c871ca87-9ea0-4c82-8f96-1d74fe568265","ios":"levelo://app?vid=c871ca87-9ea0-4c82-8f96-1d74fe568265"},"vehicle_type_id":"4","last_reported":1760707253,"current_range_meters":8000,"station_id":"","pricing_plan_id":"cebpf4jnsgd1na2vs0mg"},{"bike_id":"086b03d7-49a8-400f-9daf-8ce5f3bba3fc","system_id":"levelo_inurba_marseille","lat":43.29093,"lon":5.38135,"is_reserved":false,"is_disabled":false,"rental_uris":{"android":"levelo://app?vid=086b03d7-49a8-400f-9daf-8ce5f3bba3fc","ios":"levelo://app?vid=086b03d7-49a8-400f-9daf-8ce5f3bba3fc"},"vehicle_type_id":"4","last_reported":1760707253,"current_range_meters":8000,"station_id":"ce4bh512rcd13ifvqe2g","pricing_plan_id":"cebpf4jnsgd1na2vs0mg"},{"bike_id":"014e245f-2876-40ca-8883-74c624ec5457","system_id":"levelo_inurba_marseille","lat":43.29,"lon":5.35611,"is_reserved":false,"is_disabled":false,"rental_uris":{"android":"levelo://app?vid=014e245f-2876-40ca-8883-74c624ec5457","ios":"levelo://app?vid=014e245f-2876-40ca-8883-74c624ec5457"},"vehicle_type_id":"4","last_reported":1760707253,"current_range_meters":8000,"station_id":"ce4bhb92rcd13ifvqen0","pricing_plan_id":"cebpf4jnsgd1na2vs0mg"},{"bike_id":"5be0b6e6-11df-4388-a50d-68ecb8c40dc7","system_id":"levelo_inurba_marseille","lat":43.24997,"lon":5.38937,"is_reserved":false,"is_disabled":false,"rental_uris":{"android":"levelo://app?vid=5be0b6e6-11df-4388-a50d-68ecb8c40dc7","ios":"levelo://app?vid=5be0b6e6-11df-4388-a50d-68ecb8c40dc7"},"vehicle_type_id":"4","last_reported":1760707253,"current_range_meters":8400,"station_id":"ce4bhgp2rcd13ifvqfd0","pricing_plan_id":"cebpf4jnsgd1na2vs0mg"},{"bike_id":"47b6a661-48b8-461f-9827-f48295e67bbf","system_id":"levelo_inurba_marseille","lat":43.26306,"lon":5.3985,"is_reserved":false,"is_disabled":false,"rental_uris":{"android":"levelo://app?vid=47b6a661-48b8-461f-9827-f48295e67bbf","ios":"levelo://app?vid=47b6a661-48b8-461f-9827-f48295e67bbf"},"vehicle_type_id":"4","last_reported":1760707253,"current_range_meters":8400,"station_id":"","pricing_plan_id":"cebpf4jnsgd1na2vs0mg"},{"bike_id":"dc7c42fc-daab-4fee-ad89-30c5c8ba8a3e","system_id":"levelo_inurba_marseille","lat":43.23147,"lon":5.43716,"is_reserved":false,"is_disabled":false,"rental_uris":{"android":"levelo://app?vid=dc7c42fc-daab-4fee-ad89-30c5c8ba8a3e","ios":"levelo://app?vid=dc7c42fc-daab-4fee-ad89-30c5c8ba8a3e"},"vehicle_type_id":"4","last_reported":1760707253,"current_range_meters":8400,"station_id":"ce4bhmp2rcd13ifvqgog","pricing_plan_id":"cebpf4jnsgd1na2vs0mg"},{"bike_id":"fe492730-dea3-43c3-a670-6d0b7db09fc3","system_id":"levelo_inurba_marseille","lat":43.284131,"lon":5.34977,"is_reserved":false,"is_disabled":false,"rental_uris":{"android":"levelo://app?vid=fe492730-dea3-43c3-a670-6d0b7db09fc3","ios":"levelo://app?vid=fe492730-dea3-43c3-a670-6d0b7db09fc3"},"vehicle_type_id":"4","last_reported":1760707253,"current_range_meters":8400,"station_id":"ce4bhbh2rcd13ifvqepg","pricing_plan_id":"cebpf4jnsgd1na2vs0mg"},{"bike_id":"1163a622-2040-485b-8c45-da564238b1b0","system_id":"levelo_inurba_marseille","lat":43.308712,"lon":5.39638,"is_reserved":false,"is_disabled":false,"rental_uris":{"android":"levelo://app?vid=1163a622-2040-485b-8c45-da564238b1b0","ios":"levelo://app?vid=1163a622-2040-485b-8c45-da564238b1b0"},"vehicle_type_id":"4","last_reported":1760707253,"current_range_meters":8400,"station_id":"ce4bh012rcd13ifvqcv0","pricing_plan_id":"cebpf4jnsgd1na2vs0mg"},{"bike_id":"a4911cc1-6afe-40a3-ba0e-f16af3882d45","system_id":"levelo_inurba_marseille","lat":43.21751,"lon":5.34595,"is_reserved":false,"is_disabled":false,"rental_uris":{"android":"levelo://app?vid=a4911cc1-6afe-40a3-ba0e-f16af3882d45","ios":"levelo://app?vid=a4911cc1-6afe-40a3-ba0e-f16af3882d45"},"vehicle_type_id":"4","last_reported":1760707253,"current_range_meters":8400,"station_id":"","pricing_plan_id":"cebpf4jnsgd1na2vs0mg"},{"bike_id":"46a1230c-8019-4afa-8cde-0aa21c91ab75","system_id":"levelo_inurba_marseille","lat":43.27044,"lon":5.42302,"is_reserved":false,"is_disabled":false,"rental_uris":{"android":"levelo://app?vid=46a1230c-8019-4afa-8cde-0aa21c91ab75","ios":"levelo://app?vid=46a1230c-8019-4afa-8cde-0aa21c91ab75"},"vehicle_type_id":"4","last_reported":1760707253,"current_range_meters":8400,"station_id":"ce4bhk92rcd13ifvqgb0","pricing_plan_id":"cebpf4jnsgd1na2vs0mg"},{"bike_id":"41585c30-6fed-42a6-a6c5-1b099ccfe2a5","system_id":"levelo_inurba_marseille","lat":43.230537,"lon":5.354909,"is_reserved":false,"is_disabled":false,"rental_uris":{"android":"levelo://app?vid=41585c30-6fed-42a6-a6c5-1b099ccfe2a5","ios":"levelo://app?vid=41585c30-6fed-42a6-a6c5-1b099ccfe2a5"},"vehicle_type_id":"4","last_reported":1760707253,"current_range_meters":8400,"station_id":"cpo3342slgdg3j2ifvpg","pricing_plan_id":"cebpf4jnsgd1na2vs0mg"},{"bike_id":"9b4645d4-55f5-4ac8-9357-fbee8c4d72c4","system_id":"levelo_inurba_marseille","lat":43.26941,"lon":5.40254,"is_reserved":false,"is_disabled":false,"rental_uris":{"android":"levelo://app?vid=9b4645d4-55f5-4ac8-9357-fbee8c4d72c4","ios":"levelo://app?vid=9b4645d4-55f5-4ac8-9357-fbee8c4d72c4"},"vehicle_type_id":"4","last_reported":1760707253,"current_range_meters":8800,"station_id":"cjm6bp8fraef2m0cb0m0","pricing_plan_id":"cebpf4jnsgd1na2vs0mg"},{"bike_id":"9ddccea7-f53a-4958-a1b4-cbf894f8fdd1","system_id":"levelo_inurba_marseille","lat":43.21751,"lon":5.34605,"is_reserved":false,"is_disabled":true,"rental_uris":{"android":"levelo://app?vid=9ddccea7-f53a-4958-a1b4-cbf894f8fdd1","ios":"levelo://app?vid=9ddccea7-f53a-4958-a1b4-cbf894f8fdd1"},"vehicle_type_id":"4","last_reported":1760707253,"current_range_meters":8800,"station_id":"st_cvj6r9ubvosntc0bgbag","pricing_plan_id":"cebpf4jnsgd1na2vs0mg"},{"bike_id":"5ef7f410-29cd-4571-9d26-07c7bddc2c17","system_id":"levelo_inurba_marseille","lat":43.26208,"lon":5.37443,"is_reserved":false,"is_disabled":false,"rental_uris":{"android":"levelo://app?vid=5ef7f410-29cd-4571-9d26-07c7bddc2c17","ios":"levelo://app?vid=5ef7f410-29cd-4571-9d26-07c7bddc2c17"},"vehicle_type_id":"4","last_reported":1760707253,"current_range_meters":8800,"station_id":"ce4bhgp2rcd13ifvqfc0","pricing_plan_id":"cebpf4jnsgd1na2vs0mg"},{"bike_id":"121f55c8-5a85-4142-a96c-bf52eb873442","system_id":"levelo_inurba_marseille","lat":43.30453,"lon":5.36918,"is_reserved":false,"is_disabled":false,"rental_uris":{"android":"levelo://app?vid=121f55c8-5a85-4142-a96c-bf52eb873442","ios":"levelo://app?vid=121f55c8-5a85-4142-a96c-bf52eb873442"},"vehicle_type_id":"4","last_reported":1760707253,"current_range_meters":8800,"station_id":"","pricing_plan_id":"cebpf4jnsgd1na2vs0mg"},{"bike_id":"0670def4-b15a-4c00-8829-0cd906a61bcb","system_id":"levelo_inurba_marseille","lat":43.33763,"lon":5.37435,"is_reserved":false,"is_disabled":false,"rental_uris":{"android":"levelo://app?vid=0670def4-b15a-4c00-8829-0cd906a61bcb","ios":"levelo://app?vid=0670def4-b15a-4c00-8829-0cd906a61bcb"},"vehicle_type_id":"4","last_reported":1760707253,"current_range_meters":8800,"station_id":"","pricing_plan_id":"cebpf4jnsgd1na2vs0mg"},{"bike_id":"8cefe482-37a7-4f1f-b5c1-48076547feb9","system_id":"levelo_inurba_marseille","lat":43.293516,"lon":5.374443,"is_reserved":false,"is_disabled":false,"rental_uris":{"android":"levelo://app?vid=8cefe482-37a7-4f1f-b5c1-48076547feb9","ios":"levelo://app?vid=8cefe482-37a7-4f1f-b5c1-48076547feb9"},"vehicle_type_id":"4","last_reported":1760707253,"current_range_meters":8800,"station_id":"","pricing_plan_id":"cebpf4jnsgd1na2vs0mg"},{"bike_id":"cb12ac95-b112-40d8-8b7d-06759435ef6f","system_id":"levelo_inurba_marseille","lat":43.29774,"lon":5.37076,"is_reserved":false,"is_disabled":false,"rental_uris":{"android":"levelo://app?vid=cb12ac95-b112-40d8-8b7d-06759435ef6f","ios":"levelo://app?vid=cb12ac95-b112-40d8-8b7d-06759435ef6f"},"vehicle_type_id":"4","last_reported":1760707253,"current_range_meters":8800,"station_id":"ce4bgop2rcd13ifvqc1g","pricing_plan_id":"cebpf4jnsgd1na2vs0mg"},{"bike_id":"b6ff32cc-417d-47af-925d-9f99393741e6","system_id":"levelo_inurba_marseille","lat":43.225347,"lon":5.348211,"is_reserved":false,"is_disabled":false,"rental_uris":{"android":"levelo://app?vid=b6ff32cc-417d-47af-925d-9f99393741e6","ios":"levelo://app?vid=b6ff32cc-417d-47af-925d-9f99393741e6"},"vehicle_type_id":"4","last_reported":1760707253,"current_range_meters":8800,"station_id":"st_cvj5dfep6f1abm77gieg","pricing_plan_id":"cebpf4jnsgd1na2vs0mg"},{"bike_id":"718245f8-d5b1-4202-a5b7-31ace93c41d9","system_id":"levelo_inurba_marseille","lat":43.30649,"lon":5.40031,"is_reserved":false,"is_disabled":false,"rental_uris":{"android":"levelo://app?vid=718245f8-d5b1-4202-a5b7-31ace93c41d9","ios":"levelo://app?vid=718245f8-d5b1-4202-a5b7-31ace93c41d9"},"vehicle_type_id":"4","last_reported":1760707253,"current_range_meters":9200,"station_id":"","pricing_plan_id":"cebpf4jnsgd1na2vs0mg"},{"bike_id":"e257a5c9-b99e-4af1-ac4f-b017f1c8b418","system_id":"levelo_inurba_marseille","lat":43.33759,"lon":5.37438,"is_reserved":false,"is_disabled":false,"rental_uris":{"android":"levelo://app?vid=e257a5c9-b99e-4af1-ac4f-b017f1c8b418","ios":"levelo://app?vid=e257a5c9-b99e-4af1-ac4f-b017f1c8b418"},"vehicle_type_id":"4","last_reported":1760707253,"current_range_meters":9200,"station_id":"","pricing_plan_id":"cebpf4jnsgd1na2vs0mg"},{"bike_id":"245a030c-0c43-41f8-a4cc-088d55252b06","system_id":"levelo_inurba_marseille","lat":43.2447,"lon":5.36933,"is_reserved":false,"is_disabled":false,"rental_uris":{"android":"levelo://app?vid=245a030c-0c43-41f8-a4cc-088d55252b06","ios":"levelo://app?vid=245a030c-0c43-41f8-a4cc-088d55252b06"},"vehicle_type_id":"4","last_reported":1760707253,"current_range_meters":9200,"station_id":"","pricing_plan_id":"cebpf4jnsgd1na2vs0mg"},{"bike_id":"de9e19bc-b9ca-4d47-80aa-ea19df98d7f3","system_id":"levelo_inurba_marseille","lat":43.301489,"lon":5.398615,"is_reserved":false,"is_disabled":false,"rental_uris":{"android":"levelo://app?vid=de9e19bc-b9ca-4d47-80aa-ea19df98d7f3","ios":"levelo://app?vid=de9e19bc-b9ca-4d47-80aa-ea19df98d7f3"},"vehicle_type_id":"4","last_reported":1760707253,"current_range_meters":9200,"station_id":"ce4bh0h2rcd13ifvqd40","pricing_plan_id":"cebpf4jnsgd1na2vs0mg"},{"bike_id":"903ef5ef-47fa-4a6a-b5f1-f68be7818437","system_id":"levelo_inurba_marseille","lat":43.30936,"lon":5.4015,"is_reserved":false,"is_disabled":false,"rental_uris":{"android":"levelo://app?vid=903ef5ef-47fa-4a6a-b5f1-f68be7818437","ios":"levelo://app?vid=903ef5ef-47fa-4a6a-b5f1-f68be7818437"},"vehicle_type_id":"4","last_reported":1760707253,"current_range_meters":9200,"station_id":"ce4bgvp2rcd13ifvqct0","pricing_plan_id":"cebpf4jnsgd1na2vs0mg"},{"bike_id":"a83f5f4e-0bbd-4494-a20c-f35b0a286b76","system_id":"levelo_inurba_marseille","lat":43.29791,"lon":5.39336,"is_reserved":false,"is_disabled":false,"rental_uris":{"android":"levelo://app?vid=a83f5f4e-0bbd-4494-a20c-f35b0a286b76","ios":"levelo://app?vid=a83f5f4e-0bbd-4494-a20c-f35b0a286b76"},"vehicle_type_id":"4","last_reported":1760707253,"current_range_meters":9200,"station_id":"chh1huq6cuj3fo74tm60","pricing_plan_id":"cebpf4jnsgd1na2vs0mg"},{"bike_id":"cd01b80a-42c6-4233-8fc2-8a88f1efc520","system_id":"levelo_inurba_marseille","lat":43.28575,"lon":5.39496,"is_reserved":false,"is_disabled":false,"rental_uris":{"android":"levelo://app?vid=cd01b80a-42c6-4233-8fc2-8a88f1efc520","ios":"levelo://app?vid=cd01b80a-42c6-4233-8fc2-8a88f1efc520"},"vehicle_type_id":"4","last_reported":1760707253,"current_range_meters":9200,"station_id":"ce4bh292rcd13ifvqdg0","pricing_plan_id":"cebpf4jnsgd1na2vs0mg"},{"bike_id":"60d7d661-a37b-4ca5-ba97-b7c92f12a64b","system_id":"levelo_inurba_marseille","lat":43.29529,"lon":5.38534,"is_reserved":false,"is_disabled":false,"rental_uris":{"android":"levelo://app?vid=60d7d661-a37b-4ca5-ba97-b7c92f12a64b","ios":"levelo://app?vid=60d7d661-a37b-4ca5-ba97-b7c92f12a64b"},"vehicle_type_id":"4","last_reported":1760707253,"current_range_meters":9200,"station_id":"ce4bgih2rcd13ifvqba0","pricing_plan_id":"cebpf4jnsgd1na2vs0mg"},{"bike_id":"c8dadaf0-734d-427c-a1b5-6c7b9c161286","system_id":"levelo_inurba_marseille","lat":43.30135,"lon":5.3743,"is_reserved":false,"is_disabled":false,"rental_uris":{"android":"levelo://app?vid=c8dadaf0-734d-427c-a1b5-6c7b9c161286","ios":"levelo://app?vid=c8dadaf0-734d-427c-a1b5-6c7b9c161286"},"vehicle_type_id":"4","last_reported":1760707253,"current_range_meters":9600,"station_id":"ce4bgs92rcd13ifvqcc0","pricing_plan_id":"cebpf4jnsgd1na2vs0mg"},{"bike_id":"a8fa9ddf-7e24-4766-88c2-443fe63da1cb","system_id":"levelo_inurba_marseille","lat":43.2993,"lon":5.365532,"is_reserved":false,"is_disabled":false,"rental_uris":{"android":"levelo://app?vid=a8fa9ddf-7e24-4766-88c2-443fe63da1cb","ios":"levelo://app?vid=a8fa9ddf-7e24-4766-88c2-443fe63da1cb"},"vehicle_type_id":"4","last_reported":1760707253,"current_range_meters":9600,"station_id":"ce4bgm92rcd13ifvqbr0","pricing_plan_id":"cebpf4jnsgd1na2vs0mg"},{"bike_id":"d222e4c1-8b75-4697-ba81-75a11105c67c","system_id":"levelo_inurba_marseille","lat":43.284862,"lon":5.384122,"is_reserved":false,"is_disabled":false,"rental_uris":{"android":"levelo://app?vid=d222e4c1-8b75-4697-ba81-75a11105c67c","ios":"levelo://app?vid=d222e4c1-8b75-4697-ba81-75a11105c67c"},"vehicle_type_id":"4","last_reported":1760707253,"current_range_meters":9600,"station_id":"ce4bh512rcd13ifvqe3g","pricing_plan_id":"cebpf4jnsgd1na2vs0mg"},{"bike_id":"3a07c406-61d5-445b-9305-871d95af1ab2","system_id":"levelo_inurba_marseille","lat":43.2617,"lon":5.40424,"is_reserved":false,"is_disabled":false,"rental_uris":{"android":"levelo://app?vid=3a07c406-61d5-445b-9305-871d95af1ab2","ios":"levelo://app?vid=3a07c406-61d5-445b-9305-871d95af1ab2"},"vehicle_type_id":"4","last_reported":1760707253,"current_range_meters":9600,"station_id":"","pricing_plan_id":"cebpf4jnsgd1na2vs0mg"},{"bike_id":"1b321b3c-51bc-4bf4-8c01-58fcdbcd94e1","system_id":"levelo_inurba_marseille","lat":43.29306,"lon":5.374592,"is_reserved":false,"is_disabled":false,"rental_uris":{"android":"levelo://app?vid=1b321b3c-51bc-4bf4-8c01-58fcdbcd94e1","ios":"levelo://app?vid=1b321b3c-51bc-4bf4-8c01-58fcdbcd94e1"},"vehicle_type_id":"4","last_reported":1760707253,"current_range_meters":9600,"station_id":"ce4bgi12rcd13ifvqb70","pricing_plan_id":"cebpf4jnsgd1na2vs0mg"},{"bike_id":"fdd93e62-8b16-4a1a-acd9-813dd0da392d","system_id":"levelo_inurba_marseille","lat":43.29708,"lon":5.36604,"is_reserved":false,"is_disabled":false,"rental_uris":{"android":"levelo://app?vid=fdd93e62-8b16-4a1a-acd9-813dd0da392d","ios":"levelo://app?vid=fdd93e62-8b16-4a1a-acd9-813dd0da392d"},"vehicle_type_id":"4","last_reported":1760707253,"current_range_meters":9600,"station_id":"ce4bgn12rcd13ifvqbt0","pricing_plan_id":"cebpf4jnsgd1na2vs0mg"},{"bike_id":"26416dae-68db-465d-ba83-72f605f27523","system_id":"levelo_inurba_marseille","lat":43.337444,"lon":5.374475,"is_reserved":false,"is_disabled":false,"rental_uris":{"android":"levelo://app?vid=26416dae-68db-465d-ba83-72f605f27523","ios":"levelo://app?vid=26416dae-68db-465d-ba83-72f605f27523"},"vehicle_type_id":"4","last_reported":1760707253,"current_range_meters":9600,"station_id":"","pricing_plan_id":"cebpf4jnsgd1na2vs0mg"},{"bike_id":"da61d492-ed3e-49c7-b57c-197e72dbabe0","system_id":"levelo_inurba_marseille","lat":43.29773,"lon":5.37097,"is_reserved":false,"is_disabled":false,"rental_uris":{"android":"levelo://app?vid=da61d492-ed3e-49c7-b57c-197e72dbabe0","ios":"levelo://app?vid=da61d492-ed3e-49c7-b57c-197e72dbabe0"},"vehicle_type_id":"4","last_reported":1760707253,"current_range_meters":9600,"station_id":"ce4bgop2rcd13ifvqc1g","pricing_plan_id":"cebpf4jnsgd1na2vs0mg"},{"bike_id":"9392b340-d171-48a7-acd2-ca0348810f4c","system_id":"levelo_inurba_marseille","lat":43.265188,"lon":5.380146,"is_reserved":false,"is_disabled":false,"rental_uris":{"android":"levelo://app?vid=9392b340-d171-48a7-acd2-ca0348810f4c","ios":"levelo://app?vid=9392b340-d171-48a7-acd2-ca0348810f4c"},"vehicle_type_id":"4","last_reported":1760707253,"current_range_meters":9600,"station_id":"","pricing_plan_id":"cebpf4jnsgd1na2vs0mg"},{"bike_id":"f652a7ec-5d72-4efa-a17c-9899ec61b5ec","system_id":"levelo_inurba_marseille","lat":43.2815,"lon":5.42653,"is_reserved":false,"is_disabled":false,"rental_uris":{"android":"levelo://app?vid=f652a7ec-5d72-4efa-a17c-9899ec61b5ec","ios":"levelo://app?vid=f652a7ec-5d72-4efa-a17c-9899ec61b5ec"},"vehicle_type_id":"4","last_reported":1760707253,"current_range_meters":9600,"station_id":"ce4bhnh2rcd13ifvqgug","pricing_plan_id":"cebpf4jnsgd1na2vs0mg"},{"bike_id":"33337add-7262-4041-83e3-0fac81a5b737","system_id":"levelo_inurba_marseille","lat":43.23148,"lon":5.43721,"is_reserved":false,"is_disabled":false,"rental_uris":{"android":"levelo://app?vid=33337add-7262-4041-83e3-0fac81a5b737","ios":"levelo://app?vid=33337add-7262-4041-83e3-0fac81a5b737"},"vehicle_type_id":"4","last_reported":1760707253,"current_range_meters":10000,"station_id":"ce4bhmp2rcd13ifvqgog","pricing_plan_id":"cebpf4jnsgd1na2vs0mg"},{"bike_id":"2a5498ee-d604-476f-a7c3-7260eebaa7f3","system_id":"levelo_inurba_marseille","lat":43.29571,"lon":5.37426,"is_reserved":false,"is_disabled":false,"rental_uris":{"android":"levelo://app?vid=2a5498ee-d604-476f-a7c3-7260eebaa7f3","ios":"levelo://app?vid=2a5498ee-d604-476f-a7c3-7260eebaa7f3"},"vehicle_type_id":"4","last_reported":1760707253,"current_range_meters":10000,"station_id":"","pricing_plan_id":"cebpf4jnsgd1na2vs0mg"},{"bike_id":"85ab0621-f6e6-42af-92e1-8aeaa211f09c","system_id":"levelo_inurba_marseille","lat":43.308927,"lon":5.396598,"is_reserved":false,"is_disabled":false,"rental_uris":{"android":"levelo://app?vid=85ab0621-f6e6-42af-92e1-8aeaa211f09c","ios":"levelo://app?vid=85ab0621-f6e6-42af-92e1-8aeaa211f09c"},"vehicle_type_id":"4","last_reported":1760707253,"current_range_meters":10000,"station_id":"ce4bh012rcd13ifvqcv0","pricing_plan_id":"cebpf4jnsgd1na2vs0mg"},{"bike_id":"128833b2-1800-42e7-a7ac-1702fae02054","system_id":"levelo_inurba_marseille","lat":43.29801,"lon":5.38086,"is_reserved":false,"is_disabled":false,"rental_uris":{"android":"levelo://app?vid=128833b2-1800-42e7-a7ac-1702fae02054","ios":"levelo://app?vid=128833b2-1800-42e7-a7ac-1702fae02054"},"vehicle_type_id":"4","last_reported":1760707253,"current_range_meters":10800,"station_id":"ce4bgip2rcd13ifvqbb0","pricing_plan_id":"cebpf4jnsgd1na2vs0mg"},{"bike_id":"3b50069e-91ef-42df-b795-33884340c6f0","system_id":"levelo_inurba_marseille","lat":43.279877,"lon":5.416671,"is_reserved":false,"is_disabled":false,"rental_uris":{"android":"levelo://app?vid=3b50069e-91ef-42df-b795-33884340c6f0","ios":"levelo://app?vid=3b50069e-91ef-42df-b795-33884340c6f0"},"vehicle_type_id":"4","last_reported":1760707253,"current_range_meters":10800,"station_id":"ce4bho12rcd13ifvqh1g","pricing_plan_id":"cebpf4jnsgd1na2vs0mg"},{"bike_id":"24d82d64-1145-442f-a9f5-19238b0b39ef","system_id":"levelo_inurba_marseille","lat":43.272133,"lon":5.391866,"is_reserved":false,"is_disabled":false,"rental_uris":{"android":"levelo://app?vid=24d82d64-1145-442f-a9f5-19238b0b39ef","ios":"levelo://app?vid=24d82d64-1145-442f-a9f5-19238b0b39ef"},"vehicle_type_id":"4","last_reported":1760707253,"current_range_meters":10800,"station_id":"","pricing_plan_id":"cebpf4jnsgd1na2vs0mg"},{"bike_id":"dab383d9-5a29-4adb-8071-d316ec5c38c6","system_id":"levelo_inurba_marseille","lat":43.3168,"lon":5.40463,"is_reserved":false,"is_disabled":false,"rental_uris":{"android":"levelo://app?vid=dab383d9-5a29-4adb-8071-d316ec5c38c6","ios":"levelo://app?vid=dab383d9-5a29-4adb-8071-d316ec5c38c6"},"vehicle_type_id":"4","last_reported":1760707253,"current_range_meters":10800,"station_id":"ce4bh012rcd13ifvqd00","pricing_plan_id":"cebpf4jnsgd1na2vs0mg"},{"bike_id":"f7e6ab99-08f9-4087-b26d-95546807223b","system_id":"levelo_inurba_marseille","lat":43.30537,"lon":5.36537,"is_reserved":false,"is_disabled":false,"rental_uris":{"android":"levelo://app?vid=f7e6ab99-08f9-4087-b26d-95546807223b","ios":"levelo://app?vid=f7e6ab99-08f9-4087-b26d-95546807223b"},"vehicle_type_id":"4","last_reported":1760707253,"current_range_meters":10800,"station_id":"ce4bgs12rcd13ifvqcag","pricing_plan_id":"cebpf4jnsgd1na2vs0mg"},{"bike_id":"edc2b540-f4d1-424e-9002-80823ed0b6b2","system_id":"levelo_inurba_marseille","lat":43.28385,"lon":5.37047,"is_reserved":false,"is_disabled":false,"rental_uris":{"android":"levelo://app?vid=edc2b540-f4d1-424e-9002-80823ed0b6b2","ios":"levelo://app?vid=edc2b540-f4d1-424e-9002-80823ed0b6b2"},"vehicle_type_id":"4","last_reported":1760707253,"current_range_meters":10800,"station_id":"","pricing_plan_id":"cebpf4jnsgd1na2vs0mg"},{"bike_id":"16da8b64-b43e-4e82-8e0e-27ff48766e57","system_id":"levelo_inurba_marseille","lat":43.27493,"lon":5.4246,"is_reserved":false,"is_disabled":false,"rental_uris":{"android":"levelo://app?vid=16da8b64-b43e-4e82-8e0e-27ff48766e57","ios":"levelo://app?vid=16da8b64-b43e-4e82-8e0e-27ff48766e57"},"vehicle_type_id":"4","last_reported":1760707253,"current_range_meters":11200,"station_id":"ce4bhn92rcd13ifvqgrg","pricing_plan_id":"cebpf4jnsgd1na2vs0mg"},{"bike_id":"416f580b-31c7-4ade-8604-dbd86eb8155f","system_id":"levelo_inurba_marseille","lat":43.28162,"lon":5.42124,"is_reserved":false,"is_disabled":false,"rental_uris":{"android":"levelo://app?vid=416f580b-31c7-4ade-8604-dbd86eb8155f","ios":"levelo://app?vid=416f580b-31c7-4ade-8604-dbd86eb8155f"},"vehicle_type_id":"4","last_reported":1760707253,"current_range_meters":11200,"station_id":"","pricing_plan_id":"cebpf4jnsgd1na2vs0mg"},{"bike_id":"1c3664f0-daa7-4fd0-a6d8-42680b262940","system_id":"levelo_inurba_marseille","lat":43.29788,"lon":5.37099,"is_reserved":false,"is_disabled":false,"rental_uris":{"android":"levelo://app?vid=1c3664f0-daa7-4fd0-a6d8-42680b262940","ios":"levelo://app?vid=1c3664f0-daa7-4fd0-a6d8-42680b262940"},"vehicle_type_id":"4","last_reported":1760707253,"current_range_meters":11200,"station_id":"ce4bgop2rcd13ifvqc1g","pricing_plan_id":"cebpf4jnsgd1na2vs0mg"},{"bike_id":"ab8dbe06-49f3-423b-99b1-2274be7ed343","system_id":"levelo_inurba_marseille","lat":43.29962,"lon":5.37153,"is_reserved":false,"is_disabled":false,"rental_uris":{"android":"levelo://app?vid=ab8dbe06-49f3-423b-99b1-2274be7ed343","ios":"levelo://app?vid=ab8dbe06-49f3-423b-99b1-2274be7ed343"},"vehicle_type_id":"4","last_reported":1760707253,"current_range_meters":11200,"station_id":"ce4bgr92rcd13ifvqc7g","pricing_plan_id":"cebpf4jnsgd1na2vs0mg"},{"bike_id":"d773d30e-aab0-4f9a-adf7-f408dd2af785","system_id":"levelo_inurba_marseille","lat":43.24294,"lon":5.37005,"is_reserved":false,"is_disabled":false,"rental_uris":{"android":"levelo://app?vid=d773d30e-aab0-4f9a-adf7-f408dd2af785","ios":"levelo://app?vid=d773d30e-aab0-4f9a-adf7-f408dd2af785"},"vehicle_type_id":"4","last_reported":1760707253,"current_range_meters":11600,"station_id":"ce4bhhh2rcd13ifvqfk0","pricing_plan_id":"cebpf4jnsgd1na2vs0mg"},{"bike_id":"e71b6049-0273-45e6-9b9f-03844307b2eb","system_id":"levelo_inurba_marseille","lat":43.21736,"lon":5.34619,"is_reserved":false,"is_disabled":false,"rental_uris":{"android":"levelo://app?vid=e71b6049-0273-45e6-9b9f-03844307b2eb","ios":"levelo://app?vid=e71b6049-0273-45e6-9b9f-03844307b2eb"},"vehicle_type_id":"4","last_reported":1760707253,"current_range_meters":11600,"station_id":"","pricing_plan_id":"cebpf4jnsgd1na2vs0mg"},{"bike_id":"1ed051dc-08c1-44ea-b6dd-ac4fd2d0b314","system_id":"levelo_inurba_marseille","lat":43.30139,"lon":5.37417,"is_reserved":false,"is_disabled":false,"rental_uris":{"android":"levelo://app?vid=1ed051dc-08c1-44ea-b6dd-ac4fd2d0b314","ios":"levelo://app?vid=1ed051dc-08c1-44ea-b6dd-ac4fd2d0b314"},"vehicle_type_id":"4","last_reported":1760707253,"current_range_meters":11600,"station_id":"ce4bgs92rcd13ifvqcc0","pricing_plan_id":"cebpf4jnsgd1na2vs0mg"},{"bike_id":"8793d72e-ee7a-4e69-9812-70cdd38d20d0","system_id":"levelo_inurba_marseille","lat":43.29195,"lon":5.35804,"is_reserved":false,"is_disabled":false,"rental_uris":{"android":"levelo://app?vid=8793d72e-ee7a-4e69-9812-70cdd38d20d0","ios":"levelo://app?vid=8793d72e-ee7a-4e69-9812-70cdd38d20d0"},"vehicle_type_id":"4","last_reported":1760707253,"current_range_meters":11600,"station_id":"ce4bhb12rcd13ifvqel0","pricing_plan_id":"cebpf4jnsgd1na2vs0mg"},{"bike_id":"dd4257db-86cf-4d47-a349-08ba910fcf00","system_id":"levelo_inurba_marseille","lat":43.29043,"lon":5.39957,"is_reserved":false,"is_disabled":false,"rental_uris":{"android":"levelo://app?vid=dd4257db-86cf-4d47-a349-08ba910fcf00","ios":"levelo://app?vid=dd4257db-86cf-4d47-a349-08ba910fcf00"},"vehicle_type_id":"4","last_reported":1760707253,"current_range_meters":11600,"station_id":"ce4bh392rcd13ifvqdm0","pricing_plan_id":"cebpf4jnsgd1na2vs0mg"},{"bike_id":"fdc784f8-d2fd-40ec-9e60-dab278ff786b","system_id":"levelo_inurba_marseille","lat":43.280961,"lon":5.36889,"is_reserved":false,"is_disabled":false,"rental_uris":{"android":"levelo://app?vid=fdc784f8-d2fd-40ec-9e60-dab278ff786b","ios":"levelo://app?vid=fdc784f8-d2fd-40ec-9e60-dab278ff786b"},"vehicle_type_id":"4","last_reported":1760707253,"current_range_meters":11600,"station_id":"ce4bha12rcd13ifvqef0","pricing_plan_id":"cebpf4jnsgd1na2vs0mg"},{"bike_id":"26a281ab-d5a4-4a32-a8fc-e04178c13ad8","system_id":"levelo_inurba_marseille","lat":43.28342,"lon":5.38106,"is_reserved":false,"is_disabled":false,"rental_uris":{"android":"levelo://app?vid=26a281ab-d5a4-4a32-a8fc-e04178c13ad8","ios":"levelo://app?vid=26a281ab-d5a4-4a32-a8fc-e04178c13ad8"},"vehicle_type_id":"4","last_reported":1760707253,"current_range_meters":11600,"station_id":"ce4bh412rcd13ifvqdr0","pricing_plan_id":"cebpf4jnsgd1na2vs0mg"},{"bike_id":"f8271fbb-fc94-4868-8306-d1202b662e28","system_id":"levelo_inurba_marseille","lat":43.23152,"lon":5.43717,"is_reserved":false,"is_disabled":false,"rental_uris":{"android":"levelo://app?vid=f8271fbb-fc94-4868-8306-d1202b662e28","ios":"levelo://app?vid=f8271fbb-fc94-4868-8306-d1202b662e28"},"vehicle_type_id":"4","last_reported":1760707253,"current_range_meters":12000,"station_id":"ce4bhmp2rcd13ifvqgog","pricing_plan_id":"cebpf4jnsgd1na2vs0mg"},{"bike_id":"16222907-9112-4676-9fb5-6981d41ce45c","system_id":"levelo_inurba_marseille","lat":43.26674,"lon":5.38259,"is_reserved":false,"is_disabled":false,"rental_uris":{"android":"levelo://app?vid=16222907-9112-4676-9fb5-6981d41ce45c","ios":"levelo://app?vid=16222907-9112-4676-9fb5-6981d41ce45c"},"vehicle_type_id":"4","last_reported":1760707253,"current_range_meters":12000,"station_id":"ce4bhg92rcd13ifvqf90","pricing_plan_id":"cebpf4jnsgd1na2vs0mg"},{"bike_id":"f8a46790-65f2-49fd-a7ab-ed0faac80c9a","system_id":"levelo_inurba_marseille","lat":43.28616,"lon":5.35108,"is_reserved":false,"is_disabled":false,"rental_uris":{"android":"levelo://app?vid=f8a46790-65f2-49fd-a7ab-ed0faac80c9a","ios":"levelo://app?vid=f8a46790-65f2-49fd-a7ab-ed0faac80c9a"},"vehicle_type_id":"4","last_reported":1760707253,"current_range_meters":12000,"station_id":"ce4bhch2rcd13ifvqeug","pricing_plan_id":"cebpf4jnsgd1na2vs0mg"},{"bike_id":"be07811b-5ebb-4405-b72c-cc220ae1a3c6","system_id":"levelo_inurba_marseille","lat":43.28732,"lon":5.36083,"is_reserved":false,"is_disabled":false,"rental_uris":{"android":"levelo://app?vid=be07811b-5ebb-4405-b72c-cc220ae1a3c6","ios":"levelo://app?vid=be07811b-5ebb-4405-b72c-cc220ae1a3c6"},"vehicle_type_id":"4","last_reported":1760707253,"current_range_meters":12000,"station_id":"cki0cbj6b192h4jlfktg","pricing_plan_id":"cebpf4jnsgd1na2vs0mg"},{"bike_id":"5fe6e873-dba1-40dd-bc65-77de126f2710","system_id":"levelo_inurba_marseille","lat":43.332893,"lon":5.395256,"is_reserved":false,"is_disabled":false,"rental_uris":{"android":"levelo://app?vid=5fe6e873-dba1-40dd-bc65-77de126f2710","ios":"levelo://app?vid=5fe6e873-dba1-40dd-bc65-77de126f2710"},"vehicle_type_id":"4","last_reported":1760707253,"current_range_meters":12000,"station_id":"","pricing_plan_id":"cebpf4jnsgd1na2vs0mg"},{"bike_id":"2a49e1ef-9708-4370-befb-0363b064ae91","system_id":"levelo_inurba_marseille","lat":43.32476,"lon":5.3657,"is_reserved":false,"is_disabled":false,"rental_uris":{"android":"levelo://app?vid=2a49e1ef-9708-4370-befb-0363b064ae91","ios":"levelo://app?vid=2a49e1ef-9708-4370-befb-0363b064ae91"},"vehicle_type_id":"4","last_reported":1760707253,"current_range_meters":12400,"station_id":"ce4bhs12rcd13ifvqhvg","pricing_plan_id":"cebpf4jnsgd1na2vs0mg"},{"bike_id":"054a2089-08bf-4d2e-9574-bcfc2c4d2a97","system_id":"levelo_inurba_marseille","lat":43.22933,"lon":5.35373,"is_reserved":false,"is_disabled":false,"rental_uris":{"android":"levelo://app?vid=054a2089-08bf-4d2e-9574-bcfc2c4d2a97","ios":"levelo://app?vid=054a2089-08bf-4d2e-9574-bcfc2c4d2a97"},"vehicle_type_id":"4","last_reported":1760707253,"current_range_meters":12400,"station_id":"cpo3532slgdg3j2ikp40","pricing_plan_id":"cebpf4jnsgd1na2vs0mg"},{"bike_id":"076d84dd-b1d0-4917-b1c0-e7a9abb39121","system_id":"levelo_inurba_marseille","lat":43.28971,"lon":5.3784,"is_reserved":false,"is_disabled":false,"rental_uris":{"android":"levelo://app?vid=076d84dd-b1d0-4917-b1c0-e7a9abb39121","ios":"levelo://app?vid=076d84dd-b1d0-4917-b1c0-e7a9abb39121"},"vehicle_type_id":"4","last_reported":1760707253,"current_range_meters":12400,"station_id":"ce4bh9p2rcd13ifvqed0","pricing_plan_id":"cebpf4jnsgd1na2vs0mg"},{"bike_id":"c4ed00de-3711-4102-92e5-72a600ff79ec","system_id":"levelo_inurba_marseille","lat":43.3235,"lon":5.36754,"is_reserved":false,"is_disabled":false,"rental_uris":{"android":"levelo://app?vid=c4ed00de-3711-4102-92e5-72a600ff79ec","ios":"levelo://app?vid=c4ed00de-3711-4102-92e5-72a600ff79ec"},"vehicle_type_id":"4","last_reported":1760707253,"current_range_meters":12800,"station_id":"ce4bhsh2rcd13ifvqi2g","pricing_plan_id":"cebpf4jnsgd1na2vs0mg"},{"bike_id":"71b92fa5-cf41-48eb-81c9-d18498037b27","system_id":"levelo_inurba_marseille","lat":43.295536,"lon":5.422977,"is_reserved":false,"is_disabled":false,"rental_uris":{"android":"levelo://app?vid=71b92fa5-cf41-48eb-81c9-d18498037b27","ios":"levelo://app?vid=71b92fa5-cf41-48eb-81c9-d18498037b27"},"vehicle_type_id":"4","last_reported":1760707253,"current_range_meters":12800,"station_id":"ce4bhph2rcd13ifvqhdg","pricing_plan_id":"cebpf4jnsgd1na2vs0mg"},{"bike_id":"8e44e3dd-7676-4546-ad2d-9cf2b67d453c","system_id":"levelo_inurba_marseille","lat":43.29979,"lon":5.37181,"is_reserved":false,"is_disabled":false,"rental_uris":{"android":"levelo://app?vid=8e44e3dd-7676-4546-ad2d-9cf2b67d453c","ios":"levelo://app?vid=8e44e3dd-7676-4546-ad2d-9cf2b67d453c"},"vehicle_type_id":"4","last_reported":1760707253,"current_range_meters":12800,"station_id":"ce4bgr92rcd13ifvqc7g","pricing_plan_id":"cebpf4jnsgd1na2vs0mg"},{"bike_id":"ea883585-d0e4-4bcb-922c-57b2a3efdeac","system_id":"levelo_inurba_marseille","lat":43.30769,"lon":5.36824,"is_reserved":false,"is_disabled":false,"rental_uris":{"android":"levelo://app?vid=ea883585-d0e4-4bcb-922c-57b2a3efdeac","ios":"levelo://app?vid=ea883585-d0e4-4bcb-922c-57b2a3efdeac"},"vehicle_type_id":"4","last_reported":1760707253,"current_range_meters":12800,"station_id":"","pricing_plan_id":"cebpf4jnsgd1na2vs0mg"},{"bike_id":"31c547fc-2c89-407e-b526-dee1cd271aac","system_id":"levelo_inurba_marseille","lat":43.29036,"lon":5.37566,"is_reserved":false,"is_disabled":false,"rental_uris":{"android":"levelo://app?vid=31c547fc-2c89-407e-b526-dee1cd271aac","ios":"levelo://app?vid=31c547fc-2c89-407e-b526-dee1cd271aac"},"vehicle_type_id":"4","last_reported":1760707253,"current_range_meters":12800,"station_id":"ce4bh692rcd13ifvqe90","pricing_plan_id":"cebpf4jnsgd1na2vs0mg"},{"bike_id":"028bf19f-04c4-4ea1-bfd3-25ff1d42e935","system_id":"levelo_inurba_marseille","lat":43.28456,"lon":5.35895,"is_reserved":false,"is_disabled":false,"rental_uris":{"android":"levelo://app?vid=028bf19f-04c4-4ea1-bfd3-25ff1d42e935","ios":"levelo://app?vid=028bf19f-04c4-4ea1-bfd3-25ff1d42e935"},"vehicle_type_id":"4","last_reported":1760707253,"current_range_meters":12800,"station_id":"ce4bhah2rcd13ifvqei0","pricing_plan_id":"cebpf4jnsgd1na2vs0mg"},{"bike_id":"c831ba79-d702-495f-9270-513c83e37981","system_id":"levelo_inurba_marseille","lat":43.255847,"lon":5.382412,"is_reserved":false,"is_disabled":false,"rental_uris":{"android":"levelo://app?vid=c831ba79-d702-495f-9270-513c83e37981","ios":"levelo://app?vid=c831ba79-d702-495f-9270-513c83e37981"},"vehicle_type_id":"4","last_reported":1760707253,"current_range_meters":12800,"station_id":"ce4bhih2rcd13ifvqfs0","pricing_plan_id":"cebpf4jnsgd1na2vs0mg"},{"bike_id":"420fd037-e724-41a5-80ca-ab0ec8ad3788","system_id":"levelo_inurba_marseille","lat":43.27375,"lon":5.36256,"is_reserved":false,"is_disabled":false,"rental_uris":{"android":"levelo://app?vid=420fd037-e724-41a5-80ca-ab0ec8ad3788","ios":"levelo://app?vid=420fd037-e724-41a5-80ca-ab0ec8ad3788"},"vehicle_type_id":"4","last_reported":1760707253,"current_range_meters":12800,"station_id":"ce4bhbh2rcd13ifvqeo0","pricing_plan_id":"cebpf4jnsgd1na2vs0mg"},{"bike_id":"a817b630-bbed-48d3-97f4-9bd571b9ebab","system_id":"levelo_inurba_marseille","lat":43.30008,"lon":5.37345,"is_reserved":false,"is_disabled":false,"rental_uris":{"android":"levelo://app?vid=a817b630-bbed-48d3-97f4-9bd571b9ebab","ios":"levelo://app?vid=a817b630-bbed-48d3-97f4-9bd571b9ebab"},"vehicle_type_id":"4","last_reported":1760707253,"current_range_meters":12800,"station_id":"","pricing_plan_id":"cebpf4jnsgd1na2vs0mg"},{"bike_id":"e7a0de45-e44b-47bf-aa95-71faaf613e41","system_id":"levelo_inurba_marseille","lat":43.29781,"lon":5.37104,"is_reserved":false,"is_disabled":false,"rental_uris":{"android":"levelo://app?vid=e7a0de45-e44b-47bf-aa95-71faaf613e41","ios":"levelo://app?vid=e7a0de45-e44b-47bf-aa95-71faaf613e41"},"vehicle_type_id":"4","last_reported":1760707253,"current_range_meters":12800,"station_id":"","pricing_plan_id":"cebpf4jnsgd1na2vs0mg"},{"bike_id":"dbf248bd-0259-4f5b-b82c-7a8ca2e00bc3","system_id":"levelo_inurba_marseille","lat":43.22923,"lon":5.35366,"is_reserved":false,"is_disabled":false,"rental_uris":{"android":"levelo://app?vid=dbf248bd-0259-4f5b-b82c-7a8ca2e00bc3","ios":"levelo://app?vid=dbf248bd-0259-4f5b-b82c-7a8ca2e00bc3"},"vehicle_type_id":"4","last_reported":1760707253,"current_range_meters":12800,"station_id":"cpo3532slgdg3j2ikp40","pricing_plan_id":"cebpf4jnsgd1na2vs0mg"},{"bike_id":"d924506a-65ca-46f4-b801-dbf00f66ef80","system_id":"levelo_inurba_marseille","lat":43.297695,"lon":5.371037,"is_reserved":false,"is_disabled":false,"rental_uris":{"android":"levelo://app?vid=d924506a-65ca-46f4-b801-dbf00f66ef80","ios":"levelo://app?vid=d924506a-65ca-46f4-b801-dbf00f66ef80"},"vehicle_type_id":"4","last_reported":1760707253,"current_range_meters":13600,"station_id":"ce4bgop2rcd13ifvqc1g","pricing_plan_id":"cebpf4jnsgd1na2vs0mg"},{"bike_id":"88231688-b0d4-4add-b9d3-ba4527ac8655","system_id":"levelo_inurba_marseille","lat":43.30251,"lon":5.37717,"is_reserved":false,"is_disabled":false,"rental_uris":{"android":"levelo://app?vid=88231688-b0d4-4add-b9d3-ba4527ac8655","ios":"levelo://app?vid=88231688-b0d4-4add-b9d3-ba4527ac8655"},"vehicle_type_id":"4","last_reported":1760707253,"current_range_meters":13600,"station_id":"ce4bguh2rcd13ifvqcj0","pricing_plan_id":"cebpf4jnsgd1na2vs0mg"},{"bike_id":"94f60e57-4ea5-4506-9b0b-d49e351bbd01","system_id":"levelo_inurba_marseille","lat":43.29384,"lon":5.38331,"is_reserved":false,"is_disabled":false,"rental_uris":{"android":"levelo://app?vid=94f60e57-4ea5-4506-9b0b-d49e351bbd01","ios":"levelo://app?vid=94f60e57-4ea5-4506-9b0b-d49e351bbd01"},"vehicle_type_id":"4","last_reported":1760707253,"current_range_meters":13600,"station_id":"","pricing_plan_id":"cebpf4jnsgd1na2vs0mg"},{"bike_id":"1bc7b1ef-608c-4e33-9e57-e7a3b793ec96","system_id":"levelo_inurba_marseille","lat":43.30581,"lon":5.37225,"is_reserved":false,"is_disabled":false,"rental_uris":{"android":"levelo://app?vid=1bc7b1ef-608c-4e33-9e57-e7a3b793ec96","ios":"levelo://app?vid=1bc7b1ef-608c-4e33-9e57-e7a3b793ec96"},"vehicle_type_id":"4","last_reported":1760707253,"current_range_meters":13600,"station_id":"ce4bgqh2rcd13ifvqc4g","pricing_plan_id":"cebpf4jnsgd1na2vs0mg"},{"bike_id":"2f427ffa-023f-4f18-948d-448a449d3df0","system_id":"levelo_inurba_marseille","lat":43.241702,"lon":5.364035,"is_reserved":false,"is_disabled":false,"rental_uris":{"android":"levelo://app?vid=2f427ffa-023f-4f18-948d-448a449d3df0","ios":"levelo://app?vid=2f427ffa-023f-4f18-948d-448a449d3df0"},"vehicle_type_id":"4","last_reported":1760707253,"current_range_meters":13600,"station_id":"cpo36qri1sfpv3e86is0","pricing_plan_id":"cebpf4jnsgd1na2vs0mg"},{"bike_id":"59ee4d43-eb61-4aed-a406-b083fa9d27d8","system_id":"levelo_inurba_marseille","lat":43.31066,"lon":5.38343,"is_reserved":false,"is_disabled":true,"rental_uris":{"android":"levelo://app?vid=59ee4d43-eb61-4aed-a406-b083fa9d27d8","ios":"levelo://app?vid=59ee4d43-eb61-4aed-a406-b083fa9d27d8"},"vehicle_type_id":"4","last_reported":1760707253,"current_range_meters":13600,"station_id":"ce4bgv92rcd13ifvqcr0","pricing_plan_id":"cebpf4jnsgd1na2vs0mg"},{"bike_id":"2ed11edf-5de6-49b5-b292-1a5ce8c69893","system_id":"levelo_inurba_marseille","lat":43.21742,"lon":5.346,"is_reserved":false,"is_disabled":false,"rental_uris":{"android":"levelo://app?vid=2ed11edf-5de6-49b5-b292-1a5ce8c69893","ios":"levelo://app?vid=2ed11edf-5de6-49b5-b292-1a5ce8c69893"},"vehicle_type_id":"4","last_reported":1760707253,"current_range_meters":13600,"station_id":"st_cvj6r9ubvosntc0bgbag","pricing_plan_id":"cebpf4jnsgd1na2vs0mg"},{"bike_id":"a618d75f-c056-4d7b-8ccd-3fcd16a7d304","system_id":"levelo_inurba_marseille","lat":43.34146,"lon":5.409077,"is_reserved":false,"is_disabled":false,"rental_uris":{"android":"levelo://app?vid=a618d75f-c056-4d7b-8ccd-3fcd16a7d304","ios":"levelo://app?vid=a618d75f-c056-4d7b-8ccd-3fcd16a7d304"},"vehicle_type_id":"4","last_reported":1760707253,"current_range_meters":13600,"station_id":"cki0cbj6b192h4jlfktg","pricing_plan_id":"cebpf4jnsgd1na2vs0mg"},{"bike_id":"c4c8e762-8a26-4257-9d60-d747eb2d8508","system_id":"levelo_inurba_marseille","lat":43.33197,"lon":5.35593,"is_reserved":false,"is_disabled":false,"rental_uris":{"android":"levelo://app?vid=c4c8e762-8a26-4257-9d60-d747eb2d8508","ios":"levelo://app?vid=c4c8e762-8a26-4257-9d60-d747eb2d8508"},"vehicle_type_id":"4","last_reported":1760707253,"current_range_meters":13600,"station_id":"","pricing_plan_id":"cebpf4jnsgd1na2vs0mg"},{"bike_id":"efeed3e0-0d89-49c8-88ee-54fc372b67ef","system_id":"levelo_inurba_marseille","lat":43.274902,"lon":5.424525,"is_reserved":false,"is_disabled":true,"rental_uris":{"android":"levelo://app?vid=efeed3e0-0d89-49c8-88ee-54fc372b67ef","ios":"levelo://app?vid=efeed3e0-0d89-49c8-88ee-54fc372b67ef"},"vehicle_type_id":"4","last_reported":1760707253,"current_range_meters":14000,"station_id":"ce4bhn92rcd13ifvqgrg","pricing_plan_id":"cebpf4jnsgd1na2vs0mg"},{"bike_id":"2a258544-7590-48f1-939f-4fa79e7b6924","system_id":"levelo_inurba_marseille","lat":43.29778,"lon":5.37095,"is_reserved":false,"is_disabled":false,"rental_uris":{"android":"levelo://app?vid=2a258544-7590-48f1-939f-4fa79e7b6924","ios":"levelo://app?vid=2a258544-7590-48f1-939f-4fa79e7b6924"},"vehicle_type_id":"4","last_reported":1760707253,"current_range_meters":14000,"station_id":"ce4bgop2rcd13ifvqc1g","pricing_plan_id":"cebpf4jnsgd1na2vs0mg"},{"bike_id":"424f4935-98df-4229-88c5-d8f836201cec","system_id":"levelo_inurba_marseille","lat":43.231926,"lon":5.355491,"is_reserved":false,"is_disabled":false,"rental_uris":{"android":"levelo://app?vid=424f4935-98df-4229-88c5-d8f836201cec","ios":"levelo://app?vid=424f4935-98df-4229-88c5-d8f836201cec"},"vehicle_type_id":"4","last_reported":1760707253,"current_range_meters":14000,"station_id":"","pricing_plan_id":"cebpf4jnsgd1na2vs0mg"},{"bike_id":"c227eecb-0f1f-4f66-a080-faba2e701909","system_id":"levelo_inurba_marseille","lat":43.29782,"lon":5.37097,"is_reserved":false,"is_disabled":false,"rental_uris":{"android":"levelo://app?vid=c227eecb-0f1f-4f66-a080-faba2e701909","ios":"levelo://app?vid=c227eecb-0f1f-4f66-a080-faba2e701909"},"vehicle_type_id":"4","last_reported":1760707253,"current_range_meters":14000,"station_id":"ce4bgop2rcd13ifvqc1g","pricing_plan_id":"cebpf4jnsgd1na2vs0mg"},{"bike_id":"6d14cf77-f651-45a4-a81e-cfb92d798fae","system_id":"levelo_inurba_marseille","lat":43.30246,"lon":5.40061,"is_reserved":false,"is_disabled":false,"rental_uris":{"android":"levelo://app?vid=6d14cf77-f651-45a4-a81e-cfb92d798fae","ios":"levelo://app?vid=6d14cf77-f651-45a4-a81e-cfb92d798fae"},"vehicle_type_id":"4","last_reported":1760707253,"current_range_meters":14400,"station_id":"ce4bgvh2rcd13ifvqcs0","pricing_plan_id":"cebpf4jnsgd1na2vs0mg"},{"bike_id":"c25a8a37-6395-4161-a858-99a577cc3e64","system_id":"levelo_inurba_marseille","lat":43.24803,"lon":5.37453,"is_reserved":false,"is_disabled":false,"rental_uris":{"android":"levelo://app?vid=c25a8a37-6395-4161-a858-99a577cc3e64","ios":"levelo://app?vid=c25a8a37-6395-4161-a858-99a577cc3e64"},"vehicle_type_id":"4","last_reported":1760707253,"current_range_meters":14400,"station_id":"ce4bhgh2rcd13ifvqfb0","pricing_plan_id":"cebpf4jnsgd1na2vs0mg"},{"bike_id":"ba2479bd-5a5a-46c2-83c3-00588f4cf74a","system_id":"levelo_inurba_marseille","lat":43.29794,"lon":5.3649,"is_reserved":false,"is_disabled":false,"rental_uris":{"android":"levelo://app?vid=ba2479bd-5a5a-46c2-83c3-00588f4cf74a","ios":"levelo://app?vid=ba2479bd-5a5a-46c2-83c3-00588f4cf74a"},"vehicle_type_id":"4","last_reported":1760707253,"current_range_meters":14400,"station_id":"","pricing_plan_id":"cebpf4jnsgd1na2vs0mg"},{"bike_id":"c5e45447-2956-450f-bd7e-88aaf308c04d","system_id":"levelo_inurba_marseille","lat":43.29004,"lon":5.36534,"is_reserved":false,"is_disabled":false,"rental_uris":{"android":"levelo://app?vid=c5e45447-2956-450f-bd7e-88aaf308c04d","ios":"levelo://app?vid=c5e45447-2956-450f-bd7e-88aaf308c04d"},"vehicle_type_id":"4","last_reported":1760707253,"current_range_meters":14400,"station_id":"","pricing_plan_id":"cebpf4jnsgd1na2vs0mg"},{"bike_id":"9fa809f4-01da-4e3c-a73b-92335b631c04","system_id":"levelo_inurba_marseille","lat":43.28532,"lon":5.40554,"is_reserved":false,"is_disabled":false,"rental_uris":{"android":"levelo://app?vid=9fa809f4-01da-4e3c-a73b-92335b631c04","ios":"levelo://app?vid=9fa809f4-01da-4e3c-a73b-92335b631c04"},"vehicle_type_id":"4","last_reported":1760707253,"current_range_meters":14400,"station_id":"","pricing_plan_id":"cebpf4jnsgd1na2vs0mg"},{"bike_id":"96ecb73b-ffdb-42a9-8c9f-1ee30a2d601e","system_id":"levelo_inurba_marseille","lat":43.286796,"lon":5.37393,"is_reserved":false,"is_disabled":false,"rental_uris":{"android":"levelo://app?vid=96ecb73b-ffdb-42a9-8c9f-1ee30a2d601e","ios":"levelo://app?vid=96ecb73b-ffdb-42a9-8c9f-1ee30a2d601e"},"vehicle_type_id":"4","last_reported":1760707253,"current_range_meters":14400,"station_id":"ce4bh3p2rcd13ifvqdq0","pricing_plan_id":"cebpf4jnsgd1na2vs0mg"},{"bike_id":"d5e76858-8867-4150-9cc9-360680c4f6b8","system_id":"levelo_inurba_marseille","lat":43.24378,"lon":5.37058,"is_reserved":false,"is_disabled":false,"rental_uris":{"android":"levelo://app?vid=d5e76858-8867-4150-9cc9-360680c4f6b8","ios":"levelo://app?vid=d5e76858-8867-4150-9cc9-360680c4f6b8"},"vehicle_type_id":"4","last_reported":1760707253,"current_range_meters":14400,"station_id":"ce4bhhh2rcd13ifvqfk0","pricing_plan_id":"cebpf4jnsgd1na2vs0mg"},{"bike_id":"53e45f66-6c88-47d1-a739-fad578ecef73","system_id":"levelo_inurba_marseille","lat":43.237854,"lon":5.366274,"is_reserved":false,"is_disabled":false,"rental_uris":{"android":"levelo://app?vid=53e45f66-6c88-47d1-a739-fad578ecef73","ios":"levelo://app?vid=53e45f66-6c88-47d1-a739-fad578ecef73"},"vehicle_type_id":"4","last_reported":1760707253,"current_range_meters":14400,"station_id":"st_d3nk18o9ro0c73en2l3g","pricing_plan_id":"cebpf4jnsgd1na2vs0mg"},{"bike_id":"bca7f89c-00c0-4b8b-aec9-2e1e892f3d43","system_id":"levelo_inurba_marseille","lat":43.3064,"lon":5.40086,"is_reserved":false,"is_disabled":false,"rental_uris":{"android":"levelo://app?vid=bca7f89c-00c0-4b8b-aec9-2e1e892f3d43","ios":"levelo://app?vid=bca7f89c-00c0-4b8b-aec9-2e1e892f3d43"},"vehicle_type_id":"4","last_reported":1760707253,"current_range_meters":14400,"station_id":"ce4bh112rcd13ifvqda0","pricing_plan_id":"cebpf4jnsgd1na2vs0mg"},{"bike_id":"db081331-1fa4-4671-8993-13e91e6dca77","system_id":"levelo_inurba_marseille","lat":43.28271,"lon":5.35055,"is_reserved":false,"is_disabled":false,"rental_uris":{"android":"levelo://app?vid=db081331-1fa4-4671-8993-13e91e6dca77","ios":"levelo://app?vid=db081331-1fa4-4671-8993-13e91e6dca77"},"vehicle_type_id":"4","last_reported":1760707253,"current_range_meters":14800,"station_id":"ce4bhbp2rcd13ifvqerg","pricing_plan_id":"cebpf4jnsgd1na2vs0mg"},{"bike_id":"75da6adc-1bfc-45e4-a701-a615e1e5e595","system_id":"levelo_inurba_marseille","lat":43.270701,"lon":5.422815,"is_reserved":false,"is_disabled":false,"rental_uris":{"android":"levelo://app?vid=75da6adc-1bfc-45e4-a701-a615e1e5e595","ios":"levelo://app?vid=75da6adc-1bfc-45e4-a701-a615e1e5e595"},"vehicle_type_id":"4","last_reported":1760707253,"current_range_meters":14800,"station_id":"ce4bhk92rcd13ifvqgb0","pricing_plan_id":"cebpf4jnsgd1na2vs0mg"},{"bike_id":"ae35a2da-3f17-464a-a391-e172df1dd6ca","system_id":"levelo_inurba_marseille","lat":43.24625,"lon":5.43145,"is_reserved":false,"is_disabled":false,"rental_uris":{"android":"levelo://app?vid=ae35a2da-3f17-464a-a391-e172df1dd6ca","ios":"levelo://app?vid=ae35a2da-3f17-464a-a391-e172df1dd6ca"},"vehicle_type_id":"4","last_reported":1760707253,"current_range_meters":15200,"station_id":"st_d2m6c4gdas8pm72e190g","pricing_plan_id":"cebpf4jnsgd1na2vs0mg"},{"bike_id":"89c41095-1749-4d06-b8a0-ed875d72823e","system_id":"levelo_inurba_marseille","lat":43.321072,"lon":5.367725,"is_reserved":false,"is_disabled":false,"rental_uris":{"android":"levelo://app?vid=89c41095-1749-4d06-b8a0-ed875d72823e","ios":"levelo://app?vid=89c41095-1749-4d06-b8a0-ed875d72823e"},"vehicle_type_id":"4","last_reported":1760707253,"current_range_meters":15200,"station_id":"ce4bhrh2rcd13ifvqhug","pricing_plan_id":"cebpf4jnsgd1na2vs0mg"},{"bike_id":"d8c15876-8b54-4f69-b130-9f8e165b5bf1","system_id":"levelo_inurba_marseille","lat":43.266987,"lon":5.412097,"is_reserved":false,"is_disabled":false,"rental_uris":{"android":"levelo://app?vid=d8c15876-8b54-4f69-b130-9f8e165b5bf1","ios":"levelo://app?vid=d8c15876-8b54-4f69-b130-9f8e165b5bf1"},"vehicle_type_id":"4","last_reported":1760707253,"current_range_meters":15200,"station_id":"","pricing_plan_id":"cebpf4jnsgd1na2vs0mg"},{"bike_id":"99b392f9-d6a6-43f5-9848-ce3a7d272425","system_id":"levelo_inurba_marseille","lat":43.31807,"lon":5.38982,"is_reserved":false,"is_disabled":false,"rental_uris":{"android":"levelo://app?vid=99b392f9-d6a6-43f5-9848-ce3a7d272425","ios":"levelo://app?vid=99b392f9-d6a6-43f5-9848-ce3a7d272425"},"vehicle_type_id":"4","last_reported":1760707253,"current_range_meters":15200,"station_id":"","pricing_plan_id":"cebpf4jnsgd1na2vs0mg"},{"bike_id":"8fad55f9-6405-4e4b-9763-f44a81ed5833","system_id":"levelo_inurba_marseille","lat":43.262882,"lon":5.404813,"is_reserved":false,"is_disabled":false,"rental_uris":{"android":"levelo://app?vid=8fad55f9-6405-4e4b-9763-f44a81ed5833","ios":"levelo://app?vid=8fad55f9-6405-4e4b-9763-f44a81ed5833"},"vehicle_type_id":"4","last_reported":1760707253,"current_range_meters":15200,"station_id":"ce4bh3h2rcd13ifvqdn0","pricing_plan_id":"cebpf4jnsgd1na2vs0mg"},{"bike_id":"cb82ebf7-8412-408a-95b5-2a96124e8f67","system_id":"levelo_inurba_marseille","lat":43.28666,"lon":5.36348,"is_reserved":false,"is_disabled":false,"rental_uris":{"android":"levelo://app?vid=cb82ebf7-8412-408a-95b5-2a96124e8f67","ios":"levelo://app?vid=cb82ebf7-8412-408a-95b5-2a96124e8f67"},"vehicle_type_id":"4","last_reported":1760707253,"current_range_meters":15200,"station_id":"ce4bhah2rcd13ifvqej0","pricing_plan_id":"cebpf4jnsgd1na2vs0mg"},{"bike_id":"1ea58d06-2bc8-43e6-9700-ceffc676d32c","system_id":"levelo_inurba_marseille","lat":43.217213,"lon":5.346152,"is_reserved":false,"is_disabled":true,"rental_uris":{"android":"levelo://app?vid=1ea58d06-2bc8-43e6-9700-ceffc676d32c","ios":"levelo://app?vid=1ea58d06-2bc8-43e6-9700-ceffc676d32c"},"vehicle_type_id":"4","last_reported":1760707253,"current_range_meters":15200,"station_id":"cpo36qri1sfpv3e86is0","pricing_plan_id":"cebpf4jnsgd1na2vs0mg"},{"bike_id":"7ff0d57e-c2ad-4d60-9cdd-924a41c2a125","system_id":"levelo_inurba_marseille","lat":43.24375,"lon":5.37066,"is_reserved":false,"is_disabled":false,"rental_uris":{"android":"levelo://app?vid=7ff0d57e-c2ad-4d60-9cdd-924a41c2a125","ios":"levelo://app?vid=7ff0d57e-c2ad-4d60-9cdd-924a41c2a125"},"vehicle_type_id":"4","last_reported":1760707253,"current_range_meters":15200,"station_id":"ce4bhhh2rcd13ifvqfk0","pricing_plan_id":"cebpf4jnsgd1na2vs0mg"},{"bike_id":"be1c4bc2-ea26-4165-ae2c-40ac4665f215","system_id":"levelo_inurba_marseille","lat":43.295025,"lon":5.433223,"is_reserved":false,"is_disabled":true,"rental_uris":{"android":"levelo://app?vid=be1c4bc2-ea26-4165-ae2c-40ac4665f215","ios":"levelo://app?vid=be1c4bc2-ea26-4165-ae2c-40ac4665f215"},"vehicle_type_id":"4","last_reported":1760707253,"current_range_meters":15200,"station_id":"st_d3j5ugp08ojc73fj9d10","pricing_plan_id":"cebpf4jnsgd1na2vs0mg"},{"bike_id":"8baf5efc-042f-46ec-962c-9d10b96ad999","system_id":"levelo_inurba_marseille","lat":43.297679,"lon":5.370988,"is_reserved":false,"is_disabled":false,"rental_uris":{"android":"levelo://app?vid=8baf5efc-042f-46ec-962c-9d10b96ad999","ios":"levelo://app?vid=8baf5efc-042f-46ec-962c-9d10b96ad999"},"vehicle_type_id":"4","last_reported":1760707253,"current_range_meters":15200,"station_id":"ce4bgop2rcd13ifvqc1g","pricing_plan_id":"cebpf4jnsgd1na2vs0mg"},{"bike_id":"dc9f4d48-796c-490b-b388-9fbc95de917c","system_id":"levelo_inurba_marseille","lat":43.2552,"lon":5.37508,"is_reserved":false,"is_disabled":false,"rental_uris":{"android":"levelo://app?vid=dc9f4d48-796c-490b-b388-9fbc95de917c","ios":"levelo://app?vid=dc9f4d48-796c-490b-b388-9fbc95de917c"},"vehicle_type_id":"4","last_reported":1760707253,"current_range_meters":15200,"station_id":"","pricing_plan_id":"cebpf4jnsgd1na2vs0mg"},{"bike_id":"53a10d1e-0c49-4df8-8a95-26dcc5299a3f","system_id":"levelo_inurba_marseille","lat":43.27804,"lon":5.40713,"is_reserved":false,"is_disabled":false,"rental_uris":{"android":"levelo://app?vid=53a10d1e-0c49-4df8-8a95-26dcc5299a3f","ios":"levelo://app?vid=53a10d1e-0c49-4df8-8a95-26dcc5299a3f"},"vehicle_type_id":"4","last_reported":1760707253,"current_range_meters":16000,"station_id":"ce4bhnh2rcd13ifvqgtg","pricing_plan_id":"cebpf4jnsgd1na2vs0mg"},{"bike_id":"f26aa09e-4982-4d7e-adbf-ff6c649b6479","system_id":"levelo_inurba_marseille","lat":43.27992,"lon":5.41651,"is_reserved":false,"is_disabled":false,"rental_uris":{"android":"levelo://app?vid=f26aa09e-4982-4d7e-adbf-ff6c649b6479","ios":"levelo://app?vid=f26aa09e-4982-4d7e-adbf-ff6c649b6479"},"vehicle_type_id":"4","last_reported":1760707253,"current_range_meters":16000,"station_id":"ce4bho12rcd13ifvqh1g","pricing_plan_id":"cebpf4jnsgd1na2vs0mg"},{"bike_id":"99c64e1e-c2f4-412e-9be4-ef4828a800b9","system_id":"levelo_inurba_marseille","lat":43.291986,"lon":5.35808,"is_reserved":false,"is_disabled":false,"rental_uris":{"android":"levelo://app?vid=99c64e1e-c2f4-412e-9be4-ef4828a800b9","ios":"levelo://app?vid=99c64e1e-c2f4-412e-9be4-ef4828a800b9"},"vehicle_type_id":"4","last_reported":1760707253,"current_range_meters":16000,"station_id":"ce4bhb12rcd13ifvqel0","pricing_plan_id":"cebpf4jnsgd1na2vs0mg"},{"bike_id":"75b02a51-1325-435e-9661-29bb451a696a","system_id":"levelo_inurba_marseille","lat":43.31448,"lon":5.38488,"is_reserved":false,"is_disabled":false,"rental_uris":{"android":"levelo://app?vid=75b02a51-1325-435e-9661-29bb451a696a","ios":"levelo://app?vid=75b02a51-1325-435e-9661-29bb451a696a"},"vehicle_type_id":"4","last_reported":1760707253,"current_range_meters":16000,"station_id":"","pricing_plan_id":"cebpf4jnsgd1na2vs0mg"},{"bike_id":"4c435c82-0bc4-4369-80cf-ae9046a83658","system_id":"levelo_inurba_marseille","lat":43.24155,"lon":5.36398,"is_reserved":false,"is_disabled":false,"rental_uris":{"android":"levelo://app?vid=4c435c82-0bc4-4369-80cf-ae9046a83658","ios":"levelo://app?vid=4c435c82-0bc4-4369-80cf-ae9046a83658"},"vehicle_type_id":"4","last_reported":1760707253,"current_range_meters":16000,"station_id":"cpo36qri1sfpv3e86is0","pricing_plan_id":"cebpf4jnsgd1na2vs0mg"},{"bike_id":"1a8859ce-bc64-4969-aadc-84fe7d6df618","system_id":"levelo_inurba_marseille","lat":43.279775,"lon":5.387441,"is_reserved":false,"is_disabled":false,"rental_uris":{"android":"levelo://app?vid=1a8859ce-bc64-4969-aadc-84fe7d6df618","ios":"levelo://app?vid=1a8859ce-bc64-4969-aadc-84fe7d6df618"},"vehicle_type_id":"4","last_reported":1760707253,"current_range_meters":16000,"station_id":"ce4bhg12rcd13ifvqf80","pricing_plan_id":"cebpf4jnsgd1na2vs0mg"},{"bike_id":"5819f850-913f-468f-8a61-4d754f238965","system_id":"levelo_inurba_marseille","lat":43.29789,"lon":5.37085,"is_reserved":false,"is_disabled":false,"rental_uris":{"android":"levelo://app?vid=5819f850-913f-468f-8a61-4d754f238965","ios":"levelo://app?vid=5819f850-913f-468f-8a61-4d754f238965"},"vehicle_type_id":"4","last_reported":1760707253,"current_range_meters":16400,"station_id":"ce4bgop2rcd13ifvqc1g","pricing_plan_id":"cebpf4jnsgd1na2vs0mg"},{"bike_id":"6eb2acec-d68e-4c9a-ad73-90879ab30bc2","system_id":"levelo_inurba_marseille","lat":43.31516,"lon":5.37412,"is_reserved":false,"is_disabled":false,"rental_uris":{"android":"levelo://app?vid=6eb2acec-d68e-4c9a-ad73-90879ab30bc2","ios":"levelo://app?vid=6eb2acec-d68e-4c9a-ad73-90879ab30bc2"},"vehicle_type_id":"4","last_reported":1760707253,"current_range_meters":16400,"station_id":"","pricing_plan_id":"cebpf4jnsgd1na2vs0mg"},{"bike_id":"08affebf-084d-432e-a6e8-eb79e690e134","system_id":"levelo_inurba_marseille","lat":43.29716,"lon":5.36617,"is_reserved":false,"is_disabled":false,"rental_uris":{"android":"levelo://app?vid=08affebf-084d-432e-a6e8-eb79e690e134","ios":"levelo://app?vid=08affebf-084d-432e-a6e8-eb79e690e134"},"vehicle_type_id":"4","last_reported":1760707253,"current_range_meters":16400,"station_id":"ce4bgn12rcd13ifvqbt0","pricing_plan_id":"cebpf4jnsgd1na2vs0mg"},{"bike_id":"f57717fa-a2d2-49ec-b20f-b89d90fab4c7","system_id":"levelo_inurba_marseille","lat":43.270921,"lon":5.383336,"is_reserved":false,"is_disabled":false,"rental_uris":{"android":"levelo://app?vid=f57717fa-a2d2-49ec-b20f-b89d90fab4c7","ios":"levelo://app?vid=f57717fa-a2d2-49ec-b20f-b89d90fab4c7"},"vehicle_type_id":"4","last_reported":1760707253,"current_range_meters":16400,"station_id":"ce4bhap2rcd13ifvqek0","pricing_plan_id":"cebpf4jnsgd1na2vs0mg"},{"bike_id":"5fdbabd0-3abd-4f17-abd1-831fb177acd0","system_id":"levelo_inurba_marseille","lat":43.304237,"lon":5.388939,"is_reserved":false,"is_disabled":false,"rental_uris":{"android":"levelo://app?vid=5fdbabd0-3abd-4f17-abd1-831fb177acd0","ios":"levelo://app?vid=5fdbabd0-3abd-4f17-abd1-831fb177acd0"},"vehicle_type_id":"4","last_reported":1760707253,"current_range_meters":16400,"station_id":"ce4bgk12rcd13ifvqbi0","pricing_plan_id":"cebpf4jnsgd1na2vs0mg"},{"bike_id":"b97b8dd3-ec5f-4c29-94c8-345abca3a938","system_id":"levelo_inurba_marseille","lat":43.2378,"lon":5.36632,"is_reserved":false,"is_disabled":false,"rental_uris":{"android":"levelo://app?vid=b97b8dd3-ec5f-4c29-94c8-345abca3a938","ios":"levelo://app?vid=b97b8dd3-ec5f-4c29-94c8-345abca3a938"},"vehicle_type_id":"4","last_reported":1760707253,"current_range_meters":16800,"station_id":"st_d3nk18o9ro0c73en2l3g","pricing_plan_id":"cebpf4jnsgd1na2vs0mg"},{"bike_id":"f1eddc33-f18f-4200-827b-8fbc58caf93f","system_id":"levelo_inurba_marseille","lat":43.243874,"lon":5.370592,"is_reserved":false,"is_disabled":false,"rental_uris":{"android":"levelo://app?vid=f1eddc33-f18f-4200-827b-8fbc58caf93f","ios":"levelo://app?vid=f1eddc33-f18f-4200-827b-8fbc58caf93f"},"vehicle_type_id":"4","last_reported":1760707253,"current_range_meters":16800,"station_id":"ce4bhhh2rcd13ifvqfk0","pricing_plan_id":"cebpf4jnsgd1na2vs0mg"},{"bike_id":"924ac669-be8b-47aa-9a8e-6f22baf815eb","system_id":"levelo_inurba_marseille","lat":43.3377,"lon":5.3748,"is_reserved":false,"is_disabled":false,"rental_uris":{"android":"levelo://app?vid=924ac669-be8b-47aa-9a8e-6f22baf815eb","ios":"levelo://app?vid=924ac669-be8b-47aa-9a8e-6f22baf815eb"},"vehicle_type_id":"4","last_reported":1760707253,"current_range_meters":16800,"station_id":"","pricing_plan_id":"cebpf4jnsgd1na2vs0mg"},{"bike_id":"5afedf2c-9f26-4bb9-8210-0ff4d77a4b7f","system_id":"levelo_inurba_marseille","lat":43.28423,"lon":5.34979,"is_reserved":false,"is_disabled":false,"rental_uris":{"android":"levelo://app?vid=5afedf2c-9f26-4bb9-8210-0ff4d77a4b7f","ios":"levelo://app?vid=5afedf2c-9f26-4bb9-8210-0ff4d77a4b7f"},"vehicle_type_id":"4","last_reported":1760707253,"current_range_meters":16800,"station_id":"ce4bhbh2rcd13ifvqepg","pricing_plan_id":"cebpf4jnsgd1na2vs0mg"},{"bike_id":"25ac284f-89da-4dc0-992e-755329000866","system_id":"levelo_inurba_marseille","lat":43.24168,"lon":5.3639,"is_reserved":false,"is_disabled":false,"rental_uris":{"android":"levelo://app?vid=25ac284f-89da-4dc0-992e-755329000866","ios":"levelo://app?vid=25ac284f-89da-4dc0-992e-755329000866"},"vehicle_type_id":"4","last_reported":1760707253,"current_range_meters":16800,"station_id":"cpo36qri1sfpv3e86is0","pricing_plan_id":"cebpf4jnsgd1na2vs0mg"},{"bike_id":"8aa3ec83-557d-4118-b42f-7e9ff74932f2","system_id":"levelo_inurba_marseille","lat":43.24171,"lon":5.36394,"is_reserved":false,"is_disabled":false,"rental_uris":{"android":"levelo://app?vid=8aa3ec83-557d-4118-b42f-7e9ff74932f2","ios":"levelo://app?vid=8aa3ec83-557d-4118-b42f-7e9ff74932f2"},"vehicle_type_id":"4","last_reported":1760707253,"current_range_meters":16800,"station_id":"cpo36qri1sfpv3e86is0","pricing_plan_id":"cebpf4jnsgd1na2vs0mg"},{"bike_id":"8c30526d-4d62-49e0-92a1-2ed039e24496","system_id":"levelo_inurba_marseille","lat":43.28706,"lon":5.38418,"is_reserved":false,"is_disabled":false,"rental_uris":{"android":"levelo://app?vid=8c30526d-4d62-49e0-92a1-2ed039e24496","ios":"levelo://app?vid=8c30526d-4d62-49e0-92a1-2ed039e24496"},"vehicle_type_id":"4","last_reported":1760707253,"current_range_meters":16800,"station_id":"","pricing_plan_id":"cebpf4jnsgd1na2vs0mg"},{"bike_id":"c1adbd5e-6d75-4466-ae48-a9ce4bf7bd3c","system_id":"levelo_inurba_marseille","lat":43.262092,"lon":5.374454,"is_reserved":false,"is_disabled":false,"rental_uris":{"android":"levelo://app?vid=c1adbd5e-6d75-4466-ae48-a9ce4bf7bd3c","ios":"levelo://app?vid=c1adbd5e-6d75-4466-ae48-a9ce4bf7bd3c"},"vehicle_type_id":"4","last_reported":1760707253,"current_range_meters":16800,"station_id":"ce4bhgp2rcd13ifvqfc0","pricing_plan_id":"cebpf4jnsgd1na2vs0mg"},{"bike_id":"19b48d97-31f5-419e-a3ec-6f3c529e3c71","system_id":"levelo_inurba_marseille","lat":43.32084,"lon":5.3679,"is_reserved":false,"is_disabled":false,"rental_uris":{"android":"levelo://app?vid=19b48d97-31f5-419e-a3ec-6f3c529e3c71","ios":"levelo://app?vid=19b48d97-31f5-419e-a3ec-6f3c529e3c71"},"vehicle_type_id":"4","last_reported":1760707253,"current_range_meters":16800,"station_id":"ce4bhrh2rcd13ifvqhug","pricing_plan_id":"cebpf4jnsgd1na2vs0mg"},{"bike_id":"6d4af37b-196e-445c-9855-cf72f58ad79e","system_id":"levelo_inurba_marseille","lat":43.29791,"lon":5.37097,"is_reserved":false,"is_disabled":false,"rental_uris":{"android":"levelo://app?vid=6d4af37b-196e-445c-9855-cf72f58ad79e","ios":"levelo://app?vid=6d4af37b-196e-445c-9855-cf72f58ad79e"},"vehicle_type_id":"4","last_reported":1760707253,"current_range_meters":16800,"station_id":"ce4bgop2rcd13ifvqc1g","pricing_plan_id":"cebpf4jnsgd1na2vs0mg"},{"bike_id":"9dcab8fe-ca49-447e-bc55-aa6b63923ad8","system_id":"levelo_inurba_marseille","lat":43.30584,"lon":5.37245,"is_reserved":false,"is_disabled":false,"rental_uris":{"android":"levelo://app?vid=9dcab8fe-ca49-447e-bc55-aa6b63923ad8","ios":"levelo://app?vid=9dcab8fe-ca49-447e-bc55-aa6b63923ad8"},"vehicle_type_id":"4","last_reported":1760707253,"current_range_meters":16800,"station_id":"ce4bgqh2rcd13ifvqc4g","pricing_plan_id":"cebpf4jnsgd1na2vs0mg"},{"bike_id":"edcb744a-1021-4493-86cd-94aad7a8dbc8","system_id":"levelo_inurba_marseille","lat":43.30761,"lon":5.367864,"is_reserved":false,"is_disabled":false,"rental_uris":{"android":"levelo://app?vid=edcb744a-1021-4493-86cd-94aad7a8dbc8","ios":"levelo://app?vid=edcb744a-1021-4493-86cd-94aad7a8dbc8"},"vehicle_type_id":"4","last_reported":1760707253,"current_range_meters":16800,"station_id":"","pricing_plan_id":"cebpf4jnsgd1na2vs0mg"},{"bike_id":"5a784595-7429-4c57-9730-15e46db82d37","system_id":"levelo_inurba_marseille","lat":43.28443,"lon":5.35895,"is_reserved":false,"is_disabled":false,"rental_uris":{"android":"levelo://app?vid=5a784595-7429-4c57-9730-15e46db82d37","ios":"levelo://app?vid=5a784595-7429-4c57-9730-15e46db82d37"},"vehicle_type_id":"4","last_reported":1760707253,"current_range_meters":16800,"station_id":"ce4bhah2rcd13ifvqei0","pricing_plan_id":"cebpf4jnsgd1na2vs0mg"},{"bike_id":"8596714f-b68b-4d6f-a0f8-0627aad8be05","system_id":"levelo_inurba_marseille","lat":43.23192,"lon":5.39985,"is_reserved":false,"is_disabled":false,"rental_uris":{"android":"levelo://app?vid=8596714f-b68b-4d6f-a0f8-0627aad8be05","ios":"levelo://app?vid=8596714f-b68b-4d6f-a0f8-0627aad8be05"},"vehicle_type_id":"4","last_reported":1760707253,"current_range_meters":16800,"station_id":"ce4bhn12rcd13ifvqgqg","pricing_plan_id":"cebpf4jnsgd1na2vs0mg"},{"bike_id":"fc39774e-f0fc-407c-a0c7-21a952222d01","system_id":"levelo_inurba_marseille","lat":43.24955,"lon":5.40489,"is_reserved":false,"is_disabled":false,"rental_uris":{"android":"levelo://app?vid=fc39774e-f0fc-407c-a0c7-21a952222d01","ios":"levelo://app?vid=fc39774e-f0fc-407c-a0c7-21a952222d01"},"vehicle_type_id":"4","last_reported":1760707253,"current_range_meters":16800,"station_id":"st_d2ngiaodas8pm72gd1h0","pricing_plan_id":"cebpf4jnsgd1na2vs0mg"},{"bike_id":"3bdf45fa-f81a-44f7-8aec-46b21d7a30c1","system_id":"levelo_inurba_marseille","lat":43.29,"lon":5.35613,"is_reserved":false,"is_disabled":false,"rental_uris":{"android":"levelo://app?vid=3bdf45fa-f81a-44f7-8aec-46b21d7a30c1","ios":"levelo://app?vid=3bdf45fa-f81a-44f7-8aec-46b21d7a30c1"},"vehicle_type_id":"4","last_reported":1760707253,"current_range_meters":17200,"station_id":"ce4bhb92rcd13ifvqen0","pricing_plan_id":"cebpf4jnsgd1na2vs0mg"},{"bike_id":"0858b0c8-9381-4c7c-ba45-f36ed2187a5f","system_id":"levelo_inurba_marseille","lat":43.30068,"lon":5.37798,"is_reserved":false,"is_disabled":false,"rental_uris":{"android":"levelo://app?vid=0858b0c8-9381-4c7c-ba45-f36ed2187a5f","ios":"levelo://app?vid=0858b0c8-9381-4c7c-ba45-f36ed2187a5f"},"vehicle_type_id":"4","last_reported":1760707253,"current_range_meters":17200,"station_id":"","pricing_plan_id":"cebpf4jnsgd1na2vs0mg"},{"bike_id":"6096b53b-5bbd-4277-b64b-327e8ce15f73","system_id":"levelo_inurba_marseille","lat":43.30248,"lon":5.40056,"is_reserved":false,"is_disabled":false,"rental_uris":{"android":"levelo://app?vid=6096b53b-5bbd-4277-b64b-327e8ce15f73","ios":"levelo://app?vid=6096b53b-5bbd-4277-b64b-327e8ce15f73"},"vehicle_type_id":"4","last_reported":1760707253,"current_range_meters":17200,"station_id":"ce4bgvh2rcd13ifvqcs0","pricing_plan_id":"cebpf4jnsgd1na2vs0mg"},{"bike_id":"47f68ee4-bacc-4db8-b6a3-9c7957ef5a63","system_id":"levelo_inurba_marseille","lat":43.27564,"lon":5.3843,"is_reserved":false,"is_disabled":false,"rental_uris":{"android":"levelo://app?vid=47f68ee4-bacc-4db8-b6a3-9c7957ef5a63","ios":"levelo://app?vid=47f68ee4-bacc-4db8-b6a3-9c7957ef5a63"},"vehicle_type_id":"4","last_reported":1760707253,"current_range_meters":17200,"station_id":"ce4bhh92rcd13ifvqfi0","pricing_plan_id":"cebpf4jnsgd1na2vs0mg"},{"bike_id":"38e9bc50-eb8b-417a-91d9-58a816766350","system_id":"levelo_inurba_marseille","lat":43.28614,"lon":5.351061,"is_reserved":false,"is_disabled":false,"rental_uris":{"android":"levelo://app?vid=38e9bc50-eb8b-417a-91d9-58a816766350","ios":"levelo://app?vid=38e9bc50-eb8b-417a-91d9-58a816766350"},"vehicle_type_id":"4","last_reported":1760707253,"current_range_meters":17200,"station_id":"ce4bhch2rcd13ifvqeug","pricing_plan_id":"cebpf4jnsgd1na2vs0mg"},{"bike_id":"74e3e01c-66c4-481d-b08c-6c10af99936d","system_id":"levelo_inurba_marseille","lat":43.34084,"lon":5.40439,"is_reserved":false,"is_disabled":false,"rental_uris":{"android":"levelo://app?vid=74e3e01c-66c4-481d-b08c-6c10af99936d","ios":"levelo://app?vid=74e3e01c-66c4-481d-b08c-6c10af99936d"},"vehicle_type_id":"4","last_reported":1760707253,"current_range_meters":17200,"station_id":"","pricing_plan_id":"cebpf4jnsgd1na2vs0mg"},{"bike_id":"45e5b7ed-cacb-40d0-a2ee-d75061f9f2c6","system_id":"levelo_inurba_marseille","lat":43.2315,"lon":5.4369,"is_reserved":false,"is_disabled":false,"rental_uris":{"android":"levelo://app?vid=45e5b7ed-cacb-40d0-a2ee-d75061f9f2c6","ios":"levelo://app?vid=45e5b7ed-cacb-40d0-a2ee-d75061f9f2c6"},"vehicle_type_id":"4","last_reported":1760707253,"current_range_meters":17200,"station_id":"ce4bhmp2rcd13ifvqgog","pricing_plan_id":"cebpf4jnsgd1na2vs0mg"},{"bike_id":"0a414463-fe1a-4833-8a11-178a3c2c879a","system_id":"levelo_inurba_marseille","lat":43.29852,"lon":5.37897,"is_reserved":false,"is_disabled":false,"rental_uris":{"android":"levelo://app?vid=0a414463-fe1a-4833-8a11-178a3c2c879a","ios":"levelo://app?vid=0a414463-fe1a-4833-8a11-178a3c2c879a"},"vehicle_type_id":"4","last_reported":1760707253,"current_range_meters":17600,"station_id":"","pricing_plan_id":"cebpf4jnsgd1na2vs0mg"},{"bike_id":"82749cfa-fb8c-4eb3-a59b-096f885cdfa8","system_id":"levelo_inurba_marseille","lat":43.231812,"lon":5.399819,"is_reserved":false,"is_disabled":false,"rental_uris":{"android":"levelo://app?vid=82749cfa-fb8c-4eb3-a59b-096f885cdfa8","ios":"levelo://app?vid=82749cfa-fb8c-4eb3-a59b-096f885cdfa8"},"vehicle_type_id":"4","last_reported":1760707253,"current_range_meters":17600,"station_id":"ce4bhn12rcd13ifvqgqg","pricing_plan_id":"cebpf4jnsgd1na2vs0mg"},{"bike_id":"a4f5021a-5f99-4454-ab7a-e79d9a048649","system_id":"levelo_inurba_marseille","lat":43.30148,"lon":5.38096,"is_reserved":false,"is_disabled":false,"rental_uris":{"android":"levelo://app?vid=a4f5021a-5f99-4454-ab7a-e79d9a048649","ios":"levelo://app?vid=a4f5021a-5f99-4454-ab7a-e79d9a048649"},"vehicle_type_id":"4","last_reported":1760707253,"current_range_meters":17600,"station_id":"ce4bgjp2rcd13ifvqbh0","pricing_plan_id":"cebpf4jnsgd1na2vs0mg"},{"bike_id":"b5384ef3-f722-490e-a099-66d8c4d1cd6b","system_id":"levelo_inurba_marseille","lat":43.28541,"lon":5.44095,"is_reserved":false,"is_disabled":false,"rental_uris":{"android":"levelo://app?vid=b5384ef3-f722-490e-a099-66d8c4d1cd6b","ios":"levelo://app?vid=b5384ef3-f722-490e-a099-66d8c4d1cd6b"},"vehicle_type_id":"4","last_reported":1760707253,"current_range_meters":17600,"station_id":"st_d3j3df2ikq2c7380ej80","pricing_plan_id":"cebpf4jnsgd1na2vs0mg"},{"bike_id":"b3f02386-ff16-4d2a-8471-7d112043a4ca","system_id":"levelo_inurba_marseille","lat":43.28622,"lon":5.35094,"is_reserved":false,"is_disabled":false,"rental_uris":{"android":"levelo://app?vid=b3f02386-ff16-4d2a-8471-7d112043a4ca","ios":"levelo://app?vid=b3f02386-ff16-4d2a-8471-7d112043a4ca"},"vehicle_type_id":"4","last_reported":1760707253,"current_range_meters":17600,"station_id":"ce4bhch2rcd13ifvqeug","pricing_plan_id":"cebpf4jnsgd1na2vs0mg"},{"bike_id":"56dfaa97-c535-4254-a108-db506f14fcd1","system_id":"levelo_inurba_marseille","lat":43.26227,"lon":5.40451,"is_reserved":false,"is_disabled":false,"rental_uris":{"android":"levelo://app?vid=56dfaa97-c535-4254-a108-db506f14fcd1","ios":"levelo://app?vid=56dfaa97-c535-4254-a108-db506f14fcd1"},"vehicle_type_id":"4","last_reported":1760707253,"current_range_meters":17600,"station_id":"ce4bhmh2rcd13ifvqgmg","pricing_plan_id":"cebpf4jnsgd1na2vs0mg"},{"bike_id":"4475084d-4a52-407e-b94f-28915ecfcda6","system_id":"levelo_inurba_marseille","lat":43.243877,"lon":5.370612,"is_reserved":false,"is_disabled":false,"rental_uris":{"android":"levelo://app?vid=4475084d-4a52-407e-b94f-28915ecfcda6","ios":"levelo://app?vid=4475084d-4a52-407e-b94f-28915ecfcda6"},"vehicle_type_id":"4","last_reported":1760707253,"current_range_meters":17600,"station_id":"ce4bhhh2rcd13ifvqfk0","pricing_plan_id":"cebpf4jnsgd1na2vs0mg"},{"bike_id":"8eb4c991-ef9b-40c8-a701-56f9fdf48b1b","system_id":"levelo_inurba_marseille","lat":43.28415,"lon":5.37513,"is_reserved":false,"is_disabled":false,"rental_uris":{"android":"levelo://app?vid=8eb4c991-ef9b-40c8-a701-56f9fdf48b1b","ios":"levelo://app?vid=8eb4c991-ef9b-40c8-a701-56f9fdf48b1b"},"vehicle_type_id":"4","last_reported":1760707253,"current_range_meters":18000,"station_id":"ce4bh412rcd13ifvqds0","pricing_plan_id":"cebpf4jnsgd1na2vs0mg"},{"bike_id":"e47bb254-474d-4f1d-8b3a-15c2c572c76a","system_id":"levelo_inurba_marseille","lat":43.30138,"lon":5.37418,"is_reserved":false,"is_disabled":false,"rental_uris":{"android":"levelo://app?vid=e47bb254-474d-4f1d-8b3a-15c2c572c76a","ios":"levelo://app?vid=e47bb254-474d-4f1d-8b3a-15c2c572c76a"},"vehicle_type_id":"4","last_reported":1760707253,"current_range_meters":18000,"station_id":"ce4bgs92rcd13ifvqcc0","pricing_plan_id":"cebpf4jnsgd1na2vs0mg"},{"bike_id":"9e183f75-e774-4a0f-955f-a0807b28873d","system_id":"levelo_inurba_marseille","lat":43.31081,"lon":5.4243,"is_reserved":false,"is_disabled":false,"rental_uris":{"android":"levelo://app?vid=9e183f75-e774-4a0f-955f-a0807b28873d","ios":"levelo://app?vid=9e183f75-e774-4a0f-955f-a0807b28873d"},"vehicle_type_id":"4","last_reported":1760707253,"current_range_meters":18000,"station_id":"ce4bhp92rcd13ifvqhag","pricing_plan_id":"cebpf4jnsgd1na2vs0mg"},{"bike_id":"e2eddf17-d506-4c6c-a24c-f732756b44a7","system_id":"levelo_inurba_marseille","lat":43.30886,"lon":5.39661,"is_reserved":false,"is_disabled":false,"rental_uris":{"android":"levelo://app?vid=e2eddf17-d506-4c6c-a24c-f732756b44a7","ios":"levelo://app?vid=e2eddf17-d506-4c6c-a24c-f732756b44a7"},"vehicle_type_id":"4","last_reported":1760707253,"current_range_meters":18000,"station_id":"ce4bh012rcd13ifvqcv0","pricing_plan_id":"cebpf4jnsgd1na2vs0mg"},{"bike_id":"862ce872-f902-47f5-bbb1-1ac3f6d12a86","system_id":"levelo_inurba_marseille","lat":43.26676,"lon":5.38266,"is_reserved":false,"is_disabled":false,"rental_uris":{"android":"levelo://app?vid=862ce872-f902-47f5-bbb1-1ac3f6d12a86","ios":"levelo://app?vid=862ce872-f902-47f5-bbb1-1ac3f6d12a86"},"vehicle_type_id":"4","last_reported":1760707253,"current_range_meters":18000,"station_id":"ce4bhg92rcd13ifvqf90","pricing_plan_id":"cebpf4jnsgd1na2vs0mg"},{"bike_id":"ff123336-04e4-4483-af64-0dc4b50911b8","system_id":"levelo_inurba_marseille","lat":43.25718,"lon":5.41114,"is_reserved":false,"is_disabled":false,"rental_uris":{"android":"levelo://app?vid=ff123336-04e4-4483-af64-0dc4b50911b8","ios":"levelo://app?vid=ff123336-04e4-4483-af64-0dc4b50911b8"},"vehicle_type_id":"4","last_reported":1760707253,"current_range_meters":18000,"station_id":"ce4bhkp2rcd13ifvqgd0","pricing_plan_id":"cebpf4jnsgd1na2vs0mg"},{"bike_id":"550f97e6-2472-4124-8ce9-ad13ef74b066","system_id":"levelo_inurba_marseille","lat":43.31982,"lon":5.38135,"is_reserved":false,"is_disabled":false,"rental_uris":{"android":"levelo://app?vid=550f97e6-2472-4124-8ce9-ad13ef74b066","ios":"levelo://app?vid=550f97e6-2472-4124-8ce9-ad13ef74b066"},"vehicle_type_id":"4","last_reported":1760707253,"current_range_meters":18000,"station_id":"ce4bhr12rcd13ifvqhpg","pricing_plan_id":"cebpf4jnsgd1na2vs0mg"},{"bike_id":"6f274092-c836-4709-8bf1-a7cdbeb6f733","system_id":"levelo_inurba_marseille","lat":43.337658,"lon":5.374779,"is_reserved":false,"is_disabled":false,"rental_uris":{"android":"levelo://app?vid=6f274092-c836-4709-8bf1-a7cdbeb6f733","ios":"levelo://app?vid=6f274092-c836-4709-8bf1-a7cdbeb6f733"},"vehicle_type_id":"4","last_reported":1760707253,"current_range_meters":18000,"station_id":"","pricing_plan_id":"cebpf4jnsgd1na2vs0mg"},{"bike_id":"d32e176d-01c1-4adb-ac25-2dd81ef477b5","system_id":"levelo_inurba_marseille","lat":43.28456,"lon":5.35878,"is_reserved":false,"is_disabled":false,"rental_uris":{"android":"levelo://app?vid=d32e176d-01c1-4adb-ac25-2dd81ef477b5","ios":"levelo://app?vid=d32e176d-01c1-4adb-ac25-2dd81ef477b5"},"vehicle_type_id":"4","last_reported":1760707253,"current_range_meters":18000,"station_id":"ce4bhah2rcd13ifvqei0","pricing_plan_id":"cebpf4jnsgd1na2vs0mg"},{"bike_id":"d7b84771-1a2a-475d-a1c3-f0517aa45c29","system_id":"levelo_inurba_marseille","lat":43.3029,"lon":5.37705,"is_reserved":false,"is_disabled":false,"rental_uris":{"android":"levelo://app?vid=d7b84771-1a2a-475d-a1c3-f0517aa45c29","ios":"levelo://app?vid=d7b84771-1a2a-475d-a1c3-f0517aa45c29"},"vehicle_type_id":"4","last_reported":1760707253,"current_range_meters":18000,"station_id":"ce4bguh2rcd13ifvqcj0","pricing_plan_id":"cebpf4jnsgd1na2vs0mg"},{"bike_id":"958bf9fd-6f24-4157-b531-cb8fbb6a2636","system_id":"levelo_inurba_marseille","lat":43.33601,"lon":5.41031,"is_reserved":false,"is_disabled":false,"rental_uris":{"android":"levelo://app?vid=958bf9fd-6f24-4157-b531-cb8fbb6a2636","ios":"levelo://app?vid=958bf9fd-6f24-4157-b531-cb8fbb6a2636"},"vehicle_type_id":"4","last_reported":1760707253,"current_range_meters":18000,"station_id":"ce4bhqh2rcd13ifvqhmg","pricing_plan_id":"cebpf4jnsgd1na2vs0mg"},{"bike_id":"046f49d1-8c6c-48c9-983b-35c63a37cb70","system_id":"levelo_inurba_marseille","lat":43.28625,"lon":5.35067,"is_reserved":false,"is_disabled":false,"rental_uris":{"android":"levelo://app?vid=046f49d1-8c6c-48c9-983b-35c63a37cb70","ios":"levelo://app?vid=046f49d1-8c6c-48c9-983b-35c63a37cb70"},"vehicle_type_id":"4","last_reported":1760707253,"current_range_meters":18800,"station_id":"ce4bhch2rcd13ifvqeug","pricing_plan_id":"cebpf4jnsgd1na2vs0mg"},{"bike_id":"e4a40552-590e-41d0-b5c0-dd95772c5e14","system_id":"levelo_inurba_marseille","lat":43.29524,"lon":5.37502,"is_reserved":false,"is_disabled":false,"rental_uris":{"android":"levelo://app?vid=e4a40552-590e-41d0-b5c0-dd95772c5e14","ios":"levelo://app?vid=e4a40552-590e-41d0-b5c0-dd95772c5e14"},"vehicle_type_id":"4","last_reported":1760707253,"current_range_meters":18800,"station_id":"ce4bgkp2rcd13ifvqbmg","pricing_plan_id":"cebpf4jnsgd1na2vs0mg"},{"bike_id":"11824a93-b071-418e-9edf-23b12613a7e8","system_id":"levelo_inurba_marseille","lat":43.231542,"lon":5.437053,"is_reserved":false,"is_disabled":false,"rental_uris":{"android":"levelo://app?vid=11824a93-b071-418e-9edf-23b12613a7e8","ios":"levelo://app?vid=11824a93-b071-418e-9edf-23b12613a7e8"},"vehicle_type_id":"4","last_reported":1760707253,"current_range_meters":18800,"station_id":"ce4bhmp2rcd13ifvqgog","pricing_plan_id":"cebpf4jnsgd1na2vs0mg"},