{"last_updated":1717434475,"ttl":30,"version":"2.2","data":{"bikes":[{"bike_id":"883eeb81-bd0d-4755-bed8-9f39733c7fe6","system_id":"levelo_inurba_marseille","lat":43.313585,"lon":5.367168,"is_reserved":false,"is_disabled":false,"rental_uris":{"android":"levelo://app?vid=883eeb81-bd0d-4755-bed8-9f39733c7fe6","ios":"levelo://app?vid=883eeb81-bd0d-4755-bed8-9f39733c7fe6"},"vehicle_type_id":"4","last_reported":1717434475,"current_range_meters":0,"station_id":"ce4bgr92rcd13ifvqc6g","pricing_plan_id":"cebpf4jnsgd1na2vs0mg"},{"bike_id":"87dc03dd-bf12-4bc7-9dee-d09bb2154f73","system_id":"levelo_inurba_marseille","lat":43.31224,"lon":5.368593,"is_reserved":false,"is_disabled":false,"rental_uris":{"android":"levelo://app?vid=87dc03dd-bf12-4bc7-9dee-d09bb2154f73","ios":"levelo://app?vid=87dc03dd-bf12-4bc7-9dee-d09bb2154f73"},"vehicle_type_id":"4","last_reported":1717434475,"current_range_meters":0,"station_id":"","pricing_plan_id":"cebpf4jnsgd1na2vs0mg"},{"bike_id":"decb3eb9-8ea0-4cb5-af54-76d00677f681","system_id":"levelo_inurba_marseille","lat":43.314811,"lon":5.373103,"is_reserved":false,"is_disabled":false,"rental_uris":{"android":"levelo://app?vid=decb3eb9-8ea0-4cb5-af54-76d00677f681","ios":"levelo://app?vid=decb3eb9-8ea0-4cb5-af54-76d00677f681"},"vehicle_type_id":"4","last_reported":1717434475,"current_range_meters":0,"station_id":"ce4bgt12rcd13ifvqcd0","pricing_plan_id":"cebpf4jnsgd1na2vs0mg"},{"bike_id":"6b419592-a87c-41fe-9ce4-0b0f2af547d3","system_id":"levelo_inurba_marseille","lat":43.314811,"lon":5.373103,"is_reserved":false,"is_disabled":false,"rental_uris":{"android":"levelo://app?vid=6b419592-a87c-41fe-9ce4-0b0f2af547d3","ios":"levelo://app?vid=6b419592-a87c-41fe-9ce4-0b0f2af547d3"},"vehicle_type_id":"4","last_reported":1717434475,"current_range_meters":1200,"station_id":"ce4bgt12rcd13ifvqcd0","pricing_plan_id":"cebpf4jnsgd1na2vs0mg"},{"bike_id":"54572843-a0dd-446a-81bd-b994e6e46bda","system_id":"levelo_inurba_marseille","lat":43.314811,"lon":5.373104,"is_reserved":false,"is_disabled":false,"rental_uris":{"android":"levelo://app?vid=54572843-a0dd-446a-81bd-b994e6e46bda","ios":"levelo://app?vid=54572843-a0dd-446a-81bd-b994e6e46bda"},"vehicle_type_id":"4","last_reported":1717434475,"current_range_meters":800,"station_id":"ce4bgt12rcd13ifvqcd0","pricing_plan_id":"cebpf4jnsgd1na2vs0mg"},{"bike_id":"58558cc1-bdac-496f-849f-c81e867083f8","system_id":"levelo_inurba_marseille","lat":43.314811,"lon":5.373104,"is_reserved":false,"is_disabled":false,"rental_uris":{"android":"levelo://app?vid=58558cc1-bdac-496f-849f-c81e867083f8","ios":"levelo://app?vid=58558cc1-bdac-496f-849f-c81e867083f8"},"vehicle_type_id":"4","last_reported":1717434475,"current_range_meters":1600,"station_id":"ce4bgt12rcd13ifvqcd0","pricing_plan_id":"cebpf4jnsgd1na2vs0mg"},{"bike_id":"09ec9f6f-c4bb-489a-912c-92be0457e214","system_id":"levelo_inurba_marseille","lat":43.309039,"lon":5.371797,"is_reserved":false,"is_disabled":false,"rental_uris":{"android":"levelo://app?vid=09ec9f6f-c4bb-489a-912c-92be0457e214","ios":"levelo://app?vid=09ec9f6f-c4bb-489a-912c-92be0457e214"},"vehicle_type_id":"4","last_reported":1717434475,"current_range_meters":0,"station_id":"ce4bguh2rcd13ifvqckg","pricing_plan_id":"cebpf4jnsgd1na2vs0mg"},{"bike_id":"56782350-1606-49e8-8c4d-c5a571444714","system_id":"levelo_inurba_marseille","lat":43.309034,"lon":5.371783,"is_reserved":false,"is_disabled":false,"rental_uris":{"android":"levelo://app?vid=56782350-1606-49e8-8c4d-c5a571444714","ios":"levelo://app?vid=56782350-1606-49e8-8c4d-c5a571444714"},"vehicle_type_id":"4","last_reported":1717434475,"current_range_meters":30000,"station_id":"ce4bguh2rcd13ifvqckg","pricing_plan_id":"cebpf4jnsgd1na2vs0mg"},{"bike_id":"f5f7351c-2ef4-43c6-a43b-46db4d00c7c9","system_id":"levelo_inurba_marseille","lat":43.309034,"lon":5.371783,"is_reserved":false,"is_disabled":false,"rental_uris":{"android":"levelo://app?vid=f5f7351c-2ef4-43c6-a43b-46db4d00c7c9","ios":"levelo://app?vid=f5f7351c-2ef4-43c6-a43b-46db4d00c7c9"},"vehicle_type_id":"4","last_reported":1717434475,"current_range_meters":24000,"station_id":"ce4bguh2rcd13ifvqckg","pricing_plan_id":"cebpf4jnsgd1na2vs0mg"},{"bike_id":"6f0b46ff-e369-4c17-b573-53279d47134d","system_id":"levelo_inurba_marseille","lat":43.308501,"lon":5.372488,"is_reserved":false,"is_disabled":false,"rental_uris":{"android":"levelo://app?vid=6f0b46ff-e369-4c17-b573-53279d47134d","ios":"levelo://app?vid=6f0b46ff-e369-4c17-b573-53279d47134d"},"vehicle_type_id":"4","last_reported":1717434475,"current_range_meters":0,"station_id":"ce4bguh2rcd13ifvqckg","pricing_plan_id":"cebpf4jnsgd1na2vs0mg"},{"bike_id":"a022891b-f19e-4915-acdc-e5ea00cd7877","system_id":"levelo_inurba_marseille","lat":43.305712,"lon":5.365641,"is_reserved":false,"is_disabled":false,"rental_uris":{"android":"levelo://app?vid=a022891b-f19e-4915-acdc-e5ea00cd7877","ios":"levelo://app?vid=a022891b-f19e-4915-acdc-e5ea00cd7877"},"vehicle_type_id":"4","last_reported":1717434475,"current_range_meters":4400,"station_id":"ce4bgs12rcd13ifvqcag","pricing_plan_id":"cebpf4jnsgd1na2vs0mg"},{"bike_id":"1a125261-3bf6-4ee8-a173-714f1e5bf915","system_id":"levelo_inurba_marseille","lat":43.30537,"lon":5.367345,"is_reserved":false,"is_disabled":false,"rental_uris":{"android":"levelo://app?vid=1a125261-3bf6-4ee8-a173-714f1e5bf915","ios":"levelo://app?vid=1a125261-3bf6-4ee8-a173-714f1e5bf915"},"vehicle_type_id":"4","last_reported":1717434475,"current_range_meters":0,"station_id":"ce4bgrp2rcd13ifvqc9g","pricing_plan_id":"cebpf4jnsgd1na2vs0mg"},{"bike_id":"b70b5e0c-ec47-4931-96ea-8d2267a3deff","system_id":"levelo_inurba_marseille","lat":43.30537,"lon":5.367345,"is_reserved":false,"is_disabled":false,"rental_uris":{"android":"levelo://app?vid=b70b5e0c-ec47-4931-96ea-8d2267a3deff","ios":"levelo://app?vid=b70b5e0c-ec47-4931-96ea-8d2267a3deff"},"vehicle_type_id":"4","last_reported":1717434475,"current_range_meters":0,"station_id":"ce4bgrp2rcd13ifvqc9g","pricing_plan_id":"cebpf4jnsgd1na2vs0mg"},{"bike_id":"e5ca7962-a1d2-495e-9728-279676cc4e89","system_id":"levelo_inurba_marseille","lat":43.305714,"lon":5.365633,"is_reserved":false,"is_disabled":false,"rental_uris":{"android":"levelo://app?vid=e5ca7962-a1d2-495e-9728-279676cc4e89","ios":"levelo://app?vid=e5ca7962-a1d2-495e-9728-279676cc4e89"},"vehicle_type_id":"4","last_reported":1717434475,"current_range_meters":0,"station_id":"ce4bgs12rcd13ifvqcag","pricing_plan_id":"cebpf4jnsgd1na2vs0mg"},{"bike_id":"7dddd5b2-d93a-420d-99d9-a4b105fd1471","system_id":"levelo_inurba_marseille","lat":43.305714,"lon":5.365633,"is_reserved":false,"is_disabled":false,"rental_uris":{"android":"levelo://app?vid=7dddd5b2-d93a-420d-99d9-a4b105fd1471","ios":"levelo://app?vid=7dddd5b2-d93a-420d-99d9-a4b105fd1471"},"vehicle_type_id":"4","last_reported":1717434475,"current_range_meters":0,"station_id":"ce4bgs12rcd13ifvqcag","pricing_plan_id":"cebpf4jnsgd1na2vs0mg"},{"bike_id":"f65e5cb1-3deb-45f6-addc-7fa83ef4bd27","system_id":"levelo_inurba_marseille","lat":43.305714,"lon":5.365633,"is_reserved":false,"is_disabled":false,"rental_uris":{"android":"levelo://app?vid=f65e5cb1-3deb-45f6-addc-7fa83ef4bd27","ios":"levelo://app?vid=f65e5cb1-3deb-45f6-addc-7fa83ef4bd27"},"vehicle_type_id":"4","last_reported":1717434475,"current_range_meters":0,"station_id":"ce4bgs12rcd13ifvqcag","pricing_plan_id":"cebpf4jnsgd1na2vs0mg"},{"bike_id":"4d90c1c9-b915-4a10-91ba-34d7a4ca0acc","system_id":"levelo_inurba_marseille","lat":43.305989,"lon":5.37225,"is_reserved":false,"is_disabled":false,"rental_uris":{"android":"levelo://app?vid=4d90c1c9-b915-4a10-91ba-34d7a4ca0acc","ios":"levelo://app?vid=4d90c1c9-b915-4a10-91ba-34d7a4ca0acc"},"vehicle_type_id":"4","last_reported":1717434475,"current_range_meters":3600,"station_id":"ce4bgqh2rcd13ifvqc4g","pricing_plan_id":"cebpf4jnsgd1na2vs0mg"},{"bike_id":"cf194dfe-cfcc-4c4e-ae0b-52777ca41135","system_id":"levelo_inurba_marseille","lat":43.304889,"lon":5.367536,"is_reserved":false,"is_disabled":false,"rental_uris":{"android":"levelo://app?vid=cf194dfe-cfcc-4c4e-ae0b-52777ca41135","ios":"levelo://app?vid=cf194dfe-cfcc-4c4e-ae0b-52777ca41135"},"vehicle_type_id":"4","last_reported":1717434475,"current_range_meters":0,"station_id":"ce4bgrp2rcd13ifvqc9g","pricing_plan_id":"cebpf4jnsgd1na2vs0mg"},{"bike_id":"4d27a24c-99c7-462b-8811-b0b621f404e3","system_id":"levelo_inurba_marseille","lat":43.311125,"lon":5.377624,"is_reserved":false,"is_disabled":false,"rental_uris":{"android":"levelo://app?vid=4d27a24c-99c7-462b-8811-b0b621f404e3","ios":"levelo://app?vid=4d27a24c-99c7-462b-8811-b0b621f404e3"},"vehicle_type_id":"4","last_reported":1717434475,"current_range_meters":23200,"station_id":"ce4bgt92rcd13ifvqcg0","pricing_plan_id":"cebpf4jnsgd1na2vs0mg"},{"bike_id":"63b1a303-6db0-4c0e-a30f-ab2843d13f85","system_id":"levelo_inurba_marseille","lat":43.317075,"lon":5.377367,"is_reserved":false,"is_disabled":false,"rental_uris":{"android":"levelo://app?vid=63b1a303-6db0-4c0e-a30f-ab2843d13f85","ios":"levelo://app?vid=63b1a303-6db0-4c0e-a30f-ab2843d13f85"},"vehicle_type_id":"4","last_reported":1717434475,"current_range_meters":31600,"station_id":"ce4bgth2rcd13ifvqch0","pricing_plan_id":"cebpf4jnsgd1na2vs0mg"},{"bike_id":"5401ff84-06c4-4c94-b76e-411da2f5ffe9","system_id":"levelo_inurba_marseille","lat":43.322128,"lon":5.37122,"is_reserved":false,"is_disabled":false,"rental_uris":{"android":"levelo://app?vid=5401ff84-06c4-4c94-b76e-411da2f5ffe9","ios":"levelo://app?vid=5401ff84-06c4-4c94-b76e-411da2f5ffe9"},"vehicle_type_id":"4","last_reported":1717434475,"current_range_meters":15600,"station_id":"","pricing_plan_id":"cebpf4jnsgd1na2vs0mg"},{"bike_id":"69f1eeb6-89d2-4a34-9367-9e7cf1fee138","system_id":"levelo_inurba_marseille","lat":43.31538,"lon":5.38047,"is_reserved":false,"is_disabled":false,"rental_uris":{"android":"levelo://app?vid=69f1eeb6-89d2-4a34-9367-9e7cf1fee138","ios":"levelo://app?vid=69f1eeb6-89d2-4a34-9367-9e7cf1fee138"},"vehicle_type_id":"4","last_reported":1717434475,"current_range_meters":0,"station_id":"ce4bhsp2rcd13ifvqi50","pricing_plan_id":"cebpf4jnsgd1na2vs0mg"},{"bike_id":"e1e7f618-e686-42e8-b5a4-1ef4a6f4ae22","system_id":"levelo_inurba_marseille","lat":43.301939,"lon":5.366286,"is_reserved":false,"is_disabled":false,"rental_uris":{"android":"levelo://app?vid=e1e7f618-e686-42e8-b5a4-1ef4a6f4ae22","ios":"levelo://app?vid=e1e7f618-e686-42e8-b5a4-1ef4a6f4ae22"},"vehicle_type_id":"4","last_reported":1717434475,"current_range_meters":24000,"station_id":"ce4bgrh2rcd13ifvqc8g","pricing_plan_id":"cebpf4jnsgd1na2vs0mg"},{"bike_id":"536c50b7-de4e-4012-9e3d-559e97745d08","system_id":"levelo_inurba_marseille","lat":43.301939,"lon":5.366286,"is_reserved":false,"is_disabled":false,"rental_uris":{"android":"levelo://app?vid=536c50b7-de4e-4012-9e3d-559e97745d08","ios":"levelo://app?vid=536c50b7-de4e-4012-9e3d-559e97745d08"},"vehicle_type_id":"4","last_reported":1717434475,"current_range_meters":0,"station_id":"ce4bgrh2rcd13ifvqc8g","pricing_plan_id":"cebpf4jnsgd1na2vs0mg"},{"bike_id":"25b42c2e-794b-4a9f-a21c-bb6751a45686","system_id":"levelo_inurba_marseille","lat":43.308012,"lon":5.381511,"is_reserved":false,"is_disabled":false,"rental_uris":{"android":"levelo://app?vid=25b42c2e-794b-4a9f-a21c-bb6751a45686","ios":"levelo://app?vid=25b42c2e-794b-4a9f-a21c-bb6751a45686"},"vehicle_type_id":"4","last_reported":1717434475,"current_range_meters":6800,"station_id":"ce4bgt12rcd13ifvqce0","pricing_plan_id":"cebpf4jnsgd1na2vs0mg"},{"bike_id":"015d4851-a3a0-4a63-bbd5-01455dde70e1","system_id":"levelo_inurba_marseille","lat":43.308012,"lon":5.381511,"is_reserved":false,"is_disabled":false,"rental_uris":{"android":"levelo://app?vid=015d4851-a3a0-4a63-bbd5-01455dde70e1","ios":"levelo://app?vid=015d4851-a3a0-4a63-bbd5-01455dde70e1"},"vehicle_type_id":"4","last_reported":1717434475,"current_range_meters":0,"station_id":"ce4bgt12rcd13ifvqce0","pricing_plan_id":"cebpf4jnsgd1na2vs0mg"},{"bike_id":"99155971-c3e8-44e5-b3c8-36bd6b7b1592","system_id":"levelo_inurba_marseille","lat":43.324771,"lon":5.36557,"is_reserved":false,"is_disabled":false,"rental_uris":{"android":"levelo://app?vid=99155971-c3e8-44e5-b3c8-36bd6b7b1592","ios":"levelo://app?vid=99155971-c3e8-44e5-b3c8-36bd6b7b1592"},"vehicle_type_id":"4","last_reported":1717434475,"current_range_meters":0,"station_id":"ce4bhs12rcd13ifvqhvg","pricing_plan_id":"cebpf4jnsgd1na2vs0mg"},{"bike_id":"c14eadd3-cd46-4243-9628-ae32527dcc4f","system_id":"levelo_inurba_marseille","lat":43.310804,"lon":5.38359,"is_reserved":false,"is_disabled":false,"rental_uris":{"android":"levelo://app?vid=c14eadd3-cd46-4243-9628-ae32527dcc4f","ios":"levelo://app?vid=c14eadd3-cd46-4243-9628-ae32527dcc4f"},"vehicle_type_id":"4","last_reported":1717434475,"current_range_meters":0,"station_id":"ce4bgv92rcd13ifvqcr0","pricing_plan_id":"cebpf4jnsgd1na2vs0mg"},{"bike_id":"46217039-8f4a-40b7-8f17-f02ee319f1c3","system_id":"levelo_inurba_marseille","lat":43.310804,"lon":5.38359,"is_reserved":false,"is_disabled":false,"rental_uris":{"android":"levelo://app?vid=46217039-8f4a-40b7-8f17-f02ee319f1c3","ios":"levelo://app?vid=46217039-8f4a-40b7-8f17-f02ee319f1c3"},"vehicle_type_id":"4","last_reported":1717434475,"current_range_meters":0,"station_id":"ce4bgv92rcd13ifvqcr0","pricing_plan_id":"cebpf4jnsgd1na2vs0mg"},{"bike_id":"0b6ee8d8-a411-4679-9e00-a2bdad1da90e","system_id":"levelo_inurba_marseille","lat":43.302784,"lon":5.377158,"is_reserved":false,"is_disabled":false,"rental_uris":{"android":"levelo://app?vid=0b6ee8d8-a411-4679-9e00-a2bdad1da90e","ios":"levelo://app?vid=0b6ee8d8-a411-4679-9e00-a2bdad1da90e"},"vehicle_type_id":"4","last_reported":1717434475,"current_range_meters":22800,"station_id":"ce4bguh2rcd13ifvqcj0","pricing_plan_id":"cebpf4jnsgd1na2vs0mg"},{"bike_id":"e71e1fe8-4785-4934-8d84-f21e269c48f3","system_id":"levelo_inurba_marseille","lat":43.310804,"lon":5.38359,"is_reserved":false,"is_disabled":false,"rental_uris":{"android":"levelo://app?vid=e71e1fe8-4785-4934-8d84-f21e269c48f3","ios":"levelo://app?vid=e71e1fe8-4785-4934-8d84-f21e269c48f3"},"vehicle_type_id":"4","last_reported":1717434475,"current_range_meters":0,"station_id":"ce4bgv92rcd13ifvqcr0","pricing_plan_id":"cebpf4jnsgd1na2vs0mg"},{"bike_id":"cf45ed72-f859-4b35-9ce3-5084aeec36f4","system_id":"levelo_inurba_marseille","lat":43.319728,"lon":5.380923,"is_reserved":false,"is_disabled":false,"rental_uris":{"android":"levelo://app?vid=cf45ed72-f859-4b35-9ce3-5084aeec36f4","ios":"levelo://app?vid=cf45ed72-f859-4b35-9ce3-5084aeec36f4"},"vehicle_type_id":"4","last_reported":1717434475,"current_range_meters":11600,"station_id":"ce4bhr12rcd13ifvqhpg","pricing_plan_id":"cebpf4jnsgd1na2vs0mg"},{"bike_id":"20350782-2ef8-4180-a14b-4dd4e6627c9a","system_id":"levelo_inurba_marseille","lat":43.31998,"lon":5.38142,"is_reserved":false,"is_disabled":false,"rental_uris":{"android":"levelo://app?vid=20350782-2ef8-4180-a14b-4dd4e6627c9a","ios":"levelo://app?vid=20350782-2ef8-4180-a14b-4dd4e6627c9a"},"vehicle_type_id":"4","last_reported":1717434475,"current_range_meters":0,"station_id":"ce4bhr12rcd13ifvqhpg","pricing_plan_id":"cebpf4jnsgd1na2vs0mg"},{"bike_id":"fdb76446-08db-4ff3-8c4c-baf399698d0d","system_id":"levelo_inurba_marseille","lat":43.297163,"lon":5.365866,"is_reserved":false,"is_disabled":false,"rental_uris":{"android":"levelo://app?vid=fdb76446-08db-4ff3-8c4c-baf399698d0d","ios":"levelo://app?vid=fdb76446-08db-4ff3-8c4c-baf399698d0d"},"vehicle_type_id":"4","last_reported":1717434475,"current_range_meters":8000,"station_id":"ce4bgn12rcd13ifvqbt0","pricing_plan_id":"cebpf4jnsgd1na2vs0mg"},{"bike_id":"c42baff7-296c-4719-9cf2-cfc5a841aa50","system_id":"levelo_inurba_marseille","lat":43.299222,"lon":5.365554,"is_reserved":false,"is_disabled":false,"rental_uris":{"android":"levelo://app?vid=c42baff7-296c-4719-9cf2-cfc5a841aa50","ios":"levelo://app?vid=c42baff7-296c-4719-9cf2-cfc5a841aa50"},"vehicle_type_id":"4","last_reported":1717434475,"current_range_meters":7200,"station_id":"ce4bgm92rcd13ifvqbr0","pricing_plan_id":"cebpf4jnsgd1na2vs0mg"},{"bike_id":"67516a12-9f20-414c-8d98-e465289879a9","system_id":"levelo_inurba_marseille","lat":43.305364,"lon":5.384119,"is_reserved":false,"is_disabled":false,"rental_uris":{"android":"levelo://app?vid=67516a12-9f20-414c-8d98-e465289879a9","ios":"levelo://app?vid=67516a12-9f20-414c-8d98-e465289879a9"},"vehicle_type_id":"4","last_reported":1717434475,"current_range_meters":2800,"station_id":"ce4bgg92rcd13ifvqb30","pricing_plan_id":"cebpf4jnsgd1na2vs0mg"},{"bike_id":"42f7fa22-c9bf-4408-827e-ebe270efe05f","system_id":"levelo_inurba_marseille","lat":43.305364,"lon":5.384119,"is_reserved":false,"is_disabled":false,"rental_uris":{"android":"levelo://app?vid=42f7fa22-c9bf-4408-827e-ebe270efe05f","ios":"levelo://app?vid=42f7fa22-c9bf-4408-827e-ebe270efe05f"},"vehicle_type_id":"4","last_reported":1717434475,"current_range_meters":5600,"station_id":"ce4bgg92rcd13ifvqb30","pricing_plan_id":"cebpf4jnsgd1na2vs0mg"},{"bike_id":"7c0279c4-785e-41cc-9875-11b1aa5697b0","system_id":"levelo_inurba_marseille","lat":43.298432,"lon":5.362662,"is_reserved":false,"is_disabled":false,"rental_uris":{"android":"levelo://app?vid=7c0279c4-785e-41cc-9875-11b1aa5697b0","ios":"levelo://app?vid=7c0279c4-785e-41cc-9875-11b1aa5697b0"},"vehicle_type_id":"4","last_reported":1717434475,"current_range_meters":28000,"station_id":"ce4bgpp2rcd13ifvqc3g","pricing_plan_id":"cebpf4jnsgd1na2vs0mg"},{"bike_id":"944ceca1-4a69-41cb-896a-f249437dcf32","system_id":"levelo_inurba_marseille","lat":43.299249,"lon":5.374809,"is_reserved":false,"is_disabled":false,"rental_uris":{"android":"levelo://app?vid=944ceca1-4a69-41cb-896a-f249437dcf32","ios":"levelo://app?vid=944ceca1-4a69-41cb-896a-f249437dcf32"},"vehicle_type_id":"4","last_reported":1717434475,"current_range_meters":0,"station_id":"","pricing_plan_id":"cebpf4jnsgd1na2vs0mg"},{"bike_id":"8b7ef21e-7407-4829-8d59-49872feae290","system_id":"levelo_inurba_marseille","lat":43.30263,"lon":5.38159,"is_reserved":false,"is_disabled":false,"rental_uris":{"android":"levelo://app?vid=8b7ef21e-7407-4829-8d59-49872feae290","ios":"levelo://app?vid=8b7ef21e-7407-4829-8d59-49872feae290"},"vehicle_type_id":"4","last_reported":1717434475,"current_range_meters":6000,"station_id":"","pricing_plan_id":"cebpf4jnsgd1na2vs0mg"},{"bike_id":"10fb4334-c940-4455-979b-d3f1ca32e262","system_id":"levelo_inurba_marseille","lat":43.297794,"lon":5.370888,"is_reserved":false,"is_disabled":false,"rental_uris":{"android":"levelo://app?vid=10fb4334-c940-4455-979b-d3f1ca32e262","ios":"levelo://app?vid=10fb4334-c940-4455-979b-d3f1ca32e262"},"vehicle_type_id":"4","last_reported":1717434475,"current_range_meters":29200,"station_id":"ce4bgop2rcd13ifvqc1g","pricing_plan_id":"cebpf4jnsgd1na2vs0mg"},{"bike_id":"b6a3f6ef-2eda-4ea8-98a1-99e8fcd01f64","system_id":"levelo_inurba_marseille","lat":43.322872,"lon":5.382756,"is_reserved":false,"is_disabled":false,"rental_uris":{"android":"levelo://app?vid=b6a3f6ef-2eda-4ea8-98a1-99e8fcd01f64","ios":"levelo://app?vid=b6a3f6ef-2eda-4ea8-98a1-99e8fcd01f64"},"vehicle_type_id":"4","last_reported":1717434475,"current_range_meters":3200,"station_id":"ce4bhr12rcd13ifvqhqg","pricing_plan_id":"cebpf4jnsgd1na2vs0mg"},{"bike_id":"643a8877-546b-4652-8b16-b37f2cc6b884","system_id":"levelo_inurba_marseille","lat":43.322872,"lon":5.382756,"is_reserved":false,"is_disabled":false,"rental_uris":{"android":"levelo://app?vid=643a8877-546b-4652-8b16-b37f2cc6b884","ios":"levelo://app?vid=643a8877-546b-4652-8b16-b37f2cc6b884"},"vehicle_type_id":"4","last_reported":1717434475,"current_range_meters":19200,"station_id":"ce4bhr12rcd13ifvqhqg","pricing_plan_id":"cebpf4jnsgd1na2vs0mg"},{"bike_id":"d38104b9-3f8c-41a6-a24a-b1fcee844fa1","system_id":"levelo_inurba_marseille","lat":43.322872,"lon":5.382756,"is_reserved":false,"is_disabled":false,"rental_uris":{"android":"levelo://app?vid=d38104b9-3f8c-41a6-a24a-b1fcee844fa1","ios":"levelo://app?vid=d38104b9-3f8c-41a6-a24a-b1fcee844fa1"},"vehicle_type_id":"4","last_reported":1717434475,"current_range_meters":10800,"station_id":"ce4bhr12rcd13ifvqhqg","pricing_plan_id":"cebpf4jnsgd1na2vs0mg"},{"bike_id":"732dd0f4-77e2-49b4-944f-ba690010225a","system_id":"levelo_inurba_marseille","lat":43.29573,"lon":5.367355,"is_reserved":false,"is_disabled":false,"rental_uris":{"android":"levelo://app?vid=732dd0f4-77e2-49b4-944f-ba690010225a","ios":"levelo://app?vid=732dd0f4-77e2-49b4-944f-ba690010225a"},"vehicle_type_id":"4","last_reported":1717434475,"current_range_meters":13600,"station_id":"ce4bgph2rcd13ifvqc2g","pricing_plan_id":"cebpf4jnsgd1na2vs0mg"},{"bike_id":"acfdff39-0d1b-4804-adc3-3958b8f5b7f6","system_id":"levelo_inurba_marseille","lat":43.299118,"lon":5.381044,"is_reserved":false,"is_disabled":false,"rental_uris":{"android":"levelo://app?vid=acfdff39-0d1b-4804-adc3-3958b8f5b7f6","ios":"levelo://app?vid=acfdff39-0d1b-4804-adc3-3958b8f5b7f6"},"vehicle_type_id":"4","last_reported":1717434475,"current_range_meters":22400,"station_id":"","pricing_plan_id":"cebpf4jnsgd1na2vs0mg"},{"bike_id":"bd5a4184-402a-4131-ae37-86366984eb6f","system_id":"levelo_inurba_marseille","lat":43.32367,"lon":5.38508,"is_reserved":false,"is_disabled":false,"rental_uris":{"android":"levelo://app?vid=bd5a4184-402a-4131-ae37-86366984eb6f","ios":"levelo://app?vid=bd5a4184-402a-4131-ae37-86366984eb6f"},"vehicle_type_id":"4","last_reported":1717434475,"current_range_meters":0,"station_id":"","pricing_plan_id":"cebpf4jnsgd1na2vs0mg"},{"bike_id":"9b8033ee-94bc-4137-afc9-5dfba5e70e66","system_id":"levelo_inurba_marseille","lat":43.30952,"lon":5.39024,"is_reserved":false,"is_disabled":false,"rental_uris":{"android":"levelo://app?vid=9b8033ee-94bc-4137-afc9-5dfba5e70e66","ios":"levelo://app?vid=9b8033ee-94bc-4137-afc9-5dfba5e70e66"},"vehicle_type_id":"4","last_reported":1717434475,"current_range_meters":28800,"station_id":"ce4bgup2rcd13ifvqco0","pricing_plan_id":"cebpf4jnsgd1na2vs0mg"},{"bike_id":"efb1fb78-65a8-4019-9c47-5403a1b68c36","system_id":"levelo_inurba_marseille","lat":43.30954,"lon":5.39032,"is_reserved":false,"is_disabled":false,"rental_uris":{"android":"levelo://app?vid=efb1fb78-65a8-4019-9c47-5403a1b68c36","ios":"levelo://app?vid=efb1fb78-65a8-4019-9c47-5403a1b68c36"},"vehicle_type_id":"4","last_reported":1717434475,"current_range_meters":24800,"station_id":"ce4bgup2rcd13ifvqco0","pricing_plan_id":"cebpf4jnsgd1na2vs0mg"},{"bike_id":"d5ce8e63-8825-49f7-93d5-e5c019071538","system_id":"levelo_inurba_marseille","lat":43.317557,"lon":5.390173,"is_reserved":false,"is_disabled":false,"rental_uris":{"android":"levelo://app?vid=d5ce8e63-8825-49f7-93d5-e5c019071538","ios":"levelo://app?vid=d5ce8e63-8825-49f7-93d5-e5c019071538"},"vehicle_type_id":"4","last_reported":1717434475,"current_range_meters":26800,"station_id":"ce4bhqp2rcd13ifvqhng","pricing_plan_id":"cebpf4jnsgd1na2vs0mg"},{"bike_id":"4220e567-e4b7-45d4-a02f-22e3db8c3610","system_id":"levelo_inurba_marseille","lat":43.31757,"lon":5.3902,"is_reserved":false,"is_disabled":false,"rental_uris":{"android":"levelo://app?vid=4220e567-e4b7-45d4-a02f-22e3db8c3610","ios":"levelo://app?vid=4220e567-e4b7-45d4-a02f-22e3db8c3610"},"vehicle_type_id":"4","last_reported":1717434475,"current_range_meters":0,"station_id":"ce4bhqp2rcd13ifvqhng","pricing_plan_id":"cebpf4jnsgd1na2vs0mg"},{"bike_id":"82958010-3661-4a4b-acb8-deaac7a6eab7","system_id":"levelo_inurba_marseille","lat":43.296988,"lon":5.37812,"is_reserved":false,"is_disabled":false,"rental_uris":{"android":"levelo://app?vid=82958010-3661-4a4b-acb8-deaac7a6eab7","ios":"levelo://app?vid=82958010-3661-4a4b-acb8-deaac7a6eab7"},"vehicle_type_id":"4","last_reported":1717434475,"current_range_meters":24400,"station_id":"","pricing_plan_id":"cebpf4jnsgd1na2vs0mg"},{"bike_id":"aa46cce9-f5d1-4626-93f9-b03368994470","system_id":"levelo_inurba_marseille","lat":43.2972,"lon":5.37875,"is_reserved":false,"is_disabled":false,"rental_uris":{"android":"levelo://app?vid=aa46cce9-f5d1-4626-93f9-b03368994470","ios":"levelo://app?vid=aa46cce9-f5d1-4626-93f9-b03368994470"},"vehicle_type_id":"4","last_reported":1717434475,"current_range_meters":16000,"station_id":"","pricing_plan_id":"cebpf4jnsgd1na2vs0mg"},{"bike_id":"bba62ce6-e583-4244-9cc7-340fbee098b1","system_id":"levelo_inurba_marseille","lat":43.295824,"lon":5.375194,"is_reserved":false,"is_disabled":false,"rental_uris":{"android":"levelo://app?vid=bba62ce6-e583-4244-9cc7-340fbee098b1","ios":"levelo://app?vid=bba62ce6-e583-4244-9cc7-340fbee098b1"},"vehicle_type_id":"4","last_reported":1717434475,"current_range_meters":0,"station_id":"ce4bgkp2rcd13ifvqbmg","pricing_plan_id":"cebpf4jnsgd1na2vs0mg"},{"bike_id":"15a8e130-34e3-445b-8781-de66184ee271","system_id":"levelo_inurba_marseille","lat":43.298037,"lon":5.381066,"is_reserved":false,"is_disabled":false,"rental_uris":{"android":"levelo://app?vid=15a8e130-34e3-445b-8781-de66184ee271","ios":"levelo://app?vid=15a8e130-34e3-445b-8781-de66184ee271"},"vehicle_type_id":"4","last_reported":1717434475,"current_range_meters":0,"station_id":"ce4bgip2rcd13ifvqbb0","pricing_plan_id":"cebpf4jnsgd1na2vs0mg"},{"bike_id":"a3a0197a-0616-4899-95a5-2b07d5cf73ca","system_id":"levelo_inurba_marseille","lat":43.295748,"lon":5.37522,"is_reserved":false,"is_disabled":false,"rental_uris":{"android":"levelo://app?vid=a3a0197a-0616-4899-95a5-2b07d5cf73ca","ios":"levelo://app?vid=a3a0197a-0616-4899-95a5-2b07d5cf73ca"},"vehicle_type_id":"4","last_reported":1717434475,"current_range_meters":0,"station_id":"ce4bgh92rcd13ifvqb50","pricing_plan_id":"cebpf4jnsgd1na2vs0mg"},{"bike_id":"37c4cb9d-f72e-419b-850d-787055b10da1","system_id":"levelo_inurba_marseille","lat":43.299371,"lon":5.383522,"is_reserved":false,"is_disabled":false,"rental_uris":{"android":"levelo://app?vid=37c4cb9d-f72e-419b-850d-787055b10da1","ios":"levelo://app?vid=37c4cb9d-f72e-419b-850d-787055b10da1"},"vehicle_type_id":"4","last_reported":1717434475,"current_range_meters":19600,"station_id":"","pricing_plan_id":"cebpf4jnsgd1na2vs0mg"},{"bike_id":"36f5ec52-b2d9-4a7c-a000-bb2a71d00c78","system_id":"levelo_inurba_marseille","lat":43.297953,"lon":5.38115,"is_reserved":false,"is_disabled":false,"rental_uris":{"android":"levelo://app?vid=36f5ec52-b2d9-4a7c-a000-bb2a71d00c78","ios":"levelo://app?vid=36f5ec52-b2d9-4a7c-a000-bb2a71d00c78"},"vehicle_type_id":"4","last_reported":1717434475,"current_range_meters":0,"station_id":"ce4bgip2rcd13ifvqbb0","pricing_plan_id":"cebpf4jnsgd1na2vs0mg"},{"bike_id":"9ea0a68e-59b4-4797-9bfc-4e89c570c72c","system_id":"levelo_inurba_marseille","lat":43.304274,"lon":5.388873,"is_reserved":false,"is_disabled":false,"rental_uris":{"android":"levelo://app?vid=9ea0a68e-59b4-4797-9bfc-4e89c570c72c","ios":"levelo://app?vid=9ea0a68e-59b4-4797-9bfc-4e89c570c72c"},"vehicle_type_id":"4","last_reported":1717434475,"current_range_meters":2800,"station_id":"ce4bgk12rcd13ifvqbi0","pricing_plan_id":"cebpf4jnsgd1na2vs0mg"},{"bike_id":"2ecb1d4c-6279-412b-959e-87884ea3954b","system_id":"levelo_inurba_marseille","lat":43.295748,"lon":5.37522,"is_reserved":false,"is_disabled":false,"rental_uris":{"android":"levelo://app?vid=2ecb1d4c-6279-412b-959e-87884ea3954b","ios":"levelo://app?vid=2ecb1d4c-6279-412b-959e-87884ea3954b"},"vehicle_type_id":"4","last_reported":1717434475,"current_range_meters":12000,"station_id":"ce4bgh92rcd13ifvqb50","pricing_plan_id":"cebpf4jnsgd1na2vs0mg"},{"bike_id":"d56bb984-ae71-48c2-9f06-42d8ef06423c","system_id":"levelo_inurba_marseille","lat":43.296263,"lon":5.377094,"is_reserved":false,"is_disabled":false,"rental_uris":{"android":"levelo://app?vid=d56bb984-ae71-48c2-9f06-42d8ef06423c","ios":"levelo://app?vid=d56bb984-ae71-48c2-9f06-42d8ef06423c"},"vehicle_type_id":"4","last_reported":1717434475,"current_range_meters":0,"station_id":"ce4bgi92rcd13ifvqb90","pricing_plan_id":"cebpf4jnsgd1na2vs0mg"},{"bike_id":"52cd7dbf-50f5-445e-9a5a-d9423f8cc742","system_id":"levelo_inurba_marseille","lat":43.296263,"lon":5.377094,"is_reserved":false,"is_disabled":false,"rental_uris":{"android":"levelo://app?vid=52cd7dbf-50f5-445e-9a5a-d9423f8cc742","ios":"levelo://app?vid=52cd7dbf-50f5-445e-9a5a-d9423f8cc742"},"vehicle_type_id":"4","last_reported":1717434475,"current_range_meters":4800,"station_id":"ce4bgi92rcd13ifvqb90","pricing_plan_id":"cebpf4jnsgd1na2vs0mg"},{"bike_id":"3f02d04c-2cda-443c-8b30-699003a0f2dd","system_id":"levelo_inurba_marseille","lat":43.29534,"lon":5.37495,"is_reserved":false,"is_disabled":false,"rental_uris":{"android":"levelo://app?vid=3f02d04c-2cda-443c-8b30-699003a0f2dd","ios":"levelo://app?vid=3f02d04c-2cda-443c-8b30-699003a0f2dd"},"vehicle_type_id":"4","last_reported":1717434475,"current_range_meters":0,"station_id":"ce4bgkp2rcd13ifvqbmg","pricing_plan_id":"cebpf4jnsgd1na2vs0mg"},{"bike_id":"4a314833-8103-4d3e-97e1-2e32c7c0d36f","system_id":"levelo_inurba_marseille","lat":43.299724,"lon":5.384848,"is_reserved":false,"is_disabled":false,"rental_uris":{"android":"levelo://app?vid=4a314833-8103-4d3e-97e1-2e32c7c0d36f","ios":"levelo://app?vid=4a314833-8103-4d3e-97e1-2e32c7c0d36f"},"vehicle_type_id":"4","last_reported":1717434475,"current_range_meters":0,"station_id":"ce4bgj92rcd13ifvqbd0","pricing_plan_id":"cebpf4jnsgd1na2vs0mg"},{"bike_id":"7b624083-bf13-484c-8a26-b77da45cef76","system_id":"levelo_inurba_marseille","lat":43.299717,"lon":5.384845,"is_reserved":false,"is_disabled":false,"rental_uris":{"android":"levelo://app?vid=7b624083-bf13-484c-8a26-b77da45cef76","ios":"levelo://app?vid=7b624083-bf13-484c-8a26-b77da45cef76"},"vehicle_type_id":"4","last_reported":1717434475,"current_range_meters":11200,"station_id":"ce4bgj92rcd13ifvqbd0","pricing_plan_id":"cebpf4jnsgd1na2vs0mg"},{"bike_id":"443415a9-4be5-46e4-9630-e6cd754850ac","system_id":"levelo_inurba_marseille","lat":43.32367,"lon":5.388836,"is_reserved":false,"is_disabled":false,"rental_uris":{"android":"levelo://app?vid=443415a9-4be5-46e4-9630-e6cd754850ac","ios":"levelo://app?vid=443415a9-4be5-46e4-9630-e6cd754850ac"},"vehicle_type_id":"4","last_reported":1717434475,"current_range_meters":9200,"station_id":"ce4bhqp2rcd13ifvqhog","pricing_plan_id":"cebpf4jnsgd1na2vs0mg"},{"bike_id":"bb596fdf-9ad0-4916-9a85-ef2dbe8c6a5a","system_id":"levelo_inurba_marseille","lat":43.32367,"lon":5.388836,"is_reserved":false,"is_disabled":false,"rental_uris":{"android":"levelo://app?vid=bb596fdf-9ad0-4916-9a85-ef2dbe8c6a5a","ios":"levelo://app?vid=bb596fdf-9ad0-4916-9a85-ef2dbe8c6a5a"},"vehicle_type_id":"4","last_reported":1717434475,"current_range_meters":3600,"station_id":"ce4bhqp2rcd13ifvqhog","pricing_plan_id":"cebpf4jnsgd1na2vs0mg"},{"bike_id":"95310373-a3bc-4266-9cf1-a267850db416","system_id":"levelo_inurba_marseille","lat":43.31201,"lon":5.39361,"is_reserved":false,"is_disabled":false,"rental_uris":{"android":"levelo://app?vid=95310373-a3bc-4266-9cf1-a267850db416","ios":"levelo://app?vid=95310373-a3bc-4266-9cf1-a267850db416"},"vehicle_type_id":"4","last_reported":1717434475,"current_range_meters":6400,"station_id":"","pricing_plan_id":"cebpf4jnsgd1na2vs0mg"},{"bike_id":"34f41cb0-140e-4993-9af8-ce153951d233","system_id":"levelo_inurba_marseille","lat":43.29601,"lon":5.381084,"is_reserved":false,"is_disabled":false,"rental_uris":{"android":"levelo://app?vid=34f41cb0-140e-4993-9af8-ce153951d233","ios":"levelo://app?vid=34f41cb0-140e-4993-9af8-ce153951d233"},"vehicle_type_id":"4","last_reported":1717434475,"current_range_meters":0,"station_id":"ce4bgl12rcd13ifvqbo0","pricing_plan_id":"cebpf4jnsgd1na2vs0mg"},{"bike_id":"5cc08380-ad4d-4677-92f7-c95f57cbdb65","system_id":"levelo_inurba_marseille","lat":43.29333,"lon":5.37158,"is_reserved":false,"is_disabled":false,"rental_uris":{"android":"levelo://app?vid=5cc08380-ad4d-4677-92f7-c95f57cbdb65","ios":"levelo://app?vid=5cc08380-ad4d-4677-92f7-c95f57cbdb65"},"vehicle_type_id":"4","last_reported":1717434475,"current_range_meters":0,"station_id":"ce4bgh92rcd13ifvqb40","pricing_plan_id":"cebpf4jnsgd1na2vs0mg"},{"bike_id":"06a6853c-e4c2-4603-9ed1-4a9c3e8ef55b","system_id":"levelo_inurba_marseille","lat":43.310416,"lon":5.393875,"is_reserved":false,"is_disabled":false,"rental_uris":{"android":"levelo://app?vid=06a6853c-e4c2-4603-9ed1-4a9c3e8ef55b","ios":"levelo://app?vid=06a6853c-e4c2-4603-9ed1-4a9c3e8ef55b"},"vehicle_type_id":"4","last_reported":1717434475,"current_range_meters":4800,"station_id":"","pricing_plan_id":"cebpf4jnsgd1na2vs0mg"},{"bike_id":"ac5f8d76-6e85-40dc-92ef-97293e1b03cb","system_id":"levelo_inurba_marseille","lat":43.303002,"lon":5.392142,"is_reserved":false,"is_disabled":false,"rental_uris":{"android":"levelo://app?vid=ac5f8d76-6e85-40dc-92ef-97293e1b03cb","ios":"levelo://app?vid=ac5f8d76-6e85-40dc-92ef-97293e1b03cb"},"vehicle_type_id":"4","last_reported":1717434475,"current_range_meters":0,"station_id":"ce4bgkh2rcd13ifvqbk0","pricing_plan_id":"cebpf4jnsgd1na2vs0mg"},{"bike_id":"24d56d27-089f-4510-bec1-b883a2ba4c1a","system_id":"levelo_inurba_marseille","lat":43.292749,"lon":5.368398,"is_reserved":false,"is_disabled":false,"rental_uris":{"android":"levelo://app?vid=24d56d27-089f-4510-bec1-b883a2ba4c1a","ios":"levelo://app?vid=24d56d27-089f-4510-bec1-b883a2ba4c1a"},"vehicle_type_id":"4","last_reported":1717434475,"current_range_meters":0,"station_id":"ce4bhbp2rcd13ifvqesg","pricing_plan_id":"cebpf4jnsgd1na2vs0mg"},{"bike_id":"6ff9d9b2-1474-4a51-8fe3-02f8da90a5e1","system_id":"levelo_inurba_marseille","lat":43.292311,"lon":5.360731,"is_reserved":false,"is_disabled":false,"rental_uris":{"android":"levelo://app?vid=6ff9d9b2-1474-4a51-8fe3-02f8da90a5e1","ios":"levelo://app?vid=6ff9d9b2-1474-4a51-8fe3-02f8da90a5e1"},"vehicle_type_id":"4","last_reported":1717434475,"current_range_meters":16400,"station_id":"ce4bhbh2rcd13ifvqeqg","pricing_plan_id":"cebpf4jnsgd1na2vs0mg"},{"bike_id":"20d2be00-1f96-4009-a9f8-1c3c67ee9f11","system_id":"levelo_inurba_marseille","lat":43.30234,"lon":5.39042,"is_reserved":false,"is_disabled":false,"rental_uris":{"android":"levelo://app?vid=20d2be00-1f96-4009-a9f8-1c3c67ee9f11","ios":"levelo://app?vid=20d2be00-1f96-4009-a9f8-1c3c67ee9f11"},"vehicle_type_id":"4","last_reported":1717434475,"current_range_meters":0,"station_id":"","pricing_plan_id":"cebpf4jnsgd1na2vs0mg"},{"bike_id":"6c71bc0a-56e0-4714-a147-f9d534e5cbaf","system_id":"levelo_inurba_marseille","lat":43.2931,"lon":5.37459,"is_reserved":false,"is_disabled":false,"rental_uris":{"android":"levelo://app?vid=6c71bc0a-56e0-4714-a147-f9d534e5cbaf","ios":"levelo://app?vid=6c71bc0a-56e0-4714-a147-f9d534e5cbaf"},"vehicle_type_id":"4","last_reported":1717434475,"current_range_meters":0,"station_id":"ce4bhbp2rcd13ifvqesg","pricing_plan_id":"cebpf4jnsgd1na2vs0mg"},{"bike_id":"fe8e8bdd-ad1c-4129-a0cb-d6798f4ac102","system_id":"levelo_inurba_marseille","lat":43.302992,"lon":5.392136,"is_reserved":false,"is_disabled":false,"rental_uris":{"android":"levelo://app?vid=fe8e8bdd-ad1c-4129-a0cb-d6798f4ac102","ios":"levelo://app?vid=fe8e8bdd-ad1c-4129-a0cb-d6798f4ac102"},"vehicle_type_id":"4","last_reported":1717434475,"current_range_meters":0,"station_id":"ce4bgkh2rcd13ifvqbk0","pricing_plan_id":"cebpf4jnsgd1na2vs0mg"},{"bike_id":"58c48edb-1f6d-4317-9e27-00241dd31b6c","system_id":"levelo_inurba_marseille","lat":43.309589,"lon":5.390258,"is_reserved":false,"is_disabled":false,"rental_uris":{"android":"levelo://app?vid=58c48edb-1f6d-4317-9e27-00241dd31b6c","ios":"levelo://app?vid=58c48edb-1f6d-4317-9e27-00241dd31b6c"},"vehicle_type_id":"4","last_reported":1717434475,"current_range_meters":0,"station_id":"ce4bgup2rcd13ifvqco0","pricing_plan_id":"cebpf4jnsgd1na2vs0mg"},{"bike_id":"4b240b88-3379-4f45-95c2-d95b952911cb","system_id":"levelo_inurba_marseille","lat":43.292311,"lon":5.360731,"is_reserved":false,"is_disabled":false,"rental_uris":{"android":"levelo://app?vid=4b240b88-3379-4f45-95c2-d95b952911cb","ios":"levelo://app?vid=4b240b88-3379-4f45-95c2-d95b952911cb"},"vehicle_type_id":"4","last_reported":1717434475,"current_range_meters":23200,"station_id":"ce4bhbh2rcd13ifvqeqg","pricing_plan_id":"cebpf4jnsgd1na2vs0mg"},{"bike_id":"246f09ea-dd2b-410d-b433-8b65155e0425","system_id":"levelo_inurba_marseille","lat":43.292311,"lon":5.360731,"is_reserved":false,"is_disabled":false,"rental_uris":{"android":"levelo://app?vid=246f09ea-dd2b-410d-b433-8b65155e0425","ios":"levelo://app?vid=246f09ea-dd2b-410d-b433-8b65155e0425"},"vehicle_type_id":"4","last_reported":1717434475,"current_range_meters":22000,"station_id":"ce4bhbh2rcd13ifvqeqg","pricing_plan_id":"cebpf4jnsgd1na2vs0mg"},{"bike_id":"7705db30-971e-40ff-a11c-2262f85f40ac","system_id":"levelo_inurba_marseille","lat":43.292311,"lon":5.360731,"is_reserved":false,"is_disabled":false,"rental_uris":{"android":"levelo://app?vid=7705db30-971e-40ff-a11c-2262f85f40ac","ios":"levelo://app?vid=7705db30-971e-40ff-a11c-2262f85f40ac"},"vehicle_type_id":"4","last_reported":1717434475,"current_range_meters":3200,"station_id":"ce4bhbh2rcd13ifvqeqg","pricing_plan_id":"cebpf4jnsgd1na2vs0mg"},{"bike_id":"8bb9e1e8-563c-466c-a40b-7aa889c213d1","system_id":"levelo_inurba_marseille","lat":43.29228,"lon":5.36057,"is_reserved":false,"is_disabled":false,"rental_uris":{"android":"levelo://app?vid=8bb9e1e8-563c-466c-a40b-7aa889c213d1","ios":"levelo://app?vid=8bb9e1e8-563c-466c-a40b-7aa889c213d1"},"vehicle_type_id":"4","last_reported":1717434475,"current_range_meters":10400,"station_id":"ce4bhbh2rcd13ifvqeqg","pricing_plan_id":"cebpf4jnsgd1na2vs0mg"},{"bike_id":"fa47485c-db85-41de-a6f7-4f823393d82e","system_id":"levelo_inurba_marseille","lat":43.292311,"lon":5.360731,"is_reserved":false,"is_disabled":false,"rental_uris":{"android":"levelo://app?vid=fa47485c-db85-41de-a6f7-4f823393d82e","ios":"levelo://app?vid=fa47485c-db85-41de-a6f7-4f823393d82e"},"vehicle_type_id":"4","last_reported":1717434475,"current_range_meters":1600,"station_id":"ce4bhbh2rcd13ifvqeqg","pricing_plan_id":"cebpf4jnsgd1na2vs0mg"},{"bike_id":"e92761ee-bab3-4354-ac4c-0195ed0a84fa","system_id":"levelo_inurba_marseille","lat":43.29227,"lon":5.3606,"is_reserved":false,"is_disabled":false,"rental_uris":{"android":"levelo://app?vid=e92761ee-bab3-4354-ac4c-0195ed0a84fa","ios":"levelo://app?vid=e92761ee-bab3-4354-ac4c-0195ed0a84fa"},"vehicle_type_id":"4","last_reported":1717434475,"current_range_meters":800,"station_id":"ce4bhbh2rcd13ifvqeqg","pricing_plan_id":"cebpf4jnsgd1na2vs0mg"},{"bike_id":"12c741da-5a0f-48ab-88a4-2cf5ca1a96f7","system_id":"levelo_inurba_marseille","lat":43.292311,"lon":5.360731,"is_reserved":false,"is_disabled":false,"rental_uris":{"android":"levelo://app?vid=12c741da-5a0f-48ab-88a4-2cf5ca1a96f7","ios":"levelo://app?vid=12c741da-5a0f-48ab-88a4-2cf5ca1a96f7"},"vehicle_type_id":"4","last_reported":1717434475,"current_range_meters":8400,"station_id":"ce4bhbh2rcd13ifvqeqg","pricing_plan_id":"cebpf4jnsgd1na2vs0mg"},{"bike_id":"9b11f454-42a0-4657-a9c6-efb8b9790511","system_id":"levelo_inurba_marseille","lat":43.298927,"lon":5.388989,"is_reserved":false,"is_disabled":false,"rental_uris":{"android":"levelo://app?vid=9b11f454-42a0-4657-a9c6-efb8b9790511","ios":"levelo://app?vid=9b11f454-42a0-4657-a9c6-efb8b9790511"},"vehicle_type_id":"4","last_reported":1717434475,"current_range_meters":0,"station_id":"ce4bh392rcd13ifvqdl0","pricing_plan_id":"cebpf4jnsgd1na2vs0mg"},{"bike_id":"7d6f6b7f-ac2b-4865-91c0-d136be56d7cc","system_id":"levelo_inurba_marseille","lat":43.298764,"lon":5.388973,"is_reserved":false,"is_disabled":false,"rental_uris":{"android":"levelo://app?vid=7d6f6b7f-ac2b-4865-91c0-d136be56d7cc","ios":"levelo://app?vid=7d6f6b7f-ac2b-4865-91c0-d136be56d7cc"},"vehicle_type_id":"4","last_reported":1717434475,"current_range_meters":0,"station_id":"ce4bh392rcd13ifvqdl0","pricing_plan_id":"cebpf4jnsgd1na2vs0mg"},{"bike_id":"e791720b-ba94-41db-8828-903e5e4edbe0","system_id":"levelo_inurba_marseille","lat":43.298764,"lon":5.388973,"is_reserved":false,"is_disabled":false,"rental_uris":{"android":"levelo://app?vid=e791720b-ba94-41db-8828-903e5e4edbe0","ios":"levelo://app?vid=e791720b-ba94-41db-8828-903e5e4edbe0"},"vehicle_type_id":"4","last_reported":1717434475,"current_range_meters":10400,"station_id":"ce4bh392rcd13ifvqdl0","pricing_plan_id":"cebpf4jnsgd1na2vs0mg"},{"bike_id":"e2a7dcbe-8367-4e98-bb09-c0d03145202d","system_id":"levelo_inurba_marseille","lat":43.291672,"lon":5.371632,"is_reserved":false,"is_disabled":false,"rental_uris":{"android":"levelo://app?vid=e2a7dcbe-8367-4e98-bb09-c0d03145202d","ios":"levelo://app?vid=e2a7dcbe-8367-4e98-bb09-c0d03145202d"},"vehicle_type_id":"4","last_reported":1717434475,"current_range_meters":0,"station_id":"ce4bha92rcd13ifvqeh0","pricing_plan_id":"cebpf4jnsgd1na2vs0mg"},{"bike_id":"99c6fb0b-ec7f-4191-8f76-5cc5386b691e","system_id":"levelo_inurba_marseille","lat":43.298764,"lon":5.388973,"is_reserved":false,"is_disabled":false,"rental_uris":{"android":"levelo://app?vid=99c6fb0b-ec7f-4191-8f76-5cc5386b691e","ios":"levelo://app?vid=99c6fb0b-ec7f-4191-8f76-5cc5386b691e"},"vehicle_type_id":"4","last_reported":1717434475,"current_range_meters":9600,"station_id":"ce4bh392rcd13ifvqdl0","pricing_plan_id":"cebpf4jnsgd1na2vs0mg"},{"bike_id":"8aecfbba-c525-4ce4-84b1-ac1b7c745a52","system_id":"levelo_inurba_marseille","lat":43.29757,"lon":5.38842,"is_reserved":false,"is_disabled":false,"rental_uris":{"android":"levelo://app?vid=8aecfbba-c525-4ce4-84b1-ac1b7c745a52","ios":"levelo://app?vid=8aecfbba-c525-4ce4-84b1-ac1b7c745a52"},"vehicle_type_id":"4","last_reported":1717434475,"current_range_meters":0,"station_id":"","pricing_plan_id":"cebpf4jnsgd1na2vs0mg"},{"bike_id":"c51c249f-4b51-49a3-9919-185a3a58f5be","system_id":"levelo_inurba_marseille","lat":43.313291,"lon":5.396838,"is_reserved":false,"is_disabled":false,"rental_uris":{"android":"levelo://app?vid=c51c249f-4b51-49a3-9919-185a3a58f5be","ios":"levelo://app?vid=c51c249f-4b51-49a3-9919-185a3a58f5be"},"vehicle_type_id":"4","last_reported":1717434475,"current_range_meters":23600,"station_id":"ce4bgvp2rcd13ifvqcu0","pricing_plan_id":"cebpf4jnsgd1na2vs0mg"},{"bike_id":"18fa8987-4141-4b88-9ce0-d7b155eff53f","system_id":"levelo_inurba_marseille","lat":43.313291,"lon":5.396838,"is_reserved":false,"is_disabled":false,"rental_uris":{"android":"levelo://app?vid=18fa8987-4141-4b88-9ce0-d7b155eff53f","ios":"levelo://app?vid=18fa8987-4141-4b88-9ce0-d7b155eff53f"},"vehicle_type_id":"4","last_reported":1717434475,"current_range_meters":6800,"station_id":"ce4bgvp2rcd13ifvqcu0","pricing_plan_id":"cebpf4jnsgd1na2vs0mg"},{"bike_id":"4d3c82a3-c6c6-4d5c-a61a-301f82f9bcdc","system_id":"levelo_inurba_marseille","lat":43.313291,"lon":5.396838,"is_reserved":false,"is_disabled":false,"rental_uris":{"android":"levelo://app?vid=4d3c82a3-c6c6-4d5c-a61a-301f82f9bcdc","ios":"levelo://app?vid=4d3c82a3-c6c6-4d5c-a61a-301f82f9bcdc"},"vehicle_type_id":"4","last_reported":1717434475,"current_range_meters":28400,"station_id":"ce4bgvp2rcd13ifvqcu0","pricing_plan_id":"cebpf4jnsgd1na2vs0mg"},{"bike_id":"db97cd42-f8cd-4c84-a7ae-5273b0b36278","system_id":"levelo_inurba_marseille","lat":43.29529,"lon":5.385581,"is_reserved":false,"is_disabled":false,"rental_uris":{"android":"levelo://app?vid=db97cd42-f8cd-4c84-a7ae-5273b0b36278","ios":"levelo://app?vid=db97cd42-f8cd-4c84-a7ae-5273b0b36278"},"vehicle_type_id":"4","last_reported":1717434475,"current_range_meters":7200,"station_id":"ce4bgih2rcd13ifvqba0","pricing_plan_id":"cebpf4jnsgd1na2vs0mg"},{"bike_id":"bb53d54b-634b-4fa2-a3d5-152eafe51624","system_id":"levelo_inurba_marseille","lat":43.29529,"lon":5.385581,"is_reserved":false,"is_disabled":false,"rental_uris":{"android":"levelo://app?vid=bb53d54b-634b-4fa2-a3d5-152eafe51624","ios":"levelo://app?vid=bb53d54b-634b-4fa2-a3d5-152eafe51624"},"vehicle_type_id":"4","last_reported":1717434475,"current_range_meters":400,"station_id":"ce4bgih2rcd13ifvqba0","pricing_plan_id":"cebpf4jnsgd1na2vs0mg"},{"bike_id":"39ddad6a-4659-4fc6-93cb-5cc38e02bb4d","system_id":"levelo_inurba_marseille","lat":43.29529,"lon":5.385581,"is_reserved":false,"is_disabled":false,"rental_uris":{"android":"levelo://app?vid=39ddad6a-4659-4fc6-93cb-5cc38e02bb4d","ios":"levelo://app?vid=39ddad6a-4659-4fc6-93cb-5cc38e02bb4d"},"vehicle_type_id":"4","last_reported":1717434475,"current_range_meters":14400,"station_id":"ce4bgih2rcd13ifvqba0","pricing_plan_id":"cebpf4jnsgd1na2vs0mg"},{"bike_id":"5ec759e8-e841-4431-8735-6ce9ff913e28","system_id":"levelo_inurba_marseille","lat":43.295346,"lon":5.385489,"is_reserved":false,"is_disabled":false,"rental_uris":{"android":"levelo://app?vid=5ec759e8-e841-4431-8735-6ce9ff913e28","ios":"levelo://app?vid=5ec759e8-e841-4431-8735-6ce9ff913e28"},"vehicle_type_id":"4","last_reported":1717434475,"current_range_meters":0,"station_id":"ce4bgih2rcd13ifvqba0","pricing_plan_id":"cebpf4jnsgd1na2vs0mg"},{"bike_id":"4b05704d-4510-4555-a664-d0917e0668bc","system_id":"levelo_inurba_marseille","lat":43.29529,"lon":5.385581,"is_reserved":false,"is_disabled":false,"rental_uris":{"android":"levelo://app?vid=4b05704d-4510-4555-a664-d0917e0668bc","ios":"levelo://app?vid=4b05704d-4510-4555-a664-d0917e0668bc"},"vehicle_type_id":"4","last_reported":1717434475,"current_range_meters":0,"station_id":"ce4bgih2rcd13ifvqba0","pricing_plan_id":"cebpf4jnsgd1na2vs0mg"},{"bike_id":"c045d1b7-dd8c-47fb-8310-f7cd4396bdfe","system_id":"levelo_inurba_marseille","lat":43.29529,"lon":5.385581,"is_reserved":false,"is_disabled":false,"rental_uris":{"android":"levelo://app?vid=c045d1b7-dd8c-47fb-8310-f7cd4396bdfe","ios":"levelo://app?vid=c045d1b7-dd8c-47fb-8310-f7cd4396bdfe"},"vehicle_type_id":"4","last_reported":1717434475,"current_range_meters":4800,"station_id":"ce4bgih2rcd13ifvqba0","pricing_plan_id":"cebpf4jnsgd1na2vs0mg"},{"bike_id":"3199961c-d65e-4fcc-a6eb-8016238e057e","system_id":"levelo_inurba_marseille","lat":43.290779,"lon":5.371482,"is_reserved":false,"is_disabled":false,"rental_uris":{"android":"levelo://app?vid=3199961c-d65e-4fcc-a6eb-8016238e057e","ios":"levelo://app?vid=3199961c-d65e-4fcc-a6eb-8016238e057e"},"vehicle_type_id":"4","last_reported":1717434475,"current_range_meters":12800,"station_id":"ce4bh5p2rcd13ifvqe4g","pricing_plan_id":"cebpf4jnsgd1na2vs0mg"},{"bike_id":"0e4c7fe0-9312-4e9d-ae48-7992e3e882e6","system_id":"levelo_inurba_marseille","lat":43.29362,"lon":5.38407,"is_reserved":false,"is_disabled":false,"rental_uris":{"android":"levelo://app?vid=0e4c7fe0-9312-4e9d-ae48-7992e3e882e6","ios":"levelo://app?vid=0e4c7fe0-9312-4e9d-ae48-7992e3e882e6"},"vehicle_type_id":"4","last_reported":1717434475,"current_range_meters":12800,"station_id":"","pricing_plan_id":"cebpf4jnsgd1na2vs0mg"},{"bike_id":"7c17559b-653c-44bd-ab92-50625e631851","system_id":"levelo_inurba_marseille","lat":43.290624,"lon":5.359245,"is_reserved":false,"is_disabled":false,"rental_uris":{"android":"levelo://app?vid=7c17559b-653c-44bd-ab92-50625e631851","ios":"levelo://app?vid=7c17559b-653c-44bd-ab92-50625e631851"},"vehicle_type_id":"4","last_reported":1717434475,"current_range_meters":0,"station_id":"ce4bha92rcd13ifvqeg0","pricing_plan_id":"cebpf4jnsgd1na2vs0mg"},{"bike_id":"1726877f-121e-469a-a230-9525ed6decab","system_id":"levelo_inurba_marseille","lat":43.290555,"lon":5.359343,"is_reserved":false,"is_disabled":false,"rental_uris":{"android":"levelo://app?vid=1726877f-121e-469a-a230-9525ed6decab","ios":"levelo://app?vid=1726877f-121e-469a-a230-9525ed6decab"},"vehicle_type_id":"4","last_reported":1717434475,"current_range_meters":0,"station_id":"ce4bha92rcd13ifvqeg0","pricing_plan_id":"cebpf4jnsgd1na2vs0mg"},{"bike_id":"bed28cc6-8070-4a2c-a6bf-5a9d128fd3ef","system_id":"levelo_inurba_marseille","lat":43.302008,"lon":5.394694,"is_reserved":false,"is_disabled":false,"rental_uris":{"android":"levelo://app?vid=bed28cc6-8070-4a2c-a6bf-5a9d128fd3ef","ios":"levelo://app?vid=bed28cc6-8070-4a2c-a6bf-5a9d128fd3ef"},"vehicle_type_id":"4","last_reported":1717434475,"current_range_meters":1200,"station_id":"ce4bh0p2rcd13ifvqd70","pricing_plan_id":"cebpf4jnsgd1na2vs0mg"},{"bike_id":"0cc7ba17-d155-4db4-9216-e4f5dddb75b2","system_id":"levelo_inurba_marseille","lat":43.29055,"lon":5.359111,"is_reserved":false,"is_disabled":false,"rental_uris":{"android":"levelo://app?vid=0cc7ba17-d155-4db4-9216-e4f5dddb75b2","ios":"levelo://app?vid=0cc7ba17-d155-4db4-9216-e4f5dddb75b2"},"vehicle_type_id":"4","last_reported":1717434475,"current_range_meters":0,"station_id":"ce4bha92rcd13ifvqeg0","pricing_plan_id":"cebpf4jnsgd1na2vs0mg"},{"bike_id":"c06475e2-ee01-418a-9844-c3ff2d2eda2c","system_id":"levelo_inurba_marseille","lat":43.290631,"lon":5.359244,"is_reserved":false,"is_disabled":false,"rental_uris":{"android":"levelo://app?vid=c06475e2-ee01-418a-9844-c3ff2d2eda2c","ios":"levelo://app?vid=c06475e2-ee01-418a-9844-c3ff2d2eda2c"},"vehicle_type_id":"4","last_reported":1717434475,"current_range_meters":26400,"station_id":"ce4bha92rcd13ifvqeg0","pricing_plan_id":"cebpf4jnsgd1na2vs0mg"},{"bike_id":"e1883043-5329-4f74-b20d-e42c8b35dead","system_id":"levelo_inurba_marseille","lat":43.290631,"lon":5.359244,"is_reserved":false,"is_disabled":false,"rental_uris":{"android":"levelo://app?vid=e1883043-5329-4f74-b20d-e42c8b35dead","ios":"levelo://app?vid=e1883043-5329-4f74-b20d-e42c8b35dead"},"vehicle_type_id":"4","last_reported":1717434475,"current_range_meters":2400,"station_id":"ce4bha92rcd13ifvqeg0","pricing_plan_id":"cebpf4jnsgd1na2vs0mg"},{"bike_id":"3a8becc3-7772-49f4-b2fc-576a2b9b61e1","system_id":"levelo_inurba_marseille","lat":43.290631,"lon":5.359244,"is_reserved":false,"is_disabled":false,"rental_uris":{"android":"levelo://app?vid=3a8becc3-7772-49f4-b2fc-576a2b9b61e1","ios":"levelo://app?vid=3a8becc3-7772-49f4-b2fc-576a2b9b61e1"},"vehicle_type_id":"4","last_reported":1717434475,"current_range_meters":7200,"station_id":"ce4bha92rcd13ifvqeg0","pricing_plan_id":"cebpf4jnsgd1na2vs0mg"},{"bike_id":"6c03ec72-b8e5-4ed6-876a-55f266281bb6","system_id":"levelo_inurba_marseille","lat":43.290631,"lon":5.359244,"is_reserved":false,"is_disabled":false,"rental_uris":{"android":"levelo://app?vid=6c03ec72-b8e5-4ed6-876a-55f266281bb6","ios":"levelo://app?vid=6c03ec72-b8e5-4ed6-876a-55f266281bb6"},"vehicle_type_id":"4","last_reported":1717434475,"current_range_meters":24400,"station_id":"ce4bha92rcd13ifvqeg0","pricing_plan_id":"cebpf4jnsgd1na2vs0mg"},{"bike_id":"1db2adaf-769a-4151-95f2-d0da1b932bf3","system_id":"levelo_inurba_marseille","lat":43.289513,"lon":5.366354,"is_reserved":false,"is_disabled":false,"rental_uris":{"android":"levelo://app?vid=1db2adaf-769a-4151-95f2-d0da1b932bf3","ios":"levelo://app?vid=1db2adaf-769a-4151-95f2-d0da1b932bf3"},"vehicle_type_id":"4","last_reported":1717434475,"current_range_meters":0,"station_id":"ce4bhap2rcd13ifvqek0","pricing_plan_id":"cebpf4jnsgd1na2vs0mg"},{"bike_id":"2fd20002-8c9a-47f8-bb2c-6ddfa3ef1586","system_id":"levelo_inurba_marseille","lat":43.294505,"lon":5.386763,"is_reserved":false,"is_disabled":false,"rental_uris":{"android":"levelo://app?vid=2fd20002-8c9a-47f8-bb2c-6ddfa3ef1586","ios":"levelo://app?vid=2fd20002-8c9a-47f8-bb2c-6ddfa3ef1586"},"vehicle_type_id":"4","last_reported":1717434475,"current_range_meters":24400,"station_id":"ce4bh2h2rcd13ifvqdh0","pricing_plan_id":"cebpf4jnsgd1na2vs0mg"},{"bike_id":"a7380e71-0f0e-4b61-b098-02013c32c270","system_id":"levelo_inurba_marseille","lat":43.294153,"lon":5.386305,"is_reserved":false,"is_disabled":false,"rental_uris":{"android":"levelo://app?vid=a7380e71-0f0e-4b61-b098-02013c32c270","ios":"levelo://app?vid=a7380e71-0f0e-4b61-b098-02013c32c270"},"vehicle_type_id":"4","last_reported":1717434475,"current_range_meters":0,"station_id":"ce4bh2h2rcd13ifvqdh0","pricing_plan_id":"cebpf4jnsgd1na2vs0mg"},{"bike_id":"c1f23f99-a1d8-40a8-b04e-37b57c460cfe","system_id":"levelo_inurba_marseille","lat":43.2942,"lon":5.38625,"is_reserved":false,"is_disabled":false,"rental_uris":{"android":"levelo://app?vid=c1f23f99-a1d8-40a8-b04e-37b57c460cfe","ios":"levelo://app?vid=c1f23f99-a1d8-40a8-b04e-37b57c460cfe"},"vehicle_type_id":"4","last_reported":1717434475,"current_range_meters":0,"station_id":"ce4bh2h2rcd13ifvqdh0","pricing_plan_id":"cebpf4jnsgd1na2vs0mg"},{"bike_id":"3f9b92c4-d84c-43a3-a884-dfbc047a3278","system_id":"levelo_inurba_marseille","lat":43.294433,"lon":5.386677,"is_reserved":false,"is_disabled":false,"rental_uris":{"android":"levelo://app?vid=3f9b92c4-d84c-43a3-a884-dfbc047a3278","ios":"levelo://app?vid=3f9b92c4-d84c-43a3-a884-dfbc047a3278"},"vehicle_type_id":"4","last_reported":1717434475,"current_range_meters":1200,"station_id":"ce4bh2h2rcd13ifvqdh0","pricing_plan_id":"cebpf4jnsgd1na2vs0mg"},{"bike_id":"888414b7-61ee-467f-a3db-18853bef8f94","system_id":"levelo_inurba_marseille","lat":43.289184,"lon":5.366408,"is_reserved":false,"is_disabled":false,"rental_uris":{"android":"levelo://app?vid=888414b7-61ee-467f-a3db-18853bef8f94","ios":"levelo://app?vid=888414b7-61ee-467f-a3db-18853bef8f94"},"vehicle_type_id":"4","last_reported":1717434475,"current_range_meters":6800,"station_id":"ce4bhap2rcd13ifvqek0","pricing_plan_id":"cebpf4jnsgd1na2vs0mg"},{"bike_id":"3579daef-e34d-4ed5-b19f-ef7ff8da939d","system_id":"levelo_inurba_marseille","lat":43.289184,"lon":5.366408,"is_reserved":false,"is_disabled":false,"rental_uris":{"android":"levelo://app?vid=3579daef-e34d-4ed5-b19f-ef7ff8da939d","ios":"levelo://app?vid=3579daef-e34d-4ed5-b19f-ef7ff8da939d"},"vehicle_type_id":"4","last_reported":1717434475,"current_range_meters":15600,"station_id":"ce4bhap2rcd13ifvqek0","pricing_plan_id":"cebpf4jnsgd1na2vs0mg"},{"bike_id":"04c98622-cea3-4498-87e2-d63e34cceebb","system_id":"levelo_inurba_marseille","lat":43.289406,"lon":5.366427,"is_reserved":false,"is_disabled":false,"rental_uris":{"android":"levelo://app?vid=04c98622-cea3-4498-87e2-d63e34cceebb","ios":"levelo://app?vid=04c98622-cea3-4498-87e2-d63e34cceebb"},"vehicle_type_id":"4","last_reported":1717434475,"current_range_meters":0,"station_id":"ce4bhap2rcd13ifvqek0","pricing_plan_id":"cebpf4jnsgd1na2vs0mg"},{"bike_id":"9806d02f-8563-42f6-b2a9-5a08041cdb35","system_id":"levelo_inurba_marseille","lat":43.289334,"lon":5.366395,"is_reserved":false,"is_disabled":false,"rental_uris":{"android":"levelo://app?vid=9806d02f-8563-42f6-b2a9-5a08041cdb35","ios":"levelo://app?vid=9806d02f-8563-42f6-b2a9-5a08041cdb35"},"vehicle_type_id":"4","last_reported":1717434475,"current_range_meters":0,"station_id":"ce4bhap2rcd13ifvqek0","pricing_plan_id":"cebpf4jnsgd1na2vs0mg"},{"bike_id":"52c88b61-33d9-4aff-b51d-1ed31130306c","system_id":"levelo_inurba_marseille","lat":43.290624,"lon":5.359245,"is_reserved":false,"is_disabled":false,"rental_uris":{"android":"levelo://app?vid=52c88b61-33d9-4aff-b51d-1ed31130306c","ios":"levelo://app?vid=52c88b61-33d9-4aff-b51d-1ed31130306c"},"vehicle_type_id":"4","last_reported":1717434475,"current_range_meters":0,"station_id":"ce4bha92rcd13ifvqeg0","pricing_plan_id":"cebpf4jnsgd1na2vs0mg"},{"bike_id":"06807664-06d4-44d7-a136-089504cb9cd7","system_id":"levelo_inurba_marseille","lat":43.292644,"lon":5.384257,"is_reserved":false,"is_disabled":false,"rental_uris":{"android":"levelo://app?vid=06807664-06d4-44d7-a136-089504cb9cd7","ios":"levelo://app?vid=06807664-06d4-44d7-a136-089504cb9cd7"},"vehicle_type_id":"4","last_reported":1717434475,"current_range_meters":12000,"station_id":"ce4bh692rcd13ifvqea0","pricing_plan_id":"cebpf4jnsgd1na2vs0mg"},{"bike_id":"578e238f-a70b-45ab-bb30-6fd440844890","system_id":"levelo_inurba_marseille","lat":43.29264,"lon":5.38441,"is_reserved":false,"is_disabled":false,"rental_uris":{"android":"levelo://app?vid=578e238f-a70b-45ab-bb30-6fd440844890","ios":"levelo://app?vid=578e238f-a70b-45ab-bb30-6fd440844890"},"vehicle_type_id":"4","last_reported":1717434475,"current_range_meters":0,"station_id":"ce4bh692rcd13ifvqea0","pricing_plan_id":"cebpf4jnsgd1na2vs0mg"},{"bike_id":"e7432c76-f583-4380-a2e3-96c52d6d8ce8","system_id":"levelo_inurba_marseille","lat":43.292644,"lon":5.384257,"is_reserved":false,"is_disabled":false,"rental_uris":{"android":"levelo://app?vid=e7432c76-f583-4380-a2e3-96c52d6d8ce8","ios":"levelo://app?vid=e7432c76-f583-4380-a2e3-96c52d6d8ce8"},"vehicle_type_id":"4","last_reported":1717434475,"current_range_meters":0,"station_id":"ce4bh692rcd13ifvqea0","pricing_plan_id":"cebpf4jnsgd1na2vs0mg"},{"bike_id":"d3e762e7-c2f4-4930-b961-ac58902fbb97","system_id":"levelo_inurba_marseille","lat":43.292644,"lon":5.384257,"is_reserved":false,"is_disabled":false,"rental_uris":{"android":"levelo://app?vid=d3e762e7-c2f4-4930-b961-ac58902fbb97","ios":"levelo://app?vid=d3e762e7-c2f4-4930-b961-ac58902fbb97"},"vehicle_type_id":"4","last_reported":1717434475,"current_range_meters":26400,"station_id":"ce4bh692rcd13ifvqea0","pricing_plan_id":"cebpf4jnsgd1na2vs0mg"},{"bike_id":"a63680fb-7dde-4597-a533-82fdf3181925","system_id":"levelo_inurba_marseille","lat":43.29008,"lon":5.35617,"is_reserved":false,"is_disabled":false,"rental_uris":{"android":"levelo://app?vid=a63680fb-7dde-4597-a533-82fdf3181925","ios":"levelo://app?vid=a63680fb-7dde-4597-a533-82fdf3181925"},"vehicle_type_id":"4","last_reported":1717434475,"current_range_meters":0,"station_id":"ce4bhb92rcd13ifvqen0","pricing_plan_id":"cebpf4jnsgd1na2vs0mg"},{"bike_id":"a7c9dae3-d88a-4a42-a40f-f4c08c643f7d","system_id":"levelo_inurba_marseille","lat":43.29006,"lon":5.35616,"is_reserved":false,"is_disabled":false,"rental_uris":{"android":"levelo://app?vid=a7c9dae3-d88a-4a42-a40f-f4c08c643f7d","ios":"levelo://app?vid=a7c9dae3-d88a-4a42-a40f-f4c08c643f7d"},"vehicle_type_id":"4","last_reported":1717434475,"current_range_meters":5600,"station_id":"ce4bhb92rcd13ifvqen0","pricing_plan_id":"cebpf4jnsgd1na2vs0mg"},{"bike_id":"96e78a68-2390-4a2f-b771-910a261c993a","system_id":"levelo_inurba_marseille","lat":43.29005,"lon":5.35615,"is_reserved":false,"is_disabled":false,"rental_uris":{"android":"levelo://app?vid=96e78a68-2390-4a2f-b771-910a261c993a","ios":"levelo://app?vid=96e78a68-2390-4a2f-b771-910a261c993a"},"vehicle_type_id":"4","last_reported":1717434475,"current_range_meters":0,"station_id":"ce4bhb92rcd13ifvqen0","pricing_plan_id":"cebpf4jnsgd1na2vs0mg"},{"bike_id":"a401e06c-1ec8-4cf8-b2a5-663485371b9b","system_id":"levelo_inurba_marseille","lat":43.290104,"lon":5.356111,"is_reserved":false,"is_disabled":false,"rental_uris":{"android":"levelo://app?vid=a401e06c-1ec8-4cf8-b2a5-663485371b9b","ios":"levelo://app?vid=a401e06c-1ec8-4cf8-b2a5-663485371b9b"},"vehicle_type_id":"4","last_reported":1717434475,"current_range_meters":5600,"station_id":"ce4bhb92rcd13ifvqen0","pricing_plan_id":"cebpf4jnsgd1na2vs0mg"},{"bike_id":"35aa690d-aa40-42e3-a910-2e001f5727c9","system_id":"levelo_inurba_marseille","lat":43.290103,"lon":5.356114,"is_reserved":false,"is_disabled":false,"rental_uris":{"android":"levelo://app?vid=35aa690d-aa40-42e3-a910-2e001f5727c9","ios":"levelo://app?vid=35aa690d-aa40-42e3-a910-2e001f5727c9"},"vehicle_type_id":"4","last_reported":1717434475,"current_range_meters":400,"station_id":"ce4bhb92rcd13ifvqen0","pricing_plan_id":"cebpf4jnsgd1na2vs0mg"},{"bike_id":"5674fafa-6ea4-491e-81c2-d06df074ba97","system_id":"levelo_inurba_marseille","lat":43.290028,"lon":5.356095,"is_reserved":false,"is_disabled":false,"rental_uris":{"android":"levelo://app?vid=5674fafa-6ea4-491e-81c2-d06df074ba97","ios":"levelo://app?vid=5674fafa-6ea4-491e-81c2-d06df074ba97"},"vehicle_type_id":"4","last_reported":1717434475,"current_range_meters":0,"station_id":"ce4bhb92rcd13ifvqen0","pricing_plan_id":"cebpf4jnsgd1na2vs0mg"},{"bike_id":"558eea79-f56b-4ab4-b2be-6bcb0a8e8086","system_id":"levelo_inurba_marseille","lat":43.29001,"lon":5.35614,"is_reserved":false,"is_disabled":false,"rental_uris":{"android":"levelo://app?vid=558eea79-f56b-4ab4-b2be-6bcb0a8e8086","ios":"levelo://app?vid=558eea79-f56b-4ab4-b2be-6bcb0a8e8086"},"vehicle_type_id":"4","last_reported":1717434475,"current_range_meters":800,"station_id":"ce4bhb92rcd13ifvqen0","pricing_plan_id":"cebpf4jnsgd1na2vs0mg"},{"bike_id":"5d7e9e5a-aa2e-4077-973a-b927ad6e1820","system_id":"levelo_inurba_marseille","lat":43.290995,"lon":5.381361,"is_reserved":false,"is_disabled":false,"rental_uris":{"android":"levelo://app?vid=5d7e9e5a-aa2e-4077-973a-b927ad6e1820","ios":"levelo://app?vid=5d7e9e5a-aa2e-4077-973a-b927ad6e1820"},"vehicle_type_id":"4","last_reported":1717434475,"current_range_meters":2000,"station_id":"ce4bh512rcd13ifvqe2g","pricing_plan_id":"cebpf4jnsgd1na2vs0mg"},{"bike_id":"2551088c-9579-4608-a138-c9472bac88a3","system_id":"levelo_inurba_marseille","lat":43.295347,"lon":5.390027,"is_reserved":false,"is_disabled":false,"rental_uris":{"android":"levelo://app?vid=2551088c-9579-4608-a138-c9472bac88a3","ios":"levelo://app?vid=2551088c-9579-4608-a138-c9472bac88a3"},"vehicle_type_id":"4","last_reported":1717434475,"current_range_meters":14000,"station_id":"ce4bh3p2rcd13ifvqdp0","pricing_plan_id":"cebpf4jnsgd1na2vs0mg"},{"bike_id":"5f3b2fd3-2a7d-42a9-9949-6260a5be51e2","system_id":"levelo_inurba_marseille","lat":43.2979,"lon":5.39337,"is_reserved":false,"is_disabled":false,"rental_uris":{"android":"levelo://app?vid=5f3b2fd3-2a7d-42a9-9949-6260a5be51e2","ios":"levelo://app?vid=5f3b2fd3-2a7d-42a9-9949-6260a5be51e2"},"vehicle_type_id":"4","last_reported":1717434475,"current_range_meters":10800,"station_id":"chh1huq6cuj3fo74tm60","pricing_plan_id":"cebpf4jnsgd1na2vs0mg"},{"bike_id":"011e37c4-beed-41cf-8932-3f1f7de1099b","system_id":"levelo_inurba_marseille","lat":43.295302,"lon":5.390243,"is_reserved":false,"is_disabled":false,"rental_uris":{"android":"levelo://app?vid=011e37c4-beed-41cf-8932-3f1f7de1099b","ios":"levelo://app?vid=011e37c4-beed-41cf-8932-3f1f7de1099b"},"vehicle_type_id":"4","last_reported":1717434475,"current_range_meters":0,"station_id":"ce4bh3p2rcd13ifvqdp0","pricing_plan_id":"cebpf4jnsgd1na2vs0mg"},{"bike_id":"576b5f5b-093c-4498-9202-37c3bc7b7606","system_id":"levelo_inurba_marseille","lat":43.295169,"lon":5.390426,"is_reserved":false,"is_disabled":false,"rental_uris":{"android":"levelo://app?vid=576b5f5b-093c-4498-9202-37c3bc7b7606","ios":"levelo://app?vid=576b5f5b-093c-4498-9202-37c3bc7b7606"},"vehicle_type_id":"4","last_reported":1717434475,"current_range_meters":10400,"station_id":"ce4bh3p2rcd13ifvqdp0","pricing_plan_id":"cebpf4jnsgd1na2vs0mg"},{"bike_id":"085c5f73-e817-4476-b63c-50dc3eb7f231","system_id":"levelo_inurba_marseille","lat":43.28981,"lon":5.37833,"is_reserved":false,"is_disabled":false,"rental_uris":{"android":"levelo://app?vid=085c5f73-e817-4476-b63c-50dc3eb7f231","ios":"levelo://app?vid=085c5f73-e817-4476-b63c-50dc3eb7f231"},"vehicle_type_id":"4","last_reported":1717434475,"current_range_meters":0,"station_id":"ce4bh9p2rcd13ifvqed0","pricing_plan_id":"cebpf4jnsgd1na2vs0mg"},{"bike_id":"4afe5710-33da-49f7-bd9d-5a40d78d286c","system_id":"levelo_inurba_marseille","lat":43.29529,"lon":5.3904,"is_reserved":false,"is_disabled":false,"rental_uris":{"android":"levelo://app?vid=4afe5710-33da-49f7-bd9d-5a40d78d286c","ios":"levelo://app?vid=4afe5710-33da-49f7-bd9d-5a40d78d286c"},"vehicle_type_id":"4","last_reported":1717434475,"current_range_meters":23600,"station_id":"ce4bh3p2rcd13ifvqdp0","pricing_plan_id":"cebpf4jnsgd1na2vs0mg"},{"bike_id":"978970e1-c40f-41ad-bfb4-1c18d35958b4","system_id":"levelo_inurba_marseille","lat":43.330442,"lon":5.389148,"is_reserved":false,"is_disabled":false,"rental_uris":{"android":"levelo://app?vid=978970e1-c40f-41ad-bfb4-1c18d35958b4","ios":"levelo://app?vid=978970e1-c40f-41ad-bfb4-1c18d35958b4"},"vehicle_type_id":"4","last_reported":1717434475,"current_range_meters":5200,"station_id":"ce4bhr92rcd13ifvqhrg","pricing_plan_id":"cebpf4jnsgd1na2vs0mg"},{"bike_id":"1b844cfe-9f47-4f13-87ec-b5a5385576a2","system_id":"levelo_inurba_marseille","lat":43.289743,"lon":5.378304,"is_reserved":false,"is_disabled":false,"rental_uris":{"android":"levelo://app?vid=1b844cfe-9f47-4f13-87ec-b5a5385576a2","ios":"levelo://app?vid=1b844cfe-9f47-4f13-87ec-b5a5385576a2"},"vehicle_type_id":"4","last_reported":1717434475,"current_range_meters":0,"station_id":"ce4bh9p2rcd13ifvqed0","pricing_plan_id":"cebpf4jnsgd1na2vs0mg"},{"bike_id":"21d33385-8f07-4aa5-833d-960b9ac88217","system_id":"levelo_inurba_marseille","lat":43.330442,"lon":5.389148,"is_reserved":false,"is_disabled":false,"rental_uris":{"android":"levelo://app?vid=21d33385-8f07-4aa5-833d-960b9ac88217","ios":"levelo://app?vid=21d33385-8f07-4aa5-833d-960b9ac88217"},"vehicle_type_id":"4","last_reported":1717434475,"current_range_meters":26400,"station_id":"ce4bhr92rcd13ifvqhrg","pricing_plan_id":"cebpf4jnsgd1na2vs0mg"},{"bike_id":"44b606ec-7bca-4091-9838-d1c612e67a4e","system_id":"levelo_inurba_marseille","lat":43.33025,"lon":5.39043,"is_reserved":false,"is_disabled":false,"rental_uris":{"android":"levelo://app?vid=44b606ec-7bca-4091-9838-d1c612e67a4e","ios":"levelo://app?vid=44b606ec-7bca-4091-9838-d1c612e67a4e"},"vehicle_type_id":"4","last_reported":1717434475,"current_range_meters":0,"station_id":"ce4bhr92rcd13ifvqhrg","pricing_plan_id":"cebpf4jnsgd1na2vs0mg"},{"bike_id":"fd24389d-3700-4fa1-9034-62dec3752167","system_id":"levelo_inurba_marseille","lat":43.33025,"lon":5.39049,"is_reserved":false,"is_disabled":false,"rental_uris":{"android":"levelo://app?vid=fd24389d-3700-4fa1-9034-62dec3752167","ios":"levelo://app?vid=fd24389d-3700-4fa1-9034-62dec3752167"},"vehicle_type_id":"4","last_reported":1717434475,"current_range_meters":1200,"station_id":"ce4bhr92rcd13ifvqhrg","pricing_plan_id":"cebpf4jnsgd1na2vs0mg"},{"bike_id":"17f79715-2142-4454-8751-f694bb03d6b7","system_id":"levelo_inurba_marseille","lat":43.2901,"lon":5.381269,"is_reserved":false,"is_disabled":false,"rental_uris":{"android":"levelo://app?vid=17f79715-2142-4454-8751-f694bb03d6b7","ios":"levelo://app?vid=17f79715-2142-4454-8751-f694bb03d6b7"},"vehicle_type_id":"4","last_reported":1717434475,"current_range_meters":0,"station_id":"ce4bh4p2rcd13ifvqe1g","pricing_plan_id":"cebpf4jnsgd1na2vs0mg"},{"bike_id":"619f7cf4-8d49-426b-8111-614fc7d754a7","system_id":"levelo_inurba_marseille","lat":43.330991,"lon":5.39044,"is_reserved":false,"is_disabled":false,"rental_uris":{"android":"levelo://app?vid=619f7cf4-8d49-426b-8111-614fc7d754a7","ios":"levelo://app?vid=619f7cf4-8d49-426b-8111-614fc7d754a7"},"vehicle_type_id":"4","last_reported":1717434475,"current_range_meters":4800,"station_id":"","pricing_plan_id":"cebpf4jnsgd1na2vs0mg"},{"bike_id":"4533b4bf-e1dd-468c-b65e-24c9318251bc","system_id":"levelo_inurba_marseille","lat":43.28856,"lon":5.358371,"is_reserved":false,"is_disabled":false,"rental_uris":{"android":"levelo://app?vid=4533b4bf-e1dd-468c-b65e-24c9318251bc","ios":"levelo://app?vid=4533b4bf-e1dd-468c-b65e-24c9318251bc"},"vehicle_type_id":"4","last_reported":1717434475,"current_range_meters":0,"station_id":"ce4bhb12rcd13ifvqem0","pricing_plan_id":"cebpf4jnsgd1na2vs0mg"},{"bike_id":"646c769d-7d41-4441-934a-9ef2be689f15","system_id":"levelo_inurba_marseille","lat":43.28847,"lon":5.358046,"is_reserved":false,"is_disabled":false,"rental_uris":{"android":"levelo://app?vid=646c769d-7d41-4441-934a-9ef2be689f15","ios":"levelo://app?vid=646c769d-7d41-4441-934a-9ef2be689f15"},"vehicle_type_id":"4","last_reported":1717434475,"current_range_meters":10400,"station_id":"ce4bhb12rcd13ifvqem0","pricing_plan_id":"cebpf4jnsgd1na2vs0mg"},{"bike_id":"0f38f3f4-4dee-4aa8-87e8-bfb0c1b1b9f3","system_id":"levelo_inurba_marseille","lat":43.312609,"lon":5.401662,"is_reserved":false,"is_disabled":false,"rental_uris":{"android":"levelo://app?vid=0f38f3f4-4dee-4aa8-87e8-bfb0c1b1b9f3","ios":"levelo://app?vid=0f38f3f4-4dee-4aa8-87e8-bfb0c1b1b9f3"},"vehicle_type_id":"4","last_reported":1717434475,"current_range_meters":8400,"station_id":"ce4bh092rcd13ifvqd30","pricing_plan_id":"cebpf4jnsgd1na2vs0mg"},{"bike_id":"2565a84a-ee59-49a7-bcad-fe344cc6bf8b","system_id":"levelo_inurba_marseille","lat":43.312609,"lon":5.401662,"is_reserved":false,"is_disabled":false,"rental_uris":{"android":"levelo://app?vid=2565a84a-ee59-49a7-bcad-fe344cc6bf8b","ios":"levelo://app?vid=2565a84a-ee59-49a7-bcad-fe344cc6bf8b"},"vehicle_type_id":"4","last_reported":1717434475,"current_range_meters":15600,"station_id":"ce4bh092rcd13ifvqd30","pricing_plan_id":"cebpf4jnsgd1na2vs0mg"},{"bike_id":"1970c288-6be4-4704-ae97-a7770670d9ab","system_id":"levelo_inurba_marseille","lat":43.312609,"lon":5.401662,"is_reserved":false,"is_disabled":false,"rental_uris":{"android":"levelo://app?vid=1970c288-6be4-4704-ae97-a7770670d9ab","ios":"levelo://app?vid=1970c288-6be4-4704-ae97-a7770670d9ab"},"vehicle_type_id":"4","last_reported":1717434475,"current_range_meters":3600,"station_id":"ce4bh092rcd13ifvqd30","pricing_plan_id":"cebpf4jnsgd1na2vs0mg"},{"bike_id":"f2345cf2-3d16-4d84-987d-17ad459fd55a","system_id":"levelo_inurba_marseille","lat":43.309371,"lon":5.401449,"is_reserved":false,"is_disabled":false,"rental_uris":{"android":"levelo://app?vid=f2345cf2-3d16-4d84-987d-17ad459fd55a","ios":"levelo://app?vid=f2345cf2-3d16-4d84-987d-17ad459fd55a"},"vehicle_type_id":"4","last_reported":1717434475,"current_range_meters":4400,"station_id":"ce4bgvp2rcd13ifvqct0","pricing_plan_id":"cebpf4jnsgd1na2vs0mg"},{"bike_id":"4184ecab-b008-4370-b4e3-02c5fcbab14e","system_id":"levelo_inurba_marseille","lat":43.309371,"lon":5.401449,"is_reserved":false,"is_disabled":false,"rental_uris":{"android":"levelo://app?vid=4184ecab-b008-4370-b4e3-02c5fcbab14e","ios":"levelo://app?vid=4184ecab-b008-4370-b4e3-02c5fcbab14e"},"vehicle_type_id":"4","last_reported":1717434475,"current_range_meters":6000,"station_id":"ce4bgvp2rcd13ifvqct0","pricing_plan_id":"cebpf4jnsgd1na2vs0mg"},{"bike_id":"26e88c15-1ebf-4978-814d-f8bc280f73dc","system_id":"levelo_inurba_marseille","lat":43.337446,"lon":5.37483,"is_reserved":false,"is_disabled":false,"rental_uris":{"android":"levelo://app?vid=26e88c15-1ebf-4978-814d-f8bc280f73dc","ios":"levelo://app?vid=26e88c15-1ebf-4978-814d-f8bc280f73dc"},"vehicle_type_id":"4","last_reported":1717434475,"current_range_meters":26400,"station_id":"","pricing_plan_id":"cebpf4jnsgd1na2vs0mg"},{"bike_id":"03abc624-6e82-44fb-ab9c-212308166c14","system_id":"levelo_inurba_marseille","lat":43.306412,"lon":5.401035,"is_reserved":false,"is_disabled":false,"rental_uris":{"android":"levelo://app?vid=03abc624-6e82-44fb-ab9c-212308166c14","ios":"levelo://app?vid=03abc624-6e82-44fb-ab9c-212308166c14"},"vehicle_type_id":"4","last_reported":1717434475,"current_range_meters":12800,"station_id":"ce4bh112rcd13ifvqda0","pricing_plan_id":"cebpf4jnsgd1na2vs0mg"},{"bike_id":"fcc47dbd-07d0-4d76-af15-ba8d94878e08","system_id":"levelo_inurba_marseille","lat":43.291534,"lon":5.386279,"is_reserved":false,"is_disabled":false,"rental_uris":{"android":"levelo://app?vid=fcc47dbd-07d0-4d76-af15-ba8d94878e08","ios":"levelo://app?vid=fcc47dbd-07d0-4d76-af15-ba8d94878e08"},"vehicle_type_id":"4","last_reported":1717434475,"current_range_meters":0,"station_id":"","pricing_plan_id":"cebpf4jnsgd1na2vs0mg"},{"bike_id":"cdb09f39-567c-4f9d-ac3d-8193915bd61f","system_id":"levelo_inurba_marseille","lat":43.30642,"lon":5.401031,"is_reserved":false,"is_disabled":false,"rental_uris":{"android":"levelo://app?vid=cdb09f39-567c-4f9d-ac3d-8193915bd61f","ios":"levelo://app?vid=cdb09f39-567c-4f9d-ac3d-8193915bd61f"},"vehicle_type_id":"4","last_reported":1717434475,"current_range_meters":2000,"station_id":"ce4bh112rcd13ifvqda0","pricing_plan_id":"cebpf4jnsgd1na2vs0mg"},{"bike_id":"cb06a0b9-5b8a-414f-b9e0-7444a96362f9","system_id":"levelo_inurba_marseille","lat":43.30642,"lon":5.401031,"is_reserved":false,"is_disabled":false,"rental_uris":{"android":"levelo://app?vid=cb06a0b9-5b8a-414f-b9e0-7444a96362f9","ios":"levelo://app?vid=cb06a0b9-5b8a-414f-b9e0-7444a96362f9"},"vehicle_type_id":"4","last_reported":1717434475,"current_range_meters":2800,"station_id":"ce4bh112rcd13ifvqda0","pricing_plan_id":"cebpf4jnsgd1na2vs0mg"},{"bike_id":"5812ef24-5c49-4af5-84c6-53009f3f677e","system_id":"levelo_inurba_marseille","lat":43.298681,"lon":5.397225,"is_reserved":false,"is_disabled":false,"rental_uris":{"android":"levelo://app?vid=5812ef24-5c49-4af5-84c6-53009f3f677e","ios":"levelo://app?vid=5812ef24-5c49-4af5-84c6-53009f3f677e"},"vehicle_type_id":"4","last_reported":1717434475,"current_range_meters":4800,"station_id":"ce4bh0h2rcd13ifvqd50","pricing_plan_id":"cebpf4jnsgd1na2vs0mg"},{"bike_id":"6ed22d66-5ba6-4043-846d-bdb723296dd0","system_id":"levelo_inurba_marseille","lat":43.286664,"lon":5.363665,"is_reserved":false,"is_disabled":false,"rental_uris":{"android":"levelo://app?vid=6ed22d66-5ba6-4043-846d-bdb723296dd0","ios":"levelo://app?vid=6ed22d66-5ba6-4043-846d-bdb723296dd0"},"vehicle_type_id":"4","last_reported":1717434475,"current_range_meters":5600,"station_id":"ce4bhah2rcd13ifvqej0","pricing_plan_id":"cebpf4jnsgd1na2vs0mg"},{"bike_id":"26938eca-864a-4de6-b926-e8b3893654df","system_id":"levelo_inurba_marseille","lat":43.286591,"lon":5.363346,"is_reserved":false,"is_disabled":false,"rental_uris":{"android":"levelo://app?vid=26938eca-864a-4de6-b926-e8b3893654df","ios":"levelo://app?vid=26938eca-864a-4de6-b926-e8b3893654df"},"vehicle_type_id":"4","last_reported":1717434475,"current_range_meters":0,"station_id":"ce4bhah2rcd13ifvqej0","pricing_plan_id":"cebpf4jnsgd1na2vs0mg"},{"bike_id":"445932c5-78df-4eea-adc1-6e38b8b5b752","system_id":"levelo_inurba_marseille","lat":43.28702,"lon":5.37399,"is_reserved":false,"is_disabled":false,"rental_uris":{"android":"levelo://app?vid=445932c5-78df-4eea-adc1-6e38b8b5b752","ios":"levelo://app?vid=445932c5-78df-4eea-adc1-6e38b8b5b752"},"vehicle_type_id":"4","last_reported":1717434475,"current_range_meters":0,"station_id":"ce4bh3p2rcd13ifvqdq0","pricing_plan_id":"cebpf4jnsgd1na2vs0mg"},{"bike_id":"c807200d-fe11-4fa3-b763-42e38373ddb7","system_id":"levelo_inurba_marseille","lat":43.294314,"lon":5.397498,"is_reserved":false,"is_disabled":false,"rental_uris":{"android":"levelo://app?vid=c807200d-fe11-4fa3-b763-42e38373ddb7","ios":"levelo://app?vid=c807200d-fe11-4fa3-b763-42e38373ddb7"},"vehicle_type_id":"4","last_reported":1717434475,"current_range_meters":22400,"station_id":"ce4bh3h2rcd13ifvqdo0","pricing_plan_id":"cebpf4jnsgd1na2vs0mg"},{"bike_id":"bbe7b29c-8c14-4a9d-a01c-008017110c28","system_id":"levelo_inurba_marseille","lat":43.286961,"lon":5.373785,"is_reserved":false,"is_disabled":false,"rental_uris":{"android":"levelo://app?vid=bbe7b29c-8c14-4a9d-a01c-008017110c28","ios":"levelo://app?vid=bbe7b29c-8c14-4a9d-a01c-008017110c28"},"vehicle_type_id":"4","last_reported":1717434475,"current_range_meters":4400,"station_id":"ce4bh3p2rcd13ifvqdq0","pricing_plan_id":"cebpf4jnsgd1na2vs0mg"},{"bike_id":"26c1eacb-e9df-436f-a426-fce3cfd379b9","system_id":"levelo_inurba_marseille","lat":43.286039,"lon":5.370679,"is_reserved":false,"is_disabled":false,"rental_uris":{"android":"levelo://app?vid=26c1eacb-e9df-436f-a426-fce3cfd379b9","ios":"levelo://app?vid=26c1eacb-e9df-436f-a426-fce3cfd379b9"},"vehicle_type_id":"4","last_reported":1717434475,"current_range_meters":10000,"station_id":"ce4bht12rcd13ifvqi60","pricing_plan_id":"cebpf4jnsgd1na2vs0mg"},{"bike_id":"96358d5f-1dbf-4891-abe5-9e89418ed480","system_id":"levelo_inurba_marseille","lat":43.302759,"lon":5.400793,"is_reserved":false,"is_disabled":false,"rental_uris":{"android":"levelo://app?vid=96358d5f-1dbf-4891-abe5-9e89418ed480","ios":"levelo://app?vid=96358d5f-1dbf-4891-abe5-9e89418ed480"},"vehicle_type_id":"4","last_reported":1717434475,"current_range_meters":1200,"station_id":"ce4bgvh2rcd13ifvqcs0","pricing_plan_id":"cebpf4jnsgd1na2vs0mg"},{"bike_id":"75a61460-5d8b-4645-b158-c72f43310fe3","system_id":"levelo_inurba_marseille","lat":43.302759,"lon":5.400793,"is_reserved":false,"is_disabled":false,"rental_uris":{"android":"levelo://app?vid=75a61460-5d8b-4645-b158-c72f43310fe3","ios":"levelo://app?vid=75a61460-5d8b-4645-b158-c72f43310fe3"},"vehicle_type_id":"4","last_reported":1717434475,"current_range_meters":20400,"station_id":"ce4bgvh2rcd13ifvqcs0","pricing_plan_id":"cebpf4jnsgd1na2vs0mg"},{"bike_id":"8f4e1e86-f7b9-4091-92fe-ba6529643cd5","system_id":"levelo_inurba_marseille","lat":43.286039,"lon":5.370681,"is_reserved":false,"is_disabled":false,"rental_uris":{"android":"levelo://app?vid=8f4e1e86-f7b9-4091-92fe-ba6529643cd5","ios":"levelo://app?vid=8f4e1e86-f7b9-4091-92fe-ba6529643cd5"},"vehicle_type_id":"4","last_reported":1717434475,"current_range_meters":2800,"station_id":"ce4bht12rcd13ifvqi60","pricing_plan_id":"cebpf4jnsgd1na2vs0mg"},{"bike_id":"bca76cd9-f4d4-4a4c-bf47-8af56ec8f00f","system_id":"levelo_inurba_marseille","lat":43.286039,"lon":5.370681,"is_reserved":false,"is_disabled":false,"rental_uris":{"android":"levelo://app?vid=bca76cd9-f4d4-4a4c-bf47-8af56ec8f00f","ios":"levelo://app?vid=bca76cd9-f4d4-4a4c-bf47-8af56ec8f00f"},"vehicle_type_id":"4","last_reported":1717434475,"current_range_meters":0,"station_id":"ce4bht12rcd13ifvqi60","pricing_plan_id":"cebpf4jnsgd1na2vs0mg"},{"bike_id":"3bc5357f-b1f3-46bb-b4b8-319bd0e16b3e","system_id":"levelo_inurba_marseille","lat":43.286039,"lon":5.370681,"is_reserved":false,"is_disabled":false,"rental_uris":{"android":"levelo://app?vid=3bc5357f-b1f3-46bb-b4b8-319bd0e16b3e","ios":"levelo://app?vid=3bc5357f-b1f3-46bb-b4b8-319bd0e16b3e"},"vehicle_type_id":"4","last_reported":1717434475,"current_range_meters":20000,"station_id":"ce4bht12rcd13ifvqi60","pricing_plan_id":"cebpf4jnsgd1na2vs0mg"},{"bike_id":"41420553-97d9-47c3-b634-a7646ca298b4","system_id":"levelo_inurba_marseille","lat":43.286039,"lon":5.370679,"is_reserved":false,"is_disabled":false,"rental_uris":{"android":"levelo://app?vid=41420553-97d9-47c3-b634-a7646ca298b4","ios":"levelo://app?vid=41420553-97d9-47c3-b634-a7646ca298b4"},"vehicle_type_id":"4","last_reported":1717434475,"current_range_meters":5200,"station_id":"ce4bht12rcd13ifvqi60","pricing_plan_id":"cebpf4jnsgd1na2vs0mg"},{"bike_id":"14bde10e-7f40-497b-8ee6-d57e45c9c73d","system_id":"levelo_inurba_marseille","lat":43.286039,"lon":5.370679,"is_reserved":false,"is_disabled":false,"rental_uris":{"android":"levelo://app?vid=14bde10e-7f40-497b-8ee6-d57e45c9c73d","ios":"levelo://app?vid=14bde10e-7f40-497b-8ee6-d57e45c9c73d"},"vehicle_type_id":"4","last_reported":1717434475,"current_range_meters":800,"station_id":"ce4bht12rcd13ifvqi60","pricing_plan_id":"cebpf4jnsgd1na2vs0mg"},{"bike_id":"26c35bf2-f55b-46c7-8415-fa046488770e","system_id":"levelo_inurba_marseille","lat":43.286039,"lon":5.370679,"is_reserved":false,"is_disabled":false,"rental_uris":{"android":"levelo://app?vid=26c35bf2-f55b-46c7-8415-fa046488770e","ios":"levelo://app?vid=26c35bf2-f55b-46c7-8415-fa046488770e"},"vehicle_type_id":"4","last_reported":1717434475,"current_range_meters":24800,"station_id":"ce4bht12rcd13ifvqi60","pricing_plan_id":"cebpf4jnsgd1na2vs0mg"},{"bike_id":"a38c358b-5edd-4bef-9582-c76762b63f92","system_id":"levelo_inurba_marseille","lat":43.287184,"lon":5.37937,"is_reserved":false,"is_disabled":false,"rental_uris":{"android":"levelo://app?vid=a38c358b-5edd-4bef-9582-c76762b63f92","ios":"levelo://app?vid=a38c358b-5edd-4bef-9582-c76762b63f92"},"vehicle_type_id":"4","last_reported":1717434475,"current_range_meters":0,"station_id":"ce4bh9p2rcd13ifvqec0","pricing_plan_id":"cebpf4jnsgd1na2vs0mg"},{"bike_id":"78685770-5957-48be-b663-d028ac1e0d8b","system_id":"levelo_inurba_marseille","lat":43.286214,"lon":5.359398,"is_reserved":false,"is_disabled":false,"rental_uris":{"android":"levelo://app?vid=78685770-5957-48be-b663-d028ac1e0d8b","ios":"levelo://app?vid=78685770-5957-48be-b663-d028ac1e0d8b"},"vehicle_type_id":"4","last_reported":1717434475,"current_range_meters":23600,"station_id":"","pricing_plan_id":"cebpf4jnsgd1na2vs0mg"},{"bike_id":"1c679f8d-dd90-457f-83b6-26f9d8b63a1c","system_id":"levelo_inurba_marseille","lat":43.287185,"lon":5.379373,"is_reserved":false,"is_disabled":false,"rental_uris":{"android":"levelo://app?vid=1c679f8d-dd90-457f-83b6-26f9d8b63a1c","ios":"levelo://app?vid=1c679f8d-dd90-457f-83b6-26f9d8b63a1c"},"vehicle_type_id":"4","last_reported":1717434475,"current_range_meters":0,"station_id":"ce4bh9p2rcd13ifvqec0","pricing_plan_id":"cebpf4jnsgd1na2vs0mg"},{"bike_id":"fb2653c3-ed30-4f1c-88cc-0bfdd4913104","system_id":"levelo_inurba_marseille","lat":43.287185,"lon":5.379373,"is_reserved":false,"is_disabled":false,"rental_uris":{"android":"levelo://app?vid=fb2653c3-ed30-4f1c-88cc-0bfdd4913104","ios":"levelo://app?vid=fb2653c3-ed30-4f1c-88cc-0bfdd4913104"},"vehicle_type_id":"4","last_reported":1717434475,"current_range_meters":0,"station_id":"ce4bh9p2rcd13ifvqec0","pricing_plan_id":"cebpf4jnsgd1na2vs0mg"},{"bike_id":"be1bb0eb-446e-45df-a54d-cda9fea96693","system_id":"levelo_inurba_marseille","lat":43.28729,"lon":5.35218,"is_reserved":false,"is_disabled":false,"rental_uris":{"android":"levelo://app?vid=be1bb0eb-446e-45df-a54d-cda9fea96693","ios":"levelo://app?vid=be1bb0eb-446e-45df-a54d-cda9fea96693"},"vehicle_type_id":"4","last_reported":1717434475,"current_range_meters":24800,"station_id":"","pricing_plan_id":"cebpf4jnsgd1na2vs0mg"},{"bike_id":"4153214f-b364-4db2-aca5-44ac16f815ef","system_id":"levelo_inurba_marseille","lat":43.316821,"lon":5.404737,"is_reserved":false,"is_disabled":false,"rental_uris":{"android":"levelo://app?vid=4153214f-b364-4db2-aca5-44ac16f815ef","ios":"levelo://app?vid=4153214f-b364-4db2-aca5-44ac16f815ef"},"vehicle_type_id":"4","last_reported":1717434475,"current_range_meters":7600,"station_id":"ce4bh012rcd13ifvqd00","pricing_plan_id":"cebpf4jnsgd1na2vs0mg"},{"bike_id":"13ddf87e-eb15-4dc4-871f-4e204b906b7b","system_id":"levelo_inurba_marseille","lat":43.316821,"lon":5.404737,"is_reserved":false,"is_disabled":false,"rental_uris":{"android":"levelo://app?vid=13ddf87e-eb15-4dc4-871f-4e204b906b7b","ios":"levelo://app?vid=13ddf87e-eb15-4dc4-871f-4e204b906b7b"},"vehicle_type_id":"4","last_reported":1717434475,"current_range_meters":2000,"station_id":"ce4bh012rcd13ifvqd00","pricing_plan_id":"cebpf4jnsgd1na2vs0mg"},{"bike_id":"19d0316b-210a-42e3-a7f8-347fa0aeecad","system_id":"levelo_inurba_marseille","lat":43.29569,"lon":5.397518,"is_reserved":false,"is_disabled":false,"rental_uris":{"android":"levelo://app?vid=19d0316b-210a-42e3-a7f8-347fa0aeecad","ios":"levelo://app?vid=19d0316b-210a-42e3-a7f8-347fa0aeecad"},"vehicle_type_id":"4","last_reported":1717434475,"current_range_meters":0,"station_id":"","pricing_plan_id":"cebpf4jnsgd1na2vs0mg"},{"bike_id":"848ed161-a045-40aa-9ce5-f6da5c4eb313","system_id":"levelo_inurba_marseille","lat":43.291994,"lon":5.392907,"is_reserved":false,"is_disabled":false,"rental_uris":{"android":"levelo://app?vid=848ed161-a045-40aa-9ce5-f6da5c4eb313","ios":"levelo://app?vid=848ed161-a045-40aa-9ce5-f6da5c4eb313"},"vehicle_type_id":"4","last_reported":1717434475,"current_range_meters":21200,"station_id":"ce4bh192rcd13ifvqdd0","pricing_plan_id":"cebpf4jnsgd1na2vs0mg"},{"bike_id":"ffa2d780-018a-4d4a-8c5b-b393afe239e2","system_id":"levelo_inurba_marseille","lat":43.294314,"lon":5.397498,"is_reserved":false,"is_disabled":false,"rental_uris":{"android":"levelo://app?vid=ffa2d780-018a-4d4a-8c5b-b393afe239e2","ios":"levelo://app?vid=ffa2d780-018a-4d4a-8c5b-b393afe239e2"},"vehicle_type_id":"4","last_reported":1717434475,"current_range_meters":0,"station_id":"ce4bh3h2rcd13ifvqdo0","pricing_plan_id":"cebpf4jnsgd1na2vs0mg"},{"bike_id":"ee00867a-e68d-4a64-b208-2c529493973f","system_id":"levelo_inurba_marseille","lat":43.291994,"lon":5.392907,"is_reserved":false,"is_disabled":false,"rental_uris":{"android":"levelo://app?vid=ee00867a-e68d-4a64-b208-2c529493973f","ios":"levelo://app?vid=ee00867a-e68d-4a64-b208-2c529493973f"},"vehicle_type_id":"4","last_reported":1717434475,"current_range_meters":8400,"station_id":"ce4bh192rcd13ifvqdd0","pricing_plan_id":"cebpf4jnsgd1na2vs0mg"},{"bike_id":"246c8ae0-15fd-4a67-a12c-9ed923472c9d","system_id":"levelo_inurba_marseille","lat":43.291994,"lon":5.392907,"is_reserved":false,"is_disabled":false,"rental_uris":{"android":"levelo://app?vid=246c8ae0-15fd-4a67-a12c-9ed923472c9d","ios":"levelo://app?vid=246c8ae0-15fd-4a67-a12c-9ed923472c9d"},"vehicle_type_id":"4","last_reported":1717434475,"current_range_meters":0,"station_id":"ce4bh192rcd13ifvqdd0","pricing_plan_id":"cebpf4jnsgd1na2vs0mg"},{"bike_id":"007b4d0f-8be4-4a6b-aed5-7c248d90d641","system_id":"levelo_inurba_marseille","lat":43.291994,"lon":5.392907,"is_reserved":false,"is_disabled":false,"rental_uris":{"android":"levelo://app?vid=007b4d0f-8be4-4a6b-aed5-7c248d90d641","ios":"levelo://app?vid=007b4d0f-8be4-4a6b-aed5-7c248d90d641"},"vehicle_type_id":"4","last_reported":1717434475,"current_range_meters":0,"station_id":"ce4bh192rcd13ifvqdd0","pricing_plan_id":"cebpf4jnsgd1na2vs0mg"},{"bike_id":"7458ab20-d609-4f3d-8d99-bc69b36f81ba","system_id":"levelo_inurba_marseille","lat":43.284611,"lon":5.359019,"is_reserved":false,"is_disabled":false,"rental_uris":{"android":"levelo://app?vid=7458ab20-d609-4f3d-8d99-bc69b36f81ba","ios":"levelo://app?vid=7458ab20-d609-4f3d-8d99-bc69b36f81ba"},"vehicle_type_id":"4","last_reported":1717434475,"current_range_meters":0,"station_id":"ce4bhah2rcd13ifvqei0","pricing_plan_id":"cebpf4jnsgd1na2vs0mg"},{"bike_id":"f0a393ab-b02a-4549-8440-94ab131310a2","system_id":"levelo_inurba_marseille","lat":43.294314,"lon":5.397498,"is_reserved":false,"is_disabled":false,"rental_uris":{"android":"levelo://app?vid=f0a393ab-b02a-4549-8440-94ab131310a2","ios":"levelo://app?vid=f0a393ab-b02a-4549-8440-94ab131310a2"},"vehicle_type_id":"4","last_reported":1717434475,"current_range_meters":2000,"station_id":"ce4bh3h2rcd13ifvqdo0","pricing_plan_id":"cebpf4jnsgd1na2vs0mg"},{"bike_id":"b180c482-2ba8-4e90-87cd-6cd56f6b7332","system_id":"levelo_inurba_marseille","lat":43.284618,"lon":5.358926,"is_reserved":false,"is_disabled":false,"rental_uris":{"android":"levelo://app?vid=b180c482-2ba8-4e90-87cd-6cd56f6b7332","ios":"levelo://app?vid=b180c482-2ba8-4e90-87cd-6cd56f6b7332"},"vehicle_type_id":"4","last_reported":1717434475,"current_range_meters":0,"station_id":"ce4bhah2rcd13ifvqei0","pricing_plan_id":"cebpf4jnsgd1na2vs0mg"},{"bike_id":"4da9f75d-3db1-4da1-8e6a-24742814a84f","system_id":"levelo_inurba_marseille","lat":43.284534,"lon":5.358662,"is_reserved":false,"is_disabled":false,"rental_uris":{"android":"levelo://app?vid=4da9f75d-3db1-4da1-8e6a-24742814a84f","ios":"levelo://app?vid=4da9f75d-3db1-4da1-8e6a-24742814a84f"},"vehicle_type_id":"4","last_reported":1717434475,"current_range_meters":17600,"station_id":"ce4bhah2rcd13ifvqei0","pricing_plan_id":"cebpf4jnsgd1na2vs0mg"},{"bike_id":"651e7071-3852-4531-8d4c-fc1237200884","system_id":"levelo_inurba_marseille","lat":43.295194,"lon":5.39397,"is_reserved":false,"is_disabled":false,"rental_uris":{"android":"levelo://app?vid=651e7071-3852-4531-8d4c-fc1237200884","ios":"levelo://app?vid=651e7071-3852-4531-8d4c-fc1237200884"},"vehicle_type_id":"4","last_reported":1717434475,"current_range_meters":800,"station_id":"ce4bh292rcd13ifvqdf0","pricing_plan_id":"cebpf4jnsgd1na2vs0mg"},{"bike_id":"98681b8a-a05d-4c96-85ae-e9756394c6a4","system_id":"levelo_inurba_marseille","lat":43.284534,"lon":5.358662,"is_reserved":false,"is_disabled":false,"rental_uris":{"android":"levelo://app?vid=98681b8a-a05d-4c96-85ae-e9756394c6a4","ios":"levelo://app?vid=98681b8a-a05d-4c96-85ae-e9756394c6a4"},"vehicle_type_id":"4","last_reported":1717434475,"current_range_meters":24000,"station_id":"ce4bhah2rcd13ifvqei0","pricing_plan_id":"cebpf4jnsgd1na2vs0mg"},{"bike_id":"11b55f92-e9d9-417e-b288-b5ff1a46d55d","system_id":"levelo_inurba_marseille","lat":43.284534,"lon":5.358662,"is_reserved":false,"is_disabled":false,"rental_uris":{"android":"levelo://app?vid=11b55f92-e9d9-417e-b288-b5ff1a46d55d","ios":"levelo://app?vid=11b55f92-e9d9-417e-b288-b5ff1a46d55d"},"vehicle_type_id":"4","last_reported":1717434475,"current_range_meters":7600,"station_id":"ce4bhah2rcd13ifvqei0","pricing_plan_id":"cebpf4jnsgd1na2vs0mg"},{"bike_id":"9aa69cbe-28af-460f-b538-3bc3e3ed9008","system_id":"levelo_inurba_marseille","lat":43.294429,"lon":5.397485,"is_reserved":false,"is_disabled":false,"rental_uris":{"android":"levelo://app?vid=9aa69cbe-28af-460f-b538-3bc3e3ed9008","ios":"levelo://app?vid=9aa69cbe-28af-460f-b538-3bc3e3ed9008"},"vehicle_type_id":"4","last_reported":1717434475,"current_range_meters":0,"station_id":"ce4bh3h2rcd13ifvqdo0","pricing_plan_id":"cebpf4jnsgd1na2vs0mg"},{"bike_id":"28e0a80c-3191-4a47-ab82-d5b55a2e77ca","system_id":"levelo_inurba_marseille","lat":43.29439,"lon":5.39745,"is_reserved":false,"is_disabled":false,"rental_uris":{"android":"levelo://app?vid=28e0a80c-3191-4a47-ab82-d5b55a2e77ca","ios":"levelo://app?vid=28e0a80c-3191-4a47-ab82-d5b55a2e77ca"},"vehicle_type_id":"4","last_reported":1717434475,"current_range_meters":30000,"station_id":"ce4bh3h2rcd13ifvqdo0","pricing_plan_id":"cebpf4jnsgd1na2vs0mg"},{"bike_id":"8092241e-efda-4a9e-a28a-f6dd7152c7ff","system_id":"levelo_inurba_marseille","lat":43.29439,"lon":5.39755,"is_reserved":false,"is_disabled":false,"rental_uris":{"android":"levelo://app?vid=8092241e-efda-4a9e-a28a-f6dd7152c7ff","ios":"levelo://app?vid=8092241e-efda-4a9e-a28a-f6dd7152c7ff"},"vehicle_type_id":"4","last_reported":1717434475,"current_range_meters":14800,"station_id":"ce4bh3h2rcd13ifvqdo0","pricing_plan_id":"cebpf4jnsgd1na2vs0mg"},{"bike_id":"ebbb3aec-99a0-4dfc-a86b-f2b091e9afa6","system_id":"levelo_inurba_marseille","lat":43.29247,"lon":5.39519,"is_reserved":false,"is_disabled":false,"rental_uris":{"android":"levelo://app?vid=ebbb3aec-99a0-4dfc-a86b-f2b091e9afa6","ios":"levelo://app?vid=ebbb3aec-99a0-4dfc-a86b-f2b091e9afa6"},"vehicle_type_id":"4","last_reported":1717434475,"current_range_meters":22800,"station_id":"","pricing_plan_id":"cebpf4jnsgd1na2vs0mg"},{"bike_id":"808fc2e6-94dd-47c8-810a-33e6b7e80e3a","system_id":"levelo_inurba_marseille","lat":43.294314,"lon":5.397498,"is_reserved":false,"is_disabled":false,"rental_uris":{"android":"levelo://app?vid=808fc2e6-94dd-47c8-810a-33e6b7e80e3a","ios":"levelo://app?vid=808fc2e6-94dd-47c8-810a-33e6b7e80e3a"},"vehicle_type_id":"4","last_reported":1717434475,"current_range_meters":400,"station_id":"ce4bh3h2rcd13ifvqdo0","pricing_plan_id":"cebpf4jnsgd1na2vs0mg"},{"bike_id":"2206aaa5-5386-40a4-bb99-556e562dcab7","system_id":"levelo_inurba_marseille","lat":43.29438,"lon":5.39757,"is_reserved":false,"is_disabled":false,"rental_uris":{"android":"levelo://app?vid=2206aaa5-5386-40a4-bb99-556e562dcab7","ios":"levelo://app?vid=2206aaa5-5386-40a4-bb99-556e562dcab7"},"vehicle_type_id":"4","last_reported":1717434475,"current_range_meters":18000,"station_id":"ce4bh3h2rcd13ifvqdo0","pricing_plan_id":"cebpf4jnsgd1na2vs0mg"},{"bike_id":"6142ecba-4630-4062-93c8-6f07ee93781c","system_id":"levelo_inurba_marseille","lat":43.29434,"lon":5.39753,"is_reserved":false,"is_disabled":false,"rental_uris":{"android":"levelo://app?vid=6142ecba-4630-4062-93c8-6f07ee93781c","ios":"levelo://app?vid=6142ecba-4630-4062-93c8-6f07ee93781c"},"vehicle_type_id":"4","last_reported":1717434475,"current_range_meters":6800,"station_id":"ce4bh3h2rcd13ifvqdo0","pricing_plan_id":"cebpf4jnsgd1na2vs0mg"},{"bike_id":"9f60dae2-9081-43bd-b327-1604c8905428","system_id":"levelo_inurba_marseille","lat":43.285848,"lon":5.350787,"is_reserved":false,"is_disabled":false,"rental_uris":{"android":"levelo://app?vid=9f60dae2-9081-43bd-b327-1604c8905428","ios":"levelo://app?vid=9f60dae2-9081-43bd-b327-1604c8905428"},"vehicle_type_id":"4","last_reported":1717434475,"current_range_meters":19600,"station_id":"ce4bhch2rcd13ifvqeug","pricing_plan_id":"cebpf4jnsgd1na2vs0mg"},{"bike_id":"4893b836-3cfa-469f-9f72-1e5d9c78457d","system_id":"levelo_inurba_marseille","lat":43.285848,"lon":5.350787,"is_reserved":false,"is_disabled":false,"rental_uris":{"android":"levelo://app?vid=4893b836-3cfa-469f-9f72-1e5d9c78457d","ios":"levelo://app?vid=4893b836-3cfa-469f-9f72-1e5d9c78457d"},"vehicle_type_id":"4","last_reported":1717434475,"current_range_meters":400,"station_id":"ce4bhch2rcd13ifvqeug","pricing_plan_id":"cebpf4jnsgd1na2vs0mg"},{"bike_id":"f58113be-f931-40e5-aa7a-47d83ede4d10","system_id":"levelo_inurba_marseille","lat":43.285856,"lon":5.350771,"is_reserved":false,"is_disabled":false,"rental_uris":{"android":"levelo://app?vid=f58113be-f931-40e5-aa7a-47d83ede4d10","ios":"levelo://app?vid=f58113be-f931-40e5-aa7a-47d83ede4d10"},"vehicle_type_id":"4","last_reported":1717434475,"current_range_meters":0,"station_id":"ce4bhch2rcd13ifvqeug","pricing_plan_id":"cebpf4jnsgd1na2vs0mg"},{"bike_id":"5ce6bb7f-2102-4589-bcd7-34a79b96e386","system_id":"levelo_inurba_marseille","lat":43.285848,"lon":5.350787,"is_reserved":false,"is_disabled":false,"rental_uris":{"android":"levelo://app?vid=5ce6bb7f-2102-4589-bcd7-34a79b96e386","ios":"levelo://app?vid=5ce6bb7f-2102-4589-bcd7-34a79b96e386"},"vehicle_type_id":"4","last_reported":1717434475,"current_range_meters":24000,"station_id":"ce4bhch2rcd13ifvqeug","pricing_plan_id":"cebpf4jnsgd1na2vs0mg"},{"bike_id":"85000ad4-90d3-4e59-a3f5-ff8028be5eb2","system_id":"levelo_inurba_marseille","lat":43.28617,"lon":5.35107,"is_reserved":false,"is_disabled":false,"rental_uris":{"android":"levelo://app?vid=85000ad4-90d3-4e59-a3f5-ff8028be5eb2","ios":"levelo://app?vid=85000ad4-90d3-4e59-a3f5-ff8028be5eb2"},"vehicle_type_id":"4","last_reported":1717434475,"current_range_meters":4000,"station_id":"ce4bhch2rcd13ifvqeug","pricing_plan_id":"cebpf4jnsgd1na2vs0mg"},{"bike_id":"3216e8be-e925-4bed-b31e-163735c37b93","system_id":"levelo_inurba_marseille","lat":43.285856,"lon":5.350771,"is_reserved":false,"is_disabled":false,"rental_uris":{"android":"levelo://app?vid=3216e8be-e925-4bed-b31e-163735c37b93","ios":"levelo://app?vid=3216e8be-e925-4bed-b31e-163735c37b93"},"vehicle_type_id":"4","last_reported":1717434475,"current_range_meters":26400,"station_id":"ce4bhch2rcd13ifvqeug","pricing_plan_id":"cebpf4jnsgd1na2vs0mg"},{"bike_id":"4e454f06-9348-4fb0-8da0-46855b39743c","system_id":"levelo_inurba_marseille","lat":43.28612,"lon":5.35102,"is_reserved":false,"is_disabled":false,"rental_uris":{"android":"levelo://app?vid=4e454f06-9348-4fb0-8da0-46855b39743c","ios":"levelo://app?vid=4e454f06-9348-4fb0-8da0-46855b39743c"},"vehicle_type_id":"4","last_reported":1717434475,"current_range_meters":1200,"station_id":"ce4bhch2rcd13ifvqeug","pricing_plan_id":"cebpf4jnsgd1na2vs0mg"},{"bike_id":"7cdb2312-70f1-463e-a757-65bf84c83c83","system_id":"levelo_inurba_marseille","lat":43.28611,"lon":5.351,"is_reserved":false,"is_disabled":false,"rental_uris":{"android":"levelo://app?vid=7cdb2312-70f1-463e-a757-65bf84c83c83","ios":"levelo://app?vid=7cdb2312-70f1-463e-a757-65bf84c83c83"},"vehicle_type_id":"4","last_reported":1717434475,"current_range_meters":800,"station_id":"ce4bhch2rcd13ifvqeug","pricing_plan_id":"cebpf4jnsgd1na2vs0mg"},{"bike_id":"04d37054-f8ce-48d8-a3cc-26c043d2ae17","system_id":"levelo_inurba_marseille","lat":43.294314,"lon":5.397498,"is_reserved":false,"is_disabled":false,"rental_uris":{"android":"levelo://app?vid=04d37054-f8ce-48d8-a3cc-26c043d2ae17","ios":"levelo://app?vid=04d37054-f8ce-48d8-a3cc-26c043d2ae17"},"vehicle_type_id":"4","last_reported":1717434475,"current_range_meters":3600,"station_id":"ce4bh3h2rcd13ifvqdo0","pricing_plan_id":"cebpf4jnsgd1na2vs0mg"},{"bike_id":"9d278669-b1ad-4588-8f51-2ce0c2b68aa2","system_id":"levelo_inurba_marseille","lat":43.28039,"lon":5.369297,"is_reserved":false,"is_disabled":false,"rental_uris":{"android":"levelo://app?vid=9d278669-b1ad-4588-8f51-2ce0c2b68aa2","ios":"levelo://app?vid=9d278669-b1ad-4588-8f51-2ce0c2b68aa2"},"vehicle_type_id":"4","last_reported":1717434475,"current_range_meters":0,"station_id":"ce4bha12rcd13ifvqef0","pricing_plan_id":"cebpf4jnsgd1na2vs0mg"},{"bike_id":"e4361220-dc00-4c0c-b44c-2832552aa34b","system_id":"levelo_inurba_marseille","lat":43.330442,"lon":5.389148,"is_reserved":false,"is_disabled":false,"rental_uris":{"android":"levelo://app?vid=e4361220-dc00-4c0c-b44c-2832552aa34b","ios":"levelo://app?vid=e4361220-dc00-4c0c-b44c-2832552aa34b"},"vehicle_type_id":"4","last_reported":1717434475,"current_range_meters":21200,"station_id":"ce4bhr92rcd13ifvqhrg","pricing_plan_id":"cebpf4jnsgd1na2vs0mg"},{"bike_id":"b6b3cf4e-fe13-4f43-b77c-a4771dc2759e","system_id":"levelo_inurba_marseille","lat":43.283998,"lon":5.375062,"is_reserved":false,"is_disabled":false,"rental_uris":{"android":"levelo://app?vid=b6b3cf4e-fe13-4f43-b77c-a4771dc2759e","ios":"levelo://app?vid=b6b3cf4e-fe13-4f43-b77c-a4771dc2759e"},"vehicle_type_id":"4","last_reported":1717434475,"current_range_meters":26000,"station_id":"ce4bh412rcd13ifvqds0","pricing_plan_id":"cebpf4jnsgd1na2vs0mg"},{"bike_id":"7dd29090-f91c-4e91-a3b4-0344883248eb","system_id":"levelo_inurba_marseille","lat":43.286706,"lon":5.386592,"is_reserved":false,"is_disabled":false,"rental_uris":{"android":"levelo://app?vid=7dd29090-f91c-4e91-a3b4-0344883248eb","ios":"levelo://app?vid=7dd29090-f91c-4e91-a3b4-0344883248eb"},"vehicle_type_id":"4","last_reported":1717434475,"current_range_meters":0,"station_id":"ce4bh492rcd13ifvqdug","pricing_plan_id":"cebpf4jnsgd1na2vs0mg"},{"bike_id":"06fbfa39-5f25-4ff2-89bb-a9f973a6b00d","system_id":"levelo_inurba_marseille","lat":43.319179,"lon":5.407725,"is_reserved":false,"is_disabled":false,"rental_uris":{"android":"levelo://app?vid=06fbfa39-5f25-4ff2-89bb-a9f973a6b00d","ios":"levelo://app?vid=06fbfa39-5f25-4ff2-89bb-a9f973a6b00d"},"vehicle_type_id":"4","last_reported":1717434475,"current_range_meters":0,"station_id":"ce4bhq12rcd13ifvqhig","pricing_plan_id":"cebpf4jnsgd1na2vs0mg"},{"bike_id":"72f1eb52-2dfb-4d48-a8ed-af3483789561","system_id":"levelo_inurba_marseille","lat":43.284793,"lon":5.384119,"is_reserved":false,"is_disabled":false,"rental_uris":{"android":"levelo://app?vid=72f1eb52-2dfb-4d48-a8ed-af3483789561","ios":"levelo://app?vid=72f1eb52-2dfb-4d48-a8ed-af3483789561"},"vehicle_type_id":"4","last_reported":1717434475,"current_range_meters":0,"station_id":"ce4bh512rcd13ifvqe3g","pricing_plan_id":"cebpf4jnsgd1na2vs0mg"},{"bike_id":"095a4809-8f15-4f7f-85c4-b9607eff4ef7","system_id":"levelo_inurba_marseille","lat":43.294351,"lon":5.400312,"is_reserved":false,"is_disabled":false,"rental_uris":{"android":"levelo://app?vid=095a4809-8f15-4f7f-85c4-b9607eff4ef7","ios":"levelo://app?vid=095a4809-8f15-4f7f-85c4-b9607eff4ef7"},"vehicle_type_id":"4","last_reported":1717434475,"current_range_meters":800,"station_id":"","pricing_plan_id":"cebpf4jnsgd1na2vs0mg"},{"bike_id":"fba38774-a011-43d1-bfe6-0a6d31dd2513","system_id":"levelo_inurba_marseille","lat":43.337168,"lon":5.391825,"is_reserved":false,"is_disabled":false,"rental_uris":{"android":"levelo://app?vid=fba38774-a011-43d1-bfe6-0a6d31dd2513","ios":"levelo://app?vid=fba38774-a011-43d1-bfe6-0a6d31dd2513"},"vehicle_type_id":"4","last_reported":1717434475,"current_range_meters":10400,"station_id":"ce4bhr92rcd13ifvqhsg","pricing_plan_id":"cebpf4jnsgd1na2vs0mg"},{"bike_id":"26908aa0-9161-4484-9f39-cfdc99f4e680","system_id":"levelo_inurba_marseille","lat":43.337168,"lon":5.391825,"is_reserved":false,"is_disabled":false,"rental_uris":{"android":"levelo://app?vid=26908aa0-9161-4484-9f39-cfdc99f4e680","ios":"levelo://app?vid=26908aa0-9161-4484-9f39-cfdc99f4e680"},"vehicle_type_id":"4","last_reported":1717434475,"current_range_meters":13600,"station_id":"ce4bhr92rcd13ifvqhsg","pricing_plan_id":"cebpf4jnsgd1na2vs0mg"},{"bike_id":"4be2da51-b88f-4972-af14-b8e2a95532bc","system_id":"levelo_inurba_marseille","lat":43.323464,"lon":5.406297,"is_reserved":false,"is_disabled":false,"rental_uris":{"android":"levelo://app?vid=4be2da51-b88f-4972-af14-b8e2a95532bc","ios":"levelo://app?vid=4be2da51-b88f-4972-af14-b8e2a95532bc"},"vehicle_type_id":"4","last_reported":1717434475,"current_range_meters":8000,"station_id":"ce4bhq92rcd13ifvqhjg","pricing_plan_id":"cebpf4jnsgd1na2vs0mg"},{"bike_id":"a6770209-9e64-4cf3-be9e-f5ce7b3a7887","system_id":"levelo_inurba_marseille","lat":43.323464,"lon":5.406297,"is_reserved":false,"is_disabled":false,"rental_uris":{"android":"levelo://app?vid=a6770209-9e64-4cf3-be9e-f5ce7b3a7887","ios":"levelo://app?vid=a6770209-9e64-4cf3-be9e-f5ce7b3a7887"},"vehicle_type_id":"4","last_reported":1717434475,"current_range_meters":16000,"station_id":"ce4bhq92rcd13ifvqhjg","pricing_plan_id":"cebpf4jnsgd1na2vs0mg"},{"bike_id":"0f7ffb2b-ef4e-4213-a963-24de547ed430","system_id":"levelo_inurba_marseille","lat":43.323464,"lon":5.406297,"is_reserved":false,"is_disabled":false,"rental_uris":{"android":"levelo://app?vid=0f7ffb2b-ef4e-4213-a963-24de547ed430","ios":"levelo://app?vid=0f7ffb2b-ef4e-4213-a963-24de547ed430"},