{"last_updated":1745698207,"ttl":60,"version":"2.2","data":{"bikes":[{"bike_id":"9de69f74-e703-4f11-ac28-aea62c2bad49","system_id":"levelo_inurba_marseille","lat":43.30955,"lon":5.39041,"is_reserved":false,"is_disabled":true,"rental_uris":{"android":"levelo://app?vid=9de69f74-e703-4f11-ac28-aea62c2bad49","ios":"levelo://app?vid=9de69f74-e703-4f11-ac28-aea62c2bad49"},"vehicle_type_id":"4","last_reported":1745698207,"current_range_meters":2800,"station_id":"ce4bgup2rcd13ifvqco0","pricing_plan_id":"cebpf4jnsgd1na2vs0mg"},{"bike_id":"7c4a79c4-3b9b-48db-906e-fcb3adf0e47f","system_id":"levelo_inurba_marseille","lat":43.293318,"lon":5.386306,"is_reserved":false,"is_disabled":false,"rental_uris":{"android":"levelo://app?vid=7c4a79c4-3b9b-48db-906e-fcb3adf0e47f","ios":"levelo://app?vid=7c4a79c4-3b9b-48db-906e-fcb3adf0e47f"},"vehicle_type_id":"4","last_reported":1745698207,"current_range_meters":2800,"station_id":"ce4bh2h2rcd13ifvqdh0","pricing_plan_id":"cebpf4jnsgd1na2vs0mg"},{"bike_id":"893bde21-cbf7-44e6-9167-ca4bdbc37a0d","system_id":"levelo_inurba_marseille","lat":43.27672,"lon":5.38887,"is_reserved":false,"is_disabled":false,"rental_uris":{"android":"levelo://app?vid=893bde21-cbf7-44e6-9167-ca4bdbc37a0d","ios":"levelo://app?vid=893bde21-cbf7-44e6-9167-ca4bdbc37a0d"},"vehicle_type_id":"4","last_reported":1745698207,"current_range_meters":2000,"station_id":"ce4bhi12rcd13ifvqfo0","pricing_plan_id":"cebpf4jnsgd1na2vs0mg"},{"bike_id":"894983da-55ef-4bff-87ff-939a4641fa35","system_id":"levelo_inurba_marseille","lat":43.30609,"lon":5.39339,"is_reserved":false,"is_disabled":false,"rental_uris":{"android":"levelo://app?vid=894983da-55ef-4bff-87ff-939a4641fa35","ios":"levelo://app?vid=894983da-55ef-4bff-87ff-939a4641fa35"},"vehicle_type_id":"4","last_reported":1745698207,"current_range_meters":3200,"station_id":"","pricing_plan_id":"cebpf4jnsgd1na2vs0mg"},{"bike_id":"a87cac5e-7e4d-4a77-a84b-1e42c89d5cc2","system_id":"levelo_inurba_marseille","lat":43.27953,"lon":5.41037,"is_reserved":false,"is_disabled":false,"rental_uris":{"android":"levelo://app?vid=a87cac5e-7e4d-4a77-a84b-1e42c89d5cc2","ios":"levelo://app?vid=a87cac5e-7e4d-4a77-a84b-1e42c89d5cc2"},"vehicle_type_id":"4","last_reported":1745698207,"current_range_meters":3600,"station_id":"ce4bhnp2rcd13ifvqh0g","pricing_plan_id":"cebpf4jnsgd1na2vs0mg"},{"bike_id":"144232dc-fbfe-4f72-aba3-3450a87576a4","system_id":"levelo_inurba_marseille","lat":43.29813,"lon":5.38517,"is_reserved":false,"is_disabled":false,"rental_uris":{"android":"levelo://app?vid=144232dc-fbfe-4f72-aba3-3450a87576a4","ios":"levelo://app?vid=144232dc-fbfe-4f72-aba3-3450a87576a4"},"vehicle_type_id":"4","last_reported":1745698207,"current_range_meters":3600,"station_id":"","pricing_plan_id":"cebpf4jnsgd1na2vs0mg"},{"bike_id":"a84dda67-2771-448f-9f2c-69a47019d774","system_id":"levelo_inurba_marseille","lat":43.33616,"lon":5.41026,"is_reserved":false,"is_disabled":true,"rental_uris":{"android":"levelo://app?vid=a84dda67-2771-448f-9f2c-69a47019d774","ios":"levelo://app?vid=a84dda67-2771-448f-9f2c-69a47019d774"},"vehicle_type_id":"4","last_reported":1745698207,"current_range_meters":4000,"station_id":"ce4bhqh2rcd13ifvqhmg","pricing_plan_id":"cebpf4jnsgd1na2vs0mg"},{"bike_id":"ed4ee8c6-297c-49ae-9493-32045abf00c0","system_id":"levelo_inurba_marseille","lat":43.27919,"lon":5.39577,"is_reserved":false,"is_disabled":false,"rental_uris":{"android":"levelo://app?vid=ed4ee8c6-297c-49ae-9493-32045abf00c0","ios":"levelo://app?vid=ed4ee8c6-297c-49ae-9493-32045abf00c0"},"vehicle_type_id":"4","last_reported":1745698207,"current_range_meters":3600,"station_id":"ce4bhf92rcd13ifvqf40","pricing_plan_id":"cebpf4jnsgd1na2vs0mg"},{"bike_id":"327fa908-fafe-40ae-b97e-12862a152f1f","system_id":"levelo_inurba_marseille","lat":43.27628,"lon":5.393158,"is_reserved":false,"is_disabled":false,"rental_uris":{"android":"levelo://app?vid=327fa908-fafe-40ae-b97e-12862a152f1f","ios":"levelo://app?vid=327fa908-fafe-40ae-b97e-12862a152f1f"},"vehicle_type_id":"4","last_reported":1745698207,"current_range_meters":4000,"station_id":"","pricing_plan_id":"cebpf4jnsgd1na2vs0mg"},{"bike_id":"1746265e-27ad-4913-8a06-b6dc5372d844","system_id":"levelo_inurba_marseille","lat":43.2601,"lon":5.37515,"is_reserved":false,"is_disabled":false,"rental_uris":{"android":"levelo://app?vid=1746265e-27ad-4913-8a06-b6dc5372d844","ios":"levelo://app?vid=1746265e-27ad-4913-8a06-b6dc5372d844"},"vehicle_type_id":"4","last_reported":1745698207,"current_range_meters":4000,"station_id":"ce4bhgh2rcd13ifvqfa0","pricing_plan_id":"cebpf4jnsgd1na2vs0mg"},{"bike_id":"f6789250-1989-4fd5-9c12-7e69a1aa3272","system_id":"levelo_inurba_marseille","lat":43.29451,"lon":5.39752,"is_reserved":false,"is_disabled":false,"rental_uris":{"android":"levelo://app?vid=f6789250-1989-4fd5-9c12-7e69a1aa3272","ios":"levelo://app?vid=f6789250-1989-4fd5-9c12-7e69a1aa3272"},"vehicle_type_id":"4","last_reported":1745698207,"current_range_meters":4000,"station_id":"ce4bh3h2rcd13ifvqdo0","pricing_plan_id":"cebpf4jnsgd1na2vs0mg"},{"bike_id":"fc61a5ad-831c-4e7e-8b6e-08907090df4c","system_id":"levelo_inurba_marseille","lat":43.26059,"lon":5.39399,"is_reserved":false,"is_disabled":false,"rental_uris":{"android":"levelo://app?vid=fc61a5ad-831c-4e7e-8b6e-08907090df4c","ios":"levelo://app?vid=fc61a5ad-831c-4e7e-8b6e-08907090df4c"},"vehicle_type_id":"4","last_reported":1745698207,"current_range_meters":4000,"station_id":"ce4bhh92rcd13ifvqfj0","pricing_plan_id":"cebpf4jnsgd1na2vs0mg"},{"bike_id":"589a3418-0b7b-4c4d-8b02-c1b3a1887746","system_id":"levelo_inurba_marseille","lat":43.241709,"lon":5.363975,"is_reserved":false,"is_disabled":false,"rental_uris":{"android":"levelo://app?vid=589a3418-0b7b-4c4d-8b02-c1b3a1887746","ios":"levelo://app?vid=589a3418-0b7b-4c4d-8b02-c1b3a1887746"},"vehicle_type_id":"4","last_reported":1745698207,"current_range_meters":4400,"station_id":"cpo36qri1sfpv3e86is0","pricing_plan_id":"cebpf4jnsgd1na2vs0mg"},{"bike_id":"99e97fd7-aace-4d24-902f-75bec463fa3c","system_id":"levelo_inurba_marseille","lat":43.26199,"lon":5.3745,"is_reserved":false,"is_disabled":false,"rental_uris":{"android":"levelo://app?vid=99e97fd7-aace-4d24-902f-75bec463fa3c","ios":"levelo://app?vid=99e97fd7-aace-4d24-902f-75bec463fa3c"},"vehicle_type_id":"4","last_reported":1745698207,"current_range_meters":4400,"station_id":"ce4bhgp2rcd13ifvqfc0","pricing_plan_id":"cebpf4jnsgd1na2vs0mg"},{"bike_id":"2ed3acad-be2b-47bc-bb16-dd14b09ebd94","system_id":"levelo_inurba_marseille","lat":43.24552,"lon":5.39523,"is_reserved":false,"is_disabled":false,"rental_uris":{"android":"levelo://app?vid=2ed3acad-be2b-47bc-bb16-dd14b09ebd94","ios":"levelo://app?vid=2ed3acad-be2b-47bc-bb16-dd14b09ebd94"},"vehicle_type_id":"4","last_reported":1745698207,"current_range_meters":4400,"station_id":"ce4bhlp2rcd13ifvqgjg","pricing_plan_id":"cebpf4jnsgd1na2vs0mg"},{"bike_id":"eaf025ec-3ee8-4684-a228-5103847cf3ac","system_id":"levelo_inurba_marseille","lat":43.27609,"lon":5.36123,"is_reserved":false,"is_disabled":false,"rental_uris":{"android":"levelo://app?vid=eaf025ec-3ee8-4684-a228-5103847cf3ac","ios":"levelo://app?vid=eaf025ec-3ee8-4684-a228-5103847cf3ac"},"vehicle_type_id":"4","last_reported":1745698207,"current_range_meters":4400,"station_id":"ce4bgj92rcd13ifvqbe0","pricing_plan_id":"cebpf4jnsgd1na2vs0mg"},{"bike_id":"29e436ca-6f7d-42ee-94c7-987fdae41c2b","system_id":"levelo_inurba_marseille","lat":43.26211,"lon":5.37455,"is_reserved":false,"is_disabled":false,"rental_uris":{"android":"levelo://app?vid=29e436ca-6f7d-42ee-94c7-987fdae41c2b","ios":"levelo://app?vid=29e436ca-6f7d-42ee-94c7-987fdae41c2b"},"vehicle_type_id":"4","last_reported":1745698207,"current_range_meters":4400,"station_id":"ce4bhgp2rcd13ifvqfc0","pricing_plan_id":"cebpf4jnsgd1na2vs0mg"},{"bike_id":"2cc64c0a-8650-4764-a6b5-3df9655e8e55","system_id":"levelo_inurba_marseille","lat":43.28031,"lon":5.35654,"is_reserved":false,"is_disabled":false,"rental_uris":{"android":"levelo://app?vid=2cc64c0a-8650-4764-a6b5-3df9655e8e55","ios":"levelo://app?vid=2cc64c0a-8650-4764-a6b5-3df9655e8e55"},"vehicle_type_id":"4","last_reported":1745698207,"current_range_meters":4800,"station_id":"","pricing_plan_id":"cebpf4jnsgd1na2vs0mg"},{"bike_id":"8e1b7f9c-15cd-4196-9a56-b8c9c867228b","system_id":"levelo_inurba_marseille","lat":43.26214,"lon":5.37444,"is_reserved":false,"is_disabled":false,"rental_uris":{"android":"levelo://app?vid=8e1b7f9c-15cd-4196-9a56-b8c9c867228b","ios":"levelo://app?vid=8e1b7f9c-15cd-4196-9a56-b8c9c867228b"},"vehicle_type_id":"4","last_reported":1745698207,"current_range_meters":4800,"station_id":"ce4bhgp2rcd13ifvqfc0","pricing_plan_id":"cebpf4jnsgd1na2vs0mg"},{"bike_id":"fcddd32a-71f9-41b4-a1cc-f32582f63a00","system_id":"levelo_inurba_marseille","lat":43.30781,"lon":5.37652,"is_reserved":false,"is_disabled":false,"rental_uris":{"android":"levelo://app?vid=fcddd32a-71f9-41b4-a1cc-f32582f63a00","ios":"levelo://app?vid=fcddd32a-71f9-41b4-a1cc-f32582f63a00"},"vehicle_type_id":"4","last_reported":1745698207,"current_range_meters":4800,"station_id":"","pricing_plan_id":"cebpf4jnsgd1na2vs0mg"},{"bike_id":"9d24975d-5989-4c6e-bc54-bdc168e02c5f","system_id":"levelo_inurba_marseille","lat":43.2449,"lon":5.41167,"is_reserved":false,"is_disabled":false,"rental_uris":{"android":"levelo://app?vid=9d24975d-5989-4c6e-bc54-bdc168e02c5f","ios":"levelo://app?vid=9d24975d-5989-4c6e-bc54-bdc168e02c5f"},"vehicle_type_id":"4","last_reported":1745698207,"current_range_meters":4800,"station_id":"","pricing_plan_id":"cebpf4jnsgd1na2vs0mg"},{"bike_id":"72ae67fc-0ff5-41d0-b65d-20a1832707ac","system_id":"levelo_inurba_marseille","lat":43.24813,"lon":5.37445,"is_reserved":false,"is_disabled":false,"rental_uris":{"android":"levelo://app?vid=72ae67fc-0ff5-41d0-b65d-20a1832707ac","ios":"levelo://app?vid=72ae67fc-0ff5-41d0-b65d-20a1832707ac"},"vehicle_type_id":"4","last_reported":1745698207,"current_range_meters":4800,"station_id":"ce4bhgh2rcd13ifvqfb0","pricing_plan_id":"cebpf4jnsgd1na2vs0mg"},{"bike_id":"6d91a8dc-ba91-4e59-90e6-05e9199e8291","system_id":"levelo_inurba_marseille","lat":43.26233,"lon":5.40446,"is_reserved":false,"is_disabled":false,"rental_uris":{"android":"levelo://app?vid=6d91a8dc-ba91-4e59-90e6-05e9199e8291","ios":"levelo://app?vid=6d91a8dc-ba91-4e59-90e6-05e9199e8291"},"vehicle_type_id":"4","last_reported":1745698207,"current_range_meters":4800,"station_id":"ce4bhmh2rcd13ifvqgmg","pricing_plan_id":"cebpf4jnsgd1na2vs0mg"},{"bike_id":"2c4690b7-17cf-4937-86a4-423e9fd34a61","system_id":"levelo_inurba_marseille","lat":43.26226,"lon":5.40449,"is_reserved":false,"is_disabled":false,"rental_uris":{"android":"levelo://app?vid=2c4690b7-17cf-4937-86a4-423e9fd34a61","ios":"levelo://app?vid=2c4690b7-17cf-4937-86a4-423e9fd34a61"},"vehicle_type_id":"4","last_reported":1745698207,"current_range_meters":4800,"station_id":"ce4bhmh2rcd13ifvqgmg","pricing_plan_id":"cebpf4jnsgd1na2vs0mg"},{"bike_id":"a517b47f-7339-4f1f-a2cd-010bd04d718a","system_id":"levelo_inurba_marseille","lat":43.24649,"lon":5.38908,"is_reserved":false,"is_disabled":false,"rental_uris":{"android":"levelo://app?vid=a517b47f-7339-4f1f-a2cd-010bd04d718a","ios":"levelo://app?vid=a517b47f-7339-4f1f-a2cd-010bd04d718a"},"vehicle_type_id":"4","last_reported":1745698207,"current_range_meters":5600,"station_id":"ce4bhg12rcd13ifvqf60","pricing_plan_id":"cebpf4jnsgd1na2vs0mg"},{"bike_id":"038ab9d9-bdf2-4623-8df7-6a83d8bbe4d5","system_id":"levelo_inurba_marseille","lat":43.24547,"lon":5.39523,"is_reserved":false,"is_disabled":false,"rental_uris":{"android":"levelo://app?vid=038ab9d9-bdf2-4623-8df7-6a83d8bbe4d5","ios":"levelo://app?vid=038ab9d9-bdf2-4623-8df7-6a83d8bbe4d5"},"vehicle_type_id":"4","last_reported":1745698207,"current_range_meters":5600,"station_id":"ce4bhlp2rcd13ifvqgjg","pricing_plan_id":"cebpf4jnsgd1na2vs0mg"},{"bike_id":"6d8eb94d-9039-410b-8534-25b4517ccc1c","system_id":"levelo_inurba_marseille","lat":43.255,"lon":5.37653,"is_reserved":false,"is_disabled":false,"rental_uris":{"android":"levelo://app?vid=6d8eb94d-9039-410b-8534-25b4517ccc1c","ios":"levelo://app?vid=6d8eb94d-9039-410b-8534-25b4517ccc1c"},"vehicle_type_id":"4","last_reported":1745698207,"current_range_meters":5600,"station_id":"ce4bhh12rcd13ifvqff0","pricing_plan_id":"cebpf4jnsgd1na2vs0mg"},{"bike_id":"85cf4e7d-97c4-43d0-a77d-04ca2207c941","system_id":"levelo_inurba_marseille","lat":43.22928,"lon":5.35392,"is_reserved":false,"is_disabled":false,"rental_uris":{"android":"levelo://app?vid=85cf4e7d-97c4-43d0-a77d-04ca2207c941","ios":"levelo://app?vid=85cf4e7d-97c4-43d0-a77d-04ca2207c941"},"vehicle_type_id":"4","last_reported":1745698207,"current_range_meters":6000,"station_id":"cpo3532slgdg3j2ikp40","pricing_plan_id":"cebpf4jnsgd1na2vs0mg"},{"bike_id":"74bf1832-a389-491d-9cf1-c0544e13bc20","system_id":"levelo_inurba_marseille","lat":43.2749,"lon":5.42469,"is_reserved":false,"is_disabled":false,"rental_uris":{"android":"levelo://app?vid=74bf1832-a389-491d-9cf1-c0544e13bc20","ios":"levelo://app?vid=74bf1832-a389-491d-9cf1-c0544e13bc20"},"vehicle_type_id":"4","last_reported":1745698207,"current_range_meters":6000,"station_id":"ce4bhn92rcd13ifvqgrg","pricing_plan_id":"cebpf4jnsgd1na2vs0mg"},{"bike_id":"5de9c65a-9a6b-464b-b1d9-b90b977a3a09","system_id":"levelo_inurba_marseille","lat":43.25004,"lon":5.38921,"is_reserved":false,"is_disabled":false,"rental_uris":{"android":"levelo://app?vid=5de9c65a-9a6b-464b-b1d9-b90b977a3a09","ios":"levelo://app?vid=5de9c65a-9a6b-464b-b1d9-b90b977a3a09"},"vehicle_type_id":"4","last_reported":1745698207,"current_range_meters":6000,"station_id":"ce4bhgp2rcd13ifvqfd0","pricing_plan_id":"cebpf4jnsgd1na2vs0mg"},{"bike_id":"d1ff7e34-d25d-4063-9648-2bd4db47424f","system_id":"levelo_inurba_marseille","lat":43.32455,"lon":5.39145,"is_reserved":false,"is_disabled":false,"rental_uris":{"android":"levelo://app?vid=d1ff7e34-d25d-4063-9648-2bd4db47424f","ios":"levelo://app?vid=d1ff7e34-d25d-4063-9648-2bd4db47424f"},"vehicle_type_id":"4","last_reported":1745698207,"current_range_meters":6000,"station_id":"","pricing_plan_id":"cebpf4jnsgd1na2vs0mg"},{"bike_id":"436914c3-43b7-49dc-8a5f-990cea531c07","system_id":"levelo_inurba_marseille","lat":43.25503,"lon":5.37649,"is_reserved":false,"is_disabled":false,"rental_uris":{"android":"levelo://app?vid=436914c3-43b7-49dc-8a5f-990cea531c07","ios":"levelo://app?vid=436914c3-43b7-49dc-8a5f-990cea531c07"},"vehicle_type_id":"4","last_reported":1745698207,"current_range_meters":6000,"station_id":"ce4bhh12rcd13ifvqff0","pricing_plan_id":"cebpf4jnsgd1na2vs0mg"},{"bike_id":"0b02cfa2-065a-471a-a5de-99c4690c9657","system_id":"levelo_inurba_marseille","lat":43.294398,"lon":5.38535,"is_reserved":false,"is_disabled":false,"rental_uris":{"android":"levelo://app?vid=0b02cfa2-065a-471a-a5de-99c4690c9657","ios":"levelo://app?vid=0b02cfa2-065a-471a-a5de-99c4690c9657"},"vehicle_type_id":"4","last_reported":1745698207,"current_range_meters":6400,"station_id":"ce4bh2h2rcd13ifvqdh0","pricing_plan_id":"cebpf4jnsgd1na2vs0mg"},{"bike_id":"a09f4ec6-b5d9-4928-a37a-363e3182923b","system_id":"levelo_inurba_marseille","lat":43.28001,"lon":5.40011,"is_reserved":false,"is_disabled":false,"rental_uris":{"android":"levelo://app?vid=a09f4ec6-b5d9-4928-a37a-363e3182923b","ios":"levelo://app?vid=a09f4ec6-b5d9-4928-a37a-363e3182923b"},"vehicle_type_id":"4","last_reported":1745698207,"current_range_meters":6400,"station_id":"ce4bho92rcd13ifvqh4g","pricing_plan_id":"cebpf4jnsgd1na2vs0mg"},{"bike_id":"8e694d7d-e639-480e-8787-1b3982d5e165","system_id":"levelo_inurba_marseille","lat":43.24811,"lon":5.3745,"is_reserved":false,"is_disabled":false,"rental_uris":{"android":"levelo://app?vid=8e694d7d-e639-480e-8787-1b3982d5e165","ios":"levelo://app?vid=8e694d7d-e639-480e-8787-1b3982d5e165"},"vehicle_type_id":"4","last_reported":1745698207,"current_range_meters":6400,"station_id":"ce4bhgh2rcd13ifvqfb0","pricing_plan_id":"cebpf4jnsgd1na2vs0mg"},{"bike_id":"05094179-e208-4767-94df-7d6832edefd1","system_id":"levelo_inurba_marseille","lat":43.28157,"lon":5.42648,"is_reserved":false,"is_disabled":false,"rental_uris":{"android":"levelo://app?vid=05094179-e208-4767-94df-7d6832edefd1","ios":"levelo://app?vid=05094179-e208-4767-94df-7d6832edefd1"},"vehicle_type_id":"4","last_reported":1745698207,"current_range_meters":6400,"station_id":"ce4bhnh2rcd13ifvqgug","pricing_plan_id":"cebpf4jnsgd1na2vs0mg"},{"bike_id":"727df1f9-1cdb-472b-9518-0dd0026ce6ce","system_id":"levelo_inurba_marseille","lat":43.26502,"lon":5.39536,"is_reserved":false,"is_disabled":false,"rental_uris":{"android":"levelo://app?vid=727df1f9-1cdb-472b-9518-0dd0026ce6ce","ios":"levelo://app?vid=727df1f9-1cdb-472b-9518-0dd0026ce6ce"},"vehicle_type_id":"4","last_reported":1745698207,"current_range_meters":6000,"station_id":"ce4bhi12rcd13ifvqfq0","pricing_plan_id":"cebpf4jnsgd1na2vs0mg"},{"bike_id":"422b5989-c8b6-43aa-b2b9-3bfeb2e1ddc0","system_id":"levelo_inurba_marseille","lat":43.24781,"lon":5.41176,"is_reserved":false,"is_disabled":false,"rental_uris":{"android":"levelo://app?vid=422b5989-c8b6-43aa-b2b9-3bfeb2e1ddc0","ios":"levelo://app?vid=422b5989-c8b6-43aa-b2b9-3bfeb2e1ddc0"},"vehicle_type_id":"4","last_reported":1745698207,"current_range_meters":6800,"station_id":"","pricing_plan_id":"cebpf4jnsgd1na2vs0mg"},{"bike_id":"f62a4552-ec40-438e-82bf-49608a81162e","system_id":"levelo_inurba_marseille","lat":43.239616,"lon":5.36635,"is_reserved":false,"is_disabled":false,"rental_uris":{"android":"levelo://app?vid=f62a4552-ec40-438e-82bf-49608a81162e","ios":"levelo://app?vid=f62a4552-ec40-438e-82bf-49608a81162e"},"vehicle_type_id":"4","last_reported":1745698207,"current_range_meters":6800,"station_id":"ce4bhi12rcd13ifvqfp0","pricing_plan_id":"cebpf4jnsgd1na2vs0mg"},{"bike_id":"e99e6315-2751-4329-ad7b-f9d19f8ec3ef","system_id":"levelo_inurba_marseille","lat":43.28146,"lon":5.42661,"is_reserved":false,"is_disabled":false,"rental_uris":{"android":"levelo://app?vid=e99e6315-2751-4329-ad7b-f9d19f8ec3ef","ios":"levelo://app?vid=e99e6315-2751-4329-ad7b-f9d19f8ec3ef"},"vehicle_type_id":"4","last_reported":1745698207,"current_range_meters":6800,"station_id":"ce4bhnh2rcd13ifvqgug","pricing_plan_id":"cebpf4jnsgd1na2vs0mg"},{"bike_id":"f04eedf7-4b60-4c7d-8552-095292c8d967","system_id":"levelo_inurba_marseille","lat":43.26548,"lon":5.37304,"is_reserved":false,"is_disabled":false,"rental_uris":{"android":"levelo://app?vid=f04eedf7-4b60-4c7d-8552-095292c8d967","ios":"levelo://app?vid=f04eedf7-4b60-4c7d-8552-095292c8d967"},"vehicle_type_id":"4","last_reported":1745698207,"current_range_meters":6800,"station_id":"ce4bhg12rcd13ifvqf70","pricing_plan_id":"cebpf4jnsgd1na2vs0mg"},{"bike_id":"18ae1d78-8d9e-4697-bc48-a39d36035c1d","system_id":"levelo_inurba_marseille","lat":43.23965,"lon":5.36621,"is_reserved":false,"is_disabled":false,"rental_uris":{"android":"levelo://app?vid=18ae1d78-8d9e-4697-bc48-a39d36035c1d","ios":"levelo://app?vid=18ae1d78-8d9e-4697-bc48-a39d36035c1d"},"vehicle_type_id":"4","last_reported":1745698207,"current_range_meters":6800,"station_id":"ce4bhi12rcd13ifvqfp0","pricing_plan_id":"cebpf4jnsgd1na2vs0mg"},{"bike_id":"660d0dbd-1d3a-4f2b-a766-75369448f790","system_id":"levelo_inurba_marseille","lat":43.29261,"lon":5.38448,"is_reserved":false,"is_disabled":false,"rental_uris":{"android":"levelo://app?vid=660d0dbd-1d3a-4f2b-a766-75369448f790","ios":"levelo://app?vid=660d0dbd-1d3a-4f2b-a766-75369448f790"},"vehicle_type_id":"4","last_reported":1745698207,"current_range_meters":6800,"station_id":"ce4bh692rcd13ifvqea0","pricing_plan_id":"cebpf4jnsgd1na2vs0mg"},{"bike_id":"75e95e4f-d3d7-4c6d-8eb7-ea7969e66638","system_id":"levelo_inurba_marseille","lat":43.32359,"lon":5.36747,"is_reserved":false,"is_disabled":false,"rental_uris":{"android":"levelo://app?vid=75e95e4f-d3d7-4c6d-8eb7-ea7969e66638","ios":"levelo://app?vid=75e95e4f-d3d7-4c6d-8eb7-ea7969e66638"},"vehicle_type_id":"4","last_reported":1745698207,"current_range_meters":7200,"station_id":"ce4bhsh2rcd13ifvqi2g","pricing_plan_id":"cebpf4jnsgd1na2vs0mg"},{"bike_id":"554fe001-fd7c-4ce9-8b9f-fe24a3da343a","system_id":"levelo_inurba_marseille","lat":43.23186,"lon":5.35564,"is_reserved":false,"is_disabled":false,"rental_uris":{"android":"levelo://app?vid=554fe001-fd7c-4ce9-8b9f-fe24a3da343a","ios":"levelo://app?vid=554fe001-fd7c-4ce9-8b9f-fe24a3da343a"},"vehicle_type_id":"4","last_reported":1745698207,"current_range_meters":7200,"station_id":"ce4bhu92rcd13ifvqi70","pricing_plan_id":"cebpf4jnsgd1na2vs0mg"},{"bike_id":"3b6e3216-f666-4298-a310-acc5d51086df","system_id":"levelo_inurba_marseille","lat":43.24176,"lon":5.39734,"is_reserved":false,"is_disabled":false,"rental_uris":{"android":"levelo://app?vid=3b6e3216-f666-4298-a310-acc5d51086df","ios":"levelo://app?vid=3b6e3216-f666-4298-a310-acc5d51086df"},"vehicle_type_id":"4","last_reported":1745698207,"current_range_meters":7200,"station_id":"ce4bhn12rcd13ifvqgpg","pricing_plan_id":"cebpf4jnsgd1na2vs0mg"},{"bike_id":"aa802d04-93cc-4325-bf66-50895eaf23d2","system_id":"levelo_inurba_marseille","lat":43.31363,"lon":5.38491,"is_reserved":false,"is_disabled":false,"rental_uris":{"android":"levelo://app?vid=aa802d04-93cc-4325-bf66-50895eaf23d2","ios":"levelo://app?vid=aa802d04-93cc-4325-bf66-50895eaf23d2"},"vehicle_type_id":"4","last_reported":1745698207,"current_range_meters":7200,"station_id":"ce4bgt92rcd13ifvqcf0","pricing_plan_id":"cebpf4jnsgd1na2vs0mg"},{"bike_id":"1633ed64-e423-42e4-93c5-471c5c6b4f37","system_id":"levelo_inurba_marseille","lat":43.26065,"lon":5.39395,"is_reserved":false,"is_disabled":false,"rental_uris":{"android":"levelo://app?vid=1633ed64-e423-42e4-93c5-471c5c6b4f37","ios":"levelo://app?vid=1633ed64-e423-42e4-93c5-471c5c6b4f37"},"vehicle_type_id":"4","last_reported":1745698207,"current_range_meters":7200,"station_id":"ce4bhh92rcd13ifvqfj0","pricing_plan_id":"cebpf4jnsgd1na2vs0mg"},{"bike_id":"2743111f-6f05-405a-b992-7e5d8fae8924","system_id":"levelo_inurba_marseille","lat":43.229656,"lon":5.353909,"is_reserved":false,"is_disabled":false,"rental_uris":{"android":"levelo://app?vid=2743111f-6f05-405a-b992-7e5d8fae8924","ios":"levelo://app?vid=2743111f-6f05-405a-b992-7e5d8fae8924"},"vehicle_type_id":"4","last_reported":1745698207,"current_range_meters":7200,"station_id":"cpo3532slgdg3j2ikp40","pricing_plan_id":"cebpf4jnsgd1na2vs0mg"},{"bike_id":"d4c37c7b-a563-443c-8bd3-3cdf13cb2706","system_id":"levelo_inurba_marseille","lat":43.28001,"lon":5.40008,"is_reserved":false,"is_disabled":false,"rental_uris":{"android":"levelo://app?vid=d4c37c7b-a563-443c-8bd3-3cdf13cb2706","ios":"levelo://app?vid=d4c37c7b-a563-443c-8bd3-3cdf13cb2706"},"vehicle_type_id":"4","last_reported":1745698207,"current_range_meters":4800,"station_id":"ce4bho92rcd13ifvqh4g","pricing_plan_id":"cebpf4jnsgd1na2vs0mg"},{"bike_id":"e3b08fef-0d07-41c5-83c1-e2b2fccfefb7","system_id":"levelo_inurba_marseille","lat":43.28058,"lon":5.39649,"is_reserved":false,"is_disabled":false,"rental_uris":{"android":"levelo://app?vid=e3b08fef-0d07-41c5-83c1-e2b2fccfefb7","ios":"levelo://app?vid=e3b08fef-0d07-41c5-83c1-e2b2fccfefb7"},"vehicle_type_id":"4","last_reported":1745698207,"current_range_meters":8000,"station_id":"ce4bho12rcd13ifvqh2g","pricing_plan_id":"cebpf4jnsgd1na2vs0mg"},{"bike_id":"3fb10e7d-00e1-476c-a14f-2837b73331eb","system_id":"levelo_inurba_marseille","lat":43.26177,"lon":5.374623,"is_reserved":false,"is_disabled":false,"rental_uris":{"android":"levelo://app?vid=3fb10e7d-00e1-476c-a14f-2837b73331eb","ios":"levelo://app?vid=3fb10e7d-00e1-476c-a14f-2837b73331eb"},"vehicle_type_id":"4","last_reported":1745698207,"current_range_meters":8000,"station_id":"ce4bhgp2rcd13ifvqfc0","pricing_plan_id":"cebpf4jnsgd1na2vs0mg"},{"bike_id":"51376682-930e-45ed-90e0-b53d931ddc33","system_id":"levelo_inurba_marseille","lat":43.27496,"lon":5.42466,"is_reserved":false,"is_disabled":false,"rental_uris":{"android":"levelo://app?vid=51376682-930e-45ed-90e0-b53d931ddc33","ios":"levelo://app?vid=51376682-930e-45ed-90e0-b53d931ddc33"},"vehicle_type_id":"4","last_reported":1745698207,"current_range_meters":8000,"station_id":"ce4bhn92rcd13ifvqgrg","pricing_plan_id":"cebpf4jnsgd1na2vs0mg"},{"bike_id":"98234df2-0309-4215-9ce6-3af7f1c867a9","system_id":"levelo_inurba_marseille","lat":43.27923,"lon":5.39595,"is_reserved":false,"is_disabled":false,"rental_uris":{"android":"levelo://app?vid=98234df2-0309-4215-9ce6-3af7f1c867a9","ios":"levelo://app?vid=98234df2-0309-4215-9ce6-3af7f1c867a9"},"vehicle_type_id":"4","last_reported":1745698207,"current_range_meters":8000,"station_id":"ce4bhf92rcd13ifvqf40","pricing_plan_id":"cebpf4jnsgd1na2vs0mg"},{"bike_id":"0bd91716-8ada-4f18-8821-b77e9f7237f7","system_id":"levelo_inurba_marseille","lat":43.30533,"lon":5.36712,"is_reserved":false,"is_disabled":false,"rental_uris":{"android":"levelo://app?vid=0bd91716-8ada-4f18-8821-b77e9f7237f7","ios":"levelo://app?vid=0bd91716-8ada-4f18-8821-b77e9f7237f7"},"vehicle_type_id":"4","last_reported":1745698207,"current_range_meters":8000,"station_id":"ce4bgrp2rcd13ifvqc9g","pricing_plan_id":"cebpf4jnsgd1na2vs0mg"},{"bike_id":"e768aa58-f78c-4d48-862b-93a92cf87bd8","system_id":"levelo_inurba_marseille","lat":43.32114,"lon":5.36765,"is_reserved":false,"is_disabled":false,"rental_uris":{"android":"levelo://app?vid=e768aa58-f78c-4d48-862b-93a92cf87bd8","ios":"levelo://app?vid=e768aa58-f78c-4d48-862b-93a92cf87bd8"},"vehicle_type_id":"4","last_reported":1745698207,"current_range_meters":8400,"station_id":"ce4bhrh2rcd13ifvqhug","pricing_plan_id":"cebpf4jnsgd1na2vs0mg"},{"bike_id":"2c368ccb-3bac-439c-8518-62bd21f059de","system_id":"levelo_inurba_marseille","lat":43.23942,"lon":5.36649,"is_reserved":false,"is_disabled":false,"rental_uris":{"android":"levelo://app?vid=2c368ccb-3bac-439c-8518-62bd21f059de","ios":"levelo://app?vid=2c368ccb-3bac-439c-8518-62bd21f059de"},"vehicle_type_id":"4","last_reported":1745698207,"current_range_meters":8400,"station_id":"ce4bhi12rcd13ifvqfp0","pricing_plan_id":"cebpf4jnsgd1na2vs0mg"},{"bike_id":"185a4f95-9bdf-4142-a88a-4aac6e444392","system_id":"levelo_inurba_marseille","lat":43.30947,"lon":5.3903,"is_reserved":false,"is_disabled":false,"rental_uris":{"android":"levelo://app?vid=185a4f95-9bdf-4142-a88a-4aac6e444392","ios":"levelo://app?vid=185a4f95-9bdf-4142-a88a-4aac6e444392"},"vehicle_type_id":"4","last_reported":1745698207,"current_range_meters":8400,"station_id":"ce4bgup2rcd13ifvqco0","pricing_plan_id":"cebpf4jnsgd1na2vs0mg"},{"bike_id":"b25d821f-85f0-4e36-bfe6-db46d00f9763","system_id":"levelo_inurba_marseille","lat":43.29532,"lon":5.42276,"is_reserved":false,"is_disabled":false,"rental_uris":{"android":"levelo://app?vid=b25d821f-85f0-4e36-bfe6-db46d00f9763","ios":"levelo://app?vid=b25d821f-85f0-4e36-bfe6-db46d00f9763"},"vehicle_type_id":"4","last_reported":1745698207,"current_range_meters":8400,"station_id":"ce4bhph2rcd13ifvqhdg","pricing_plan_id":"cebpf4jnsgd1na2vs0mg"},{"bike_id":"6104de1b-83a6-4912-bfa1-49d35364e6af","system_id":"levelo_inurba_marseille","lat":43.23981,"lon":5.36605,"is_reserved":false,"is_disabled":false,"rental_uris":{"android":"levelo://app?vid=6104de1b-83a6-4912-bfa1-49d35364e6af","ios":"levelo://app?vid=6104de1b-83a6-4912-bfa1-49d35364e6af"},"vehicle_type_id":"4","last_reported":1745698207,"current_range_meters":8400,"station_id":"ce4bhi12rcd13ifvqfp0","pricing_plan_id":"cebpf4jnsgd1na2vs0mg"},{"bike_id":"53094921-ea74-4215-bdf0-9e1c0cdded85","system_id":"levelo_inurba_marseille","lat":43.310687,"lon":5.383495,"is_reserved":false,"is_disabled":false,"rental_uris":{"android":"levelo://app?vid=53094921-ea74-4215-bdf0-9e1c0cdded85","ios":"levelo://app?vid=53094921-ea74-4215-bdf0-9e1c0cdded85"},"vehicle_type_id":"4","last_reported":1745698207,"current_range_meters":8400,"station_id":"ce4bgv92rcd13ifvqcr0","pricing_plan_id":"cebpf4jnsgd1na2vs0mg"},{"bike_id":"84de9c1d-4ee7-4ffa-865a-f2d564ed8bea","system_id":"levelo_inurba_marseille","lat":43.248,"lon":5.37448,"is_reserved":false,"is_disabled":false,"rental_uris":{"android":"levelo://app?vid=84de9c1d-4ee7-4ffa-865a-f2d564ed8bea","ios":"levelo://app?vid=84de9c1d-4ee7-4ffa-865a-f2d564ed8bea"},"vehicle_type_id":"4","last_reported":1745698207,"current_range_meters":8400,"station_id":"ce4bhgh2rcd13ifvqfb0","pricing_plan_id":"cebpf4jnsgd1na2vs0mg"},{"bike_id":"946726ca-9d61-48d8-832f-9e3b9bd2361b","system_id":"levelo_inurba_marseille","lat":43.290283,"lon":5.386515,"is_reserved":false,"is_disabled":false,"rental_uris":{"android":"levelo://app?vid=946726ca-9d61-48d8-832f-9e3b9bd2361b","ios":"levelo://app?vid=946726ca-9d61-48d8-832f-9e3b9bd2361b"},"vehicle_type_id":"4","last_reported":1745698207,"current_range_meters":8000,"station_id":"ce4bgh92rcd13ifvqb40","pricing_plan_id":"cebpf4jnsgd1na2vs0mg"},{"bike_id":"206d6220-b715-46fc-be54-9a6732301080","system_id":"levelo_inurba_marseille","lat":43.27808,"lon":5.40716,"is_reserved":false,"is_disabled":false,"rental_uris":{"android":"levelo://app?vid=206d6220-b715-46fc-be54-9a6732301080","ios":"levelo://app?vid=206d6220-b715-46fc-be54-9a6732301080"},"vehicle_type_id":"4","last_reported":1745698207,"current_range_meters":8400,"station_id":"ce4bhnh2rcd13ifvqgtg","pricing_plan_id":"cebpf4jnsgd1na2vs0mg"},{"bike_id":"b07f32f3-11be-43dd-abc4-36641aee774b","system_id":"levelo_inurba_marseille","lat":43.32,"lon":5.38165,"is_reserved":false,"is_disabled":false,"rental_uris":{"android":"levelo://app?vid=b07f32f3-11be-43dd-abc4-36641aee774b","ios":"levelo://app?vid=b07f32f3-11be-43dd-abc4-36641aee774b"},"vehicle_type_id":"4","last_reported":1745698207,"current_range_meters":8800,"station_id":"ce4bhr12rcd13ifvqhpg","pricing_plan_id":"cebpf4jnsgd1na2vs0mg"},{"bike_id":"c53bc830-0a68-438e-a5d2-e046cc273bef","system_id":"levelo_inurba_marseille","lat":43.31063,"lon":5.38365,"is_reserved":false,"is_disabled":false,"rental_uris":{"android":"levelo://app?vid=c53bc830-0a68-438e-a5d2-e046cc273bef","ios":"levelo://app?vid=c53bc830-0a68-438e-a5d2-e046cc273bef"},"vehicle_type_id":"4","last_reported":1745698207,"current_range_meters":8800,"station_id":"ce4bgv92rcd13ifvqcr0","pricing_plan_id":"cebpf4jnsgd1na2vs0mg"},{"bike_id":"c88b66d1-5ca1-435a-a3b8-db4bf5176178","system_id":"levelo_inurba_marseille","lat":43.30939,"lon":5.39035,"is_reserved":false,"is_disabled":false,"rental_uris":{"android":"levelo://app?vid=c88b66d1-5ca1-435a-a3b8-db4bf5176178","ios":"levelo://app?vid=c88b66d1-5ca1-435a-a3b8-db4bf5176178"},"vehicle_type_id":"4","last_reported":1745698207,"current_range_meters":8800,"station_id":"ce4bgup2rcd13ifvqco0","pricing_plan_id":"cebpf4jnsgd1na2vs0mg"},{"bike_id":"a4c25d8b-4300-4f02-8982-51025e7f7079","system_id":"levelo_inurba_marseille","lat":43.283447,"lon":5.381111,"is_reserved":false,"is_disabled":false,"rental_uris":{"android":"levelo://app?vid=a4c25d8b-4300-4f02-8982-51025e7f7079","ios":"levelo://app?vid=a4c25d8b-4300-4f02-8982-51025e7f7079"},"vehicle_type_id":"4","last_reported":1745698207,"current_range_meters":8800,"station_id":"ce4bh412rcd13ifvqdr0","pricing_plan_id":"cebpf4jnsgd1na2vs0mg"},{"bike_id":"e1ead886-6fa8-4d0f-85e8-025d98f6122e","system_id":"levelo_inurba_marseille","lat":43.31479,"lon":5.37306,"is_reserved":false,"is_disabled":false,"rental_uris":{"android":"levelo://app?vid=e1ead886-6fa8-4d0f-85e8-025d98f6122e","ios":"levelo://app?vid=e1ead886-6fa8-4d0f-85e8-025d98f6122e"},"vehicle_type_id":"4","last_reported":1745698207,"current_range_meters":8800,"station_id":"ce4bgt12rcd13ifvqcd0","pricing_plan_id":"cebpf4jnsgd1na2vs0mg"},{"bike_id":"7b8f057b-a411-4d82-876e-8519e609de42","system_id":"levelo_inurba_marseille","lat":43.288635,"lon":5.35847,"is_reserved":false,"is_disabled":false,"rental_uris":{"android":"levelo://app?vid=7b8f057b-a411-4d82-876e-8519e609de42","ios":"levelo://app?vid=7b8f057b-a411-4d82-876e-8519e609de42"},"vehicle_type_id":"4","last_reported":1745698207,"current_range_meters":4400,"station_id":"ce4bhb12rcd13ifvqem0","pricing_plan_id":"cebpf4jnsgd1na2vs0mg"},{"bike_id":"b4b0266c-631d-4bc0-b722-43b22c86c85f","system_id":"levelo_inurba_marseille","lat":43.3099,"lon":5.41741,"is_reserved":false,"is_disabled":false,"rental_uris":{"android":"levelo://app?vid=b4b0266c-631d-4bc0-b722-43b22c86c85f","ios":"levelo://app?vid=b4b0266c-631d-4bc0-b722-43b22c86c85f"},"vehicle_type_id":"4","last_reported":1745698207,"current_range_meters":9200,"station_id":"","pricing_plan_id":"cebpf4jnsgd1na2vs0mg"},{"bike_id":"5a42e7d2-7dc3-47bf-9bd4-a4f42443d89e","system_id":"levelo_inurba_marseille","lat":43.25494,"lon":5.37651,"is_reserved":false,"is_disabled":false,"rental_uris":{"android":"levelo://app?vid=5a42e7d2-7dc3-47bf-9bd4-a4f42443d89e","ios":"levelo://app?vid=5a42e7d2-7dc3-47bf-9bd4-a4f42443d89e"},"vehicle_type_id":"4","last_reported":1745698207,"current_range_meters":12800,"station_id":"ce4bhh12rcd13ifvqff0","pricing_plan_id":"cebpf4jnsgd1na2vs0mg"},{"bike_id":"c886bc95-a9f4-4b08-af93-286cc6dbd1ea","system_id":"levelo_inurba_marseille","lat":43.2415,"lon":5.36431,"is_reserved":false,"is_disabled":false,"rental_uris":{"android":"levelo://app?vid=c886bc95-a9f4-4b08-af93-286cc6dbd1ea","ios":"levelo://app?vid=c886bc95-a9f4-4b08-af93-286cc6dbd1ea"},"vehicle_type_id":"4","last_reported":1745698207,"current_range_meters":9200,"station_id":"cpo36qri1sfpv3e86is0","pricing_plan_id":"cebpf4jnsgd1na2vs0mg"},{"bike_id":"a92b3562-3e64-4b86-9005-5deaddaade80","system_id":"levelo_inurba_marseille","lat":43.29572,"lon":5.39966,"is_reserved":false,"is_disabled":false,"rental_uris":{"android":"levelo://app?vid=a92b3562-3e64-4b86-9005-5deaddaade80","ios":"levelo://app?vid=a92b3562-3e64-4b86-9005-5deaddaade80"},"vehicle_type_id":"4","last_reported":1745698207,"current_range_meters":9200,"station_id":"ce4bh312rcd13ifvqdj0","pricing_plan_id":"cebpf4jnsgd1na2vs0mg"},{"bike_id":"6962cfc5-3f45-4c53-ad5e-d31a93adcc6f","system_id":"levelo_inurba_marseille","lat":43.29523,"lon":5.3905,"is_reserved":false,"is_disabled":false,"rental_uris":{"android":"levelo://app?vid=6962cfc5-3f45-4c53-ad5e-d31a93adcc6f","ios":"levelo://app?vid=6962cfc5-3f45-4c53-ad5e-d31a93adcc6f"},"vehicle_type_id":"4","last_reported":1745698207,"current_range_meters":9200,"station_id":"ce4bh3p2rcd13ifvqdp0","pricing_plan_id":"cebpf4jnsgd1na2vs0mg"},{"bike_id":"dd1f484e-afbc-4327-914e-ee2f4d84e475","system_id":"levelo_inurba_marseille","lat":43.27367,"lon":5.36236,"is_reserved":false,"is_disabled":false,"rental_uris":{"android":"levelo://app?vid=dd1f484e-afbc-4327-914e-ee2f4d84e475","ios":"levelo://app?vid=dd1f484e-afbc-4327-914e-ee2f4d84e475"},"vehicle_type_id":"4","last_reported":1745698207,"current_range_meters":9200,"station_id":"ce4bhbh2rcd13ifvqeo0","pricing_plan_id":"cebpf4jnsgd1na2vs0mg"},{"bike_id":"268cb347-ad94-4ab7-9a23-ad4d7a2bcb5c","system_id":"levelo_inurba_marseille","lat":43.24067,"lon":5.37763,"is_reserved":false,"is_disabled":false,"rental_uris":{"android":"levelo://app?vid=268cb347-ad94-4ab7-9a23-ad4d7a2bcb5c","ios":"levelo://app?vid=268cb347-ad94-4ab7-9a23-ad4d7a2bcb5c"},"vehicle_type_id":"4","last_reported":1745698207,"current_range_meters":9600,"station_id":"ce4bhnp2rcd13ifvqgvg","pricing_plan_id":"cebpf4jnsgd1na2vs0mg"},{"bike_id":"dc563db4-3d66-4cb2-8ddd-0654d51c02b6","system_id":"levelo_inurba_marseille","lat":43.29533,"lon":5.38556,"is_reserved":false,"is_disabled":false,"rental_uris":{"android":"levelo://app?vid=dc563db4-3d66-4cb2-8ddd-0654d51c02b6","ios":"levelo://app?vid=dc563db4-3d66-4cb2-8ddd-0654d51c02b6"},"vehicle_type_id":"4","last_reported":1745698207,"current_range_meters":9600,"station_id":"ce4bgih2rcd13ifvqba0","pricing_plan_id":"cebpf4jnsgd1na2vs0mg"},{"bike_id":"54597a2a-318d-4998-9530-ae67c77b1e4a","system_id":"levelo_inurba_marseille","lat":43.31322,"lon":5.39696,"is_reserved":false,"is_disabled":false,"rental_uris":{"android":"levelo://app?vid=54597a2a-318d-4998-9530-ae67c77b1e4a","ios":"levelo://app?vid=54597a2a-318d-4998-9530-ae67c77b1e4a"},"vehicle_type_id":"4","last_reported":1745698207,"current_range_meters":9600,"station_id":"ce4bgvp2rcd13ifvqcu0","pricing_plan_id":"cebpf4jnsgd1na2vs0mg"},{"bike_id":"418ddde9-ea0b-40cc-9094-9d4e59dafe8e","system_id":"levelo_inurba_marseille","lat":43.295941,"lon":5.381129,"is_reserved":false,"is_disabled":false,"rental_uris":{"android":"levelo://app?vid=418ddde9-ea0b-40cc-9094-9d4e59dafe8e","ios":"levelo://app?vid=418ddde9-ea0b-40cc-9094-9d4e59dafe8e"},"vehicle_type_id":"4","last_reported":1745698207,"current_range_meters":9600,"station_id":"ce4bgl12rcd13ifvqbo0","pricing_plan_id":"cebpf4jnsgd1na2vs0mg"},{"bike_id":"ae2f8384-ab79-4241-aa7f-a13b45da22ce","system_id":"levelo_inurba_marseille","lat":43.26204,"lon":5.37445,"is_reserved":false,"is_disabled":false,"rental_uris":{"android":"levelo://app?vid=ae2f8384-ab79-4241-aa7f-a13b45da22ce","ios":"levelo://app?vid=ae2f8384-ab79-4241-aa7f-a13b45da22ce"},"vehicle_type_id":"4","last_reported":1745698207,"current_range_meters":9600,"station_id":"ce4bhgp2rcd13ifvqfc0","pricing_plan_id":"cebpf4jnsgd1na2vs0mg"},{"bike_id":"3f485f12-ccbf-4cc6-bfee-26b7c2709069","system_id":"levelo_inurba_marseille","lat":43.28183,"lon":5.49051,"is_reserved":false,"is_disabled":false,"rental_uris":{"android":"levelo://app?vid=3f485f12-ccbf-4cc6-bfee-26b7c2709069","ios":"levelo://app?vid=3f485f12-ccbf-4cc6-bfee-26b7c2709069"},"vehicle_type_id":"4","last_reported":1745698207,"current_range_meters":9600,"station_id":"","pricing_plan_id":"cebpf4jnsgd1na2vs0mg"},{"bike_id":"b9812e90-2535-4bd3-ba9b-7f88dc336581","system_id":"levelo_inurba_marseille","lat":43.31361,"lon":5.38539,"is_reserved":false,"is_disabled":false,"rental_uris":{"android":"levelo://app?vid=b9812e90-2535-4bd3-ba9b-7f88dc336581","ios":"levelo://app?vid=b9812e90-2535-4bd3-ba9b-7f88dc336581"},"vehicle_type_id":"4","last_reported":1745698207,"current_range_meters":10000,"station_id":"ce4bgt92rcd13ifvqcf0","pricing_plan_id":"cebpf4jnsgd1na2vs0mg"},{"bike_id":"6d7cc870-ccfd-4f48-96fb-e8c1f82a64cc","system_id":"levelo_inurba_marseille","lat":43.29765,"lon":5.3711,"is_reserved":false,"is_disabled":true,"rental_uris":{"android":"levelo://app?vid=6d7cc870-ccfd-4f48-96fb-e8c1f82a64cc","ios":"levelo://app?vid=6d7cc870-ccfd-4f48-96fb-e8c1f82a64cc"},"vehicle_type_id":"4","last_reported":1745698207,"current_range_meters":10000,"station_id":"ce4bgop2rcd13ifvqc1g","pricing_plan_id":"cebpf4jnsgd1na2vs0mg"},{"bike_id":"042a36cf-a68c-4f02-8fbe-a3d4f36fa492","system_id":"levelo_inurba_marseille","lat":43.21218,"lon":5.35058,"is_reserved":false,"is_disabled":false,"rental_uris":{"android":"levelo://app?vid=042a36cf-a68c-4f02-8fbe-a3d4f36fa492","ios":"levelo://app?vid=042a36cf-a68c-4f02-8fbe-a3d4f36fa492"},"vehicle_type_id":"4","last_reported":1745698207,"current_range_meters":10000,"station_id":"st_cvj6sg6p6f1abm77japg","pricing_plan_id":"cebpf4jnsgd1na2vs0mg"},{"bike_id":"aa7dd23a-c50c-4359-a4fa-3d29c4576751","system_id":"levelo_inurba_marseille","lat":43.24156,"lon":5.36409,"is_reserved":false,"is_disabled":false,"rental_uris":{"android":"levelo://app?vid=aa7dd23a-c50c-4359-a4fa-3d29c4576751","ios":"levelo://app?vid=aa7dd23a-c50c-4359-a4fa-3d29c4576751"},"vehicle_type_id":"4","last_reported":1745698207,"current_range_meters":10000,"station_id":"cpo36qri1sfpv3e86is0","pricing_plan_id":"cebpf4jnsgd1na2vs0mg"},{"bike_id":"5e6f617f-9775-48cd-a2eb-2b1af96f70ab","system_id":"levelo_inurba_marseille","lat":43.25491,"lon":5.37624,"is_reserved":false,"is_disabled":false,"rental_uris":{"android":"levelo://app?vid=5e6f617f-9775-48cd-a2eb-2b1af96f70ab","ios":"levelo://app?vid=5e6f617f-9775-48cd-a2eb-2b1af96f70ab"},"vehicle_type_id":"4","last_reported":1745698207,"current_range_meters":10000,"station_id":"ce4bhh12rcd13ifvqff0","pricing_plan_id":"cebpf4jnsgd1na2vs0mg"},{"bike_id":"80567b13-ef7b-4a51-a588-c87d745b19ca","system_id":"levelo_inurba_marseille","lat":43.30142,"lon":5.38066,"is_reserved":false,"is_disabled":false,"rental_uris":{"android":"levelo://app?vid=80567b13-ef7b-4a51-a588-c87d745b19ca","ios":"levelo://app?vid=80567b13-ef7b-4a51-a588-c87d745b19ca"},"vehicle_type_id":"4","last_reported":1745698207,"current_range_meters":9600,"station_id":"ce4bgjp2rcd13ifvqbh0","pricing_plan_id":"cebpf4jnsgd1na2vs0mg"},{"bike_id":"5417881d-ebc5-432d-8f48-fd4b0ea12ce7","system_id":"levelo_inurba_marseille","lat":43.29162,"lon":5.37156,"is_reserved":false,"is_disabled":false,"rental_uris":{"android":"levelo://app?vid=5417881d-ebc5-432d-8f48-fd4b0ea12ce7","ios":"levelo://app?vid=5417881d-ebc5-432d-8f48-fd4b0ea12ce7"},"vehicle_type_id":"4","last_reported":1745698207,"current_range_meters":10000,"station_id":"ce4bha92rcd13ifvqeh0","pricing_plan_id":"cebpf4jnsgd1na2vs0mg"},{"bike_id":"0429adbf-9996-4670-ae2d-bff8481dfd8d","system_id":"levelo_inurba_marseille","lat":43.30925,"lon":5.391,"is_reserved":false,"is_disabled":false,"rental_uris":{"android":"levelo://app?vid=0429adbf-9996-4670-ae2d-bff8481dfd8d","ios":"levelo://app?vid=0429adbf-9996-4670-ae2d-bff8481dfd8d"},"vehicle_type_id":"4","last_reported":1745698207,"current_range_meters":10000,"station_id":"","pricing_plan_id":"cebpf4jnsgd1na2vs0mg"},{"bike_id":"46ff4bff-4f24-468c-b5f8-bbf958e109d4","system_id":"levelo_inurba_marseille","lat":43.27612,"lon":5.36128,"is_reserved":false,"is_disabled":false,"rental_uris":{"android":"levelo://app?vid=46ff4bff-4f24-468c-b5f8-bbf958e109d4","ios":"levelo://app?vid=46ff4bff-4f24-468c-b5f8-bbf958e109d4"},"vehicle_type_id":"4","last_reported":1745698207,"current_range_meters":10800,"station_id":"ce4bgj92rcd13ifvqbe0","pricing_plan_id":"cebpf4jnsgd1na2vs0mg"},{"bike_id":"8c7c5e91-1453-409b-8a41-919b0e120db0","system_id":"levelo_inurba_marseille","lat":43.30951,"lon":5.39047,"is_reserved":false,"is_disabled":false,"rental_uris":{"android":"levelo://app?vid=8c7c5e91-1453-409b-8a41-919b0e120db0","ios":"levelo://app?vid=8c7c5e91-1453-409b-8a41-919b0e120db0"},"vehicle_type_id":"4","last_reported":1745698207,"current_range_meters":10800,"station_id":"ce4bgup2rcd13ifvqco0","pricing_plan_id":"cebpf4jnsgd1na2vs0mg"},{"bike_id":"6f9efa22-6701-48b6-9dac-71701c013e89","system_id":"levelo_inurba_marseille","lat":43.27999,"lon":5.40016,"is_reserved":false,"is_disabled":false,"rental_uris":{"android":"levelo://app?vid=6f9efa22-6701-48b6-9dac-71701c013e89","ios":"levelo://app?vid=6f9efa22-6701-48b6-9dac-71701c013e89"},"vehicle_type_id":"4","last_reported":1745698207,"current_range_meters":10800,"station_id":"ce4bho92rcd13ifvqh4g","pricing_plan_id":"cebpf4jnsgd1na2vs0mg"},{"bike_id":"d7bfcd0f-c6e0-4f9e-8e7f-fd0f08f55084","system_id":"levelo_inurba_marseille","lat":43.23963,"lon":5.36633,"is_reserved":false,"is_disabled":false,"rental_uris":{"android":"levelo://app?vid=d7bfcd0f-c6e0-4f9e-8e7f-fd0f08f55084","ios":"levelo://app?vid=d7bfcd0f-c6e0-4f9e-8e7f-fd0f08f55084"},"vehicle_type_id":"4","last_reported":1745698207,"current_range_meters":10800,"station_id":"ce4bhi12rcd13ifvqfp0","pricing_plan_id":"cebpf4jnsgd1na2vs0mg"},{"bike_id":"0cce7ea2-3151-4739-8e52-340c11e5c4e0","system_id":"levelo_inurba_marseille","lat":43.24661,"lon":5.38138,"is_reserved":false,"is_disabled":false,"rental_uris":{"android":"levelo://app?vid=0cce7ea2-3151-4739-8e52-340c11e5c4e0","ios":"levelo://app?vid=0cce7ea2-3151-4739-8e52-340c11e5c4e0"},"vehicle_type_id":"4","last_reported":1745698207,"current_range_meters":11200,"station_id":"ce4bhih2rcd13ifvqfr0","pricing_plan_id":"cebpf4jnsgd1na2vs0mg"},{"bike_id":"456e14ba-7003-4428-ad23-363f183dd6aa","system_id":"levelo_inurba_marseille","lat":43.29524,"lon":5.37513,"is_reserved":false,"is_disabled":false,"rental_uris":{"android":"levelo://app?vid=456e14ba-7003-4428-ad23-363f183dd6aa","ios":"levelo://app?vid=456e14ba-7003-4428-ad23-363f183dd6aa"},"vehicle_type_id":"4","last_reported":1745698207,"current_range_meters":10800,"station_id":"ce4bgkp2rcd13ifvqbmg","pricing_plan_id":"cebpf4jnsgd1na2vs0mg"},{"bike_id":"3f8e74df-4b8a-4fe8-9f20-4fbe47605119","system_id":"levelo_inurba_marseille","lat":43.29017,"lon":5.37568,"is_reserved":false,"is_disabled":true,"rental_uris":{"android":"levelo://app?vid=3f8e74df-4b8a-4fe8-9f20-4fbe47605119","ios":"levelo://app?vid=3f8e74df-4b8a-4fe8-9f20-4fbe47605119"},"vehicle_type_id":"4","last_reported":1745698207,"current_range_meters":11200,"station_id":"ce4bh692rcd13ifvqe90","pricing_plan_id":"cebpf4jnsgd1na2vs0mg"},{"bike_id":"4e09e2f3-6329-4563-9a1f-79c5001029cb","system_id":"levelo_inurba_marseille","lat":43.3236,"lon":5.38884,"is_reserved":false,"is_disabled":false,"rental_uris":{"android":"levelo://app?vid=4e09e2f3-6329-4563-9a1f-79c5001029cb","ios":"levelo://app?vid=4e09e2f3-6329-4563-9a1f-79c5001029cb"},"vehicle_type_id":"4","last_reported":1745698207,"current_range_meters":11200,"station_id":"ce4bhqp2rcd13ifvqhog","pricing_plan_id":"cebpf4jnsgd1na2vs0mg"},{"bike_id":"acf23f16-7032-4478-af39-9d00ddafbb50","system_id":"levelo_inurba_marseille","lat":43.32284,"lon":5.38292,"is_reserved":false,"is_disabled":false,"rental_uris":{"android":"levelo://app?vid=acf23f16-7032-4478-af39-9d00ddafbb50","ios":"levelo://app?vid=acf23f16-7032-4478-af39-9d00ddafbb50"},"vehicle_type_id":"4","last_reported":1745698207,"current_range_meters":11600,"station_id":"ce4bhr12rcd13ifvqhqg","pricing_plan_id":"cebpf4jnsgd1na2vs0mg"},{"bike_id":"a3f9342b-8d8e-469c-a75f-d0b9118a4fc1","system_id":"levelo_inurba_marseille","lat":43.26555,"lon":5.37301,"is_reserved":false,"is_disabled":false,"rental_uris":{"android":"levelo://app?vid=a3f9342b-8d8e-469c-a75f-d0b9118a4fc1","ios":"levelo://app?vid=a3f9342b-8d8e-469c-a75f-d0b9118a4fc1"},"vehicle_type_id":"4","last_reported":1745698207,"current_range_meters":11600,"station_id":"ce4bhg12rcd13ifvqf70","pricing_plan_id":"cebpf4jnsgd1na2vs0mg"},{"bike_id":"545a1bef-b393-435c-8d2f-e6f0780cad66","system_id":"levelo_inurba_marseille","lat":43.31051,"lon":5.36986,"is_reserved":false,"is_disabled":false,"rental_uris":{"android":"levelo://app?vid=545a1bef-b393-435c-8d2f-e6f0780cad66","ios":"levelo://app?vid=545a1bef-b393-435c-8d2f-e6f0780cad66"},"vehicle_type_id":"4","last_reported":1745698207,"current_range_meters":12000,"station_id":"","pricing_plan_id":"cebpf4jnsgd1na2vs0mg"},{"bike_id":"6bbbe4a1-4ff8-44c4-9695-f139a4f10337","system_id":"levelo_inurba_marseille","lat":43.30357,"lon":5.41873,"is_reserved":false,"is_disabled":false,"rental_uris":{"android":"levelo://app?vid=6bbbe4a1-4ff8-44c4-9695-f139a4f10337","ios":"levelo://app?vid=6bbbe4a1-4ff8-44c4-9695-f139a4f10337"},"vehicle_type_id":"4","last_reported":1745698207,"current_range_meters":12000,"station_id":"ce4bhop2rcd13ifvqh7g","pricing_plan_id":"cebpf4jnsgd1na2vs0mg"},{"bike_id":"a5752412-2b3a-495a-b554-2a3e08204a69","system_id":"levelo_inurba_marseille","lat":43.32286,"lon":5.38275,"is_reserved":false,"is_disabled":false,"rental_uris":{"android":"levelo://app?vid=a5752412-2b3a-495a-b554-2a3e08204a69","ios":"levelo://app?vid=a5752412-2b3a-495a-b554-2a3e08204a69"},"vehicle_type_id":"4","last_reported":1745698207,"current_range_meters":13600,"station_id":"ce4bhr12rcd13ifvqhqg","pricing_plan_id":"cebpf4jnsgd1na2vs0mg"},{"bike_id":"c596ab54-4f89-4649-a442-12778ac8adc4","system_id":"levelo_inurba_marseille","lat":43.31717,"lon":5.43699,"is_reserved":false,"is_disabled":true,"rental_uris":{"android":"levelo://app?vid=c596ab54-4f89-4649-a442-12778ac8adc4","ios":"levelo://app?vid=c596ab54-4f89-4649-a442-12778ac8adc4"},"vehicle_type_id":"4","last_reported":1745698207,"current_range_meters":12000,"station_id":"ce4bhp92rcd13ifvqhcg","pricing_plan_id":"cebpf4jnsgd1na2vs0mg"},{"bike_id":"56b523c5-8a8b-486f-a0f0-6f77b6036fbf","system_id":"levelo_inurba_marseille","lat":43.30954,"lon":5.3904,"is_reserved":false,"is_disabled":false,"rental_uris":{"android":"levelo://app?vid=56b523c5-8a8b-486f-a0f0-6f77b6036fbf","ios":"levelo://app?vid=56b523c5-8a8b-486f-a0f0-6f77b6036fbf"},"vehicle_type_id":"4","last_reported":1745698207,"current_range_meters":12000,"station_id":"ce4bgup2rcd13ifvqco0","pricing_plan_id":"cebpf4jnsgd1na2vs0mg"},{"bike_id":"736ee7d5-708e-48bd-8281-35bb85d0bc7d","system_id":"levelo_inurba_marseille","lat":43.28994,"lon":5.35594,"is_reserved":false,"is_disabled":true,"rental_uris":{"android":"levelo://app?vid=736ee7d5-708e-48bd-8281-35bb85d0bc7d","ios":"levelo://app?vid=736ee7d5-708e-48bd-8281-35bb85d0bc7d"},"vehicle_type_id":"4","last_reported":1745698207,"current_range_meters":12000,"station_id":"ce4bhb92rcd13ifvqen0","pricing_plan_id":"cebpf4jnsgd1na2vs0mg"},{"bike_id":"0b4eb874-2ae2-4559-98dd-7e17eb114804","system_id":"levelo_inurba_marseille","lat":43.29909,"lon":5.38131,"is_reserved":false,"is_disabled":false,"rental_uris":{"android":"levelo://app?vid=0b4eb874-2ae2-4559-98dd-7e17eb114804","ios":"levelo://app?vid=0b4eb874-2ae2-4559-98dd-7e17eb114804"},"vehicle_type_id":"4","last_reported":1745698207,"current_range_meters":12000,"station_id":"ce4bgj12rcd13ifvqbc0","pricing_plan_id":"cebpf4jnsgd1na2vs0mg"},{"bike_id":"a65c04c4-dde7-4cf7-acfb-5fe2c1f889fd","system_id":"levelo_inurba_marseille","lat":43.26243,"lon":5.40449,"is_reserved":false,"is_disabled":false,"rental_uris":{"android":"levelo://app?vid=a65c04c4-dde7-4cf7-acfb-5fe2c1f889fd","ios":"levelo://app?vid=a65c04c4-dde7-4cf7-acfb-5fe2c1f889fd"},"vehicle_type_id":"4","last_reported":1745698207,"current_range_meters":12400,"station_id":"ce4bhmh2rcd13ifvqgmg","pricing_plan_id":"cebpf4jnsgd1na2vs0mg"},{"bike_id":"0a20c176-84ce-406c-b816-a20786a5492e","system_id":"levelo_inurba_marseille","lat":43.31705,"lon":5.37753,"is_reserved":false,"is_disabled":false,"rental_uris":{"android":"levelo://app?vid=0a20c176-84ce-406c-b816-a20786a5492e","ios":"levelo://app?vid=0a20c176-84ce-406c-b816-a20786a5492e"},"vehicle_type_id":"4","last_reported":1745698207,"current_range_meters":12400,"station_id":"ce4bgth2rcd13ifvqch0","pricing_plan_id":"cebpf4jnsgd1na2vs0mg"},{"bike_id":"2fac31c9-ecd4-4c07-9ea5-ab959ac9f813","system_id":"levelo_inurba_marseille","lat":43.24647,"lon":5.38183,"is_reserved":false,"is_disabled":true,"rental_uris":{"android":"levelo://app?vid=2fac31c9-ecd4-4c07-9ea5-ab959ac9f813","ios":"levelo://app?vid=2fac31c9-ecd4-4c07-9ea5-ab959ac9f813"},"vehicle_type_id":"4","last_reported":1745698207,"current_range_meters":12400,"station_id":"ce4bhih2rcd13ifvqfr0","pricing_plan_id":"cebpf4jnsgd1na2vs0mg"},{"bike_id":"30b0ccc9-f650-4ec8-811c-05a3ce8ae2d4","system_id":"levelo_inurba_marseille","lat":43.28669,"lon":5.38667,"is_reserved":false,"is_disabled":false,"rental_uris":{"android":"levelo://app?vid=30b0ccc9-f650-4ec8-811c-05a3ce8ae2d4","ios":"levelo://app?vid=30b0ccc9-f650-4ec8-811c-05a3ce8ae2d4"},"vehicle_type_id":"4","last_reported":1745698207,"current_range_meters":12400,"station_id":"ce4bh492rcd13ifvqdug","pricing_plan_id":"cebpf4jnsgd1na2vs0mg"},{"bike_id":"bf207ab8-dfef-451d-b918-01c7db48a5d8","system_id":"levelo_inurba_marseille","lat":43.309468,"lon":5.390395,"is_reserved":false,"is_disabled":false,"rental_uris":{"android":"levelo://app?vid=bf207ab8-dfef-451d-b918-01c7db48a5d8","ios":"levelo://app?vid=bf207ab8-dfef-451d-b918-01c7db48a5d8"},"vehicle_type_id":"4","last_reported":1745698207,"current_range_meters":12400,"station_id":"ce4bgup2rcd13ifvqco0","pricing_plan_id":"cebpf4jnsgd1na2vs0mg"},{"bike_id":"c01fcc95-95ae-4e71-b345-61871d8af98d","system_id":"levelo_inurba_marseille","lat":43.26012,"lon":5.37563,"is_reserved":false,"is_disabled":false,"rental_uris":{"android":"levelo://app?vid=c01fcc95-95ae-4e71-b345-61871d8af98d","ios":"levelo://app?vid=c01fcc95-95ae-4e71-b345-61871d8af98d"},"vehicle_type_id":"4","last_reported":1745698207,"current_range_meters":12400,"station_id":"ce4bhgh2rcd13ifvqfa0","pricing_plan_id":"cebpf4jnsgd1na2vs0mg"},{"bike_id":"6e4fd1c1-94b0-421e-a8a3-a7c1f06a94e6","system_id":"levelo_inurba_marseille","lat":43.29891,"lon":5.38157,"is_reserved":false,"is_disabled":false,"rental_uris":{"android":"levelo://app?vid=6e4fd1c1-94b0-421e-a8a3-a7c1f06a94e6","ios":"levelo://app?vid=6e4fd1c1-94b0-421e-a8a3-a7c1f06a94e6"},"vehicle_type_id":"4","last_reported":1745698207,"current_range_meters":12800,"station_id":"ce4bgj12rcd13ifvqbc0","pricing_plan_id":"cebpf4jnsgd1na2vs0mg"},{"bike_id":"184360c6-784d-4ae6-9180-f3fc70fbd0ad","system_id":"levelo_inurba_marseille","lat":43.24073,"lon":5.37763,"is_reserved":false,"is_disabled":false,"rental_uris":{"android":"levelo://app?vid=184360c6-784d-4ae6-9180-f3fc70fbd0ad","ios":"levelo://app?vid=184360c6-784d-4ae6-9180-f3fc70fbd0ad"},"vehicle_type_id":"4","last_reported":1745698207,"current_range_meters":12400,"station_id":"ce4bhnp2rcd13ifvqgvg","pricing_plan_id":"cebpf4jnsgd1na2vs0mg"},{"bike_id":"28375f2a-9360-468c-bb10-5994bbf0d537","system_id":"levelo_inurba_marseille","lat":43.25002,"lon":5.38926,"is_reserved":false,"is_disabled":false,"rental_uris":{"android":"levelo://app?vid=28375f2a-9360-468c-bb10-5994bbf0d537","ios":"levelo://app?vid=28375f2a-9360-468c-bb10-5994bbf0d537"},"vehicle_type_id":"4","last_reported":1745698207,"current_range_meters":12800,"station_id":"ce4bhgp2rcd13ifvqfd0","pricing_plan_id":"cebpf4jnsgd1na2vs0mg"},{"bike_id":"60dac35b-18d8-4a62-8d2b-b924ee365948","system_id":"levelo_inurba_marseille","lat":43.2781,"lon":5.40708,"is_reserved":false,"is_disabled":false,"rental_uris":{"android":"levelo://app?vid=60dac35b-18d8-4a62-8d2b-b924ee365948","ios":"levelo://app?vid=60dac35b-18d8-4a62-8d2b-b924ee365948"},"vehicle_type_id":"4","last_reported":1745698207,"current_range_meters":12800,"station_id":"ce4bhnh2rcd13ifvqgtg","pricing_plan_id":"cebpf4jnsgd1na2vs0mg"},{"bike_id":"980c0fe8-4e3c-46c9-9757-a48e7f205627","system_id":"levelo_inurba_marseille","lat":43.24374,"lon":5.37069,"is_reserved":false,"is_disabled":false,"rental_uris":{"android":"levelo://app?vid=980c0fe8-4e3c-46c9-9757-a48e7f205627","ios":"levelo://app?vid=980c0fe8-4e3c-46c9-9757-a48e7f205627"},"vehicle_type_id":"4","last_reported":1745698207,"current_range_meters":12800,"station_id":"ce4bhhh2rcd13ifvqfk0","pricing_plan_id":"cebpf4jnsgd1na2vs0mg"},{"bike_id":"3ee52dd6-ee76-4da1-bbf0-da3ef76cb155","system_id":"levelo_inurba_marseille","lat":43.346566,"lon":5.347297,"is_reserved":false,"is_disabled":false,"rental_uris":{"android":"levelo://app?vid=3ee52dd6-ee76-4da1-bbf0-da3ef76cb155","ios":"levelo://app?vid=3ee52dd6-ee76-4da1-bbf0-da3ef76cb155"},"vehicle_type_id":"4","last_reported":1745698207,"current_range_meters":12800,"station_id":"","pricing_plan_id":"cebpf4jnsgd1na2vs0mg"},{"bike_id":"50567301-7660-45e4-9314-78fdd7ddbf96","system_id":"levelo_inurba_marseille","lat":43.30769,"lon":5.40962,"is_reserved":false,"is_disabled":false,"rental_uris":{"android":"levelo://app?vid=50567301-7660-45e4-9314-78fdd7ddbf96","ios":"levelo://app?vid=50567301-7660-45e4-9314-78fdd7ddbf96"},"vehicle_type_id":"4","last_reported":1745698207,"current_range_meters":12800,"station_id":"","pricing_plan_id":"cebpf4jnsgd1na2vs0mg"},{"bike_id":"5d438ef2-6e9c-488e-b750-1db58ed0a8d3","system_id":"levelo_inurba_marseille","lat":43.29576,"lon":5.37518,"is_reserved":false,"is_disabled":false,"rental_uris":{"android":"levelo://app?vid=5d438ef2-6e9c-488e-b750-1db58ed0a8d3","ios":"levelo://app?vid=5d438ef2-6e9c-488e-b750-1db58ed0a8d3"},"vehicle_type_id":"4","last_reported":1745698207,"current_range_meters":12800,"station_id":"ce4bgh92rcd13ifvqb50","pricing_plan_id":"cebpf4jnsgd1na2vs0mg"},{"bike_id":"3d6be18d-6ef6-4662-9773-18787caed810","system_id":"levelo_inurba_marseille","lat":43.308567,"lon":5.396621,"is_reserved":false,"is_disabled":false,"rental_uris":{"android":"levelo://app?vid=3d6be18d-6ef6-4662-9773-18787caed810","ios":"levelo://app?vid=3d6be18d-6ef6-4662-9773-18787caed810"},"vehicle_type_id":"4","last_reported":1745698207,"current_range_meters":12800,"station_id":"ce4bh012rcd13ifvqcv0","pricing_plan_id":"cebpf4jnsgd1na2vs0mg"},{"bike_id":"4f707baa-208e-4931-8825-76ef1a4a082c","system_id":"levelo_inurba_marseille","lat":43.29912,"lon":5.37461,"is_reserved":false,"is_disabled":false,"rental_uris":{"android":"levelo://app?vid=4f707baa-208e-4931-8825-76ef1a4a082c","ios":"levelo://app?vid=4f707baa-208e-4931-8825-76ef1a4a082c"},"vehicle_type_id":"4","last_reported":1745698207,"current_range_meters":12800,"station_id":"ce4bgjh2rcd13ifvqbg0","pricing_plan_id":"cebpf4jnsgd1na2vs0mg"},{"bike_id":"e9c97bfd-8564-4c9f-890a-cedefcef98b7","system_id":"levelo_inurba_marseille","lat":43.29419,"lon":5.38629,"is_reserved":false,"is_disabled":false,"rental_uris":{"android":"levelo://app?vid=e9c97bfd-8564-4c9f-890a-cedefcef98b7","ios":"levelo://app?vid=e9c97bfd-8564-4c9f-890a-cedefcef98b7"},"vehicle_type_id":"4","last_reported":1745698207,"current_range_meters":13600,"station_id":"ce4bh2h2rcd13ifvqdh0","pricing_plan_id":"cebpf4jnsgd1na2vs0mg"},{"bike_id":"d8d85aa3-067f-47cb-89aa-384443939cc6","system_id":"levelo_inurba_marseille","lat":43.3117,"lon":5.38719,"is_reserved":false,"is_disabled":false,"rental_uris":{"android":"levelo://app?vid=d8d85aa3-067f-47cb-89aa-384443939cc6","ios":"levelo://app?vid=d8d85aa3-067f-47cb-89aa-384443939cc6"},"vehicle_type_id":"4","last_reported":1745698207,"current_range_meters":13600,"station_id":"ce4bgv12rcd13ifvqcp0","pricing_plan_id":"cebpf4jnsgd1na2vs0mg"},{"bike_id":"7a44a0ec-bff6-4967-ad67-923da31bedb3","system_id":"levelo_inurba_marseille","lat":43.29167,"lon":5.37155,"is_reserved":false,"is_disabled":false,"rental_uris":{"android":"levelo://app?vid=7a44a0ec-bff6-4967-ad67-923da31bedb3","ios":"levelo://app?vid=7a44a0ec-bff6-4967-ad67-923da31bedb3"},"vehicle_type_id":"4","last_reported":1745698207,"current_range_meters":13600,"station_id":"ce4bha92rcd13ifvqeh0","pricing_plan_id":"cebpf4jnsgd1na2vs0mg"},{"bike_id":"23c17adf-c97f-4254-810e-f7c56eb17f02","system_id":"levelo_inurba_marseille","lat":43.301,"lon":5.39082,"is_reserved":false,"is_disabled":false,"rental_uris":{"android":"levelo://app?vid=23c17adf-c97f-4254-810e-f7c56eb17f02","ios":"levelo://app?vid=23c17adf-c97f-4254-810e-f7c56eb17f02"},"vehicle_type_id":"4","last_reported":1745698207,"current_range_meters":12800,"station_id":"ce4bh192rcd13ifvqdb0","pricing_plan_id":"cebpf4jnsgd1na2vs0mg"},{"bike_id":"b8a3771f-aba3-4200-b9a1-91427f918109","system_id":"levelo_inurba_marseille","lat":43.295356,"lon":5.385708,"is_reserved":false,"is_disabled":false,"rental_uris":{"android":"levelo://app?vid=b8a3771f-aba3-4200-b9a1-91427f918109","ios":"levelo://app?vid=b8a3771f-aba3-4200-b9a1-91427f918109"},"vehicle_type_id":"4","last_reported":1745698207,"current_range_meters":13600,"station_id":"","pricing_plan_id":"cebpf4jnsgd1na2vs0mg"},{"bike_id":"39021113-f543-43be-bba4-299be13a907e","system_id":"levelo_inurba_marseille","lat":43.30147,"lon":5.37416,"is_reserved":false,"is_disabled":false,"rental_uris":{"android":"levelo://app?vid=39021113-f543-43be-bba4-299be13a907e","ios":"levelo://app?vid=39021113-f543-43be-bba4-299be13a907e"},"vehicle_type_id":"4","last_reported":1745698207,"current_range_meters":12800,"station_id":"ce4bgs92rcd13ifvqcc0","pricing_plan_id":"cebpf4jnsgd1na2vs0mg"},{"bike_id":"dd3031e0-5272-497e-a41c-be7750e07327","system_id":"levelo_inurba_marseille","lat":43.30046,"lon":5.40222,"is_reserved":false,"is_disabled":false,"rental_uris":{"android":"levelo://app?vid=dd3031e0-5272-497e-a41c-be7750e07327","ios":"levelo://app?vid=dd3031e0-5272-497e-a41c-be7750e07327"},"vehicle_type_id":"4","last_reported":1745698207,"current_range_meters":14000,"station_id":"","pricing_plan_id":"cebpf4jnsgd1na2vs0mg"},{"bike_id":"e0c71cba-c6a3-4efe-8b3a-5afbc1b4d441","system_id":"levelo_inurba_marseille","lat":43.29223,"lon":5.38465,"is_reserved":false,"is_disabled":false,"rental_uris":{"android":"levelo://app?vid=e0c71cba-c6a3-4efe-8b3a-5afbc1b4d441","ios":"levelo://app?vid=e0c71cba-c6a3-4efe-8b3a-5afbc1b4d441"},"vehicle_type_id":"4","last_reported":1745698207,"current_range_meters":14000,"station_id":"","pricing_plan_id":"cebpf4jnsgd1na2vs0mg"},{"bike_id":"82cfd596-db1e-49a7-9310-9a91e088dace","system_id":"levelo_inurba_marseille","lat":43.23958,"lon":5.36633,"is_reserved":false,"is_disabled":false,"rental_uris":{"android":"levelo://app?vid=82cfd596-db1e-49a7-9310-9a91e088dace","ios":"levelo://app?vid=82cfd596-db1e-49a7-9310-9a91e088dace"},"vehicle_type_id":"4","last_reported":1745698207,"current_range_meters":14000,"station_id":"ce4bhi12rcd13ifvqfp0","pricing_plan_id":"cebpf4jnsgd1na2vs0mg"},{"bike_id":"909abd25-63c3-4853-9648-2e7ce9712851","system_id":"levelo_inurba_marseille","lat":43.28036,"lon":5.3695,"is_reserved":false,"is_disabled":false,"rental_uris":{"android":"levelo://app?vid=909abd25-63c3-4853-9648-2e7ce9712851","ios":"levelo://app?vid=909abd25-63c3-4853-9648-2e7ce9712851"},"vehicle_type_id":"4","last_reported":1745698207,"current_range_meters":13600,"station_id":"ce4bha12rcd13ifvqef0","pricing_plan_id":"cebpf4jnsgd1na2vs0mg"},{"bike_id":"fdcaf338-d3e1-44ab-b996-4fd6eba29359","system_id":"levelo_inurba_marseille","lat":43.30945,"lon":5.39052,"is_reserved":false,"is_disabled":false,"rental_uris":{"android":"levelo://app?vid=fdcaf338-d3e1-44ab-b996-4fd6eba29359","ios":"levelo://app?vid=fdcaf338-d3e1-44ab-b996-4fd6eba29359"},"vehicle_type_id":"4","last_reported":1745698207,"current_range_meters":14000,"station_id":"ce4bgup2rcd13ifvqco0","pricing_plan_id":"cebpf4jnsgd1na2vs0mg"},{"bike_id":"c9048e8d-8d8a-43e5-8002-715082eeeea8","system_id":"levelo_inurba_marseille","lat":43.29533,"lon":5.38541,"is_reserved":false,"is_disabled":false,"rental_uris":{"android":"levelo://app?vid=c9048e8d-8d8a-43e5-8002-715082eeeea8","ios":"levelo://app?vid=c9048e8d-8d8a-43e5-8002-715082eeeea8"},"vehicle_type_id":"4","last_reported":1745698207,"current_range_meters":14000,"station_id":"ce4bgih2rcd13ifvqba0","pricing_plan_id":"cebpf4jnsgd1na2vs0mg"},{"bike_id":"fb28656f-cbd8-401d-8230-b0fe31237818","system_id":"levelo_inurba_marseille","lat":43.31691,"lon":5.40478,"is_reserved":false,"is_disabled":false,"rental_uris":{"android":"levelo://app?vid=fb28656f-cbd8-401d-8230-b0fe31237818","ios":"levelo://app?vid=fb28656f-cbd8-401d-8230-b0fe31237818"},"vehicle_type_id":"4","last_reported":1745698207,"current_range_meters":14000,"station_id":"ce4bh012rcd13ifvqd00","pricing_plan_id":"cebpf4jnsgd1na2vs0mg"},{"bike_id":"cc451a9b-2103-4f70-9e38-222a3f72b606","system_id":"levelo_inurba_marseille","lat":43.30951,"lon":5.39044,"is_reserved":false,"is_disabled":false,"rental_uris":{"android":"levelo://app?vid=cc451a9b-2103-4f70-9e38-222a3f72b606","ios":"levelo://app?vid=cc451a9b-2103-4f70-9e38-222a3f72b606"},"vehicle_type_id":"4","last_reported":1745698207,"current_range_meters":14400,"station_id":"ce4bgup2rcd13ifvqco0","pricing_plan_id":"cebpf4jnsgd1na2vs0mg"},{"bike_id":"84824bce-e6bb-49fe-9727-953e9aea0081","system_id":"levelo_inurba_marseille","lat":43.30476,"lon":5.3791,"is_reserved":false,"is_disabled":false,"rental_uris":{"android":"levelo://app?vid=84824bce-e6bb-49fe-9727-953e9aea0081","ios":"levelo://app?vid=84824bce-e6bb-49fe-9727-953e9aea0081"},"vehicle_type_id":"4","last_reported":1745698207,"current_range_meters":14000,"station_id":"ce4bgup2rcd13ifvqcn0","pricing_plan_id":"cebpf4jnsgd1na2vs0mg"},{"bike_id":"012e75b4-3115-47cd-9b8a-6715ccebbf11","system_id":"levelo_inurba_marseille","lat":43.30948,"lon":5.39057,"is_reserved":false,"is_disabled":false,"rental_uris":{"android":"levelo://app?vid=012e75b4-3115-47cd-9b8a-6715ccebbf11","ios":"levelo://app?vid=012e75b4-3115-47cd-9b8a-6715ccebbf11"},"vehicle_type_id":"4","last_reported":1745698207,"current_range_meters":14400,"station_id":"ce4bgup2rcd13ifvqco0","pricing_plan_id":"cebpf4jnsgd1na2vs0mg"},{"bike_id":"8ceb83a1-dfe6-49f1-89c8-ea92a6799553","system_id":"levelo_inurba_marseille","lat":43.30939,"lon":5.39081,"is_reserved":false,"is_disabled":false,"rental_uris":{"android":"levelo://app?vid=8ceb83a1-dfe6-49f1-89c8-ea92a6799553","ios":"levelo://app?vid=8ceb83a1-dfe6-49f1-89c8-ea92a6799553"},"vehicle_type_id":"4","last_reported":1745698207,"current_range_meters":14800,"station_id":"ce4bgup2rcd13ifvqco0","pricing_plan_id":"cebpf4jnsgd1na2vs0mg"},{"bike_id":"0053b840-de47-4900-98aa-cc8575176b05","system_id":"levelo_inurba_marseille","lat":43.24173,"lon":5.36401,"is_reserved":false,"is_disabled":true,"rental_uris":{"android":"levelo://app?vid=0053b840-de47-4900-98aa-cc8575176b05","ios":"levelo://app?vid=0053b840-de47-4900-98aa-cc8575176b05"},"vehicle_type_id":"4","last_reported":1745698207,"current_range_meters":14800,"station_id":"cpo36qri1sfpv3e86is0","pricing_plan_id":"cebpf4jnsgd1na2vs0mg"},{"bike_id":"356b76a1-af1a-4bef-951e-98e5b057a721","system_id":"levelo_inurba_marseille","lat":43.29256,"lon":5.38438,"is_reserved":false,"is_disabled":true,"rental_uris":{"android":"levelo://app?vid=356b76a1-af1a-4bef-951e-98e5b057a721","ios":"levelo://app?vid=356b76a1-af1a-4bef-951e-98e5b057a721"},"vehicle_type_id":"4","last_reported":1745698207,"current_range_meters":14800,"station_id":"ce4bh692rcd13ifvqea0","pricing_plan_id":"cebpf4jnsgd1na2vs0mg"},{"bike_id":"0ab6801c-0243-4fc0-bbf6-8366cb37d105","system_id":"levelo_inurba_marseille","lat":43.30947,"lon":5.39082,"is_reserved":false,"is_disabled":false,"rental_uris":{"android":"levelo://app?vid=0ab6801c-0243-4fc0-bbf6-8366cb37d105","ios":"levelo://app?vid=0ab6801c-0243-4fc0-bbf6-8366cb37d105"},"vehicle_type_id":"4","last_reported":1745698207,"current_range_meters":14800,"station_id":"ce4bgup2rcd13ifvqco0","pricing_plan_id":"cebpf4jnsgd1na2vs0mg"},{"bike_id":"50fb45f1-8249-4f3a-b254-d3976d251581","system_id":"levelo_inurba_marseille","lat":43.284169,"lon":5.375139,"is_reserved":false,"is_disabled":false,"rental_uris":{"android":"levelo://app?vid=50fb45f1-8249-4f3a-b254-d3976d251581","ios":"levelo://app?vid=50fb45f1-8249-4f3a-b254-d3976d251581"},"vehicle_type_id":"4","last_reported":1745698207,"current_range_meters":14800,"station_id":"ce4bh612rcd13ifvqe6g","pricing_plan_id":"cebpf4jnsgd1na2vs0mg"},{"bike_id":"41f345a9-75d9-4676-b56c-6e8ef96547ca","system_id":"levelo_inurba_marseille","lat":43.24056,"lon":5.37753,"is_reserved":false,"is_disabled":false,"rental_uris":{"android":"levelo://app?vid=41f345a9-75d9-4676-b56c-6e8ef96547ca","ios":"levelo://app?vid=41f345a9-75d9-4676-b56c-6e8ef96547ca"},"vehicle_type_id":"4","last_reported":1745698207,"current_range_meters":15200,"station_id":"ce4bhnp2rcd13ifvqgvg","pricing_plan_id":"cebpf4jnsgd1na2vs0mg"},{"bike_id":"6ca8ebca-5104-4114-b254-580cbd06eed7","system_id":"levelo_inurba_marseille","lat":43.24386,"lon":5.37058,"is_reserved":false,"is_disabled":false,"rental_uris":{"android":"levelo://app?vid=6ca8ebca-5104-4114-b254-580cbd06eed7","ios":"levelo://app?vid=6ca8ebca-5104-4114-b254-580cbd06eed7"},"vehicle_type_id":"4","last_reported":1745698207,"current_range_meters":16000,"station_id":"ce4bhhh2rcd13ifvqfk0","pricing_plan_id":"cebpf4jnsgd1na2vs0mg"},{"bike_id":"30288cb7-e849-4b02-8ab1-96deccfd974f","system_id":"levelo_inurba_marseille","lat":43.23959,"lon":5.36632,"is_reserved":false,"is_disabled":false,"rental_uris":{"android":"levelo://app?vid=30288cb7-e849-4b02-8ab1-96deccfd974f","ios":"levelo://app?vid=30288cb7-e849-4b02-8ab1-96deccfd974f"},"vehicle_type_id":"4","last_reported":1745698207,"current_range_meters":16000,"station_id":"ce4bhi12rcd13ifvqfp0","pricing_plan_id":"cebpf4jnsgd1na2vs0mg"},{"bike_id":"8c34d942-49f2-4f75-802c-c9d4b4beca39","system_id":"levelo_inurba_marseille","lat":43.29257,"lon":5.38432,"is_reserved":false,"is_disabled":false,"rental_uris":{"android":"levelo://app?vid=8c34d942-49f2-4f75-802c-c9d4b4beca39","ios":"levelo://app?vid=8c34d942-49f2-4f75-802c-c9d4b4beca39"},"vehicle_type_id":"4","last_reported":1745698207,"current_range_meters":16000,"station_id":"ce4bh692rcd13ifvqea0","pricing_plan_id":"cebpf4jnsgd1na2vs0mg"},{"bike_id":"3b452837-a0d1-48c9-81ce-eecdd90d03aa","system_id":"levelo_inurba_marseille","lat":43.29258,"lon":5.38449,"is_reserved":false,"is_disabled":false,"rental_uris":{"android":"levelo://app?vid=3b452837-a0d1-48c9-81ce-eecdd90d03aa","ios":"levelo://app?vid=3b452837-a0d1-48c9-81ce-eecdd90d03aa"},"vehicle_type_id":"4","last_reported":1745698207,"current_range_meters":16000,"station_id":"ce4bh692rcd13ifvqea0","pricing_plan_id":"cebpf4jnsgd1na2vs0mg"},{"bike_id":"ae1d96a0-b0a2-41e1-be14-e78907f9338a","system_id":"levelo_inurba_marseille","lat":43.29514,"lon":5.393955,"is_reserved":false,"is_disabled":true,"rental_uris":{"android":"levelo://app?vid=ae1d96a0-b0a2-41e1-be14-e78907f9338a","ios":"levelo://app?vid=ae1d96a0-b0a2-41e1-be14-e78907f9338a"},"vehicle_type_id":"4","last_reported":1745698207,"current_range_meters":16000,"station_id":"ce4bh292rcd13ifvqdf0","pricing_plan_id":"cebpf4jnsgd1na2vs0mg"},{"bike_id":"47859ae8-4157-419a-a068-4625ada059ba","system_id":"levelo_inurba_marseille","lat":43.26216,"lon":5.40432,"is_reserved":false,"is_disabled":false,"rental_uris":{"android":"levelo://app?vid=47859ae8-4157-419a-a068-4625ada059ba","ios":"levelo://app?vid=47859ae8-4157-419a-a068-4625ada059ba"},"vehicle_type_id":"4","last_reported":1745698207,"current_range_meters":16000,"station_id":"ce4bhmh2rcd13ifvqgmg","pricing_plan_id":"cebpf4jnsgd1na2vs0mg"},{"bike_id":"af4a97e0-dded-4da0-9eba-7bcd01c44383","system_id":"levelo_inurba_marseille","lat":43.303051,"lon":5.392047,"is_reserved":false,"is_disabled":true,"rental_uris":{"android":"levelo://app?vid=af4a97e0-dded-4da0-9eba-7bcd01c44383","ios":"levelo://app?vid=af4a97e0-dded-4da0-9eba-7bcd01c44383"},"vehicle_type_id":"4","last_reported":1745698207,"current_range_meters":16000,"station_id":"ce4bgkh2rcd13ifvqbk0","pricing_plan_id":"cebpf4jnsgd1na2vs0mg"},{"bike_id":"cd1957b4-b5bc-4401-b8b4-e20829e73b8b","system_id":"levelo_inurba_marseille","lat":43.28159,"lon":5.42627,"is_reserved":false,"is_disabled":false,"rental_uris":{"android":"levelo://app?vid=cd1957b4-b5bc-4401-b8b4-e20829e73b8b","ios":"levelo://app?vid=cd1957b4-b5bc-4401-b8b4-e20829e73b8b"},"vehicle_type_id":"4","last_reported":1745698207,"current_range_meters":16000,"station_id":"ce4bhnh2rcd13ifvqgug","pricing_plan_id":"cebpf4jnsgd1na2vs0mg"},{"bike_id":"dd2720e4-6041-42f8-885f-903b8904bbea","system_id":"levelo_inurba_marseille","lat":43.26218,"lon":5.37471,"is_reserved":false,"is_disabled":false,"rental_uris":{"android":"levelo://app?vid=dd2720e4-6041-42f8-885f-903b8904bbea","ios":"levelo://app?vid=dd2720e4-6041-42f8-885f-903b8904bbea"},"vehicle_type_id":"4","last_reported":1745698207,"current_range_meters":16000,"station_id":"ce4bhgp2rcd13ifvqfc0","pricing_plan_id":"cebpf4jnsgd1na2vs0mg"},{"bike_id":"91474842-32bf-45c2-856a-80fd91d22aa5","system_id":"levelo_inurba_marseille","lat":43.21192,"lon":5.35081,"is_reserved":false,"is_disabled":false,"rental_uris":{"android":"levelo://app?vid=91474842-32bf-45c2-856a-80fd91d22aa5","ios":"levelo://app?vid=91474842-32bf-45c2-856a-80fd91d22aa5"},"vehicle_type_id":"4","last_reported":1745698207,"current_range_meters":16000,"station_id":"st_cvj6sg6p6f1abm77japg","pricing_plan_id":"cebpf4jnsgd1na2vs0mg"},{"bike_id":"d2d435eb-402f-4667-98b1-e97d3f8f94ee","system_id":"levelo_inurba_marseille","lat":43.29785,"lon":5.38102,"is_reserved":false,"is_disabled":false,"rental_uris":{"android":"levelo://app?vid=d2d435eb-402f-4667-98b1-e97d3f8f94ee","ios":"levelo://app?vid=d2d435eb-402f-4667-98b1-e97d3f8f94ee"},"vehicle_type_id":"4","last_reported":1745698207,"current_range_meters":16400,"station_id":"ce4bgip2rcd13ifvqbb0","pricing_plan_id":"cebpf4jnsgd1na2vs0mg"},{"bike_id":"a3cb0bcc-45ee-4fcb-b255-43e5e09b7dd7","system_id":"levelo_inurba_marseille","lat":43.27807,"lon":5.40719,"is_reserved":false,"is_disabled":false,"rental_uris":{"android":"levelo://app?vid=a3cb0bcc-45ee-4fcb-b255-43e5e09b7dd7","ios":"levelo://app?vid=a3cb0bcc-45ee-4fcb-b255-43e5e09b7dd7"},"vehicle_type_id":"4","last_reported":1745698207,"current_range_meters":16400,"station_id":"ce4bhnh2rcd13ifvqgtg","pricing_plan_id":"cebpf4jnsgd1na2vs0mg"},{"bike_id":"a08e6535-7d97-4f82-b424-5e6daf2d2362","system_id":"levelo_inurba_marseille","lat":43.29508,"lon":5.394,"is_reserved":false,"is_disabled":true,"rental_uris":{"android":"levelo://app?vid=a08e6535-7d97-4f82-b424-5e6daf2d2362","ios":"levelo://app?vid=a08e6535-7d97-4f82-b424-5e6daf2d2362"},"vehicle_type_id":"4","last_reported":1745698207,"current_range_meters":16400,"station_id":"ce4bh292rcd13ifvqdf0","pricing_plan_id":"cebpf4jnsgd1na2vs0mg"},{"bike_id":"7d64638f-c1da-4c84-92b7-7533ccba9600","system_id":"levelo_inurba_marseille","lat":43.25501,"lon":5.37645,"is_reserved":false,"is_disabled":false,"rental_uris":{"android":"levelo://app?vid=7d64638f-c1da-4c84-92b7-7533ccba9600","ios":"levelo://app?vid=7d64638f-c1da-4c84-92b7-7533ccba9600"},"vehicle_type_id":"4","last_reported":1745698207,"current_range_meters":16400,"station_id":"ce4bhh12rcd13ifvqff0","pricing_plan_id":"cebpf4jnsgd1na2vs0mg"},{"bike_id":"ba855121-da96-430f-97ba-6b78ccb57ca3","system_id":"levelo_inurba_marseille","lat":43.2925,"lon":5.38439,"is_reserved":false,"is_disabled":false,"rental_uris":{"android":"levelo://app?vid=ba855121-da96-430f-97ba-6b78ccb57ca3","ios":"levelo://app?vid=ba855121-da96-430f-97ba-6b78ccb57ca3"},"vehicle_type_id":"4","last_reported":1745698207,"current_range_meters":16400,"station_id":"ce4bh692rcd13ifvqea0","pricing_plan_id":"cebpf4jnsgd1na2vs0mg"},{"bike_id":"fce5f21a-db85-4c55-a654-b7dad9d55855","system_id":"levelo_inurba_marseille","lat":43.28105,"lon":5.37841,"is_reserved":false,"is_disabled":false,"rental_uris":{"android":"levelo://app?vid=fce5f21a-db85-4c55-a654-b7dad9d55855","ios":"levelo://app?vid=fce5f21a-db85-4c55-a654-b7dad9d55855"},"vehicle_type_id":"4","last_reported":1745698207,"current_range_meters":16400,"station_id":"ce4bha12rcd13ifvqee0","pricing_plan_id":"cebpf4jnsgd1na2vs0mg"},{"bike_id":"38a5787a-3504-47ba-8cd1-5eec7c840ad4","system_id":"levelo_inurba_marseille","lat":43.3097,"lon":5.39055,"is_reserved":false,"is_disabled":false,"rental_uris":{"android":"levelo://app?vid=38a5787a-3504-47ba-8cd1-5eec7c840ad4","ios":"levelo://app?vid=38a5787a-3504-47ba-8cd1-5eec7c840ad4"},"vehicle_type_id":"4","last_reported":1745698207,"current_range_meters":16800,"station_id":"ce4bgup2rcd13ifvqco0","pricing_plan_id":"cebpf4jnsgd1na2vs0mg"},{"bike_id":"23931e92-aae4-49d3-a6ec-7e28158d6b03","system_id":"levelo_inurba_marseille","lat":43.29186,"lon":5.37161,"is_reserved":false,"is_disabled":false,"rental_uris":{"android":"levelo://app?vid=23931e92-aae4-49d3-a6ec-7e28158d6b03","ios":"levelo://app?vid=23931e92-aae4-49d3-a6ec-7e28158d6b03"},"vehicle_type_id":"4","last_reported":1745698207,"current_range_meters":16800,"station_id":"ce4bha92rcd13ifvqeh0","pricing_plan_id":"cebpf4jnsgd1na2vs0mg"},{"bike_id":"560f12bb-1614-4d7c-b78e-ccf5bdec9ea6","system_id":"levelo_inurba_marseille","lat":43.28463,"lon":5.35891,"is_reserved":false,"is_disabled":true,"rental_uris":{"android":"levelo://app?vid=560f12bb-1614-4d7c-b78e-ccf5bdec9ea6","ios":"levelo://app?vid=560f12bb-1614-4d7c-b78e-ccf5bdec9ea6"},"vehicle_type_id":"4","last_reported":1745698207,"current_range_meters":16800,"station_id":"ce4bhah2rcd13ifvqei0","pricing_plan_id":"cebpf4jnsgd1na2vs0mg"},{"bike_id":"df4070e3-4f59-4a51-95c6-c4e23705b8e8","system_id":"levelo_inurba_marseille","lat":43.30959,"lon":5.39039,"is_reserved":false,"is_disabled":false,"rental_uris":{"android":"levelo://app?vid=df4070e3-4f59-4a51-95c6-c4e23705b8e8","ios":"levelo://app?vid=df4070e3-4f59-4a51-95c6-c4e23705b8e8"},"vehicle_type_id":"4","last_reported":1745698207,"current_range_meters":17200,"station_id":"ce4bgup2rcd13ifvqco0","pricing_plan_id":"cebpf4jnsgd1na2vs0mg"},{"bike_id":"1151cb4e-77a4-4dff-bbca-e4ed27240ffc","system_id":"levelo_inurba_marseille","lat":43.28335,"lon":5.38111,"is_reserved":false,"is_disabled":false,"rental_uris":{"android":"levelo://app?vid=1151cb4e-77a4-4dff-bbca-e4ed27240ffc","ios":"levelo://app?vid=1151cb4e-77a4-4dff-bbca-e4ed27240ffc"},"vehicle_type_id":"4","last_reported":1745698207,"current_range_meters":17200,"station_id":"ce4bh412rcd13ifvqdr0","pricing_plan_id":"cebpf4jnsgd1na2vs0mg"},{"bike_id":"9ec3b5ec-a067-438d-934d-524d83921a54","system_id":"levelo_inurba_marseille","lat":43.27995,"lon":5.40013,"is_reserved":false,"is_disabled":false,"rental_uris":{"android":"levelo://app?vid=9ec3b5ec-a067-438d-934d-524d83921a54","ios":"levelo://app?vid=9ec3b5ec-a067-438d-934d-524d83921a54"},"vehicle_type_id":"4","last_reported":1745698207,"current_range_meters":17200,"station_id":"ce4bho92rcd13ifvqh4g","pricing_plan_id":"cebpf4jnsgd1na2vs0mg"},{"bike_id":"e289e8fb-7f4f-4a24-91cd-241de9351d47","system_id":"levelo_inurba_marseille","lat":43.30938,"lon":5.39076,"is_reserved":false,"is_disabled":false,"rental_uris":{"android":"levelo://app?vid=e289e8fb-7f4f-4a24-91cd-241de9351d47","ios":"levelo://app?vid=e289e8fb-7f4f-4a24-91cd-241de9351d47"},"vehicle_type_id":"4","last_reported":1745698207,"current_range_meters":17200,"station_id":"ce4bgup2rcd13ifvqco0","pricing_plan_id":"cebpf4jnsgd1na2vs0mg"},{"bike_id":"36f72b62-404a-4cad-b52d-5098868a566e","system_id":"levelo_inurba_marseille","lat":43.28856,"lon":5.35856,"is_reserved":false,"is_disabled":false,"rental_uris":{"android":"levelo://app?vid=36f72b62-404a-4cad-b52d-5098868a566e","ios":"levelo://app?vid=36f72b62-404a-4cad-b52d-5098868a566e"},"vehicle_type_id":"4","last_reported":1745698207,"current_range_meters":17600,"station_id":"ce4bhb12rcd13ifvqem0","pricing_plan_id":"cebpf4jnsgd1na2vs0mg"},{"bike_id":"8a8b3113-1b29-4eb8-aeb2-995a941e7c57","system_id":"levelo_inurba_marseille","lat":43.2952,"lon":5.3857,"is_reserved":false,"is_disabled":false,"rental_uris":{"android":"levelo://app?vid=8a8b3113-1b29-4eb8-aeb2-995a941e7c57","ios":"levelo://app?vid=8a8b3113-1b29-4eb8-aeb2-995a941e7c57"},"vehicle_type_id":"4","last_reported":1745698207,"current_range_meters":17600,"station_id":"ce4bgih2rcd13ifvqba0","pricing_plan_id":"cebpf4jnsgd1na2vs0mg"},{"bike_id":"47a0db4d-b8a0-40f6-9d41-04d50875ecf3","system_id":"levelo_inurba_marseille","lat":43.26556,"lon":5.37291,"is_reserved":false,"is_disabled":false,"rental_uris":{"android":"levelo://app?vid=47a0db4d-b8a0-40f6-9d41-04d50875ecf3","ios":"levelo://app?vid=47a0db4d-b8a0-40f6-9d41-04d50875ecf3"},"vehicle_type_id":"4","last_reported":1745698207,"current_range_meters":17600,"station_id":"ce4bhg12rcd13ifvqf70","pricing_plan_id":"cebpf4jnsgd1na2vs0mg"},{"bike_id":"a64b2b49-efca-4a83-aa27-2d10a783df3a","system_id":"levelo_inurba_marseille","lat":43.31363,"lon":5.3849,"is_reserved":false,"is_disabled":false,"rental_uris":{"android":"levelo://app?vid=a64b2b49-efca-4a83-aa27-2d10a783df3a","ios":"levelo://app?vid=a64b2b49-efca-4a83-aa27-2d10a783df3a"},"vehicle_type_id":"4","last_reported":1745698207,"current_range_meters":17600,"station_id":"ce4bgt92rcd13ifvqcf0","pricing_plan_id":"cebpf4jnsgd1na2vs0mg"},{"bike_id":"57ebd52c-bbc8-4a4d-8d80-2da8f6250dbd","system_id":"levelo_inurba_marseille","lat":43.27839,"lon":5.40699,"is_reserved":false,"is_disabled":true,"rental_uris":{"android":"levelo://app?vid=57ebd52c-bbc8-4a4d-8d80-2da8f6250dbd","ios":"levelo://app?vid=57ebd52c-bbc8-4a4d-8d80-2da8f6250dbd"},"vehicle_type_id":"4","last_reported":1745698207,"current_range_meters":17600,"station_id":"ce4bhnh2rcd13ifvqgtg","pricing_plan_id":"cebpf4jnsgd1na2vs0mg"},{"bike_id":"f5305303-a8dc-4eff-8605-93956100e0e6","system_id":"levelo_inurba_marseille","lat":43.29264,"lon":5.38434,"is_reserved":false,"is_disabled":false,"rental_uris":{"android":"levelo://app?vid=f5305303-a8dc-4eff-8605-93956100e0e6","ios":"levelo://app?vid=f5305303-a8dc-4eff-8605-93956100e0e6"},"vehicle_type_id":"4","last_reported":1745698207,"current_range_meters":17600,"station_id":"ce4bh692rcd13ifvqea0","pricing_plan_id":"cebpf4jnsgd1na2vs0mg"},{"bike_id":"99651831-fca2-438d-ab66-435769775bdf","system_id":"levelo_inurba_marseille","lat":43.32042,"lon":5.41544,"is_reserved":false,"is_disabled":false,"rental_uris":{"android":"levelo://app?vid=99651831-fca2-438d-ab66-435769775bdf","ios":"levelo://app?vid=99651831-fca2-438d-ab66-435769775bdf"},"vehicle_type_id":"4","last_reported":1745698207,"current_range_meters":17600,"station_id":"ce4bhq92rcd13ifvqhkg","pricing_plan_id":"cebpf4jnsgd1na2vs0mg"},{"bike_id":"edb7787a-c68b-4c3c-a204-0dcc8d513b0d","system_id":"levelo_inurba_marseille","lat":43.24676,"lon":5.38145,"is_reserved":false,"is_disabled":false,"rental_uris":{"android":"levelo://app?vid=edb7787a-c68b-4c3c-a204-0dcc8d513b0d","ios":"levelo://app?vid=edb7787a-c68b-4c3c-a204-0dcc8d513b0d"},"vehicle_type_id":"4","last_reported":1745698207,"current_range_meters":18000,"station_id":"ce4bhih2rcd13ifvqfr0","pricing_plan_id":"cebpf4jnsgd1na2vs0mg"},{"bike_id":"b673c4dd-5bdb-48a9-9acf-4d4837707a29","system_id":"levelo_inurba_marseille","lat":43.31482,"lon":5.37308,"is_reserved":false,"is_disabled":false,"rental_uris":{"android":"levelo://app?vid=b673c4dd-5bdb-48a9-9acf-4d4837707a29","ios":"levelo://app?vid=b673c4dd-5bdb-48a9-9acf-4d4837707a29"},"vehicle_type_id":"4","last_reported":1745698207,"current_range_meters":18000,"station_id":"ce4bgt12rcd13ifvqcd0","pricing_plan_id":"cebpf4jnsgd1na2vs0mg"},{"bike_id":"0d777af5-4166-475a-a6b9-6a0197032592","system_id":"levelo_inurba_marseille","lat":43.2326,"lon":5.35227,"is_reserved":false,"is_disabled":false,"rental_uris":{"android":"levelo://app?vid=0d777af5-4166-475a-a6b9-6a0197032592","ios":"levelo://app?vid=0d777af5-4166-475a-a6b9-6a0197032592"},"vehicle_type_id":"4","last_reported":1745698207,"current_range_meters":18000,"station_id":"","pricing_plan_id":"cebpf4jnsgd1na2vs0mg"},{"bike_id":"cf0d47bd-81d3-4c57-82db-02956e138e59","system_id":"levelo_inurba_marseille","lat":43.32366,"lon":5.38885,"is_reserved":false,"is_disabled":false,"rental_uris":{"android":"levelo://app?vid=cf0d47bd-81d3-4c57-82db-02956e138e59","ios":"levelo://app?vid=cf0d47bd-81d3-4c57-82db-02956e138e59"},"vehicle_type_id":"4","last_reported":1745698207,"current_range_meters":18000,"station_id":"ce4bhqp2rcd13ifvqhog","pricing_plan_id":"cebpf4jnsgd1na2vs0mg"},{"bike_id":"6379e4c5-b58c-4a88-b8a3-87b89d15be55","system_id":"levelo_inurba_marseille","lat":43.28666,"lon":5.3636,"is_reserved":false,"is_disabled":false,"rental_uris":{"android":"levelo://app?vid=6379e4c5-b58c-4a88-b8a3-87b89d15be55","ios":"levelo://app?vid=6379e4c5-b58c-4a88-b8a3-87b89d15be55"},"vehicle_type_id":"4","last_reported":1745698207,"current_range_meters":17600,"station_id":"ce4bhah2rcd13ifvqej0","pricing_plan_id":"cebpf4jnsgd1na2vs0mg"},{"bike_id":"06c92633-bbdb-4d25-bee6-736832763dcd","system_id":"levelo_inurba_marseille","lat":43.29609,"lon":5.3772,"is_reserved":false,"is_disabled":false,"rental_uris":{"android":"levelo://app?vid=06c92633-bbdb-4d25-bee6-736832763dcd","ios":"levelo://app?vid=06c92633-bbdb-4d25-bee6-736832763dcd"},"vehicle_type_id":"4","last_reported":1745698207,"current_range_meters":18000,"station_id":"ce4bgi92rcd13ifvqb90","pricing_plan_id":"cebpf4jnsgd1na2vs0mg"},{"bike_id":"2f43c472-623c-4a5d-bc26-dd9d34b029c4","system_id":"levelo_inurba_marseille","lat":43.29604,"lon":5.38089,"is_reserved":false,"is_disabled":false,"rental_uris":{"android":"levelo://app?vid=2f43c472-623c-4a5d-bc26-dd9d34b029c4","ios":"levelo://app?vid=2f43c472-623c-4a5d-bc26-dd9d34b029c4"},"vehicle_type_id":"4","last_reported":1745698207,"current_range_meters":18000,"station_id":"ce4bgl12rcd13ifvqbo0","pricing_plan_id":"cebpf4jnsgd1na2vs0mg"},{"bike_id":"a6ef5e73-9c2a-4c3a-b853-48e28d6dc161","system_id":"levelo_inurba_marseille","lat":43.31713,"lon":5.43706,"is_reserved":false,"is_disabled":true,"rental_uris":{"android":"levelo://app?vid=a6ef5e73-9c2a-4c3a-b853-48e28d6dc161","ios":"levelo://app?vid=a6ef5e73-9c2a-4c3a-b853-48e28d6dc161"},"vehicle_type_id":"4","last_reported":1745698207,"current_range_meters":18000,"station_id":"ce4bhp92rcd13ifvqhcg","pricing_plan_id":"cebpf4jnsgd1na2vs0mg"},{"bike_id":"a113ca61-1b57-4edd-88e3-7045d50c6844","system_id":"levelo_inurba_marseille","lat":43.25538,"lon":5.37668,"is_reserved":false,"is_disabled":false,"rental_uris":{"android":"levelo://app?vid=a113ca61-1b57-4edd-88e3-7045d50c6844","ios":"levelo://app?vid=a113ca61-1b57-4edd-88e3-7045d50c6844"},"vehicle_type_id":"4","last_reported":1745698207,"current_range_meters":18000,"station_id":"ce4bhh12rcd13ifvqff0","pricing_plan_id":"cebpf4jnsgd1na2vs0mg"},{"bike_id":"1fe84233-d6e6-400c-ba7e-765c53207954","system_id":"levelo_inurba_marseille","lat":43.26062,"lon":5.39397,"is_reserved":false,"is_disabled":false,"rental_uris":{"android":"levelo://app?vid=1fe84233-d6e6-400c-ba7e-765c53207954","ios":"levelo://app?vid=1fe84233-d6e6-400c-ba7e-765c53207954"},"vehicle_type_id":"4","last_reported":1745698207,"current_range_meters":18000,"station_id":"ce4bhh92rcd13ifvqfj0","pricing_plan_id":"cebpf4jnsgd1na2vs0mg"},{"bike_id":"4046a82f-66e8-4b55-bd0a-356edea772d8","system_id":"levelo_inurba_marseille","lat":43.30533,"lon":5.38177,"is_reserved":false,"is_disabled":false,"rental_uris":{"android":"levelo://app?vid=4046a82f-66e8-4b55-bd0a-356edea772d8","ios":"levelo://app?vid=4046a82f-66e8-4b55-bd0a-356edea772d8"},"vehicle_type_id":"4","last_reported":1745698207,"current_range_meters":18800,"station_id":"","pricing_plan_id":"cebpf4jnsgd1na2vs0mg"},{"bike_id":"1770817e-8bfd-4f87-976e-cd01f9db603e","system_id":"levelo_inurba_marseille","lat":43.29792,"lon":5.38098,"is_reserved":false,"is_disabled":false,"rental_uris":{"android":"levelo://app?vid=1770817e-8bfd-4f87-976e-cd01f9db603e","ios":"levelo://app?vid=1770817e-8bfd-4f87-976e-cd01f9db603e"},"vehicle_type_id":"4","last_reported":1745698207,"current_range_meters":18800,"station_id":"ce4bgip2rcd13ifvqbb0","pricing_plan_id":"cebpf4jnsgd1na2vs0mg"},{"bike_id":"3d934169-6946-46cc-87a4-ce5d03b77075","system_id":"levelo_inurba_marseille","lat":43.21739,"lon":5.34604,"is_reserved":false,"is_disabled":false,"rental_uris":{"android":"levelo://app?vid=3d934169-6946-46cc-87a4-ce5d03b77075","ios":"levelo://app?vid=3d934169-6946-46cc-87a4-ce5d03b77075"},"vehicle_type_id":"4","last_reported":1745698207,"current_range_meters":18800,"station_id":"","pricing_plan_id":"cebpf4jnsgd1na2vs0mg"},{"bike_id":"389fa13e-9fb8-4551-94cc-3437e858ed36","system_id":"levelo_inurba_marseille","lat":43.24164,"lon":5.36408,"is_reserved":false,"is_disabled":false,"rental_uris":{"android":"levelo://app?vid=389fa13e-9fb8-4551-94cc-3437e858ed36","ios":"levelo://app?vid=389fa13e-9fb8-4551-94cc-3437e858ed36"},"vehicle_type_id":"4","last_reported":1745698207,"current_range_meters":18800,"station_id":"cpo36qri1sfpv3e86is0","pricing_plan_id":"cebpf4jnsgd1na2vs0mg"},{"bike_id":"c23a0ded-5d59-4572-b56a-d572d31d8a12","system_id":"levelo_inurba_marseille","lat":43.29523,"lon":5.37513,"is_reserved":false,"is_disabled":false,"rental_uris":{"android":"levelo://app?vid=c23a0ded-5d59-4572-b56a-d572d31d8a12","ios":"levelo://app?vid=c23a0ded-5d59-4572-b56a-d572d31d8a12"},"vehicle_type_id":"4","last_reported":1745698207,"current_range_meters":18800,"station_id":"ce4bgkp2rcd13ifvqbmg","pricing_plan_id":"cebpf4jnsgd1na2vs0mg"},{"bike_id":"b330c3b4-8203-49c9-a4bf-5485d09a1d2d","system_id":"levelo_inurba_marseille","lat":43.30212,"lon":5.39448,"is_reserved":false,"is_disabled":true,"rental_uris":{"android":"levelo://app?vid=b330c3b4-8203-49c9-a4bf-5485d09a1d2d","ios":"levelo://app?vid=b330c3b4-8203-49c9-a4bf-5485d09a1d2d"},"vehicle_type_id":"4","last_reported":1745698207,"current_range_meters":18800,"station_id":"ce4bh0p2rcd13ifvqd70","pricing_plan_id":"cebpf4jnsgd1na2vs0mg"},{"bike_id":"73c5333a-c189-4fc0-ad51-ca5f99e74c3c","system_id":"levelo_inurba_marseille","lat":43.30948,"lon":5.3904,"is_reserved":false,"is_disabled":false,"rental_uris":{"android":"levelo://app?vid=73c5333a-c189-4fc0-ad51-ca5f99e74c3c","ios":"levelo://app?vid=73c5333a-c189-4fc0-ad51-ca5f99e74c3c"},"vehicle_type_id":"4","last_reported":1745698207,"current_range_meters":18800,"station_id":"ce4bgup2rcd13ifvqco0","pricing_plan_id":"cebpf4jnsgd1na2vs0mg"},{"bike_id":"99be1414-58ff-4752-826b-d0dcc4401711","system_id":"levelo_inurba_marseille","lat":43.24828,"lon":5.37448,"is_reserved":false,"is_disabled":true,"rental_uris":{"android":"levelo://app?vid=99be1414-58ff-4752-826b-d0dcc4401711","ios":"levelo://app?vid=99be1414-58ff-4752-826b-d0dcc4401711"},"vehicle_type_id":"4","last_reported":1745698207,"current_range_meters":18800,"station_id":"ce4bhgh2rcd13ifvqfb0","pricing_plan_id":"cebpf4jnsgd1na2vs0mg"},{"bike_id":"900afbe3-a32c-4b35-b52f-a1f3c40dd5ea","system_id":"levelo_inurba_marseille","lat":43.295273,"lon":5.385297,"is_reserved":false,"is_disabled":false,"rental_uris":{"android":"levelo://app?vid=900afbe3-a32c-4b35-b52f-a1f3c40dd5ea","ios":"levelo://app?vid=900afbe3-a32c-4b35-b52f-a1f3c40dd5ea"},"vehicle_type_id":"4","last_reported":1745698207,"current_range_meters":19200,"station_id":"ce4bgih2rcd13ifvqba0","pricing_plan_id":"cebpf4jnsgd1na2vs0mg"},{"bike_id":"f5181ff8-3bea-459d-9bd7-848090e8ed24","system_id":"levelo_inurba_marseille","lat":43.26555,"lon":5.37301,"is_reserved":false,"is_disabled":false,"rental_uris":{"android":"levelo://app?vid=f5181ff8-3bea-459d-9bd7-848090e8ed24","ios":"levelo://app?vid=f5181ff8-3bea-459d-9bd7-848090e8ed24"},"vehicle_type_id":"4","last_reported":1745698207,"current_range_meters":19200,"station_id":"ce4bhg12rcd13ifvqf70","pricing_plan_id":"cebpf4jnsgd1na2vs0mg"},{"bike_id":"1f8c9b6b-c7bf-484a-bd98-99b637b428f0","system_id":"levelo_inurba_marseille","lat":43.3054,"lon":5.36549,"is_reserved":false,"is_disabled":false,"rental_uris":{"android":"levelo://app?vid=1f8c9b6b-c7bf-484a-bd98-99b637b428f0","ios":"levelo://app?vid=1f8c9b6b-c7bf-484a-bd98-99b637b428f0"},"vehicle_type_id":"4","last_reported":1745698207,"current_range_meters":19200,"station_id":"ce4bgs12rcd13ifvqcag","pricing_plan_id":"cebpf4jnsgd1na2vs0mg"},{"bike_id":"2e83f228-2c9a-4c7b-ac28-7369bb0d367e","system_id":"levelo_inurba_marseille","lat":43.30791,"lon":5.37653,"is_reserved":false,"is_disabled":false,"rental_uris":{"android":"levelo://app?vid=2e83f228-2c9a-4c7b-ac28-7369bb0d367e","ios":"levelo://app?vid=2e83f228-2c9a-4c7b-ac28-7369bb0d367e"},"vehicle_type_id":"4","last_reported":1745698207,"current_range_meters":19200,"station_id":"ce4bgv92rcd13ifvqcq0","pricing_plan_id":"cebpf4jnsgd1na2vs0mg"},{"bike_id":"b80ba5b1-6585-4699-9110-47e8a8b8422a","system_id":"levelo_inurba_marseille","lat":43.29098,"lon":5.38145,"is_reserved":false,"is_disabled":false,"rental_uris":{"android":"levelo://app?vid=b80ba5b1-6585-4699-9110-47e8a8b8422a","ios":"levelo://app?vid=b80ba5b1-6585-4699-9110-47e8a8b8422a"},"vehicle_type_id":"4","last_reported":1745698207,"current_range_meters":18800,"station_id":"ce4bh512rcd13ifvqe2g","pricing_plan_id":"cebpf4jnsgd1na2vs0mg"},{"bike_id":"52aacdd4-5dab-403a-82ba-a1f9f36d8f0a","system_id":"levelo_inurba_marseille","lat":43.29524,"lon":5.38553,"is_reserved":false,"is_disabled":false,"rental_uris":{"android":"levelo://app?vid=52aacdd4-5dab-403a-82ba-a1f9f36d8f0a","ios":"levelo://app?vid=52aacdd4-5dab-403a-82ba-a1f9f36d8f0a"},"vehicle_type_id":"4","last_reported":1745698207,"current_range_meters":19200,"station_id":"ce4bgih2rcd13ifvqba0","pricing_plan_id":"cebpf4jnsgd1na2vs0mg"},{"bike_id":"ee91e759-fd4f-4a25-a3f6-499c38b9a204","system_id":"levelo_inurba_marseille","lat":43.30176,"lon":5.36628,"is_reserved":false,"is_disabled":false,"rental_uris":{"android":"levelo://app?vid=ee91e759-fd4f-4a25-a3f6-499c38b9a204","ios":"levelo://app?vid=ee91e759-fd4f-4a25-a3f6-499c38b9a204"},"vehicle_type_id":"4","last_reported":1745698207,"current_range_meters":19200,"station_id":"ce4bgrh2rcd13ifvqc8g","pricing_plan_id":"cebpf4jnsgd1na2vs0mg"},{"bike_id":"debe680f-b1a3-4533-aba7-db1fa459c7fd","system_id":"levelo_inurba_marseille","lat":43.24395,"lon":5.37058,"is_reserved":false,"is_disabled":false,"rental_uris":{"android":"levelo://app?vid=debe680f-b1a3-4533-aba7-db1fa459c7fd","ios":"levelo://app?vid=debe680f-b1a3-4533-aba7-db1fa459c7fd"},"vehicle_type_id":"4","last_reported":1745698207,"current_range_meters":19600,"station_id":"ce4bhhh2rcd13ifvqfk0","pricing_plan_id":"cebpf4jnsgd1na2vs0mg"},{"bike_id":"3816b344-e93c-4aff-b282-64d7bca51257","system_id":"levelo_inurba_marseille","lat":43.294992,"lon":5.386593,"is_reserved":false,"is_disabled":false,"rental_uris":{"android":"levelo://app?vid=3816b344-e93c-4aff-b282-64d7bca51257","ios":"levelo://app?vid=3816b344-e93c-4aff-b282-64d7bca51257"},"vehicle_type_id":"4","last_reported":1745698207,"current_range_meters":19600,"station_id":"ce4bh2h2rcd13ifvqdh0","pricing_plan_id":"cebpf4jnsgd1na2vs0mg"},{"bike_id":"bd1e9bfc-44ab-4ba8-ac65-465fae098948","system_id":"levelo_inurba_marseille","lat":43.3054,"lon":5.36704,"is_reserved":false,"is_disabled":false,"rental_uris":{"android":"levelo://app?vid=bd1e9bfc-44ab-4ba8-ac65-465fae098948","ios":"levelo://app?vid=bd1e9bfc-44ab-4ba8-ac65-465fae098948"},"vehicle_type_id":"4","last_reported":1745698207,"current_range_meters":19600,"station_id":"ce4bgrp2rcd13ifvqc9g","pricing_plan_id":"cebpf4jnsgd1na2vs0mg"},{"bike_id":"fa920b3c-acc4-4a35-85b5-178dbbc19e0b","system_id":"levelo_inurba_marseille","lat":43.2953,"lon":5.38551,"is_reserved":false,"is_disabled":false,"rental_uris":{"android":"levelo://app?vid=fa920b3c-acc4-4a35-85b5-178dbbc19e0b","ios":"levelo://app?vid=fa920b3c-acc4-4a35-85b5-178dbbc19e0b"},"vehicle_type_id":"4","last_reported":1745698207,"current_range_meters":19600,"station_id":"ce4bgih2rcd13ifvqba0","pricing_plan_id":"cebpf4jnsgd1na2vs0mg"},{"bike_id":"70693059-1431-44f5-85b0-f0808f53a9ae","system_id":"levelo_inurba_marseille","lat":43.27209,"lon":5.39178,"is_reserved":false,"is_disabled":false,"rental_uris":{"android":"levelo://app?vid=70693059-1431-44f5-85b0-f0808f53a9ae","ios":"levelo://app?vid=70693059-1431-44f5-85b0-f0808f53a9ae"},"vehicle_type_id":"4","last_reported":1745698207,"current_range_meters":19600,"station_id":"ce4bhhp2rcd13ifvqfm0","pricing_plan_id":"cebpf4jnsgd1na2vs0mg"},{"bike_id":"d013ffe6-3f41-41cb-9c5f-6efe89312988","system_id":"levelo_inurba_marseille","lat":43.30957,"lon":5.39067,"is_reserved":false,"is_disabled":false,"rental_uris":{"android":"levelo://app?vid=d013ffe6-3f41-41cb-9c5f-6efe89312988","ios":"levelo://app?vid=d013ffe6-3f41-41cb-9c5f-6efe89312988"},"vehicle_type_id":"4","last_reported":1745698207,"current_range_meters":19600,"station_id":"ce4bgup2rcd13ifvqco0","pricing_plan_id":"cebpf4jnsgd1na2vs0mg"},{"bike_id":"e22302d4-296f-4aeb-9107-eb3ee99f311f","system_id":"levelo_inurba_marseille","lat":43.24072,"lon":5.37765,"is_reserved":false,"is_disabled":false,"rental_uris":{"android":"levelo://app?vid=e22302d4-296f-4aeb-9107-eb3ee99f311f","ios":"levelo://app?vid=e22302d4-296f-4aeb-9107-eb3ee99f311f"},"vehicle_type_id":"4","last_reported":1745698207,"current_range_meters":20000,"station_id":"ce4bhnp2rcd13ifvqgvg","pricing_plan_id":"cebpf4jnsgd1na2vs0mg"},{"bike_id":"97f36b89-3f79-4d54-80b9-0001fe6da6bb","system_id":"levelo_inurba_marseille","lat":43.32445,"lon":5.39134,"is_reserved":false,"is_disabled":false,"rental_uris":{"android":"levelo://app?vid=97f36b89-3f79-4d54-80b9-0001fe6da6bb","ios":"levelo://app?vid=97f36b89-3f79-4d54-80b9-0001fe6da6bb"},"vehicle_type_id":"4","last_reported":1745698207,"current_range_meters":20000,"station_id":"","pricing_plan_id":"cebpf4jnsgd1na2vs0mg"},{"bike_id":"a4e2dfba-2205-4b40-a76c-babd6ac0aa58","system_id":"levelo_inurba_marseille","lat":43.30139,"lon":5.38781,"is_reserved":false,"is_disabled":false,"rental_uris":{"android":"levelo://app?vid=a4e2dfba-2205-4b40-a76c-babd6ac0aa58","ios":"levelo://app?vid=a4e2dfba-2205-4b40-a76c-babd6ac0aa58"},"vehicle_type_id":"4","last_reported":1745698207,"current_range_meters":20000,"station_id":"ce4bghh2rcd13ifvqb60","pricing_plan_id":"cebpf4jnsgd1na2vs0mg"},{"bike_id":"6dfad5a3-fb79-434a-b230-fd9d763b4988","system_id":"levelo_inurba_marseille","lat":43.29421,"lon":5.38622,"is_reserved":false,"is_disabled":false,"rental_uris":{"android":"levelo://app?vid=6dfad5a3-fb79-434a-b230-fd9d763b4988","ios":"levelo://app?vid=6dfad5a3-fb79-434a-b230-fd9d763b4988"},"vehicle_type_id":"4","last_reported":1745698207,"current_range_meters":20000,"station_id":"ce4bh2h2rcd13ifvqdh0","pricing_plan_id":"cebpf4jnsgd1na2vs0mg"},{"bike_id":"173c2f79-e499-4a63-9feb-0bea2d86f8aa","system_id":"levelo_inurba_marseille","lat":43.29252,"lon":5.38447,"is_reserved":false,"is_disabled":false,"rental_uris":{"android":"levelo://app?vid=173c2f79-e499-4a63-9feb-0bea2d86f8aa","ios":"levelo://app?vid=173c2f79-e499-4a63-9feb-0bea2d86f8aa"},"vehicle_type_id":"4","last_reported":1745698207,"current_range_meters":20000,"station_id":"ce4bh692rcd13ifvqea0","pricing_plan_id":"cebpf4jnsgd1na2vs0mg"},{"bike_id":"f3d727bf-cfa2-46ad-b27c-63a0ba12f76f","system_id":"levelo_inurba_marseille","lat":43.31119,"lon":5.37765,"is_reserved":false,"is_disabled":false,"rental_uris":{"android":"levelo://app?vid=f3d727bf-cfa2-46ad-b27c-63a0ba12f76f","ios":"levelo://app?vid=f3d727bf-cfa2-46ad-b27c-63a0ba12f76f"},"vehicle_type_id":"4","last_reported":1745698207,"current_range_meters":20000,"station_id":"ce4bgt92rcd13ifvqcg0","pricing_plan_id":"cebpf4jnsgd1na2vs0mg"},{"bike_id":"e492037e-60a9-4864-84d6-2fe9ea031f90","system_id":"levelo_inurba_marseille","lat":43.27959,"lon":5.38725,"is_reserved":false,"is_disabled":false,"rental_uris":{"android":"levelo://app?vid=e492037e-60a9-4864-84d6-2fe9ea031f90","ios":"levelo://app?vid=e492037e-60a9-4864-84d6-2fe9ea031f90"},"vehicle_type_id":"4","last_reported":1745698207,"current_range_meters":20400,"station_id":"ce4bhg12rcd13ifvqf80","pricing_plan_id":"cebpf4jnsgd1na2vs0mg"},{"bike_id":"efe7d138-7111-44db-aab3-a4db3d0eba8e","system_id":"levelo_inurba_marseille","lat":43.24043,"lon":5.37737,"is_reserved":false,"is_disabled":false,"rental_uris":{"android":"levelo://app?vid=efe7d138-7111-44db-aab3-a4db3d0eba8e","ios":"levelo://app?vid=efe7d138-7111-44db-aab3-a4db3d0eba8e"},"vehicle_type_id":"4","last_reported":1745698207,"current_range_meters":20400,"station_id":"ce4bhnp2rcd13ifvqgvg","pricing_plan_id":"cebpf4jnsgd1na2vs0mg"},{"bike_id":"fead7f2e-d50d-4db3-a12a-2e5699601dfb","system_id":"levelo_inurba_marseille","lat":43.29882,"lon":5.37473,"is_reserved":false,"is_disabled":false,"rental_uris":{"android":"levelo://app?vid=fead7f2e-d50d-4db3-a12a-2e5699601dfb","ios":"levelo://app?vid=fead7f2e-d50d-4db3-a12a-2e5699601dfb"},"vehicle_type_id":"4","last_reported":1745698207,"current_range_meters":20400,"station_id":"ce4bgjh2rcd13ifvqbg0","pricing_plan_id":"cebpf4jnsgd1na2vs0mg"},{"bike_id":"2150d908-de18-435c-b409-34ee44a9880a","system_id":"levelo_inurba_marseille","lat":43.29915,"lon":5.38128,"is_reserved":false,"is_disabled":false,"rental_uris":{"android":"levelo://app?vid=2150d908-de18-435c-b409-34ee44a9880a","ios":"levelo://app?vid=2150d908-de18-435c-b409-34ee44a9880a"},"vehicle_type_id":"4","last_reported":1745698207,"current_range_meters":20800,"station_id":"ce4bgj12rcd13ifvqbc0","pricing_plan_id":"cebpf4jnsgd1na2vs0mg"},{"bike_id":"70c2468b-35ea-4891-88da-99eb7da043b9","system_id":"levelo_inurba_marseille","lat":43.24998,"lon":5.38932,"is_reserved":false,"is_disabled":false,"rental_uris":{"android":"levelo://app?vid=70c2468b-35ea-4891-88da-99eb7da043b9","ios":"levelo://app?vid=70c2468b-35ea-4891-88da-99eb7da043b9"},"vehicle_type_id":"4","last_reported":1745698207,"current_range_meters":20800,"station_id":"ce4bhgp2rcd13ifvqfd0","pricing_plan_id":"cebpf4jnsgd1na2vs0mg"},{"bike_id":"283db209-a21c-4011-b163-dfb350f9335d","system_id":"levelo_inurba_marseille","lat":43.26568,"lon":5.3902,"is_reserved":false,"is_disabled":false,"rental_uris":{"android":"levelo://app?vid=283db209-a21c-4011-b163-dfb350f9335d","ios":"levelo://app?vid=283db209-a21c-4011-b163-dfb350f9335d"},"vehicle_type_id":"4","last_reported":1745698207,"current_range_meters":20800,"station_id":"ce4bhe12rcd13ifvqf30","pricing_plan_id":"cebpf4jnsgd1na2vs0mg"},{"bike_id":"6d593226-0a2e-46d4-8de3-9c8bd9d3e674","system_id":"levelo_inurba_marseille","lat":43.29784,"lon":5.381,"is_reserved":false,"is_disabled":true,"rental_uris":{"android":"levelo://app?vid=6d593226-0a2e-46d4-8de3-9c8bd9d3e674","ios":"levelo://app?vid=6d593226-0a2e-46d4-8de3-9c8bd9d3e674"},"vehicle_type_id":"4","last_reported":1745698207,"current_range_meters":20800,"station_id":"ce4bgip2rcd13ifvqbb0","pricing_plan_id":"cebpf4jnsgd1na2vs0mg"},{"bike_id":"53c2b4b2-321c-4d33-b42b-43c7de43142e","system_id":"levelo_inurba_marseille","lat":43.30457,"lon":5.3791,"is_reserved":false,"is_disabled":false,"rental_uris":{"android":"levelo://app?vid=53c2b4b2-321c-4d33-b42b-43c7de43142e","ios":"levelo://app?vid=53c2b4b2-321c-4d33-b42b-43c7de43142e"},