{"last_updated":1748393659,"ttl":60,"version":"2.2","data":{"bikes":[{"bike_id":"01c822f1-ca24-4d89-8308-f114693ee0ba","system_id":"levelo_inurba_marseille","lat":43.30093,"lon":5.39869,"is_reserved":false,"is_disabled":true,"rental_uris":{"android":"levelo://app?vid=01c822f1-ca24-4d89-8308-f114693ee0ba","ios":"levelo://app?vid=01c822f1-ca24-4d89-8308-f114693ee0ba"},"vehicle_type_id":"4","last_reported":1748393659,"current_range_meters":2800,"station_id":"ce4bh0h2rcd13ifvqd40","pricing_plan_id":"cebpf4jnsgd1na2vs0mg"},{"bike_id":"73f138f2-14d8-4ce4-aa98-7c07ec00d12a","system_id":"levelo_inurba_marseille","lat":43.28327,"lon":5.3808,"is_reserved":false,"is_disabled":false,"rental_uris":{"android":"levelo://app?vid=73f138f2-14d8-4ce4-aa98-7c07ec00d12a","ios":"levelo://app?vid=73f138f2-14d8-4ce4-aa98-7c07ec00d12a"},"vehicle_type_id":"4","last_reported":1748393659,"current_range_meters":3200,"station_id":"ce4bh412rcd13ifvqdr0","pricing_plan_id":"cebpf4jnsgd1na2vs0mg"},{"bike_id":"fc56555b-396d-4667-b896-0ad86036e39e","system_id":"levelo_inurba_marseille","lat":43.25913,"lon":5.38044,"is_reserved":false,"is_disabled":false,"rental_uris":{"android":"levelo://app?vid=fc56555b-396d-4667-b896-0ad86036e39e","ios":"levelo://app?vid=fc56555b-396d-4667-b896-0ad86036e39e"},"vehicle_type_id":"4","last_reported":1748393659,"current_range_meters":3200,"station_id":"","pricing_plan_id":"cebpf4jnsgd1na2vs0mg"},{"bike_id":"a4aef2b9-b7e8-4e2d-8340-592d28bc6c85","system_id":"levelo_inurba_marseille","lat":43.337654,"lon":5.37434,"is_reserved":false,"is_disabled":false,"rental_uris":{"android":"levelo://app?vid=a4aef2b9-b7e8-4e2d-8340-592d28bc6c85","ios":"levelo://app?vid=a4aef2b9-b7e8-4e2d-8340-592d28bc6c85"},"vehicle_type_id":"4","last_reported":1748393659,"current_range_meters":3200,"station_id":"","pricing_plan_id":"cebpf4jnsgd1na2vs0mg"},{"bike_id":"bfad48c6-cf44-424c-a1ee-d7500f254bf2","system_id":"levelo_inurba_marseille","lat":43.28889,"lon":5.36056,"is_reserved":false,"is_disabled":false,"rental_uris":{"android":"levelo://app?vid=bfad48c6-cf44-424c-a1ee-d7500f254bf2","ios":"levelo://app?vid=bfad48c6-cf44-424c-a1ee-d7500f254bf2"},"vehicle_type_id":"4","last_reported":1748393659,"current_range_meters":3200,"station_id":"","pricing_plan_id":"cebpf4jnsgd1na2vs0mg"},{"bike_id":"f01d4908-c8c0-40ee-80a6-4720c5b19a8b","system_id":"levelo_inurba_marseille","lat":43.24166,"lon":5.36407,"is_reserved":false,"is_disabled":true,"rental_uris":{"android":"levelo://app?vid=f01d4908-c8c0-40ee-80a6-4720c5b19a8b","ios":"levelo://app?vid=f01d4908-c8c0-40ee-80a6-4720c5b19a8b"},"vehicle_type_id":"4","last_reported":1748393659,"current_range_meters":3200,"station_id":"cpo36qri1sfpv3e86is0","pricing_plan_id":"cebpf4jnsgd1na2vs0mg"},{"bike_id":"ee12f7eb-6381-4b34-9032-03bfdc347dc5","system_id":"levelo_inurba_marseille","lat":43.28697,"lon":5.37404,"is_reserved":false,"is_disabled":false,"rental_uris":{"android":"levelo://app?vid=ee12f7eb-6381-4b34-9032-03bfdc347dc5","ios":"levelo://app?vid=ee12f7eb-6381-4b34-9032-03bfdc347dc5"},"vehicle_type_id":"4","last_reported":1748393659,"current_range_meters":3200,"station_id":"ce4bh3p2rcd13ifvqdq0","pricing_plan_id":"cebpf4jnsgd1na2vs0mg"},{"bike_id":"4b36678c-bba4-4c34-9c08-e03c8db196a6","system_id":"levelo_inurba_marseille","lat":43.2869,"lon":5.37399,"is_reserved":false,"is_disabled":false,"rental_uris":{"android":"levelo://app?vid=4b36678c-bba4-4c34-9c08-e03c8db196a6","ios":"levelo://app?vid=4b36678c-bba4-4c34-9c08-e03c8db196a6"},"vehicle_type_id":"4","last_reported":1748393659,"current_range_meters":3600,"station_id":"ce4bh3p2rcd13ifvqdq0","pricing_plan_id":"cebpf4jnsgd1na2vs0mg"},{"bike_id":"f1733994-596a-42d8-ba1f-289ddc36b89b","system_id":"levelo_inurba_marseille","lat":43.22519,"lon":5.34817,"is_reserved":false,"is_disabled":false,"rental_uris":{"android":"levelo://app?vid=f1733994-596a-42d8-ba1f-289ddc36b89b","ios":"levelo://app?vid=f1733994-596a-42d8-ba1f-289ddc36b89b"},"vehicle_type_id":"4","last_reported":1748393659,"current_range_meters":3600,"station_id":"","pricing_plan_id":"cebpf4jnsgd1na2vs0mg"},{"bike_id":"adba12e7-5206-46f0-b5ae-d736cc8dba7d","system_id":"levelo_inurba_marseille","lat":43.276614,"lon":5.388795,"is_reserved":false,"is_disabled":true,"rental_uris":{"android":"levelo://app?vid=adba12e7-5206-46f0-b5ae-d736cc8dba7d","ios":"levelo://app?vid=adba12e7-5206-46f0-b5ae-d736cc8dba7d"},"vehicle_type_id":"4","last_reported":1748393659,"current_range_meters":3600,"station_id":"ce4bhgp2rcd13ifvqfe0","pricing_plan_id":"cebpf4jnsgd1na2vs0mg"},{"bike_id":"301bf0f9-9b48-466e-a883-4d218136fa68","system_id":"levelo_inurba_marseille","lat":43.28708,"lon":5.37396,"is_reserved":false,"is_disabled":false,"rental_uris":{"android":"levelo://app?vid=301bf0f9-9b48-466e-a883-4d218136fa68","ios":"levelo://app?vid=301bf0f9-9b48-466e-a883-4d218136fa68"},"vehicle_type_id":"4","last_reported":1748393659,"current_range_meters":3600,"station_id":"ce4bh3p2rcd13ifvqdq0","pricing_plan_id":"cebpf4jnsgd1na2vs0mg"},{"bike_id":"fd908bdf-5d81-4122-b313-442572d15912","system_id":"levelo_inurba_marseille","lat":43.2951,"lon":5.39375,"is_reserved":false,"is_disabled":true,"rental_uris":{"android":"levelo://app?vid=fd908bdf-5d81-4122-b313-442572d15912","ios":"levelo://app?vid=fd908bdf-5d81-4122-b313-442572d15912"},"vehicle_type_id":"4","last_reported":1748393659,"current_range_meters":4000,"station_id":"ce4bh292rcd13ifvqdf0","pricing_plan_id":"cebpf4jnsgd1na2vs0mg"},{"bike_id":"069da931-ad7a-46e7-83f2-3e021650a079","system_id":"levelo_inurba_marseille","lat":43.287202,"lon":5.3999,"is_reserved":false,"is_disabled":true,"rental_uris":{"android":"levelo://app?vid=069da931-ad7a-46e7-83f2-3e021650a079","ios":"levelo://app?vid=069da931-ad7a-46e7-83f2-3e021650a079"},"vehicle_type_id":"4","last_reported":1748393659,"current_range_meters":4000,"station_id":"ce4bho92rcd13ifvqh3g","pricing_plan_id":"cebpf4jnsgd1na2vs0mg"},{"bike_id":"dbbd17bb-e688-45ea-8f54-808d482736fe","system_id":"levelo_inurba_marseille","lat":43.27369,"lon":5.36251,"is_reserved":false,"is_disabled":false,"rental_uris":{"android":"levelo://app?vid=dbbd17bb-e688-45ea-8f54-808d482736fe","ios":"levelo://app?vid=dbbd17bb-e688-45ea-8f54-808d482736fe"},"vehicle_type_id":"4","last_reported":1748393659,"current_range_meters":4000,"station_id":"ce4bhbh2rcd13ifvqeo0","pricing_plan_id":"cebpf4jnsgd1na2vs0mg"},{"bike_id":"2d393347-525f-40cd-8bc8-636e6636ef28","system_id":"levelo_inurba_marseille","lat":43.26233,"lon":5.40455,"is_reserved":false,"is_disabled":false,"rental_uris":{"android":"levelo://app?vid=2d393347-525f-40cd-8bc8-636e6636ef28","ios":"levelo://app?vid=2d393347-525f-40cd-8bc8-636e6636ef28"},"vehicle_type_id":"4","last_reported":1748393659,"current_range_meters":4400,"station_id":"ce4bhmh2rcd13ifvqgmg","pricing_plan_id":"cebpf4jnsgd1na2vs0mg"},{"bike_id":"2deb837f-60f5-41e9-9613-f643799ee2cc","system_id":"levelo_inurba_marseille","lat":43.24546,"lon":5.39527,"is_reserved":false,"is_disabled":false,"rental_uris":{"android":"levelo://app?vid=2deb837f-60f5-41e9-9613-f643799ee2cc","ios":"levelo://app?vid=2deb837f-60f5-41e9-9613-f643799ee2cc"},"vehicle_type_id":"4","last_reported":1748393659,"current_range_meters":4400,"station_id":"ce4bhlp2rcd13ifvqgjg","pricing_plan_id":"cebpf4jnsgd1na2vs0mg"},{"bike_id":"2f50dc5b-dd1a-4fd7-b3a4-bca2ea8883de","system_id":"levelo_inurba_marseille","lat":43.320006,"lon":5.381591,"is_reserved":false,"is_disabled":false,"rental_uris":{"android":"levelo://app?vid=2f50dc5b-dd1a-4fd7-b3a4-bca2ea8883de","ios":"levelo://app?vid=2f50dc5b-dd1a-4fd7-b3a4-bca2ea8883de"},"vehicle_type_id":"4","last_reported":1748393659,"current_range_meters":4400,"station_id":"ce4bhr12rcd13ifvqhpg","pricing_plan_id":"cebpf4jnsgd1na2vs0mg"},{"bike_id":"da65d91d-801e-4ed3-aae5-38bce5ff6ca6","system_id":"levelo_inurba_marseille","lat":43.310746,"lon":5.383516,"is_reserved":false,"is_disabled":false,"rental_uris":{"android":"levelo://app?vid=da65d91d-801e-4ed3-aae5-38bce5ff6ca6","ios":"levelo://app?vid=da65d91d-801e-4ed3-aae5-38bce5ff6ca6"},"vehicle_type_id":"4","last_reported":1748393659,"current_range_meters":4400,"station_id":"ce4bgv92rcd13ifvqcr0","pricing_plan_id":"cebpf4jnsgd1na2vs0mg"},{"bike_id":"8e1e3d14-39e1-40c6-a572-79984978bd7d","system_id":"levelo_inurba_marseille","lat":43.22508,"lon":5.34791,"is_reserved":false,"is_disabled":false,"rental_uris":{"android":"levelo://app?vid=8e1e3d14-39e1-40c6-a572-79984978bd7d","ios":"levelo://app?vid=8e1e3d14-39e1-40c6-a572-79984978bd7d"},"vehicle_type_id":"4","last_reported":1748393659,"current_range_meters":5600,"station_id":"","pricing_plan_id":"cebpf4jnsgd1na2vs0mg"},{"bike_id":"1e554509-568d-4da0-be2c-33eb861263ab","system_id":"levelo_inurba_marseille","lat":43.2997,"lon":5.41339,"is_reserved":false,"is_disabled":false,"rental_uris":{"android":"levelo://app?vid=1e554509-568d-4da0-be2c-33eb861263ab","ios":"levelo://app?vid=1e554509-568d-4da0-be2c-33eb861263ab"},"vehicle_type_id":"4","last_reported":1748393659,"current_range_meters":5600,"station_id":"ce4bhp12rcd13ifvqh9g","pricing_plan_id":"cebpf4jnsgd1na2vs0mg"},{"bike_id":"911ddcc0-fd4b-441e-8818-2c48c0210aad","system_id":"levelo_inurba_marseille","lat":43.25096,"lon":5.39537,"is_reserved":false,"is_disabled":false,"rental_uris":{"android":"levelo://app?vid=911ddcc0-fd4b-441e-8818-2c48c0210aad","ios":"levelo://app?vid=911ddcc0-fd4b-441e-8818-2c48c0210aad"},"vehicle_type_id":"4","last_reported":1748393659,"current_range_meters":5600,"station_id":"ce4bhm12rcd13ifvqgkg","pricing_plan_id":"cebpf4jnsgd1na2vs0mg"},{"bike_id":"87b8ee4c-fa01-47cc-a362-ca90e16bee98","system_id":"levelo_inurba_marseille","lat":43.30318,"lon":5.40439,"is_reserved":false,"is_disabled":false,"rental_uris":{"android":"levelo://app?vid=87b8ee4c-fa01-47cc-a362-ca90e16bee98","ios":"levelo://app?vid=87b8ee4c-fa01-47cc-a362-ca90e16bee98"},"vehicle_type_id":"4","last_reported":1748393659,"current_range_meters":5600,"station_id":"ce4bh012rcd13ifvqd10","pricing_plan_id":"cebpf4jnsgd1na2vs0mg"},{"bike_id":"c0e8dbd5-9ec0-46b4-9176-6ba6be298f0d","system_id":"levelo_inurba_marseille","lat":43.27087,"lon":5.4229,"is_reserved":false,"is_disabled":false,"rental_uris":{"android":"levelo://app?vid=c0e8dbd5-9ec0-46b4-9176-6ba6be298f0d","ios":"levelo://app?vid=c0e8dbd5-9ec0-46b4-9176-6ba6be298f0d"},"vehicle_type_id":"4","last_reported":1748393659,"current_range_meters":6000,"station_id":"ce4bhk92rcd13ifvqgb0","pricing_plan_id":"cebpf4jnsgd1na2vs0mg"},{"bike_id":"f2f2c857-6ce7-4f18-9462-4e16197878f1","system_id":"levelo_inurba_marseille","lat":43.31717,"lon":5.37793,"is_reserved":false,"is_disabled":false,"rental_uris":{"android":"levelo://app?vid=f2f2c857-6ce7-4f18-9462-4e16197878f1","ios":"levelo://app?vid=f2f2c857-6ce7-4f18-9462-4e16197878f1"},"vehicle_type_id":"4","last_reported":1748393659,"current_range_meters":6000,"station_id":"ce4bgth2rcd13ifvqch0","pricing_plan_id":"cebpf4jnsgd1na2vs0mg"},{"bike_id":"3a257052-2ee4-4d33-9e33-3926dfd10810","system_id":"levelo_inurba_marseille","lat":43.310771,"lon":5.383501,"is_reserved":false,"is_disabled":false,"rental_uris":{"android":"levelo://app?vid=3a257052-2ee4-4d33-9e33-3926dfd10810","ios":"levelo://app?vid=3a257052-2ee4-4d33-9e33-3926dfd10810"},"vehicle_type_id":"4","last_reported":1748393659,"current_range_meters":6000,"station_id":"ce4bgv92rcd13ifvqcr0","pricing_plan_id":"cebpf4jnsgd1na2vs0mg"},{"bike_id":"7cffe0f5-0c22-42fa-8a03-ff2d1a3770c2","system_id":"levelo_inurba_marseille","lat":43.29439,"lon":5.39783,"is_reserved":false,"is_disabled":false,"rental_uris":{"android":"levelo://app?vid=7cffe0f5-0c22-42fa-8a03-ff2d1a3770c2","ios":"levelo://app?vid=7cffe0f5-0c22-42fa-8a03-ff2d1a3770c2"},"vehicle_type_id":"4","last_reported":1748393659,"current_range_meters":6000,"station_id":"ce4bh3h2rcd13ifvqdo0","pricing_plan_id":"cebpf4jnsgd1na2vs0mg"},{"bike_id":"c2b0a191-bf31-4e89-8dc5-11d646e535b1","system_id":"levelo_inurba_marseille","lat":43.254969,"lon":5.37649,"is_reserved":false,"is_disabled":false,"rental_uris":{"android":"levelo://app?vid=c2b0a191-bf31-4e89-8dc5-11d646e535b1","ios":"levelo://app?vid=c2b0a191-bf31-4e89-8dc5-11d646e535b1"},"vehicle_type_id":"4","last_reported":1748393659,"current_range_meters":6000,"station_id":"","pricing_plan_id":"cebpf4jnsgd1na2vs0mg"},{"bike_id":"3ec21973-a1d7-4ca4-be49-3fc654fc1ac2","system_id":"levelo_inurba_marseille","lat":43.26792,"lon":5.40266,"is_reserved":false,"is_disabled":false,"rental_uris":{"android":"levelo://app?vid=3ec21973-a1d7-4ca4-be49-3fc654fc1ac2","ios":"levelo://app?vid=3ec21973-a1d7-4ca4-be49-3fc654fc1ac2"},"vehicle_type_id":"4","last_reported":1748393659,"current_range_meters":6000,"station_id":"ce501612rcd8frsf0b60","pricing_plan_id":"cebpf4jnsgd1na2vs0mg"},{"bike_id":"1a0998e5-8bb9-474f-a827-53cad24c9e8f","system_id":"levelo_inurba_marseille","lat":43.32031,"lon":5.449484,"is_reserved":false,"is_disabled":false,"rental_uris":{"android":"levelo://app?vid=1a0998e5-8bb9-474f-a827-53cad24c9e8f","ios":"levelo://app?vid=1a0998e5-8bb9-474f-a827-53cad24c9e8f"},"vehicle_type_id":"4","last_reported":1748393659,"current_range_meters":6400,"station_id":"","pricing_plan_id":"cebpf4jnsgd1na2vs0mg"},{"bike_id":"507e72b9-2648-4d53-a3bc-aa45c2198a2e","system_id":"levelo_inurba_marseille","lat":43.30657,"lon":5.40113,"is_reserved":false,"is_disabled":true,"rental_uris":{"android":"levelo://app?vid=507e72b9-2648-4d53-a3bc-aa45c2198a2e","ios":"levelo://app?vid=507e72b9-2648-4d53-a3bc-aa45c2198a2e"},"vehicle_type_id":"4","last_reported":1748393659,"current_range_meters":6400,"station_id":"ce4bh112rcd13ifvqda0","pricing_plan_id":"cebpf4jnsgd1na2vs0mg"},{"bike_id":"2914fcca-c633-4846-9c38-6c67f5591bc9","system_id":"levelo_inurba_marseille","lat":43.28721,"lon":5.3999,"is_reserved":false,"is_disabled":false,"rental_uris":{"android":"levelo://app?vid=2914fcca-c633-4846-9c38-6c67f5591bc9","ios":"levelo://app?vid=2914fcca-c633-4846-9c38-6c67f5591bc9"},"vehicle_type_id":"4","last_reported":1748393659,"current_range_meters":6400,"station_id":"ce4bho92rcd13ifvqh3g","pricing_plan_id":"cebpf4jnsgd1na2vs0mg"},{"bike_id":"2621921b-742a-4cef-8fb9-86afebf4ef48","system_id":"levelo_inurba_marseille","lat":43.268081,"lon":5.402544,"is_reserved":false,"is_disabled":false,"rental_uris":{"android":"levelo://app?vid=2621921b-742a-4cef-8fb9-86afebf4ef48","ios":"levelo://app?vid=2621921b-742a-4cef-8fb9-86afebf4ef48"},"vehicle_type_id":"4","last_reported":1748393659,"current_range_meters":6400,"station_id":"ce501612rcd8frsf0b60","pricing_plan_id":"cebpf4jnsgd1na2vs0mg"},{"bike_id":"7627ffc5-ed0e-411a-ba5b-9296e495f37c","system_id":"levelo_inurba_marseille","lat":43.307973,"lon":5.381697,"is_reserved":false,"is_disabled":false,"rental_uris":{"android":"levelo://app?vid=7627ffc5-ed0e-411a-ba5b-9296e495f37c","ios":"levelo://app?vid=7627ffc5-ed0e-411a-ba5b-9296e495f37c"},"vehicle_type_id":"4","last_reported":1748393659,"current_range_meters":6400,"station_id":"ce4bgt12rcd13ifvqce0","pricing_plan_id":"cebpf4jnsgd1na2vs0mg"},{"bike_id":"ca39f4ef-0212-44c3-b77e-5ab03fae5e5a","system_id":"levelo_inurba_marseille","lat":43.3026,"lon":5.40041,"is_reserved":false,"is_disabled":false,"rental_uris":{"android":"levelo://app?vid=ca39f4ef-0212-44c3-b77e-5ab03fae5e5a","ios":"levelo://app?vid=ca39f4ef-0212-44c3-b77e-5ab03fae5e5a"},"vehicle_type_id":"4","last_reported":1748393659,"current_range_meters":6400,"station_id":"ce4bgvh2rcd13ifvqcs0","pricing_plan_id":"cebpf4jnsgd1na2vs0mg"},{"bike_id":"c698dd58-c091-48d8-94f5-37450fb5f29f","system_id":"levelo_inurba_marseille","lat":43.309553,"lon":5.390343,"is_reserved":false,"is_disabled":false,"rental_uris":{"android":"levelo://app?vid=c698dd58-c091-48d8-94f5-37450fb5f29f","ios":"levelo://app?vid=c698dd58-c091-48d8-94f5-37450fb5f29f"},"vehicle_type_id":"4","last_reported":1748393659,"current_range_meters":6800,"station_id":"ce4bgup2rcd13ifvqco0","pricing_plan_id":"cebpf4jnsgd1na2vs0mg"},{"bike_id":"2badb821-2859-4b8d-9b1a-9dfbe62ae729","system_id":"levelo_inurba_marseille","lat":43.303192,"lon":5.404406,"is_reserved":false,"is_disabled":false,"rental_uris":{"android":"levelo://app?vid=2badb821-2859-4b8d-9b1a-9dfbe62ae729","ios":"levelo://app?vid=2badb821-2859-4b8d-9b1a-9dfbe62ae729"},"vehicle_type_id":"4","last_reported":1748393659,"current_range_meters":6800,"station_id":"ce4bh012rcd13ifvqd10","pricing_plan_id":"cebpf4jnsgd1na2vs0mg"},{"bike_id":"ae6e6868-2635-4f49-b7c1-b03759c58ec7","system_id":"levelo_inurba_marseille","lat":43.27297,"lon":5.41627,"is_reserved":false,"is_disabled":false,"rental_uris":{"android":"levelo://app?vid=ae6e6868-2635-4f49-b7c1-b03759c58ec7","ios":"levelo://app?vid=ae6e6868-2635-4f49-b7c1-b03759c58ec7"},"vehicle_type_id":"4","last_reported":1748393659,"current_range_meters":6800,"station_id":"","pricing_plan_id":"cebpf4jnsgd1na2vs0mg"},{"bike_id":"e9822bf6-601d-4e3b-a97c-5d51f2fe51a3","system_id":"levelo_inurba_marseille","lat":43.263575,"lon":5.378238,"is_reserved":false,"is_disabled":false,"rental_uris":{"android":"levelo://app?vid=e9822bf6-601d-4e3b-a97c-5d51f2fe51a3","ios":"levelo://app?vid=e9822bf6-601d-4e3b-a97c-5d51f2fe51a3"},"vehicle_type_id":"4","last_reported":1748393659,"current_range_meters":6800,"station_id":"","pricing_plan_id":"cebpf4jnsgd1na2vs0mg"},{"bike_id":"765a5150-62da-407f-a255-c32151d126c4","system_id":"levelo_inurba_marseille","lat":43.28853,"lon":5.35864,"is_reserved":false,"is_disabled":true,"rental_uris":{"android":"levelo://app?vid=765a5150-62da-407f-a255-c32151d126c4","ios":"levelo://app?vid=765a5150-62da-407f-a255-c32151d126c4"},"vehicle_type_id":"4","last_reported":1748393659,"current_range_meters":6800,"station_id":"ce4bhb12rcd13ifvqem0","pricing_plan_id":"cebpf4jnsgd1na2vs0mg"},{"bike_id":"a7bcb1f1-7682-4d43-a695-1c800fa5f5e8","system_id":"levelo_inurba_marseille","lat":43.287022,"lon":5.373911,"is_reserved":false,"is_disabled":false,"rental_uris":{"android":"levelo://app?vid=a7bcb1f1-7682-4d43-a695-1c800fa5f5e8","ios":"levelo://app?vid=a7bcb1f1-7682-4d43-a695-1c800fa5f5e8"},"vehicle_type_id":"4","last_reported":1748393659,"current_range_meters":6800,"station_id":"ce4bh3p2rcd13ifvqdq0","pricing_plan_id":"cebpf4jnsgd1na2vs0mg"},{"bike_id":"143c2ab4-f42c-444a-976a-2bc9c3850a17","system_id":"levelo_inurba_marseille","lat":43.30213,"lon":5.394684,"is_reserved":false,"is_disabled":false,"rental_uris":{"android":"levelo://app?vid=143c2ab4-f42c-444a-976a-2bc9c3850a17","ios":"levelo://app?vid=143c2ab4-f42c-444a-976a-2bc9c3850a17"},"vehicle_type_id":"4","last_reported":1748393659,"current_range_meters":6800,"station_id":"ce4bh0p2rcd13ifvqd70","pricing_plan_id":"cebpf4jnsgd1na2vs0mg"},{"bike_id":"a382f3df-edfa-456b-8f81-d62e49146343","system_id":"levelo_inurba_marseille","lat":43.30895,"lon":5.39651,"is_reserved":false,"is_disabled":false,"rental_uris":{"android":"levelo://app?vid=a382f3df-edfa-456b-8f81-d62e49146343","ios":"levelo://app?vid=a382f3df-edfa-456b-8f81-d62e49146343"},"vehicle_type_id":"4","last_reported":1748393659,"current_range_meters":7200,"station_id":"ce4bh012rcd13ifvqcv0","pricing_plan_id":"cebpf4jnsgd1na2vs0mg"},{"bike_id":"ee617531-7300-4958-baa3-db4f90ad5721","system_id":"levelo_inurba_marseille","lat":43.25819,"lon":5.39435,"is_reserved":false,"is_disabled":false,"rental_uris":{"android":"levelo://app?vid=ee617531-7300-4958-baa3-db4f90ad5721","ios":"levelo://app?vid=ee617531-7300-4958-baa3-db4f90ad5721"},"vehicle_type_id":"4","last_reported":1748393659,"current_range_meters":7200,"station_id":"ce4bhip2rcd13ifvqft0","pricing_plan_id":"cebpf4jnsgd1na2vs0mg"},{"bike_id":"9946121a-e441-4db9-b342-d50b7a06f604","system_id":"levelo_inurba_marseille","lat":43.316779,"lon":5.377933,"is_reserved":false,"is_disabled":false,"rental_uris":{"android":"levelo://app?vid=9946121a-e441-4db9-b342-d50b7a06f604","ios":"levelo://app?vid=9946121a-e441-4db9-b342-d50b7a06f604"},"vehicle_type_id":"4","last_reported":1748393659,"current_range_meters":7200,"station_id":"","pricing_plan_id":"cebpf4jnsgd1na2vs0mg"},{"bike_id":"1aa78b52-00c1-4f29-b691-34c6a91eca62","system_id":"levelo_inurba_marseille","lat":43.28109,"lon":5.37786,"is_reserved":false,"is_disabled":false,"rental_uris":{"android":"levelo://app?vid=1aa78b52-00c1-4f29-b691-34c6a91eca62","ios":"levelo://app?vid=1aa78b52-00c1-4f29-b691-34c6a91eca62"},"vehicle_type_id":"4","last_reported":1748393659,"current_range_meters":7200,"station_id":"ce4bha12rcd13ifvqee0","pricing_plan_id":"cebpf4jnsgd1na2vs0mg"},{"bike_id":"8ac2acc6-b767-4c1c-bcde-982458034c88","system_id":"levelo_inurba_marseille","lat":43.311958,"lon":5.416217,"is_reserved":false,"is_disabled":false,"rental_uris":{"android":"levelo://app?vid=8ac2acc6-b767-4c1c-bcde-982458034c88","ios":"levelo://app?vid=8ac2acc6-b767-4c1c-bcde-982458034c88"},"vehicle_type_id":"4","last_reported":1748393659,"current_range_meters":7200,"station_id":"","pricing_plan_id":"cebpf4jnsgd1na2vs0mg"},{"bike_id":"9ccbac86-38e4-4ddf-a8ae-e8e6aad748d0","system_id":"levelo_inurba_marseille","lat":43.304116,"lon":5.412874,"is_reserved":false,"is_disabled":true,"rental_uris":{"android":"levelo://app?vid=9ccbac86-38e4-4ddf-a8ae-e8e6aad748d0","ios":"levelo://app?vid=9ccbac86-38e4-4ddf-a8ae-e8e6aad748d0"},"vehicle_type_id":"4","last_reported":1748393659,"current_range_meters":7200,"station_id":"ce4bhop2rcd13ifvqh8g","pricing_plan_id":"cebpf4jnsgd1na2vs0mg"},{"bike_id":"a05ef1a3-22a2-4af6-be07-91f9c676e983","system_id":"levelo_inurba_marseille","lat":43.25111,"lon":5.40296,"is_reserved":false,"is_disabled":false,"rental_uris":{"android":"levelo://app?vid=a05ef1a3-22a2-4af6-be07-91f9c676e983","ios":"levelo://app?vid=a05ef1a3-22a2-4af6-be07-91f9c676e983"},"vehicle_type_id":"4","last_reported":1748393659,"current_range_meters":7200,"station_id":"ce4bhlh2rcd13ifvqgig","pricing_plan_id":"cebpf4jnsgd1na2vs0mg"},{"bike_id":"41f3a81a-1f9a-499b-95e6-feb508389a33","system_id":"levelo_inurba_marseille","lat":43.30608,"lon":5.39318,"is_reserved":false,"is_disabled":false,"rental_uris":{"android":"levelo://app?vid=41f3a81a-1f9a-499b-95e6-feb508389a33","ios":"levelo://app?vid=41f3a81a-1f9a-499b-95e6-feb508389a33"},"vehicle_type_id":"4","last_reported":1748393659,"current_range_meters":7200,"station_id":"ce4bh0p2rcd13ifvqd80","pricing_plan_id":"cebpf4jnsgd1na2vs0mg"},{"bike_id":"a29a2708-797f-4e9a-9f1a-17352bf6f3db","system_id":"levelo_inurba_marseille","lat":43.273292,"lon":5.390981,"is_reserved":false,"is_disabled":true,"rental_uris":{"android":"levelo://app?vid=a29a2708-797f-4e9a-9f1a-17352bf6f3db","ios":"levelo://app?vid=a29a2708-797f-4e9a-9f1a-17352bf6f3db"},"vehicle_type_id":"4","last_reported":1748393659,"current_range_meters":7200,"station_id":"ce4bhgp2rcd13ifvqfe0","pricing_plan_id":"cebpf4jnsgd1na2vs0mg"},{"bike_id":"f1c17a2c-5950-44d6-b0c2-70c58015db30","system_id":"levelo_inurba_marseille","lat":43.30417,"lon":5.39765,"is_reserved":false,"is_disabled":false,"rental_uris":{"android":"levelo://app?vid=f1c17a2c-5950-44d6-b0c2-70c58015db30","ios":"levelo://app?vid=f1c17a2c-5950-44d6-b0c2-70c58015db30"},"vehicle_type_id":"4","last_reported":1748393659,"current_range_meters":7200,"station_id":"ce4bh092rcd13ifvqd20","pricing_plan_id":"cebpf4jnsgd1na2vs0mg"},{"bike_id":"61102199-8f5b-4b88-8d5b-5ea241266078","system_id":"levelo_inurba_marseille","lat":43.292564,"lon":5.409026,"is_reserved":false,"is_disabled":false,"rental_uris":{"android":"levelo://app?vid=61102199-8f5b-4b88-8d5b-5ea241266078","ios":"levelo://app?vid=61102199-8f5b-4b88-8d5b-5ea241266078"},"vehicle_type_id":"4","last_reported":1748393659,"current_range_meters":7200,"station_id":"ce4bh192rcd13ifvqdc0","pricing_plan_id":"cebpf4jnsgd1na2vs0mg"},{"bike_id":"025226b6-a6c8-456c-acb5-2494f335f577","system_id":"levelo_inurba_marseille","lat":43.32655,"lon":5.40997,"is_reserved":false,"is_disabled":false,"rental_uris":{"android":"levelo://app?vid=025226b6-a6c8-456c-acb5-2494f335f577","ios":"levelo://app?vid=025226b6-a6c8-456c-acb5-2494f335f577"},"vehicle_type_id":"4","last_reported":1748393659,"current_range_meters":8000,"station_id":"ce4bhpp2rcd13ifvqhgg","pricing_plan_id":"cebpf4jnsgd1na2vs0mg"},{"bike_id":"4366209f-542f-4ffd-8ff1-3fdbaaffc9ae","system_id":"levelo_inurba_marseille","lat":43.31079,"lon":5.38366,"is_reserved":false,"is_disabled":false,"rental_uris":{"android":"levelo://app?vid=4366209f-542f-4ffd-8ff1-3fdbaaffc9ae","ios":"levelo://app?vid=4366209f-542f-4ffd-8ff1-3fdbaaffc9ae"},"vehicle_type_id":"4","last_reported":1748393659,"current_range_meters":8000,"station_id":"ce4bgv92rcd13ifvqcr0","pricing_plan_id":"cebpf4jnsgd1na2vs0mg"},{"bike_id":"81073b57-ac04-480f-afb6-2528a984f711","system_id":"levelo_inurba_marseille","lat":43.287054,"lon":5.39995,"is_reserved":false,"is_disabled":false,"rental_uris":{"android":"levelo://app?vid=81073b57-ac04-480f-afb6-2528a984f711","ios":"levelo://app?vid=81073b57-ac04-480f-afb6-2528a984f711"},"vehicle_type_id":"4","last_reported":1748393659,"current_range_meters":8000,"station_id":"ce4bho92rcd13ifvqh3g","pricing_plan_id":"cebpf4jnsgd1na2vs0mg"},{"bike_id":"760bcd8b-a4e0-4b4e-bedb-6462d7843576","system_id":"levelo_inurba_marseille","lat":43.29265,"lon":5.36854,"is_reserved":false,"is_disabled":true,"rental_uris":{"android":"levelo://app?vid=760bcd8b-a4e0-4b4e-bedb-6462d7843576","ios":"levelo://app?vid=760bcd8b-a4e0-4b4e-bedb-6462d7843576"},"vehicle_type_id":"4","last_reported":1748393659,"current_range_meters":8000,"station_id":"ce4bhbp2rcd13ifvqesg","pricing_plan_id":"cebpf4jnsgd1na2vs0mg"},{"bike_id":"0a3ef987-84c3-4749-8364-35366df6e26b","system_id":"levelo_inurba_marseille","lat":43.28585,"lon":5.39541,"is_reserved":false,"is_disabled":false,"rental_uris":{"android":"levelo://app?vid=0a3ef987-84c3-4749-8364-35366df6e26b","ios":"levelo://app?vid=0a3ef987-84c3-4749-8364-35366df6e26b"},"vehicle_type_id":"4","last_reported":1748393659,"current_range_meters":8000,"station_id":"ce4bh292rcd13ifvqdg0","pricing_plan_id":"cebpf4jnsgd1na2vs0mg"},{"bike_id":"dc4bc07c-b76e-4ef7-ae63-610566bce330","system_id":"levelo_inurba_marseille","lat":43.27416,"lon":5.39424,"is_reserved":false,"is_disabled":false,"rental_uris":{"android":"levelo://app?vid=dc4bc07c-b76e-4ef7-ae63-610566bce330","ios":"levelo://app?vid=dc4bc07c-b76e-4ef7-ae63-610566bce330"},"vehicle_type_id":"4","last_reported":1748393659,"current_range_meters":8000,"station_id":"ce4bhdp2rcd13ifvqf20","pricing_plan_id":"cebpf4jnsgd1na2vs0mg"},{"bike_id":"db5fc6cf-a2ce-4388-aeec-6b1457e20626","system_id":"levelo_inurba_marseille","lat":43.30844,"lon":5.38243,"is_reserved":false,"is_disabled":false,"rental_uris":{"android":"levelo://app?vid=db5fc6cf-a2ce-4388-aeec-6b1457e20626","ios":"levelo://app?vid=db5fc6cf-a2ce-4388-aeec-6b1457e20626"},"vehicle_type_id":"4","last_reported":1748393659,"current_range_meters":8000,"station_id":"ce4bgt12rcd13ifvqce0","pricing_plan_id":"cebpf4jnsgd1na2vs0mg"},{"bike_id":"aa127b9c-d120-4169-9c49-d5b2c149225c","system_id":"levelo_inurba_marseille","lat":43.2954,"lon":5.37825,"is_reserved":false,"is_disabled":false,"rental_uris":{"android":"levelo://app?vid=aa127b9c-d120-4169-9c49-d5b2c149225c","ios":"levelo://app?vid=aa127b9c-d120-4169-9c49-d5b2c149225c"},"vehicle_type_id":"4","last_reported":1748393659,"current_range_meters":8000,"station_id":"","pricing_plan_id":"cebpf4jnsgd1na2vs0mg"},{"bike_id":"2ec9bbcc-6279-4ac4-a806-1279010ba65b","system_id":"levelo_inurba_marseille","lat":43.25001,"lon":5.38947,"is_reserved":false,"is_disabled":false,"rental_uris":{"android":"levelo://app?vid=2ec9bbcc-6279-4ac4-a806-1279010ba65b","ios":"levelo://app?vid=2ec9bbcc-6279-4ac4-a806-1279010ba65b"},"vehicle_type_id":"4","last_reported":1748393659,"current_range_meters":8000,"station_id":"ce4bhgp2rcd13ifvqfd0","pricing_plan_id":"cebpf4jnsgd1na2vs0mg"},{"bike_id":"ecec0dbe-0ccb-470d-bc6b-7e71f374730a","system_id":"levelo_inurba_marseille","lat":43.23958,"lon":5.36628,"is_reserved":false,"is_disabled":false,"rental_uris":{"android":"levelo://app?vid=ecec0dbe-0ccb-470d-bc6b-7e71f374730a","ios":"levelo://app?vid=ecec0dbe-0ccb-470d-bc6b-7e71f374730a"},"vehicle_type_id":"4","last_reported":1748393659,"current_range_meters":8000,"station_id":"ce4bhi12rcd13ifvqfp0","pricing_plan_id":"cebpf4jnsgd1na2vs0mg"},{"bike_id":"c2f75e22-6fed-4646-a5c2-8cb463b122f4","system_id":"levelo_inurba_marseille","lat":43.322657,"lon":5.376277,"is_reserved":false,"is_disabled":false,"rental_uris":{"android":"levelo://app?vid=c2f75e22-6fed-4646-a5c2-8cb463b122f4","ios":"levelo://app?vid=c2f75e22-6fed-4646-a5c2-8cb463b122f4"},"vehicle_type_id":"4","last_reported":1748393659,"current_range_meters":8000,"station_id":"","pricing_plan_id":"cebpf4jnsgd1na2vs0mg"},{"bike_id":"ceb81090-b40e-47dd-bc35-8598d269ef58","system_id":"levelo_inurba_marseille","lat":43.26671,"lon":5.3844,"is_reserved":false,"is_disabled":false,"rental_uris":{"android":"levelo://app?vid=ceb81090-b40e-47dd-bc35-8598d269ef58","ios":"levelo://app?vid=ceb81090-b40e-47dd-bc35-8598d269ef58"},"vehicle_type_id":"4","last_reported":1748393659,"current_range_meters":8400,"station_id":"","pricing_plan_id":"cebpf4jnsgd1na2vs0mg"},{"bike_id":"0f606be2-f029-415a-82ed-4cb4eff755f6","system_id":"levelo_inurba_marseille","lat":43.30795,"lon":5.38161,"is_reserved":false,"is_disabled":false,"rental_uris":{"android":"levelo://app?vid=0f606be2-f029-415a-82ed-4cb4eff755f6","ios":"levelo://app?vid=0f606be2-f029-415a-82ed-4cb4eff755f6"},"vehicle_type_id":"4","last_reported":1748393659,"current_range_meters":8400,"station_id":"ce4bgt12rcd13ifvqce0","pricing_plan_id":"cebpf4jnsgd1na2vs0mg"},{"bike_id":"f4dd589b-5b58-470a-a2c9-9de3a4398e71","system_id":"levelo_inurba_marseille","lat":43.22916,"lon":5.35359,"is_reserved":false,"is_disabled":false,"rental_uris":{"android":"levelo://app?vid=f4dd589b-5b58-470a-a2c9-9de3a4398e71","ios":"levelo://app?vid=f4dd589b-5b58-470a-a2c9-9de3a4398e71"},"vehicle_type_id":"4","last_reported":1748393659,"current_range_meters":8400,"station_id":"cpo3532slgdg3j2ikp40","pricing_plan_id":"cebpf4jnsgd1na2vs0mg"},{"bike_id":"8a8da44b-f0bc-49bf-a97a-1dee19c6a572","system_id":"levelo_inurba_marseille","lat":43.23198,"lon":5.35569,"is_reserved":false,"is_disabled":false,"rental_uris":{"android":"levelo://app?vid=8a8da44b-f0bc-49bf-a97a-1dee19c6a572","ios":"levelo://app?vid=8a8da44b-f0bc-49bf-a97a-1dee19c6a572"},"vehicle_type_id":"4","last_reported":1748393659,"current_range_meters":8400,"station_id":"ce4bhu92rcd13ifvqi70","pricing_plan_id":"cebpf4jnsgd1na2vs0mg"},{"bike_id":"7e823e3b-1b92-4735-8533-dc1341b80eaf","system_id":"levelo_inurba_marseille","lat":43.230562,"lon":5.354969,"is_reserved":false,"is_disabled":true,"rental_uris":{"android":"levelo://app?vid=7e823e3b-1b92-4735-8533-dc1341b80eaf","ios":"levelo://app?vid=7e823e3b-1b92-4735-8533-dc1341b80eaf"},"vehicle_type_id":"4","last_reported":1748393659,"current_range_meters":8400,"station_id":"cpo3342slgdg3j2ifvpg","pricing_plan_id":"cebpf4jnsgd1na2vs0mg"},{"bike_id":"e6c65de3-7d92-4979-809c-6677188473c0","system_id":"levelo_inurba_marseille","lat":43.337598,"lon":5.374632,"is_reserved":false,"is_disabled":false,"rental_uris":{"android":"levelo://app?vid=e6c65de3-7d92-4979-809c-6677188473c0","ios":"levelo://app?vid=e6c65de3-7d92-4979-809c-6677188473c0"},"vehicle_type_id":"4","last_reported":1748393659,"current_range_meters":8800,"station_id":"","pricing_plan_id":"cebpf4jnsgd1na2vs0mg"},{"bike_id":"6ef27e84-462a-46f9-afe5-e09b209cc7f0","system_id":"levelo_inurba_marseille","lat":43.331099,"lon":5.362082,"is_reserved":false,"is_disabled":false,"rental_uris":{"android":"levelo://app?vid=6ef27e84-462a-46f9-afe5-e09b209cc7f0","ios":"levelo://app?vid=6ef27e84-462a-46f9-afe5-e09b209cc7f0"},"vehicle_type_id":"4","last_reported":1748393659,"current_range_meters":8800,"station_id":"","pricing_plan_id":"cebpf4jnsgd1na2vs0mg"},{"bike_id":"ddb91082-4722-4770-bd2c-0e7cd7a0719c","system_id":"levelo_inurba_marseille","lat":43.28415,"lon":5.37569,"is_reserved":false,"is_disabled":false,"rental_uris":{"android":"levelo://app?vid=ddb91082-4722-4770-bd2c-0e7cd7a0719c","ios":"levelo://app?vid=ddb91082-4722-4770-bd2c-0e7cd7a0719c"},"vehicle_type_id":"4","last_reported":1748393659,"current_range_meters":8800,"station_id":"ce4bh412rcd13ifvqds0","pricing_plan_id":"cebpf4jnsgd1na2vs0mg"},{"bike_id":"7e2d13cd-01ed-48be-a1b4-1756640f6409","system_id":"levelo_inurba_marseille","lat":43.30948,"lon":5.39039,"is_reserved":false,"is_disabled":true,"rental_uris":{"android":"levelo://app?vid=7e2d13cd-01ed-48be-a1b4-1756640f6409","ios":"levelo://app?vid=7e2d13cd-01ed-48be-a1b4-1756640f6409"},"vehicle_type_id":"4","last_reported":1748393659,"current_range_meters":8800,"station_id":"ce4bgup2rcd13ifvqco0","pricing_plan_id":"cebpf4jnsgd1na2vs0mg"},{"bike_id":"8cd6f3b6-0b6a-4ca3-9e48-83a78486e00c","system_id":"levelo_inurba_marseille","lat":43.29936,"lon":5.36551,"is_reserved":false,"is_disabled":false,"rental_uris":{"android":"levelo://app?vid=8cd6f3b6-0b6a-4ca3-9e48-83a78486e00c","ios":"levelo://app?vid=8cd6f3b6-0b6a-4ca3-9e48-83a78486e00c"},"vehicle_type_id":"4","last_reported":1748393659,"current_range_meters":8800,"station_id":"ce4bgm92rcd13ifvqbr0","pricing_plan_id":"cebpf4jnsgd1na2vs0mg"},{"bike_id":"1c4d626c-93ab-41b9-815e-96048904b577","system_id":"levelo_inurba_marseille","lat":43.240686,"lon":5.377657,"is_reserved":false,"is_disabled":false,"rental_uris":{"android":"levelo://app?vid=1c4d626c-93ab-41b9-815e-96048904b577","ios":"levelo://app?vid=1c4d626c-93ab-41b9-815e-96048904b577"},"vehicle_type_id":"4","last_reported":1748393659,"current_range_meters":8800,"station_id":"ce4bhnp2rcd13ifvqgvg","pricing_plan_id":"cebpf4jnsgd1na2vs0mg"},{"bike_id":"ede9773a-3bb5-49a2-af67-a49560b3e7e3","system_id":"levelo_inurba_marseille","lat":43.30649,"lon":5.40076,"is_reserved":false,"is_disabled":false,"rental_uris":{"android":"levelo://app?vid=ede9773a-3bb5-49a2-af67-a49560b3e7e3","ios":"levelo://app?vid=ede9773a-3bb5-49a2-af67-a49560b3e7e3"},"vehicle_type_id":"4","last_reported":1748393659,"current_range_meters":8800,"station_id":"ce4bh112rcd13ifvqda0","pricing_plan_id":"cebpf4jnsgd1na2vs0mg"},{"bike_id":"a3ac0e4d-492d-457a-8b5d-3ba549ed986d","system_id":"levelo_inurba_marseille","lat":43.29444,"lon":5.39735,"is_reserved":false,"is_disabled":false,"rental_uris":{"android":"levelo://app?vid=a3ac0e4d-492d-457a-8b5d-3ba549ed986d","ios":"levelo://app?vid=a3ac0e4d-492d-457a-8b5d-3ba549ed986d"},"vehicle_type_id":"4","last_reported":1748393659,"current_range_meters":9200,"station_id":"ce4bh3h2rcd13ifvqdo0","pricing_plan_id":"cebpf4jnsgd1na2vs0mg"},{"bike_id":"31eb1c1c-c5a5-4f60-aaa0-7dd8c371696a","system_id":"levelo_inurba_marseille","lat":43.279434,"lon":5.410361,"is_reserved":false,"is_disabled":true,"rental_uris":{"android":"levelo://app?vid=31eb1c1c-c5a5-4f60-aaa0-7dd8c371696a","ios":"levelo://app?vid=31eb1c1c-c5a5-4f60-aaa0-7dd8c371696a"},"vehicle_type_id":"4","last_reported":1748393659,"current_range_meters":9200,"station_id":"ce4bhnp2rcd13ifvqh0g","pricing_plan_id":"cebpf4jnsgd1na2vs0mg"},{"bike_id":"226e8884-45e8-4155-9023-6b9c578286c2","system_id":"levelo_inurba_marseille","lat":43.30575,"lon":5.37276,"is_reserved":false,"is_disabled":true,"rental_uris":{"android":"levelo://app?vid=226e8884-45e8-4155-9023-6b9c578286c2","ios":"levelo://app?vid=226e8884-45e8-4155-9023-6b9c578286c2"},"vehicle_type_id":"4","last_reported":1748393659,"current_range_meters":9200,"station_id":"","pricing_plan_id":"cebpf4jnsgd1na2vs0mg"},{"bike_id":"41b68268-8357-4aa4-959d-53c0b7113280","system_id":"levelo_inurba_marseille","lat":43.30253,"lon":5.40064,"is_reserved":false,"is_disabled":false,"rental_uris":{"android":"levelo://app?vid=41b68268-8357-4aa4-959d-53c0b7113280","ios":"levelo://app?vid=41b68268-8357-4aa4-959d-53c0b7113280"},"vehicle_type_id":"4","last_reported":1748393659,"current_range_meters":9200,"station_id":"ce4bgvh2rcd13ifvqcs0","pricing_plan_id":"cebpf4jnsgd1na2vs0mg"},{"bike_id":"630e3090-df9f-4e61-a2d8-b2bbefd032a0","system_id":"levelo_inurba_marseille","lat":43.24612,"lon":5.39308,"is_reserved":false,"is_disabled":false,"rental_uris":{"android":"levelo://app?vid=630e3090-df9f-4e61-a2d8-b2bbefd032a0","ios":"levelo://app?vid=630e3090-df9f-4e61-a2d8-b2bbefd032a0"},"vehicle_type_id":"4","last_reported":1748393659,"current_range_meters":9200,"station_id":"","pricing_plan_id":"cebpf4jnsgd1na2vs0mg"},{"bike_id":"5c29a350-f368-474d-9c37-db39342a3756","system_id":"levelo_inurba_marseille","lat":43.31719,"lon":5.37786,"is_reserved":false,"is_disabled":false,"rental_uris":{"android":"levelo://app?vid=5c29a350-f368-474d-9c37-db39342a3756","ios":"levelo://app?vid=5c29a350-f368-474d-9c37-db39342a3756"},"vehicle_type_id":"4","last_reported":1748393659,"current_range_meters":9200,"station_id":"ce4bgth2rcd13ifvqch0","pricing_plan_id":"cebpf4jnsgd1na2vs0mg"},{"bike_id":"f689d449-d0ec-464c-9319-de295e0a037a","system_id":"levelo_inurba_marseille","lat":43.23954,"lon":5.36628,"is_reserved":false,"is_disabled":true,"rental_uris":{"android":"levelo://app?vid=f689d449-d0ec-464c-9319-de295e0a037a","ios":"levelo://app?vid=f689d449-d0ec-464c-9319-de295e0a037a"},"vehicle_type_id":"4","last_reported":1748393659,"current_range_meters":9200,"station_id":"ce4bhi12rcd13ifvqfp0","pricing_plan_id":"cebpf4jnsgd1na2vs0mg"},{"bike_id":"4d3d13e9-c15b-4813-a625-9518f13ee4ea","system_id":"levelo_inurba_marseille","lat":43.284592,"lon":5.358878,"is_reserved":false,"is_disabled":false,"rental_uris":{"android":"levelo://app?vid=4d3d13e9-c15b-4813-a625-9518f13ee4ea","ios":"levelo://app?vid=4d3d13e9-c15b-4813-a625-9518f13ee4ea"},"vehicle_type_id":"4","last_reported":1748393659,"current_range_meters":9200,"station_id":"ce4bhah2rcd13ifvqei0","pricing_plan_id":"cebpf4jnsgd1na2vs0mg"},{"bike_id":"2a046dee-b3af-48c9-9659-b7d30ba20af5","system_id":"levelo_inurba_marseille","lat":43.24346,"lon":5.37994,"is_reserved":false,"is_disabled":false,"rental_uris":{"android":"levelo://app?vid=2a046dee-b3af-48c9-9659-b7d30ba20af5","ios":"levelo://app?vid=2a046dee-b3af-48c9-9659-b7d30ba20af5"},"vehicle_type_id":"4","last_reported":1748393659,"current_range_meters":9200,"station_id":"","pricing_plan_id":"cebpf4jnsgd1na2vs0mg"},{"bike_id":"a6979faa-03c6-4ad2-bf42-18b68e1baf23","system_id":"levelo_inurba_marseille","lat":43.28441,"lon":5.39189,"is_reserved":false,"is_disabled":false,"rental_uris":{"android":"levelo://app?vid=a6979faa-03c6-4ad2-bf42-18b68e1baf23","ios":"levelo://app?vid=a6979faa-03c6-4ad2-bf42-18b68e1baf23"},"vehicle_type_id":"4","last_reported":1748393659,"current_range_meters":9200,"station_id":"ce4bhoh2rcd13ifvqh5g","pricing_plan_id":"cebpf4jnsgd1na2vs0mg"},{"bike_id":"2832a3a3-6b04-4e1d-bbf3-45f8abce36e3","system_id":"levelo_inurba_marseille","lat":43.31718,"lon":5.4043,"is_reserved":false,"is_disabled":false,"rental_uris":{"android":"levelo://app?vid=2832a3a3-6b04-4e1d-bbf3-45f8abce36e3","ios":"levelo://app?vid=2832a3a3-6b04-4e1d-bbf3-45f8abce36e3"},"vehicle_type_id":"4","last_reported":1748393659,"current_range_meters":9600,"station_id":"","pricing_plan_id":"cebpf4jnsgd1na2vs0mg"},{"bike_id":"7a65e3be-209f-451a-8d0f-734d6f59b819","system_id":"levelo_inurba_marseille","lat":43.295655,"lon":5.39462,"is_reserved":false,"is_disabled":false,"rental_uris":{"android":"levelo://app?vid=7a65e3be-209f-451a-8d0f-734d6f59b819","ios":"levelo://app?vid=7a65e3be-209f-451a-8d0f-734d6f59b819"},"vehicle_type_id":"4","last_reported":1748393659,"current_range_meters":9600,"station_id":"","pricing_plan_id":"cebpf4jnsgd1na2vs0mg"},{"bike_id":"f0d83b53-4594-4033-afb0-0d9b1a402851","system_id":"levelo_inurba_marseille","lat":43.31124,"lon":5.37783,"is_reserved":false,"is_disabled":false,"rental_uris":{"android":"levelo://app?vid=f0d83b53-4594-4033-afb0-0d9b1a402851","ios":"levelo://app?vid=f0d83b53-4594-4033-afb0-0d9b1a402851"},"vehicle_type_id":"4","last_reported":1748393659,"current_range_meters":9600,"station_id":"ce4bgt92rcd13ifvqcg0","pricing_plan_id":"cebpf4jnsgd1na2vs0mg"},{"bike_id":"8895786b-db23-4228-aba4-b0769c4cb004","system_id":"levelo_inurba_marseille","lat":43.3198,"lon":5.38197,"is_reserved":false,"is_disabled":false,"rental_uris":{"android":"levelo://app?vid=8895786b-db23-4228-aba4-b0769c4cb004","ios":"levelo://app?vid=8895786b-db23-4228-aba4-b0769c4cb004"},"vehicle_type_id":"4","last_reported":1748393659,"current_range_meters":9600,"station_id":"ce4bhr12rcd13ifvqhpg","pricing_plan_id":"cebpf4jnsgd1na2vs0mg"},{"bike_id":"0e7a1463-a322-4d31-811e-e317647a58f9","system_id":"levelo_inurba_marseille","lat":43.30643,"lon":5.40081,"is_reserved":false,"is_disabled":false,"rental_uris":{"android":"levelo://app?vid=0e7a1463-a322-4d31-811e-e317647a58f9","ios":"levelo://app?vid=0e7a1463-a322-4d31-811e-e317647a58f9"},"vehicle_type_id":"4","last_reported":1748393659,"current_range_meters":9600,"station_id":"ce4bh112rcd13ifvqda0","pricing_plan_id":"cebpf4jnsgd1na2vs0mg"},{"bike_id":"c14be044-026f-4456-b859-b502607c88ba","system_id":"levelo_inurba_marseille","lat":43.27975,"lon":5.41664,"is_reserved":false,"is_disabled":false,"rental_uris":{"android":"levelo://app?vid=c14be044-026f-4456-b859-b502607c88ba","ios":"levelo://app?vid=c14be044-026f-4456-b859-b502607c88ba"},"vehicle_type_id":"4","last_reported":1748393659,"current_range_meters":9600,"station_id":"ce4bho12rcd13ifvqh1g","pricing_plan_id":"cebpf4jnsgd1na2vs0mg"},{"bike_id":"1a6da69f-1ddb-4eb0-99d5-b8d7dbfa3b64","system_id":"levelo_inurba_marseille","lat":43.28083,"lon":5.39656,"is_reserved":false,"is_disabled":false,"rental_uris":{"android":"levelo://app?vid=1a6da69f-1ddb-4eb0-99d5-b8d7dbfa3b64","ios":"levelo://app?vid=1a6da69f-1ddb-4eb0-99d5-b8d7dbfa3b64"},"vehicle_type_id":"4","last_reported":1748393659,"current_range_meters":9600,"station_id":"ce4bho12rcd13ifvqh2g","pricing_plan_id":"cebpf4jnsgd1na2vs0mg"},{"bike_id":"765507f4-4472-41a3-99a1-e5ed81e33e54","system_id":"levelo_inurba_marseille","lat":43.28421,"lon":5.375095,"is_reserved":false,"is_disabled":false,"rental_uris":{"android":"levelo://app?vid=765507f4-4472-41a3-99a1-e5ed81e33e54","ios":"levelo://app?vid=765507f4-4472-41a3-99a1-e5ed81e33e54"},"vehicle_type_id":"4","last_reported":1748393659,"current_range_meters":9600,"station_id":"ce4bh412rcd13ifvqds0","pricing_plan_id":"cebpf4jnsgd1na2vs0mg"},{"bike_id":"a3a1e2f8-c082-4657-9cf8-ceb282e14a71","system_id":"levelo_inurba_marseille","lat":43.23175,"lon":5.40017,"is_reserved":false,"is_disabled":false,"rental_uris":{"android":"levelo://app?vid=a3a1e2f8-c082-4657-9cf8-ceb282e14a71","ios":"levelo://app?vid=a3a1e2f8-c082-4657-9cf8-ceb282e14a71"},"vehicle_type_id":"4","last_reported":1748393659,"current_range_meters":9600,"station_id":"ce4bhn12rcd13ifvqgqg","pricing_plan_id":"cebpf4jnsgd1na2vs0mg"},{"bike_id":"b739c376-f33a-42b8-8eff-1fe4940cc855","system_id":"levelo_inurba_marseille","lat":43.29285,"lon":5.38418,"is_reserved":false,"is_disabled":true,"rental_uris":{"android":"levelo://app?vid=b739c376-f33a-42b8-8eff-1fe4940cc855","ios":"levelo://app?vid=b739c376-f33a-42b8-8eff-1fe4940cc855"},"vehicle_type_id":"4","last_reported":1748393659,"current_range_meters":9600,"station_id":"ce4bh692rcd13ifvqea0","pricing_plan_id":"cebpf4jnsgd1na2vs0mg"},{"bike_id":"f785b9f1-d49c-4c68-aebd-35bb02ec172e","system_id":"levelo_inurba_marseille","lat":43.30817,"lon":5.3816,"is_reserved":false,"is_disabled":false,"rental_uris":{"android":"levelo://app?vid=f785b9f1-d49c-4c68-aebd-35bb02ec172e","ios":"levelo://app?vid=f785b9f1-d49c-4c68-aebd-35bb02ec172e"},"vehicle_type_id":"4","last_reported":1748393659,"current_range_meters":9600,"station_id":"ce4bgt12rcd13ifvqce0","pricing_plan_id":"cebpf4jnsgd1na2vs0mg"},{"bike_id":"c437d2cf-2db2-401d-99d8-68cfd28314bb","system_id":"levelo_inurba_marseille","lat":43.29506,"lon":5.37772,"is_reserved":false,"is_disabled":false,"rental_uris":{"android":"levelo://app?vid=c437d2cf-2db2-401d-99d8-68cfd28314bb","ios":"levelo://app?vid=c437d2cf-2db2-401d-99d8-68cfd28314bb"},"vehicle_type_id":"4","last_reported":1748393659,"current_range_meters":9600,"station_id":"","pricing_plan_id":"cebpf4jnsgd1na2vs0mg"},{"bike_id":"8594162e-9ea7-4432-a816-6b22899fa2e9","system_id":"levelo_inurba_marseille","lat":43.307995,"lon":5.381723,"is_reserved":false,"is_disabled":false,"rental_uris":{"android":"levelo://app?vid=8594162e-9ea7-4432-a816-6b22899fa2e9","ios":"levelo://app?vid=8594162e-9ea7-4432-a816-6b22899fa2e9"},"vehicle_type_id":"4","last_reported":1748393659,"current_range_meters":9600,"station_id":"ce4bgt12rcd13ifvqce0","pricing_plan_id":"cebpf4jnsgd1na2vs0mg"},{"bike_id":"92c20333-f1be-4048-8f1a-30fdeff2a990","system_id":"levelo_inurba_marseille","lat":43.330213,"lon":5.390454,"is_reserved":false,"is_disabled":false,"rental_uris":{"android":"levelo://app?vid=92c20333-f1be-4048-8f1a-30fdeff2a990","ios":"levelo://app?vid=92c20333-f1be-4048-8f1a-30fdeff2a990"},"vehicle_type_id":"4","last_reported":1748393659,"current_range_meters":9600,"station_id":"ce4bhr92rcd13ifvqhrg","pricing_plan_id":"cebpf4jnsgd1na2vs0mg"},{"bike_id":"d536e74a-a90f-4368-9fd1-1f34b8180491","system_id":"levelo_inurba_marseille","lat":43.30199,"lon":5.3948,"is_reserved":false,"is_disabled":false,"rental_uris":{"android":"levelo://app?vid=d536e74a-a90f-4368-9fd1-1f34b8180491","ios":"levelo://app?vid=d536e74a-a90f-4368-9fd1-1f34b8180491"},"vehicle_type_id":"4","last_reported":1748393659,"current_range_meters":10000,"station_id":"ce4bh0p2rcd13ifvqd70","pricing_plan_id":"cebpf4jnsgd1na2vs0mg"},{"bike_id":"27b98b60-9b65-40d7-b266-79d4a12fa059","system_id":"levelo_inurba_marseille","lat":43.30619,"lon":5.37222,"is_reserved":false,"is_disabled":false,"rental_uris":{"android":"levelo://app?vid=27b98b60-9b65-40d7-b266-79d4a12fa059","ios":"levelo://app?vid=27b98b60-9b65-40d7-b266-79d4a12fa059"},"vehicle_type_id":"4","last_reported":1748393659,"current_range_meters":10000,"station_id":"ce4bgqh2rcd13ifvqc4g","pricing_plan_id":"cebpf4jnsgd1na2vs0mg"},{"bike_id":"95248387-2056-4069-8be3-268c0a86bffe","system_id":"levelo_inurba_marseille","lat":43.25863,"lon":5.39919,"is_reserved":false,"is_disabled":false,"rental_uris":{"android":"levelo://app?vid=95248387-2056-4069-8be3-268c0a86bffe","ios":"levelo://app?vid=95248387-2056-4069-8be3-268c0a86bffe"},"vehicle_type_id":"4","last_reported":1748393659,"current_range_meters":10000,"station_id":"ce4bhl92rcd13ifvqghg","pricing_plan_id":"cebpf4jnsgd1na2vs0mg"},{"bike_id":"2c6738e3-9274-470f-ba2e-d571e5b3e120","system_id":"levelo_inurba_marseille","lat":43.2987,"lon":5.39738,"is_reserved":false,"is_disabled":false,"rental_uris":{"android":"levelo://app?vid=2c6738e3-9274-470f-ba2e-d571e5b3e120","ios":"levelo://app?vid=2c6738e3-9274-470f-ba2e-d571e5b3e120"},"vehicle_type_id":"4","last_reported":1748393659,"current_range_meters":10000,"station_id":"ce4bh0h2rcd13ifvqd50","pricing_plan_id":"cebpf4jnsgd1na2vs0mg"},{"bike_id":"c0b9a566-efe3-4d0b-9acc-6ef247057511","system_id":"levelo_inurba_marseille","lat":43.32354,"lon":5.38923,"is_reserved":false,"is_disabled":false,"rental_uris":{"android":"levelo://app?vid=c0b9a566-efe3-4d0b-9acc-6ef247057511","ios":"levelo://app?vid=c0b9a566-efe3-4d0b-9acc-6ef247057511"},"vehicle_type_id":"4","last_reported":1748393659,"current_range_meters":10000,"station_id":"ce4bhqp2rcd13ifvqhog","pricing_plan_id":"cebpf4jnsgd1na2vs0mg"},{"bike_id":"b22310cf-e533-4fa9-8f4f-61171f82f011","system_id":"levelo_inurba_marseille","lat":43.30439,"lon":5.39801,"is_reserved":false,"is_disabled":false,"rental_uris":{"android":"levelo://app?vid=b22310cf-e533-4fa9-8f4f-61171f82f011","ios":"levelo://app?vid=b22310cf-e533-4fa9-8f4f-61171f82f011"},"vehicle_type_id":"4","last_reported":1748393659,"current_range_meters":10000,"station_id":"ce4bh092rcd13ifvqd20","pricing_plan_id":"cebpf4jnsgd1na2vs0mg"},{"bike_id":"3dcd4f17-90fb-487e-8cfa-d9a27ae06839","system_id":"levelo_inurba_marseille","lat":43.30647,"lon":5.400807,"is_reserved":false,"is_disabled":false,"rental_uris":{"android":"levelo://app?vid=3dcd4f17-90fb-487e-8cfa-d9a27ae06839","ios":"levelo://app?vid=3dcd4f17-90fb-487e-8cfa-d9a27ae06839"},"vehicle_type_id":"4","last_reported":1748393659,"current_range_meters":10000,"station_id":"ce4bh112rcd13ifvqda0","pricing_plan_id":"cebpf4jnsgd1na2vs0mg"},{"bike_id":"7aada5ca-e1c3-4b6b-b301-a25ef474274f","system_id":"levelo_inurba_marseille","lat":43.23956,"lon":5.36626,"is_reserved":false,"is_disabled":false,"rental_uris":{"android":"levelo://app?vid=7aada5ca-e1c3-4b6b-b301-a25ef474274f","ios":"levelo://app?vid=7aada5ca-e1c3-4b6b-b301-a25ef474274f"},"vehicle_type_id":"4","last_reported":1748393659,"current_range_meters":10000,"station_id":"ce4bhi12rcd13ifvqfp0","pricing_plan_id":"cebpf4jnsgd1na2vs0mg"},{"bike_id":"ca7cf12f-fbf8-41d1-9b30-458282c0dc29","system_id":"levelo_inurba_marseille","lat":43.29795,"lon":5.39341,"is_reserved":false,"is_disabled":false,"rental_uris":{"android":"levelo://app?vid=ca7cf12f-fbf8-41d1-9b30-458282c0dc29","ios":"levelo://app?vid=ca7cf12f-fbf8-41d1-9b30-458282c0dc29"},"vehicle_type_id":"4","last_reported":1748393659,"current_range_meters":10000,"station_id":"chh1huq6cuj3fo74tm60","pricing_plan_id":"cebpf4jnsgd1na2vs0mg"},{"bike_id":"24cfad0d-71d0-43ea-8447-3b796d58b84b","system_id":"levelo_inurba_marseille","lat":43.27055,"lon":5.40292,"is_reserved":false,"is_disabled":false,"rental_uris":{"android":"levelo://app?vid=24cfad0d-71d0-43ea-8447-3b796d58b84b","ios":"levelo://app?vid=24cfad0d-71d0-43ea-8447-3b796d58b84b"},"vehicle_type_id":"4","last_reported":1748393659,"current_range_meters":10000,"station_id":"ce4bhk92rcd13ifvqgc0","pricing_plan_id":"cebpf4jnsgd1na2vs0mg"},{"bike_id":"0b9389ac-f857-4d87-84d8-daa4d96080d9","system_id":"levelo_inurba_marseille","lat":43.317582,"lon":5.390155,"is_reserved":false,"is_disabled":false,"rental_uris":{"android":"levelo://app?vid=0b9389ac-f857-4d87-84d8-daa4d96080d9","ios":"levelo://app?vid=0b9389ac-f857-4d87-84d8-daa4d96080d9"},"vehicle_type_id":"4","last_reported":1748393659,"current_range_meters":10800,"station_id":"ce4bhqp2rcd13ifvqhng","pricing_plan_id":"cebpf4jnsgd1na2vs0mg"},{"bike_id":"58c565ec-4152-4033-9b18-66babf3bc18f","system_id":"levelo_inurba_marseille","lat":43.306098,"lon":5.372078,"is_reserved":false,"is_disabled":false,"rental_uris":{"android":"levelo://app?vid=58c565ec-4152-4033-9b18-66babf3bc18f","ios":"levelo://app?vid=58c565ec-4152-4033-9b18-66babf3bc18f"},"vehicle_type_id":"4","last_reported":1748393659,"current_range_meters":10800,"station_id":"ce4bgqh2rcd13ifvqc4g","pricing_plan_id":"cebpf4jnsgd1na2vs0mg"},{"bike_id":"d210ed15-0cab-4985-be76-61173c3a81e4","system_id":"levelo_inurba_marseille","lat":43.28722,"lon":5.36123,"is_reserved":false,"is_disabled":true,"rental_uris":{"android":"levelo://app?vid=d210ed15-0cab-4985-be76-61173c3a81e4","ios":"levelo://app?vid=d210ed15-0cab-4985-be76-61173c3a81e4"},"vehicle_type_id":"4","last_reported":1748393659,"current_range_meters":10800,"station_id":"cki0cbj6b192h4jlfktg","pricing_plan_id":"cebpf4jnsgd1na2vs0mg"},{"bike_id":"a6454886-d2ce-44b0-a4a6-2dfb69ef49c9","system_id":"levelo_inurba_marseille","lat":43.31075,"lon":5.3835,"is_reserved":false,"is_disabled":false,"rental_uris":{"android":"levelo://app?vid=a6454886-d2ce-44b0-a4a6-2dfb69ef49c9","ios":"levelo://app?vid=a6454886-d2ce-44b0-a4a6-2dfb69ef49c9"},"vehicle_type_id":"4","last_reported":1748393659,"current_range_meters":10800,"station_id":"ce4bgv92rcd13ifvqcr0","pricing_plan_id":"cebpf4jnsgd1na2vs0mg"},{"bike_id":"0750c5bc-16dd-493b-9a98-03792500952e","system_id":"levelo_inurba_marseille","lat":43.31071,"lon":5.38352,"is_reserved":false,"is_disabled":false,"rental_uris":{"android":"levelo://app?vid=0750c5bc-16dd-493b-9a98-03792500952e","ios":"levelo://app?vid=0750c5bc-16dd-493b-9a98-03792500952e"},"vehicle_type_id":"4","last_reported":1748393659,"current_range_meters":10800,"station_id":"ce4bgv92rcd13ifvqcr0","pricing_plan_id":"cebpf4jnsgd1na2vs0mg"},{"bike_id":"086db649-d8a7-4996-b50f-1dba37294b53","system_id":"levelo_inurba_marseille","lat":43.308836,"lon":5.396435,"is_reserved":false,"is_disabled":false,"rental_uris":{"android":"levelo://app?vid=086db649-d8a7-4996-b50f-1dba37294b53","ios":"levelo://app?vid=086db649-d8a7-4996-b50f-1dba37294b53"},"vehicle_type_id":"4","last_reported":1748393659,"current_range_meters":11200,"station_id":"ce4bh012rcd13ifvqcv0","pricing_plan_id":"cebpf4jnsgd1na2vs0mg"},{"bike_id":"5ad0faef-897d-4c19-b2e4-979327720bd4","system_id":"levelo_inurba_marseille","lat":43.25096,"lon":5.39524,"is_reserved":false,"is_disabled":false,"rental_uris":{"android":"levelo://app?vid=5ad0faef-897d-4c19-b2e4-979327720bd4","ios":"levelo://app?vid=5ad0faef-897d-4c19-b2e4-979327720bd4"},"vehicle_type_id":"4","last_reported":1748393659,"current_range_meters":11200,"station_id":"ce4bhm12rcd13ifvqgkg","pricing_plan_id":"cebpf4jnsgd1na2vs0mg"},{"bike_id":"2615848e-1784-42d9-b13f-6a20dcbc9915","system_id":"levelo_inurba_marseille","lat":43.30649,"lon":5.40083,"is_reserved":false,"is_disabled":false,"rental_uris":{"android":"levelo://app?vid=2615848e-1784-42d9-b13f-6a20dcbc9915","ios":"levelo://app?vid=2615848e-1784-42d9-b13f-6a20dcbc9915"},"vehicle_type_id":"4","last_reported":1748393659,"current_range_meters":11200,"station_id":"ce4bh112rcd13ifvqda0","pricing_plan_id":"cebpf4jnsgd1na2vs0mg"},{"bike_id":"728762e1-832c-432a-a711-202feb3c897b","system_id":"levelo_inurba_marseille","lat":43.30885,"lon":5.39644,"is_reserved":false,"is_disabled":false,"rental_uris":{"android":"levelo://app?vid=728762e1-832c-432a-a711-202feb3c897b","ios":"levelo://app?vid=728762e1-832c-432a-a711-202feb3c897b"},"vehicle_type_id":"4","last_reported":1748393659,"current_range_meters":11200,"station_id":"ce4bh012rcd13ifvqcv0","pricing_plan_id":"cebpf4jnsgd1na2vs0mg"},{"bike_id":"f0ecbad3-5c56-4efa-84f0-9f2a84b7774d","system_id":"levelo_inurba_marseille","lat":43.32212,"lon":5.38456,"is_reserved":false,"is_disabled":false,"rental_uris":{"android":"levelo://app?vid=f0ecbad3-5c56-4efa-84f0-9f2a84b7774d","ios":"levelo://app?vid=f0ecbad3-5c56-4efa-84f0-9f2a84b7774d"},"vehicle_type_id":"4","last_reported":1748393659,"current_range_meters":11200,"station_id":"","pricing_plan_id":"cebpf4jnsgd1na2vs0mg"},{"bike_id":"83229224-589e-4c50-a778-c0c522497500","system_id":"levelo_inurba_marseille","lat":43.24151,"lon":5.39728,"is_reserved":false,"is_disabled":false,"rental_uris":{"android":"levelo://app?vid=83229224-589e-4c50-a778-c0c522497500","ios":"levelo://app?vid=83229224-589e-4c50-a778-c0c522497500"},"vehicle_type_id":"4","last_reported":1748393659,"current_range_meters":11200,"station_id":"ce4bhn12rcd13ifvqgpg","pricing_plan_id":"cebpf4jnsgd1na2vs0mg"},{"bike_id":"631b6ae3-17f3-4938-bfbf-bb37bcf89617","system_id":"levelo_inurba_marseille","lat":43.29253,"lon":5.40911,"is_reserved":false,"is_disabled":false,"rental_uris":{"android":"levelo://app?vid=631b6ae3-17f3-4938-bfbf-bb37bcf89617","ios":"levelo://app?vid=631b6ae3-17f3-4938-bfbf-bb37bcf89617"},"vehicle_type_id":"4","last_reported":1748393659,"current_range_meters":11200,"station_id":"ce4bh192rcd13ifvqdc0","pricing_plan_id":"cebpf4jnsgd1na2vs0mg"},{"bike_id":"bc21eb6e-8700-42e4-b2d6-274ccd1bac81","system_id":"levelo_inurba_marseille","lat":43.289787,"lon":5.378277,"is_reserved":false,"is_disabled":true,"rental_uris":{"android":"levelo://app?vid=bc21eb6e-8700-42e4-b2d6-274ccd1bac81","ios":"levelo://app?vid=bc21eb6e-8700-42e4-b2d6-274ccd1bac81"},"vehicle_type_id":"4","last_reported":1748393659,"current_range_meters":11200,"station_id":"ce4bh9p2rcd13ifvqed0","pricing_plan_id":"cebpf4jnsgd1na2vs0mg"},{"bike_id":"f757d16f-10d1-46fd-97c8-e7926b6602c0","system_id":"levelo_inurba_marseille","lat":43.30887,"lon":5.39629,"is_reserved":false,"is_disabled":false,"rental_uris":{"android":"levelo://app?vid=f757d16f-10d1-46fd-97c8-e7926b6602c0","ios":"levelo://app?vid=f757d16f-10d1-46fd-97c8-e7926b6602c0"},"vehicle_type_id":"4","last_reported":1748393659,"current_range_meters":11600,"station_id":"ce4bh012rcd13ifvqcv0","pricing_plan_id":"cebpf4jnsgd1na2vs0mg"},{"bike_id":"18f379c0-cd6a-4d28-94be-da5478774af1","system_id":"levelo_inurba_marseille","lat":43.29027,"lon":5.35909,"is_reserved":false,"is_disabled":true,"rental_uris":{"android":"levelo://app?vid=18f379c0-cd6a-4d28-94be-da5478774af1","ios":"levelo://app?vid=18f379c0-cd6a-4d28-94be-da5478774af1"},"vehicle_type_id":"4","last_reported":1748393659,"current_range_meters":11600,"station_id":"ce4bha92rcd13ifvqeg0","pricing_plan_id":"cebpf4jnsgd1na2vs0mg"},{"bike_id":"4f400036-3840-49c8-9932-b6aa5ab45ce0","system_id":"levelo_inurba_marseille","lat":43.309289,"lon":5.401433,"is_reserved":false,"is_disabled":false,"rental_uris":{"android":"levelo://app?vid=4f400036-3840-49c8-9932-b6aa5ab45ce0","ios":"levelo://app?vid=4f400036-3840-49c8-9932-b6aa5ab45ce0"},"vehicle_type_id":"4","last_reported":1748393659,"current_range_meters":11600,"station_id":"ce4bgvp2rcd13ifvqct0","pricing_plan_id":"cebpf4jnsgd1na2vs0mg"},{"bike_id":"798704d5-b435-4b5d-8375-c86045564322","system_id":"levelo_inurba_marseille","lat":43.27956,"lon":5.38716,"is_reserved":false,"is_disabled":false,"rental_uris":{"android":"levelo://app?vid=798704d5-b435-4b5d-8375-c86045564322","ios":"levelo://app?vid=798704d5-b435-4b5d-8375-c86045564322"},"vehicle_type_id":"4","last_reported":1748393659,"current_range_meters":11600,"station_id":"ce4bhg12rcd13ifvqf80","pricing_plan_id":"cebpf4jnsgd1na2vs0mg"},{"bike_id":"6a2eb3d1-8421-4db2-9c25-13e15f56bb41","system_id":"levelo_inurba_marseille","lat":43.30941,"lon":5.40168,"is_reserved":false,"is_disabled":false,"rental_uris":{"android":"levelo://app?vid=6a2eb3d1-8421-4db2-9c25-13e15f56bb41","ios":"levelo://app?vid=6a2eb3d1-8421-4db2-9c25-13e15f56bb41"},"vehicle_type_id":"4","last_reported":1748393659,"current_range_meters":11600,"station_id":"ce4bgvp2rcd13ifvqct0","pricing_plan_id":"cebpf4jnsgd1na2vs0mg"},{"bike_id":"834a0232-d7de-4c17-90e8-aa8227913570","system_id":"levelo_inurba_marseille","lat":43.29191,"lon":5.39315,"is_reserved":false,"is_disabled":false,"rental_uris":{"android":"levelo://app?vid=834a0232-d7de-4c17-90e8-aa8227913570","ios":"levelo://app?vid=834a0232-d7de-4c17-90e8-aa8227913570"},"vehicle_type_id":"4","last_reported":1748393659,"current_range_meters":11600,"station_id":"ce4bh192rcd13ifvqdd0","pricing_plan_id":"cebpf4jnsgd1na2vs0mg"},{"bike_id":"0c54ac15-bb15-4844-a441-b6cbd573eb91","system_id":"levelo_inurba_marseille","lat":43.30883,"lon":5.3964,"is_reserved":false,"is_disabled":false,"rental_uris":{"android":"levelo://app?vid=0c54ac15-bb15-4844-a441-b6cbd573eb91","ios":"levelo://app?vid=0c54ac15-bb15-4844-a441-b6cbd573eb91"},"vehicle_type_id":"4","last_reported":1748393659,"current_range_meters":11600,"station_id":"ce4bh012rcd13ifvqcv0","pricing_plan_id":"cebpf4jnsgd1na2vs0mg"},{"bike_id":"0c92f513-ef44-4a67-958b-d1ecfa5c366b","system_id":"levelo_inurba_marseille","lat":43.31173,"lon":5.38716,"is_reserved":false,"is_disabled":false,"rental_uris":{"android":"levelo://app?vid=0c92f513-ef44-4a67-958b-d1ecfa5c366b","ios":"levelo://app?vid=0c92f513-ef44-4a67-958b-d1ecfa5c366b"},"vehicle_type_id":"4","last_reported":1748393659,"current_range_meters":12000,"station_id":"ce4bgv12rcd13ifvqcp0","pricing_plan_id":"cebpf4jnsgd1na2vs0mg"},{"bike_id":"6530cb0d-cf31-4e4a-ab23-cc7b4720c169","system_id":"levelo_inurba_marseille","lat":43.31114,"lon":5.37758,"is_reserved":false,"is_disabled":false,"rental_uris":{"android":"levelo://app?vid=6530cb0d-cf31-4e4a-ab23-cc7b4720c169","ios":"levelo://app?vid=6530cb0d-cf31-4e4a-ab23-cc7b4720c169"},"vehicle_type_id":"4","last_reported":1748393659,"current_range_meters":12000,"station_id":"ce4bgt92rcd13ifvqcg0","pricing_plan_id":"cebpf4jnsgd1na2vs0mg"},{"bike_id":"cc391400-7d4c-4261-8004-e9968eddac7e","system_id":"levelo_inurba_marseille","lat":43.29033,"lon":5.37557,"is_reserved":false,"is_disabled":true,"rental_uris":{"android":"levelo://app?vid=cc391400-7d4c-4261-8004-e9968eddac7e","ios":"levelo://app?vid=cc391400-7d4c-4261-8004-e9968eddac7e"},"vehicle_type_id":"4","last_reported":1748393659,"current_range_meters":12000,"station_id":"ce4bh692rcd13ifvqe90","pricing_plan_id":"cebpf4jnsgd1na2vs0mg"},{"bike_id":"8b8f4ddc-5f2d-41ad-9613-91a528fd4361","system_id":"levelo_inurba_marseille","lat":43.229301,"lon":5.353798,"is_reserved":false,"is_disabled":false,"rental_uris":{"android":"levelo://app?vid=8b8f4ddc-5f2d-41ad-9613-91a528fd4361","ios":"levelo://app?vid=8b8f4ddc-5f2d-41ad-9613-91a528fd4361"},"vehicle_type_id":"4","last_reported":1748393659,"current_range_meters":12000,"station_id":"cpo3532slgdg3j2ikp40","pricing_plan_id":"cebpf4jnsgd1na2vs0mg"},{"bike_id":"16325869-b0b1-4ea6-b5e0-4206964d490a","system_id":"levelo_inurba_marseille","lat":43.26023,"lon":5.41743,"is_reserved":false,"is_disabled":false,"rental_uris":{"android":"levelo://app?vid=16325869-b0b1-4ea6-b5e0-4206964d490a","ios":"levelo://app?vid=16325869-b0b1-4ea6-b5e0-4206964d490a"},"vehicle_type_id":"4","last_reported":1748393659,"current_range_meters":12400,"station_id":"","pricing_plan_id":"cebpf4jnsgd1na2vs0mg"},{"bike_id":"9457a377-3567-464b-b191-f8d2ccbd3d31","system_id":"levelo_inurba_marseille","lat":43.31686,"lon":5.40468,"is_reserved":false,"is_disabled":false,"rental_uris":{"android":"levelo://app?vid=9457a377-3567-464b-b191-f8d2ccbd3d31","ios":"levelo://app?vid=9457a377-3567-464b-b191-f8d2ccbd3d31"},"vehicle_type_id":"4","last_reported":1748393659,"current_range_meters":12000,"station_id":"ce4bh012rcd13ifvqd00","pricing_plan_id":"cebpf4jnsgd1na2vs0mg"},{"bike_id":"f22347e3-ef6c-406b-8a7e-ff0cc1199753","system_id":"levelo_inurba_marseille","lat":43.33609,"lon":5.41025,"is_reserved":false,"is_disabled":false,"rental_uris":{"android":"levelo://app?vid=f22347e3-ef6c-406b-8a7e-ff0cc1199753","ios":"levelo://app?vid=f22347e3-ef6c-406b-8a7e-ff0cc1199753"},"vehicle_type_id":"4","last_reported":1748393659,"current_range_meters":12000,"station_id":"ce4bhqh2rcd13ifvqhmg","pricing_plan_id":"cebpf4jnsgd1na2vs0mg"},{"bike_id":"37d1376c-dfa1-4e03-8541-7bea54bb6ea8","system_id":"levelo_inurba_marseille","lat":43.311681,"lon":5.387173,"is_reserved":false,"is_disabled":false,"rental_uris":{"android":"levelo://app?vid=37d1376c-dfa1-4e03-8541-7bea54bb6ea8","ios":"levelo://app?vid=37d1376c-dfa1-4e03-8541-7bea54bb6ea8"},"vehicle_type_id":"4","last_reported":1748393659,"current_range_meters":12000,"station_id":"ce4bgv12rcd13ifvqcp0","pricing_plan_id":"cebpf4jnsgd1na2vs0mg"},{"bike_id":"e00dfda0-368f-45d7-9c55-0565d001cd35","system_id":"levelo_inurba_marseille","lat":43.306,"lon":5.39335,"is_reserved":false,"is_disabled":false,"rental_uris":{"android":"levelo://app?vid=e00dfda0-368f-45d7-9c55-0565d001cd35","ios":"levelo://app?vid=e00dfda0-368f-45d7-9c55-0565d001cd35"},"vehicle_type_id":"4","last_reported":1748393659,"current_range_meters":12400,"station_id":"ce4bh0p2rcd13ifvqd80","pricing_plan_id":"cebpf4jnsgd1na2vs0mg"},{"bike_id":"4dfe8ad8-7fd9-4933-9ebb-8a929b485e33","system_id":"levelo_inurba_marseille","lat":43.2873,"lon":5.36075,"is_reserved":false,"is_disabled":false,"rental_uris":{"android":"levelo://app?vid=4dfe8ad8-7fd9-4933-9ebb-8a929b485e33","ios":"levelo://app?vid=4dfe8ad8-7fd9-4933-9ebb-8a929b485e33"},"vehicle_type_id":"4","last_reported":1748393659,"current_range_meters":12400,"station_id":"cki0cbj6b192h4jlfktg","pricing_plan_id":"cebpf4jnsgd1na2vs0mg"},{"bike_id":"1e9cfdb7-6b8a-4441-9f46-98e85a4be5d9","system_id":"levelo_inurba_marseille","lat":43.23143,"lon":5.43728,"is_reserved":false,"is_disabled":false,"rental_uris":{"android":"levelo://app?vid=1e9cfdb7-6b8a-4441-9f46-98e85a4be5d9","ios":"levelo://app?vid=1e9cfdb7-6b8a-4441-9f46-98e85a4be5d9"},"vehicle_type_id":"4","last_reported":1748393659,"current_range_meters":12400,"station_id":"ce4bhmp2rcd13ifvqgog","pricing_plan_id":"cebpf4jnsgd1na2vs0mg"},{"bike_id":"0ff8b806-1120-4ca9-b9e7-33503377a0cc","system_id":"levelo_inurba_marseille","lat":43.3026,"lon":5.40061,"is_reserved":false,"is_disabled":false,"rental_uris":{"android":"levelo://app?vid=0ff8b806-1120-4ca9-b9e7-33503377a0cc","ios":"levelo://app?vid=0ff8b806-1120-4ca9-b9e7-33503377a0cc"},"vehicle_type_id":"4","last_reported":1748393659,"current_range_meters":12400,"station_id":"ce4bgvh2rcd13ifvqcs0","pricing_plan_id":"cebpf4jnsgd1na2vs0mg"},{"bike_id":"c49b70de-4adb-4cfc-8307-bdc53758104f","system_id":"levelo_inurba_marseille","lat":43.2319,"lon":5.35547,"is_reserved":false,"is_disabled":false,"rental_uris":{"android":"levelo://app?vid=c49b70de-4adb-4cfc-8307-bdc53758104f","ios":"levelo://app?vid=c49b70de-4adb-4cfc-8307-bdc53758104f"},"vehicle_type_id":"4","last_reported":1748393659,"current_range_meters":12400,"station_id":"ce4bhu92rcd13ifvqi70","pricing_plan_id":"cebpf4jnsgd1na2vs0mg"},{"bike_id":"07ab72bd-9298-45dd-8184-52d45380b58d","system_id":"levelo_inurba_marseille","lat":43.28074,"lon":5.39634,"is_reserved":false,"is_disabled":false,"rental_uris":{"android":"levelo://app?vid=07ab72bd-9298-45dd-8184-52d45380b58d","ios":"levelo://app?vid=07ab72bd-9298-45dd-8184-52d45380b58d"},"vehicle_type_id":"4","last_reported":1748393659,"current_range_meters":12400,"station_id":"ce4bho12rcd13ifvqh2g","pricing_plan_id":"cebpf4jnsgd1na2vs0mg"},{"bike_id":"5a621852-4b0d-47fa-9514-efb82e08741c","system_id":"levelo_inurba_marseille","lat":43.337812,"lon":5.374627,"is_reserved":false,"is_disabled":true,"rental_uris":{"android":"levelo://app?vid=5a621852-4b0d-47fa-9514-efb82e08741c","ios":"levelo://app?vid=5a621852-4b0d-47fa-9514-efb82e08741c"},"vehicle_type_id":"4","last_reported":1748393659,"current_range_meters":12800,"station_id":"","pricing_plan_id":"cebpf4jnsgd1na2vs0mg"},{"bike_id":"34c6f0fc-a825-460a-874b-f9afa9305de8","system_id":"levelo_inurba_marseille","lat":43.30618,"lon":5.3726,"is_reserved":false,"is_disabled":false,"rental_uris":{"android":"levelo://app?vid=34c6f0fc-a825-460a-874b-f9afa9305de8","ios":"levelo://app?vid=34c6f0fc-a825-460a-874b-f9afa9305de8"},"vehicle_type_id":"4","last_reported":1748393659,"current_range_meters":12800,"station_id":"ce4bgqh2rcd13ifvqc4g","pricing_plan_id":"cebpf4jnsgd1na2vs0mg"},{"bike_id":"fd3b8926-9732-4665-beec-b59272be973b","system_id":"levelo_inurba_marseille","lat":43.31183,"lon":5.40215,"is_reserved":false,"is_disabled":false,"rental_uris":{"android":"levelo://app?vid=fd3b8926-9732-4665-beec-b59272be973b","ios":"levelo://app?vid=fd3b8926-9732-4665-beec-b59272be973b"},"vehicle_type_id":"4","last_reported":1748393659,"current_range_meters":12800,"station_id":"","pricing_plan_id":"cebpf4jnsgd1na2vs0mg"},{"bike_id":"46f1e1a2-421d-4288-9b19-22918bc7cc7f","system_id":"levelo_inurba_marseille","lat":43.232006,"lon":5.355488,"is_reserved":false,"is_disabled":false,"rental_uris":{"android":"levelo://app?vid=46f1e1a2-421d-4288-9b19-22918bc7cc7f","ios":"levelo://app?vid=46f1e1a2-421d-4288-9b19-22918bc7cc7f"},"vehicle_type_id":"4","last_reported":1748393659,"current_range_meters":12800,"station_id":"ce4bhu92rcd13ifvqi70","pricing_plan_id":"cebpf4jnsgd1na2vs0mg"},{"bike_id":"2ee3c059-c14d-41e1-8070-f754017e275e","system_id":"levelo_inurba_marseille","lat":43.30873,"lon":5.39646,"is_reserved":false,"is_disabled":false,"rental_uris":{"android":"levelo://app?vid=2ee3c059-c14d-41e1-8070-f754017e275e","ios":"levelo://app?vid=2ee3c059-c14d-41e1-8070-f754017e275e"},"vehicle_type_id":"4","last_reported":1748393659,"current_range_meters":12800,"station_id":"ce4bh012rcd13ifvqcv0","pricing_plan_id":"cebpf4jnsgd1na2vs0mg"},{"bike_id":"f7fbc1d9-af64-4aef-9eba-8165d0aadc07","system_id":"levelo_inurba_marseille","lat":43.30941,"lon":5.40193,"is_reserved":false,"is_disabled":false,"rental_uris":{"android":"levelo://app?vid=f7fbc1d9-af64-4aef-9eba-8165d0aadc07","ios":"levelo://app?vid=f7fbc1d9-af64-4aef-9eba-8165d0aadc07"},"vehicle_type_id":"4","last_reported":1748393659,"current_range_meters":12800,"station_id":"ce4bgvp2rcd13ifvqct0","pricing_plan_id":"cebpf4jnsgd1na2vs0mg"},{"bike_id":"d2fa8e77-9f90-45e1-a835-7464576f03ac","system_id":"levelo_inurba_marseille","lat":43.31693,"lon":5.40474,"is_reserved":false,"is_disabled":false,"rental_uris":{"android":"levelo://app?vid=d2fa8e77-9f90-45e1-a835-7464576f03ac","ios":"levelo://app?vid=d2fa8e77-9f90-45e1-a835-7464576f03ac"},"vehicle_type_id":"4","last_reported":1748393659,"current_range_meters":12800,"station_id":"ce4bh012rcd13ifvqd00","pricing_plan_id":"cebpf4jnsgd1na2vs0mg"},{"bike_id":"245b30f8-80dc-4878-ba6a-66701beca56f","system_id":"levelo_inurba_marseille","lat":43.28409,"lon":5.37511,"is_reserved":false,"is_disabled":false,"rental_uris":{"android":"levelo://app?vid=245b30f8-80dc-4878-ba6a-66701beca56f","ios":"levelo://app?vid=245b30f8-80dc-4878-ba6a-66701beca56f"},"vehicle_type_id":"4","last_reported":1748393659,"current_range_meters":12800,"station_id":"ce4bh412rcd13ifvqds0","pricing_plan_id":"cebpf4jnsgd1na2vs0mg"},{"bike_id":"7d644362-2701-4137-aac7-822704820d27","system_id":"levelo_inurba_marseille","lat":43.31754,"lon":5.39043,"is_reserved":false,"is_disabled":true,"rental_uris":{"android":"levelo://app?vid=7d644362-2701-4137-aac7-822704820d27","ios":"levelo://app?vid=7d644362-2701-4137-aac7-822704820d27"},"vehicle_type_id":"4","last_reported":1748393659,"current_range_meters":12800,"station_id":"ce4bhqp2rcd13ifvqhng","pricing_plan_id":"cebpf4jnsgd1na2vs0mg"},{"bike_id":"da8b2ce3-cf54-42bc-a195-38972c932104","system_id":"levelo_inurba_marseille","lat":43.30935,"lon":5.4016,"is_reserved":false,"is_disabled":false,"rental_uris":{"android":"levelo://app?vid=da8b2ce3-cf54-42bc-a195-38972c932104","ios":"levelo://app?vid=da8b2ce3-cf54-42bc-a195-38972c932104"},"vehicle_type_id":"4","last_reported":1748393659,"current_range_meters":13600,"station_id":"ce4bgvp2rcd13ifvqct0","pricing_plan_id":"cebpf4jnsgd1na2vs0mg"},{"bike_id":"71c3c26b-dbd0-45d0-80eb-41fe0433ad32","system_id":"levelo_inurba_marseille","lat":43.310797,"lon":5.383927,"is_reserved":false,"is_disabled":false,"rental_uris":{"android":"levelo://app?vid=71c3c26b-dbd0-45d0-80eb-41fe0433ad32","ios":"levelo://app?vid=71c3c26b-dbd0-45d0-80eb-41fe0433ad32"},"vehicle_type_id":"4","last_reported":1748393659,"current_range_meters":13600,"station_id":"ce4bgv92rcd13ifvqcr0","pricing_plan_id":"cebpf4jnsgd1na2vs0mg"},{"bike_id":"9ed94f34-a328-46fc-b201-bade39dda6d1","system_id":"levelo_inurba_marseille","lat":43.25022,"lon":5.38951,"is_reserved":false,"is_disabled":false,"rental_uris":{"android":"levelo://app?vid=9ed94f34-a328-46fc-b201-bade39dda6d1","ios":"levelo://app?vid=9ed94f34-a328-46fc-b201-bade39dda6d1"},"vehicle_type_id":"4","last_reported":1748393659,"current_range_meters":13600,"station_id":"ce4bhgp2rcd13ifvqfd0","pricing_plan_id":"cebpf4jnsgd1na2vs0mg"},{"bike_id":"c9ac9815-cace-4f5a-bc55-391519ae5e1e","system_id":"levelo_inurba_marseille","lat":43.27173,"lon":5.40986,"is_reserved":false,"is_disabled":false,"rental_uris":{"android":"levelo://app?vid=c9ac9815-cace-4f5a-bc55-391519ae5e1e","ios":"levelo://app?vid=c9ac9815-cace-4f5a-bc55-391519ae5e1e"},"vehicle_type_id":"4","last_reported":1748393659,"current_range_meters":13600,"station_id":"ce4bhl12rcd13ifvqgf0","pricing_plan_id":"cebpf4jnsgd1na2vs0mg"},{"bike_id":"39056081-d121-4121-849e-354b8c05a42e","system_id":"levelo_inurba_marseille","lat":43.30084,"lon":5.39083,"is_reserved":false,"is_disabled":false,"rental_uris":{"android":"levelo://app?vid=39056081-d121-4121-849e-354b8c05a42e","ios":"levelo://app?vid=39056081-d121-4121-849e-354b8c05a42e"},"vehicle_type_id":"4","last_reported":1748393659,"current_range_meters":13600,"station_id":"ce4bh192rcd13ifvqdb0","pricing_plan_id":"cebpf4jnsgd1na2vs0mg"},{"bike_id":"b9feece3-8db7-4d9c-b5c4-3d592ac61b90","system_id":"levelo_inurba_marseille","lat":43.291848,"lon":5.358085,"is_reserved":false,"is_disabled":true,"rental_uris":{"android":"levelo://app?vid=b9feece3-8db7-4d9c-b5c4-3d592ac61b90","ios":"levelo://app?vid=b9feece3-8db7-4d9c-b5c4-3d592ac61b90"},"vehicle_type_id":"4","last_reported":1748393659,"current_range_meters":13600,"station_id":"","pricing_plan_id":"cebpf4jnsgd1na2vs0mg"},{"bike_id":"25fe1924-4408-4709-a1de-804f3412a784","system_id":"levelo_inurba_marseille","lat":43.31418,"lon":5.36693,"is_reserved":false,"is_disabled":false,"rental_uris":{"android":"levelo://app?vid=25fe1924-4408-4709-a1de-804f3412a784","ios":"levelo://app?vid=25fe1924-4408-4709-a1de-804f3412a784"},"vehicle_type_id":"4","last_reported":1748393659,"current_range_meters":14000,"station_id":"ce4bgr92rcd13ifvqc6g","pricing_plan_id":"cebpf4jnsgd1na2vs0mg"},{"bike_id":"718f3e6f-cbd1-46ef-9d95-4a8094e4f55f","system_id":"levelo_inurba_marseille","lat":43.309302,"lon":5.401602,"is_reserved":false,"is_disabled":false,"rental_uris":{"android":"levelo://app?vid=718f3e6f-cbd1-46ef-9d95-4a8094e4f55f","ios":"levelo://app?vid=718f3e6f-cbd1-46ef-9d95-4a8094e4f55f"},"vehicle_type_id":"4","last_reported":1748393659,"current_range_meters":14000,"station_id":"ce4bgvp2rcd13ifvqct0","pricing_plan_id":"cebpf4jnsgd1na2vs0mg"},{"bike_id":"aeb17350-5d00-44be-8ef5-7401b4326230","system_id":"levelo_inurba_marseille","lat":43.24553,"lon":5.39534,"is_reserved":false,"is_disabled":false,"rental_uris":{"android":"levelo://app?vid=aeb17350-5d00-44be-8ef5-7401b4326230","ios":"levelo://app?vid=aeb17350-5d00-44be-8ef5-7401b4326230"},"vehicle_type_id":"4","last_reported":1748393659,"current_range_meters":14000,"station_id":"ce4bhlp2rcd13ifvqgjg","pricing_plan_id":"cebpf4jnsgd1na2vs0mg"},{"bike_id":"47583335-9e10-4931-b076-003bea66dc0e","system_id":"levelo_inurba_marseille","lat":43.28207,"lon":5.39055,"is_reserved":false,"is_disabled":false,"rental_uris":{"android":"levelo://app?vid=47583335-9e10-4931-b076-003bea66dc0e","ios":"levelo://app?vid=47583335-9e10-4931-b076-003bea66dc0e"},"vehicle_type_id":"4","last_reported":1748393659,"current_range_meters":14000,"station_id":"","pricing_plan_id":"cebpf4jnsgd1na2vs0mg"},{"bike_id":"66ce27fa-93cf-4af2-b68b-f853af9cec83","system_id":"levelo_inurba_marseille","lat":43.295066,"lon":5.374448,"is_reserved":false,"is_disabled":false,"rental_uris":{"android":"levelo://app?vid=66ce27fa-93cf-4af2-b68b-f853af9cec83","ios":"levelo://app?vid=66ce27fa-93cf-4af2-b68b-f853af9cec83"},"vehicle_type_id":"4","last_reported":1748393659,"current_range_meters":14400,"station_id":"ce4bgh92rcd13ifvqb50","pricing_plan_id":"cebpf4jnsgd1na2vs0mg"},{"bike_id":"1d9aa0a3-8d94-496c-8645-8bc9aba995f5","system_id":"levelo_inurba_marseille","lat":43.29289,"lon":5.40128,"is_reserved":false,"is_disabled":false,"rental_uris":{"android":"levelo://app?vid=1d9aa0a3-8d94-496c-8645-8bc9aba995f5","ios":"levelo://app?vid=1d9aa0a3-8d94-496c-8645-8bc9aba995f5"},"vehicle_type_id":"4","last_reported":1748393659,"current_range_meters":14400,"station_id":"ce4bh312rcd13ifvqdk0","pricing_plan_id":"cebpf4jnsgd1na2vs0mg"},{"bike_id":"134c70cc-46f1-414c-ba60-b99ba2b4a992","system_id":"levelo_inurba_marseille","lat":43.3482,"lon":5.35108,"is_reserved":false,"is_disabled":false,"rental_uris":{"android":"levelo://app?vid=134c70cc-46f1-414c-ba60-b99ba2b4a992","ios":"levelo://app?vid=134c70cc-46f1-414c-ba60-b99ba2b4a992"},"vehicle_type_id":"4","last_reported":1748393659,"current_range_meters":14400,"station_id":"","pricing_plan_id":"cebpf4jnsgd1na2vs0mg"},{"bike_id":"c2c25dd5-dc71-4aa2-a4d5-1ae79422659b","system_id":"levelo_inurba_marseille","lat":43.28217,"lon":5.39054,"is_reserved":false,"is_disabled":false,"rental_uris":{"android":"levelo://app?vid=c2c25dd5-dc71-4aa2-a4d5-1ae79422659b","ios":"levelo://app?vid=c2c25dd5-dc71-4aa2-a4d5-1ae79422659b"},"vehicle_type_id":"4","last_reported":1748393659,"current_range_meters":14800,"station_id":"","pricing_plan_id":"cebpf4jnsgd1na2vs0mg"},{"bike_id":"2a529e4a-98c3-4022-8fed-d80a6b40c232","system_id":"levelo_inurba_marseille","lat":43.24543,"lon":5.39523,"is_reserved":false,"is_disabled":false,"rental_uris":{"android":"levelo://app?vid=2a529e4a-98c3-4022-8fed-d80a6b40c232","ios":"levelo://app?vid=2a529e4a-98c3-4022-8fed-d80a6b40c232"},"vehicle_type_id":"4","last_reported":1748393659,"current_range_meters":14800,"station_id":"ce4bhlp2rcd13ifvqgjg","pricing_plan_id":"cebpf4jnsgd1na2vs0mg"},{"bike_id":"ff8f28bc-f6fd-4682-9705-5ce355ece96b","system_id":"levelo_inurba_marseille","lat":43.30259,"lon":5.40091,"is_reserved":false,"is_disabled":false,"rental_uris":{"android":"levelo://app?vid=ff8f28bc-f6fd-4682-9705-5ce355ece96b","ios":"levelo://app?vid=ff8f28bc-f6fd-4682-9705-5ce355ece96b"},"vehicle_type_id":"4","last_reported":1748393659,"current_range_meters":14800,"station_id":"ce4bgvh2rcd13ifvqcs0","pricing_plan_id":"cebpf4jnsgd1na2vs0mg"},{"bike_id":"f17b5f1b-722c-492d-a6a6-635d0fc8540a","system_id":"levelo_inurba_marseille","lat":43.30426,"lon":5.397474,"is_reserved":false,"is_disabled":false,"rental_uris":{"android":"levelo://app?vid=f17b5f1b-722c-492d-a6a6-635d0fc8540a","ios":"levelo://app?vid=f17b5f1b-722c-492d-a6a6-635d0fc8540a"},"vehicle_type_id":"4","last_reported":1748393659,"current_range_meters":15200,"station_id":"ce4bh092rcd13ifvqd20","pricing_plan_id":"cebpf4jnsgd1na2vs0mg"},{"bike_id":"bedbbb34-82aa-4a56-8ecf-72e3100f83ac","system_id":"levelo_inurba_marseille","lat":43.302585,"lon":5.388918,"is_reserved":false,"is_disabled":false,"rental_uris":{"android":"levelo://app?vid=bedbbb34-82aa-4a56-8ecf-72e3100f83ac","ios":"levelo://app?vid=bedbbb34-82aa-4a56-8ecf-72e3100f83ac"},"vehicle_type_id":"4","last_reported":1748393659,"current_range_meters":15200,"station_id":"","pricing_plan_id":"cebpf4jnsgd1na2vs0mg"},{"bike_id":"8cb48e60-19aa-4fb9-8708-4e4a56b04ded","system_id":"levelo_inurba_marseille","lat":43.25493,"lon":5.37679,"is_reserved":false,"is_disabled":true,"rental_uris":{"android":"levelo://app?vid=8cb48e60-19aa-4fb9-8708-4e4a56b04ded","ios":"levelo://app?vid=8cb48e60-19aa-4fb9-8708-4e4a56b04ded"},"vehicle_type_id":"4","last_reported":1748393659,"current_range_meters":15200,"station_id":"ce4bhh12rcd13ifvqff0","pricing_plan_id":"cebpf4jnsgd1na2vs0mg"},{"bike_id":"cca40936-2e2e-4cae-9baf-eec8f3341b59","system_id":"levelo_inurba_marseille","lat":43.30622,"lon":5.40085,"is_reserved":false,"is_disabled":false,"rental_uris":{"android":"levelo://app?vid=cca40936-2e2e-4cae-9baf-eec8f3341b59","ios":"levelo://app?vid=cca40936-2e2e-4cae-9baf-eec8f3341b59"},"vehicle_type_id":"4","last_reported":1748393659,"current_range_meters":15200,"station_id":"ce4bh112rcd13ifvqda0","pricing_plan_id":"cebpf4jnsgd1na2vs0mg"},{"bike_id":"24f3e3d5-b921-4756-97bd-883483154b22","system_id":"levelo_inurba_marseille","lat":43.32289,"lon":5.38282,"is_reserved":false,"is_disabled":false,"rental_uris":{"android":"levelo://app?vid=24f3e3d5-b921-4756-97bd-883483154b22","ios":"levelo://app?vid=24f3e3d5-b921-4756-97bd-883483154b22"},"vehicle_type_id":"4","last_reported":1748393659,"current_range_meters":15200,"station_id":"ce4bhr12rcd13ifvqhqg","pricing_plan_id":"cebpf4jnsgd1na2vs0mg"},{"bike_id":"c06fca89-0053-4526-bf0e-39603aea1bf2","system_id":"levelo_inurba_marseille","lat":43.330216,"lon":5.390324,"is_reserved":false,"is_disabled":false,"rental_uris":{"android":"levelo://app?vid=c06fca89-0053-4526-bf0e-39603aea1bf2","ios":"levelo://app?vid=c06fca89-0053-4526-bf0e-39603aea1bf2"},"vehicle_type_id":"4","last_reported":1748393659,"current_range_meters":16000,"station_id":"ce4bhr92rcd13ifvqhrg","pricing_plan_id":"cebpf4jnsgd1na2vs0mg"},{"bike_id":"825274f2-35c2-43a3-ab4e-e6978ea7f406","system_id":"levelo_inurba_marseille","lat":43.302083,"lon":5.394721,"is_reserved":false,"is_disabled":false,"rental_uris":{"android":"levelo://app?vid=825274f2-35c2-43a3-ab4e-e6978ea7f406","ios":"levelo://app?vid=825274f2-35c2-43a3-ab4e-e6978ea7f406"},"vehicle_type_id":"4","last_reported":1748393659,"current_range_meters":16000,"station_id":"ce4bh0p2rcd13ifvqd70","pricing_plan_id":"cebpf4jnsgd1na2vs0mg"},{"bike_id":"5b71d762-ff7f-46b3-a906-4507d388dbfe","system_id":"levelo_inurba_marseille","lat":43.29903,"lon":5.39771,"is_reserved":false,"is_disabled":true,"rental_uris":{"android":"levelo://app?vid=5b71d762-ff7f-46b3-a906-4507d388dbfe","ios":"levelo://app?vid=5b71d762-ff7f-46b3-a906-4507d388dbfe"},"vehicle_type_id":"4","last_reported":1748393659,"current_range_meters":16000,"station_id":"ce4bh0h2rcd13ifvqd50","pricing_plan_id":"cebpf4jnsgd1na2vs0mg"},{"bike_id":"9d261c87-a2b3-4a62-884c-13fffe97a760","system_id":"levelo_inurba_marseille","lat":43.309338,"lon":5.401412,"is_reserved":false,"is_disabled":false,"rental_uris":{"android":"levelo://app?vid=9d261c87-a2b3-4a62-884c-13fffe97a760","ios":"levelo://app?vid=9d261c87-a2b3-4a62-884c-13fffe97a760"},"vehicle_type_id":"4","last_reported":1748393659,"current_range_meters":16000,"station_id":"ce4bgvp2rcd13ifvqct0","pricing_plan_id":"cebpf4jnsgd1na2vs0mg"},{"bike_id":"1fed5cf7-13b7-4dc4-814e-e55c1b74556e","system_id":"levelo_inurba_marseille","lat":43.2928,"lon":5.40012,"is_reserved":false,"is_disabled":true,"rental_uris":{"android":"levelo://app?vid=1fed5cf7-13b7-4dc4-814e-e55c1b74556e","ios":"levelo://app?vid=1fed5cf7-13b7-4dc4-814e-e55c1b74556e"},"vehicle_type_id":"4","last_reported":1748393659,"current_range_meters":16000,"station_id":"ce4bh312rcd13ifvqdk0","pricing_plan_id":"cebpf4jnsgd1na2vs0mg"},{"bike_id":"46ea35f2-33ac-4c5f-9a27-c944e9b6fb6a","system_id":"levelo_inurba_marseille","lat":43.30604,"lon":5.3935,"is_reserved":false,"is_disabled":false,"rental_uris":{"android":"levelo://app?vid=46ea35f2-33ac-4c5f-9a27-c944e9b6fb6a","ios":"levelo://app?vid=46ea35f2-33ac-4c5f-9a27-c944e9b6fb6a"},"vehicle_type_id":"4","last_reported":1748393659,"current_range_meters":16000,"station_id":"ce4bh0p2rcd13ifvqd80","pricing_plan_id":"cebpf4jnsgd1na2vs0mg"},{"bike_id":"47473bd8-8b43-432c-9d7a-415e717aa32f","system_id":"levelo_inurba_marseille","lat":43.30889,"lon":5.3963,"is_reserved":false,"is_disabled":false,"rental_uris":{"android":"levelo://app?vid=47473bd8-8b43-432c-9d7a-415e717aa32f","ios":"levelo://app?vid=47473bd8-8b43-432c-9d7a-415e717aa32f"},"vehicle_type_id":"4","last_reported":1748393659,"current_range_meters":16400,"station_id":"ce4bh012rcd13ifvqcv0","pricing_plan_id":"cebpf4jnsgd1na2vs0mg"},{"bike_id":"beeca1d2-d65c-44fe-8ce6-7afce205f53e","system_id":"levelo_inurba_marseille","lat":43.308846,"lon":5.39648,"is_reserved":false,"is_disabled":false,"rental_uris":{"android":"levelo://app?vid=beeca1d2-d65c-44fe-8ce6-7afce205f53e","ios":"levelo://app?vid=beeca1d2-d65c-44fe-8ce6-7afce205f53e"},"vehicle_type_id":"4","last_reported":1748393659,"current_range_meters":16000,"station_id":"ce4bh012rcd13ifvqcv0","pricing_plan_id":"cebpf4jnsgd1na2vs0mg"},{"bike_id":"750d9e45-bbfa-48c7-98ea-fdd51751dc8b","system_id":"levelo_inurba_marseille","lat":43.23955,"lon":5.36663,"is_reserved":false,"is_disabled":false,"rental_uris":{"android":"levelo://app?vid=750d9e45-bbfa-48c7-98ea-fdd51751dc8b","ios":"levelo://app?vid=750d9e45-bbfa-48c7-98ea-fdd51751dc8b"},"vehicle_type_id":"4","last_reported":1748393659,"current_range_meters":16000,"station_id":"ce4bhi12rcd13ifvqfp0","pricing_plan_id":"cebpf4jnsgd1na2vs0mg"},{"bike_id":"78cfde37-b253-4fc0-a7ff-0e34f033978c","system_id":"levelo_inurba_marseille","lat":43.308849,"lon":5.396289,"is_reserved":false,"is_disabled":false,"rental_uris":{"android":"levelo://app?vid=78cfde37-b253-4fc0-a7ff-0e34f033978c","ios":"levelo://app?vid=78cfde37-b253-4fc0-a7ff-0e34f033978c"},"vehicle_type_id":"4","last_reported":1748393659,"current_range_meters":16000,"station_id":"ce4bh012rcd13ifvqcv0","pricing_plan_id":"cebpf4jnsgd1na2vs0mg"},{"bike_id":"6ebb6dd7-e028-471a-a254-2363923c0cd9","system_id":"levelo_inurba_marseille","lat":43.32103,"lon":5.36796,"is_reserved":false,"is_disabled":false,"rental_uris":{"android":"levelo://app?vid=6ebb6dd7-e028-471a-a254-2363923c0cd9","ios":"levelo://app?vid=6ebb6dd7-e028-471a-a254-2363923c0cd9"},"vehicle_type_id":"4","last_reported":1748393659,"current_range_meters":16000,"station_id":"ce4bhrh2rcd13ifvqhug","pricing_plan_id":"cebpf4jnsgd1na2vs0mg"},{"bike_id":"3647bbb6-6398-4425-acce-fe7bae127660","system_id":"levelo_inurba_marseille","lat":43.30869,"lon":5.39675,"is_reserved":false,"is_disabled":false,"rental_uris":{"android":"levelo://app?vid=3647bbb6-6398-4425-acce-fe7bae127660","ios":"levelo://app?vid=3647bbb6-6398-4425-acce-fe7bae127660"},"vehicle_type_id":"4","last_reported":1748393659,"current_range_meters":16000,"station_id":"ce4bh012rcd13ifvqcv0","pricing_plan_id":"cebpf4jnsgd1na2vs0mg"},{"bike_id":"74e5602b-0fa6-4076-b12b-c0ba33c1eaf0","system_id":"levelo_inurba_marseille","lat":43.27923,"lon":5.39586,"is_reserved":false,"is_disabled":false,"rental_uris":{"android":"levelo://app?vid=74e5602b-0fa6-4076-b12b-c0ba33c1eaf0","ios":"levelo://app?vid=74e5602b-0fa6-4076-b12b-c0ba33c1eaf0"},"vehicle_type_id":"4","last_reported":1748393659,"current_range_meters":16400,"station_id":"ce4bhf92rcd13ifvqf40","pricing_plan_id":"cebpf4jnsgd1na2vs0mg"},{"bike_id":"2447e726-02f2-4707-a232-a209224dd9ad","system_id":"levelo_inurba_marseille","lat":43.33007,"lon":5.39055,"is_reserved":false,"is_disabled":false,"rental_uris":{"android":"levelo://app?vid=2447e726-02f2-4707-a232-a209224dd9ad","ios":"levelo://app?vid=2447e726-02f2-4707-a232-a209224dd9ad"},"vehicle_type_id":"4","last_reported":1748393659,"current_range_meters":16000,"station_id":"ce4bhr92rcd13ifvqhrg","pricing_plan_id":"cebpf4jnsgd1na2vs0mg"},{"bike_id":"e736686f-625a-4d9a-a7d4-f55f37278fdb","system_id":"levelo_inurba_marseille","lat":43.29418,"lon":5.38596,"is_reserved":false,"is_disabled":true,"rental_uris":{"android":"levelo://app?vid=e736686f-625a-4d9a-a7d4-f55f37278fdb","ios":"levelo://app?vid=e736686f-625a-4d9a-a7d4-f55f37278fdb"},"vehicle_type_id":"4","last_reported":1748393659,"current_range_meters":16000,"station_id":"ce4bh2h2rcd13ifvqdh0","pricing_plan_id":"cebpf4jnsgd1na2vs0mg"},{"bike_id":"a89651c3-d534-4bfc-8af7-fb20a1998c60","system_id":"levelo_inurba_marseille","lat":43.30882,"lon":5.39665,"is_reserved":false,"is_disabled":false,"rental_uris":{"android":"levelo://app?vid=a89651c3-d534-4bfc-8af7-fb20a1998c60","ios":"levelo://app?vid=a89651c3-d534-4bfc-8af7-fb20a1998c60"},"vehicle_type_id":"4","last_reported":1748393659,"current_range_meters":16400,"station_id":"ce4bh012rcd13ifvqcv0","pricing_plan_id":"cebpf4jnsgd1na2vs0mg"},{"bike_id":"349e7297-179d-46aa-af73-d0772f15795a","system_id":"levelo_inurba_marseille","lat":43.29989,"lon":5.38414,"is_reserved":false,"is_disabled":false,"rental_uris":{"android":"levelo://app?vid=349e7297-179d-46aa-af73-d0772f15795a","ios":"levelo://app?vid=349e7297-179d-46aa-af73-d0772f15795a"},"vehicle_type_id":"4","last_reported":1748393659,"current_range_meters":16400,"station_id":"","pricing_plan_id":"cebpf4jnsgd1na2vs0mg"},{"bike_id":"5c66a574-cc0a-4c23-aa8a-20ed0b38391d","system_id":"levelo_inurba_marseille","lat":43.30464,"lon":5.38922,"is_reserved":false,"is_disabled":false,"rental_uris":{"android":"levelo://app?vid=5c66a574-cc0a-4c23-aa8a-20ed0b38391d","ios":"levelo://app?vid=5c66a574-cc0a-4c23-aa8a-20ed0b38391d"},"vehicle_type_id":"4","last_reported":1748393659,"current_range_meters":16400,"station_id":"ce4bgk12rcd13ifvqbi0","pricing_plan_id":"cebpf4jnsgd1na2vs0mg"},{"bike_id":"45c941a7-9562-4778-ae0c-86ddbaf5a628","system_id":"levelo_inurba_marseille","lat":43.2454,"lon":5.39526,"is_reserved":false,"is_disabled":false,"rental_uris":{"android":"levelo://app?vid=45c941a7-9562-4778-ae0c-86ddbaf5a628","ios":"levelo://app?vid=45c941a7-9562-4778-ae0c-86ddbaf5a628"},"vehicle_type_id":"4","last_reported":1748393659,"current_range_meters":16400,"station_id":"ce4bhlp2rcd13ifvqgjg","pricing_plan_id":"cebpf4jnsgd1na2vs0mg"},{"bike_id":"ed3ce463-8108-462a-b16b-760e2671d87c","system_id":"levelo_inurba_marseille","lat":43.250881,"lon":5.39512,"is_reserved":false,"is_disabled":false,"rental_uris":{"android":"levelo://app?vid=ed3ce463-8108-462a-b16b-760e2671d87c","ios":"levelo://app?vid=ed3ce463-8108-462a-b16b-760e2671d87c"},"vehicle_type_id":"4","last_reported":1748393659,"current_range_meters":16400,"station_id":"ce4bhm12rcd13ifvqgkg","pricing_plan_id":"cebpf4jnsgd1na2vs0mg"},{"bike_id":"41ef7262-a9d2-42e7-8a32-491b4b65ae25","system_id":"levelo_inurba_marseille","lat":43.276703,"lon":5.389218,"is_reserved":false,"is_disabled":true,"rental_uris":{"android":"levelo://app?vid=41ef7262-a9d2-42e7-8a32-491b4b65ae25","ios":"levelo://app?vid=41ef7262-a9d2-42e7-8a32-491b4b65ae25"},"vehicle_type_id":"4","last_reported":1748393659,"current_range_meters":16800,"station_id":"ce4bhi12rcd13ifvqfo0","pricing_plan_id":"cebpf4jnsgd1na2vs0mg"},{"bike_id":"854610a0-faf2-4a8f-a589-0d6ce3f0edf0","system_id":"levelo_inurba_marseille","lat":43.288437,"lon":5.393188,"is_reserved":false,"is_disabled":false,"rental_uris":{"android":"levelo://app?vid=854610a0-faf2-4a8f-a589-0d6ce3f0edf0","ios":"levelo://app?vid=854610a0-faf2-4a8f-a589-0d6ce3f0edf0"},"vehicle_type_id":"4","last_reported":1748393659,"current_range_meters":16800,"station_id":"ce4bh2p2rcd13ifvqdi0","pricing_plan_id":"cebpf4jnsgd1na2vs0mg"},{"bike_id":"7907d746-b302-43bb-9f17-838fe24ab47b","system_id":"levelo_inurba_marseille","lat":43.23203,"lon":5.39993,"is_reserved":false,"is_disabled":false,"rental_uris":{"android":"levelo://app?vid=7907d746-b302-43bb-9f17-838fe24ab47b","ios":"levelo://app?vid=7907d746-b302-43bb-9f17-838fe24ab47b"},"vehicle_type_id":"4","last_reported":1748393659,"current_range_meters":16800,"station_id":"ce4bhn12rcd13ifvqgqg","pricing_plan_id":"cebpf4jnsgd1na2vs0mg"},{"bike_id":"509453f9-9c47-4d6d-ac77-721f62c4464f","system_id":"levelo_inurba_marseille","lat":43.292075,"lon":5.359023,"is_reserved":false,"is_disabled":false,"rental_uris":{"android":"levelo://app?vid=509453f9-9c47-4d6d-ac77-721f62c4464f","ios":"levelo://app?vid=509453f9-9c47-4d6d-ac77-721f62c4464f"},"vehicle_type_id":"4","last_reported":1748393659,"current_range_meters":16800,"station_id":"ce4bhb12rcd13ifvqel0","pricing_plan_id":"cebpf4jnsgd1na2vs0mg"},{"bike_id":"6c037d20-6bc8-419b-857a-b0a6ca40ad58","system_id":"levelo_inurba_marseille","lat":43.2407,"lon":5.3776,"is_reserved":false,"is_disabled":false,"rental_uris":{"android":"levelo://app?vid=6c037d20-6bc8-419b-857a-b0a6ca40ad58","ios":"levelo://app?vid=6c037d20-6bc8-419b-857a-b0a6ca40ad58"},"vehicle_type_id":"4","last_reported":1748393659,"current_range_meters":16800,"station_id":"ce4bhnp2rcd13ifvqgvg","pricing_plan_id":"cebpf4jnsgd1na2vs0mg"},{"bike_id":"798b4dd9-09fd-4939-a396-5d8278d045a8","system_id":"levelo_inurba_marseille","lat":43.28155,"lon":5.3903,"is_reserved":false,"is_disabled":false,"rental_uris":{"android":"levelo://app?vid=798b4dd9-09fd-4939-a396-5d8278d045a8","ios":"levelo://app?vid=798b4dd9-09fd-4939-a396-5d8278d045a8"},"vehicle_type_id":"4","last_reported":1748393659,"current_range_meters":16800,"station_id":"","pricing_plan_id":"cebpf4jnsgd1na2vs0mg"},{"bike_id":"06fe1f81-ab6f-4ac8-8e60-2e36f0117fc4","system_id":"levelo_inurba_marseille","lat":43.31071,"lon":5.38347,"is_reserved":false,"is_disabled":false,"rental_uris":{"android":"levelo://app?vid=06fe1f81-ab6f-4ac8-8e60-2e36f0117fc4","ios":"levelo://app?vid=06fe1f81-ab6f-4ac8-8e60-2e36f0117fc4"},"vehicle_type_id":"4","last_reported":1748393659,"current_range_meters":16800,"station_id":"ce4bgv92rcd13ifvqcr0","pricing_plan_id":"cebpf4jnsgd1na2vs0mg"},{"bike_id":"88f0b25b-9fcb-4934-ae2a-80fd3f534b8a","system_id":"levelo_inurba_marseille","lat":43.30204,"lon":5.36646,"is_reserved":false,"is_disabled":true,"rental_uris":{"android":"levelo://app?vid=88f0b25b-9fcb-4934-ae2a-80fd3f534b8a","ios":"levelo://app?vid=88f0b25b-9fcb-4934-ae2a-80fd3f534b8a"},"vehicle_type_id":"4","last_reported":1748393659,"current_range_meters":16800,"station_id":"ce4bgrh2rcd13ifvqc8g","pricing_plan_id":"cebpf4jnsgd1na2vs0mg"},{"bike_id":"3b07f020-3d8e-47eb-b723-de46e817e2a3","system_id":"levelo_inurba_marseille","lat":43.29734,"lon":5.38357,"is_reserved":false,"is_disabled":false,"rental_uris":{"android":"levelo://app?vid=3b07f020-3d8e-47eb-b723-de46e817e2a3","ios":"levelo://app?vid=3b07f020-3d8e-47eb-b723-de46e817e2a3"},"vehicle_type_id":"4","last_reported":1748393659,"current_range_meters":16800,"station_id":"","pricing_plan_id":"cebpf4jnsgd1na2vs0mg"},{"bike_id":"3865b0a2-6909-4ea2-b648-0ed5dd91b7a2","system_id":"levelo_inurba_marseille","lat":43.22531,"lon":5.34773,"is_reserved":false,"is_disabled":false,"rental_uris":{"android":"levelo://app?vid=3865b0a2-6909-4ea2-b648-0ed5dd91b7a2","ios":"levelo://app?vid=3865b0a2-6909-4ea2-b648-0ed5dd91b7a2"},"vehicle_type_id":"4","last_reported":1748393659,"current_range_meters":16800,"station_id":"","pricing_plan_id":"cebpf4jnsgd1na2vs0mg"},{"bike_id":"d01fd10d-97de-46e9-a203-18a45159f308","system_id":"levelo_inurba_marseille","lat":43.23177,"lon":5.40042,"is_reserved":false,"is_disabled":false,"rental_uris":{"android":"levelo://app?vid=d01fd10d-97de-46e9-a203-18a45159f308","ios":"levelo://app?vid=d01fd10d-97de-46e9-a203-18a45159f308"},"vehicle_type_id":"4","last_reported":1748393659,"current_range_meters":16800,"station_id":"ce4bhn12rcd13ifvqgqg","pricing_plan_id":"cebpf4jnsgd1na2vs0mg"},{"bike_id":"fcb789d7-3cf7-430a-a366-a3a6c6977f44","system_id":"levelo_inurba_marseille","lat":43.31069,"lon":5.38352,"is_reserved":false,"is_disabled":false,"rental_uris":{"android":"levelo://app?vid=fcb789d7-3cf7-430a-a366-a3a6c6977f44","ios":"levelo://app?vid=fcb789d7-3cf7-430a-a366-a3a6c6977f44"},"vehicle_type_id":"4","last_reported":1748393659,"current_range_meters":16800,"station_id":"ce4bgv92rcd13ifvqcr0","pricing_plan_id":"cebpf4jnsgd1na2vs0mg"},{"bike_id":"7adbd369-f684-4c09-90a5-6bbf2f150346","system_id":"levelo_inurba_marseille","lat":43.321128,"lon":5.367894,"is_reserved":false,"is_disabled":false,"rental_uris":{"android":"levelo://app?vid=7adbd369-f684-4c09-90a5-6bbf2f150346","ios":"levelo://app?vid=7adbd369-f684-4c09-90a5-6bbf2f150346"},"vehicle_type_id":"4","last_reported":1748393659,"current_range_meters":16800,"station_id":"ce4bhrh2rcd13ifvqhug","pricing_plan_id":"cebpf4jnsgd1na2vs0mg"},{"bike_id":"ef77543b-22de-44af-930a-38e7dfe2d4e6","system_id":"levelo_inurba_marseille","lat":43.232078,"lon":5.399826,"is_reserved":false,"is_disabled":false,"rental_uris":{"android":"levelo://app?vid=ef77543b-22de-44af-930a-38e7dfe2d4e6","ios":"levelo://app?vid=ef77543b-22de-44af-930a-38e7dfe2d4e6"},"vehicle_type_id":"4","last_reported":1748393659,"current_range_meters":17200,"station_id":"ce4bhn12rcd13ifvqgqg","pricing_plan_id":"cebpf4jnsgd1na2vs0mg"},{"bike_id":"68189fd1-9866-4843-94ef-6d114f110fbd","system_id":"levelo_inurba_marseille","lat":43.282145,"lon":5.390513,"is_reserved":false,"is_disabled":false,"rental_uris":{"android":"levelo://app?vid=68189fd1-9866-4843-94ef-6d114f110fbd","ios":"levelo://app?vid=68189fd1-9866-4843-94ef-6d114f110fbd"},"vehicle_type_id":"4","last_reported":1748393659,"current_range_meters":17200,"station_id":"","pricing_plan_id":"cebpf4jnsgd1na2vs0mg"},{"bike_id":"0b46610b-39a3-4aec-92dd-2b8e6db69efd","system_id":"levelo_inurba_marseille","lat":43.287217,"lon":5.360898,"is_reserved":false,"is_disabled":false,"rental_uris":{"android":"levelo://app?vid=0b46610b-39a3-4aec-92dd-2b8e6db69efd","ios":"levelo://app?vid=0b46610b-39a3-4aec-92dd-2b8e6db69efd"},"vehicle_type_id":"4","last_reported":1748393659,"current_range_meters":17200,"station_id":"cki0cbj6b192h4jlfktg","pricing_plan_id":"cebpf4jnsgd1na2vs0mg"},{"bike_id":"ae7ed63e-d171-47e2-8c32-34675328eb50","system_id":"levelo_inurba_marseille","lat":43.3043,"lon":5.39747,"is_reserved":false,"is_disabled":false,"rental_uris":{"android":"levelo://app?vid=ae7ed63e-d171-47e2-8c32-34675328eb50","ios":"levelo://app?vid=ae7ed63e-d171-47e2-8c32-34675328eb50"},"vehicle_type_id":"4","last_reported":1748393659,"current_range_meters":17200,"station_id":"ce4bh092rcd13ifvqd20","pricing_plan_id":"cebpf4jnsgd1na2vs0mg"},{"bike_id":"2c08af6d-e6dd-47bf-abe3-3c0981a41b80","system_id":"levelo_inurba_marseille","lat":43.30319,"lon":5.40442,"is_reserved":false,"is_disabled":false,"rental_uris":{"android":"levelo://app?vid=2c08af6d-e6dd-47bf-abe3-3c0981a41b80","ios":"levelo://app?vid=2c08af6d-e6dd-47bf-abe3-3c0981a41b80"},"vehicle_type_id":"4","last_reported":1748393659,"current_range_meters":17600,"station_id":"ce4bh012rcd13ifvqd10","pricing_plan_id":"cebpf4jnsgd1na2vs0mg"},{"bike_id":"f11c8c21-8746-4ccc-b8b9-45ae12e44444","system_id":"levelo_inurba_marseille","lat":43.286981,"lon":5.373924,"is_reserved":false,"is_disabled":true,"rental_uris":{"android":"levelo://app?vid=f11c8c21-8746-4ccc-b8b9-45ae12e44444","ios":"levelo://app?vid=f11c8c21-8746-4ccc-b8b9-45ae12e44444"},"vehicle_type_id":"4","last_reported":1748393659,"current_range_meters":17600,"station_id":"ce4bh3p2rcd13ifvqdq0","pricing_plan_id":"cebpf4jnsgd1na2vs0mg"},{"bike_id":"c51186ad-4fb2-475e-8a6c-a1c4255415cc","system_id":"levelo_inurba_marseille","lat":43.28732,"lon":5.36086,"is_reserved":false,"is_disabled":false,"rental_uris":{"android":"levelo://app?vid=c51186ad-4fb2-475e-8a6c-a1c4255415cc","ios":"levelo://app?vid=c51186ad-4fb2-475e-8a6c-a1c4255415cc"},"vehicle_type_id":"4","last_reported":1748393659,"current_range_meters":17600,"station_id":"cki0cbj6b192h4jlfktg","pricing_plan_id":"cebpf4jnsgd1na2vs0mg"},{"bike_id":"449443f5-265d-42c4-b8a5-73695070a54b","system_id":"levelo_inurba_marseille","lat":43.25863,"lon":5.39916,"is_reserved":false,"is_disabled":false,"rental_uris":{"android":"levelo://app?vid=449443f5-265d-42c4-b8a5-73695070a54b","ios":"levelo://app?vid=449443f5-265d-42c4-b8a5-73695070a54b"},"vehicle_type_id":"4","last_reported":1748393659,"current_range_meters":17600,"station_id":"ce4bhl92rcd13ifvqghg","pricing_plan_id":"cebpf4jnsgd1na2vs0mg"},{"bike_id":"57316597-9a7e-4ecc-9b19-7bc22bad6c89","system_id":"levelo_inurba_marseille","lat":43.24557,"lon":5.39544,"is_reserved":false,"is_disabled":false,"rental_uris":{"android":"levelo://app?vid=57316597-9a7e-4ecc-9b19-7bc22bad6c89","ios":"levelo://app?vid=57316597-9a7e-4ecc-9b19-7bc22bad6c89"},"vehicle_type_id":"4","last_reported":1748393659,"current_range_meters":17600,"station_id":"ce4bhlp2rcd13ifvqgjg","pricing_plan_id":"cebpf4jnsgd1na2vs0mg"},{"bike_id":"fea7fd3e-3ba0-4021-a6e5-5c259f084514","system_id":"levelo_inurba_marseille","lat":43.28592,"lon":5.37067,"is_reserved":false,"is_disabled":false,"rental_uris":{"android":"levelo://app?vid=fea7fd3e-3ba0-4021-a6e5-5c259f084514","ios":"levelo://app?vid=fea7fd3e-3ba0-4021-a6e5-5c259f084514"},"vehicle_type_id":"4","last_reported":1748393659,"current_range_meters":17600,"station_id":"ce4bht12rcd13ifvqi60","pricing_plan_id":"cebpf4jnsgd1na2vs0mg"},{"bike_id":"03d89360-1bcc-4481-827c-d3f8190d86ae","system_id":"levelo_inurba_marseille","lat":43.302533,"lon":5.400777,"is_reserved":false,"is_disabled":false,"rental_uris":{"android":"levelo://app?vid=03d89360-1bcc-4481-827c-d3f8190d86ae","ios":"levelo://app?vid=03d89360-1bcc-4481-827c-d3f8190d86ae"},"vehicle_type_id":"4","last_reported":1748393659,"current_range_meters":17600,"station_id":"ce4bgvh2rcd13ifvqcs0","pricing_plan_id":"cebpf4jnsgd1na2vs0mg"},{"bike_id":"8d43a499-90c2-4c59-a4b4-a02a46725fe4","system_id":"levelo_inurba_marseille","lat":43.341454,"lon":5.40909,"is_reserved":false,"is_disabled":false,"rental_uris":{"android":"levelo://app?vid=8d43a499-90c2-4c59-a4b4-a02a46725fe4","ios":"levelo://app?vid=8d43a499-90c2-4c59-a4b4-a02a46725fe4"},"vehicle_type_id":"4","last_reported":1748393659,"current_range_meters":17600,"station_id":"ce4bhqh2rcd13ifvqhlg","pricing_plan_id":"cebpf4jnsgd1na2vs0mg"},{"bike_id":"21784756-8695-4b10-acb4-14da7bc97e18","system_id":"levelo_inurba_marseille","lat":43.282316,"lon":5.39057,"is_reserved":false,"is_disabled":false,"rental_uris":{"android":"levelo://app?vid=21784756-8695-4b10-acb4-14da7bc97e18","ios":"levelo://app?vid=21784756-8695-4b10-acb4-14da7bc97e18"},"vehicle_type_id":"4","last_reported":1748393659,"current_range_meters":18000,"station_id":"","pricing_plan_id":"cebpf4jnsgd1na2vs0mg"},{"bike_id":"03eed578-bb19-48fc-b5c7-10358efea5d8","system_id":"levelo_inurba_marseille","lat":43.30453,"lon":5.39784,"is_reserved":false,"is_disabled":false,"rental_uris":{"android":"levelo://app?vid=03eed578-bb19-48fc-b5c7-10358efea5d8","ios":"levelo://app?vid=03eed578-bb19-48fc-b5c7-10358efea5d8"},"vehicle_type_id":"4","last_reported":1748393659,"current_range_meters":18000,"station_id":"ce4bh092rcd13ifvqd20","pricing_plan_id":"cebpf4jnsgd1na2vs0mg"},