{"last_updated":1760206322,"ttl":60,"version":"2.2","data":{"bikes":[{"bike_id":"5516e87b-8441-4871-bd1c-dcd0126e113d","system_id":"levelo_inurba_marseille","lat":43.337444,"lon":5.374475,"is_reserved":false,"is_disabled":true,"rental_uris":{"android":"levelo://app?vid=5516e87b-8441-4871-bd1c-dcd0126e113d","ios":"levelo://app?vid=5516e87b-8441-4871-bd1c-dcd0126e113d"},"vehicle_type_id":"4","last_reported":1760206322,"current_range_meters":0,"station_id":"","pricing_plan_id":"cebpf4jnsgd1na2vs0mg"},{"bike_id":"f9ef6a8c-cc82-49e4-96c2-f46e0950a0fc","system_id":"levelo_inurba_marseille","lat":43.33771,"lon":5.37424,"is_reserved":false,"is_disabled":true,"rental_uris":{"android":"levelo://app?vid=f9ef6a8c-cc82-49e4-96c2-f46e0950a0fc","ios":"levelo://app?vid=f9ef6a8c-cc82-49e4-96c2-f46e0950a0fc"},"vehicle_type_id":"4","last_reported":1760206322,"current_range_meters":0,"station_id":"","pricing_plan_id":"cebpf4jnsgd1na2vs0mg"},{"bike_id":"f92995dc-d2e7-4f2e-bcaf-27995c98a1de","system_id":"levelo_inurba_marseille","lat":43.33751,"lon":5.37456,"is_reserved":false,"is_disabled":true,"rental_uris":{"android":"levelo://app?vid=f92995dc-d2e7-4f2e-bcaf-27995c98a1de","ios":"levelo://app?vid=f92995dc-d2e7-4f2e-bcaf-27995c98a1de"},"vehicle_type_id":"4","last_reported":1760206322,"current_range_meters":0,"station_id":"","pricing_plan_id":"cebpf4jnsgd1na2vs0mg"},{"bike_id":"092183e8-1e36-4ece-a29a-68743a5820f6","system_id":"levelo_inurba_marseille","lat":43.33747,"lon":5.37463,"is_reserved":false,"is_disabled":true,"rental_uris":{"android":"levelo://app?vid=092183e8-1e36-4ece-a29a-68743a5820f6","ios":"levelo://app?vid=092183e8-1e36-4ece-a29a-68743a5820f6"},"vehicle_type_id":"1","last_reported":1760206322,"current_range_meters":0,"station_id":"","pricing_plan_id":"cebpf4jnsgd1na2vs0mg"},{"bike_id":"268f0f13-c790-4518-9f6a-1fe45b445342","system_id":"levelo_inurba_marseille","lat":43.33737,"lon":5.37465,"is_reserved":false,"is_disabled":true,"rental_uris":{"android":"levelo://app?vid=268f0f13-c790-4518-9f6a-1fe45b445342","ios":"levelo://app?vid=268f0f13-c790-4518-9f6a-1fe45b445342"},"vehicle_type_id":"4","last_reported":1760206322,"current_range_meters":0,"station_id":"","pricing_plan_id":"cebpf4jnsgd1na2vs0mg"},{"bike_id":"844de8fa-b1ed-4b48-bbb0-8ea30f04e6fa","system_id":"levelo_inurba_marseille","lat":43.33755,"lon":5.37468,"is_reserved":false,"is_disabled":false,"rental_uris":{"android":"levelo://app?vid=844de8fa-b1ed-4b48-bbb0-8ea30f04e6fa","ios":"levelo://app?vid=844de8fa-b1ed-4b48-bbb0-8ea30f04e6fa"},"vehicle_type_id":"4","last_reported":1760206322,"current_range_meters":4000,"station_id":"","pricing_plan_id":"cebpf4jnsgd1na2vs0mg"},{"bike_id":"affea08d-2e61-49ad-9018-2db734fe38fb","system_id":"levelo_inurba_marseille","lat":43.337444,"lon":5.374475,"is_reserved":false,"is_disabled":true,"rental_uris":{"android":"levelo://app?vid=affea08d-2e61-49ad-9018-2db734fe38fb","ios":"levelo://app?vid=affea08d-2e61-49ad-9018-2db734fe38fb"},"vehicle_type_id":"4","last_reported":1760206322,"current_range_meters":0,"station_id":"","pricing_plan_id":"cebpf4jnsgd1na2vs0mg"},{"bike_id":"c80be3e3-26c1-4fd2-ab94-730bb8638bdc","system_id":"levelo_inurba_marseille","lat":43.337444,"lon":5.374475,"is_reserved":false,"is_disabled":true,"rental_uris":{"android":"levelo://app?vid=c80be3e3-26c1-4fd2-ab94-730bb8638bdc","ios":"levelo://app?vid=c80be3e3-26c1-4fd2-ab94-730bb8638bdc"},"vehicle_type_id":"4","last_reported":1760206322,"current_range_meters":0,"station_id":"","pricing_plan_id":"cebpf4jnsgd1na2vs0mg"},{"bike_id":"1d6245e4-562b-49a1-9e17-90a195bca958","system_id":"levelo_inurba_marseille","lat":43.22535,"lon":5.34854,"is_reserved":false,"is_disabled":true,"rental_uris":{"android":"levelo://app?vid=1d6245e4-562b-49a1-9e17-90a195bca958","ios":"levelo://app?vid=1d6245e4-562b-49a1-9e17-90a195bca958"},"vehicle_type_id":"4","last_reported":1760206322,"current_range_meters":0,"station_id":"","pricing_plan_id":"cebpf4jnsgd1na2vs0mg"},{"bike_id":"f8726700-64d6-4ff8-acc0-9adfce94dbe9","system_id":"levelo_inurba_marseille","lat":43.2785,"lon":5.38293,"is_reserved":false,"is_disabled":true,"rental_uris":{"android":"levelo://app?vid=f8726700-64d6-4ff8-acc0-9adfce94dbe9","ios":"levelo://app?vid=f8726700-64d6-4ff8-acc0-9adfce94dbe9"},"vehicle_type_id":"4","last_reported":1760206322,"current_range_meters":0,"station_id":"","pricing_plan_id":"cebpf4jnsgd1na2vs0mg"},{"bike_id":"b4e7ef10-af79-4cf8-a207-60ed0a922607","system_id":"levelo_inurba_marseille","lat":43.337444,"lon":5.374475,"is_reserved":false,"is_disabled":true,"rental_uris":{"android":"levelo://app?vid=b4e7ef10-af79-4cf8-a207-60ed0a922607","ios":"levelo://app?vid=b4e7ef10-af79-4cf8-a207-60ed0a922607"},"vehicle_type_id":"4","last_reported":1760206322,"current_range_meters":0,"station_id":"","pricing_plan_id":"cebpf4jnsgd1na2vs0mg"},{"bike_id":"4ccf7a59-029f-457f-b839-dc6f11286326","system_id":"levelo_inurba_marseille","lat":43.31769,"lon":5.42216,"is_reserved":false,"is_disabled":true,"rental_uris":{"android":"levelo://app?vid=4ccf7a59-029f-457f-b839-dc6f11286326","ios":"levelo://app?vid=4ccf7a59-029f-457f-b839-dc6f11286326"},"vehicle_type_id":"4","last_reported":1760206322,"current_range_meters":0,"station_id":"","pricing_plan_id":"cebpf4jnsgd1na2vs0mg"},{"bike_id":"942c97ed-d8ea-49ae-804d-813a3077960e","system_id":"levelo_inurba_marseille","lat":43.28584,"lon":5.39923,"is_reserved":false,"is_disabled":true,"rental_uris":{"android":"levelo://app?vid=942c97ed-d8ea-49ae-804d-813a3077960e","ios":"levelo://app?vid=942c97ed-d8ea-49ae-804d-813a3077960e"},"vehicle_type_id":"4","last_reported":1760206322,"current_range_meters":0,"station_id":"","pricing_plan_id":"cebpf4jnsgd1na2vs0mg"},{"bike_id":"bf0cd1f5-4a2b-4aae-9f11-cde060414574","system_id":"levelo_inurba_marseille","lat":43.2254,"lon":5.34825,"is_reserved":false,"is_disabled":true,"rental_uris":{"android":"levelo://app?vid=bf0cd1f5-4a2b-4aae-9f11-cde060414574","ios":"levelo://app?vid=bf0cd1f5-4a2b-4aae-9f11-cde060414574"},"vehicle_type_id":"4","last_reported":1760206322,"current_range_meters":0,"station_id":"","pricing_plan_id":"cebpf4jnsgd1na2vs0mg"},{"bike_id":"48a0041b-83a8-40b4-8366-8550bbaec9ea","system_id":"levelo_inurba_marseille","lat":43.21093,"lon":5.35098,"is_reserved":false,"is_disabled":true,"rental_uris":{"android":"levelo://app?vid=48a0041b-83a8-40b4-8366-8550bbaec9ea","ios":"levelo://app?vid=48a0041b-83a8-40b4-8366-8550bbaec9ea"},"vehicle_type_id":"4","last_reported":1760206322,"current_range_meters":0,"station_id":"","pricing_plan_id":"cebpf4jnsgd1na2vs0mg"},{"bike_id":"faf21e59-73fe-43ba-965b-23c7230d33c8","system_id":"levelo_inurba_marseille","lat":43.270557,"lon":5.392632,"is_reserved":false,"is_disabled":true,"rental_uris":{"android":"levelo://app?vid=faf21e59-73fe-43ba-965b-23c7230d33c8","ios":"levelo://app?vid=faf21e59-73fe-43ba-965b-23c7230d33c8"},"vehicle_type_id":"4","last_reported":1760206322,"current_range_meters":0,"station_id":"","pricing_plan_id":"cebpf4jnsgd1na2vs0mg"},{"bike_id":"c3a1707d-0ff8-437e-92c7-4e0be5ac5fea","system_id":"levelo_inurba_marseille","lat":43.26897,"lon":5.3932,"is_reserved":false,"is_disabled":true,"rental_uris":{"android":"levelo://app?vid=c3a1707d-0ff8-437e-92c7-4e0be5ac5fea","ios":"levelo://app?vid=c3a1707d-0ff8-437e-92c7-4e0be5ac5fea"},"vehicle_type_id":"4","last_reported":1760206322,"current_range_meters":0,"station_id":"","pricing_plan_id":"cebpf4jnsgd1na2vs0mg"},{"bike_id":"ec39affe-5e48-4259-a225-7a0d248d923e","system_id":"levelo_inurba_marseille","lat":43.29646,"lon":5.38024,"is_reserved":false,"is_disabled":true,"rental_uris":{"android":"levelo://app?vid=ec39affe-5e48-4259-a225-7a0d248d923e","ios":"levelo://app?vid=ec39affe-5e48-4259-a225-7a0d248d923e"},"vehicle_type_id":"4","last_reported":1760206322,"current_range_meters":0,"station_id":"","pricing_plan_id":"cebpf4jnsgd1na2vs0mg"},{"bike_id":"e5b57314-03bb-49b7-9d98-69087cb8b55f","system_id":"levelo_inurba_marseille","lat":43.29537,"lon":5.38545,"is_reserved":false,"is_disabled":true,"rental_uris":{"android":"levelo://app?vid=e5b57314-03bb-49b7-9d98-69087cb8b55f","ios":"levelo://app?vid=e5b57314-03bb-49b7-9d98-69087cb8b55f"},"vehicle_type_id":"4","last_reported":1760206322,"current_range_meters":0,"station_id":"ce4bgih2rcd13ifvqba0","pricing_plan_id":"cebpf4jnsgd1na2vs0mg"},{"bike_id":"86a8cea8-8078-444a-889a-3476a1625ddd","system_id":"levelo_inurba_marseille","lat":43.29983,"lon":5.38483,"is_reserved":false,"is_disabled":true,"rental_uris":{"android":"levelo://app?vid=86a8cea8-8078-444a-889a-3476a1625ddd","ios":"levelo://app?vid=86a8cea8-8078-444a-889a-3476a1625ddd"},"vehicle_type_id":"4","last_reported":1760206322,"current_range_meters":0,"station_id":"ce4bgj92rcd13ifvqbd0","pricing_plan_id":"cebpf4jnsgd1na2vs0mg"},{"bike_id":"e38ad4e2-7bdc-47af-98e8-f680dcc2c6de","system_id":"levelo_inurba_marseille","lat":43.29973,"lon":5.38491,"is_reserved":false,"is_disabled":true,"rental_uris":{"android":"levelo://app?vid=e38ad4e2-7bdc-47af-98e8-f680dcc2c6de","ios":"levelo://app?vid=e38ad4e2-7bdc-47af-98e8-f680dcc2c6de"},"vehicle_type_id":"4","last_reported":1760206322,"current_range_meters":0,"station_id":"ce4bgj92rcd13ifvqbd0","pricing_plan_id":"cebpf4jnsgd1na2vs0mg"},{"bike_id":"9d97e5fd-536c-41fe-93ed-c095b8d488d0","system_id":"levelo_inurba_marseille","lat":43.29907,"lon":5.3748,"is_reserved":false,"is_disabled":true,"rental_uris":{"android":"levelo://app?vid=9d97e5fd-536c-41fe-93ed-c095b8d488d0","ios":"levelo://app?vid=9d97e5fd-536c-41fe-93ed-c095b8d488d0"},"vehicle_type_id":"4","last_reported":1760206322,"current_range_meters":0,"station_id":"ce4bgjh2rcd13ifvqbg0","pricing_plan_id":"cebpf4jnsgd1na2vs0mg"},{"bike_id":"70142089-209c-4039-af8c-409e67b86f5f","system_id":"levelo_inurba_marseille","lat":43.30157,"lon":5.38085,"is_reserved":false,"is_disabled":true,"rental_uris":{"android":"levelo://app?vid=70142089-209c-4039-af8c-409e67b86f5f","ios":"levelo://app?vid=70142089-209c-4039-af8c-409e67b86f5f"},"vehicle_type_id":"4","last_reported":1760206322,"current_range_meters":0,"station_id":"ce4bgjp2rcd13ifvqbh0","pricing_plan_id":"cebpf4jnsgd1na2vs0mg"},{"bike_id":"7dc942d5-f523-4ecb-8e36-066d3d56b9dd","system_id":"levelo_inurba_marseille","lat":43.299366,"lon":5.365713,"is_reserved":false,"is_disabled":true,"rental_uris":{"android":"levelo://app?vid=7dc942d5-f523-4ecb-8e36-066d3d56b9dd","ios":"levelo://app?vid=7dc942d5-f523-4ecb-8e36-066d3d56b9dd"},"vehicle_type_id":"4","last_reported":1760206322,"current_range_meters":0,"station_id":"ce4bgm92rcd13ifvqbr0","pricing_plan_id":"cebpf4jnsgd1na2vs0mg"},{"bike_id":"cce03767-69c5-45bd-b4d3-38d2cab6bc60","system_id":"levelo_inurba_marseille","lat":43.3061,"lon":5.37226,"is_reserved":false,"is_disabled":true,"rental_uris":{"android":"levelo://app?vid=cce03767-69c5-45bd-b4d3-38d2cab6bc60","ios":"levelo://app?vid=cce03767-69c5-45bd-b4d3-38d2cab6bc60"},"vehicle_type_id":"4","last_reported":1760206322,"current_range_meters":0,"station_id":"ce4bgqh2rcd13ifvqc4g","pricing_plan_id":"cebpf4jnsgd1na2vs0mg"},{"bike_id":"eed5d8fc-5ff5-4cf0-958c-4b09b2674452","system_id":"levelo_inurba_marseille","lat":43.31479,"lon":5.37303,"is_reserved":false,"is_disabled":true,"rental_uris":{"android":"levelo://app?vid=eed5d8fc-5ff5-4cf0-958c-4b09b2674452","ios":"levelo://app?vid=eed5d8fc-5ff5-4cf0-958c-4b09b2674452"},"vehicle_type_id":"4","last_reported":1760206322,"current_range_meters":0,"station_id":"ce4bgt12rcd13ifvqcd0","pricing_plan_id":"cebpf4jnsgd1na2vs0mg"},{"bike_id":"41f9a2fc-8f59-460b-b1c0-e1eb5f57b7c1","system_id":"levelo_inurba_marseille","lat":43.31101,"lon":5.37763,"is_reserved":false,"is_disabled":true,"rental_uris":{"android":"levelo://app?vid=41f9a2fc-8f59-460b-b1c0-e1eb5f57b7c1","ios":"levelo://app?vid=41f9a2fc-8f59-460b-b1c0-e1eb5f57b7c1"},"vehicle_type_id":"4","last_reported":1760206322,"current_range_meters":0,"station_id":"ce4bgt92rcd13ifvqcg0","pricing_plan_id":"cebpf4jnsgd1na2vs0mg"},{"bike_id":"c63e2109-81c2-4a47-a1db-e48311bbc64b","system_id":"levelo_inurba_marseille","lat":43.31076,"lon":5.38354,"is_reserved":false,"is_disabled":true,"rental_uris":{"android":"levelo://app?vid=c63e2109-81c2-4a47-a1db-e48311bbc64b","ios":"levelo://app?vid=c63e2109-81c2-4a47-a1db-e48311bbc64b"},"vehicle_type_id":"4","last_reported":1760206322,"current_range_meters":0,"station_id":"ce4bgv92rcd13ifvqcr0","pricing_plan_id":"cebpf4jnsgd1na2vs0mg"},{"bike_id":"cccf236a-9273-4051-a573-8761e556ca18","system_id":"levelo_inurba_marseille","lat":43.30933,"lon":5.40154,"is_reserved":false,"is_disabled":true,"rental_uris":{"android":"levelo://app?vid=cccf236a-9273-4051-a573-8761e556ca18","ios":"levelo://app?vid=cccf236a-9273-4051-a573-8761e556ca18"},"vehicle_type_id":"4","last_reported":1760206322,"current_range_meters":0,"station_id":"ce4bgvp2rcd13ifvqct0","pricing_plan_id":"cebpf4jnsgd1na2vs0mg"},{"bike_id":"90bee144-32cd-4cdf-922d-2257ff3b894f","system_id":"levelo_inurba_marseille","lat":43.31343,"lon":5.39706,"is_reserved":false,"is_disabled":true,"rental_uris":{"android":"levelo://app?vid=90bee144-32cd-4cdf-922d-2257ff3b894f","ios":"levelo://app?vid=90bee144-32cd-4cdf-922d-2257ff3b894f"},"vehicle_type_id":"4","last_reported":1760206322,"current_range_meters":0,"station_id":"ce4bgvp2rcd13ifvqcu0","pricing_plan_id":"cebpf4jnsgd1na2vs0mg"},{"bike_id":"96617973-6c7b-4d82-8847-a52e4fa18f5a","system_id":"levelo_inurba_marseille","lat":43.30088,"lon":5.39081,"is_reserved":false,"is_disabled":true,"rental_uris":{"android":"levelo://app?vid=96617973-6c7b-4d82-8847-a52e4fa18f5a","ios":"levelo://app?vid=96617973-6c7b-4d82-8847-a52e4fa18f5a"},"vehicle_type_id":"4","last_reported":1760206322,"current_range_meters":0,"station_id":"ce4bh192rcd13ifvqdb0","pricing_plan_id":"cebpf4jnsgd1na2vs0mg"},{"bike_id":"71532546-bb92-48e7-ad14-c4e3ad83943e","system_id":"levelo_inurba_marseille","lat":43.28851,"lon":5.39309,"is_reserved":false,"is_disabled":true,"rental_uris":{"android":"levelo://app?vid=71532546-bb92-48e7-ad14-c4e3ad83943e","ios":"levelo://app?vid=71532546-bb92-48e7-ad14-c4e3ad83943e"},"vehicle_type_id":"4","last_reported":1760206322,"current_range_meters":0,"station_id":"ce4bh2p2rcd13ifvqdi0","pricing_plan_id":"cebpf4jnsgd1na2vs0mg"},{"bike_id":"bd28807f-fe55-4614-87a8-ec585c9f9cca","system_id":"levelo_inurba_marseille","lat":43.29259,"lon":5.40159,"is_reserved":false,"is_disabled":true,"rental_uris":{"android":"levelo://app?vid=bd28807f-fe55-4614-87a8-ec585c9f9cca","ios":"levelo://app?vid=bd28807f-fe55-4614-87a8-ec585c9f9cca"},"vehicle_type_id":"4","last_reported":1760206322,"current_range_meters":0,"station_id":"ce4bh312rcd13ifvqdk0","pricing_plan_id":"cebpf4jnsgd1na2vs0mg"},{"bike_id":"b372fd0d-a6bd-451c-96ce-c3c67bd0bd31","system_id":"levelo_inurba_marseille","lat":43.291,"lon":5.38138,"is_reserved":false,"is_disabled":true,"rental_uris":{"android":"levelo://app?vid=b372fd0d-a6bd-451c-96ce-c3c67bd0bd31","ios":"levelo://app?vid=b372fd0d-a6bd-451c-96ce-c3c67bd0bd31"},"vehicle_type_id":"4","last_reported":1760206322,"current_range_meters":0,"station_id":"ce4bh512rcd13ifvqe2g","pricing_plan_id":"cebpf4jnsgd1na2vs0mg"},{"bike_id":"6c11311d-4cf0-429d-9695-139704b56247","system_id":"levelo_inurba_marseille","lat":43.28485,"lon":5.38415,"is_reserved":false,"is_disabled":true,"rental_uris":{"android":"levelo://app?vid=6c11311d-4cf0-429d-9695-139704b56247","ios":"levelo://app?vid=6c11311d-4cf0-429d-9695-139704b56247"},"vehicle_type_id":"4","last_reported":1760206322,"current_range_meters":0,"station_id":"ce4bh512rcd13ifvqe3g","pricing_plan_id":"cebpf4jnsgd1na2vs0mg"},{"bike_id":"1e217379-81fc-498c-ab5f-050b06faee8c","system_id":"levelo_inurba_marseille","lat":43.28056,"lon":5.36945,"is_reserved":false,"is_disabled":true,"rental_uris":{"android":"levelo://app?vid=1e217379-81fc-498c-ab5f-050b06faee8c","ios":"levelo://app?vid=1e217379-81fc-498c-ab5f-050b06faee8c"},"vehicle_type_id":"4","last_reported":1760206322,"current_range_meters":0,"station_id":"ce4bha12rcd13ifvqef0","pricing_plan_id":"cebpf4jnsgd1na2vs0mg"},{"bike_id":"61fed68e-1a42-4b25-9f0c-ba4d50384443","system_id":"levelo_inurba_marseille","lat":43.29047,"lon":5.35936,"is_reserved":false,"is_disabled":true,"rental_uris":{"android":"levelo://app?vid=61fed68e-1a42-4b25-9f0c-ba4d50384443","ios":"levelo://app?vid=61fed68e-1a42-4b25-9f0c-ba4d50384443"},"vehicle_type_id":"4","last_reported":1760206322,"current_range_meters":0,"station_id":"ce4bha92rcd13ifvqeg0","pricing_plan_id":"cebpf4jnsgd1na2vs0mg"},{"bike_id":"23d8caef-49e9-488f-868e-0291d47b102a","system_id":"levelo_inurba_marseille","lat":43.29108,"lon":5.35924,"is_reserved":false,"is_disabled":true,"rental_uris":{"android":"levelo://app?vid=23d8caef-49e9-488f-868e-0291d47b102a","ios":"levelo://app?vid=23d8caef-49e9-488f-868e-0291d47b102a"},"vehicle_type_id":"4","last_reported":1760206322,"current_range_meters":0,"station_id":"ce4bha92rcd13ifvqeg0","pricing_plan_id":"cebpf4jnsgd1na2vs0mg"},{"bike_id":"eb5fffed-df7a-43f3-a420-da04d36c95cc","system_id":"levelo_inurba_marseille","lat":43.28937,"lon":5.36621,"is_reserved":false,"is_disabled":true,"rental_uris":{"android":"levelo://app?vid=eb5fffed-df7a-43f3-a420-da04d36c95cc","ios":"levelo://app?vid=eb5fffed-df7a-43f3-a420-da04d36c95cc"},"vehicle_type_id":"4","last_reported":1760206322,"current_range_meters":0,"station_id":"ce4bhap2rcd13ifvqek0","pricing_plan_id":"cebpf4jnsgd1na2vs0mg"},{"bike_id":"e5c8ede6-6d4a-4685-9b22-0f82dde5dc29","system_id":"levelo_inurba_marseille","lat":43.24813,"lon":5.37465,"is_reserved":false,"is_disabled":true,"rental_uris":{"android":"levelo://app?vid=e5c8ede6-6d4a-4685-9b22-0f82dde5dc29","ios":"levelo://app?vid=e5c8ede6-6d4a-4685-9b22-0f82dde5dc29"},"vehicle_type_id":"4","last_reported":1760206322,"current_range_meters":0,"station_id":"ce4bhgh2rcd13ifvqfb0","pricing_plan_id":"cebpf4jnsgd1na2vs0mg"},{"bike_id":"0a138a69-804e-4a3a-ae0d-3fe3da1fb32d","system_id":"levelo_inurba_marseille","lat":43.23159,"lon":5.43723,"is_reserved":false,"is_disabled":true,"rental_uris":{"android":"levelo://app?vid=0a138a69-804e-4a3a-ae0d-3fe3da1fb32d","ios":"levelo://app?vid=0a138a69-804e-4a3a-ae0d-3fe3da1fb32d"},"vehicle_type_id":"4","last_reported":1760206322,"current_range_meters":0,"station_id":"ce4bhmp2rcd13ifvqgog","pricing_plan_id":"cebpf4jnsgd1na2vs0mg"},{"bike_id":"b8f2f7c7-e08a-4589-bf41-154013c54438","system_id":"levelo_inurba_marseille","lat":43.28216,"lon":5.39055,"is_reserved":false,"is_disabled":true,"rental_uris":{"android":"levelo://app?vid=b8f2f7c7-e08a-4589-bf41-154013c54438","ios":"levelo://app?vid=b8f2f7c7-e08a-4589-bf41-154013c54438"},"vehicle_type_id":"4","last_reported":1760206322,"current_range_meters":0,"station_id":"ce4bhn92rcd13ifvqgsg","pricing_plan_id":"cebpf4jnsgd1na2vs0mg"},{"bike_id":"f9c19ee0-e263-4899-8e1d-67ae5a7da266","system_id":"levelo_inurba_marseille","lat":43.310835,"lon":5.424292,"is_reserved":false,"is_disabled":true,"rental_uris":{"android":"levelo://app?vid=f9c19ee0-e263-4899-8e1d-67ae5a7da266","ios":"levelo://app?vid=f9c19ee0-e263-4899-8e1d-67ae5a7da266"},"vehicle_type_id":"4","last_reported":1760206322,"current_range_meters":0,"station_id":"ce4bhp92rcd13ifvqhag","pricing_plan_id":"cebpf4jnsgd1na2vs0mg"},{"bike_id":"b2e2b38d-36f4-4e15-986e-723132819a60","system_id":"levelo_inurba_marseille","lat":43.30848,"lon":5.43539,"is_reserved":false,"is_disabled":true,"rental_uris":{"android":"levelo://app?vid=b2e2b38d-36f4-4e15-986e-723132819a60","ios":"levelo://app?vid=b2e2b38d-36f4-4e15-986e-723132819a60"},"vehicle_type_id":"4","last_reported":1760206322,"current_range_meters":0,"station_id":"ce4bhph2rcd13ifvqheg","pricing_plan_id":"cebpf4jnsgd1na2vs0mg"},{"bike_id":"3cdc7613-ace4-4007-83db-fd1d9f82df2d","system_id":"levelo_inurba_marseille","lat":43.28615,"lon":5.37072,"is_reserved":false,"is_disabled":true,"rental_uris":{"android":"levelo://app?vid=3cdc7613-ace4-4007-83db-fd1d9f82df2d","ios":"levelo://app?vid=3cdc7613-ace4-4007-83db-fd1d9f82df2d"},"vehicle_type_id":"4","last_reported":1760206322,"current_range_meters":0,"station_id":"ce4bht12rcd13ifvqi60","pricing_plan_id":"cebpf4jnsgd1na2vs0mg"},{"bike_id":"0ff28379-d69e-46fd-a711-ef84b1b06a74","system_id":"levelo_inurba_marseille","lat":43.21768,"lon":5.34627,"is_reserved":false,"is_disabled":true,"rental_uris":{"android":"levelo://app?vid=0ff28379-d69e-46fd-a711-ef84b1b06a74","ios":"levelo://app?vid=0ff28379-d69e-46fd-a711-ef84b1b06a74"},"vehicle_type_id":"4","last_reported":1760206322,"current_range_meters":0,"station_id":"st_cvj6r9ubvosntc0bgbag","pricing_plan_id":"cebpf4jnsgd1na2vs0mg"},{"bike_id":"bc508d92-e055-4123-8e72-1c0771f1f4a0","system_id":"levelo_inurba_marseille","lat":43.21735,"lon":5.34614,"is_reserved":false,"is_disabled":true,"rental_uris":{"android":"levelo://app?vid=bc508d92-e055-4123-8e72-1c0771f1f4a0","ios":"levelo://app?vid=bc508d92-e055-4123-8e72-1c0771f1f4a0"},"vehicle_type_id":"4","last_reported":1760206322,"current_range_meters":0,"station_id":"st_cvj6r9ubvosntc0bgbag","pricing_plan_id":"cebpf4jnsgd1na2vs0mg"},{"bike_id":"86eca012-edfb-4c20-9aef-d37ce3cadbda","system_id":"levelo_inurba_marseille","lat":43.21188,"lon":5.35074,"is_reserved":false,"is_disabled":true,"rental_uris":{"android":"levelo://app?vid=86eca012-edfb-4c20-9aef-d37ce3cadbda","ios":"levelo://app?vid=86eca012-edfb-4c20-9aef-d37ce3cadbda"},"vehicle_type_id":"4","last_reported":1760206322,"current_range_meters":0,"station_id":"st_cvj6sg6p6f1abm77japg","pricing_plan_id":"cebpf4jnsgd1na2vs0mg"},{"bike_id":"5206f34d-5c08-42bd-b24d-21b13734d2e6","system_id":"levelo_inurba_marseille","lat":43.21186,"lon":5.35112,"is_reserved":false,"is_disabled":true,"rental_uris":{"android":"levelo://app?vid=5206f34d-5c08-42bd-b24d-21b13734d2e6","ios":"levelo://app?vid=5206f34d-5c08-42bd-b24d-21b13734d2e6"},"vehicle_type_id":"4","last_reported":1760206322,"current_range_meters":0,"station_id":"st_cvj6sg6p6f1abm77japg","pricing_plan_id":"cebpf4jnsgd1na2vs0mg"},{"bike_id":"5a1f50b1-f1f9-4f02-a3c5-363250f2c45b","system_id":"levelo_inurba_marseille","lat":43.2119,"lon":5.35073,"is_reserved":false,"is_disabled":true,"rental_uris":{"android":"levelo://app?vid=5a1f50b1-f1f9-4f02-a3c5-363250f2c45b","ios":"levelo://app?vid=5a1f50b1-f1f9-4f02-a3c5-363250f2c45b"},"vehicle_type_id":"4","last_reported":1760206322,"current_range_meters":0,"station_id":"st_cvj6sg6p6f1abm77japg","pricing_plan_id":"cebpf4jnsgd1na2vs0mg"},{"bike_id":"c31f5b0e-d798-4f12-be52-283c24a28126","system_id":"levelo_inurba_marseille","lat":43.21193,"lon":5.35077,"is_reserved":false,"is_disabled":true,"rental_uris":{"android":"levelo://app?vid=c31f5b0e-d798-4f12-be52-283c24a28126","ios":"levelo://app?vid=c31f5b0e-d798-4f12-be52-283c24a28126"},"vehicle_type_id":"4","last_reported":1760206322,"current_range_meters":0,"station_id":"st_cvj6sg6p6f1abm77japg","pricing_plan_id":"cebpf4jnsgd1na2vs0mg"},{"bike_id":"318f22a7-5f50-43d5-95c9-0eb28a028a8f","system_id":"levelo_inurba_marseille","lat":43.22571,"lon":5.41635,"is_reserved":false,"is_disabled":true,"rental_uris":{"android":"levelo://app?vid=318f22a7-5f50-43d5-95c9-0eb28a028a8f","ios":"levelo://app?vid=318f22a7-5f50-43d5-95c9-0eb28a028a8f"},"vehicle_type_id":"4","last_reported":1760206322,"current_range_meters":0,"station_id":"st_d2o4gvlbi1j2169b742g","pricing_plan_id":"cebpf4jnsgd1na2vs0mg"},{"bike_id":"6789b0b1-4cdb-4364-8db0-2230f3507239","system_id":"levelo_inurba_marseille","lat":43.29476,"lon":5.43321,"is_reserved":false,"is_disabled":true,"rental_uris":{"android":"levelo://app?vid=6789b0b1-4cdb-4364-8db0-2230f3507239","ios":"levelo://app?vid=6789b0b1-4cdb-4364-8db0-2230f3507239"},"vehicle_type_id":"4","last_reported":1760206322,"current_range_meters":0,"station_id":"st_d3j5ugp08ojc73fj9d10","pricing_plan_id":"cebpf4jnsgd1na2vs0mg"},{"bike_id":"30d5dccc-8768-476a-9b06-f786d2819500","system_id":"levelo_inurba_marseille","lat":43.30959,"lon":5.39034,"is_reserved":false,"is_disabled":true,"rental_uris":{"android":"levelo://app?vid=30d5dccc-8768-476a-9b06-f786d2819500","ios":"levelo://app?vid=30d5dccc-8768-476a-9b06-f786d2819500"},"vehicle_type_id":"4","last_reported":1760206322,"current_range_meters":400,"station_id":"ce4bgup2rcd13ifvqco0","pricing_plan_id":"cebpf4jnsgd1na2vs0mg"},{"bike_id":"de571075-5512-4acb-a50b-852f0074cd08","system_id":"levelo_inurba_marseille","lat":43.24968,"lon":5.405,"is_reserved":false,"is_disabled":true,"rental_uris":{"android":"levelo://app?vid=de571075-5512-4acb-a50b-852f0074cd08","ios":"levelo://app?vid=de571075-5512-4acb-a50b-852f0074cd08"},"vehicle_type_id":"4","last_reported":1760206322,"current_range_meters":400,"station_id":"st_d2ngiaodas8pm72gd1h0","pricing_plan_id":"cebpf4jnsgd1na2vs0mg"},{"bike_id":"f9189c34-73f3-400e-a578-d61fdb98e03d","system_id":"levelo_inurba_marseille","lat":43.30511,"lon":5.36558,"is_reserved":false,"is_disabled":true,"rental_uris":{"android":"levelo://app?vid=f9189c34-73f3-400e-a578-d61fdb98e03d","ios":"levelo://app?vid=f9189c34-73f3-400e-a578-d61fdb98e03d"},"vehicle_type_id":"4","last_reported":1760206322,"current_range_meters":800,"station_id":"","pricing_plan_id":"cebpf4jnsgd1na2vs0mg"},{"bike_id":"95d67097-1dd1-4636-9a09-a29ec8cec6f2","system_id":"levelo_inurba_marseille","lat":43.29939,"lon":5.36568,"is_reserved":false,"is_disabled":true,"rental_uris":{"android":"levelo://app?vid=95d67097-1dd1-4636-9a09-a29ec8cec6f2","ios":"levelo://app?vid=95d67097-1dd1-4636-9a09-a29ec8cec6f2"},"vehicle_type_id":"4","last_reported":1760206322,"current_range_meters":800,"station_id":"ce4bgm92rcd13ifvqbr0","pricing_plan_id":"cebpf4jnsgd1na2vs0mg"},{"bike_id":"72f60494-b2b4-4e43-ba7d-dd771b5f9641","system_id":"levelo_inurba_marseille","lat":43.30537,"lon":5.3656,"is_reserved":false,"is_disabled":true,"rental_uris":{"android":"levelo://app?vid=72f60494-b2b4-4e43-ba7d-dd771b5f9641","ios":"levelo://app?vid=72f60494-b2b4-4e43-ba7d-dd771b5f9641"},"vehicle_type_id":"4","last_reported":1760206322,"current_range_meters":800,"station_id":"ce4bgs12rcd13ifvqcag","pricing_plan_id":"cebpf4jnsgd1na2vs0mg"},{"bike_id":"4de9bb2c-153d-477b-bb89-ff8edd4891d6","system_id":"levelo_inurba_marseille","lat":43.3137,"lon":5.38492,"is_reserved":false,"is_disabled":true,"rental_uris":{"android":"levelo://app?vid=4de9bb2c-153d-477b-bb89-ff8edd4891d6","ios":"levelo://app?vid=4de9bb2c-153d-477b-bb89-ff8edd4891d6"},"vehicle_type_id":"4","last_reported":1760206322,"current_range_meters":800,"station_id":"ce4bgt92rcd13ifvqcf0","pricing_plan_id":"cebpf4jnsgd1na2vs0mg"},{"bike_id":"2b5d5b57-0bec-4afb-a2b0-ef392a151d50","system_id":"levelo_inurba_marseille","lat":43.31118,"lon":5.37747,"is_reserved":false,"is_disabled":true,"rental_uris":{"android":"levelo://app?vid=2b5d5b57-0bec-4afb-a2b0-ef392a151d50","ios":"levelo://app?vid=2b5d5b57-0bec-4afb-a2b0-ef392a151d50"},"vehicle_type_id":"4","last_reported":1760206322,"current_range_meters":800,"station_id":"ce4bgt92rcd13ifvqcg0","pricing_plan_id":"cebpf4jnsgd1na2vs0mg"},{"bike_id":"92000d44-524e-499d-b2f2-9180086115d4","system_id":"levelo_inurba_marseille","lat":43.30964,"lon":5.39038,"is_reserved":false,"is_disabled":true,"rental_uris":{"android":"levelo://app?vid=92000d44-524e-499d-b2f2-9180086115d4","ios":"levelo://app?vid=92000d44-524e-499d-b2f2-9180086115d4"},"vehicle_type_id":"4","last_reported":1760206322,"current_range_meters":800,"station_id":"ce4bgup2rcd13ifvqco0","pricing_plan_id":"cebpf4jnsgd1na2vs0mg"},{"bike_id":"a630f870-dfb6-4a2e-b3da-71be9fb41641","system_id":"levelo_inurba_marseille","lat":43.27374,"lon":5.36255,"is_reserved":false,"is_disabled":true,"rental_uris":{"android":"levelo://app?vid=a630f870-dfb6-4a2e-b3da-71be9fb41641","ios":"levelo://app?vid=a630f870-dfb6-4a2e-b3da-71be9fb41641"},"vehicle_type_id":"4","last_reported":1760206322,"current_range_meters":800,"station_id":"ce4bhbh2rcd13ifvqeo0","pricing_plan_id":"cebpf4jnsgd1na2vs0mg"},{"bike_id":"5fcf373e-63a2-4090-9e5a-5ddad8509b0d","system_id":"levelo_inurba_marseille","lat":43.287815,"lon":5.400346,"is_reserved":false,"is_disabled":true,"rental_uris":{"android":"levelo://app?vid=5fcf373e-63a2-4090-9e5a-5ddad8509b0d","ios":"levelo://app?vid=5fcf373e-63a2-4090-9e5a-5ddad8509b0d"},"vehicle_type_id":"4","last_reported":1760206322,"current_range_meters":800,"station_id":"ce4bho92rcd13ifvqh3g","pricing_plan_id":"cebpf4jnsgd1na2vs0mg"},{"bike_id":"f9393001-3c65-48bd-ae4e-67982ba4ca22","system_id":"levelo_inurba_marseille","lat":43.217462,"lon":5.34612,"is_reserved":false,"is_disabled":true,"rental_uris":{"android":"levelo://app?vid=f9393001-3c65-48bd-ae4e-67982ba4ca22","ios":"levelo://app?vid=f9393001-3c65-48bd-ae4e-67982ba4ca22"},"vehicle_type_id":"4","last_reported":1760206322,"current_range_meters":800,"station_id":"st_cvj6r9ubvosntc0bgbag","pricing_plan_id":"cebpf4jnsgd1na2vs0mg"},{"bike_id":"cf1f5b36-e546-40a1-9eae-40b1d47bbe02","system_id":"levelo_inurba_marseille","lat":43.21736,"lon":5.34611,"is_reserved":false,"is_disabled":true,"rental_uris":{"android":"levelo://app?vid=cf1f5b36-e546-40a1-9eae-40b1d47bbe02","ios":"levelo://app?vid=cf1f5b36-e546-40a1-9eae-40b1d47bbe02"},"vehicle_type_id":"4","last_reported":1760206322,"current_range_meters":800,"station_id":"st_cvj6r9ubvosntc0bgbag","pricing_plan_id":"cebpf4jnsgd1na2vs0mg"},{"bike_id":"8f2a7ab2-aca6-46d7-b646-8b76230702af","system_id":"levelo_inurba_marseille","lat":43.292725,"lon":5.368497,"is_reserved":false,"is_disabled":true,"rental_uris":{"android":"levelo://app?vid=8f2a7ab2-aca6-46d7-b646-8b76230702af","ios":"levelo://app?vid=8f2a7ab2-aca6-46d7-b646-8b76230702af"},"vehicle_type_id":"4","last_reported":1760206322,"current_range_meters":1200,"station_id":"","pricing_plan_id":"cebpf4jnsgd1na2vs0mg"},{"bike_id":"e93c1cd6-4464-4973-9020-246bd8053569","system_id":"levelo_inurba_marseille","lat":43.30126,"lon":5.38761,"is_reserved":false,"is_disabled":true,"rental_uris":{"android":"levelo://app?vid=e93c1cd6-4464-4973-9020-246bd8053569","ios":"levelo://app?vid=e93c1cd6-4464-4973-9020-246bd8053569"},"vehicle_type_id":"4","last_reported":1760206322,"current_range_meters":1200,"station_id":"ce4bghh2rcd13ifvqb60","pricing_plan_id":"cebpf4jnsgd1na2vs0mg"},{"bike_id":"ff184afb-2150-4d18-aa01-5760266b1039","system_id":"levelo_inurba_marseille","lat":43.29255,"lon":5.37622,"is_reserved":false,"is_disabled":true,"rental_uris":{"android":"levelo://app?vid=ff184afb-2150-4d18-aa01-5760266b1039","ios":"levelo://app?vid=ff184afb-2150-4d18-aa01-5760266b1039"},"vehicle_type_id":"4","last_reported":1760206322,"current_range_meters":1200,"station_id":"ce4bgi12rcd13ifvqb80","pricing_plan_id":"cebpf4jnsgd1na2vs0mg"},{"bike_id":"74e815fe-2ed8-49ab-9e1a-53554c2f1217","system_id":"levelo_inurba_marseille","lat":43.292747,"lon":5.368399,"is_reserved":false,"is_disabled":true,"rental_uris":{"android":"levelo://app?vid=74e815fe-2ed8-49ab-9e1a-53554c2f1217","ios":"levelo://app?vid=74e815fe-2ed8-49ab-9e1a-53554c2f1217"},"vehicle_type_id":"4","last_reported":1760206322,"current_range_meters":1200,"station_id":"ce4bgkp2rcd13ifvqbmg","pricing_plan_id":"cebpf4jnsgd1na2vs0mg"},{"bike_id":"99bf7813-7db0-4946-a32b-2a22acfbcfde","system_id":"levelo_inurba_marseille","lat":43.29849,"lon":5.36281,"is_reserved":false,"is_disabled":false,"rental_uris":{"android":"levelo://app?vid=99bf7813-7db0-4946-a32b-2a22acfbcfde","ios":"levelo://app?vid=99bf7813-7db0-4946-a32b-2a22acfbcfde"},"vehicle_type_id":"4","last_reported":1760206322,"current_range_meters":1200,"station_id":"ce4bgpp2rcd13ifvqc3g","pricing_plan_id":"cebpf4jnsgd1na2vs0mg"},{"bike_id":"15136314-afe1-4adc-9ad2-5f556ecc476a","system_id":"levelo_inurba_marseille","lat":43.295465,"lon":5.394433,"is_reserved":false,"is_disabled":true,"rental_uris":{"android":"levelo://app?vid=15136314-afe1-4adc-9ad2-5f556ecc476a","ios":"levelo://app?vid=15136314-afe1-4adc-9ad2-5f556ecc476a"},"vehicle_type_id":"4","last_reported":1760206322,"current_range_meters":1200,"station_id":"ce4bh292rcd13ifvqdf0","pricing_plan_id":"cebpf4jnsgd1na2vs0mg"},{"bike_id":"5f6ef5a9-e7e1-4fdc-a6c5-620021fbcad4","system_id":"levelo_inurba_marseille","lat":43.28933,"lon":5.3963,"is_reserved":false,"is_disabled":true,"rental_uris":{"android":"levelo://app?vid=5f6ef5a9-e7e1-4fdc-a6c5-620021fbcad4","ios":"levelo://app?vid=5f6ef5a9-e7e1-4fdc-a6c5-620021fbcad4"},"vehicle_type_id":"4","last_reported":1760206322,"current_range_meters":1200,"station_id":"ce4bh3h2rcd13ifvqdn0","pricing_plan_id":"cebpf4jnsgd1na2vs0mg"},{"bike_id":"7cd19abb-b195-4ff0-bf6b-d8602777eb31","system_id":"levelo_inurba_marseille","lat":43.28344,"lon":5.38107,"is_reserved":false,"is_disabled":true,"rental_uris":{"android":"levelo://app?vid=7cd19abb-b195-4ff0-bf6b-d8602777eb31","ios":"levelo://app?vid=7cd19abb-b195-4ff0-bf6b-d8602777eb31"},"vehicle_type_id":"4","last_reported":1760206322,"current_range_meters":1200,"station_id":"ce4bh412rcd13ifvqdr0","pricing_plan_id":"cebpf4jnsgd1na2vs0mg"},{"bike_id":"e6e627c9-f0a2-412f-9fc1-3285e45b4c12","system_id":"levelo_inurba_marseille","lat":43.28281,"lon":5.35078,"is_reserved":false,"is_disabled":true,"rental_uris":{"android":"levelo://app?vid=e6e627c9-f0a2-412f-9fc1-3285e45b4c12","ios":"levelo://app?vid=e6e627c9-f0a2-412f-9fc1-3285e45b4c12"},"vehicle_type_id":"4","last_reported":1760206322,"current_range_meters":1200,"station_id":"ce4bhbp2rcd13ifvqerg","pricing_plan_id":"cebpf4jnsgd1na2vs0mg"},{"bike_id":"cba56992-3c63-4f84-98cc-508de17884dd","system_id":"levelo_inurba_marseille","lat":43.29283,"lon":5.36846,"is_reserved":false,"is_disabled":true,"rental_uris":{"android":"levelo://app?vid=cba56992-3c63-4f84-98cc-508de17884dd","ios":"levelo://app?vid=cba56992-3c63-4f84-98cc-508de17884dd"},"vehicle_type_id":"4","last_reported":1760206322,"current_range_meters":1200,"station_id":"ce4bhbp2rcd13ifvqesg","pricing_plan_id":"cebpf4jnsgd1na2vs0mg"},{"bike_id":"13c02fae-d17b-45e0-85dd-a7954ede836e","system_id":"levelo_inurba_marseille","lat":43.265585,"lon":5.390296,"is_reserved":false,"is_disabled":true,"rental_uris":{"android":"levelo://app?vid=13c02fae-d17b-45e0-85dd-a7954ede836e","ios":"levelo://app?vid=13c02fae-d17b-45e0-85dd-a7954ede836e"},"vehicle_type_id":"4","last_reported":1760206322,"current_range_meters":1200,"station_id":"ce4bhe12rcd13ifvqf30","pricing_plan_id":"cebpf4jnsgd1na2vs0mg"},{"bike_id":"32a74dd1-6b4e-4c05-bb4b-e7377531e822","system_id":"levelo_inurba_marseille","lat":43.26599,"lon":5.39013,"is_reserved":false,"is_disabled":true,"rental_uris":{"android":"levelo://app?vid=32a74dd1-6b4e-4c05-bb4b-e7377531e822","ios":"levelo://app?vid=32a74dd1-6b4e-4c05-bb4b-e7377531e822"},"vehicle_type_id":"4","last_reported":1760206322,"current_range_meters":1200,"station_id":"ce4bhe12rcd13ifvqf30","pricing_plan_id":"cebpf4jnsgd1na2vs0mg"},{"bike_id":"dd65361e-27b2-4795-b88d-40ddb1a1b2ac","system_id":"levelo_inurba_marseille","lat":43.24659,"lon":5.38165,"is_reserved":false,"is_disabled":true,"rental_uris":{"android":"levelo://app?vid=dd65361e-27b2-4795-b88d-40ddb1a1b2ac","ios":"levelo://app?vid=dd65361e-27b2-4795-b88d-40ddb1a1b2ac"},"vehicle_type_id":"4","last_reported":1760206322,"current_range_meters":1200,"station_id":"ce4bhih2rcd13ifvqfr0","pricing_plan_id":"cebpf4jnsgd1na2vs0mg"},{"bike_id":"d1d4026a-1755-468a-a128-32adb62747c2","system_id":"levelo_inurba_marseille","lat":43.31945,"lon":5.40818,"is_reserved":false,"is_disabled":true,"rental_uris":{"android":"levelo://app?vid=d1d4026a-1755-468a-a128-32adb62747c2","ios":"levelo://app?vid=d1d4026a-1755-468a-a128-32adb62747c2"},"vehicle_type_id":"4","last_reported":1760206322,"current_range_meters":1600,"station_id":"","pricing_plan_id":"cebpf4jnsgd1na2vs0mg"},{"bike_id":"963791dc-e0b3-4d19-a9c2-ad06713a7ea4","system_id":"levelo_inurba_marseille","lat":43.30913,"lon":5.36847,"is_reserved":false,"is_disabled":true,"rental_uris":{"android":"levelo://app?vid=963791dc-e0b3-4d19-a9c2-ad06713a7ea4","ios":"levelo://app?vid=963791dc-e0b3-4d19-a9c2-ad06713a7ea4"},"vehicle_type_id":"4","last_reported":1760206322,"current_range_meters":1600,"station_id":"ce4bgn92rcd13ifvqbvg","pricing_plan_id":"cebpf4jnsgd1na2vs0mg"},{"bike_id":"164d6faa-d0ba-4434-a8c2-d9a900aa3a7f","system_id":"levelo_inurba_marseille","lat":43.29621,"lon":5.37173,"is_reserved":false,"is_disabled":true,"rental_uris":{"android":"levelo://app?vid=164d6faa-d0ba-4434-a8c2-d9a900aa3a7f","ios":"levelo://app?vid=164d6faa-d0ba-4434-a8c2-d9a900aa3a7f"},"vehicle_type_id":"4","last_reported":1760206322,"current_range_meters":1600,"station_id":"ce4bgnh2rcd13ifvqc0g","pricing_plan_id":"cebpf4jnsgd1na2vs0mg"},{"bike_id":"28fb2b24-e380-4ac4-8b24-cdb6947e7e39","system_id":"levelo_inurba_marseille","lat":43.298621,"lon":5.362892,"is_reserved":false,"is_disabled":true,"rental_uris":{"android":"levelo://app?vid=28fb2b24-e380-4ac4-8b24-cdb6947e7e39","ios":"levelo://app?vid=28fb2b24-e380-4ac4-8b24-cdb6947e7e39"},"vehicle_type_id":"4","last_reported":1760206322,"current_range_meters":1600,"station_id":"ce4bgpp2rcd13ifvqc3g","pricing_plan_id":"cebpf4jnsgd1na2vs0mg"},{"bike_id":"de920bd0-751c-4670-93f1-c8395affe5fd","system_id":"levelo_inurba_marseille","lat":43.28414,"lon":5.37516,"is_reserved":false,"is_disabled":true,"rental_uris":{"android":"levelo://app?vid=de920bd0-751c-4670-93f1-c8395affe5fd","ios":"levelo://app?vid=de920bd0-751c-4670-93f1-c8395affe5fd"},"vehicle_type_id":"4","last_reported":1760206322,"current_range_meters":1600,"station_id":"ce4bh412rcd13ifvqds0","pricing_plan_id":"cebpf4jnsgd1na2vs0mg"},{"bike_id":"1d65df65-6209-40c2-b51f-e403a55f5c54","system_id":"levelo_inurba_marseille","lat":43.304747,"lon":5.372541,"is_reserved":false,"is_disabled":true,"rental_uris":{"android":"levelo://app?vid=1d65df65-6209-40c2-b51f-e403a55f5c54","ios":"levelo://app?vid=1d65df65-6209-40c2-b51f-e403a55f5c54"},"vehicle_type_id":"4","last_reported":1760206322,"current_range_meters":1600,"station_id":"ce4bh692rcd13ifvqea0","pricing_plan_id":"cebpf4jnsgd1na2vs0mg"},{"bike_id":"65623f02-4a1c-47b5-ac86-67e92a2d42ee","system_id":"levelo_inurba_marseille","lat":43.27915,"lon":5.39583,"is_reserved":false,"is_disabled":true,"rental_uris":{"android":"levelo://app?vid=65623f02-4a1c-47b5-ac86-67e92a2d42ee","ios":"levelo://app?vid=65623f02-4a1c-47b5-ac86-67e92a2d42ee"},"vehicle_type_id":"4","last_reported":1760206322,"current_range_meters":1600,"station_id":"ce4bhf92rcd13ifvqf40","pricing_plan_id":"cebpf4jnsgd1na2vs0mg"},{"bike_id":"455faa5f-1542-41d7-b191-43e2c4bba95b","system_id":"levelo_inurba_marseille","lat":43.262093,"lon":5.374417,"is_reserved":false,"is_disabled":true,"rental_uris":{"android":"levelo://app?vid=455faa5f-1542-41d7-b191-43e2c4bba95b","ios":"levelo://app?vid=455faa5f-1542-41d7-b191-43e2c4bba95b"},"vehicle_type_id":"4","last_reported":1760206322,"current_range_meters":1600,"station_id":"ce4bhgp2rcd13ifvqfc0","pricing_plan_id":"cebpf4jnsgd1na2vs0mg"},{"bike_id":"bde981de-41ff-4d89-872d-c0b23759db79","system_id":"levelo_inurba_marseille","lat":43.282047,"lon":5.391,"is_reserved":false,"is_disabled":true,"rental_uris":{"android":"levelo://app?vid=bde981de-41ff-4d89-872d-c0b23759db79","ios":"levelo://app?vid=bde981de-41ff-4d89-872d-c0b23759db79"},"vehicle_type_id":"4","last_reported":1760206322,"current_range_meters":1600,"station_id":"ce4bhn92rcd13ifvqgsg","pricing_plan_id":"cebpf4jnsgd1na2vs0mg"},{"bike_id":"0d5bce75-2667-431a-a87d-5d7b8c96210e","system_id":"levelo_inurba_marseille","lat":43.24071,"lon":5.37768,"is_reserved":false,"is_disabled":true,"rental_uris":{"android":"levelo://app?vid=0d5bce75-2667-431a-a87d-5d7b8c96210e","ios":"levelo://app?vid=0d5bce75-2667-431a-a87d-5d7b8c96210e"},"vehicle_type_id":"4","last_reported":1760206322,"current_range_meters":1600,"station_id":"ce4bhnp2rcd13ifvqgvg","pricing_plan_id":"cebpf4jnsgd1na2vs0mg"},{"bike_id":"c8ee1a64-485e-4baf-ab08-a1b4812ef547","system_id":"levelo_inurba_marseille","lat":43.28537,"lon":5.44106,"is_reserved":false,"is_disabled":true,"rental_uris":{"android":"levelo://app?vid=c8ee1a64-485e-4baf-ab08-a1b4812ef547","ios":"levelo://app?vid=c8ee1a64-485e-4baf-ab08-a1b4812ef547"},"vehicle_type_id":"4","last_reported":1760206322,"current_range_meters":1600,"station_id":"st_d3j3df2ikq2c7380ej80","pricing_plan_id":"cebpf4jnsgd1na2vs0mg"},{"bike_id":"338739f4-c116-4bed-8ca5-8df2bb0329fd","system_id":"levelo_inurba_marseille","lat":43.29317,"lon":5.3718,"is_reserved":false,"is_disabled":true,"rental_uris":{"android":"levelo://app?vid=338739f4-c116-4bed-8ca5-8df2bb0329fd","ios":"levelo://app?vid=338739f4-c116-4bed-8ca5-8df2bb0329fd"},"vehicle_type_id":"4","last_reported":1760206322,"current_range_meters":2000,"station_id":"ce4bgh92rcd13ifvqb40","pricing_plan_id":"cebpf4jnsgd1na2vs0mg"},{"bike_id":"2e6f2fb5-df0c-413c-a59a-241d17d92f32","system_id":"levelo_inurba_marseille","lat":43.30425,"lon":5.38886,"is_reserved":false,"is_disabled":true,"rental_uris":{"android":"levelo://app?vid=2e6f2fb5-df0c-413c-a59a-241d17d92f32","ios":"levelo://app?vid=2e6f2fb5-df0c-413c-a59a-241d17d92f32"},"vehicle_type_id":"4","last_reported":1760206322,"current_range_meters":2000,"station_id":"ce4bgk12rcd13ifvqbi0","pricing_plan_id":"cebpf4jnsgd1na2vs0mg"},{"bike_id":"1823bac3-d7e9-4f4c-b081-67f8dab354a6","system_id":"levelo_inurba_marseille","lat":43.305374,"lon":5.367352,"is_reserved":false,"is_disabled":true,"rental_uris":{"android":"levelo://app?vid=1823bac3-d7e9-4f4c-b081-67f8dab354a6","ios":"levelo://app?vid=1823bac3-d7e9-4f4c-b081-67f8dab354a6"},"vehicle_type_id":"4","last_reported":1760206322,"current_range_meters":2000,"station_id":"ce4bgrp2rcd13ifvqc9g","pricing_plan_id":"cebpf4jnsgd1na2vs0mg"},{"bike_id":"beaa0501-b563-45f1-8f32-be4a68c053c1","system_id":"levelo_inurba_marseille","lat":43.31366,"lon":5.38492,"is_reserved":false,"is_disabled":true,"rental_uris":{"android":"levelo://app?vid=beaa0501-b563-45f1-8f32-be4a68c053c1","ios":"levelo://app?vid=beaa0501-b563-45f1-8f32-be4a68c053c1"},"vehicle_type_id":"4","last_reported":1760206322,"current_range_meters":2000,"station_id":"ce4bgt92rcd13ifvqcf0","pricing_plan_id":"cebpf4jnsgd1na2vs0mg"},{"bike_id":"724e00c1-2342-48d3-8f3a-92d6c7580d9a","system_id":"levelo_inurba_marseille","lat":43.30274,"lon":5.40072,"is_reserved":false,"is_disabled":true,"rental_uris":{"android":"levelo://app?vid=724e00c1-2342-48d3-8f3a-92d6c7580d9a","ios":"levelo://app?vid=724e00c1-2342-48d3-8f3a-92d6c7580d9a"},"vehicle_type_id":"4","last_reported":1760206322,"current_range_meters":2000,"station_id":"ce4bgvh2rcd13ifvqcs0","pricing_plan_id":"cebpf4jnsgd1na2vs0mg"},{"bike_id":"728c9bad-5802-414e-9556-f787ead0098b","system_id":"levelo_inurba_marseille","lat":43.30217,"lon":5.39464,"is_reserved":false,"is_disabled":true,"rental_uris":{"android":"levelo://app?vid=728c9bad-5802-414e-9556-f787ead0098b","ios":"levelo://app?vid=728c9bad-5802-414e-9556-f787ead0098b"},"vehicle_type_id":"4","last_reported":1760206322,"current_range_meters":2000,"station_id":"ce4bh0p2rcd13ifvqd70","pricing_plan_id":"cebpf4jnsgd1na2vs0mg"},{"bike_id":"8bdecf6d-4f0b-43c2-bedd-02392e081012","system_id":"levelo_inurba_marseille","lat":43.30793,"lon":5.43524,"is_reserved":false,"is_disabled":true,"rental_uris":{"android":"levelo://app?vid=8bdecf6d-4f0b-43c2-bedd-02392e081012","ios":"levelo://app?vid=8bdecf6d-4f0b-43c2-bedd-02392e081012"},"vehicle_type_id":"4","last_reported":1760206322,"current_range_meters":2000,"station_id":"ce4bhph2rcd13ifvqheg","pricing_plan_id":"cebpf4jnsgd1na2vs0mg"},{"bike_id":"acc6d056-98ae-4cb7-b076-aa7cf64ac893","system_id":"levelo_inurba_marseille","lat":43.266793,"lon":5.38268,"is_reserved":false,"is_disabled":false,"rental_uris":{"android":"levelo://app?vid=acc6d056-98ae-4cb7-b076-aa7cf64ac893","ios":"levelo://app?vid=acc6d056-98ae-4cb7-b076-aa7cf64ac893"},"vehicle_type_id":"4","last_reported":1760206322,"current_range_meters":2800,"station_id":"ce4bhg92rcd13ifvqf90","pricing_plan_id":"cebpf4jnsgd1na2vs0mg"},{"bike_id":"1b250994-0170-4661-ad30-8628a0fa8326","system_id":"levelo_inurba_marseille","lat":43.284057,"lon":5.3752,"is_reserved":false,"is_disabled":false,"rental_uris":{"android":"levelo://app?vid=1b250994-0170-4661-ad30-8628a0fa8326","ios":"levelo://app?vid=1b250994-0170-4661-ad30-8628a0fa8326"},"vehicle_type_id":"4","last_reported":1760206322,"current_range_meters":3200,"station_id":"ce4bgj92rcd13ifvqbe0","pricing_plan_id":"cebpf4jnsgd1na2vs0mg"},{"bike_id":"21c6d5e4-d5cd-4299-9983-e3a7e2e6ad67","system_id":"levelo_inurba_marseille","lat":43.29846,"lon":5.36275,"is_reserved":false,"is_disabled":false,"rental_uris":{"android":"levelo://app?vid=21c6d5e4-d5cd-4299-9983-e3a7e2e6ad67","ios":"levelo://app?vid=21c6d5e4-d5cd-4299-9983-e3a7e2e6ad67"},"vehicle_type_id":"4","last_reported":1760206322,"current_range_meters":3200,"station_id":"ce4bgpp2rcd13ifvqc3g","pricing_plan_id":"cebpf4jnsgd1na2vs0mg"},{"bike_id":"cbaacf18-1bb7-458c-9aba-8418f73da4f7","system_id":"levelo_inurba_marseille","lat":43.290222,"lon":5.386578,"is_reserved":false,"is_disabled":false,"rental_uris":{"android":"levelo://app?vid=cbaacf18-1bb7-458c-9aba-8418f73da4f7","ios":"levelo://app?vid=cbaacf18-1bb7-458c-9aba-8418f73da4f7"},"vehicle_type_id":"4","last_reported":1760206322,"current_range_meters":3200,"station_id":"ce4bh4p2rcd13ifvqe0g","pricing_plan_id":"cebpf4jnsgd1na2vs0mg"},{"bike_id":"1508e37c-ddee-4fca-a836-8777a02263a4","system_id":"levelo_inurba_marseille","lat":43.297229,"lon":5.380115,"is_reserved":false,"is_disabled":false,"rental_uris":{"android":"levelo://app?vid=1508e37c-ddee-4fca-a836-8777a02263a4","ios":"levelo://app?vid=1508e37c-ddee-4fca-a836-8777a02263a4"},"vehicle_type_id":"4","last_reported":1760206322,"current_range_meters":3600,"station_id":"","pricing_plan_id":"cebpf4jnsgd1na2vs0mg"},{"bike_id":"fb69b08f-70a1-461c-a8d2-32a1f3c2ea10","system_id":"levelo_inurba_marseille","lat":43.30335,"lon":5.40424,"is_reserved":false,"is_disabled":false,"rental_uris":{"android":"levelo://app?vid=fb69b08f-70a1-461c-a8d2-32a1f3c2ea10","ios":"levelo://app?vid=fb69b08f-70a1-461c-a8d2-32a1f3c2ea10"},"vehicle_type_id":"4","last_reported":1760206322,"current_range_meters":3600,"station_id":"ce4bh012rcd13ifvqd10","pricing_plan_id":"cebpf4jnsgd1na2vs0mg"},{"bike_id":"413f419e-968a-4343-8906-37fea2917106","system_id":"levelo_inurba_marseille","lat":43.290221,"lon":5.381308,"is_reserved":false,"is_disabled":false,"rental_uris":{"android":"levelo://app?vid=413f419e-968a-4343-8906-37fea2917106","ios":"levelo://app?vid=413f419e-968a-4343-8906-37fea2917106"},"vehicle_type_id":"4","last_reported":1760206322,"current_range_meters":3600,"station_id":"ce4bh4p2rcd13ifvqe1g","pricing_plan_id":"cebpf4jnsgd1na2vs0mg"},{"bike_id":"f837f1d3-2641-403e-bf90-2324e47a7390","system_id":"levelo_inurba_marseille","lat":43.29759,"lon":5.42781,"is_reserved":false,"is_disabled":false,"rental_uris":{"android":"levelo://app?vid=f837f1d3-2641-403e-bf90-2324e47a7390","ios":"levelo://app?vid=f837f1d3-2641-403e-bf90-2324e47a7390"},"vehicle_type_id":"4","last_reported":1760206322,"current_range_meters":4000,"station_id":"","pricing_plan_id":"cebpf4jnsgd1na2vs0mg"},{"bike_id":"edb50c03-533a-4b18-8e80-ae941ce8f7f2","system_id":"levelo_inurba_marseille","lat":43.29314,"lon":5.37458,"is_reserved":false,"is_disabled":false,"rental_uris":{"android":"levelo://app?vid=edb50c03-533a-4b18-8e80-ae941ce8f7f2","ios":"levelo://app?vid=edb50c03-533a-4b18-8e80-ae941ce8f7f2"},"vehicle_type_id":"4","last_reported":1760206322,"current_range_meters":4000,"station_id":"ce4bgi12rcd13ifvqb70","pricing_plan_id":"cebpf4jnsgd1na2vs0mg"},{"bike_id":"7db5053a-82f4-431b-bc85-e21d609ba63c","system_id":"levelo_inurba_marseille","lat":43.31173,"lon":5.38725,"is_reserved":false,"is_disabled":false,"rental_uris":{"android":"levelo://app?vid=7db5053a-82f4-431b-bc85-e21d609ba63c","ios":"levelo://app?vid=7db5053a-82f4-431b-bc85-e21d609ba63c"},"vehicle_type_id":"4","last_reported":1760206322,"current_range_meters":4000,"station_id":"ce4bgv12rcd13ifvqcp0","pricing_plan_id":"cebpf4jnsgd1na2vs0mg"},{"bike_id":"2cccd49d-3db8-4f44-b36a-28b40895b4d0","system_id":"levelo_inurba_marseille","lat":43.30253,"lon":5.40066,"is_reserved":false,"is_disabled":false,"rental_uris":{"android":"levelo://app?vid=2cccd49d-3db8-4f44-b36a-28b40895b4d0","ios":"levelo://app?vid=2cccd49d-3db8-4f44-b36a-28b40895b4d0"},"vehicle_type_id":"4","last_reported":1760206322,"current_range_meters":4000,"station_id":"ce4bgvh2rcd13ifvqcs0","pricing_plan_id":"cebpf4jnsgd1na2vs0mg"},{"bike_id":"97a733a3-1343-4704-9b7e-ec4f28b28e3a","system_id":"levelo_inurba_marseille","lat":43.27977,"lon":5.38726,"is_reserved":false,"is_disabled":false,"rental_uris":{"android":"levelo://app?vid=97a733a3-1343-4704-9b7e-ec4f28b28e3a","ios":"levelo://app?vid=97a733a3-1343-4704-9b7e-ec4f28b28e3a"},"vehicle_type_id":"4","last_reported":1760206322,"current_range_meters":4000,"station_id":"ce4bhg12rcd13ifvqf80","pricing_plan_id":"cebpf4jnsgd1na2vs0mg"},{"bike_id":"28ef8fb2-ca71-4ec6-9973-79df2bd6b9fa","system_id":"levelo_inurba_marseille","lat":43.30304,"lon":5.36895,"is_reserved":false,"is_disabled":false,"rental_uris":{"android":"levelo://app?vid=28ef8fb2-ca71-4ec6-9973-79df2bd6b9fa","ios":"levelo://app?vid=28ef8fb2-ca71-4ec6-9973-79df2bd6b9fa"},"vehicle_type_id":"4","last_reported":1760206322,"current_range_meters":4400,"station_id":"ce4bgqh2rcd13ifvqc5g","pricing_plan_id":"cebpf4jnsgd1na2vs0mg"},{"bike_id":"5bdf0e1a-df75-48d5-86fd-ada8614eb40b","system_id":"levelo_inurba_marseille","lat":43.301376,"lon":5.374327,"is_reserved":false,"is_disabled":false,"rental_uris":{"android":"levelo://app?vid=5bdf0e1a-df75-48d5-86fd-ada8614eb40b","ios":"levelo://app?vid=5bdf0e1a-df75-48d5-86fd-ada8614eb40b"},"vehicle_type_id":"4","last_reported":1760206322,"current_range_meters":4400,"station_id":"ce4bgs92rcd13ifvqcc0","pricing_plan_id":"cebpf4jnsgd1na2vs0mg"},{"bike_id":"6d19cfff-3cff-4920-ab20-5f8b48d4c93d","system_id":"levelo_inurba_marseille","lat":43.310748,"lon":5.383713,"is_reserved":false,"is_disabled":false,"rental_uris":{"android":"levelo://app?vid=6d19cfff-3cff-4920-ab20-5f8b48d4c93d","ios":"levelo://app?vid=6d19cfff-3cff-4920-ab20-5f8b48d4c93d"},"vehicle_type_id":"4","last_reported":1760206322,"current_range_meters":4400,"station_id":"ce4bgv92rcd13ifvqcr0","pricing_plan_id":"cebpf4jnsgd1na2vs0mg"},{"bike_id":"d52fd7c4-fb36-4c2e-bc38-736ed714d3c3","system_id":"levelo_inurba_marseille","lat":43.26956,"lon":5.4027,"is_reserved":false,"is_disabled":false,"rental_uris":{"android":"levelo://app?vid=d52fd7c4-fb36-4c2e-bc38-736ed714d3c3","ios":"levelo://app?vid=d52fd7c4-fb36-4c2e-bc38-736ed714d3c3"},"vehicle_type_id":"4","last_reported":1760206322,"current_range_meters":4400,"station_id":"cjm6bp8fraef2m0cb0m0","pricing_plan_id":"cebpf4jnsgd1na2vs0mg"},{"bike_id":"964ac587-294d-47ad-98e9-c7ae71383ee1","system_id":"levelo_inurba_marseille","lat":43.29531,"lon":5.38545,"is_reserved":false,"is_disabled":false,"rental_uris":{"android":"levelo://app?vid=964ac587-294d-47ad-98e9-c7ae71383ee1","ios":"levelo://app?vid=964ac587-294d-47ad-98e9-c7ae71383ee1"},"vehicle_type_id":"4","last_reported":1760206322,"current_range_meters":4800,"station_id":"ce4bgih2rcd13ifvqba0","pricing_plan_id":"cebpf4jnsgd1na2vs0mg"},{"bike_id":"284d4082-28e9-45e4-8cac-c32eefbaf36c","system_id":"levelo_inurba_marseille","lat":43.29847,"lon":5.36278,"is_reserved":false,"is_disabled":false,"rental_uris":{"android":"levelo://app?vid=284d4082-28e9-45e4-8cac-c32eefbaf36c","ios":"levelo://app?vid=284d4082-28e9-45e4-8cac-c32eefbaf36c"},"vehicle_type_id":"4","last_reported":1760206322,"current_range_meters":4800,"station_id":"ce4bgpp2rcd13ifvqc3g","pricing_plan_id":"cebpf4jnsgd1na2vs0mg"},{"bike_id":"18452c58-1d77-45b4-8375-e28fc99c4902","system_id":"levelo_inurba_marseille","lat":43.29373,"lon":5.37848,"is_reserved":false,"is_disabled":false,"rental_uris":{"android":"levelo://app?vid=18452c58-1d77-45b4-8375-e28fc99c4902","ios":"levelo://app?vid=18452c58-1d77-45b4-8375-e28fc99c4902"},"vehicle_type_id":"4","last_reported":1760206322,"current_range_meters":5600,"station_id":"ce4bgjh2rcd13ifvqbf0","pricing_plan_id":"cebpf4jnsgd1na2vs0mg"},{"bike_id":"ae50cca7-c0ef-46f4-b3b4-6b34e195927e","system_id":"levelo_inurba_marseille","lat":43.29733,"lon":5.36591,"is_reserved":false,"is_disabled":false,"rental_uris":{"android":"levelo://app?vid=ae50cca7-c0ef-46f4-b3b4-6b34e195927e","ios":"levelo://app?vid=ae50cca7-c0ef-46f4-b3b4-6b34e195927e"},"vehicle_type_id":"4","last_reported":1760206322,"current_range_meters":5600,"station_id":"ce4bgn12rcd13ifvqbt0","pricing_plan_id":"cebpf4jnsgd1na2vs0mg"},{"bike_id":"52200a09-8ba7-410d-a90b-e5b3068342be","system_id":"levelo_inurba_marseille","lat":43.2984,"lon":5.36272,"is_reserved":false,"is_disabled":false,"rental_uris":{"android":"levelo://app?vid=52200a09-8ba7-410d-a90b-e5b3068342be","ios":"levelo://app?vid=52200a09-8ba7-410d-a90b-e5b3068342be"},"vehicle_type_id":"4","last_reported":1760206322,"current_range_meters":5600,"station_id":"ce4bgpp2rcd13ifvqc3g","pricing_plan_id":"cebpf4jnsgd1na2vs0mg"},{"bike_id":"e19dc849-4741-4cd9-93ca-a11ed5fe09c4","system_id":"levelo_inurba_marseille","lat":43.29263,"lon":5.38432,"is_reserved":false,"is_disabled":false,"rental_uris":{"android":"levelo://app?vid=e19dc849-4741-4cd9-93ca-a11ed5fe09c4","ios":"levelo://app?vid=e19dc849-4741-4cd9-93ca-a11ed5fe09c4"},"vehicle_type_id":"4","last_reported":1760206322,"current_range_meters":5600,"station_id":"ce4bh692rcd13ifvqea0","pricing_plan_id":"cebpf4jnsgd1na2vs0mg"},{"bike_id":"b2897608-5234-42d0-b56c-1fb958007fbb","system_id":"levelo_inurba_marseille","lat":43.29912,"lon":5.381448,"is_reserved":false,"is_disabled":false,"rental_uris":{"android":"levelo://app?vid=b2897608-5234-42d0-b56c-1fb958007fbb","ios":"levelo://app?vid=b2897608-5234-42d0-b56c-1fb958007fbb"},"vehicle_type_id":"4","last_reported":1760206322,"current_range_meters":6000,"station_id":"ce4bgj12rcd13ifvqbc0","pricing_plan_id":"cebpf4jnsgd1na2vs0mg"},{"bike_id":"6b88c38a-d4a5-4c91-9a0e-abd454f18938","system_id":"levelo_inurba_marseille","lat":43.29985,"lon":5.38511,"is_reserved":false,"is_disabled":false,"rental_uris":{"android":"levelo://app?vid=6b88c38a-d4a5-4c91-9a0e-abd454f18938","ios":"levelo://app?vid=6b88c38a-d4a5-4c91-9a0e-abd454f18938"},"vehicle_type_id":"4","last_reported":1760206322,"current_range_meters":6000,"station_id":"ce4bgj92rcd13ifvqbd0","pricing_plan_id":"cebpf4jnsgd1na2vs0mg"},{"bike_id":"216ac01c-2126-42cb-b48b-fc0943dc6372","system_id":"levelo_inurba_marseille","lat":43.304289,"lon":5.388939,"is_reserved":false,"is_disabled":false,"rental_uris":{"android":"levelo://app?vid=216ac01c-2126-42cb-b48b-fc0943dc6372","ios":"levelo://app?vid=216ac01c-2126-42cb-b48b-fc0943dc6372"},"vehicle_type_id":"4","last_reported":1760206322,"current_range_meters":6000,"station_id":"ce4bgk12rcd13ifvqbi0","pricing_plan_id":"cebpf4jnsgd1na2vs0mg"},{"bike_id":"1311e2d7-eadb-4c31-a5c9-7bcf98d54d1e","system_id":"levelo_inurba_marseille","lat":43.29849,"lon":5.36277,"is_reserved":false,"is_disabled":false,"rental_uris":{"android":"levelo://app?vid=1311e2d7-eadb-4c31-a5c9-7bcf98d54d1e","ios":"levelo://app?vid=1311e2d7-eadb-4c31-a5c9-7bcf98d54d1e"},"vehicle_type_id":"4","last_reported":1760206322,"current_range_meters":6000,"station_id":"ce4bgpp2rcd13ifvqc3g","pricing_plan_id":"cebpf4jnsgd1na2vs0mg"},{"bike_id":"2e56aa2b-bb1a-4620-b94c-03bf7c12f02b","system_id":"levelo_inurba_marseille","lat":43.29837,"lon":5.36274,"is_reserved":false,"is_disabled":false,"rental_uris":{"android":"levelo://app?vid=2e56aa2b-bb1a-4620-b94c-03bf7c12f02b","ios":"levelo://app?vid=2e56aa2b-bb1a-4620-b94c-03bf7c12f02b"},"vehicle_type_id":"4","last_reported":1760206322,"current_range_meters":6000,"station_id":"ce4bgpp2rcd13ifvqc3g","pricing_plan_id":"cebpf4jnsgd1na2vs0mg"},{"bike_id":"4ddd0287-0e7d-4648-b0e6-4d230cd09b50","system_id":"levelo_inurba_marseille","lat":43.25001,"lon":5.38926,"is_reserved":false,"is_disabled":false,"rental_uris":{"android":"levelo://app?vid=4ddd0287-0e7d-4648-b0e6-4d230cd09b50","ios":"levelo://app?vid=4ddd0287-0e7d-4648-b0e6-4d230cd09b50"},"vehicle_type_id":"4","last_reported":1760206322,"current_range_meters":6000,"station_id":"ce4bhgp2rcd13ifvqfd0","pricing_plan_id":"cebpf4jnsgd1na2vs0mg"},{"bike_id":"5ca2b116-29ac-48dc-b213-99db6f65f926","system_id":"levelo_inurba_marseille","lat":43.28706,"lon":5.3999,"is_reserved":false,"is_disabled":false,"rental_uris":{"android":"levelo://app?vid=5ca2b116-29ac-48dc-b213-99db6f65f926","ios":"levelo://app?vid=5ca2b116-29ac-48dc-b213-99db6f65f926"},"vehicle_type_id":"4","last_reported":1760206322,"current_range_meters":6000,"station_id":"ce4bho92rcd13ifvqh3g","pricing_plan_id":"cebpf4jnsgd1na2vs0mg"},{"bike_id":"243b0120-15ee-40a4-a6a2-6c99bd046ccf","system_id":"levelo_inurba_marseille","lat":43.31698,"lon":5.43706,"is_reserved":false,"is_disabled":false,"rental_uris":{"android":"levelo://app?vid=243b0120-15ee-40a4-a6a2-6c99bd046ccf","ios":"levelo://app?vid=243b0120-15ee-40a4-a6a2-6c99bd046ccf"},"vehicle_type_id":"4","last_reported":1760206322,"current_range_meters":6000,"station_id":"ce4bhp92rcd13ifvqhcg","pricing_plan_id":"cebpf4jnsgd1na2vs0mg"},{"bike_id":"7c1a4890-b9ac-4fe5-a571-cd86038dad29","system_id":"levelo_inurba_marseille","lat":43.26736,"lon":5.40179,"is_reserved":false,"is_disabled":false,"rental_uris":{"android":"levelo://app?vid=7c1a4890-b9ac-4fe5-a571-cd86038dad29","ios":"levelo://app?vid=7c1a4890-b9ac-4fe5-a571-cd86038dad29"},"vehicle_type_id":"4","last_reported":1760206322,"current_range_meters":6400,"station_id":"","pricing_plan_id":"cebpf4jnsgd1na2vs0mg"},{"bike_id":"68cae32d-4222-4674-aee0-f6f81c003a3b","system_id":"levelo_inurba_marseille","lat":43.225335,"lon":5.34835,"is_reserved":false,"is_disabled":false,"rental_uris":{"android":"levelo://app?vid=68cae32d-4222-4674-aee0-f6f81c003a3b","ios":"levelo://app?vid=68cae32d-4222-4674-aee0-f6f81c003a3b"},"vehicle_type_id":"4","last_reported":1760206322,"current_range_meters":6400,"station_id":"","pricing_plan_id":"cebpf4jnsgd1na2vs0mg"},{"bike_id":"2bc038b1-519b-42b1-9bd4-7d2b97044996","system_id":"levelo_inurba_marseille","lat":43.29273,"lon":5.41046,"is_reserved":false,"is_disabled":false,"rental_uris":{"android":"levelo://app?vid=2bc038b1-519b-42b1-9bd4-7d2b97044996","ios":"levelo://app?vid=2bc038b1-519b-42b1-9bd4-7d2b97044996"},"vehicle_type_id":"4","last_reported":1760206322,"current_range_meters":6400,"station_id":"","pricing_plan_id":"cebpf4jnsgd1na2vs0mg"},{"bike_id":"8d122f26-32f1-484f-8a17-87cd1fbc2302","system_id":"levelo_inurba_marseille","lat":43.298421,"lon":5.362788,"is_reserved":false,"is_disabled":false,"rental_uris":{"android":"levelo://app?vid=8d122f26-32f1-484f-8a17-87cd1fbc2302","ios":"levelo://app?vid=8d122f26-32f1-484f-8a17-87cd1fbc2302"},"vehicle_type_id":"4","last_reported":1760206322,"current_range_meters":6400,"station_id":"ce4bgpp2rcd13ifvqc3g","pricing_plan_id":"cebpf4jnsgd1na2vs0mg"},{"bike_id":"0d6bb2f9-8c38-400f-a085-ff548f8cc973","system_id":"levelo_inurba_marseille","lat":43.30177,"lon":5.37411,"is_reserved":false,"is_disabled":false,"rental_uris":{"android":"levelo://app?vid=0d6bb2f9-8c38-400f-a085-ff548f8cc973","ios":"levelo://app?vid=0d6bb2f9-8c38-400f-a085-ff548f8cc973"},"vehicle_type_id":"4","last_reported":1760206322,"current_range_meters":6400,"station_id":"ce4bgs92rcd13ifvqcc0","pricing_plan_id":"cebpf4jnsgd1na2vs0mg"},{"bike_id":"e092908f-de41-4def-9dab-a7f23364d1e1","system_id":"levelo_inurba_marseille","lat":43.30908,"lon":5.37164,"is_reserved":false,"is_disabled":false,"rental_uris":{"android":"levelo://app?vid=e092908f-de41-4def-9dab-a7f23364d1e1","ios":"levelo://app?vid=e092908f-de41-4def-9dab-a7f23364d1e1"},"vehicle_type_id":"4","last_reported":1760206322,"current_range_meters":6400,"station_id":"ce4bguh2rcd13ifvqckg","pricing_plan_id":"cebpf4jnsgd1na2vs0mg"},{"bike_id":"a341c654-d4e9-45ca-b3f9-2a7ddf223643","system_id":"levelo_inurba_marseille","lat":43.28414,"lon":5.37539,"is_reserved":false,"is_disabled":false,"rental_uris":{"android":"levelo://app?vid=a341c654-d4e9-45ca-b3f9-2a7ddf223643","ios":"levelo://app?vid=a341c654-d4e9-45ca-b3f9-2a7ddf223643"},"vehicle_type_id":"4","last_reported":1760206322,"current_range_meters":6400,"station_id":"ce4bh412rcd13ifvqds0","pricing_plan_id":"cebpf4jnsgd1na2vs0mg"},{"bike_id":"8c09da98-529d-47c3-93b3-5a15f0546f03","system_id":"levelo_inurba_marseille","lat":43.28927,"lon":5.38388,"is_reserved":false,"is_disabled":false,"rental_uris":{"android":"levelo://app?vid=8c09da98-529d-47c3-93b3-5a15f0546f03","ios":"levelo://app?vid=8c09da98-529d-47c3-93b3-5a15f0546f03"},"vehicle_type_id":"4","last_reported":1760206322,"current_range_meters":6400,"station_id":"ce4bh612rcd13ifvqe6g","pricing_plan_id":"cebpf4jnsgd1na2vs0mg"},{"bike_id":"c05aeb01-37bc-423b-9e35-742f295be8ba","system_id":"levelo_inurba_marseille","lat":43.290314,"lon":5.375644,"is_reserved":false,"is_disabled":false,"rental_uris":{"android":"levelo://app?vid=c05aeb01-37bc-423b-9e35-742f295be8ba","ios":"levelo://app?vid=c05aeb01-37bc-423b-9e35-742f295be8ba"},"vehicle_type_id":"4","last_reported":1760206322,"current_range_meters":6400,"station_id":"ce4bh692rcd13ifvqe90","pricing_plan_id":"cebpf4jnsgd1na2vs0mg"},{"bike_id":"867c5884-d134-4079-bfd2-1c89a3995008","system_id":"levelo_inurba_marseille","lat":43.29168,"lon":5.3716,"is_reserved":false,"is_disabled":false,"rental_uris":{"android":"levelo://app?vid=867c5884-d134-4079-bfd2-1c89a3995008","ios":"levelo://app?vid=867c5884-d134-4079-bfd2-1c89a3995008"},"vehicle_type_id":"4","last_reported":1760206322,"current_range_meters":6400,"station_id":"ce4bha92rcd13ifvqeh0","pricing_plan_id":"cebpf4jnsgd1na2vs0mg"},{"bike_id":"e9e42d2d-7e53-4efc-b575-031b106766c7","system_id":"levelo_inurba_marseille","lat":43.297386,"lon":5.36875,"is_reserved":false,"is_disabled":false,"rental_uris":{"android":"levelo://app?vid=e9e42d2d-7e53-4efc-b575-031b106766c7","ios":"levelo://app?vid=e9e42d2d-7e53-4efc-b575-031b106766c7"},"vehicle_type_id":"4","last_reported":1760206322,"current_range_meters":6800,"station_id":"","pricing_plan_id":"cebpf4jnsgd1na2vs0mg"},{"bike_id":"fb8e4564-d9ff-4512-bbd1-a33fc8f1ce48","system_id":"levelo_inurba_marseille","lat":43.28362,"lon":5.38103,"is_reserved":false,"is_disabled":false,"rental_uris":{"android":"levelo://app?vid=fb8e4564-d9ff-4512-bbd1-a33fc8f1ce48","ios":"levelo://app?vid=fb8e4564-d9ff-4512-bbd1-a33fc8f1ce48"},"vehicle_type_id":"4","last_reported":1760206322,"current_range_meters":6800,"station_id":"ce4bh412rcd13ifvqdr0","pricing_plan_id":"cebpf4jnsgd1na2vs0mg"},{"bike_id":"6f7f6e90-ba94-4f8f-b19e-a6dbe16a9d1b","system_id":"levelo_inurba_marseille","lat":43.290815,"lon":5.371617,"is_reserved":false,"is_disabled":false,"rental_uris":{"android":"levelo://app?vid=6f7f6e90-ba94-4f8f-b19e-a6dbe16a9d1b","ios":"levelo://app?vid=6f7f6e90-ba94-4f8f-b19e-a6dbe16a9d1b"},"vehicle_type_id":"4","last_reported":1760206322,"current_range_meters":6800,"station_id":"ce4bh5p2rcd13ifvqe4g","pricing_plan_id":"cebpf4jnsgd1na2vs0mg"},{"bike_id":"4d7235c1-8077-4991-94e3-bb107e76b315","system_id":"levelo_inurba_marseille","lat":43.28734,"lon":5.37941,"is_reserved":false,"is_disabled":false,"rental_uris":{"android":"levelo://app?vid=4d7235c1-8077-4991-94e3-bb107e76b315","ios":"levelo://app?vid=4d7235c1-8077-4991-94e3-bb107e76b315"},"vehicle_type_id":"4","last_reported":1760206322,"current_range_meters":6800,"station_id":"ce4bh9p2rcd13ifvqec0","pricing_plan_id":"cebpf4jnsgd1na2vs0mg"},{"bike_id":"db17c7bc-fdf4-4836-ac04-e51240dcaaf1","system_id":"levelo_inurba_marseille","lat":43.28073,"lon":5.39669,"is_reserved":false,"is_disabled":false,"rental_uris":{"android":"levelo://app?vid=db17c7bc-fdf4-4836-ac04-e51240dcaaf1","ios":"levelo://app?vid=db17c7bc-fdf4-4836-ac04-e51240dcaaf1"},"vehicle_type_id":"4","last_reported":1760206322,"current_range_meters":6800,"station_id":"ce4bho12rcd13ifvqh2g","pricing_plan_id":"cebpf4jnsgd1na2vs0mg"},{"bike_id":"4ea60d7d-d300-4ecf-ab9a-31a1a8fa035f","system_id":"levelo_inurba_marseille","lat":43.3361,"lon":5.41009,"is_reserved":false,"is_disabled":false,"rental_uris":{"android":"levelo://app?vid=4ea60d7d-d300-4ecf-ab9a-31a1a8fa035f","ios":"levelo://app?vid=4ea60d7d-d300-4ecf-ab9a-31a1a8fa035f"},"vehicle_type_id":"4","last_reported":1760206322,"current_range_meters":6800,"station_id":"ce4bhqh2rcd13ifvqhmg","pricing_plan_id":"cebpf4jnsgd1na2vs0mg"},{"bike_id":"b7844ae4-20d5-4d81-8f4d-cd146b6f58ee","system_id":"levelo_inurba_marseille","lat":43.31808,"lon":5.37641,"is_reserved":false,"is_disabled":false,"rental_uris":{"android":"levelo://app?vid=b7844ae4-20d5-4d81-8f4d-cd146b6f58ee","ios":"levelo://app?vid=b7844ae4-20d5-4d81-8f4d-cd146b6f58ee"},"vehicle_type_id":"4","last_reported":1760206322,"current_range_meters":7200,"station_id":"","pricing_plan_id":"cebpf4jnsgd1na2vs0mg"},{"bike_id":"9ee1c9e2-f7be-46d4-b11a-aae7e282e99e","system_id":"levelo_inurba_marseille","lat":43.30149,"lon":5.38777,"is_reserved":false,"is_disabled":false,"rental_uris":{"android":"levelo://app?vid=9ee1c9e2-f7be-46d4-b11a-aae7e282e99e","ios":"levelo://app?vid=9ee1c9e2-f7be-46d4-b11a-aae7e282e99e"},"vehicle_type_id":"4","last_reported":1760206322,"current_range_meters":7200,"station_id":"ce4bghh2rcd13ifvqb60","pricing_plan_id":"cebpf4jnsgd1na2vs0mg"},{"bike_id":"557dbf70-01d6-45de-87d5-5c619db8ec2b","system_id":"levelo_inurba_marseille","lat":43.29847,"lon":5.36287,"is_reserved":false,"is_disabled":false,"rental_uris":{"android":"levelo://app?vid=557dbf70-01d6-45de-87d5-5c619db8ec2b","ios":"levelo://app?vid=557dbf70-01d6-45de-87d5-5c619db8ec2b"},"vehicle_type_id":"4","last_reported":1760206322,"current_range_meters":7200,"station_id":"ce4bgpp2rcd13ifvqc3g","pricing_plan_id":"cebpf4jnsgd1na2vs0mg"},{"bike_id":"b8fb6d0a-8f1a-4f06-9594-26fb1da10049","system_id":"levelo_inurba_marseille","lat":43.3145,"lon":5.37276,"is_reserved":false,"is_disabled":false,"rental_uris":{"android":"levelo://app?vid=b8fb6d0a-8f1a-4f06-9594-26fb1da10049","ios":"levelo://app?vid=b8fb6d0a-8f1a-4f06-9594-26fb1da10049"},"vehicle_type_id":"4","last_reported":1760206322,"current_range_meters":7200,"station_id":"ce4bgt12rcd13ifvqcd0","pricing_plan_id":"cebpf4jnsgd1na2vs0mg"},{"bike_id":"55385cca-5aba-43a5-ae6e-81a30b1cebf5","system_id":"levelo_inurba_marseille","lat":43.2804,"lon":5.36954,"is_reserved":false,"is_disabled":false,"rental_uris":{"android":"levelo://app?vid=55385cca-5aba-43a5-ae6e-81a30b1cebf5","ios":"levelo://app?vid=55385cca-5aba-43a5-ae6e-81a30b1cebf5"},"vehicle_type_id":"4","last_reported":1760206322,"current_range_meters":7200,"station_id":"ce4bha12rcd13ifvqef0","pricing_plan_id":"cebpf4jnsgd1na2vs0mg"},{"bike_id":"b892f440-5af5-47ff-824e-ee2faa371920","system_id":"levelo_inurba_marseille","lat":43.31721,"lon":5.39016,"is_reserved":false,"is_disabled":false,"rental_uris":{"android":"levelo://app?vid=b892f440-5af5-47ff-824e-ee2faa371920","ios":"levelo://app?vid=b892f440-5af5-47ff-824e-ee2faa371920"},"vehicle_type_id":"4","last_reported":1760206322,"current_range_meters":7200,"station_id":"ce4bhqp2rcd13ifvqhng","pricing_plan_id":"cebpf4jnsgd1na2vs0mg"},{"bike_id":"7ecce9b3-6d8a-4b46-9e3e-06d9c28c905f","system_id":"levelo_inurba_marseille","lat":43.28905,"lon":5.39068,"is_reserved":false,"is_disabled":false,"rental_uris":{"android":"levelo://app?vid=7ecce9b3-6d8a-4b46-9e3e-06d9c28c905f","ios":"levelo://app?vid=7ecce9b3-6d8a-4b46-9e3e-06d9c28c905f"},"vehicle_type_id":"4","last_reported":1760206322,"current_range_meters":8000,"station_id":"","pricing_plan_id":"cebpf4jnsgd1na2vs0mg"},{"bike_id":"840f5367-4a8b-4bf8-aed3-ddf295d75be0","system_id":"levelo_inurba_marseille","lat":43.30428,"lon":5.371896,"is_reserved":false,"is_disabled":false,"rental_uris":{"android":"levelo://app?vid=840f5367-4a8b-4bf8-aed3-ddf295d75be0","ios":"levelo://app?vid=840f5367-4a8b-4bf8-aed3-ddf295d75be0"},"vehicle_type_id":"4","last_reported":1760206322,"current_range_meters":8000,"station_id":"","pricing_plan_id":"cebpf4jnsgd1na2vs0mg"},{"bike_id":"c362a7bc-3922-4ba8-835e-00c0d6998371","system_id":"levelo_inurba_marseille","lat":43.305769,"lon":5.374448,"is_reserved":false,"is_disabled":false,"rental_uris":{"android":"levelo://app?vid=c362a7bc-3922-4ba8-835e-00c0d6998371","ios":"levelo://app?vid=c362a7bc-3922-4ba8-835e-00c0d6998371"},"vehicle_type_id":"4","last_reported":1760206322,"current_range_meters":8000,"station_id":"ce4bgqh2rcd13ifvqc4g","pricing_plan_id":"cebpf4jnsgd1na2vs0mg"},{"bike_id":"0a88caf2-861a-4ed5-af50-8613889ae618","system_id":"levelo_inurba_marseille","lat":43.31271,"lon":5.40185,"is_reserved":false,"is_disabled":false,"rental_uris":{"android":"levelo://app?vid=0a88caf2-861a-4ed5-af50-8613889ae618","ios":"levelo://app?vid=0a88caf2-861a-4ed5-af50-8613889ae618"},"vehicle_type_id":"4","last_reported":1760206322,"current_range_meters":8000,"station_id":"ce4bh092rcd13ifvqd30","pricing_plan_id":"cebpf4jnsgd1na2vs0mg"},{"bike_id":"e34782ec-f03c-4817-a770-d86510187509","system_id":"levelo_inurba_marseille","lat":43.28945,"lon":5.38405,"is_reserved":false,"is_disabled":false,"rental_uris":{"android":"levelo://app?vid=e34782ec-f03c-4817-a770-d86510187509","ios":"levelo://app?vid=e34782ec-f03c-4817-a770-d86510187509"},"vehicle_type_id":"4","last_reported":1760206322,"current_range_meters":8000,"station_id":"ce4bh612rcd13ifvqe6g","pricing_plan_id":"cebpf4jnsgd1na2vs0mg"},{"bike_id":"ad032c65-18b8-4fac-aed9-f50f692b0399","system_id":"levelo_inurba_marseille","lat":43.27812,"lon":5.40705,"is_reserved":false,"is_disabled":false,"rental_uris":{"android":"levelo://app?vid=ad032c65-18b8-4fac-aed9-f50f692b0399","ios":"levelo://app?vid=ad032c65-18b8-4fac-aed9-f50f692b0399"},"vehicle_type_id":"4","last_reported":1760206322,"current_range_meters":8000,"station_id":"ce4bhnh2rcd13ifvqgtg","pricing_plan_id":"cebpf4jnsgd1na2vs0mg"},{"bike_id":"2f86432c-948d-4fee-b22a-8c8def694a8c","system_id":"levelo_inurba_marseille","lat":43.2808,"lon":5.39663,"is_reserved":false,"is_disabled":false,"rental_uris":{"android":"levelo://app?vid=2f86432c-948d-4fee-b22a-8c8def694a8c","ios":"levelo://app?vid=2f86432c-948d-4fee-b22a-8c8def694a8c"},"vehicle_type_id":"4","last_reported":1760206322,"current_range_meters":8000,"station_id":"ce4bho12rcd13ifvqh2g","pricing_plan_id":"cebpf4jnsgd1na2vs0mg"},{"bike_id":"0458f03b-1910-440f-9167-c00670fba699","system_id":"levelo_inurba_marseille","lat":43.337444,"lon":5.374475,"is_reserved":false,"is_disabled":false,"rental_uris":{"android":"levelo://app?vid=0458f03b-1910-440f-9167-c00670fba699","ios":"levelo://app?vid=0458f03b-1910-440f-9167-c00670fba699"},"vehicle_type_id":"4","last_reported":1760206322,"current_range_meters":8400,"station_id":"","pricing_plan_id":"cebpf4jnsgd1na2vs0mg"},{"bike_id":"369d2504-65a5-4ebe-8b7b-5437adc610de","system_id":"levelo_inurba_marseille","lat":43.28242,"lon":5.39165,"is_reserved":false,"is_disabled":false,"rental_uris":{"android":"levelo://app?vid=369d2504-65a5-4ebe-8b7b-5437adc610de","ios":"levelo://app?vid=369d2504-65a5-4ebe-8b7b-5437adc610de"},"vehicle_type_id":"4","last_reported":1760206322,"current_range_meters":8400,"station_id":"","pricing_plan_id":"cebpf4jnsgd1na2vs0mg"},{"bike_id":"3d3d9f24-69ed-412a-824a-3bb9551f7bc2","system_id":"levelo_inurba_marseille","lat":43.32128,"lon":5.37133,"is_reserved":false,"is_disabled":false,"rental_uris":{"android":"levelo://app?vid=3d3d9f24-69ed-412a-824a-3bb9551f7bc2","ios":"levelo://app?vid=3d3d9f24-69ed-412a-824a-3bb9551f7bc2"},"vehicle_type_id":"4","last_reported":1760206322,"current_range_meters":8400,"station_id":"","pricing_plan_id":"cebpf4jnsgd1na2vs0mg"},{"bike_id":"68ff5db6-f767-469f-befa-c7909b6b5f0c","system_id":"levelo_inurba_marseille","lat":43.21234,"lon":5.41724,"is_reserved":false,"is_disabled":false,"rental_uris":{"android":"levelo://app?vid=68ff5db6-f767-469f-befa-c7909b6b5f0c","ios":"levelo://app?vid=68ff5db6-f767-469f-befa-c7909b6b5f0c"},"vehicle_type_id":"4","last_reported":1760206322,"current_range_meters":8400,"station_id":"","pricing_plan_id":"cebpf4jnsgd1na2vs0mg"},{"bike_id":"388213b2-c7ae-4037-8ea5-c7aeaf838977","system_id":"levelo_inurba_marseille","lat":43.29533,"lon":5.38547,"is_reserved":false,"is_disabled":false,"rental_uris":{"android":"levelo://app?vid=388213b2-c7ae-4037-8ea5-c7aeaf838977","ios":"levelo://app?vid=388213b2-c7ae-4037-8ea5-c7aeaf838977"},"vehicle_type_id":"4","last_reported":1760206322,"current_range_meters":8400,"station_id":"ce4bgih2rcd13ifvqba0","pricing_plan_id":"cebpf4jnsgd1na2vs0mg"},{"bike_id":"159bdfbc-4ac7-473c-90d4-767dbd980ba7","system_id":"levelo_inurba_marseille","lat":43.29844,"lon":5.36281,"is_reserved":false,"is_disabled":false,"rental_uris":{"android":"levelo://app?vid=159bdfbc-4ac7-473c-90d4-767dbd980ba7","ios":"levelo://app?vid=159bdfbc-4ac7-473c-90d4-767dbd980ba7"},"vehicle_type_id":"4","last_reported":1760206322,"current_range_meters":8400,"station_id":"ce4bgpp2rcd13ifvqc3g","pricing_plan_id":"cebpf4jnsgd1na2vs0mg"},{"bike_id":"fbcf8f69-f283-49f0-a254-bc89eccc4d6f","system_id":"levelo_inurba_marseille","lat":43.31485,"lon":5.37311,"is_reserved":false,"is_disabled":false,"rental_uris":{"android":"levelo://app?vid=fbcf8f69-f283-49f0-a254-bc89eccc4d6f","ios":"levelo://app?vid=fbcf8f69-f283-49f0-a254-bc89eccc4d6f"},"vehicle_type_id":"4","last_reported":1760206322,"current_range_meters":8400,"station_id":"ce4bgt12rcd13ifvqcd0","pricing_plan_id":"cebpf4jnsgd1na2vs0mg"},{"bike_id":"59f295f0-cfc7-440f-b19d-cd0fda6636f5","system_id":"levelo_inurba_marseille","lat":43.29428,"lon":5.39754,"is_reserved":false,"is_disabled":false,"rental_uris":{"android":"levelo://app?vid=59f295f0-cfc7-440f-b19d-cd0fda6636f5","ios":"levelo://app?vid=59f295f0-cfc7-440f-b19d-cd0fda6636f5"},"vehicle_type_id":"4","last_reported":1760206322,"current_range_meters":8400,"station_id":"ce4bh3h2rcd13ifvqdo0","pricing_plan_id":"cebpf4jnsgd1na2vs0mg"},{"bike_id":"11a1a729-b08b-4cd8-99a0-fbe4e9a30cb1","system_id":"levelo_inurba_marseille","lat":43.29167,"lon":5.37152,"is_reserved":false,"is_disabled":false,"rental_uris":{"android":"levelo://app?vid=11a1a729-b08b-4cd8-99a0-fbe4e9a30cb1","ios":"levelo://app?vid=11a1a729-b08b-4cd8-99a0-fbe4e9a30cb1"},"vehicle_type_id":"4","last_reported":1760206322,"current_range_meters":8400,"station_id":"ce4bha92rcd13ifvqeh0","pricing_plan_id":"cebpf4jnsgd1na2vs0mg"},{"bike_id":"7f102029-f853-4d42-90dd-51bfa747a155","system_id":"levelo_inurba_marseille","lat":43.33027,"lon":5.39049,"is_reserved":false,"is_disabled":false,"rental_uris":{"android":"levelo://app?vid=7f102029-f853-4d42-90dd-51bfa747a155","ios":"levelo://app?vid=7f102029-f853-4d42-90dd-51bfa747a155"},"vehicle_type_id":"4","last_reported":1760206322,"current_range_meters":8400,"station_id":"ce4bhr92rcd13ifvqhrg","pricing_plan_id":"cebpf4jnsgd1na2vs0mg"},{"bike_id":"149b79ae-9225-4ac1-b6b2-d285f928d1bd","system_id":"levelo_inurba_marseille","lat":43.30905,"lon":5.36859,"is_reserved":false,"is_disabled":false,"rental_uris":{"android":"levelo://app?vid=149b79ae-9225-4ac1-b6b2-d285f928d1bd","ios":"levelo://app?vid=149b79ae-9225-4ac1-b6b2-d285f928d1bd"},"vehicle_type_id":"4","last_reported":1760206322,"current_range_meters":8800,"station_id":"ce4bgn92rcd13ifvqbvg","pricing_plan_id":"cebpf4jnsgd1na2vs0mg"},{"bike_id":"ec0a1779-c9dd-4a30-b4b9-b3bff3132750","system_id":"levelo_inurba_marseille","lat":43.30142,"lon":5.374167,"is_reserved":false,"is_disabled":false,"rental_uris":{"android":"levelo://app?vid=ec0a1779-c9dd-4a30-b4b9-b3bff3132750","ios":"levelo://app?vid=ec0a1779-c9dd-4a30-b4b9-b3bff3132750"},"vehicle_type_id":"4","last_reported":1760206322,"current_range_meters":8800,"station_id":"ce4bgs92rcd13ifvqcc0","pricing_plan_id":"cebpf4jnsgd1na2vs0mg"},{"bike_id":"25871ec6-92b0-43a4-aff5-df01f3c5ddf9","system_id":"levelo_inurba_marseille","lat":43.30809,"lon":5.38153,"is_reserved":false,"is_disabled":false,"rental_uris":{"android":"levelo://app?vid=25871ec6-92b0-43a4-aff5-df01f3c5ddf9","ios":"levelo://app?vid=25871ec6-92b0-43a4-aff5-df01f3c5ddf9"},"vehicle_type_id":"4","last_reported":1760206322,"current_range_meters":8800,"station_id":"ce4bgt12rcd13ifvqce0","pricing_plan_id":"cebpf4jnsgd1na2vs0mg"},{"bike_id":"4b167d2c-0ad1-47d0-996d-278046d31bf5","system_id":"levelo_inurba_marseille","lat":43.320815,"lon":5.383131,"is_reserved":false,"is_disabled":false,"rental_uris":{"android":"levelo://app?vid=4b167d2c-0ad1-47d0-996d-278046d31bf5","ios":"levelo://app?vid=4b167d2c-0ad1-47d0-996d-278046d31bf5"},"vehicle_type_id":"4","last_reported":1760206322,"current_range_meters":8800,"station_id":"ce4bhr12rcd13ifvqhqg","pricing_plan_id":"cebpf4jnsgd1na2vs0mg"},{"bike_id":"b5039fe5-0bd8-49a5-826a-7593be169ea8","system_id":"levelo_inurba_marseille","lat":43.30117,"lon":5.43116,"is_reserved":false,"is_disabled":false,"rental_uris":{"android":"levelo://app?vid=b5039fe5-0bd8-49a5-826a-7593be169ea8","ios":"levelo://app?vid=b5039fe5-0bd8-49a5-826a-7593be169ea8"},"vehicle_type_id":"4","last_reported":1760206322,"current_range_meters":8800,"station_id":"st_d3js3co5814s73ftftug","pricing_plan_id":"cebpf4jnsgd1na2vs0mg"},{"bike_id":"f84db39b-1588-467c-a7d6-3417c55d68b1","system_id":"levelo_inurba_marseille","lat":43.29391,"lon":5.37522,"is_reserved":false,"is_disabled":false,"rental_uris":{"android":"levelo://app?vid=f84db39b-1588-467c-a7d6-3417c55d68b1","ios":"levelo://app?vid=f84db39b-1588-467c-a7d6-3417c55d68b1"},"vehicle_type_id":"4","last_reported":1760206322,"current_range_meters":9200,"station_id":"","pricing_plan_id":"cebpf4jnsgd1na2vs0mg"},{"bike_id":"e79ae81d-5852-4fea-8a77-e96d279779ce","system_id":"levelo_inurba_marseille","lat":43.26348,"lon":5.42262,"is_reserved":false,"is_disabled":false,"rental_uris":{"android":"levelo://app?vid=e79ae81d-5852-4fea-8a77-e96d279779ce","ios":"levelo://app?vid=e79ae81d-5852-4fea-8a77-e96d279779ce"},"vehicle_type_id":"4","last_reported":1760206322,"current_range_meters":9200,"station_id":"","pricing_plan_id":"cebpf4jnsgd1na2vs0mg"},{"bike_id":"050d8a56-1599-4f7c-b871-6367b79e1a84","system_id":"levelo_inurba_marseille","lat":43.298479,"lon":5.362843,"is_reserved":false,"is_disabled":false,"rental_uris":{"android":"levelo://app?vid=050d8a56-1599-4f7c-b871-6367b79e1a84","ios":"levelo://app?vid=050d8a56-1599-4f7c-b871-6367b79e1a84"},"vehicle_type_id":"4","last_reported":1760206322,"current_range_meters":9200,"station_id":"ce4bgpp2rcd13ifvqc3g","pricing_plan_id":"cebpf4jnsgd1na2vs0mg"},{"bike_id":"4a9b030b-2499-4237-98bd-fe7a84113667","system_id":"levelo_inurba_marseille","lat":43.31714,"lon":5.37745,"is_reserved":false,"is_disabled":false,"rental_uris":{"android":"levelo://app?vid=4a9b030b-2499-4237-98bd-fe7a84113667","ios":"levelo://app?vid=4a9b030b-2499-4237-98bd-fe7a84113667"},"vehicle_type_id":"4","last_reported":1760206322,"current_range_meters":9200,"station_id":"ce4bgth2rcd13ifvqch0","pricing_plan_id":"cebpf4jnsgd1na2vs0mg"},{"bike_id":"9f9edaa2-34b7-4837-8925-898705819e49","system_id":"levelo_inurba_marseille","lat":43.32352,"lon":5.36748,"is_reserved":false,"is_disabled":false,"rental_uris":{"android":"levelo://app?vid=9f9edaa2-34b7-4837-8925-898705819e49","ios":"levelo://app?vid=9f9edaa2-34b7-4837-8925-898705819e49"},"vehicle_type_id":"4","last_reported":1760206322,"current_range_meters":9200,"station_id":"ce4bhsh2rcd13ifvqi2g","pricing_plan_id":"cebpf4jnsgd1na2vs0mg"},{"bike_id":"a091fa2a-de07-4635-870e-3375376348fb","system_id":"levelo_inurba_marseille","lat":43.30033,"lon":5.38644,"is_reserved":false,"is_disabled":false,"rental_uris":{"android":"levelo://app?vid=a091fa2a-de07-4635-870e-3375376348fb","ios":"levelo://app?vid=a091fa2a-de07-4635-870e-3375376348fb"},"vehicle_type_id":"4","last_reported":1760206322,"current_range_meters":9600,"station_id":"","pricing_plan_id":"cebpf4jnsgd1na2vs0mg"},{"bike_id":"431c2e70-433d-4af0-acf4-957ec8670f40","system_id":"levelo_inurba_marseille","lat":43.2954,"lon":5.383068,"is_reserved":false,"is_disabled":false,"rental_uris":{"android":"levelo://app?vid=431c2e70-433d-4af0-acf4-957ec8670f40","ios":"levelo://app?vid=431c2e70-433d-4af0-acf4-957ec8670f40"},"vehicle_type_id":"4","last_reported":1760206322,"current_range_meters":9600,"station_id":"","pricing_plan_id":"cebpf4jnsgd1na2vs0mg"},{"bike_id":"afe3c847-6e63-49ea-a13f-1e7291fc9356","system_id":"levelo_inurba_marseille","lat":43.295293,"lon":5.385337,"is_reserved":false,"is_disabled":false,"rental_uris":{"android":"levelo://app?vid=afe3c847-6e63-49ea-a13f-1e7291fc9356","ios":"levelo://app?vid=afe3c847-6e63-49ea-a13f-1e7291fc9356"},"vehicle_type_id":"4","last_reported":1760206322,"current_range_meters":9600,"station_id":"ce4bgih2rcd13ifvqba0","pricing_plan_id":"cebpf4jnsgd1na2vs0mg"},{"bike_id":"317db7f0-3b53-4004-b12e-fe127435d2c2","system_id":"levelo_inurba_marseille","lat":43.2997,"lon":5.38447,"is_reserved":false,"is_disabled":false,"rental_uris":{"android":"levelo://app?vid=317db7f0-3b53-4004-b12e-fe127435d2c2","ios":"levelo://app?vid=317db7f0-3b53-4004-b12e-fe127435d2c2"},"vehicle_type_id":"4","last_reported":1760206322,"current_range_meters":9600,"station_id":"ce4bgj92rcd13ifvqbd0","pricing_plan_id":"cebpf4jnsgd1na2vs0mg"},{"bike_id":"a9f17f32-5459-4ca6-840d-3a3ad0f06a79","system_id":"levelo_inurba_marseille","lat":43.30326,"lon":5.40434,"is_reserved":false,"is_disabled":false,"rental_uris":{"android":"levelo://app?vid=a9f17f32-5459-4ca6-840d-3a3ad0f06a79","ios":"levelo://app?vid=a9f17f32-5459-4ca6-840d-3a3ad0f06a79"},"vehicle_type_id":"4","last_reported":1760206322,"current_range_meters":9600,"station_id":"ce4bh012rcd13ifvqd10","pricing_plan_id":"cebpf4jnsgd1na2vs0mg"},{"bike_id":"5fc5043c-9c93-4be4-be3a-fbb9c733e19b","system_id":"levelo_inurba_marseille","lat":43.30096,"lon":5.39087,"is_reserved":false,"is_disabled":false,"rental_uris":{"android":"levelo://app?vid=5fc5043c-9c93-4be4-be3a-fbb9c733e19b","ios":"levelo://app?vid=5fc5043c-9c93-4be4-be3a-fbb9c733e19b"},"vehicle_type_id":"4","last_reported":1760206322,"current_range_meters":9600,"station_id":"ce4bh192rcd13ifvqdb0","pricing_plan_id":"cebpf4jnsgd1na2vs0mg"},{"bike_id":"942d4ba3-ebb9-42ff-9a1d-cccbb6dc9d5d","system_id":"levelo_inurba_marseille","lat":43.28357,"lon":5.38638,"is_reserved":false,"is_disabled":false,"rental_uris":{"android":"levelo://app?vid=942d4ba3-ebb9-42ff-9a1d-cccbb6dc9d5d","ios":"levelo://app?vid=942d4ba3-ebb9-42ff-9a1d-cccbb6dc9d5d"},"vehicle_type_id":"4","last_reported":1760206322,"current_range_meters":9600,"station_id":"ce4bh492rcd13ifvqdvg","pricing_plan_id":"cebpf4jnsgd1na2vs0mg"},{"bike_id":"3cfc4f3e-af2c-4bf9-bfb6-51ee5680d862","system_id":"levelo_inurba_marseille","lat":43.257213,"lon":5.410957,"is_reserved":false,"is_disabled":false,"rental_uris":{"android":"levelo://app?vid=3cfc4f3e-af2c-4bf9-bfb6-51ee5680d862","ios":"levelo://app?vid=3cfc4f3e-af2c-4bf9-bfb6-51ee5680d862"},"vehicle_type_id":"4","last_reported":1760206322,"current_range_meters":9600,"station_id":"ce4bhkp2rcd13ifvqgd0","pricing_plan_id":"cebpf4jnsgd1na2vs0mg"},{"bike_id":"10dcd84d-95f8-42be-8a70-9944d9262c4d","system_id":"levelo_inurba_marseille","lat":43.25396,"lon":5.4189,"is_reserved":false,"is_disabled":false,"rental_uris":{"android":"levelo://app?vid=10dcd84d-95f8-42be-8a70-9944d9262c4d","ios":"levelo://app?vid=10dcd84d-95f8-42be-8a70-9944d9262c4d"},"vehicle_type_id":"4","last_reported":1760206322,"current_range_meters":10000,"station_id":"","pricing_plan_id":"cebpf4jnsgd1na2vs0mg"},{"bike_id":"47cba53e-33d0-4923-88da-30683b3480eb","system_id":"levelo_inurba_marseille","lat":43.29306,"lon":5.37452,"is_reserved":false,"is_disabled":false,"rental_uris":{"android":"levelo://app?vid=47cba53e-33d0-4923-88da-30683b3480eb","ios":"levelo://app?vid=47cba53e-33d0-4923-88da-30683b3480eb"},"vehicle_type_id":"4","last_reported":1760206322,"current_range_meters":10000,"station_id":"ce4bgi12rcd13ifvqb70","pricing_plan_id":"cebpf4jnsgd1na2vs0mg"},{"bike_id":"bcb75a38-0bb1-4f7c-b02e-f5efa7b88063","system_id":"levelo_inurba_marseille","lat":43.29846,"lon":5.36266,"is_reserved":false,"is_disabled":false,"rental_uris":{"android":"levelo://app?vid=bcb75a38-0bb1-4f7c-b02e-f5efa7b88063","ios":"levelo://app?vid=bcb75a38-0bb1-4f7c-b02e-f5efa7b88063"},"vehicle_type_id":"4","last_reported":1760206322,"current_range_meters":10000,"station_id":"ce4bgpp2rcd13ifvqc3g","pricing_plan_id":"cebpf4jnsgd1na2vs0mg"},{"bike_id":"908d5fba-b8ad-4a0b-968d-5542a91e3807","system_id":"levelo_inurba_marseille","lat":43.29262,"lon":5.38452,"is_reserved":false,"is_disabled":false,"rental_uris":{"android":"levelo://app?vid=908d5fba-b8ad-4a0b-968d-5542a91e3807","ios":"levelo://app?vid=908d5fba-b8ad-4a0b-968d-5542a91e3807"},"vehicle_type_id":"4","last_reported":1760206322,"current_range_meters":10000,"station_id":"ce4bh692rcd13ifvqea0","pricing_plan_id":"cebpf4jnsgd1na2vs0mg"},{"bike_id":"8f5f7955-093d-4ea4-8937-a2e4c96e9720","system_id":"levelo_inurba_marseille","lat":43.29264,"lon":5.38436,"is_reserved":false,"is_disabled":false,"rental_uris":{"android":"levelo://app?vid=8f5f7955-093d-4ea4-8937-a2e4c96e9720","ios":"levelo://app?vid=8f5f7955-093d-4ea4-8937-a2e4c96e9720"},"vehicle_type_id":"4","last_reported":1760206322,"current_range_meters":10000,"station_id":"ce4bh692rcd13ifvqea0","pricing_plan_id":"cebpf4jnsgd1na2vs0mg"},{"bike_id":"8d5c5a21-ecc0-49fb-b665-685c87608210","system_id":"levelo_inurba_marseille","lat":43.26498,"lon":5.39545,"is_reserved":false,"is_disabled":false,"rental_uris":{"android":"levelo://app?vid=8d5c5a21-ecc0-49fb-b665-685c87608210","ios":"levelo://app?vid=8d5c5a21-ecc0-49fb-b665-685c87608210"},"vehicle_type_id":"4","last_reported":1760206322,"current_range_meters":10000,"station_id":"ce4bhi12rcd13ifvqfq0","pricing_plan_id":"cebpf4jnsgd1na2vs0mg"},{"bike_id":"9506b586-0692-4d77-a53e-03ece9e66fbb","system_id":"levelo_inurba_marseille","lat":43.26229,"lon":5.40455,"is_reserved":false,"is_disabled":false,"rental_uris":{"android":"levelo://app?vid=9506b586-0692-4d77-a53e-03ece9e66fbb","ios":"levelo://app?vid=9506b586-0692-4d77-a53e-03ece9e66fbb"},"vehicle_type_id":"4","last_reported":1760206322,"current_range_meters":10000,"station_id":"ce4bhmh2rcd13ifvqgmg","pricing_plan_id":"cebpf4jnsgd1na2vs0mg"},{"bike_id":"fbe36b63-6c4f-42e5-a53f-2cb9636295be","system_id":"levelo_inurba_marseille","lat":43.28603,"lon":5.37069,"is_reserved":false,"is_disabled":false,"rental_uris":{"android":"levelo://app?vid=fbe36b63-6c4f-42e5-a53f-2cb9636295be","ios":"levelo://app?vid=fbe36b63-6c4f-42e5-a53f-2cb9636295be"},"vehicle_type_id":"4","last_reported":1760206322,"current_range_meters":10000,"station_id":"ce4bht12rcd13ifvqi60","pricing_plan_id":"cebpf4jnsgd1na2vs0mg"},{"bike_id":"41bae330-80a0-42c1-a1a8-74f7d5133bc8","system_id":"levelo_inurba_marseille","lat":43.30119,"lon":5.43122,"is_reserved":false,"is_disabled":false,"rental_uris":{"android":"levelo://app?vid=41bae330-80a0-42c1-a1a8-74f7d5133bc8","ios":"levelo://app?vid=41bae330-80a0-42c1-a1a8-74f7d5133bc8"},"vehicle_type_id":"4","last_reported":1760206322,"current_range_meters":10000,"station_id":"st_d3js3co5814s73ftftug","pricing_plan_id":"cebpf4jnsgd1na2vs0mg"},{"bike_id":"80b5fdd6-8044-4280-9733-7a4992e6b8f6","system_id":"levelo_inurba_marseille","lat":43.292676,"lon":5.376168,"is_reserved":false,"is_disabled":false,"rental_uris":{"android":"levelo://app?vid=80b5fdd6-8044-4280-9733-7a4992e6b8f6","ios":"levelo://app?vid=80b5fdd6-8044-4280-9733-7a4992e6b8f6"},"vehicle_type_id":"4","last_reported":1760206322,"current_range_meters":10800,"station_id":"","pricing_plan_id":"cebpf4jnsgd1na2vs0mg"},{"bike_id":"84e834b2-82d9-4d11-9cfd-13cc1a0a46f9","system_id":"levelo_inurba_marseille","lat":43.29311,"lon":5.37189,"is_reserved":false,"is_disabled":false,"rental_uris":{"android":"levelo://app?vid=84e834b2-82d9-4d11-9cfd-13cc1a0a46f9","ios":"levelo://app?vid=84e834b2-82d9-4d11-9cfd-13cc1a0a46f9"},"vehicle_type_id":"4","last_reported":1760206322,"current_range_meters":10800,"station_id":"ce4bgh92rcd13ifvqb40","pricing_plan_id":"cebpf4jnsgd1na2vs0mg"},{"bike_id":"472804b4-6b7f-473e-9714-4e482d8329d7","system_id":"levelo_inurba_marseille","lat":43.29072,"lon":5.37174,"is_reserved":false,"is_disabled":false,"rental_uris":{"android":"levelo://app?vid=472804b4-6b7f-473e-9714-4e482d8329d7","ios":"levelo://app?vid=472804b4-6b7f-473e-9714-4e482d8329d7"},"vehicle_type_id":"4","last_reported":1760206322,"current_range_meters":10800,"station_id":"ce4bh5p2rcd13ifvqe4g","pricing_plan_id":"cebpf4jnsgd1na2vs0mg"},{"bike_id":"9969933e-460f-4d94-a7f2-405309287fe8","system_id":"levelo_inurba_marseille","lat":43.29175,"lon":5.37164,"is_reserved":false,"is_disabled":false,"rental_uris":{"android":"levelo://app?vid=9969933e-460f-4d94-a7f2-405309287fe8","ios":"levelo://app?vid=9969933e-460f-4d94-a7f2-405309287fe8"},"vehicle_type_id":"4","last_reported":1760206322,"current_range_meters":10800,"station_id":"ce4bha92rcd13ifvqeh0","pricing_plan_id":"cebpf4jnsgd1na2vs0mg"},{"bike_id":"1fa39f69-020d-4eb8-bdb3-df2c694959f3","system_id":"levelo_inurba_marseille","lat":43.28347,"lon":5.38109,"is_reserved":false,"is_disabled":false,"rental_uris":{"android":"levelo://app?vid=1fa39f69-020d-4eb8-bdb3-df2c694959f3","ios":"levelo://app?vid=1fa39f69-020d-4eb8-bdb3-df2c694959f3"},"vehicle_type_id":"4","last_reported":1760206322,"current_range_meters":11200,"station_id":"ce4bh412rcd13ifvqdr0","pricing_plan_id":"cebpf4jnsgd1na2vs0mg"},{"bike_id":"676d5fcc-6c50-4bce-a28d-12abedc39e44","system_id":"levelo_inurba_marseille","lat":43.3043,"lon":5.38889,"is_reserved":false,"is_disabled":false,"rental_uris":{"android":"levelo://app?vid=676d5fcc-6c50-4bce-a28d-12abedc39e44","ios":"levelo://app?vid=676d5fcc-6c50-4bce-a28d-12abedc39e44"},"vehicle_type_id":"4","last_reported":1760206322,"current_range_meters":11600,"station_id":"ce4bgk12rcd13ifvqbi0","pricing_plan_id":"cebpf4jnsgd1na2vs0mg"},{"bike_id":"ec1b5dac-ca17-460c-9a25-c0a0fe2dd764","system_id":"levelo_inurba_marseille","lat":43.29712,"lon":5.36624,"is_reserved":false,"is_disabled":false,"rental_uris":{"android":"levelo://app?vid=ec1b5dac-ca17-460c-9a25-c0a0fe2dd764","ios":"levelo://app?vid=ec1b5dac-ca17-460c-9a25-c0a0fe2dd764"},"vehicle_type_id":"4","last_reported":1760206322,"current_range_meters":11600,"station_id":"ce4bgn12rcd13ifvqbt0","pricing_plan_id":"cebpf4jnsgd1na2vs0mg"},{"bike_id":"eab20017-cef4-4d4a-af13-9f1a4bbd7bea","system_id":"levelo_inurba_marseille","lat":43.296,"lon":5.36765,"is_reserved":false,"is_disabled":false,"rental_uris":{"android":"levelo://app?vid=eab20017-cef4-4d4a-af13-9f1a4bbd7bea","ios":"levelo://app?vid=eab20017-cef4-4d4a-af13-9f1a4bbd7bea"},"vehicle_type_id":"4","last_reported":1760206322,"current_range_meters":11600,"station_id":"ce4bgph2rcd13ifvqc2g","pricing_plan_id":"cebpf4jnsgd1na2vs0mg"},{"bike_id":"daa00480-09aa-4e0e-b0b6-3861b5f42908","system_id":"levelo_inurba_marseille","lat":43.30324,"lon":5.40439,"is_reserved":false,"is_disabled":false,"rental_uris":{"android":"levelo://app?vid=daa00480-09aa-4e0e-b0b6-3861b5f42908","ios":"levelo://app?vid=daa00480-09aa-4e0e-b0b6-3861b5f42908"},"vehicle_type_id":"4","last_reported":1760206322,"current_range_meters":11600,"station_id":"ce4bh012rcd13ifvqd10","pricing_plan_id":"cebpf4jnsgd1na2vs0mg"},{"bike_id":"129423f6-78f8-41c1-9169-c9b75cb9c66d","system_id":"levelo_inurba_marseille","lat":43.30092,"lon":5.39069,"is_reserved":false,"is_disabled":false,"rental_uris":{"android":"levelo://app?vid=129423f6-78f8-41c1-9169-c9b75cb9c66d","ios":"levelo://app?vid=129423f6-78f8-41c1-9169-c9b75cb9c66d"},"vehicle_type_id":"4","last_reported":1760206322,"current_range_meters":11600,"station_id":"ce4bh192rcd13ifvqdb0","pricing_plan_id":"cebpf4jnsgd1na2vs0mg"},{"bike_id":"05902026-45f7-4567-9a61-5516a50b1aff","system_id":"levelo_inurba_marseille","lat":43.29572,"lon":5.39978,"is_reserved":false,"is_disabled":false,"rental_uris":{"android":"levelo://app?vid=05902026-45f7-4567-9a61-5516a50b1aff","ios":"levelo://app?vid=05902026-45f7-4567-9a61-5516a50b1aff"},"vehicle_type_id":"4","last_reported":1760206322,"current_range_meters":11600,"station_id":"ce4bh312rcd13ifvqdj0","pricing_plan_id":"cebpf4jnsgd1na2vs0mg"},{"bike_id":"7b046a5a-33ea-4f88-bdc0-00a3c5f171ef","system_id":"levelo_inurba_marseille","lat":43.283543,"lon":5.381127,"is_reserved":false,"is_disabled":false,"rental_uris":{"android":"levelo://app?vid=7b046a5a-33ea-4f88-bdc0-00a3c5f171ef","ios":"levelo://app?vid=7b046a5a-33ea-4f88-bdc0-00a3c5f171ef"},"vehicle_type_id":"4","last_reported":1760206322,"current_range_meters":11600,"station_id":"ce4bh412rcd13ifvqdr0","pricing_plan_id":"cebpf4jnsgd1na2vs0mg"},{"bike_id":"96189567-9f56-4467-99e1-85c33efa20b5","system_id":"levelo_inurba_marseille","lat":43.22561,"lon":5.41625,"is_reserved":false,"is_disabled":false,"rental_uris":{"android":"levelo://app?vid=96189567-9f56-4467-99e1-85c33efa20b5","ios":"levelo://app?vid=96189567-9f56-4467-99e1-85c33efa20b5"},"vehicle_type_id":"4","last_reported":1760206322,"current_range_meters":11600,"station_id":"st_d2o4gvlbi1j2169b742g","pricing_plan_id":"cebpf4jnsgd1na2vs0mg"},{"bike_id":"f88aa716-9870-4e37-9096-2f288ea3d309","system_id":"levelo_inurba_marseille","lat":43.22571,"lon":5.41628,"is_reserved":false,"is_disabled":false,"rental_uris":{"android":"levelo://app?vid=f88aa716-9870-4e37-9096-2f288ea3d309","ios":"levelo://app?vid=f88aa716-9870-4e37-9096-2f288ea3d309"},"vehicle_type_id":"4","last_reported":1760206322,"current_range_meters":11600,"station_id":"st_d2o4gvlbi1j2169b742g","pricing_plan_id":"cebpf4jnsgd1na2vs0mg"},{"bike_id":"a6fb357e-20f8-42ec-8334-51ac1a6c8865","system_id":"levelo_inurba_marseille","lat":43.289341,"lon":5.366404,"is_reserved":false,"is_disabled":false,"rental_uris":{"android":"levelo://app?vid=a6fb357e-20f8-42ec-8334-51ac1a6c8865","ios":"levelo://app?vid=a6fb357e-20f8-42ec-8334-51ac1a6c8865"},"vehicle_type_id":"4","last_reported":1760206322,"current_range_meters":12000,"station_id":"","pricing_plan_id":"cebpf4jnsgd1na2vs0mg"},{"bike_id":"df2fdcfd-9b2f-4cf0-8a37-826706a7eda8","system_id":"levelo_inurba_marseille","lat":43.27147,"lon":5.39171,"is_reserved":false,"is_disabled":false,"rental_uris":{"android":"levelo://app?vid=df2fdcfd-9b2f-4cf0-8a37-826706a7eda8","ios":"levelo://app?vid=df2fdcfd-9b2f-4cf0-8a37-826706a7eda8"},"vehicle_type_id":"4","last_reported":1760206322,"current_range_meters":12000,"station_id":"","pricing_plan_id":"cebpf4jnsgd1na2vs0mg"},{"bike_id":"03fb0d83-e220-41d1-959f-39feda137333","system_id":"levelo_inurba_marseille","lat":43.30443,"lon":5.379,"is_reserved":false,"is_disabled":false,"rental_uris":{"android":"levelo://app?vid=03fb0d83-e220-41d1-959f-39feda137333","ios":"levelo://app?vid=03fb0d83-e220-41d1-959f-39feda137333"},"vehicle_type_id":"4","last_reported":1760206322,"current_range_meters":12000,"station_id":"ce4bgup2rcd13ifvqcn0","pricing_plan_id":"cebpf4jnsgd1na2vs0mg"},{"bike_id":"9ee628e4-9be5-4190-85a8-fdf7d64198da","system_id":"levelo_inurba_marseille","lat":43.29264,"lon":5.384343,"is_reserved":false,"is_disabled":false,"rental_uris":{"android":"levelo://app?vid=9ee628e4-9be5-4190-85a8-fdf7d64198da","ios":"levelo://app?vid=9ee628e4-9be5-4190-85a8-fdf7d64198da"},"vehicle_type_id":"4","last_reported":1760206322,"current_range_meters":12000,"station_id":"ce4bh692rcd13ifvqea0","pricing_plan_id":"cebpf4jnsgd1na2vs0mg"},{"bike_id":"0347e5a3-f039-4272-acf5-cd13a8e2c584","system_id":"levelo_inurba_marseille","lat":43.28491,"lon":5.38547,"is_reserved":false,"is_disabled":false,"rental_uris":{"android":"levelo://app?vid=0347e5a3-f039-4272-acf5-cd13a8e2c584","ios":"levelo://app?vid=0347e5a3-f039-4272-acf5-cd13a8e2c584"},"vehicle_type_id":"4","last_reported":1760206322,"current_range_meters":12000,"station_id":"ce4bh8p2rcd13ifvqeb0","pricing_plan_id":"cebpf4jnsgd1na2vs0mg"},{"bike_id":"21409f71-4259-4f74-801c-a1a9639f7ae8","system_id":"levelo_inurba_marseille","lat":43.2707,"lon":5.40261,"is_reserved":false,"is_disabled":false,"rental_uris":{"android":"levelo://app?vid=21409f71-4259-4f74-801c-a1a9639f7ae8","ios":"levelo://app?vid=21409f71-4259-4f74-801c-a1a9639f7ae8"},"vehicle_type_id":"4","last_reported":1760206322,"current_range_meters":12000,"station_id":"ce4bhk92rcd13ifvqgc0","pricing_plan_id":"cebpf4jnsgd1na2vs0mg"},{"bike_id":"deff6bb2-2d8f-4c39-89b9-87eb994e20da","system_id":"levelo_inurba_marseille","lat":43.31883,"lon":5.40738,"is_reserved":false,"is_disabled":false,"rental_uris":{"android":"levelo://app?vid=deff6bb2-2d8f-4c39-89b9-87eb994e20da","ios":"levelo://app?vid=deff6bb2-2d8f-4c39-89b9-87eb994e20da"},"vehicle_type_id":"4","last_reported":1760206322,"current_range_meters":12000,"station_id":"ce4bhq12rcd13ifvqhig","pricing_plan_id":"cebpf4jnsgd1na2vs0mg"},{"bike_id":"08fcdb32-2bb9-48aa-82a9-a8f703dd0269","system_id":"levelo_inurba_marseille","lat":43.25376,"lon":5.41895,"is_reserved":false,"is_disabled":false,"rental_uris":{"android":"levelo://app?vid=08fcdb32-2bb9-48aa-82a9-a8f703dd0269","ios":"levelo://app?vid=08fcdb32-2bb9-48aa-82a9-a8f703dd0269"},"vehicle_type_id":"4","last_reported":1760206322,"current_range_meters":12400,"station_id":"","pricing_plan_id":"cebpf4jnsgd1na2vs0mg"},{"bike_id":"734fa452-7450-46d8-a1ba-90c982cd4d01","system_id":"levelo_inurba_marseille","lat":43.31713,"lon":5.3774,"is_reserved":false,"is_disabled":false,"rental_uris":{"android":"levelo://app?vid=734fa452-7450-46d8-a1ba-90c982cd4d01","ios":"levelo://app?vid=734fa452-7450-46d8-a1ba-90c982cd4d01"},"vehicle_type_id":"4","last_reported":1760206322,"current_range_meters":12400,"station_id":"ce4bgth2rcd13ifvqch0","pricing_plan_id":"cebpf4jnsgd1na2vs0mg"},{"bike_id":"9eec1a65-67bd-488e-bfd6-3773aa5c5cc6","system_id":"levelo_inurba_marseille","lat":43.24072,"lon":5.37758,"is_reserved":false,"is_disabled":false,"rental_uris":{"android":"levelo://app?vid=9eec1a65-67bd-488e-bfd6-3773aa5c5cc6","ios":"levelo://app?vid=9eec1a65-67bd-488e-bfd6-3773aa5c5cc6"},"vehicle_type_id":"4","last_reported":1760206322,"current_range_meters":12400,"station_id":"ce4bhnp2rcd13ifvqgvg","pricing_plan_id":"cebpf4jnsgd1na2vs0mg"},{"bike_id":"23cbc275-6f33-4c90-b8c4-dae42d67c6d2","system_id":"levelo_inurba_marseille","lat":43.29545,"lon":5.38541,"is_reserved":false,"is_disabled":false,"rental_uris":{"android":"levelo://app?vid=23cbc275-6f33-4c90-b8c4-dae42d67c6d2","ios":"levelo://app?vid=23cbc275-6f33-4c90-b8c4-dae42d67c6d2"},"vehicle_type_id":"4","last_reported":1760206322,"current_range_meters":12800,"station_id":"ce4bgih2rcd13ifvqba0","pricing_plan_id":"cebpf4jnsgd1na2vs0mg"},{"bike_id":"d87f5e9f-6614-4781-ab84-f2f765d1a3d0","system_id":"levelo_inurba_marseille","lat":43.29839,"lon":5.36275,"is_reserved":false,"is_disabled":false,"rental_uris":{"android":"levelo://app?vid=d87f5e9f-6614-4781-ab84-f2f765d1a3d0","ios":"levelo://app?vid=d87f5e9f-6614-4781-ab84-f2f765d1a3d0"},"vehicle_type_id":"4","last_reported":1760206322,"current_range_meters":12800,"station_id":"ce4bgpp2rcd13ifvqc3g","pricing_plan_id":"cebpf4jnsgd1na2vs0mg"},{"bike_id":"dea0114d-8d23-47aa-bdc3-9086b3da69de","system_id":"levelo_inurba_marseille","lat":43.30614,"lon":5.3934,"is_reserved":false,"is_disabled":false,"rental_uris":{"android":"levelo://app?vid=dea0114d-8d23-47aa-bdc3-9086b3da69de","ios":"levelo://app?vid=dea0114d-8d23-47aa-bdc3-9086b3da69de"},"vehicle_type_id":"4","last_reported":1760206322,"current_range_meters":12800,"station_id":"ce4bh0p2rcd13ifvqd80","pricing_plan_id":"cebpf4jnsgd1na2vs0mg"},{"bike_id":"9ab3e120-473d-4869-b676-c761eca0b3d0","system_id":"levelo_inurba_marseille","lat":43.27184,"lon":5.40993,"is_reserved":false,"is_disabled":false,"rental_uris":{"android":"levelo://app?vid=9ab3e120-473d-4869-b676-c761eca0b3d0","ios":"levelo://app?vid=9ab3e120-473d-4869-b676-c761eca0b3d0"},"vehicle_type_id":"4","last_reported":1760206322,"current_range_meters":12800,"station_id":"ce4bhl12rcd13ifvqgf0","pricing_plan_id":"cebpf4jnsgd1na2vs0mg"},{"bike_id":"16cf7281-1687-4676-84f4-c051dd7b9da8","system_id":"levelo_inurba_marseille","lat":43.2407,"lon":5.37766,"is_reserved":false,"is_disabled":false,"rental_uris":{"android":"levelo://app?vid=16cf7281-1687-4676-84f4-c051dd7b9da8","ios":"levelo://app?vid=16cf7281-1687-4676-84f4-c051dd7b9da8"},"vehicle_type_id":"4","last_reported":1760206322,"current_range_meters":12800,"station_id":"ce4bhnp2rcd13ifvqgvg","pricing_plan_id":"cebpf4jnsgd1na2vs0mg"},