{"last_updated":1740564634,"ttl":60,"version":"2.2","data":{"bikes":[{"bike_id":"82f544c9-f86a-42dd-aedb-98df464a4767","system_id":"levelo_inurba_marseille","lat":43.29151,"lon":5.38326,"is_reserved":false,"is_disabled":false,"rental_uris":{"android":"levelo://app?vid=82f544c9-f86a-42dd-aedb-98df464a4767","ios":"levelo://app?vid=82f544c9-f86a-42dd-aedb-98df464a4767"},"vehicle_type_id":"4","last_reported":1740564634,"current_range_meters":2800,"station_id":"","pricing_plan_id":"cebpf4jnsgd1na2vs0mg"},{"bike_id":"6e4e00d8-0665-4eea-9970-9b04e7796995","system_id":"levelo_inurba_marseille","lat":43.24176,"lon":5.3972,"is_reserved":false,"is_disabled":false,"rental_uris":{"android":"levelo://app?vid=6e4e00d8-0665-4eea-9970-9b04e7796995","ios":"levelo://app?vid=6e4e00d8-0665-4eea-9970-9b04e7796995"},"vehicle_type_id":"4","last_reported":1740564634,"current_range_meters":2800,"station_id":"ce4bhn12rcd13ifvqgpg","pricing_plan_id":"cebpf4jnsgd1na2vs0mg"},{"bike_id":"4c8fecf8-c6ef-4123-a16f-b2303e1c14e1","system_id":"levelo_inurba_marseille","lat":43.27831,"lon":5.39212,"is_reserved":false,"is_disabled":false,"rental_uris":{"android":"levelo://app?vid=4c8fecf8-c6ef-4123-a16f-b2303e1c14e1","ios":"levelo://app?vid=4c8fecf8-c6ef-4123-a16f-b2303e1c14e1"},"vehicle_type_id":"4","last_reported":1740564634,"current_range_meters":2000,"station_id":"ce4bhjp2rcd13ifvqga0","pricing_plan_id":"cebpf4jnsgd1na2vs0mg"},{"bike_id":"5601d455-e488-4b6a-b21c-d04dfdb08f21","system_id":"levelo_inurba_marseille","lat":43.27204,"lon":5.39185,"is_reserved":false,"is_disabled":false,"rental_uris":{"android":"levelo://app?vid=5601d455-e488-4b6a-b21c-d04dfdb08f21","ios":"levelo://app?vid=5601d455-e488-4b6a-b21c-d04dfdb08f21"},"vehicle_type_id":"4","last_reported":1740564634,"current_range_meters":3200,"station_id":"ce4bhhp2rcd13ifvqfm0","pricing_plan_id":"cebpf4jnsgd1na2vs0mg"},{"bike_id":"7964a7fb-ec17-4cff-8775-bd0bfcd21790","system_id":"levelo_inurba_marseille","lat":43.28478,"lon":5.3841,"is_reserved":false,"is_disabled":false,"rental_uris":{"android":"levelo://app?vid=7964a7fb-ec17-4cff-8775-bd0bfcd21790","ios":"levelo://app?vid=7964a7fb-ec17-4cff-8775-bd0bfcd21790"},"vehicle_type_id":"4","last_reported":1740564634,"current_range_meters":3200,"station_id":"ce4bh512rcd13ifvqe3g","pricing_plan_id":"cebpf4jnsgd1na2vs0mg"},{"bike_id":"0ca81608-f491-428e-8676-572d859eb79c","system_id":"levelo_inurba_marseille","lat":43.232,"lon":5.39982,"is_reserved":false,"is_disabled":false,"rental_uris":{"android":"levelo://app?vid=0ca81608-f491-428e-8676-572d859eb79c","ios":"levelo://app?vid=0ca81608-f491-428e-8676-572d859eb79c"},"vehicle_type_id":"4","last_reported":1740564634,"current_range_meters":4000,"station_id":"ce4bhn12rcd13ifvqgqg","pricing_plan_id":"cebpf4jnsgd1na2vs0mg"},{"bike_id":"a9c77350-ced7-4928-93cf-fd087240ecf1","system_id":"levelo_inurba_marseille","lat":43.24662,"lon":5.38177,"is_reserved":false,"is_disabled":false,"rental_uris":{"android":"levelo://app?vid=a9c77350-ced7-4928-93cf-fd087240ecf1","ios":"levelo://app?vid=a9c77350-ced7-4928-93cf-fd087240ecf1"},"vehicle_type_id":"4","last_reported":1740564634,"current_range_meters":4000,"station_id":"ce4bhih2rcd13ifvqfr0","pricing_plan_id":"cebpf4jnsgd1na2vs0mg"},{"bike_id":"638d3d57-3aea-431d-a0b0-abb74d60ab91","system_id":"levelo_inurba_marseille","lat":43.26813,"lon":5.4026,"is_reserved":false,"is_disabled":false,"rental_uris":{"android":"levelo://app?vid=638d3d57-3aea-431d-a0b0-abb74d60ab91","ios":"levelo://app?vid=638d3d57-3aea-431d-a0b0-abb74d60ab91"},"vehicle_type_id":"4","last_reported":1740564634,"current_range_meters":4000,"station_id":"ce501612rcd8frsf0b60","pricing_plan_id":"cebpf4jnsgd1na2vs0mg"},{"bike_id":"0127f858-96d2-4fd0-8318-ba52e0c4082c","system_id":"levelo_inurba_marseille","lat":43.28388,"lon":5.38472,"is_reserved":false,"is_disabled":false,"rental_uris":{"android":"levelo://app?vid=0127f858-96d2-4fd0-8318-ba52e0c4082c","ios":"levelo://app?vid=0127f858-96d2-4fd0-8318-ba52e0c4082c"},"vehicle_type_id":"4","last_reported":1740564634,"current_range_meters":4000,"station_id":"ce4bhg12rcd13ifvqf80","pricing_plan_id":"cebpf4jnsgd1na2vs0mg"},{"bike_id":"f0f74fbc-eeb3-4967-b4b8-49d762bb5054","system_id":"levelo_inurba_marseille","lat":43.2929,"lon":5.40707,"is_reserved":false,"is_disabled":false,"rental_uris":{"android":"levelo://app?vid=f0f74fbc-eeb3-4967-b4b8-49d762bb5054","ios":"levelo://app?vid=f0f74fbc-eeb3-4967-b4b8-49d762bb5054"},"vehicle_type_id":"4","last_reported":1740564634,"current_range_meters":6400,"station_id":"","pricing_plan_id":"cebpf4jnsgd1na2vs0mg"},{"bike_id":"252fce85-628b-4a5e-ac10-83a95c4db4fa","system_id":"levelo_inurba_marseille","lat":43.30528,"lon":5.36514,"is_reserved":false,"is_disabled":false,"rental_uris":{"android":"levelo://app?vid=252fce85-628b-4a5e-ac10-83a95c4db4fa","ios":"levelo://app?vid=252fce85-628b-4a5e-ac10-83a95c4db4fa"},"vehicle_type_id":"4","last_reported":1740564634,"current_range_meters":5600,"station_id":"","pricing_plan_id":"cebpf4jnsgd1na2vs0mg"},{"bike_id":"66613f8e-b400-438d-83dc-9aed1edc478d","system_id":"levelo_inurba_marseille","lat":43.28616,"lon":5.35104,"is_reserved":false,"is_disabled":false,"rental_uris":{"android":"levelo://app?vid=66613f8e-b400-438d-83dc-9aed1edc478d","ios":"levelo://app?vid=66613f8e-b400-438d-83dc-9aed1edc478d"},"vehicle_type_id":"4","last_reported":1740564634,"current_range_meters":4800,"station_id":"ce4bhch2rcd13ifvqeug","pricing_plan_id":"cebpf4jnsgd1na2vs0mg"},{"bike_id":"2f01cdea-eb23-4a8c-8bad-a93c93a778c7","system_id":"levelo_inurba_marseille","lat":43.28377,"lon":5.3865,"is_reserved":false,"is_disabled":false,"rental_uris":{"android":"levelo://app?vid=2f01cdea-eb23-4a8c-8bad-a93c93a778c7","ios":"levelo://app?vid=2f01cdea-eb23-4a8c-8bad-a93c93a778c7"},"vehicle_type_id":"4","last_reported":1740564634,"current_range_meters":4800,"station_id":"ce4bh492rcd13ifvqdvg","pricing_plan_id":"cebpf4jnsgd1na2vs0mg"},{"bike_id":"e7b815cc-df06-4225-b4a6-c7bfd0557c54","system_id":"levelo_inurba_marseille","lat":43.25938,"lon":5.40905,"is_reserved":false,"is_disabled":false,"rental_uris":{"android":"levelo://app?vid=e7b815cc-df06-4225-b4a6-c7bfd0557c54","ios":"levelo://app?vid=e7b815cc-df06-4225-b4a6-c7bfd0557c54"},"vehicle_type_id":"4","last_reported":1740564634,"current_range_meters":4800,"station_id":"ce4bhm92rcd13ifvqglg","pricing_plan_id":"cebpf4jnsgd1na2vs0mg"},{"bike_id":"b7081d9e-9125-4d2e-9a1d-ea4725f61fbb","system_id":"levelo_inurba_marseille","lat":43.2678,"lon":5.39417,"is_reserved":false,"is_disabled":false,"rental_uris":{"android":"levelo://app?vid=b7081d9e-9125-4d2e-9a1d-ea4725f61fbb","ios":"levelo://app?vid=b7081d9e-9125-4d2e-9a1d-ea4725f61fbb"},"vehicle_type_id":"4","last_reported":1740564634,"current_range_meters":4800,"station_id":"ce4bhh12rcd13ifvqfg0","pricing_plan_id":"cebpf4jnsgd1na2vs0mg"},{"bike_id":"1e562844-49e9-41ee-a6c6-ddbf69b441d8","system_id":"levelo_inurba_marseille","lat":43.30317,"lon":5.36898,"is_reserved":false,"is_disabled":false,"rental_uris":{"android":"levelo://app?vid=1e562844-49e9-41ee-a6c6-ddbf69b441d8","ios":"levelo://app?vid=1e562844-49e9-41ee-a6c6-ddbf69b441d8"},"vehicle_type_id":"4","last_reported":1740564634,"current_range_meters":6400,"station_id":"ce4bgqh2rcd13ifvqc5g","pricing_plan_id":"cebpf4jnsgd1na2vs0mg"},{"bike_id":"ab4a64f3-6943-4d95-b7c3-0eeca05d6fc5","system_id":"levelo_inurba_marseille","lat":43.30547,"lon":5.36542,"is_reserved":false,"is_disabled":false,"rental_uris":{"android":"levelo://app?vid=ab4a64f3-6943-4d95-b7c3-0eeca05d6fc5","ios":"levelo://app?vid=ab4a64f3-6943-4d95-b7c3-0eeca05d6fc5"},"vehicle_type_id":"4","last_reported":1740564634,"current_range_meters":6000,"station_id":"ce4bgs12rcd13ifvqcag","pricing_plan_id":"cebpf4jnsgd1na2vs0mg"},{"bike_id":"af459d88-ae1b-4cbd-84e7-c0011a757de5","system_id":"levelo_inurba_marseille","lat":43.23197,"lon":5.35544,"is_reserved":false,"is_disabled":false,"rental_uris":{"android":"levelo://app?vid=af459d88-ae1b-4cbd-84e7-c0011a757de5","ios":"levelo://app?vid=af459d88-ae1b-4cbd-84e7-c0011a757de5"},"vehicle_type_id":"4","last_reported":1740564634,"current_range_meters":6000,"station_id":"ce4bhu92rcd13ifvqi70","pricing_plan_id":"cebpf4jnsgd1na2vs0mg"},{"bike_id":"1b95dd14-0ab1-456a-9ff0-1e60da14ebad","system_id":"levelo_inurba_marseille","lat":43.30532,"lon":5.36551,"is_reserved":false,"is_disabled":false,"rental_uris":{"android":"levelo://app?vid=1b95dd14-0ab1-456a-9ff0-1e60da14ebad","ios":"levelo://app?vid=1b95dd14-0ab1-456a-9ff0-1e60da14ebad"},"vehicle_type_id":"4","last_reported":1740564634,"current_range_meters":6000,"station_id":"ce4bgs12rcd13ifvqcag","pricing_plan_id":"cebpf4jnsgd1na2vs0mg"},{"bike_id":"416122ca-c79a-496b-baf4-e72ba614b7da","system_id":"levelo_inurba_marseille","lat":43.30131,"lon":5.37408,"is_reserved":false,"is_disabled":false,"rental_uris":{"android":"levelo://app?vid=416122ca-c79a-496b-baf4-e72ba614b7da","ios":"levelo://app?vid=416122ca-c79a-496b-baf4-e72ba614b7da"},"vehicle_type_id":"4","last_reported":1740564634,"current_range_meters":6000,"station_id":"ce4bgs92rcd13ifvqcc0","pricing_plan_id":"cebpf4jnsgd1na2vs0mg"},{"bike_id":"e07c4d3e-b317-4b10-b919-c6146de26647","system_id":"levelo_inurba_marseille","lat":43.32525,"lon":5.41457,"is_reserved":false,"is_disabled":false,"rental_uris":{"android":"levelo://app?vid=e07c4d3e-b317-4b10-b919-c6146de26647","ios":"levelo://app?vid=e07c4d3e-b317-4b10-b919-c6146de26647"},"vehicle_type_id":"4","last_reported":1740564634,"current_range_meters":6000,"station_id":"ce4bhq12rcd13ifvqhhg","pricing_plan_id":"cebpf4jnsgd1na2vs0mg"},{"bike_id":"b6eb1e76-a88a-437e-98c4-9a612de71195","system_id":"levelo_inurba_marseille","lat":43.23152,"lon":5.43709,"is_reserved":false,"is_disabled":false,"rental_uris":{"android":"levelo://app?vid=b6eb1e76-a88a-437e-98c4-9a612de71195","ios":"levelo://app?vid=b6eb1e76-a88a-437e-98c4-9a612de71195"},"vehicle_type_id":"4","last_reported":1740564634,"current_range_meters":6000,"station_id":"ce4bhmp2rcd13ifvqgog","pricing_plan_id":"cebpf4jnsgd1na2vs0mg"},{"bike_id":"3ecb5c1e-fdcd-4620-8ea5-a393e4f4cf28","system_id":"levelo_inurba_marseille","lat":43.25935,"lon":5.40907,"is_reserved":false,"is_disabled":false,"rental_uris":{"android":"levelo://app?vid=3ecb5c1e-fdcd-4620-8ea5-a393e4f4cf28","ios":"levelo://app?vid=3ecb5c1e-fdcd-4620-8ea5-a393e4f4cf28"},"vehicle_type_id":"4","last_reported":1740564634,"current_range_meters":6000,"station_id":"ce4bhm92rcd13ifvqglg","pricing_plan_id":"cebpf4jnsgd1na2vs0mg"},{"bike_id":"c9e17eed-665f-4532-81e9-92f47feaec2c","system_id":"levelo_inurba_marseille","lat":43.29453,"lon":5.39745,"is_reserved":false,"is_disabled":false,"rental_uris":{"android":"levelo://app?vid=c9e17eed-665f-4532-81e9-92f47feaec2c","ios":"levelo://app?vid=c9e17eed-665f-4532-81e9-92f47feaec2c"},"vehicle_type_id":"4","last_reported":1740564634,"current_range_meters":6000,"station_id":"ce4bh3h2rcd13ifvqdo0","pricing_plan_id":"cebpf4jnsgd1na2vs0mg"},{"bike_id":"be8cabb2-9597-4ff0-812c-2a12b3c0fb8b","system_id":"levelo_inurba_marseille","lat":43.30564,"lon":5.36698,"is_reserved":false,"is_disabled":false,"rental_uris":{"android":"levelo://app?vid=be8cabb2-9597-4ff0-812c-2a12b3c0fb8b","ios":"levelo://app?vid=be8cabb2-9597-4ff0-812c-2a12b3c0fb8b"},"vehicle_type_id":"4","last_reported":1740564634,"current_range_meters":6400,"station_id":"ce4bgrp2rcd13ifvqc9g","pricing_plan_id":"cebpf4jnsgd1na2vs0mg"},{"bike_id":"1fb0e46b-bdba-4a0b-8c63-b6e48236eaf3","system_id":"levelo_inurba_marseille","lat":43.31334,"lon":5.36736,"is_reserved":false,"is_disabled":false,"rental_uris":{"android":"levelo://app?vid=1fb0e46b-bdba-4a0b-8c63-b6e48236eaf3","ios":"levelo://app?vid=1fb0e46b-bdba-4a0b-8c63-b6e48236eaf3"},"vehicle_type_id":"4","last_reported":1740564634,"current_range_meters":6400,"station_id":"ce4bgr92rcd13ifvqc6g","pricing_plan_id":"cebpf4jnsgd1na2vs0mg"},{"bike_id":"ad15a503-e243-4704-8cbb-77d92c75e1d9","system_id":"levelo_inurba_marseille","lat":43.28439,"lon":5.39193,"is_reserved":false,"is_disabled":true,"rental_uris":{"android":"levelo://app?vid=ad15a503-e243-4704-8cbb-77d92c75e1d9","ios":"levelo://app?vid=ad15a503-e243-4704-8cbb-77d92c75e1d9"},"vehicle_type_id":"4","last_reported":1740564634,"current_range_meters":6400,"station_id":"ce4bhoh2rcd13ifvqh5g","pricing_plan_id":"cebpf4jnsgd1na2vs0mg"},{"bike_id":"c4d1618a-4e85-43e1-ba71-eda49e86f375","system_id":"levelo_inurba_marseille","lat":43.23962,"lon":5.36627,"is_reserved":false,"is_disabled":false,"rental_uris":{"android":"levelo://app?vid=c4d1618a-4e85-43e1-ba71-eda49e86f375","ios":"levelo://app?vid=c4d1618a-4e85-43e1-ba71-eda49e86f375"},"vehicle_type_id":"4","last_reported":1740564634,"current_range_meters":6400,"station_id":"ce4bhi12rcd13ifvqfp0","pricing_plan_id":"cebpf4jnsgd1na2vs0mg"},{"bike_id":"c206b190-f2b4-4b8b-9c9b-97c35630bf2b","system_id":"levelo_inurba_marseille","lat":43.3054,"lon":5.36707,"is_reserved":false,"is_disabled":false,"rental_uris":{"android":"levelo://app?vid=c206b190-f2b4-4b8b-9c9b-97c35630bf2b","ios":"levelo://app?vid=c206b190-f2b4-4b8b-9c9b-97c35630bf2b"},"vehicle_type_id":"4","last_reported":1740564634,"current_range_meters":6800,"station_id":"ce4bgrp2rcd13ifvqc9g","pricing_plan_id":"cebpf4jnsgd1na2vs0mg"},{"bike_id":"58c6e842-50d3-44a9-9c2d-a4232cc4ff2b","system_id":"levelo_inurba_marseille","lat":43.30481,"lon":5.3791,"is_reserved":false,"is_disabled":false,"rental_uris":{"android":"levelo://app?vid=58c6e842-50d3-44a9-9c2d-a4232cc4ff2b","ios":"levelo://app?vid=58c6e842-50d3-44a9-9c2d-a4232cc4ff2b"},"vehicle_type_id":"4","last_reported":1740564634,"current_range_meters":6800,"station_id":"ce4bgup2rcd13ifvqcn0","pricing_plan_id":"cebpf4jnsgd1na2vs0mg"},{"bike_id":"4fe6d8c2-025c-468e-89a6-922090a725f8","system_id":"levelo_inurba_marseille","lat":43.2407,"lon":5.3775,"is_reserved":false,"is_disabled":false,"rental_uris":{"android":"levelo://app?vid=4fe6d8c2-025c-468e-89a6-922090a725f8","ios":"levelo://app?vid=4fe6d8c2-025c-468e-89a6-922090a725f8"},"vehicle_type_id":"4","last_reported":1740564634,"current_range_meters":7200,"station_id":"ce4bhnp2rcd13ifvqgvg","pricing_plan_id":"cebpf4jnsgd1na2vs0mg"},{"bike_id":"41a82718-5578-41f7-be7c-4a36792814f7","system_id":"levelo_inurba_marseille","lat":43.25001,"lon":5.38922,"is_reserved":false,"is_disabled":false,"rental_uris":{"android":"levelo://app?vid=41a82718-5578-41f7-be7c-4a36792814f7","ios":"levelo://app?vid=41a82718-5578-41f7-be7c-4a36792814f7"},"vehicle_type_id":"4","last_reported":1740564634,"current_range_meters":6800,"station_id":"ce4bhgp2rcd13ifvqfd0","pricing_plan_id":"cebpf4jnsgd1na2vs0mg"},{"bike_id":"e4cd531c-53f6-497b-b684-69896df31ea1","system_id":"levelo_inurba_marseille","lat":43.24167,"lon":5.39729,"is_reserved":false,"is_disabled":false,"rental_uris":{"android":"levelo://app?vid=e4cd531c-53f6-497b-b684-69896df31ea1","ios":"levelo://app?vid=e4cd531c-53f6-497b-b684-69896df31ea1"},"vehicle_type_id":"4","last_reported":1740564634,"current_range_meters":6800,"station_id":"ce4bhn12rcd13ifvqgpg","pricing_plan_id":"cebpf4jnsgd1na2vs0mg"},{"bike_id":"87f55f6d-0457-4002-a98c-243af8229daa","system_id":"levelo_inurba_marseille","lat":43.27998,"lon":5.40014,"is_reserved":false,"is_disabled":false,"rental_uris":{"android":"levelo://app?vid=87f55f6d-0457-4002-a98c-243af8229daa","ios":"levelo://app?vid=87f55f6d-0457-4002-a98c-243af8229daa"},"vehicle_type_id":"4","last_reported":1740564634,"current_range_meters":6800,"station_id":"ce4bho92rcd13ifvqh4g","pricing_plan_id":"cebpf4jnsgd1na2vs0mg"},{"bike_id":"2b8c9d5d-3a7d-4165-86bb-409a08d4b434","system_id":"levelo_inurba_marseille","lat":43.30137,"lon":5.37419,"is_reserved":false,"is_disabled":false,"rental_uris":{"android":"levelo://app?vid=2b8c9d5d-3a7d-4165-86bb-409a08d4b434","ios":"levelo://app?vid=2b8c9d5d-3a7d-4165-86bb-409a08d4b434"},"vehicle_type_id":"4","last_reported":1740564634,"current_range_meters":6800,"station_id":"ce4bgs92rcd13ifvqcc0","pricing_plan_id":"cebpf4jnsgd1na2vs0mg"},{"bike_id":"9728f3a2-27d3-4e15-bae5-973e3d6f10a8","system_id":"levelo_inurba_marseille","lat":43.30558,"lon":5.36524,"is_reserved":false,"is_disabled":false,"rental_uris":{"android":"levelo://app?vid=9728f3a2-27d3-4e15-bae5-973e3d6f10a8","ios":"levelo://app?vid=9728f3a2-27d3-4e15-bae5-973e3d6f10a8"},"vehicle_type_id":"4","last_reported":1740564634,"current_range_meters":6800,"station_id":"ce4bgs12rcd13ifvqcag","pricing_plan_id":"cebpf4jnsgd1na2vs0mg"},{"bike_id":"70656a71-7b5b-49e4-a2ca-c422d39a1205","system_id":"levelo_inurba_marseille","lat":43.27064,"lon":5.42283,"is_reserved":false,"is_disabled":false,"rental_uris":{"android":"levelo://app?vid=70656a71-7b5b-49e4-a2ca-c422d39a1205","ios":"levelo://app?vid=70656a71-7b5b-49e4-a2ca-c422d39a1205"},"vehicle_type_id":"4","last_reported":1740564634,"current_range_meters":7200,"station_id":"ce4bhk92rcd13ifvqgb0","pricing_plan_id":"cebpf4jnsgd1na2vs0mg"},{"bike_id":"8da35fa5-5d74-4990-8675-9e285d91062b","system_id":"levelo_inurba_marseille","lat":43.25588,"lon":5.38251,"is_reserved":false,"is_disabled":false,"rental_uris":{"android":"levelo://app?vid=8da35fa5-5d74-4990-8675-9e285d91062b","ios":"levelo://app?vid=8da35fa5-5d74-4990-8675-9e285d91062b"},"vehicle_type_id":"4","last_reported":1740564634,"current_range_meters":7200,"station_id":"ce4bhih2rcd13ifvqfs0","pricing_plan_id":"cebpf4jnsgd1na2vs0mg"},{"bike_id":"e5c275a2-a964-47d8-9489-ed1126cf4cef","system_id":"levelo_inurba_marseille","lat":43.29631,"lon":5.37927,"is_reserved":false,"is_disabled":false,"rental_uris":{"android":"levelo://app?vid=e5c275a2-a964-47d8-9489-ed1126cf4cef","ios":"levelo://app?vid=e5c275a2-a964-47d8-9489-ed1126cf4cef"},"vehicle_type_id":"4","last_reported":1740564634,"current_range_meters":8400,"station_id":"","pricing_plan_id":"cebpf4jnsgd1na2vs0mg"},{"bike_id":"601d9d1a-b924-4349-8cfa-62d99997e8fb","system_id":"levelo_inurba_marseille","lat":43.23185,"lon":5.40016,"is_reserved":false,"is_disabled":false,"rental_uris":{"android":"levelo://app?vid=601d9d1a-b924-4349-8cfa-62d99997e8fb","ios":"levelo://app?vid=601d9d1a-b924-4349-8cfa-62d99997e8fb"},"vehicle_type_id":"4","last_reported":1740564634,"current_range_meters":7200,"station_id":"ce4bhn12rcd13ifvqgqg","pricing_plan_id":"cebpf4jnsgd1na2vs0mg"},{"bike_id":"6e922300-b284-42d4-9d90-0b86d95e6d88","system_id":"levelo_inurba_marseille","lat":43.26182,"lon":5.40453,"is_reserved":false,"is_disabled":false,"rental_uris":{"android":"levelo://app?vid=6e922300-b284-42d4-9d90-0b86d95e6d88","ios":"levelo://app?vid=6e922300-b284-42d4-9d90-0b86d95e6d88"},"vehicle_type_id":"4","last_reported":1740564634,"current_range_meters":7200,"station_id":"ce4bhmh2rcd13ifvqgmg","pricing_plan_id":"cebpf4jnsgd1na2vs0mg"},{"bike_id":"c7d47453-8ff3-4d96-8463-71e1a5e80589","system_id":"levelo_inurba_marseille","lat":43.29963,"lon":5.41323,"is_reserved":false,"is_disabled":false,"rental_uris":{"android":"levelo://app?vid=c7d47453-8ff3-4d96-8463-71e1a5e80589","ios":"levelo://app?vid=c7d47453-8ff3-4d96-8463-71e1a5e80589"},"vehicle_type_id":"4","last_reported":1740564634,"current_range_meters":7200,"station_id":"ce4bhp12rcd13ifvqh9g","pricing_plan_id":"cebpf4jnsgd1na2vs0mg"},{"bike_id":"7c45866a-bd99-4c12-9747-66203f12a96e","system_id":"levelo_inurba_marseille","lat":43.23141,"lon":5.35511,"is_reserved":false,"is_disabled":false,"rental_uris":{"android":"levelo://app?vid=7c45866a-bd99-4c12-9747-66203f12a96e","ios":"levelo://app?vid=7c45866a-bd99-4c12-9747-66203f12a96e"},"vehicle_type_id":"4","last_reported":1740564634,"current_range_meters":7200,"station_id":"","pricing_plan_id":"cebpf4jnsgd1na2vs0mg"},{"bike_id":"7af1ab52-65de-4b2f-ad37-6777d80b4ed1","system_id":"levelo_inurba_marseille","lat":43.29309,"lon":5.37169,"is_reserved":false,"is_disabled":false,"rental_uris":{"android":"levelo://app?vid=7af1ab52-65de-4b2f-ad37-6777d80b4ed1","ios":"levelo://app?vid=7af1ab52-65de-4b2f-ad37-6777d80b4ed1"},"vehicle_type_id":"4","last_reported":1740564634,"current_range_meters":7200,"station_id":"ce4bgh92rcd13ifvqb40","pricing_plan_id":"cebpf4jnsgd1na2vs0mg"},{"bike_id":"e3d71cbc-c200-4cf4-bd3c-8db524813567","system_id":"levelo_inurba_marseille","lat":43.28324,"lon":5.38089,"is_reserved":false,"is_disabled":false,"rental_uris":{"android":"levelo://app?vid=e3d71cbc-c200-4cf4-bd3c-8db524813567","ios":"levelo://app?vid=e3d71cbc-c200-4cf4-bd3c-8db524813567"},"vehicle_type_id":"4","last_reported":1740564634,"current_range_meters":7200,"station_id":"ce4bh412rcd13ifvqdr0","pricing_plan_id":"cebpf4jnsgd1na2vs0mg"},{"bike_id":"0d6943c3-cee4-48aa-aad4-9b0443d73981","system_id":"levelo_inurba_marseille","lat":43.29251,"lon":5.40917,"is_reserved":false,"is_disabled":false,"rental_uris":{"android":"levelo://app?vid=0d6943c3-cee4-48aa-aad4-9b0443d73981","ios":"levelo://app?vid=0d6943c3-cee4-48aa-aad4-9b0443d73981"},"vehicle_type_id":"4","last_reported":1740564634,"current_range_meters":7200,"station_id":"ce4bh192rcd13ifvqdc0","pricing_plan_id":"cebpf4jnsgd1na2vs0mg"},{"bike_id":"fd989f9b-c206-42e1-9b73-4174141497be","system_id":"levelo_inurba_marseille","lat":43.30896,"lon":5.39648,"is_reserved":false,"is_disabled":false,"rental_uris":{"android":"levelo://app?vid=fd989f9b-c206-42e1-9b73-4174141497be","ios":"levelo://app?vid=fd989f9b-c206-42e1-9b73-4174141497be"},"vehicle_type_id":"4","last_reported":1740564634,"current_range_meters":7200,"station_id":"ce4bh012rcd13ifvqcv0","pricing_plan_id":"cebpf4jnsgd1na2vs0mg"},{"bike_id":"d195c036-1441-4910-bcb8-60d709890867","system_id":"levelo_inurba_marseille","lat":43.2416,"lon":5.36396,"is_reserved":false,"is_disabled":false,"rental_uris":{"android":"levelo://app?vid=d195c036-1441-4910-bcb8-60d709890867","ios":"levelo://app?vid=d195c036-1441-4910-bcb8-60d709890867"},"vehicle_type_id":"4","last_reported":1740564634,"current_range_meters":8000,"station_id":"cpo36qri1sfpv3e86is0","pricing_plan_id":"cebpf4jnsgd1na2vs0mg"},{"bike_id":"64604e48-7463-4eb1-9c72-a67b9c58cd25","system_id":"levelo_inurba_marseille","lat":43.31352,"lon":5.36729,"is_reserved":false,"is_disabled":false,"rental_uris":{"android":"levelo://app?vid=64604e48-7463-4eb1-9c72-a67b9c58cd25","ios":"levelo://app?vid=64604e48-7463-4eb1-9c72-a67b9c58cd25"},"vehicle_type_id":"4","last_reported":1740564634,"current_range_meters":8000,"station_id":"ce4bgr92rcd13ifvqc6g","pricing_plan_id":"cebpf4jnsgd1na2vs0mg"},{"bike_id":"1f8430a0-a831-441d-a382-be3bd24fffbf","system_id":"levelo_inurba_marseille","lat":43.281561,"lon":5.426426,"is_reserved":false,"is_disabled":false,"rental_uris":{"android":"levelo://app?vid=1f8430a0-a831-441d-a382-be3bd24fffbf","ios":"levelo://app?vid=1f8430a0-a831-441d-a382-be3bd24fffbf"},"vehicle_type_id":"4","last_reported":1740564634,"current_range_meters":8000,"station_id":"ce4bgh92rcd13ifvqb50","pricing_plan_id":"cebpf4jnsgd1na2vs0mg"},{"bike_id":"6e7dc168-d384-462a-9e48-e7eb22ec3d79","system_id":"levelo_inurba_marseille","lat":43.28268,"lon":5.35075,"is_reserved":false,"is_disabled":true,"rental_uris":{"android":"levelo://app?vid=6e7dc168-d384-462a-9e48-e7eb22ec3d79","ios":"levelo://app?vid=6e7dc168-d384-462a-9e48-e7eb22ec3d79"},"vehicle_type_id":"4","last_reported":1740564634,"current_range_meters":8000,"station_id":"ce4bhbp2rcd13ifvqerg","pricing_plan_id":"cebpf4jnsgd1na2vs0mg"},{"bike_id":"3ff97877-4a55-4663-9acd-eca55a48980c","system_id":"levelo_inurba_marseille","lat":43.275,"lon":5.42492,"is_reserved":false,"is_disabled":false,"rental_uris":{"android":"levelo://app?vid=3ff97877-4a55-4663-9acd-eca55a48980c","ios":"levelo://app?vid=3ff97877-4a55-4663-9acd-eca55a48980c"},"vehicle_type_id":"4","last_reported":1740564634,"current_range_meters":8000,"station_id":"ce4bhn92rcd13ifvqgrg","pricing_plan_id":"cebpf4jnsgd1na2vs0mg"},{"bike_id":"c405406a-0919-45e3-83f8-567ea8622701","system_id":"levelo_inurba_marseille","lat":43.24168,"lon":5.39748,"is_reserved":false,"is_disabled":false,"rental_uris":{"android":"levelo://app?vid=c405406a-0919-45e3-83f8-567ea8622701","ios":"levelo://app?vid=c405406a-0919-45e3-83f8-567ea8622701"},"vehicle_type_id":"4","last_reported":1740564634,"current_range_meters":8000,"station_id":"ce4bhn12rcd13ifvqgpg","pricing_plan_id":"cebpf4jnsgd1na2vs0mg"},{"bike_id":"8a347558-4d24-4798-bc0f-3e92792b691e","system_id":"levelo_inurba_marseille","lat":43.31225,"lon":5.36845,"is_reserved":false,"is_disabled":false,"rental_uris":{"android":"levelo://app?vid=8a347558-4d24-4798-bc0f-3e92792b691e","ios":"levelo://app?vid=8a347558-4d24-4798-bc0f-3e92792b691e"},"vehicle_type_id":"4","last_reported":1740564634,"current_range_meters":8000,"station_id":"ce4bgl92rcd13ifvqbq0","pricing_plan_id":"cebpf4jnsgd1na2vs0mg"},{"bike_id":"db3b94ae-fdec-481c-a029-9ee82e1773a4","system_id":"levelo_inurba_marseille","lat":43.30905,"lon":5.36852,"is_reserved":false,"is_disabled":false,"rental_uris":{"android":"levelo://app?vid=db3b94ae-fdec-481c-a029-9ee82e1773a4","ios":"levelo://app?vid=db3b94ae-fdec-481c-a029-9ee82e1773a4"},"vehicle_type_id":"4","last_reported":1740564634,"current_range_meters":8000,"station_id":"ce4bgn92rcd13ifvqbvg","pricing_plan_id":"cebpf4jnsgd1na2vs0mg"},{"bike_id":"fa0fd479-49df-47e5-9d21-fe77857465d8","system_id":"levelo_inurba_marseille","lat":43.239675,"lon":5.366351,"is_reserved":false,"is_disabled":false,"rental_uris":{"android":"levelo://app?vid=fa0fd479-49df-47e5-9d21-fe77857465d8","ios":"levelo://app?vid=fa0fd479-49df-47e5-9d21-fe77857465d8"},"vehicle_type_id":"4","last_reported":1740564634,"current_range_meters":8000,"station_id":"ce4bhi12rcd13ifvqfp0","pricing_plan_id":"cebpf4jnsgd1na2vs0mg"},{"bike_id":"323eaf4c-5f93-49ac-8c47-a44e54e85524","system_id":"levelo_inurba_marseille","lat":43.28708,"lon":5.39997,"is_reserved":false,"is_disabled":false,"rental_uris":{"android":"levelo://app?vid=323eaf4c-5f93-49ac-8c47-a44e54e85524","ios":"levelo://app?vid=323eaf4c-5f93-49ac-8c47-a44e54e85524"},"vehicle_type_id":"4","last_reported":1740564634,"current_range_meters":8400,"station_id":"ce4bho92rcd13ifvqh3g","pricing_plan_id":"cebpf4jnsgd1na2vs0mg"},{"bike_id":"4669b121-6e06-4449-9c5c-294e3531f7ce","system_id":"levelo_inurba_marseille","lat":43.31357,"lon":5.36711,"is_reserved":false,"is_disabled":false,"rental_uris":{"android":"levelo://app?vid=4669b121-6e06-4449-9c5c-294e3531f7ce","ios":"levelo://app?vid=4669b121-6e06-4449-9c5c-294e3531f7ce"},"vehicle_type_id":"4","last_reported":1740564634,"current_range_meters":8400,"station_id":"ce4bgr92rcd13ifvqc6g","pricing_plan_id":"cebpf4jnsgd1na2vs0mg"},{"bike_id":"a41bdf08-e32d-40ba-9fbb-06b9421a8b4f","system_id":"levelo_inurba_marseille","lat":43.27307,"lon":5.39104,"is_reserved":false,"is_disabled":false,"rental_uris":{"android":"levelo://app?vid=a41bdf08-e32d-40ba-9fbb-06b9421a8b4f","ios":"levelo://app?vid=a41bdf08-e32d-40ba-9fbb-06b9421a8b4f"},"vehicle_type_id":"4","last_reported":1740564634,"current_range_meters":8400,"station_id":"ce4bhgp2rcd13ifvqfe0","pricing_plan_id":"cebpf4jnsgd1na2vs0mg"},{"bike_id":"05f51bd6-bf8c-4b6c-ba2f-d7bf7cec3006","system_id":"levelo_inurba_marseille","lat":43.23194,"lon":5.35559,"is_reserved":false,"is_disabled":false,"rental_uris":{"android":"levelo://app?vid=05f51bd6-bf8c-4b6c-ba2f-d7bf7cec3006","ios":"levelo://app?vid=05f51bd6-bf8c-4b6c-ba2f-d7bf7cec3006"},"vehicle_type_id":"4","last_reported":1740564634,"current_range_meters":9600,"station_id":"ce4bhu92rcd13ifvqi70","pricing_plan_id":"cebpf4jnsgd1na2vs0mg"},{"bike_id":"0755804b-e938-4970-a1f5-1ee40c67f3e0","system_id":"levelo_inurba_marseille","lat":43.24069,"lon":5.37755,"is_reserved":false,"is_disabled":false,"rental_uris":{"android":"levelo://app?vid=0755804b-e938-4970-a1f5-1ee40c67f3e0","ios":"levelo://app?vid=0755804b-e938-4970-a1f5-1ee40c67f3e0"},"vehicle_type_id":"4","last_reported":1740564634,"current_range_meters":8400,"station_id":"ce4bhnp2rcd13ifvqgvg","pricing_plan_id":"cebpf4jnsgd1na2vs0mg"},{"bike_id":"a1ca3ad0-4f52-4569-bb87-4293f6934d8b","system_id":"levelo_inurba_marseille","lat":43.23189,"lon":5.35545,"is_reserved":false,"is_disabled":false,"rental_uris":{"android":"levelo://app?vid=a1ca3ad0-4f52-4569-bb87-4293f6934d8b","ios":"levelo://app?vid=a1ca3ad0-4f52-4569-bb87-4293f6934d8b"},"vehicle_type_id":"4","last_reported":1740564634,"current_range_meters":8400,"station_id":"ce4bhu92rcd13ifvqi70","pricing_plan_id":"cebpf4jnsgd1na2vs0mg"},{"bike_id":"b7e76cce-cd59-41fc-bddd-abd519a7d294","system_id":"levelo_inurba_marseille","lat":43.33764,"lon":5.37477,"is_reserved":false,"is_disabled":false,"rental_uris":{"android":"levelo://app?vid=b7e76cce-cd59-41fc-bddd-abd519a7d294","ios":"levelo://app?vid=b7e76cce-cd59-41fc-bddd-abd519a7d294"},"vehicle_type_id":"4","last_reported":1740564634,"current_range_meters":8400,"station_id":"","pricing_plan_id":"cebpf4jnsgd1na2vs0mg"},{"bike_id":"a807631f-b70f-46a8-b8e4-24d3684b48f5","system_id":"levelo_inurba_marseille","lat":43.3091,"lon":5.36857,"is_reserved":false,"is_disabled":false,"rental_uris":{"android":"levelo://app?vid=a807631f-b70f-46a8-b8e4-24d3684b48f5","ios":"levelo://app?vid=a807631f-b70f-46a8-b8e4-24d3684b48f5"},"vehicle_type_id":"4","last_reported":1740564634,"current_range_meters":8800,"station_id":"ce4bgn92rcd13ifvqbvg","pricing_plan_id":"cebpf4jnsgd1na2vs0mg"},{"bike_id":"f5232ca0-a0ea-4b65-9be9-c58c9ab586fb","system_id":"levelo_inurba_marseille","lat":43.28212,"lon":5.4264,"is_reserved":false,"is_disabled":false,"rental_uris":{"android":"levelo://app?vid=f5232ca0-a0ea-4b65-9be9-c58c9ab586fb","ios":"levelo://app?vid=f5232ca0-a0ea-4b65-9be9-c58c9ab586fb"},"vehicle_type_id":"4","last_reported":1740564634,"current_range_meters":10000,"station_id":"ce4bhnh2rcd13ifvqgug","pricing_plan_id":"cebpf4jnsgd1na2vs0mg"},{"bike_id":"9f6b1a57-8b18-4910-92c4-7c3c71b26e15","system_id":"levelo_inurba_marseille","lat":43.23356,"lon":5.36009,"is_reserved":false,"is_disabled":false,"rental_uris":{"android":"levelo://app?vid=9f6b1a57-8b18-4910-92c4-7c3c71b26e15","ios":"levelo://app?vid=9f6b1a57-8b18-4910-92c4-7c3c71b26e15"},"vehicle_type_id":"4","last_reported":1740564634,"current_range_meters":8800,"station_id":"","pricing_plan_id":"cebpf4jnsgd1na2vs0mg"},{"bike_id":"7e6afd80-415b-451c-8581-71cb5ca88d43","system_id":"levelo_inurba_marseille","lat":43.23148,"lon":5.43707,"is_reserved":false,"is_disabled":false,"rental_uris":{"android":"levelo://app?vid=7e6afd80-415b-451c-8581-71cb5ca88d43","ios":"levelo://app?vid=7e6afd80-415b-451c-8581-71cb5ca88d43"},"vehicle_type_id":"4","last_reported":1740564634,"current_range_meters":8800,"station_id":"ce4bhmp2rcd13ifvqgog","pricing_plan_id":"cebpf4jnsgd1na2vs0mg"},{"bike_id":"922cd14d-e237-4cd7-9a28-4c537b4332f6","system_id":"levelo_inurba_marseille","lat":43.29219,"lon":5.39535,"is_reserved":false,"is_disabled":false,"rental_uris":{"android":"levelo://app?vid=922cd14d-e237-4cd7-9a28-4c537b4332f6","ios":"levelo://app?vid=922cd14d-e237-4cd7-9a28-4c537b4332f6"},"vehicle_type_id":"4","last_reported":1740564634,"current_range_meters":9200,"station_id":"ce4bh0h2rcd13ifvqd50","pricing_plan_id":"cebpf4jnsgd1na2vs0mg"},{"bike_id":"53ea8d78-c003-44dc-9f3f-23b519078b62","system_id":"levelo_inurba_marseille","lat":43.31359,"lon":5.36719,"is_reserved":false,"is_disabled":false,"rental_uris":{"android":"levelo://app?vid=53ea8d78-c003-44dc-9f3f-23b519078b62","ios":"levelo://app?vid=53ea8d78-c003-44dc-9f3f-23b519078b62"},"vehicle_type_id":"4","last_reported":1740564634,"current_range_meters":8800,"station_id":"ce4bgr92rcd13ifvqc6g","pricing_plan_id":"cebpf4jnsgd1na2vs0mg"},{"bike_id":"53d5ec87-e6ba-4f62-b996-318e78dadae9","system_id":"levelo_inurba_marseille","lat":43.33603,"lon":5.41027,"is_reserved":false,"is_disabled":false,"rental_uris":{"android":"levelo://app?vid=53d5ec87-e6ba-4f62-b996-318e78dadae9","ios":"levelo://app?vid=53d5ec87-e6ba-4f62-b996-318e78dadae9"},"vehicle_type_id":"4","last_reported":1740564634,"current_range_meters":8800,"station_id":"ce4bhqh2rcd13ifvqhmg","pricing_plan_id":"cebpf4jnsgd1na2vs0mg"},{"bike_id":"ed03659e-e93b-4b39-8092-18f793f1fc65","system_id":"levelo_inurba_marseille","lat":43.29901,"lon":5.37464,"is_reserved":false,"is_disabled":false,"rental_uris":{"android":"levelo://app?vid=ed03659e-e93b-4b39-8092-18f793f1fc65","ios":"levelo://app?vid=ed03659e-e93b-4b39-8092-18f793f1fc65"},"vehicle_type_id":"4","last_reported":1740564634,"current_range_meters":8800,"station_id":"ce4bgjh2rcd13ifvqbg0","pricing_plan_id":"cebpf4jnsgd1na2vs0mg"},{"bike_id":"dcdfafc4-ad04-4f03-b713-a44cb5c77c53","system_id":"levelo_inurba_marseille","lat":43.29557,"lon":5.39961,"is_reserved":false,"is_disabled":true,"rental_uris":{"android":"levelo://app?vid=dcdfafc4-ad04-4f03-b713-a44cb5c77c53","ios":"levelo://app?vid=dcdfafc4-ad04-4f03-b713-a44cb5c77c53"},"vehicle_type_id":"4","last_reported":1740564634,"current_range_meters":8800,"station_id":"ce4bh312rcd13ifvqdj0","pricing_plan_id":"cebpf4jnsgd1na2vs0mg"},{"bike_id":"ca2319ce-15bc-419c-bc45-b8d45416be95","system_id":"levelo_inurba_marseille","lat":43.25509,"lon":5.37665,"is_reserved":false,"is_disabled":false,"rental_uris":{"android":"levelo://app?vid=ca2319ce-15bc-419c-bc45-b8d45416be95","ios":"levelo://app?vid=ca2319ce-15bc-419c-bc45-b8d45416be95"},"vehicle_type_id":"4","last_reported":1740564634,"current_range_meters":8800,"station_id":"ce4bhh12rcd13ifvqff0","pricing_plan_id":"cebpf4jnsgd1na2vs0mg"},{"bike_id":"89be2b48-0a1f-4294-aa42-5f3eb290236e","system_id":"levelo_inurba_marseille","lat":43.28101,"lon":5.37846,"is_reserved":false,"is_disabled":false,"rental_uris":{"android":"levelo://app?vid=89be2b48-0a1f-4294-aa42-5f3eb290236e","ios":"levelo://app?vid=89be2b48-0a1f-4294-aa42-5f3eb290236e"},"vehicle_type_id":"4","last_reported":1740564634,"current_range_meters":9600,"station_id":"ce4bha12rcd13ifvqee0","pricing_plan_id":"cebpf4jnsgd1na2vs0mg"},{"bike_id":"13301daf-0444-439c-90f5-309514bd90a4","system_id":"levelo_inurba_marseille","lat":43.31531,"lon":5.38023,"is_reserved":false,"is_disabled":false,"rental_uris":{"android":"levelo://app?vid=13301daf-0444-439c-90f5-309514bd90a4","ios":"levelo://app?vid=13301daf-0444-439c-90f5-309514bd90a4"},"vehicle_type_id":"4","last_reported":1740564634,"current_range_meters":9200,"station_id":"ce4bhsp2rcd13ifvqi50","pricing_plan_id":"cebpf4jnsgd1na2vs0mg"},{"bike_id":"6bde17a0-6e11-4413-bf1b-d6751ce7e53e","system_id":"levelo_inurba_marseille","lat":43.25497,"lon":5.37643,"is_reserved":false,"is_disabled":false,"rental_uris":{"android":"levelo://app?vid=6bde17a0-6e11-4413-bf1b-d6751ce7e53e","ios":"levelo://app?vid=6bde17a0-6e11-4413-bf1b-d6751ce7e53e"},"vehicle_type_id":"4","last_reported":1740564634,"current_range_meters":9200,"station_id":"ce4bhh12rcd13ifvqff0","pricing_plan_id":"cebpf4jnsgd1na2vs0mg"},{"bike_id":"34c4c817-ef7d-48f7-949e-4dfe87e89717","system_id":"levelo_inurba_marseille","lat":43.29285,"lon":5.38447,"is_reserved":false,"is_disabled":false,"rental_uris":{"android":"levelo://app?vid=34c4c817-ef7d-48f7-949e-4dfe87e89717","ios":"levelo://app?vid=34c4c817-ef7d-48f7-949e-4dfe87e89717"},"vehicle_type_id":"4","last_reported":1740564634,"current_range_meters":8800,"station_id":"ce4bh692rcd13ifvqea0","pricing_plan_id":"cebpf4jnsgd1na2vs0mg"},{"bike_id":"c1e1cfc9-4e56-4f7a-94a9-2d01d9bb2a93","system_id":"levelo_inurba_marseille","lat":43.24805,"lon":5.37451,"is_reserved":false,"is_disabled":false,"rental_uris":{"android":"levelo://app?vid=c1e1cfc9-4e56-4f7a-94a9-2d01d9bb2a93","ios":"levelo://app?vid=c1e1cfc9-4e56-4f7a-94a9-2d01d9bb2a93"},"vehicle_type_id":"4","last_reported":1740564634,"current_range_meters":9600,"station_id":"ce4bhgh2rcd13ifvqfb0","pricing_plan_id":"cebpf4jnsgd1na2vs0mg"},{"bike_id":"583a5a17-c333-4260-b23d-d1e216a539c3","system_id":"levelo_inurba_marseille","lat":43.29237,"lon":5.40915,"is_reserved":false,"is_disabled":false,"rental_uris":{"android":"levelo://app?vid=583a5a17-c333-4260-b23d-d1e216a539c3","ios":"levelo://app?vid=583a5a17-c333-4260-b23d-d1e216a539c3"},"vehicle_type_id":"4","last_reported":1740564634,"current_range_meters":9600,"station_id":"ce4bh192rcd13ifvqdc0","pricing_plan_id":"cebpf4jnsgd1na2vs0mg"},{"bike_id":"89e44665-812f-48fa-aa8d-ed00c6be9914","system_id":"levelo_inurba_marseille","lat":43.25825,"lon":5.39422,"is_reserved":false,"is_disabled":false,"rental_uris":{"android":"levelo://app?vid=89e44665-812f-48fa-aa8d-ed00c6be9914","ios":"levelo://app?vid=89e44665-812f-48fa-aa8d-ed00c6be9914"},"vehicle_type_id":"4","last_reported":1740564634,"current_range_meters":9600,"station_id":"ce4bhip2rcd13ifvqft0","pricing_plan_id":"cebpf4jnsgd1na2vs0mg"},{"bike_id":"2d6245df-e129-4054-ac20-c4995706d8ba","system_id":"levelo_inurba_marseille","lat":43.28477,"lon":5.38559,"is_reserved":false,"is_disabled":false,"rental_uris":{"android":"levelo://app?vid=2d6245df-e129-4054-ac20-c4995706d8ba","ios":"levelo://app?vid=2d6245df-e129-4054-ac20-c4995706d8ba"},"vehicle_type_id":"4","last_reported":1740564634,"current_range_meters":9600,"station_id":"ce4bh8p2rcd13ifvqeb0","pricing_plan_id":"cebpf4jnsgd1na2vs0mg"},{"bike_id":"009cdcb2-4b54-438b-a5c4-f7ef8e65d688","system_id":"levelo_inurba_marseille","lat":43.27316,"lon":5.39106,"is_reserved":false,"is_disabled":false,"rental_uris":{"android":"levelo://app?vid=009cdcb2-4b54-438b-a5c4-f7ef8e65d688","ios":"levelo://app?vid=009cdcb2-4b54-438b-a5c4-f7ef8e65d688"},"vehicle_type_id":"4","last_reported":1740564634,"current_range_meters":9600,"station_id":"ce4bhgp2rcd13ifvqfe0","pricing_plan_id":"cebpf4jnsgd1na2vs0mg"},{"bike_id":"07dfa922-6c33-4c8b-b368-6e5fb9f1cbca","system_id":"levelo_inurba_marseille","lat":43.27422,"lon":5.39409,"is_reserved":false,"is_disabled":false,"rental_uris":{"android":"levelo://app?vid=07dfa922-6c33-4c8b-b368-6e5fb9f1cbca","ios":"levelo://app?vid=07dfa922-6c33-4c8b-b368-6e5fb9f1cbca"},"vehicle_type_id":"4","last_reported":1740564634,"current_range_meters":9200,"station_id":"ce4bhdp2rcd13ifvqf20","pricing_plan_id":"cebpf4jnsgd1na2vs0mg"},{"bike_id":"d0801915-0de0-4f9d-9726-750b42c06614","system_id":"levelo_inurba_marseille","lat":43.32106,"lon":5.36784,"is_reserved":false,"is_disabled":false,"rental_uris":{"android":"levelo://app?vid=d0801915-0de0-4f9d-9726-750b42c06614","ios":"levelo://app?vid=d0801915-0de0-4f9d-9726-750b42c06614"},"vehicle_type_id":"4","last_reported":1740564634,"current_range_meters":11200,"station_id":"ce4bhrh2rcd13ifvqhug","pricing_plan_id":"cebpf4jnsgd1na2vs0mg"},{"bike_id":"c52acbad-9974-48d6-b92b-1d6c12a1b66d","system_id":"levelo_inurba_marseille","lat":43.25947,"lon":5.40945,"is_reserved":false,"is_disabled":false,"rental_uris":{"android":"levelo://app?vid=c52acbad-9974-48d6-b92b-1d6c12a1b66d","ios":"levelo://app?vid=c52acbad-9974-48d6-b92b-1d6c12a1b66d"},"vehicle_type_id":"4","last_reported":1740564634,"current_range_meters":10000,"station_id":"ce4bhm92rcd13ifvqglg","pricing_plan_id":"cebpf4jnsgd1na2vs0mg"},{"bike_id":"f46cda59-f9d1-427e-a815-ee2556ac4bbe","system_id":"levelo_inurba_marseille","lat":43.29181,"lon":5.38609,"is_reserved":false,"is_disabled":false,"rental_uris":{"android":"levelo://app?vid=f46cda59-f9d1-427e-a815-ee2556ac4bbe","ios":"levelo://app?vid=f46cda59-f9d1-427e-a815-ee2556ac4bbe"},"vehicle_type_id":"4","last_reported":1740564634,"current_range_meters":10800,"station_id":"","pricing_plan_id":"cebpf4jnsgd1na2vs0mg"},{"bike_id":"1031ca96-2243-454f-b9df-49ccbf51496a","system_id":"levelo_inurba_marseille","lat":43.27067,"lon":5.42267,"is_reserved":false,"is_disabled":false,"rental_uris":{"android":"levelo://app?vid=1031ca96-2243-454f-b9df-49ccbf51496a","ios":"levelo://app?vid=1031ca96-2243-454f-b9df-49ccbf51496a"},"vehicle_type_id":"4","last_reported":1740564634,"current_range_meters":10000,"station_id":"ce4bhk92rcd13ifvqgb0","pricing_plan_id":"cebpf4jnsgd1na2vs0mg"},{"bike_id":"7c8aaa9b-e43a-43de-8b4f-a531a44d3724","system_id":"levelo_inurba_marseille","lat":43.27953,"lon":5.41061,"is_reserved":false,"is_disabled":false,"rental_uris":{"android":"levelo://app?vid=7c8aaa9b-e43a-43de-8b4f-a531a44d3724","ios":"levelo://app?vid=7c8aaa9b-e43a-43de-8b4f-a531a44d3724"},"vehicle_type_id":"4","last_reported":1740564634,"current_range_meters":10000,"station_id":"ce4bhnp2rcd13ifvqh0g","pricing_plan_id":"cebpf4jnsgd1na2vs0mg"},{"bike_id":"6b286004-f086-4023-9675-02a95f8e917b","system_id":"levelo_inurba_marseille","lat":43.30952,"lon":5.39071,"is_reserved":false,"is_disabled":true,"rental_uris":{"android":"levelo://app?vid=6b286004-f086-4023-9675-02a95f8e917b","ios":"levelo://app?vid=6b286004-f086-4023-9675-02a95f8e917b"},"vehicle_type_id":"4","last_reported":1740564634,"current_range_meters":10000,"station_id":"ce4bgup2rcd13ifvqco0","pricing_plan_id":"cebpf4jnsgd1na2vs0mg"},{"bike_id":"b007f058-4163-4bbe-ba13-50835769bd43","system_id":"levelo_inurba_marseille","lat":43.31707,"lon":5.43713,"is_reserved":false,"is_disabled":false,"rental_uris":{"android":"levelo://app?vid=b007f058-4163-4bbe-ba13-50835769bd43","ios":"levelo://app?vid=b007f058-4163-4bbe-ba13-50835769bd43"},"vehicle_type_id":"4","last_reported":1740564634,"current_range_meters":10000,"station_id":"ce4bhp92rcd13ifvqhcg","pricing_plan_id":"cebpf4jnsgd1na2vs0mg"},{"bike_id":"f6b4bd05-4d81-4c6a-bcb1-c45cae8f40e4","system_id":"levelo_inurba_marseille","lat":43.28911,"lon":5.38393,"is_reserved":false,"is_disabled":false,"rental_uris":{"android":"levelo://app?vid=f6b4bd05-4d81-4c6a-bcb1-c45cae8f40e4","ios":"levelo://app?vid=f6b4bd05-4d81-4c6a-bcb1-c45cae8f40e4"},"vehicle_type_id":"4","last_reported":1740564634,"current_range_meters":9600,"station_id":"ce4bh612rcd13ifvqe6g","pricing_plan_id":"cebpf4jnsgd1na2vs0mg"},{"bike_id":"79e16d4b-e84f-45d9-b980-40832126fd03","system_id":"levelo_inurba_marseille","lat":43.2315,"lon":5.43714,"is_reserved":false,"is_disabled":false,"rental_uris":{"android":"levelo://app?vid=79e16d4b-e84f-45d9-b980-40832126fd03","ios":"levelo://app?vid=79e16d4b-e84f-45d9-b980-40832126fd03"},"vehicle_type_id":"4","last_reported":1740564634,"current_range_meters":10000,"station_id":"ce4bhmp2rcd13ifvqgog","pricing_plan_id":"cebpf4jnsgd1na2vs0mg"},{"bike_id":"799474af-679e-4d15-8578-dabcfec339b3","system_id":"levelo_inurba_marseille","lat":43.27765,"lon":5.3563,"is_reserved":false,"is_disabled":false,"rental_uris":{"android":"levelo://app?vid=799474af-679e-4d15-8578-dabcfec339b3","ios":"levelo://app?vid=799474af-679e-4d15-8578-dabcfec339b3"},"vehicle_type_id":"4","last_reported":1740564634,"current_range_meters":10000,"station_id":"ce4bhah2rcd13ifvqei0","pricing_plan_id":"cebpf4jnsgd1na2vs0mg"},{"bike_id":"22093035-f134-4c2f-b11f-29b8fd35c2f5","system_id":"levelo_inurba_marseille","lat":43.30875,"lon":5.39655,"is_reserved":false,"is_disabled":false,"rental_uris":{"android":"levelo://app?vid=22093035-f134-4c2f-b11f-29b8fd35c2f5","ios":"levelo://app?vid=22093035-f134-4c2f-b11f-29b8fd35c2f5"},"vehicle_type_id":"4","last_reported":1740564634,"current_range_meters":10000,"station_id":"ce4bh012rcd13ifvqcv0","pricing_plan_id":"cebpf4jnsgd1na2vs0mg"},{"bike_id":"06f66f75-c84f-4aed-9792-8d1609f95dd5","system_id":"levelo_inurba_marseille","lat":43.30949,"lon":5.39039,"is_reserved":false,"is_disabled":false,"rental_uris":{"android":"levelo://app?vid=06f66f75-c84f-4aed-9792-8d1609f95dd5","ios":"levelo://app?vid=06f66f75-c84f-4aed-9792-8d1609f95dd5"},"vehicle_type_id":"4","last_reported":1740564634,"current_range_meters":10800,"station_id":"ce4bgup2rcd13ifvqco0","pricing_plan_id":"cebpf4jnsgd1na2vs0mg"},{"bike_id":"4b9ef3c9-7fe3-4a9d-a550-20dd952e248b","system_id":"levelo_inurba_marseille","lat":43.30463,"lon":5.37914,"is_reserved":false,"is_disabled":false,"rental_uris":{"android":"levelo://app?vid=4b9ef3c9-7fe3-4a9d-a550-20dd952e248b","ios":"levelo://app?vid=4b9ef3c9-7fe3-4a9d-a550-20dd952e248b"},"vehicle_type_id":"4","last_reported":1740564634,"current_range_meters":9200,"station_id":"ce4bgup2rcd13ifvqcn0","pricing_plan_id":"cebpf4jnsgd1na2vs0mg"},{"bike_id":"bce089a5-fef8-4dd4-99b0-59c44251461c","system_id":"levelo_inurba_marseille","lat":43.30917,"lon":5.36859,"is_reserved":false,"is_disabled":false,"rental_uris":{"android":"levelo://app?vid=bce089a5-fef8-4dd4-99b0-59c44251461c","ios":"levelo://app?vid=bce089a5-fef8-4dd4-99b0-59c44251461c"},"vehicle_type_id":"4","last_reported":1740564634,"current_range_meters":10800,"station_id":"ce4bgn92rcd13ifvqbvg","pricing_plan_id":"cebpf4jnsgd1na2vs0mg"},{"bike_id":"7bc75e41-218a-43bd-8557-5680af7ef8e8","system_id":"levelo_inurba_marseille","lat":43.27975,"lon":5.38748,"is_reserved":false,"is_disabled":false,"rental_uris":{"android":"levelo://app?vid=7bc75e41-218a-43bd-8557-5680af7ef8e8","ios":"levelo://app?vid=7bc75e41-218a-43bd-8557-5680af7ef8e8"},"vehicle_type_id":"4","last_reported":1740564634,"current_range_meters":9600,"station_id":"ce4bhg12rcd13ifvqf80","pricing_plan_id":"cebpf4jnsgd1na2vs0mg"},{"bike_id":"8b4216bb-e237-48db-9aed-8af745c15fcd","system_id":"levelo_inurba_marseille","lat":43.30165,"lon":5.38091,"is_reserved":false,"is_disabled":false,"rental_uris":{"android":"levelo://app?vid=8b4216bb-e237-48db-9aed-8af745c15fcd","ios":"levelo://app?vid=8b4216bb-e237-48db-9aed-8af745c15fcd"},"vehicle_type_id":"4","last_reported":1740564634,"current_range_meters":10000,"station_id":"ce4bgjp2rcd13ifvqbh0","pricing_plan_id":"cebpf4jnsgd1na2vs0mg"},{"bike_id":"507cc0ef-334e-41d1-8083-ab2cc3f7c562","system_id":"levelo_inurba_marseille","lat":43.25012,"lon":5.38931,"is_reserved":false,"is_disabled":false,"rental_uris":{"android":"levelo://app?vid=507cc0ef-334e-41d1-8083-ab2cc3f7c562","ios":"levelo://app?vid=507cc0ef-334e-41d1-8083-ab2cc3f7c562"},"vehicle_type_id":"4","last_reported":1740564634,"current_range_meters":15200,"station_id":"ce4bhgp2rcd13ifvqfd0","pricing_plan_id":"cebpf4jnsgd1na2vs0mg"},{"bike_id":"b9ed78f3-03f2-4baa-b549-c94d0e0ca6a8","system_id":"levelo_inurba_marseille","lat":43.290291,"lon":5.38652,"is_reserved":false,"is_disabled":false,"rental_uris":{"android":"levelo://app?vid=b9ed78f3-03f2-4baa-b549-c94d0e0ca6a8","ios":"levelo://app?vid=b9ed78f3-03f2-4baa-b549-c94d0e0ca6a8"},"vehicle_type_id":"4","last_reported":1740564634,"current_range_meters":11200,"station_id":"","pricing_plan_id":"cebpf4jnsgd1na2vs0mg"},{"bike_id":"26a9ecf4-e365-4fda-82f3-67ebe72e96cf","system_id":"levelo_inurba_marseille","lat":43.28441,"lon":5.39199,"is_reserved":false,"is_disabled":false,"rental_uris":{"android":"levelo://app?vid=26a9ecf4-e365-4fda-82f3-67ebe72e96cf","ios":"levelo://app?vid=26a9ecf4-e365-4fda-82f3-67ebe72e96cf"},"vehicle_type_id":"4","last_reported":1740564634,"current_range_meters":16400,"station_id":"ce4bhoh2rcd13ifvqh5g","pricing_plan_id":"cebpf4jnsgd1na2vs0mg"},{"bike_id":"0c46036d-ee82-4be4-949f-af996e5a4027","system_id":"levelo_inurba_marseille","lat":43.28001,"lon":5.41665,"is_reserved":false,"is_disabled":false,"rental_uris":{"android":"levelo://app?vid=0c46036d-ee82-4be4-949f-af996e5a4027","ios":"levelo://app?vid=0c46036d-ee82-4be4-949f-af996e5a4027"},"vehicle_type_id":"4","last_reported":1740564634,"current_range_meters":12000,"station_id":"ce4bho12rcd13ifvqh1g","pricing_plan_id":"cebpf4jnsgd1na2vs0mg"},{"bike_id":"3b813646-2f34-401c-a684-d6f0dbc0aa61","system_id":"levelo_inurba_marseille","lat":43.25494,"lon":5.3765,"is_reserved":false,"is_disabled":false,"rental_uris":{"android":"levelo://app?vid=3b813646-2f34-401c-a684-d6f0dbc0aa61","ios":"levelo://app?vid=3b813646-2f34-401c-a684-d6f0dbc0aa61"},"vehicle_type_id":"4","last_reported":1740564634,"current_range_meters":11600,"station_id":"ce4bhh12rcd13ifvqff0","pricing_plan_id":"cebpf4jnsgd1na2vs0mg"},{"bike_id":"da173553-d0a7-468e-b78c-d7eb0f3e2e18","system_id":"levelo_inurba_marseille","lat":43.30283,"lon":5.39227,"is_reserved":false,"is_disabled":false,"rental_uris":{"android":"levelo://app?vid=da173553-d0a7-468e-b78c-d7eb0f3e2e18","ios":"levelo://app?vid=da173553-d0a7-468e-b78c-d7eb0f3e2e18"},"vehicle_type_id":"4","last_reported":1740564634,"current_range_meters":11600,"station_id":"ce4bgkh2rcd13ifvqbk0","pricing_plan_id":"cebpf4jnsgd1na2vs0mg"},{"bike_id":"01783c60-cdd4-4925-b30f-2f3020328abe","system_id":"levelo_inurba_marseille","lat":43.25506,"lon":5.37651,"is_reserved":false,"is_disabled":false,"rental_uris":{"android":"levelo://app?vid=01783c60-cdd4-4925-b30f-2f3020328abe","ios":"levelo://app?vid=01783c60-cdd4-4925-b30f-2f3020328abe"},"vehicle_type_id":"4","last_reported":1740564634,"current_range_meters":11600,"station_id":"ce4bhh12rcd13ifvqff0","pricing_plan_id":"cebpf4jnsgd1na2vs0mg"},{"bike_id":"67ee95a1-160f-49c1-b11e-b3640680cd0d","system_id":"levelo_inurba_marseille","lat":43.32091,"lon":5.36803,"is_reserved":false,"is_disabled":false,"rental_uris":{"android":"levelo://app?vid=67ee95a1-160f-49c1-b11e-b3640680cd0d","ios":"levelo://app?vid=67ee95a1-160f-49c1-b11e-b3640680cd0d"},"vehicle_type_id":"4","last_reported":1740564634,"current_range_meters":11600,"station_id":"ce4bhrh2rcd13ifvqhug","pricing_plan_id":"cebpf4jnsgd1na2vs0mg"},{"bike_id":"4c7dc81b-289a-4327-bf90-49e714e4da40","system_id":"levelo_inurba_marseille","lat":43.29261,"lon":5.40129,"is_reserved":false,"is_disabled":false,"rental_uris":{"android":"levelo://app?vid=4c7dc81b-289a-4327-bf90-49e714e4da40","ios":"levelo://app?vid=4c7dc81b-289a-4327-bf90-49e714e4da40"},"vehicle_type_id":"4","last_reported":1740564634,"current_range_meters":11600,"station_id":"ce4bh312rcd13ifvqdk0","pricing_plan_id":"cebpf4jnsgd1na2vs0mg"},{"bike_id":"93e93066-e769-4d3a-99b8-d15bc7582c7e","system_id":"levelo_inurba_marseille","lat":43.2497,"lon":5.38917,"is_reserved":false,"is_disabled":false,"rental_uris":{"android":"levelo://app?vid=93e93066-e769-4d3a-99b8-d15bc7582c7e","ios":"levelo://app?vid=93e93066-e769-4d3a-99b8-d15bc7582c7e"},"vehicle_type_id":"4","last_reported":1740564634,"current_range_meters":11600,"station_id":"ce4bhgp2rcd13ifvqfd0","pricing_plan_id":"cebpf4jnsgd1na2vs0mg"},{"bike_id":"51fed62f-6c63-4c64-8399-f0e32e98fa43","system_id":"levelo_inurba_marseille","lat":43.27552,"lon":5.38435,"is_reserved":false,"is_disabled":false,"rental_uris":{"android":"levelo://app?vid=51fed62f-6c63-4c64-8399-f0e32e98fa43","ios":"levelo://app?vid=51fed62f-6c63-4c64-8399-f0e32e98fa43"},"vehicle_type_id":"4","last_reported":1740564634,"current_range_meters":12000,"station_id":"ce4bhh92rcd13ifvqfi0","pricing_plan_id":"cebpf4jnsgd1na2vs0mg"},{"bike_id":"56c90c05-21dd-4258-af01-641c62e92e64","system_id":"levelo_inurba_marseille","lat":43.28614,"lon":5.35106,"is_reserved":false,"is_disabled":false,"rental_uris":{"android":"levelo://app?vid=56c90c05-21dd-4258-af01-641c62e92e64","ios":"levelo://app?vid=56c90c05-21dd-4258-af01-641c62e92e64"},"vehicle_type_id":"4","last_reported":1740564634,"current_range_meters":12000,"station_id":"ce4bhch2rcd13ifvqeug","pricing_plan_id":"cebpf4jnsgd1na2vs0mg"},{"bike_id":"1449bc4b-01db-4fd0-a2b6-9829dc5cbe01","system_id":"levelo_inurba_marseille","lat":43.292693,"lon":5.384387,"is_reserved":false,"is_disabled":false,"rental_uris":{"android":"levelo://app?vid=1449bc4b-01db-4fd0-a2b6-9829dc5cbe01","ios":"levelo://app?vid=1449bc4b-01db-4fd0-a2b6-9829dc5cbe01"},"vehicle_type_id":"4","last_reported":1740564634,"current_range_meters":12000,"station_id":"ce4bh492rcd13ifvqdug","pricing_plan_id":"cebpf4jnsgd1na2vs0mg"},{"bike_id":"5dee255f-bbc2-45a5-911d-822e245a92f2","system_id":"levelo_inurba_marseille","lat":43.24173,"lon":5.39759,"is_reserved":false,"is_disabled":false,"rental_uris":{"android":"levelo://app?vid=5dee255f-bbc2-45a5-911d-822e245a92f2","ios":"levelo://app?vid=5dee255f-bbc2-45a5-911d-822e245a92f2"},"vehicle_type_id":"4","last_reported":1740564634,"current_range_meters":12000,"station_id":"ce4bhn12rcd13ifvqgpg","pricing_plan_id":"cebpf4jnsgd1na2vs0mg"},{"bike_id":"fe85842d-d951-406a-872e-11ab15298ff4","system_id":"levelo_inurba_marseille","lat":43.29061,"lon":5.39976,"is_reserved":false,"is_disabled":false,"rental_uris":{"android":"levelo://app?vid=fe85842d-d951-406a-872e-11ab15298ff4","ios":"levelo://app?vid=fe85842d-d951-406a-872e-11ab15298ff4"},"vehicle_type_id":"4","last_reported":1740564634,"current_range_meters":12000,"station_id":"ce4bh392rcd13ifvqdm0","pricing_plan_id":"cebpf4jnsgd1na2vs0mg"},{"bike_id":"91df6e5d-afa9-43b9-9d78-5051ed581821","system_id":"levelo_inurba_marseille","lat":43.29895,"lon":5.3974,"is_reserved":false,"is_disabled":false,"rental_uris":{"android":"levelo://app?vid=91df6e5d-afa9-43b9-9d78-5051ed581821","ios":"levelo://app?vid=91df6e5d-afa9-43b9-9d78-5051ed581821"},"vehicle_type_id":"4","last_reported":1740564634,"current_range_meters":12400,"station_id":"ce4bh0h2rcd13ifvqd50","pricing_plan_id":"cebpf4jnsgd1na2vs0mg"},{"bike_id":"0b2f5009-1e4e-4593-8abd-b74dc1937c26","system_id":"levelo_inurba_marseille","lat":43.23194,"lon":5.40033,"is_reserved":false,"is_disabled":false,"rental_uris":{"android":"levelo://app?vid=0b2f5009-1e4e-4593-8abd-b74dc1937c26","ios":"levelo://app?vid=0b2f5009-1e4e-4593-8abd-b74dc1937c26"},"vehicle_type_id":"4","last_reported":1740564634,"current_range_meters":12400,"station_id":"ce4bhn12rcd13ifvqgqg","pricing_plan_id":"cebpf4jnsgd1na2vs0mg"},{"bike_id":"4781fb11-d9db-4cd8-974c-942517d7cf68","system_id":"levelo_inurba_marseille","lat":43.27057,"lon":5.40282,"is_reserved":false,"is_disabled":false,"rental_uris":{"android":"levelo://app?vid=4781fb11-d9db-4cd8-974c-942517d7cf68","ios":"levelo://app?vid=4781fb11-d9db-4cd8-974c-942517d7cf68"},"vehicle_type_id":"4","last_reported":1740564634,"current_range_meters":12400,"station_id":"ce4bhk92rcd13ifvqgc0","pricing_plan_id":"cebpf4jnsgd1na2vs0mg"},{"bike_id":"c69f57a8-6246-4756-b231-47fefc7508c5","system_id":"levelo_inurba_marseille","lat":43.29949,"lon":5.36529,"is_reserved":false,"is_disabled":false,"rental_uris":{"android":"levelo://app?vid=c69f57a8-6246-4756-b231-47fefc7508c5","ios":"levelo://app?vid=c69f57a8-6246-4756-b231-47fefc7508c5"},"vehicle_type_id":"4","last_reported":1740564634,"current_range_meters":12400,"station_id":"ce4bgm92rcd13ifvqbr0","pricing_plan_id":"cebpf4jnsgd1na2vs0mg"},{"bike_id":"df2b6808-8c0d-4f30-9be3-8afa5e31f82f","system_id":"levelo_inurba_marseille","lat":43.30869,"lon":5.39647,"is_reserved":false,"is_disabled":false,"rental_uris":{"android":"levelo://app?vid=df2b6808-8c0d-4f30-9be3-8afa5e31f82f","ios":"levelo://app?vid=df2b6808-8c0d-4f30-9be3-8afa5e31f82f"},"vehicle_type_id":"4","last_reported":1740564634,"current_range_meters":12400,"station_id":"ce4bh012rcd13ifvqcv0","pricing_plan_id":"cebpf4jnsgd1na2vs0mg"},{"bike_id":"b2665f30-9a13-4274-94a9-2d97221e2125","system_id":"levelo_inurba_marseille","lat":43.29166,"lon":5.3716,"is_reserved":false,"is_disabled":false,"rental_uris":{"android":"levelo://app?vid=b2665f30-9a13-4274-94a9-2d97221e2125","ios":"levelo://app?vid=b2665f30-9a13-4274-94a9-2d97221e2125"},"vehicle_type_id":"4","last_reported":1740564634,"current_range_meters":12800,"station_id":"ce4bha92rcd13ifvqeh0","pricing_plan_id":"cebpf4jnsgd1na2vs0mg"},{"bike_id":"b426a55b-6079-4410-bdcf-64a0360c349f","system_id":"levelo_inurba_marseille","lat":43.28425,"lon":5.34998,"is_reserved":false,"is_disabled":false,"rental_uris":{"android":"levelo://app?vid=b426a55b-6079-4410-bdcf-64a0360c349f","ios":"levelo://app?vid=b426a55b-6079-4410-bdcf-64a0360c349f"},"vehicle_type_id":"4","last_reported":1740564634,"current_range_meters":12800,"station_id":"ce4bhbh2rcd13ifvqepg","pricing_plan_id":"cebpf4jnsgd1na2vs0mg"},{"bike_id":"3c11cc6d-9896-429e-afb3-c8f7c4b99b50","system_id":"levelo_inurba_marseille","lat":43.31336,"lon":5.39712,"is_reserved":false,"is_disabled":false,"rental_uris":{"android":"levelo://app?vid=3c11cc6d-9896-429e-afb3-c8f7c4b99b50","ios":"levelo://app?vid=3c11cc6d-9896-429e-afb3-c8f7c4b99b50"},"vehicle_type_id":"4","last_reported":1740564634,"current_range_meters":13600,"station_id":"ce4bgvp2rcd13ifvqcu0","pricing_plan_id":"cebpf4jnsgd1na2vs0mg"},{"bike_id":"dc0af110-5d4c-496e-ad88-0b49465956aa","system_id":"levelo_inurba_marseille","lat":43.30156,"lon":5.38075,"is_reserved":false,"is_disabled":false,"rental_uris":{"android":"levelo://app?vid=dc0af110-5d4c-496e-ad88-0b49465956aa","ios":"levelo://app?vid=dc0af110-5d4c-496e-ad88-0b49465956aa"},"vehicle_type_id":"4","last_reported":1740564634,"current_range_meters":13600,"station_id":"ce4bgjp2rcd13ifvqbh0","pricing_plan_id":"cebpf4jnsgd1na2vs0mg"},{"bike_id":"e68b130a-b793-4ad1-a2a7-407699b0db50","system_id":"levelo_inurba_marseille","lat":43.27987,"lon":5.41658,"is_reserved":false,"is_disabled":false,"rental_uris":{"android":"levelo://app?vid=e68b130a-b793-4ad1-a2a7-407699b0db50","ios":"levelo://app?vid=e68b130a-b793-4ad1-a2a7-407699b0db50"},"vehicle_type_id":"4","last_reported":1740564634,"current_range_meters":14400,"station_id":"ce4bho12rcd13ifvqh1g","pricing_plan_id":"cebpf4jnsgd1na2vs0mg"},{"bike_id":"656f2662-6d7a-4983-aa21-ad0a5623ab9c","system_id":"levelo_inurba_marseille","lat":43.30902,"lon":5.36868,"is_reserved":false,"is_disabled":false,"rental_uris":{"android":"levelo://app?vid=656f2662-6d7a-4983-aa21-ad0a5623ab9c","ios":"levelo://app?vid=656f2662-6d7a-4983-aa21-ad0a5623ab9c"},"vehicle_type_id":"4","last_reported":1740564634,"current_range_meters":14000,"station_id":"ce4bgn92rcd13ifvqbvg","pricing_plan_id":"cebpf4jnsgd1na2vs0mg"},{"bike_id":"4fffecd4-cb5a-40ee-b6c1-944c95636433","system_id":"levelo_inurba_marseille","lat":43.29179,"lon":5.37145,"is_reserved":false,"is_disabled":false,"rental_uris":{"android":"levelo://app?vid=4fffecd4-cb5a-40ee-b6c1-944c95636433","ios":"levelo://app?vid=4fffecd4-cb5a-40ee-b6c1-944c95636433"},"vehicle_type_id":"4","last_reported":1740564634,"current_range_meters":14400,"station_id":"ce4bha92rcd13ifvqeh0","pricing_plan_id":"cebpf4jnsgd1na2vs0mg"},{"bike_id":"e5384373-a9fc-4e60-a2bd-411d2c247cd2","system_id":"levelo_inurba_marseille","lat":43.29703,"lon":5.36602,"is_reserved":false,"is_disabled":false,"rental_uris":{"android":"levelo://app?vid=e5384373-a9fc-4e60-a2bd-411d2c247cd2","ios":"levelo://app?vid=e5384373-a9fc-4e60-a2bd-411d2c247cd2"},"vehicle_type_id":"4","last_reported":1740564634,"current_range_meters":14400,"station_id":"ce4bgn12rcd13ifvqbt0","pricing_plan_id":"cebpf4jnsgd1na2vs0mg"},{"bike_id":"ae22bd30-ab33-4463-8cd4-1fd39b5d41bc","system_id":"levelo_inurba_marseille","lat":43.30524,"lon":5.36539,"is_reserved":false,"is_disabled":false,"rental_uris":{"android":"levelo://app?vid=ae22bd30-ab33-4463-8cd4-1fd39b5d41bc","ios":"levelo://app?vid=ae22bd30-ab33-4463-8cd4-1fd39b5d41bc"},"vehicle_type_id":"4","last_reported":1740564634,"current_range_meters":14400,"station_id":"ce4bgs12rcd13ifvqcag","pricing_plan_id":"cebpf4jnsgd1na2vs0mg"},{"bike_id":"d5ef1571-c6b9-4f13-96ed-bfaef3f9a56f","system_id":"levelo_inurba_marseille","lat":43.28947,"lon":5.36399,"is_reserved":false,"is_disabled":true,"rental_uris":{"android":"levelo://app?vid=d5ef1571-c6b9-4f13-96ed-bfaef3f9a56f","ios":"levelo://app?vid=d5ef1571-c6b9-4f13-96ed-bfaef3f9a56f"},"vehicle_type_id":"4","last_reported":1740564634,"current_range_meters":14800,"station_id":"ce4bhc92rcd13ifvqetg","pricing_plan_id":"cebpf4jnsgd1na2vs0mg"},{"bike_id":"b8779f08-75d5-4e01-9cda-7c898988967c","system_id":"levelo_inurba_marseille","lat":43.25952,"lon":5.40911,"is_reserved":false,"is_disabled":false,"rental_uris":{"android":"levelo://app?vid=b8779f08-75d5-4e01-9cda-7c898988967c","ios":"levelo://app?vid=b8779f08-75d5-4e01-9cda-7c898988967c"},"vehicle_type_id":"4","last_reported":1740564634,"current_range_meters":14400,"station_id":"ce4bhm92rcd13ifvqglg","pricing_plan_id":"cebpf4jnsgd1na2vs0mg"},{"bike_id":"af59cccb-2199-4a4d-846c-2c8e74cd539f","system_id":"levelo_inurba_marseille","lat":43.28451,"lon":5.35881,"is_reserved":false,"is_disabled":false,"rental_uris":{"android":"levelo://app?vid=af59cccb-2199-4a4d-846c-2c8e74cd539f","ios":"levelo://app?vid=af59cccb-2199-4a4d-846c-2c8e74cd539f"},"vehicle_type_id":"4","last_reported":1740564634,"current_range_meters":14400,"station_id":"ce4bhah2rcd13ifvqei0","pricing_plan_id":"cebpf4jnsgd1na2vs0mg"},{"bike_id":"ad9571bc-5194-4f71-90ef-f1cb0835f36e","system_id":"levelo_inurba_marseille","lat":43.25499,"lon":5.37651,"is_reserved":false,"is_disabled":false,"rental_uris":{"android":"levelo://app?vid=ad9571bc-5194-4f71-90ef-f1cb0835f36e","ios":"levelo://app?vid=ad9571bc-5194-4f71-90ef-f1cb0835f36e"},"vehicle_type_id":"4","last_reported":1740564634,"current_range_meters":14400,"station_id":"ce4bhh12rcd13ifvqff0","pricing_plan_id":"cebpf4jnsgd1na2vs0mg"},{"bike_id":"f9eed1e4-1895-44e2-8624-cc9551693ed5","system_id":"levelo_inurba_marseille","lat":43.29866,"lon":5.36295,"is_reserved":false,"is_disabled":false,"rental_uris":{"android":"levelo://app?vid=f9eed1e4-1895-44e2-8624-cc9551693ed5","ios":"levelo://app?vid=f9eed1e4-1895-44e2-8624-cc9551693ed5"},"vehicle_type_id":"4","last_reported":1740564634,"current_range_meters":18000,"station_id":"ce4bgpp2rcd13ifvqc3g","pricing_plan_id":"cebpf4jnsgd1na2vs0mg"},{"bike_id":"0439ee55-37b2-4ad6-a75c-e9520704c6ca","system_id":"levelo_inurba_marseille","lat":43.299,"lon":5.37449,"is_reserved":false,"is_disabled":false,"rental_uris":{"android":"levelo://app?vid=0439ee55-37b2-4ad6-a75c-e9520704c6ca","ios":"levelo://app?vid=0439ee55-37b2-4ad6-a75c-e9520704c6ca"},"vehicle_type_id":"4","last_reported":1740564634,"current_range_meters":14800,"station_id":"ce4bgjh2rcd13ifvqbg0","pricing_plan_id":"cebpf4jnsgd1na2vs0mg"},{"bike_id":"4a17589c-288a-4fe3-bcca-b67dceeddf97","system_id":"levelo_inurba_marseille","lat":43.25936,"lon":5.40916,"is_reserved":false,"is_disabled":false,"rental_uris":{"android":"levelo://app?vid=4a17589c-288a-4fe3-bcca-b67dceeddf97","ios":"levelo://app?vid=4a17589c-288a-4fe3-bcca-b67dceeddf97"},"vehicle_type_id":"4","last_reported":1740564634,"current_range_meters":14800,"station_id":"ce4bhm92rcd13ifvqglg","pricing_plan_id":"cebpf4jnsgd1na2vs0mg"},{"bike_id":"02028f5d-7181-4e7f-80ba-abb06cf96801","system_id":"levelo_inurba_marseille","lat":43.2842,"lon":5.35006,"is_reserved":false,"is_disabled":false,"rental_uris":{"android":"levelo://app?vid=02028f5d-7181-4e7f-80ba-abb06cf96801","ios":"levelo://app?vid=02028f5d-7181-4e7f-80ba-abb06cf96801"},"vehicle_type_id":"4","last_reported":1740564634,"current_range_meters":14800,"station_id":"ce4bhbh2rcd13ifvqepg","pricing_plan_id":"cebpf4jnsgd1na2vs0mg"},{"bike_id":"b3b7c115-575b-4239-8c18-44054db2acb7","system_id":"levelo_inurba_marseille","lat":43.29291,"lon":5.37439,"is_reserved":false,"is_disabled":false,"rental_uris":{"android":"levelo://app?vid=b3b7c115-575b-4239-8c18-44054db2acb7","ios":"levelo://app?vid=b3b7c115-575b-4239-8c18-44054db2acb7"},"vehicle_type_id":"4","last_reported":1740564634,"current_range_meters":14800,"station_id":"ce4bgi12rcd13ifvqb70","pricing_plan_id":"cebpf4jnsgd1na2vs0mg"},{"bike_id":"f66913d8-adc8-4497-b81a-8613461ae8a9","system_id":"levelo_inurba_marseille","lat":43.28421,"lon":5.3499,"is_reserved":false,"is_disabled":false,"rental_uris":{"android":"levelo://app?vid=f66913d8-adc8-4497-b81a-8613461ae8a9","ios":"levelo://app?vid=f66913d8-adc8-4497-b81a-8613461ae8a9"},"vehicle_type_id":"4","last_reported":1740564634,"current_range_meters":14800,"station_id":"ce4bhbh2rcd13ifvqepg","pricing_plan_id":"cebpf4jnsgd1na2vs0mg"},{"bike_id":"22e2139e-d2b1-4756-8ae1-242e3764eba0","system_id":"levelo_inurba_marseille","lat":43.27921,"lon":5.39588,"is_reserved":false,"is_disabled":false,"rental_uris":{"android":"levelo://app?vid=22e2139e-d2b1-4756-8ae1-242e3764eba0","ios":"levelo://app?vid=22e2139e-d2b1-4756-8ae1-242e3764eba0"},"vehicle_type_id":"4","last_reported":1740564634,"current_range_meters":14800,"station_id":"ce4bhf92rcd13ifvqf40","pricing_plan_id":"cebpf4jnsgd1na2vs0mg"},{"bike_id":"620faf8f-9860-4e84-b6cd-4559a0b9a89c","system_id":"levelo_inurba_marseille","lat":43.32481,"lon":5.36547,"is_reserved":false,"is_disabled":false,"rental_uris":{"android":"levelo://app?vid=620faf8f-9860-4e84-b6cd-4559a0b9a89c","ios":"levelo://app?vid=620faf8f-9860-4e84-b6cd-4559a0b9a89c"},"vehicle_type_id":"4","last_reported":1740564634,"current_range_meters":15200,"station_id":"ce4bhs12rcd13ifvqhvg","pricing_plan_id":"cebpf4jnsgd1na2vs0mg"},{"bike_id":"1ca5b1d5-5a53-46dd-b1b2-e83fd71df428","system_id":"levelo_inurba_marseille","lat":43.27963,"lon":5.4105,"is_reserved":false,"is_disabled":false,"rental_uris":{"android":"levelo://app?vid=1ca5b1d5-5a53-46dd-b1b2-e83fd71df428","ios":"levelo://app?vid=1ca5b1d5-5a53-46dd-b1b2-e83fd71df428"},"vehicle_type_id":"4","last_reported":1740564634,"current_range_meters":14800,"station_id":"ce4bhnp2rcd13ifvqh0g","pricing_plan_id":"cebpf4jnsgd1na2vs0mg"},{"bike_id":"01599dc9-e173-4850-811c-fcb15b6f9d03","system_id":"levelo_inurba_marseille","lat":43.30452,"lon":5.39749,"is_reserved":false,"is_disabled":false,"rental_uris":{"android":"levelo://app?vid=01599dc9-e173-4850-811c-fcb15b6f9d03","ios":"levelo://app?vid=01599dc9-e173-4850-811c-fcb15b6f9d03"},"vehicle_type_id":"4","last_reported":1740564634,"current_range_meters":14800,"station_id":"ce4bh092rcd13ifvqd20","pricing_plan_id":"cebpf4jnsgd1na2vs0mg"},{"bike_id":"40bd775e-5ce3-4948-be2f-acfa8e48e7a0","system_id":"levelo_inurba_marseille","lat":43.28619,"lon":5.35096,"is_reserved":false,"is_disabled":false,"rental_uris":{"android":"levelo://app?vid=40bd775e-5ce3-4948-be2f-acfa8e48e7a0","ios":"levelo://app?vid=40bd775e-5ce3-4948-be2f-acfa8e48e7a0"},"vehicle_type_id":"4","last_reported":1740564634,"current_range_meters":15200,"station_id":"ce4bhch2rcd13ifvqeug","pricing_plan_id":"cebpf4jnsgd1na2vs0mg"},{"bike_id":"4ad4ddb3-8351-4909-ab89-90d08a80b944","system_id":"levelo_inurba_marseille","lat":43.28482,"lon":5.38547,"is_reserved":false,"is_disabled":false,"rental_uris":{"android":"levelo://app?vid=4ad4ddb3-8351-4909-ab89-90d08a80b944","ios":"levelo://app?vid=4ad4ddb3-8351-4909-ab89-90d08a80b944"},"vehicle_type_id":"4","last_reported":1740564634,"current_range_meters":16000,"station_id":"ce4bh8p2rcd13ifvqeb0","pricing_plan_id":"cebpf4jnsgd1na2vs0mg"},{"bike_id":"89b1eb9a-bf92-4582-a1f6-a976f7501c41","system_id":"levelo_inurba_marseille","lat":43.29611,"lon":5.37722,"is_reserved":false,"is_disabled":false,"rental_uris":{"android":"levelo://app?vid=89b1eb9a-bf92-4582-a1f6-a976f7501c41","ios":"levelo://app?vid=89b1eb9a-bf92-4582-a1f6-a976f7501c41"},"vehicle_type_id":"4","last_reported":1740564634,"current_range_meters":16000,"station_id":"ce4bgi92rcd13ifvqb90","pricing_plan_id":"cebpf4jnsgd1na2vs0mg"},{"bike_id":"6e0bfaa9-d832-4b76-a70d-dbbd6214d5f8","system_id":"levelo_inurba_marseille","lat":43.337444,"lon":5.374475,"is_reserved":false,"is_disabled":false,"rental_uris":{"android":"levelo://app?vid=6e0bfaa9-d832-4b76-a70d-dbbd6214d5f8","ios":"levelo://app?vid=6e0bfaa9-d832-4b76-a70d-dbbd6214d5f8"},"vehicle_type_id":"4","last_reported":1740564634,"current_range_meters":16000,"station_id":"ce4bh012rcd13ifvqcv0","pricing_plan_id":"cebpf4jnsgd1na2vs0mg"},{"bike_id":"77bdeab3-4aed-4b02-b329-41467932dd39","system_id":"levelo_inurba_marseille","lat":43.26497,"lon":5.39558,"is_reserved":false,"is_disabled":false,"rental_uris":{"android":"levelo://app?vid=77bdeab3-4aed-4b02-b329-41467932dd39","ios":"levelo://app?vid=77bdeab3-4aed-4b02-b329-41467932dd39"},"vehicle_type_id":"4","last_reported":1740564634,"current_range_meters":15200,"station_id":"ce4bhi12rcd13ifvqfq0","pricing_plan_id":"cebpf4jnsgd1na2vs0mg"},{"bike_id":"474cdf3b-0dd6-4cec-bf41-6146ab957ab7","system_id":"levelo_inurba_marseille","lat":43.337444,"lon":5.374475,"is_reserved":false,"is_disabled":false,"rental_uris":{"android":"levelo://app?vid=474cdf3b-0dd6-4cec-bf41-6146ab957ab7","ios":"levelo://app?vid=474cdf3b-0dd6-4cec-bf41-6146ab957ab7"},"vehicle_type_id":"4","last_reported":1740564634,"current_range_meters":16000,"station_id":"ce4bh0h2rcd13ifvqd50","pricing_plan_id":"cebpf4jnsgd1na2vs0mg"},{"bike_id":"9dc7e2d5-119c-4c57-96cd-7fcca21c9c6c","system_id":"levelo_inurba_marseille","lat":43.32479,"lon":5.36564,"is_reserved":false,"is_disabled":false,"rental_uris":{"android":"levelo://app?vid=9dc7e2d5-119c-4c57-96cd-7fcca21c9c6c","ios":"levelo://app?vid=9dc7e2d5-119c-4c57-96cd-7fcca21c9c6c"},"vehicle_type_id":"4","last_reported":1740564634,"current_range_meters":16000,"station_id":"ce4bhs12rcd13ifvqhvg","pricing_plan_id":"cebpf4jnsgd1na2vs0mg"},{"bike_id":"73cc0fd1-b5b6-4198-82e0-228c9be7381c","system_id":"levelo_inurba_marseille","lat":43.26945,"lon":5.38642,"is_reserved":false,"is_disabled":false,"rental_uris":{"android":"levelo://app?vid=73cc0fd1-b5b6-4198-82e0-228c9be7381c","ios":"levelo://app?vid=73cc0fd1-b5b6-4198-82e0-228c9be7381c"},"vehicle_type_id":"4","last_reported":1740564634,"current_range_meters":16000,"station_id":"ce4bhh92rcd13ifvqfh0","pricing_plan_id":"cebpf4jnsgd1na2vs0mg"},{"bike_id":"3fefd632-ceb6-4e6f-ac3b-6af1be92e2b5","system_id":"levelo_inurba_marseille","lat":43.23178,"lon":5.39993,"is_reserved":false,"is_disabled":false,"rental_uris":{"android":"levelo://app?vid=3fefd632-ceb6-4e6f-ac3b-6af1be92e2b5","ios":"levelo://app?vid=3fefd632-ceb6-4e6f-ac3b-6af1be92e2b5"},"vehicle_type_id":"4","last_reported":1740564634,"current_range_meters":16000,"station_id":"ce4bhn12rcd13ifvqgqg","pricing_plan_id":"cebpf4jnsgd1na2vs0mg"},{"bike_id":"7111f83d-0417-4c1c-bfdf-a886949b1eaa","system_id":"levelo_inurba_marseille","lat":43.32362,"lon":5.38889,"is_reserved":false,"is_disabled":false,"rental_uris":{"android":"levelo://app?vid=7111f83d-0417-4c1c-bfdf-a886949b1eaa","ios":"levelo://app?vid=7111f83d-0417-4c1c-bfdf-a886949b1eaa"},"vehicle_type_id":"4","last_reported":1740564634,"current_range_meters":16000,"station_id":"ce4bhqp2rcd13ifvqhog","pricing_plan_id":"cebpf4jnsgd1na2vs0mg"},{"bike_id":"dca1375a-635f-4526-9c2e-3365dbd025f0","system_id":"levelo_inurba_marseille","lat":43.3086,"lon":5.39653,"is_reserved":false,"is_disabled":false,"rental_uris":{"android":"levelo://app?vid=dca1375a-635f-4526-9c2e-3365dbd025f0","ios":"levelo://app?vid=dca1375a-635f-4526-9c2e-3365dbd025f0"},"vehicle_type_id":"4","last_reported":1740564634,"current_range_meters":16000,"station_id":"ce4bh012rcd13ifvqcv0","pricing_plan_id":"cebpf4jnsgd1na2vs0mg"},{"bike_id":"0561577e-2525-455e-92b8-6da786fc4574","system_id":"levelo_inurba_marseille","lat":43.28151,"lon":5.42667,"is_reserved":false,"is_disabled":false,"rental_uris":{"android":"levelo://app?vid=0561577e-2525-455e-92b8-6da786fc4574","ios":"levelo://app?vid=0561577e-2525-455e-92b8-6da786fc4574"},"vehicle_type_id":"4","last_reported":1740564634,"current_range_meters":16000,"station_id":"ce4bhnh2rcd13ifvqgug","pricing_plan_id":"cebpf4jnsgd1na2vs0mg"},{"bike_id":"aada47c6-4b3a-41ce-97dd-a63194114a19","system_id":"levelo_inurba_marseille","lat":43.31261,"lon":5.40179,"is_reserved":false,"is_disabled":true,"rental_uris":{"android":"levelo://app?vid=aada47c6-4b3a-41ce-97dd-a63194114a19","ios":"levelo://app?vid=aada47c6-4b3a-41ce-97dd-a63194114a19"},"vehicle_type_id":"4","last_reported":1740564634,"current_range_meters":16000,"station_id":"ce4bh092rcd13ifvqd30","pricing_plan_id":"cebpf4jnsgd1na2vs0mg"},{"bike_id":"19e4983d-b74d-4524-9c14-80fb6905f947","system_id":"levelo_inurba_marseille","lat":43.321,"lon":5.36776,"is_reserved":false,"is_disabled":false,"rental_uris":{"android":"levelo://app?vid=19e4983d-b74d-4524-9c14-80fb6905f947","ios":"levelo://app?vid=19e4983d-b74d-4524-9c14-80fb6905f947"},"vehicle_type_id":"4","last_reported":1740564634,"current_range_meters":16000,"station_id":"ce4bhrh2rcd13ifvqhug","pricing_plan_id":"cebpf4jnsgd1na2vs0mg"},{"bike_id":"41bcbd39-dc6c-4708-80c1-49116771c9e4","system_id":"levelo_inurba_marseille","lat":43.28943,"lon":5.36649,"is_reserved":false,"is_disabled":false,"rental_uris":{"android":"levelo://app?vid=41bcbd39-dc6c-4708-80c1-49116771c9e4","ios":"levelo://app?vid=41bcbd39-dc6c-4708-80c1-49116771c9e4"},"vehicle_type_id":"4","last_reported":1740564634,"current_range_meters":16000,"station_id":"ce4bhap2rcd13ifvqek0","pricing_plan_id":"cebpf4jnsgd1na2vs0mg"},{"bike_id":"5ce18dae-e1c9-401b-adc5-f43616666889","system_id":"levelo_inurba_marseille","lat":43.28665,"lon":5.36349,"is_reserved":false,"is_disabled":false,"rental_uris":{"android":"levelo://app?vid=5ce18dae-e1c9-401b-adc5-f43616666889","ios":"levelo://app?vid=5ce18dae-e1c9-401b-adc5-f43616666889"},"vehicle_type_id":"4","last_reported":1740564634,"current_range_meters":16000,"station_id":"ce4bhah2rcd13ifvqej0","pricing_plan_id":"cebpf4jnsgd1na2vs0mg"},{"bike_id":"f3c1842a-b552-4e04-b90a-c61f62f8a561","system_id":"levelo_inurba_marseille","lat":43.26212,"lon":5.3746,"is_reserved":false,"is_disabled":false,"rental_uris":{"android":"levelo://app?vid=f3c1842a-b552-4e04-b90a-c61f62f8a561","ios":"levelo://app?vid=f3c1842a-b552-4e04-b90a-c61f62f8a561"},"vehicle_type_id":"4","last_reported":1740564634,"current_range_meters":16400,"station_id":"ce4bhgp2rcd13ifvqfc0","pricing_plan_id":"cebpf4jnsgd1na2vs0mg"},{"bike_id":"7a32e150-ca67-416d-a42e-e63f4dd727a2","system_id":"levelo_inurba_marseille","lat":43.29925,"lon":5.36543,"is_reserved":false,"is_disabled":false,"rental_uris":{"android":"levelo://app?vid=7a32e150-ca67-416d-a42e-e63f4dd727a2","ios":"levelo://app?vid=7a32e150-ca67-416d-a42e-e63f4dd727a2"},"vehicle_type_id":"4","last_reported":1740564634,"current_range_meters":16400,"station_id":"ce4bgm92rcd13ifvqbr0","pricing_plan_id":"cebpf4jnsgd1na2vs0mg"},{"bike_id":"29d52238-28ae-4d3a-8da3-5a8ed7c6ea07","system_id":"levelo_inurba_marseille","lat":43.28353,"lon":5.38111,"is_reserved":false,"is_disabled":false,"rental_uris":{"android":"levelo://app?vid=29d52238-28ae-4d3a-8da3-5a8ed7c6ea07","ios":"levelo://app?vid=29d52238-28ae-4d3a-8da3-5a8ed7c6ea07"},"vehicle_type_id":"4","last_reported":1740564634,"current_range_meters":16400,"station_id":"ce4bh412rcd13ifvqdr0","pricing_plan_id":"cebpf4jnsgd1na2vs0mg"},{"bike_id":"83f3e69a-2b3a-439b-92bb-8ffdfee70660","system_id":"levelo_inurba_marseille","lat":43.30902,"lon":5.37215,"is_reserved":false,"is_disabled":false,"rental_uris":{"android":"levelo://app?vid=83f3e69a-2b3a-439b-92bb-8ffdfee70660","ios":"levelo://app?vid=83f3e69a-2b3a-439b-92bb-8ffdfee70660"},"vehicle_type_id":"4","last_reported":1740564634,"current_range_meters":16400,"station_id":"ce4bguh2rcd13ifvqckg","pricing_plan_id":"cebpf4jnsgd1na2vs0mg"},{"bike_id":"dde4bb75-96fa-4181-9445-cd7388922872","system_id":"levelo_inurba_marseille","lat":43.30526,"lon":5.36717,"is_reserved":false,"is_disabled":false,"rental_uris":{"android":"levelo://app?vid=dde4bb75-96fa-4181-9445-cd7388922872","ios":"levelo://app?vid=dde4bb75-96fa-4181-9445-cd7388922872"},"vehicle_type_id":"4","last_reported":1740564634,"current_range_meters":16400,"station_id":"ce4bgrp2rcd13ifvqc9g","pricing_plan_id":"cebpf4jnsgd1na2vs0mg"},{"bike_id":"504ecfe8-fa9b-4636-9619-b03f323b8793","system_id":"levelo_inurba_marseille","lat":43.29727,"lon":5.37688,"is_reserved":false,"is_disabled":false,"rental_uris":{"android":"levelo://app?vid=504ecfe8-fa9b-4636-9619-b03f323b8793","ios":"levelo://app?vid=504ecfe8-fa9b-4636-9619-b03f323b8793"},"vehicle_type_id":"4","last_reported":1740564634,"current_range_meters":16400,"station_id":"ce4bgkh2rcd13ifvqbl0","pricing_plan_id":"cebpf4jnsgd1na2vs0mg"},{"bike_id":"7ac82a98-f2e6-4915-922a-da0a36222b9f","system_id":"levelo_inurba_marseille","lat":43.25928,"lon":5.40879,"is_reserved":false,"is_disabled":false,"rental_uris":{"android":"levelo://app?vid=7ac82a98-f2e6-4915-922a-da0a36222b9f","ios":"levelo://app?vid=7ac82a98-f2e6-4915-922a-da0a36222b9f"},"vehicle_type_id":"4","last_reported":1740564634,"current_range_meters":16400,"station_id":"ce4bhm92rcd13ifvqglg","pricing_plan_id":"cebpf4jnsgd1na2vs0mg"},{"bike_id":"b54c0c77-a568-4419-8a53-721954a3d5ef","system_id":"levelo_inurba_marseille","lat":43.2769,"lon":5.41547,"is_reserved":false,"is_disabled":false,"rental_uris":{"android":"levelo://app?vid=b54c0c77-a568-4419-8a53-721954a3d5ef","ios":"levelo://app?vid=b54c0c77-a568-4419-8a53-721954a3d5ef"},"vehicle_type_id":"4","last_reported":1740564634,"current_range_meters":16400,"station_id":"","pricing_plan_id":"cebpf4jnsgd1na2vs0mg"},{"bike_id":"17973595-0627-4cbe-be09-6d52168568c1","system_id":"levelo_inurba_marseille","lat":43.27829,"lon":5.40723,"is_reserved":false,"is_disabled":false,"rental_uris":{"android":"levelo://app?vid=17973595-0627-4cbe-be09-6d52168568c1","ios":"levelo://app?vid=17973595-0627-4cbe-be09-6d52168568c1"},"vehicle_type_id":"4","last_reported":1740564634,"current_range_meters":16400,"station_id":"ce4bhnh2rcd13ifvqgtg","pricing_plan_id":"cebpf4jnsgd1na2vs0mg"},{"bike_id":"d79740e8-2b58-4dab-9092-7c075618d6db","system_id":"levelo_inurba_marseille","lat":43.23123,"lon":5.39984,"is_reserved":false,"is_disabled":false,"rental_uris":{"android":"levelo://app?vid=d79740e8-2b58-4dab-9092-7c075618d6db","ios":"levelo://app?vid=d79740e8-2b58-4dab-9092-7c075618d6db"},"vehicle_type_id":"4","last_reported":1740564634,"current_range_meters":17200,"station_id":"","pricing_plan_id":"cebpf4jnsgd1na2vs0mg"},{"bike_id":"ec93b1ef-29a7-4f33-9814-2d676efe237f","system_id":"levelo_inurba_marseille","lat":43.27059,"lon":5.40272,"is_reserved":false,"is_disabled":false,"rental_uris":{"android":"levelo://app?vid=ec93b1ef-29a7-4f33-9814-2d676efe237f","ios":"levelo://app?vid=ec93b1ef-29a7-4f33-9814-2d676efe237f"},"vehicle_type_id":"4","last_reported":1740564634,"current_range_meters":16400,"station_id":"ce4bhk92rcd13ifvqgc0","pricing_plan_id":"cebpf4jnsgd1na2vs0mg"},{"bike_id":"d0eed576-967a-4a22-90f0-1b8c0372f57a","system_id":"levelo_inurba_marseille","lat":43.25018,"lon":5.38916,"is_reserved":false,"is_disabled":false,"rental_uris":{"android":"levelo://app?vid=d0eed576-967a-4a22-90f0-1b8c0372f57a","ios":"levelo://app?vid=d0eed576-967a-4a22-90f0-1b8c0372f57a"},"vehicle_type_id":"4","last_reported":1740564634,"current_range_meters":16800,"station_id":"ce4bhgp2rcd13ifvqfd0","pricing_plan_id":"cebpf4jnsgd1na2vs0mg"},{"bike_id":"7f5dbe42-da8b-47f5-9beb-ac4cf767c9c8","system_id":"levelo_inurba_marseille","lat":43.31213,"lon":5.36878,"is_reserved":false,"is_disabled":false,"rental_uris":{"android":"levelo://app?vid=7f5dbe42-da8b-47f5-9beb-ac4cf767c9c8","ios":"levelo://app?vid=7f5dbe42-da8b-47f5-9beb-ac4cf767c9c8"},"vehicle_type_id":"4","last_reported":1740564634,"current_range_meters":16800,"station_id":"ce4bgl92rcd13ifvqbq0","pricing_plan_id":"cebpf4jnsgd1na2vs0mg"},{"bike_id":"b71bd6d6-170b-4d32-8019-0f5f4edcec6b","system_id":"levelo_inurba_marseille","lat":43.26818,"lon":5.39438,"is_reserved":false,"is_disabled":false,"rental_uris":{"android":"levelo://app?vid=b71bd6d6-170b-4d32-8019-0f5f4edcec6b","ios":"levelo://app?vid=b71bd6d6-170b-4d32-8019-0f5f4edcec6b"},"vehicle_type_id":"4","last_reported":1740564634,"current_range_meters":16800,"station_id":"ce4bhh12rcd13ifvqfg0","pricing_plan_id":"cebpf4jnsgd1na2vs0mg"},{"bike_id":"245c9ee4-a552-4737-8cda-71747db953a0","system_id":"levelo_inurba_marseille","lat":43.25004,"lon":5.38914,"is_reserved":false,"is_disabled":true,"rental_uris":{"android":"levelo://app?vid=245c9ee4-a552-4737-8cda-71747db953a0","ios":"levelo://app?vid=245c9ee4-a552-4737-8cda-71747db953a0"},"vehicle_type_id":"4","last_reported":1740564634,"current_range_meters":17200,"station_id":"ce4bhgp2rcd13ifvqfd0","pricing_plan_id":"cebpf4jnsgd1na2vs0mg"},{"bike_id":"0e61bfd5-1653-42bd-8d74-61cc76e38b3c","system_id":"levelo_inurba_marseille","lat":43.30114,"lon":5.3879,"is_reserved":false,"is_disabled":false,"rental_uris":{"android":"levelo://app?vid=0e61bfd5-1653-42bd-8d74-61cc76e38b3c","ios":"levelo://app?vid=0e61bfd5-1653-42bd-8d74-61cc76e38b3c"},"vehicle_type_id":"4","last_reported":1740564634,"current_range_meters":16800,"station_id":"ce4bgup2rcd13ifvqco0","pricing_plan_id":"cebpf4jnsgd1na2vs0mg"},{"bike_id":"c1f5384a-71a2-4dad-80de-d395c09980f5","system_id":"levelo_inurba_marseille","lat":43.31387,"lon":5.36674,"is_reserved":false,"is_disabled":false,"rental_uris":{"android":"levelo://app?vid=c1f5384a-71a2-4dad-80de-d395c09980f5","ios":"levelo://app?vid=c1f5384a-71a2-4dad-80de-d395c09980f5"},"vehicle_type_id":"4","last_reported":1740564634,"current_range_meters":16800,"station_id":"","pricing_plan_id":"cebpf4jnsgd1na2vs0mg"},{"bike_id":"ceb091b6-164e-414b-9d42-d42f9a4b15fb","system_id":"levelo_inurba_marseille","lat":43.309473,"lon":5.390405,"is_reserved":false,"is_disabled":false,"rental_uris":{"android":"levelo://app?vid=ceb091b6-164e-414b-9d42-d42f9a4b15fb","ios":"levelo://app?vid=ceb091b6-164e-414b-9d42-d42f9a4b15fb"},"vehicle_type_id":"4","last_reported":1740564634,"current_range_meters":16800,"station_id":"ce4bgup2rcd13ifvqco0","pricing_plan_id":"cebpf4jnsgd1na2vs0mg"},{"bike_id":"a8880c7e-954a-47ef-8ef0-eb627bf08978","system_id":"levelo_inurba_marseille","lat":43.27212,"lon":5.39201,"is_reserved":false,"is_disabled":false,"rental_uris":{"android":"levelo://app?vid=a8880c7e-954a-47ef-8ef0-eb627bf08978","ios":"levelo://app?vid=a8880c7e-954a-47ef-8ef0-eb627bf08978"},"vehicle_type_id":"4","last_reported":1740564634,"current_range_meters":17600,"station_id":"ce4bhhp2rcd13ifvqfm0","pricing_plan_id":"cebpf4jnsgd1na2vs0mg"},{"bike_id":"c653bffd-d711-4c0b-9be3-ba0ded1a55f8","system_id":"levelo_inurba_marseille","lat":43.27939,"lon":5.4104,"is_reserved":false,"is_disabled":false,"rental_uris":{"android":"levelo://app?vid=c653bffd-d711-4c0b-9be3-ba0ded1a55f8","ios":"levelo://app?vid=c653bffd-d711-4c0b-9be3-ba0ded1a55f8"},"vehicle_type_id":"4","last_reported":1740564634,"current_range_meters":16800,"station_id":"ce4bhnp2rcd13ifvqh0g","pricing_plan_id":"cebpf4jnsgd1na2vs0mg"},{"bike_id":"24d7b0de-476a-4199-98ae-8fd5502b074a","system_id":"levelo_inurba_marseille","lat":43.30126,"lon":5.39881,"is_reserved":false,"is_disabled":false,"rental_uris":{"android":"levelo://app?vid=24d7b0de-476a-4199-98ae-8fd5502b074a","ios":"levelo://app?vid=24d7b0de-476a-4199-98ae-8fd5502b074a"},"vehicle_type_id":"4","last_reported":1740564634,"current_range_meters":17200,"station_id":"ce4bh0h2rcd13ifvqd40","pricing_plan_id":"cebpf4jnsgd1na2vs0mg"},{"bike_id":"0f371115-1497-4483-9890-664ef1fdb5e1","system_id":"levelo_inurba_marseille","lat":43.2953,"lon":5.39399,"is_reserved":false,"is_disabled":false,"rental_uris":{"android":"levelo://app?vid=0f371115-1497-4483-9890-664ef1fdb5e1","ios":"levelo://app?vid=0f371115-1497-4483-9890-664ef1fdb5e1"},"vehicle_type_id":"4","last_reported":1740564634,"current_range_meters":16800,"station_id":"ce4bh292rcd13ifvqdf0","pricing_plan_id":"cebpf4jnsgd1na2vs0mg"},{"bike_id":"10f5d0c6-cb88-4c92-a25e-ea127da3caf6","system_id":"levelo_inurba_marseille","lat":43.23069,"lon":5.35489,"is_reserved":false,"is_disabled":false,"rental_uris":{"android":"levelo://app?vid=10f5d0c6-cb88-4c92-a25e-ea127da3caf6","ios":"levelo://app?vid=10f5d0c6-cb88-4c92-a25e-ea127da3caf6"},"vehicle_type_id":"4","last_reported":1740564634,"current_range_meters":18800,"station_id":"cpo3342slgdg3j2ifvpg","pricing_plan_id":"cebpf4jnsgd1na2vs0mg"},{"bike_id":"d4d2079b-6fb6-429d-9474-3bc23391be3f","system_id":"levelo_inurba_marseille","lat":43.28106,"lon":5.3784,"is_reserved":false,"is_disabled":false,"rental_uris":{"android":"levelo://app?vid=d4d2079b-6fb6-429d-9474-3bc23391be3f","ios":"levelo://app?vid=d4d2079b-6fb6-429d-9474-3bc23391be3f"},"vehicle_type_id":"4","last_reported":1740564634,"current_range_meters":16800,"station_id":"ce4bha12rcd13ifvqee0","pricing_plan_id":"cebpf4jnsgd1na2vs0mg"},{"bike_id":"658e10dc-9ec8-4c82-a86c-f0d37535b96d","system_id":"levelo_inurba_marseille","lat":43.2319,"lon":5.39995,"is_reserved":false,"is_disabled":false,"rental_uris":{"android":"levelo://app?vid=658e10dc-9ec8-4c82-a86c-f0d37535b96d","ios":"levelo://app?vid=658e10dc-9ec8-4c82-a86c-f0d37535b96d"},"vehicle_type_id":"4","last_reported":1740564634,"current_range_meters":16800,"station_id":"ce4bhn12rcd13ifvqgqg","pricing_plan_id":"cebpf4jnsgd1na2vs0mg"},{"bike_id":"19c5c00c-f5bb-4e29-bc40-6a629da4b9f2","system_id":"levelo_inurba_marseille","lat":43.28475,"lon":5.38556,"is_reserved":false,"is_disabled":false,"rental_uris":{"android":"levelo://app?vid=19c5c00c-f5bb-4e29-bc40-6a629da4b9f2","ios":"levelo://app?vid=19c5c00c-f5bb-4e29-bc40-6a629da4b9f2"},"vehicle_type_id":"4","last_reported":1740564634,"current_range_meters":16400,"station_id":"ce4bh8p2rcd13ifvqeb0","pricing_plan_id":"cebpf4jnsgd1na2vs0mg"},{"bike_id":"4ed56c0e-5ec6-4c7e-ac05-d51f5b4c8388","system_id":"levelo_inurba_marseille","lat":43.30269,"lon":5.37737,"is_reserved":false,"is_disabled":false,"rental_uris":{"android":"levelo://app?vid=4ed56c0e-5ec6-4c7e-ac05-d51f5b4c8388","ios":"levelo://app?vid=4ed56c0e-5ec6-4c7e-ac05-d51f5b4c8388"},"vehicle_type_id":"4","last_reported":1740564634,"current_range_meters":17200,"station_id":"ce4bguh2rcd13ifvqcj0","pricing_plan_id":"cebpf4jnsgd1na2vs0mg"},{"bike_id":"61c71b04-df91-4db5-beae-0115b19e1f18","system_id":"levelo_inurba_marseille","lat":43.28348,"lon":5.38105,"is_reserved":false,"is_disabled":false,"rental_uris":{"android":"levelo://app?vid=61c71b04-df91-4db5-beae-0115b19e1f18","ios":"levelo://app?vid=61c71b04-df91-4db5-beae-0115b19e1f18"},"vehicle_type_id":"4","last_reported":1740564634,"current_range_meters":17200,"station_id":"ce4bh412rcd13ifvqdr0","pricing_plan_id":"cebpf4jnsgd1na2vs0mg"},{"bike_id":"9eb63fb4-7dd1-4ed8-8c98-37f9165028cf","system_id":"levelo_inurba_marseille","lat":43.31761,"lon":5.39019,"is_reserved":false,"is_disabled":false,"rental_uris":{"android":"levelo://app?vid=9eb63fb4-7dd1-4ed8-8c98-37f9165028cf","ios":"levelo://app?vid=9eb63fb4-7dd1-4ed8-8c98-37f9165028cf"},"vehicle_type_id":"4","last_reported":1740564634,"current_range_meters":17600,"station_id":"ce4bhqp2rcd13ifvqhng","pricing_plan_id":"cebpf4jnsgd1na2vs0mg"},{"bike_id":"9c9b783e-fc43-40ea-9266-f1ccc50ef259","system_id":"levelo_inurba_marseille","lat":43.27803,"lon":5.40716,"is_reserved":false,"is_disabled":false,"rental_uris":{"android":"levelo://app?vid=9c9b783e-fc43-40ea-9266-f1ccc50ef259","ios":"levelo://app?vid=9c9b783e-fc43-40ea-9266-f1ccc50ef259"},"vehicle_type_id":"4","last_reported":1740564634,"current_range_meters":17200,"station_id":"ce4bhnh2rcd13ifvqgtg","pricing_plan_id":"cebpf4jnsgd1na2vs0mg"},{"bike_id":"f35d6126-178c-4c08-8343-6bcc4ce94aad","system_id":"levelo_inurba_marseille","lat":43.24159,"lon":5.3972,"is_reserved":false,"is_disabled":false,"rental_uris":{"android":"levelo://app?vid=f35d6126-178c-4c08-8343-6bcc4ce94aad","ios":"levelo://app?vid=f35d6126-178c-4c08-8343-6bcc4ce94aad"},"vehicle_type_id":"4","last_reported":1740564634,"current_range_meters":17200,"station_id":"ce4bhn12rcd13ifvqgpg","pricing_plan_id":"cebpf4jnsgd1na2vs0mg"},{"bike_id":"072059ca-b533-4201-a9d8-cc256662ae7d","system_id":"levelo_inurba_marseille","lat":43.23138,"lon":5.43721,"is_reserved":false,"is_disabled":false,"rental_uris":{"android":"levelo://app?vid=072059ca-b533-4201-a9d8-cc256662ae7d","ios":"levelo://app?vid=072059ca-b533-4201-a9d8-cc256662ae7d"},"vehicle_type_id":"4","last_reported":1740564634,"current_range_meters":17200,"station_id":"ce4bhmp2rcd13ifvqgog","pricing_plan_id":"cebpf4jnsgd1na2vs0mg"},{"bike_id":"f1de0992-68c7-4ed1-bdd1-630b39d23f3a","system_id":"levelo_inurba_marseille","lat":43.2928,"lon":5.37449,"is_reserved":false,"is_disabled":false,"rental_uris":{"android":"levelo://app?vid=f1de0992-68c7-4ed1-bdd1-630b39d23f3a","ios":"levelo://app?vid=f1de0992-68c7-4ed1-bdd1-630b39d23f3a"},"vehicle_type_id":"4","last_reported":1740564634,"current_range_meters":17200,"station_id":"ce4bgi12rcd13ifvqb70","pricing_plan_id":"cebpf4jnsgd1na2vs0mg"},{"bike_id":"d52621a7-0a55-4e5b-8a76-da13389902cc","system_id":"levelo_inurba_marseille","lat":43.25357,"lon":5.42606,"is_reserved":false,"is_disabled":false,"rental_uris":{"android":"levelo://app?vid=d52621a7-0a55-4e5b-8a76-da13389902cc","ios":"levelo://app?vid=d52621a7-0a55-4e5b-8a76-da13389902cc"},"vehicle_type_id":"4","last_reported":1740564634,"current_range_meters":17200,"station_id":"","pricing_plan_id":"cebpf4jnsgd1na2vs0mg"},{"bike_id":"77f321bc-ad57-48ab-99f2-dd0491f873a5","system_id":"levelo_inurba_marseille","lat":43.27908,"lon":5.39588,"is_reserved":false,"is_disabled":false,"rental_uris":{"android":"levelo://app?vid=77f321bc-ad57-48ab-99f2-dd0491f873a5","ios":"levelo://app?vid=77f321bc-ad57-48ab-99f2-dd0491f873a5"},"vehicle_type_id":"4","last_reported":1740564634,"current_range_meters":17600,"station_id":"ce4bhf92rcd13ifvqf40","pricing_plan_id":"cebpf4jnsgd1na2vs0mg"},{"bike_id":"4a3e039e-ed6b-4c9d-af37-79220baf838b","system_id":"levelo_inurba_marseille","lat":43.25692,"lon":5.41103,"is_reserved":false,"is_disabled":false,"rental_uris":{"android":"levelo://app?vid=4a3e039e-ed6b-4c9d-af37-79220baf838b","ios":"levelo://app?vid=4a3e039e-ed6b-4c9d-af37-79220baf838b"},"vehicle_type_id":"4","last_reported":1740564634,"current_range_meters":16800,"station_id":"ce4bhkp2rcd13ifvqgd0","pricing_plan_id":"cebpf4jnsgd1na2vs0mg"},{"bike_id":"6578fd60-843d-47ee-9c6d-63ad8e946af2","system_id":"levelo_inurba_marseille","lat":43.30875,"lon":5.37175,"is_reserved":false,"is_disabled":false,"rental_uris":{"android":"levelo://app?vid=6578fd60-843d-47ee-9c6d-63ad8e946af2","ios":"levelo://app?vid=6578fd60-843d-47ee-9c6d-63ad8e946af2"},"vehicle_type_id":"4","last_reported":1740564634,"current_range_meters":17200,"station_id":"ce4bguh2rcd13ifvqckg","pricing_plan_id":"cebpf4jnsgd1na2vs0mg"},{"bike_id":"32022f30-217e-4459-b186-dd7b6ca601cd","system_id":"levelo_inurba_marseille","lat":43.27817,"lon":5.40717,"is_reserved":false,"is_disabled":false,"rental_uris":{"android":"levelo://app?vid=32022f30-217e-4459-b186-dd7b6ca601cd","ios":"levelo://app?vid=32022f30-217e-4459-b186-dd7b6ca601cd"},"vehicle_type_id":"4","last_reported":1740564634,"current_range_meters":17600,"station_id":"ce4bhnh2rcd13ifvqgtg","pricing_plan_id":"cebpf4jnsgd1na2vs0mg"},{"bike_id":"af9da322-8a73-40b1-bc30-9bde4331cc08","system_id":"levelo_inurba_marseille","lat":43.29991,"lon":5.37185,"is_reserved":false,"is_disabled":false,"rental_uris":{"android":"levelo://app?vid=af9da322-8a73-40b1-bc30-9bde4331cc08","ios":"levelo://app?vid=af9da322-8a73-40b1-bc30-9bde4331cc08"},"vehicle_type_id":"4","last_reported":1740564634,"current_range_meters":16000,"station_id":"ce4bgr92rcd13ifvqc7g","pricing_plan_id":"cebpf4jnsgd1na2vs0mg"},{"bike_id":"ed89dd9b-9e07-4355-adaf-c96b1ed238b3","system_id":"levelo_inurba_marseille","lat":43.30889,"lon":5.37196,"is_reserved":false,"is_disabled":false,"rental_uris":{"android":"levelo://app?vid=ed89dd9b-9e07-4355-adaf-c96b1ed238b3","ios":"levelo://app?vid=ed89dd9b-9e07-4355-adaf-c96b1ed238b3"},"vehicle_type_id":"4","last_reported":1740564634,"current_range_meters":17200,"station_id":"ce4bguh2rcd13ifvqckg","pricing_plan_id":"cebpf4jnsgd1na2vs0mg"},{"bike_id":"ee7498ac-afae-4101-a827-ddb2ec43033c","system_id":"levelo_inurba_marseille","lat":43.23184,"lon":5.39989,"is_reserved":false,"is_disabled":false,"rental_uris":{"android":"levelo://app?vid=ee7498ac-afae-4101-a827-ddb2ec43033c","ios":"levelo://app?vid=ee7498ac-afae-4101-a827-ddb2ec43033c"},"vehicle_type_id":"4","last_reported":1740564634,"current_range_meters":18000,"station_id":"ce4bhn12rcd13ifvqgqg","pricing_plan_id":"cebpf4jnsgd1na2vs0mg"},{"bike_id":"c960a6fc-b546-4c93-a520-c1731c5fec94","system_id":"levelo_inurba_marseille","lat":43.28417,"lon":5.34987,"is_reserved":false,"is_disabled":false,"rental_uris":{"android":"levelo://app?vid=c960a6fc-b546-4c93-a520-c1731c5fec94","ios":"levelo://app?vid=c960a6fc-b546-4c93-a520-c1731c5fec94"},"vehicle_type_id":"4","last_reported":1740564634,"current_range_meters":17600,"station_id":"ce4bhbh2rcd13ifvqepg","pricing_plan_id":"cebpf4jnsgd1na2vs0mg"},{"bike_id":"c72b354a-7ac8-4b70-a688-e6c0ed969746","system_id":"levelo_inurba_marseille","lat":43.29311,"lon":5.3718,"is_reserved":false,"is_disabled":true,"rental_uris":{"android":"levelo://app?vid=c72b354a-7ac8-4b70-a688-e6c0ed969746","ios":"levelo://app?vid=c72b354a-7ac8-4b70-a688-e6c0ed969746"},"vehicle_type_id":"4","last_reported":1740564634,"current_range_meters":17600,"station_id":"ce4bgh92rcd13ifvqb40","pricing_plan_id":"cebpf4jnsgd1na2vs0mg"},{"bike_id":"6b609c9a-c965-4526-aac1-b7b3847f259e","system_id":"levelo_inurba_marseille","lat":43.24805,"lon":5.3745,"is_reserved":false,"is_disabled":false,"rental_uris":{"android":"levelo://app?vid=6b609c9a-c965-4526-aac1-b7b3847f259e","ios":"levelo://app?vid=6b609c9a-c965-4526-aac1-b7b3847f259e"},"vehicle_type_id":"4","last_reported":1740564634,"current_range_meters":17600,"station_id":"ce4bhgh2rcd13ifvqfb0","pricing_plan_id":"cebpf4jnsgd1na2vs0mg"},{"bike_id":"7d99f3d8-234e-4d01-b370-daaf67258659","system_id":"levelo_inurba_marseille","lat":43.27059,"lon":5.40255,"is_reserved":false,"is_disabled":false,"rental_uris":{"android":"levelo://app?vid=7d99f3d8-234e-4d01-b370-daaf67258659","ios":"levelo://app?vid=7d99f3d8-234e-4d01-b370-daaf67258659"},"vehicle_type_id":"4","last_reported":1740564634,"current_range_meters":18000,"station_id":"ce4bhk92rcd13ifvqgc0","pricing_plan_id":"cebpf4jnsgd1na2vs0mg"},{"bike_id":"79b59429-74d2-43de-9757-413a6d0f0926","system_id":"levelo_inurba_marseille","lat":43.2952,"lon":5.37509,"is_reserved":false,"is_disabled":false,"rental_uris":{"android":"levelo://app?vid=79b59429-74d2-43de-9757-413a6d0f0926","ios":"levelo://app?vid=79b59429-74d2-43de-9757-413a6d0f0926"},"vehicle_type_id":"4","last_reported":1740564634,"current_range_meters":17200,"station_id":"ce4bgkp2rcd13ifvqbmg","pricing_plan_id":"cebpf4jnsgd1na2vs0mg"},{"bike_id":"ebe3225c-5e14-4371-a556-e603c6923b23","system_id":"levelo_inurba_marseille","lat":43.30872,"lon":5.39667,"is_reserved":false,"is_disabled":false,"rental_uris":{"android":"levelo://app?vid=ebe3225c-5e14-4371-a556-e603c6923b23","ios":"levelo://app?vid=ebe3225c-5e14-4371-a556-e603c6923b23"},"vehicle_type_id":"4","last_reported":1740564634,"current_range_meters":18000,"station_id":"ce4bh012rcd13ifvqcv0","pricing_plan_id":"cebpf4jnsgd1na2vs0mg"},{"bike_id":"a567e915-6ada-49d9-8a11-d1ea39f71022","system_id":"levelo_inurba_marseille","lat":43.30533,"lon":5.36699,"is_reserved":false,"is_disabled":false,"rental_uris":{"android":"levelo://app?vid=a567e915-6ada-49d9-8a11-d1ea39f71022","ios":"levelo://app?vid=a567e915-6ada-49d9-8a11-d1ea39f71022"},"vehicle_type_id":"4","last_reported":1740564634,"current_range_meters":18000,"station_id":"ce4bgrp2rcd13ifvqc9g","pricing_plan_id":"cebpf4jnsgd1na2vs0mg"},{"bike_id":"fdfff4b8-8cdc-402a-af86-eab2a05a717b","system_id":"levelo_inurba_marseille","lat":43.309,"lon":5.36853,"is_reserved":false,"is_disabled":false,"rental_uris":{"android":"levelo://app?vid=fdfff4b8-8cdc-402a-af86-eab2a05a717b","ios":"levelo://app?vid=fdfff4b8-8cdc-402a-af86-eab2a05a717b"},"vehicle_type_id":"4","last_reported":1740564634,"current_range_meters":18000,"station_id":"ce4bgn92rcd13ifvqbvg","pricing_plan_id":"cebpf4jnsgd1na2vs0mg"},{"bike_id":"0edf3a85-0e12-4f65-a670-900a1988fcf3","system_id":"levelo_inurba_marseille","lat":43.30422,"lon":5.41295,"is_reserved":false,"is_disabled":true,"rental_uris":{"android":"levelo://app?vid=0edf3a85-0e12-4f65-a670-900a1988fcf3","ios":"levelo://app?vid=0edf3a85-0e12-4f65-a670-900a1988fcf3"},"vehicle_type_id":"4","last_reported":1740564634,"current_range_meters":18800,"station_id":"ce4bhop2rcd13ifvqh8g","pricing_plan_id":"cebpf4jnsgd1na2vs0mg"},{"bike_id":"5ef1d1f2-96c0-457d-b5a4-ba311750536d","system_id":"levelo_inurba_marseille","lat":43.2979,"lon":5.39341,"is_reserved":false,"is_disabled":false,"rental_uris":{"android":"levelo://app?vid=5ef1d1f2-96c0-457d-b5a4-ba311750536d","ios":"levelo://app?vid=5ef1d1f2-96c0-457d-b5a4-ba311750536d"},"vehicle_type_id":"4","last_reported":1740564634,"current_range_meters":16400,"station_id":"chh1huq6cuj3fo74tm60","pricing_plan_id":"cebpf4jnsgd1na2vs0mg"},{"bike_id":"429ee922-7fea-4f5e-928b-246afb71ce72","system_id":"levelo_inurba_marseille","lat":43.2466,"lon":5.38147,"is_reserved":false,"is_disabled":false,"rental_uris":{"android":"levelo://app?vid=429ee922-7fea-4f5e-928b-246afb71ce72","ios":"levelo://app?vid=429ee922-7fea-4f5e-928b-246afb71ce72"},"vehicle_type_id":"4","last_reported":1740564634,"current_range_meters":18000,"station_id":"ce4bhih2rcd13ifvqfr0","pricing_plan_id":"cebpf4jnsgd1na2vs0mg"},{"bike_id":"87f66af3-5b2e-4716-b0cd-2329d26a4b9d","system_id":"levelo_inurba_marseille","lat":43.293783,"lon":5.378395,"is_reserved":false,"is_disabled":false,"rental_uris":{"android":"levelo://app?vid=87f66af3-5b2e-4716-b0cd-2329d26a4b9d","ios":"levelo://app?vid=87f66af3-5b2e-4716-b0cd-2329d26a4b9d"},"vehicle_type_id":"4","last_reported":1740564634,"current_range_meters":18000,"station_id":"ce4bhoh2rcd13ifvqh5g","pricing_plan_id":"cebpf4jnsgd1na2vs0mg"},{"bike_id":"79a63447-6cc3-4b08-8283-727fa49b96d6","system_id":"levelo_inurba_marseille","lat":43.29064,"lon":5.40025,"is_reserved":false,"is_disabled":false,"rental_uris":{"android":"levelo://app?vid=79a63447-6cc3-4b08-8283-727fa49b96d6","ios":"levelo://app?vid=79a63447-6cc3-4b08-8283-727fa49b96d6"},"vehicle_type_id":"4","last_reported":1740564634,"current_range_meters":18000,"station_id":"ce4bh392rcd13ifvqdm0","pricing_plan_id":"cebpf4jnsgd1na2vs0mg"},{"bike_id":"04967103-1ea7-4f7a-be85-126c298c8066","system_id":"levelo_inurba_marseille","lat":43.27051,"lon":5.40264,"is_reserved":false,"is_disabled":false,"rental_uris":{"android":"levelo://app?vid=04967103-1ea7-4f7a-be85-126c298c8066","ios":"levelo://app?vid=04967103-1ea7-4f7a-be85-126c298c8066"},"vehicle_type_id":"4","last_reported":1740564634,"current_range_meters":18000,"station_id":"ce4bhk92rcd13ifvqgc0","pricing_plan_id":"cebpf4jnsgd1na2vs0mg"},{"bike_id":"0eaf4200-435c-4ad9-b22b-ff896c3642f2","system_id":"levelo_inurba_marseille","lat":43.3024,"lon":5.39494,"is_reserved":false,"is_disabled":false,"rental_uris":{"android":"levelo://app?vid=0eaf4200-435c-4ad9-b22b-ff896c3642f2","ios":"levelo://app?vid=0eaf4200-435c-4ad9-b22b-ff896c3642f2"},"vehicle_type_id":"4","last_reported":1740564634,"current_range_meters":18800,"station_id":"ce4bh0p2rcd13ifvqd70","pricing_plan_id":"cebpf4jnsgd1na2vs0mg"},{"bike_id":"f9960b39-a005-483a-9711-897b2b03b323","system_id":"levelo_inurba_marseille","lat":43.28364,"lon":5.38647,"is_reserved":false,"is_disabled":true,"rental_uris":{"android":"levelo://app?vid=f9960b39-a005-483a-9711-897b2b03b323","ios":"levelo://app?vid=f9960b39-a005-483a-9711-897b2b03b323"},"vehicle_type_id":"4","last_reported":1740564634,"current_range_meters":18800,"station_id":"ce4bh492rcd13ifvqdvg","pricing_plan_id":"cebpf4jnsgd1na2vs0mg"},{"bike_id":"fd1c2c72-8171-40e8-af31-b190957023bb","system_id":"levelo_inurba_marseille","lat":43.27676,"lon":5.38944,"is_reserved":false,"is_disabled":false,"rental_uris":{"android":"levelo://app?vid=fd1c2c72-8171-40e8-af31-b190957023bb","ios":"levelo://app?vid=fd1c2c72-8171-40e8-af31-b190957023bb"},"vehicle_type_id":"4","last_reported":1740564634,"current_range_meters":18000,"station_id":"ce4bhi12rcd13ifvqfo0","pricing_plan_id":"cebpf4jnsgd1na2vs0mg"},{"bike_id":"f5900fd7-5ebc-4e9b-ae58-1b8e740df4a2","system_id":"levelo_inurba_marseille","lat":43.27821,"lon":5.40714,"is_reserved":false,"is_disabled":false,"rental_uris":{"android":"levelo://app?vid=f5900fd7-5ebc-4e9b-ae58-1b8e740df4a2","ios":"levelo://app?vid=f5900fd7-5ebc-4e9b-ae58-1b8e740df4a2"},"vehicle_type_id":"4","last_reported":1740564634,"current_range_meters":18800,"station_id":"ce4bhnh2rcd13ifvqgtg","pricing_plan_id":"cebpf4jnsgd1na2vs0mg"},{"bike_id":"073fd89f-a8da-43ac-848c-066e8930144c","system_id":"levelo_inurba_marseille","lat":43.286661,"lon":5.363434,"is_reserved":false,"is_disabled":false,"rental_uris":{"android":"levelo://app?vid=073fd89f-a8da-43ac-848c-066e8930144c","ios":"levelo://app?vid=073fd89f-a8da-43ac-848c-066e8930144c"},"vehicle_type_id":"4","last_reported":1740564634,"current_range_meters":20000,"station_id":"ce4bhah2rcd13ifvqei0","pricing_plan_id":"cebpf4jnsgd1na2vs0mg"},{"bike_id":"c347de43-65e2-490b-b05e-188aa167e6ac","system_id":"levelo_inurba_marseille","lat":43.279455,"lon":5.410525,"is_reserved":false,"is_disabled":false,"rental_uris":{"android":"levelo://app?vid=c347de43-65e2-490b-b05e-188aa167e6ac","ios":"levelo://app?vid=c347de43-65e2-490b-b05e-188aa167e6ac"},"vehicle_type_id":"4","last_reported":1740564634,"current_range_meters":18800,"station_id":"ce4bhnp2rcd13ifvqh0g","pricing_plan_id":"cebpf4jnsgd1na2vs0mg"},