{"last_updated":1729879963,"ttl":60,"version":"2.2","data":{"bikes":[{"bike_id":"8b48d226-6f6f-40ca-ad31-65e3ee5de44d","system_id":"levelo_inurba_marseille","lat":43.30953,"lon":5.39034,"is_reserved":false,"is_disabled":false,"rental_uris":{"android":"levelo://app?vid=8b48d226-6f6f-40ca-ad31-65e3ee5de44d","ios":"levelo://app?vid=8b48d226-6f6f-40ca-ad31-65e3ee5de44d"},"vehicle_type_id":"4","last_reported":1729879963,"current_range_meters":38800,"station_id":"ce4bgup2rcd13ifvqco0","pricing_plan_id":"cebpf4jnsgd1na2vs0mg"},{"bike_id":"cf8900d7-2920-4a9e-b76c-b18ff42c8f37","system_id":"levelo_inurba_marseille","lat":43.24809,"lon":5.37456,"is_reserved":false,"is_disabled":false,"rental_uris":{"android":"levelo://app?vid=cf8900d7-2920-4a9e-b76c-b18ff42c8f37","ios":"levelo://app?vid=cf8900d7-2920-4a9e-b76c-b18ff42c8f37"},"vehicle_type_id":"4","last_reported":1729879963,"current_range_meters":16400,"station_id":"ce4bhgh2rcd13ifvqfb0","pricing_plan_id":"cebpf4jnsgd1na2vs0mg"},{"bike_id":"7dea3e7e-d097-49d0-a088-22b8f2f11a9f","system_id":"levelo_inurba_marseille","lat":43.291,"lon":5.38142,"is_reserved":false,"is_disabled":false,"rental_uris":{"android":"levelo://app?vid=7dea3e7e-d097-49d0-a088-22b8f2f11a9f","ios":"levelo://app?vid=7dea3e7e-d097-49d0-a088-22b8f2f11a9f"},"vehicle_type_id":"4","last_reported":1729879963,"current_range_meters":36400,"station_id":"ce4bh512rcd13ifvqe2g","pricing_plan_id":"cebpf4jnsgd1na2vs0mg"},{"bike_id":"d2d822e6-ec68-4e1b-baa5-111771c24761","system_id":"levelo_inurba_marseille","lat":43.29897,"lon":5.43674,"is_reserved":false,"is_disabled":false,"rental_uris":{"android":"levelo://app?vid=d2d822e6-ec68-4e1b-baa5-111771c24761","ios":"levelo://app?vid=d2d822e6-ec68-4e1b-baa5-111771c24761"},"vehicle_type_id":"4","last_reported":1729879963,"current_range_meters":18000,"station_id":"ce4bhpp2rcd13ifvqhfg","pricing_plan_id":"cebpf4jnsgd1na2vs0mg"},{"bike_id":"658bfff3-7447-4dd6-9000-656b6647cd35","system_id":"levelo_inurba_marseille","lat":43.29888,"lon":5.39733,"is_reserved":false,"is_disabled":false,"rental_uris":{"android":"levelo://app?vid=658bfff3-7447-4dd6-9000-656b6647cd35","ios":"levelo://app?vid=658bfff3-7447-4dd6-9000-656b6647cd35"},"vehicle_type_id":"4","last_reported":1729879963,"current_range_meters":20000,"station_id":"ce4bh0h2rcd13ifvqd50","pricing_plan_id":"cebpf4jnsgd1na2vs0mg"},{"bike_id":"ba23ff9b-4577-427e-a1be-4c831a6f0132","system_id":"levelo_inurba_marseille","lat":43.289368,"lon":5.366429,"is_reserved":false,"is_disabled":false,"rental_uris":{"android":"levelo://app?vid=ba23ff9b-4577-427e-a1be-4c831a6f0132","ios":"levelo://app?vid=ba23ff9b-4577-427e-a1be-4c831a6f0132"},"vehicle_type_id":"4","last_reported":1729879963,"current_range_meters":12000,"station_id":"ce4bha12rcd13ifvqef0","pricing_plan_id":"cebpf4jnsgd1na2vs0mg"},{"bike_id":"9b32293b-81be-45fa-8866-6b871c88cbf7","system_id":"levelo_inurba_marseille","lat":43.29491,"lon":5.38688,"is_reserved":false,"is_disabled":false,"rental_uris":{"android":"levelo://app?vid=9b32293b-81be-45fa-8866-6b871c88cbf7","ios":"levelo://app?vid=9b32293b-81be-45fa-8866-6b871c88cbf7"},"vehicle_type_id":"4","last_reported":1729879963,"current_range_meters":34800,"station_id":"","pricing_plan_id":"cebpf4jnsgd1na2vs0mg"},{"bike_id":"2818ef3d-c10c-4252-882d-b244205aa826","system_id":"levelo_inurba_marseille","lat":43.29418,"lon":5.38628,"is_reserved":false,"is_disabled":false,"rental_uris":{"android":"levelo://app?vid=2818ef3d-c10c-4252-882d-b244205aa826","ios":"levelo://app?vid=2818ef3d-c10c-4252-882d-b244205aa826"},"vehicle_type_id":"4","last_reported":1729879963,"current_range_meters":3200,"station_id":"ce4bh2h2rcd13ifvqdh0","pricing_plan_id":"cebpf4jnsgd1na2vs0mg"},{"bike_id":"1542f6de-3dd1-481c-99dc-f28588a5d22a","system_id":"levelo_inurba_marseille","lat":43.31326,"lon":5.39701,"is_reserved":false,"is_disabled":false,"rental_uris":{"android":"levelo://app?vid=1542f6de-3dd1-481c-99dc-f28588a5d22a","ios":"levelo://app?vid=1542f6de-3dd1-481c-99dc-f28588a5d22a"},"vehicle_type_id":"4","last_reported":1729879963,"current_range_meters":15200,"station_id":"ce4bgvp2rcd13ifvqcu0","pricing_plan_id":"cebpf4jnsgd1na2vs0mg"},{"bike_id":"865124a8-5cf8-4f1f-ba5e-7dd42a2c84cc","system_id":"levelo_inurba_marseille","lat":43.28277,"lon":5.35071,"is_reserved":false,"is_disabled":false,"rental_uris":{"android":"levelo://app?vid=865124a8-5cf8-4f1f-ba5e-7dd42a2c84cc","ios":"levelo://app?vid=865124a8-5cf8-4f1f-ba5e-7dd42a2c84cc"},"vehicle_type_id":"4","last_reported":1729879963,"current_range_meters":17600,"station_id":"ce4bhbp2rcd13ifvqerg","pricing_plan_id":"cebpf4jnsgd1na2vs0mg"},{"bike_id":"2fa69130-f7b2-4f69-92e8-53961efecd42","system_id":"levelo_inurba_marseille","lat":43.29311,"lon":5.37182,"is_reserved":false,"is_disabled":false,"rental_uris":{"android":"levelo://app?vid=2fa69130-f7b2-4f69-92e8-53961efecd42","ios":"levelo://app?vid=2fa69130-f7b2-4f69-92e8-53961efecd42"},"vehicle_type_id":"4","last_reported":1729879963,"current_range_meters":24800,"station_id":"ce4bgh92rcd13ifvqb40","pricing_plan_id":"cebpf4jnsgd1na2vs0mg"},{"bike_id":"a8f873ea-28a3-4dbd-885a-7b5a4e5fd8f2","system_id":"levelo_inurba_marseille","lat":43.290452,"lon":5.376106,"is_reserved":false,"is_disabled":false,"rental_uris":{"android":"levelo://app?vid=a8f873ea-28a3-4dbd-885a-7b5a4e5fd8f2","ios":"levelo://app?vid=a8f873ea-28a3-4dbd-885a-7b5a4e5fd8f2"},"vehicle_type_id":"4","last_reported":1729879963,"current_range_meters":35600,"station_id":"ce4bh5p2rcd13ifvqe4g","pricing_plan_id":"cebpf4jnsgd1na2vs0mg"},{"bike_id":"364c5172-112a-4207-8afc-cfdd1eaafdfa","system_id":"levelo_inurba_marseille","lat":43.30262,"lon":5.40104,"is_reserved":false,"is_disabled":false,"rental_uris":{"android":"levelo://app?vid=364c5172-112a-4207-8afc-cfdd1eaafdfa","ios":"levelo://app?vid=364c5172-112a-4207-8afc-cfdd1eaafdfa"},"vehicle_type_id":"4","last_reported":1729879963,"current_range_meters":24000,"station_id":"ce4bgvh2rcd13ifvqcs0","pricing_plan_id":"cebpf4jnsgd1na2vs0mg"},{"bike_id":"7dd28cd5-2777-46ba-b055-e58191032c61","system_id":"levelo_inurba_marseille","lat":43.30534,"lon":5.36714,"is_reserved":false,"is_disabled":false,"rental_uris":{"android":"levelo://app?vid=7dd28cd5-2777-46ba-b055-e58191032c61","ios":"levelo://app?vid=7dd28cd5-2777-46ba-b055-e58191032c61"},"vehicle_type_id":"4","last_reported":1729879963,"current_range_meters":3600,"station_id":"ce4bgrp2rcd13ifvqc9g","pricing_plan_id":"cebpf4jnsgd1na2vs0mg"},{"bike_id":"c4b8dd00-6920-4fe3-84cb-cda27da2cbbe","system_id":"levelo_inurba_marseille","lat":43.29522,"lon":5.39037,"is_reserved":false,"is_disabled":false,"rental_uris":{"android":"levelo://app?vid=c4b8dd00-6920-4fe3-84cb-cda27da2cbbe","ios":"levelo://app?vid=c4b8dd00-6920-4fe3-84cb-cda27da2cbbe"},"vehicle_type_id":"4","last_reported":1729879963,"current_range_meters":26800,"station_id":"ce4bh3p2rcd13ifvqdp0","pricing_plan_id":"cebpf4jnsgd1na2vs0mg"},{"bike_id":"35a7b118-962b-4eb1-82fb-e1e659a1558b","system_id":"levelo_inurba_marseille","lat":43.26959,"lon":5.38634,"is_reserved":false,"is_disabled":false,"rental_uris":{"android":"levelo://app?vid=35a7b118-962b-4eb1-82fb-e1e659a1558b","ios":"levelo://app?vid=35a7b118-962b-4eb1-82fb-e1e659a1558b"},"vehicle_type_id":"4","last_reported":1729879963,"current_range_meters":8000,"station_id":"ce4bhh92rcd13ifvqfh0","pricing_plan_id":"cebpf4jnsgd1na2vs0mg"},{"bike_id":"b0ed08f1-3bc6-4da5-ad00-65687ed7db87","system_id":"levelo_inurba_marseille","lat":43.29868,"lon":5.39739,"is_reserved":false,"is_disabled":false,"rental_uris":{"android":"levelo://app?vid=b0ed08f1-3bc6-4da5-ad00-65687ed7db87","ios":"levelo://app?vid=b0ed08f1-3bc6-4da5-ad00-65687ed7db87"},"vehicle_type_id":"4","last_reported":1729879963,"current_range_meters":35200,"station_id":"ce4bh0h2rcd13ifvqd50","pricing_plan_id":"cebpf4jnsgd1na2vs0mg"},{"bike_id":"cbc5287e-dce8-418e-bac7-864a68889123","system_id":"levelo_inurba_marseille","lat":43.28406,"lon":5.34981,"is_reserved":false,"is_disabled":false,"rental_uris":{"android":"levelo://app?vid=cbc5287e-dce8-418e-bac7-864a68889123","ios":"levelo://app?vid=cbc5287e-dce8-418e-bac7-864a68889123"},"vehicle_type_id":"4","last_reported":1729879963,"current_range_meters":9200,"station_id":"ce4bhbh2rcd13ifvqepg","pricing_plan_id":"cebpf4jnsgd1na2vs0mg"},{"bike_id":"19defaaf-d1a3-4f59-a6f7-aecc211aaf77","system_id":"levelo_inurba_marseille","lat":43.26489,"lon":5.39543,"is_reserved":false,"is_disabled":false,"rental_uris":{"android":"levelo://app?vid=19defaaf-d1a3-4f59-a6f7-aecc211aaf77","ios":"levelo://app?vid=19defaaf-d1a3-4f59-a6f7-aecc211aaf77"},"vehicle_type_id":"4","last_reported":1729879963,"current_range_meters":3600,"station_id":"ce4bhi12rcd13ifvqfq0","pricing_plan_id":"cebpf4jnsgd1na2vs0mg"},{"bike_id":"d3ad0654-8b42-424b-9819-4bfe010ac5af","system_id":"levelo_inurba_marseille","lat":43.24545,"lon":5.39523,"is_reserved":false,"is_disabled":false,"rental_uris":{"android":"levelo://app?vid=d3ad0654-8b42-424b-9819-4bfe010ac5af","ios":"levelo://app?vid=d3ad0654-8b42-424b-9819-4bfe010ac5af"},"vehicle_type_id":"4","last_reported":1729879963,"current_range_meters":38400,"station_id":"ce4bhlp2rcd13ifvqgjg","pricing_plan_id":"cebpf4jnsgd1na2vs0mg"},{"bike_id":"66731e45-439d-4849-b312-3fecd8f11e42","system_id":"levelo_inurba_marseille","lat":43.29313,"lon":5.3719,"is_reserved":false,"is_disabled":false,"rental_uris":{"android":"levelo://app?vid=66731e45-439d-4849-b312-3fecd8f11e42","ios":"levelo://app?vid=66731e45-439d-4849-b312-3fecd8f11e42"},"vehicle_type_id":"4","last_reported":1729879963,"current_range_meters":8800,"station_id":"ce4bgh92rcd13ifvqb40","pricing_plan_id":"cebpf4jnsgd1na2vs0mg"},{"bike_id":"c2de6b12-e660-4a12-85cd-7d873584851c","system_id":"levelo_inurba_marseille","lat":43.31694,"lon":5.40475,"is_reserved":false,"is_disabled":false,"rental_uris":{"android":"levelo://app?vid=c2de6b12-e660-4a12-85cd-7d873584851c","ios":"levelo://app?vid=c2de6b12-e660-4a12-85cd-7d873584851c"},"vehicle_type_id":"4","last_reported":1729879963,"current_range_meters":20000,"station_id":"ce4bh012rcd13ifvqd00","pricing_plan_id":"cebpf4jnsgd1na2vs0mg"},{"bike_id":"201d9a27-4091-40b1-bf89-5b05043c2e85","system_id":"levelo_inurba_marseille","lat":43.29961,"lon":5.38502,"is_reserved":false,"is_disabled":false,"rental_uris":{"android":"levelo://app?vid=201d9a27-4091-40b1-bf89-5b05043c2e85","ios":"levelo://app?vid=201d9a27-4091-40b1-bf89-5b05043c2e85"},"vehicle_type_id":"4","last_reported":1729879963,"current_range_meters":16800,"station_id":"ce4bgj92rcd13ifvqbd0","pricing_plan_id":"cebpf4jnsgd1na2vs0mg"},{"bike_id":"911987a0-1fc2-4e65-a7da-1d0539091a28","system_id":"levelo_inurba_marseille","lat":43.28153,"lon":5.42647,"is_reserved":false,"is_disabled":false,"rental_uris":{"android":"levelo://app?vid=911987a0-1fc2-4e65-a7da-1d0539091a28","ios":"levelo://app?vid=911987a0-1fc2-4e65-a7da-1d0539091a28"},"vehicle_type_id":"4","last_reported":1729879963,"current_range_meters":27200,"station_id":"ce4bhnh2rcd13ifvqgug","pricing_plan_id":"cebpf4jnsgd1na2vs0mg"},{"bike_id":"63a1a4b4-12bd-4f7e-833d-a9eb98822fc0","system_id":"levelo_inurba_marseille","lat":43.29261,"lon":5.38442,"is_reserved":false,"is_disabled":false,"rental_uris":{"android":"levelo://app?vid=63a1a4b4-12bd-4f7e-833d-a9eb98822fc0","ios":"levelo://app?vid=63a1a4b4-12bd-4f7e-833d-a9eb98822fc0"},"vehicle_type_id":"4","last_reported":1729879963,"current_range_meters":6000,"station_id":"ce4bh692rcd13ifvqea0","pricing_plan_id":"cebpf4jnsgd1na2vs0mg"},{"bike_id":"7ec442a2-9e29-41db-9e6a-7b8ed8cd08d4","system_id":"levelo_inurba_marseille","lat":43.30345,"lon":5.40438,"is_reserved":false,"is_disabled":false,"rental_uris":{"android":"levelo://app?vid=7ec442a2-9e29-41db-9e6a-7b8ed8cd08d4","ios":"levelo://app?vid=7ec442a2-9e29-41db-9e6a-7b8ed8cd08d4"},"vehicle_type_id":"4","last_reported":1729879963,"current_range_meters":24400,"station_id":"ce4bh012rcd13ifvqd10","pricing_plan_id":"cebpf4jnsgd1na2vs0mg"},{"bike_id":"3b9afd7c-f306-4ffe-979c-f1c8f1b08b1b","system_id":"levelo_inurba_marseille","lat":43.2558,"lon":5.38239,"is_reserved":false,"is_disabled":false,"rental_uris":{"android":"levelo://app?vid=3b9afd7c-f306-4ffe-979c-f1c8f1b08b1b","ios":"levelo://app?vid=3b9afd7c-f306-4ffe-979c-f1c8f1b08b1b"},"vehicle_type_id":"4","last_reported":1729879963,"current_range_meters":8800,"station_id":"ce4bhih2rcd13ifvqfs0","pricing_plan_id":"cebpf4jnsgd1na2vs0mg"},{"bike_id":"245e9d09-e2ca-4301-92f7-565ab489eb44","system_id":"levelo_inurba_marseille","lat":43.31325,"lon":5.39693,"is_reserved":false,"is_disabled":false,"rental_uris":{"android":"levelo://app?vid=245e9d09-e2ca-4301-92f7-565ab489eb44","ios":"levelo://app?vid=245e9d09-e2ca-4301-92f7-565ab489eb44"},"vehicle_type_id":"4","last_reported":1729879963,"current_range_meters":19200,"station_id":"ce4bgvp2rcd13ifvqcu0","pricing_plan_id":"cebpf4jnsgd1na2vs0mg"},{"bike_id":"bbbf1317-0cef-47f4-b80a-4dcb1e32720d","system_id":"levelo_inurba_marseille","lat":43.32333,"lon":5.40623,"is_reserved":false,"is_disabled":false,"rental_uris":{"android":"levelo://app?vid=bbbf1317-0cef-47f4-b80a-4dcb1e32720d","ios":"levelo://app?vid=bbbf1317-0cef-47f4-b80a-4dcb1e32720d"},"vehicle_type_id":"4","last_reported":1729879963,"current_range_meters":28000,"station_id":"ce4bhq92rcd13ifvqhjg","pricing_plan_id":"cebpf4jnsgd1na2vs0mg"},{"bike_id":"67eb21e1-5129-42be-8058-7b9265204209","system_id":"levelo_inurba_marseille","lat":43.29251,"lon":5.4091,"is_reserved":false,"is_disabled":false,"rental_uris":{"android":"levelo://app?vid=67eb21e1-5129-42be-8058-7b9265204209","ios":"levelo://app?vid=67eb21e1-5129-42be-8058-7b9265204209"},"vehicle_type_id":"4","last_reported":1729879963,"current_range_meters":38800,"station_id":"ce4bh192rcd13ifvqdc0","pricing_plan_id":"cebpf4jnsgd1na2vs0mg"},{"bike_id":"0d37e341-ba87-4d60-ad8d-87b019fd0cd1","system_id":"levelo_inurba_marseille","lat":43.27808,"lon":5.40713,"is_reserved":false,"is_disabled":false,"rental_uris":{"android":"levelo://app?vid=0d37e341-ba87-4d60-ad8d-87b019fd0cd1","ios":"levelo://app?vid=0d37e341-ba87-4d60-ad8d-87b019fd0cd1"},"vehicle_type_id":"4","last_reported":1729879963,"current_range_meters":38800,"station_id":"ce4bhnh2rcd13ifvqgtg","pricing_plan_id":"cebpf4jnsgd1na2vs0mg"},{"bike_id":"914671d9-159b-452e-80e3-3092799d2235","system_id":"levelo_inurba_marseille","lat":43.32334,"lon":5.40618,"is_reserved":false,"is_disabled":false,"rental_uris":{"android":"levelo://app?vid=914671d9-159b-452e-80e3-3092799d2235","ios":"levelo://app?vid=914671d9-159b-452e-80e3-3092799d2235"},"vehicle_type_id":"4","last_reported":1729879963,"current_range_meters":27600,"station_id":"ce4bhq92rcd13ifvqhjg","pricing_plan_id":"cebpf4jnsgd1na2vs0mg"},{"bike_id":"2a08ce25-704d-4c6d-9390-4c4f3706fca9","system_id":"levelo_inurba_marseille","lat":43.303711,"lon":5.38566,"is_reserved":false,"is_disabled":false,"rental_uris":{"android":"levelo://app?vid=2a08ce25-704d-4c6d-9390-4c4f3706fca9","ios":"levelo://app?vid=2a08ce25-704d-4c6d-9390-4c4f3706fca9"},"vehicle_type_id":"4","last_reported":1729879963,"current_range_meters":29600,"station_id":"ce4bgr92rcd13ifvqc6g","pricing_plan_id":"cebpf4jnsgd1na2vs0mg"},{"bike_id":"b58ba21f-c331-4e07-82b6-e691fe6a1a1e","system_id":"levelo_inurba_marseille","lat":43.28607,"lon":5.37068,"is_reserved":false,"is_disabled":false,"rental_uris":{"android":"levelo://app?vid=b58ba21f-c331-4e07-82b6-e691fe6a1a1e","ios":"levelo://app?vid=b58ba21f-c331-4e07-82b6-e691fe6a1a1e"},"vehicle_type_id":"4","last_reported":1729879963,"current_range_meters":8000,"station_id":"ce4bht12rcd13ifvqi60","pricing_plan_id":"cebpf4jnsgd1na2vs0mg"},{"bike_id":"89206673-fdc6-4c61-b767-c66677e18d0b","system_id":"levelo_inurba_marseille","lat":43.22931,"lon":5.35378,"is_reserved":false,"is_disabled":false,"rental_uris":{"android":"levelo://app?vid=89206673-fdc6-4c61-b767-c66677e18d0b","ios":"levelo://app?vid=89206673-fdc6-4c61-b767-c66677e18d0b"},"vehicle_type_id":"4","last_reported":1729879963,"current_range_meters":35600,"station_id":"cpo3532slgdg3j2ikp40","pricing_plan_id":"cebpf4jnsgd1na2vs0mg"},{"bike_id":"ced98659-8758-459e-b747-193d45b4c0dd","system_id":"levelo_inurba_marseille","lat":43.3169,"lon":5.40479,"is_reserved":false,"is_disabled":false,"rental_uris":{"android":"levelo://app?vid=ced98659-8758-459e-b747-193d45b4c0dd","ios":"levelo://app?vid=ced98659-8758-459e-b747-193d45b4c0dd"},"vehicle_type_id":"4","last_reported":1729879963,"current_range_meters":38800,"station_id":"ce4bh012rcd13ifvqd00","pricing_plan_id":"cebpf4jnsgd1na2vs0mg"},{"bike_id":"e90f848b-3160-4a0a-a568-6d4bf0cdc224","system_id":"levelo_inurba_marseille","lat":43.26104,"lon":5.38732,"is_reserved":false,"is_disabled":false,"rental_uris":{"android":"levelo://app?vid=e90f848b-3160-4a0a-a568-6d4bf0cdc224","ios":"levelo://app?vid=e90f848b-3160-4a0a-a568-6d4bf0cdc224"},"vehicle_type_id":"4","last_reported":1729879963,"current_range_meters":2000,"station_id":"ce4bhhh2rcd13ifvqfl0","pricing_plan_id":"cebpf4jnsgd1na2vs0mg"},{"bike_id":"a21c3d29-49be-4d54-9325-5d32aaf7f281","system_id":"levelo_inurba_marseille","lat":43.290375,"lon":5.359238,"is_reserved":false,"is_disabled":false,"rental_uris":{"android":"levelo://app?vid=a21c3d29-49be-4d54-9325-5d32aaf7f281","ios":"levelo://app?vid=a21c3d29-49be-4d54-9325-5d32aaf7f281"},"vehicle_type_id":"4","last_reported":1729879963,"current_range_meters":37600,"station_id":"ce4bha92rcd13ifvqeg0","pricing_plan_id":"cebpf4jnsgd1na2vs0mg"},{"bike_id":"8ddde980-6cf8-4346-a6ac-6ec466f15eb0","system_id":"levelo_inurba_marseille","lat":43.30592,"lon":5.39359,"is_reserved":false,"is_disabled":false,"rental_uris":{"android":"levelo://app?vid=8ddde980-6cf8-4346-a6ac-6ec466f15eb0","ios":"levelo://app?vid=8ddde980-6cf8-4346-a6ac-6ec466f15eb0"},"vehicle_type_id":"4","last_reported":1729879963,"current_range_meters":28800,"station_id":"ce4bh0p2rcd13ifvqd80","pricing_plan_id":"cebpf4jnsgd1na2vs0mg"},{"bike_id":"fbda76cf-ad32-44f5-8e46-a16eaabd2829","system_id":"levelo_inurba_marseille","lat":43.22936,"lon":5.35376,"is_reserved":false,"is_disabled":false,"rental_uris":{"android":"levelo://app?vid=fbda76cf-ad32-44f5-8e46-a16eaabd2829","ios":"levelo://app?vid=fbda76cf-ad32-44f5-8e46-a16eaabd2829"},"vehicle_type_id":"4","last_reported":1729879963,"current_range_meters":18000,"station_id":"cpo3532slgdg3j2ikp40","pricing_plan_id":"cebpf4jnsgd1na2vs0mg"},{"bike_id":"ace9e578-c8a4-4e9d-abde-1b3a8dadd10b","system_id":"levelo_inurba_marseille","lat":43.31711,"lon":5.43708,"is_reserved":false,"is_disabled":false,"rental_uris":{"android":"levelo://app?vid=ace9e578-c8a4-4e9d-abde-1b3a8dadd10b","ios":"levelo://app?vid=ace9e578-c8a4-4e9d-abde-1b3a8dadd10b"},"vehicle_type_id":"4","last_reported":1729879963,"current_range_meters":30000,"station_id":"ce4bhp92rcd13ifvqhcg","pricing_plan_id":"cebpf4jnsgd1na2vs0mg"},{"bike_id":"cca78a62-2f20-427b-b53d-da5e1aa1d208","system_id":"levelo_inurba_marseille","lat":43.24803,"lon":5.37461,"is_reserved":false,"is_disabled":false,"rental_uris":{"android":"levelo://app?vid=cca78a62-2f20-427b-b53d-da5e1aa1d208","ios":"levelo://app?vid=cca78a62-2f20-427b-b53d-da5e1aa1d208"},"vehicle_type_id":"4","last_reported":1729879963,"current_range_meters":5600,"station_id":"ce4bhgh2rcd13ifvqfb0","pricing_plan_id":"cebpf4jnsgd1na2vs0mg"},{"bike_id":"b8aa9fbf-fabe-4a48-be16-c968b8534f26","system_id":"levelo_inurba_marseille","lat":43.31121,"lon":5.37776,"is_reserved":false,"is_disabled":false,"rental_uris":{"android":"levelo://app?vid=b8aa9fbf-fabe-4a48-be16-c968b8534f26","ios":"levelo://app?vid=b8aa9fbf-fabe-4a48-be16-c968b8534f26"},"vehicle_type_id":"4","last_reported":1729879963,"current_range_meters":37600,"station_id":"ce4bgt92rcd13ifvqcg0","pricing_plan_id":"cebpf4jnsgd1na2vs0mg"},{"bike_id":"d8ea0b5e-c522-44a4-b80a-d82a0225b0dd","system_id":"levelo_inurba_marseille","lat":43.28938,"lon":5.36635,"is_reserved":false,"is_disabled":false,"rental_uris":{"android":"levelo://app?vid=d8ea0b5e-c522-44a4-b80a-d82a0225b0dd","ios":"levelo://app?vid=d8ea0b5e-c522-44a4-b80a-d82a0225b0dd"},"vehicle_type_id":"4","last_reported":1729879963,"current_range_meters":38800,"station_id":"ce4bhap2rcd13ifvqek0","pricing_plan_id":"cebpf4jnsgd1na2vs0mg"},{"bike_id":"8fac51d6-c255-4d52-a52c-3a6892999a9d","system_id":"levelo_inurba_marseille","lat":43.29417,"lon":5.38621,"is_reserved":false,"is_disabled":false,"rental_uris":{"android":"levelo://app?vid=8fac51d6-c255-4d52-a52c-3a6892999a9d","ios":"levelo://app?vid=8fac51d6-c255-4d52-a52c-3a6892999a9d"},"vehicle_type_id":"4","last_reported":1729879963,"current_range_meters":15200,"station_id":"ce4bh2h2rcd13ifvqdh0","pricing_plan_id":"cebpf4jnsgd1na2vs0mg"},{"bike_id":"2cac713d-b217-4189-9ecb-ad5485245d21","system_id":"levelo_inurba_marseille","lat":43.30433,"lon":5.39752,"is_reserved":false,"is_disabled":false,"rental_uris":{"android":"levelo://app?vid=2cac713d-b217-4189-9ecb-ad5485245d21","ios":"levelo://app?vid=2cac713d-b217-4189-9ecb-ad5485245d21"},"vehicle_type_id":"4","last_reported":1729879963,"current_range_meters":33200,"station_id":"ce4bh092rcd13ifvqd20","pricing_plan_id":"cebpf4jnsgd1na2vs0mg"},{"bike_id":"6b4a445f-d248-4b7f-966a-bc23d1d429bc","system_id":"levelo_inurba_marseille","lat":43.29002,"lon":5.35614,"is_reserved":false,"is_disabled":false,"rental_uris":{"android":"levelo://app?vid=6b4a445f-d248-4b7f-966a-bc23d1d429bc","ios":"levelo://app?vid=6b4a445f-d248-4b7f-966a-bc23d1d429bc"},"vehicle_type_id":"4","last_reported":1729879963,"current_range_meters":31200,"station_id":"ce4bhb92rcd13ifvqen0","pricing_plan_id":"cebpf4jnsgd1na2vs0mg"},{"bike_id":"bc76c289-d8bd-4583-a518-4157015bb802","system_id":"levelo_inurba_marseille","lat":43.29422,"lon":5.38633,"is_reserved":false,"is_disabled":false,"rental_uris":{"android":"levelo://app?vid=bc76c289-d8bd-4583-a518-4157015bb802","ios":"levelo://app?vid=bc76c289-d8bd-4583-a518-4157015bb802"},"vehicle_type_id":"4","last_reported":1729879963,"current_range_meters":3600,"station_id":"ce4bh2h2rcd13ifvqdh0","pricing_plan_id":"cebpf4jnsgd1na2vs0mg"},{"bike_id":"db68af94-72d6-4a51-8ad6-ac009c574d7c","system_id":"levelo_inurba_marseille","lat":43.29309,"lon":5.37181,"is_reserved":false,"is_disabled":false,"rental_uris":{"android":"levelo://app?vid=db68af94-72d6-4a51-8ad6-ac009c574d7c","ios":"levelo://app?vid=db68af94-72d6-4a51-8ad6-ac009c574d7c"},"vehicle_type_id":"4","last_reported":1729879963,"current_range_meters":22000,"station_id":"ce4bgh92rcd13ifvqb40","pricing_plan_id":"cebpf4jnsgd1na2vs0mg"},{"bike_id":"7a9bebfb-3ca8-461f-9edc-3e4de00c7841","system_id":"levelo_inurba_marseille","lat":43.25576,"lon":5.38236,"is_reserved":false,"is_disabled":false,"rental_uris":{"android":"levelo://app?vid=7a9bebfb-3ca8-461f-9edc-3e4de00c7841","ios":"levelo://app?vid=7a9bebfb-3ca8-461f-9edc-3e4de00c7841"},"vehicle_type_id":"4","last_reported":1729879963,"current_range_meters":36400,"station_id":"ce4bhih2rcd13ifvqfs0","pricing_plan_id":"cebpf4jnsgd1na2vs0mg"},{"bike_id":"fa598dba-5d5b-4d59-a4c2-535501008941","system_id":"levelo_inurba_marseille","lat":43.26503,"lon":5.39538,"is_reserved":false,"is_disabled":false,"rental_uris":{"android":"levelo://app?vid=fa598dba-5d5b-4d59-a4c2-535501008941","ios":"levelo://app?vid=fa598dba-5d5b-4d59-a4c2-535501008941"},"vehicle_type_id":"4","last_reported":1729879963,"current_range_meters":28400,"station_id":"ce4bhi12rcd13ifvqfq0","pricing_plan_id":"cebpf4jnsgd1na2vs0mg"},{"bike_id":"a579f22c-42af-4cbb-b1a9-0cf86de7789f","system_id":"levelo_inurba_marseille","lat":43.28042,"lon":5.36943,"is_reserved":false,"is_disabled":false,"rental_uris":{"android":"levelo://app?vid=a579f22c-42af-4cbb-b1a9-0cf86de7789f","ios":"levelo://app?vid=a579f22c-42af-4cbb-b1a9-0cf86de7789f"},"vehicle_type_id":"4","last_reported":1729879963,"current_range_meters":6400,"station_id":"ce4bha12rcd13ifvqef0","pricing_plan_id":"cebpf4jnsgd1na2vs0mg"},{"bike_id":"fc013aa3-5c81-447d-814e-3d7692833e41","system_id":"levelo_inurba_marseille","lat":43.30138,"lon":5.39854,"is_reserved":false,"is_disabled":false,"rental_uris":{"android":"levelo://app?vid=fc013aa3-5c81-447d-814e-3d7692833e41","ios":"levelo://app?vid=fc013aa3-5c81-447d-814e-3d7692833e41"},"vehicle_type_id":"4","last_reported":1729879963,"current_range_meters":36400,"station_id":"ce4bh0h2rcd13ifvqd40","pricing_plan_id":"cebpf4jnsgd1na2vs0mg"},{"bike_id":"51fce531-213c-40f4-9238-769e9035e1f9","system_id":"levelo_inurba_marseille","lat":43.30256,"lon":5.40074,"is_reserved":false,"is_disabled":false,"rental_uris":{"android":"levelo://app?vid=51fce531-213c-40f4-9238-769e9035e1f9","ios":"levelo://app?vid=51fce531-213c-40f4-9238-769e9035e1f9"},"vehicle_type_id":"4","last_reported":1729879963,"current_range_meters":38800,"station_id":"ce4bgvh2rcd13ifvqcs0","pricing_plan_id":"cebpf4jnsgd1na2vs0mg"},{"bike_id":"30a58045-5e86-4621-8a97-37f74aea516a","system_id":"levelo_inurba_marseille","lat":43.3221,"lon":5.38744,"is_reserved":false,"is_disabled":false,"rental_uris":{"android":"levelo://app?vid=30a58045-5e86-4621-8a97-37f74aea516a","ios":"levelo://app?vid=30a58045-5e86-4621-8a97-37f74aea516a"},"vehicle_type_id":"4","last_reported":1729879963,"current_range_meters":12400,"station_id":"","pricing_plan_id":"cebpf4jnsgd1na2vs0mg"},{"bike_id":"585bddab-23a5-4e78-9e57-9779c242dddb","system_id":"levelo_inurba_marseille","lat":43.29421,"lon":5.38624,"is_reserved":false,"is_disabled":false,"rental_uris":{"android":"levelo://app?vid=585bddab-23a5-4e78-9e57-9779c242dddb","ios":"levelo://app?vid=585bddab-23a5-4e78-9e57-9779c242dddb"},"vehicle_type_id":"4","last_reported":1729879963,"current_range_meters":38800,"station_id":"ce4bh2h2rcd13ifvqdh0","pricing_plan_id":"cebpf4jnsgd1na2vs0mg"},{"bike_id":"e0b18b6e-ce93-4742-a184-6aa34e85b991","system_id":"levelo_inurba_marseille","lat":43.25931,"lon":5.40917,"is_reserved":false,"is_disabled":false,"rental_uris":{"android":"levelo://app?vid=e0b18b6e-ce93-4742-a184-6aa34e85b991","ios":"levelo://app?vid=e0b18b6e-ce93-4742-a184-6aa34e85b991"},"vehicle_type_id":"4","last_reported":1729879963,"current_range_meters":38000,"station_id":"ce4bhm92rcd13ifvqglg","pricing_plan_id":"cebpf4jnsgd1na2vs0mg"},{"bike_id":"d84e11bd-2ea5-457a-936d-e43d039096de","system_id":"levelo_inurba_marseille","lat":43.29021,"lon":5.38145,"is_reserved":false,"is_disabled":false,"rental_uris":{"android":"levelo://app?vid=d84e11bd-2ea5-457a-936d-e43d039096de","ios":"levelo://app?vid=d84e11bd-2ea5-457a-936d-e43d039096de"},"vehicle_type_id":"4","last_reported":1729879963,"current_range_meters":8800,"station_id":"ce4bh4p2rcd13ifvqe1g","pricing_plan_id":"cebpf4jnsgd1na2vs0mg"},{"bike_id":"471266a0-81c1-4fef-9c96-c8f89bbce9dc","system_id":"levelo_inurba_marseille","lat":43.27991,"lon":5.41663,"is_reserved":false,"is_disabled":false,"rental_uris":{"android":"levelo://app?vid=471266a0-81c1-4fef-9c96-c8f89bbce9dc","ios":"levelo://app?vid=471266a0-81c1-4fef-9c96-c8f89bbce9dc"},"vehicle_type_id":"4","last_reported":1729879963,"current_range_meters":4400,"station_id":"ce4bho12rcd13ifvqh1g","pricing_plan_id":"cebpf4jnsgd1na2vs0mg"},{"bike_id":"7fd9032d-6b0f-4d6b-b8e0-23495d7481ec","system_id":"levelo_inurba_marseille","lat":43.29523,"lon":5.38554,"is_reserved":false,"is_disabled":false,"rental_uris":{"android":"levelo://app?vid=7fd9032d-6b0f-4d6b-b8e0-23495d7481ec","ios":"levelo://app?vid=7fd9032d-6b0f-4d6b-b8e0-23495d7481ec"},"vehicle_type_id":"4","last_reported":1729879963,"current_range_meters":15200,"station_id":"ce4bgih2rcd13ifvqba0","pricing_plan_id":"cebpf4jnsgd1na2vs0mg"},{"bike_id":"4e22b1f2-b744-4471-9588-d46e48170dbb","system_id":"levelo_inurba_marseille","lat":43.29526,"lon":5.38535,"is_reserved":false,"is_disabled":false,"rental_uris":{"android":"levelo://app?vid=4e22b1f2-b744-4471-9588-d46e48170dbb","ios":"levelo://app?vid=4e22b1f2-b744-4471-9588-d46e48170dbb"},"vehicle_type_id":"4","last_reported":1729879963,"current_range_meters":8400,"station_id":"ce4bgih2rcd13ifvqba0","pricing_plan_id":"cebpf4jnsgd1na2vs0mg"},{"bike_id":"ec517bc8-aab9-4441-9a5a-13b6295f2e39","system_id":"levelo_inurba_marseille","lat":43.22933,"lon":5.35376,"is_reserved":false,"is_disabled":false,"rental_uris":{"android":"levelo://app?vid=ec517bc8-aab9-4441-9a5a-13b6295f2e39","ios":"levelo://app?vid=ec517bc8-aab9-4441-9a5a-13b6295f2e39"},"vehicle_type_id":"4","last_reported":1729879963,"current_range_meters":38800,"station_id":"cpo3532slgdg3j2ikp40","pricing_plan_id":"cebpf4jnsgd1na2vs0mg"},{"bike_id":"0d1edfbb-e820-41db-bd5c-8bda7113794a","system_id":"levelo_inurba_marseille","lat":43.30656,"lon":5.38195,"is_reserved":false,"is_disabled":false,"rental_uris":{"android":"levelo://app?vid=0d1edfbb-e820-41db-bd5c-8bda7113794a","ios":"levelo://app?vid=0d1edfbb-e820-41db-bd5c-8bda7113794a"},"vehicle_type_id":"4","last_reported":1729879963,"current_range_meters":8000,"station_id":"ce4bgh92rcd13ifvqb50","pricing_plan_id":"cebpf4jnsgd1na2vs0mg"},{"bike_id":"aaeaff0c-d9e4-4229-9426-6a83bbe738e4","system_id":"levelo_inurba_marseille","lat":43.32056,"lon":5.41547,"is_reserved":false,"is_disabled":false,"rental_uris":{"android":"levelo://app?vid=aaeaff0c-d9e4-4229-9426-6a83bbe738e4","ios":"levelo://app?vid=aaeaff0c-d9e4-4229-9426-6a83bbe738e4"},"vehicle_type_id":"4","last_reported":1729879963,"current_range_meters":19600,"station_id":"ce4bhq92rcd13ifvqhkg","pricing_plan_id":"cebpf4jnsgd1na2vs0mg"},{"bike_id":"94b6cc63-b376-42e2-a4f5-f421dd5b9574","system_id":"levelo_inurba_marseille","lat":43.2804,"lon":5.36947,"is_reserved":false,"is_disabled":false,"rental_uris":{"android":"levelo://app?vid=94b6cc63-b376-42e2-a4f5-f421dd5b9574","ios":"levelo://app?vid=94b6cc63-b376-42e2-a4f5-f421dd5b9574"},"vehicle_type_id":"4","last_reported":1729879963,"current_range_meters":16800,"station_id":"ce4bha12rcd13ifvqef0","pricing_plan_id":"cebpf4jnsgd1na2vs0mg"},{"bike_id":"6cb0d09c-4434-41fe-bab7-3f2ab7b0ac84","system_id":"levelo_inurba_marseille","lat":43.23055,"lon":5.35495,"is_reserved":false,"is_disabled":false,"rental_uris":{"android":"levelo://app?vid=6cb0d09c-4434-41fe-bab7-3f2ab7b0ac84","ios":"levelo://app?vid=6cb0d09c-4434-41fe-bab7-3f2ab7b0ac84"},"vehicle_type_id":"4","last_reported":1729879963,"current_range_meters":19600,"station_id":"cpo3342slgdg3j2ifvpg","pricing_plan_id":"cebpf4jnsgd1na2vs0mg"},{"bike_id":"8d6d7866-ca13-4393-b6cc-b9a7a3005b82","system_id":"levelo_inurba_marseille","lat":43.2603,"lon":5.37549,"is_reserved":false,"is_disabled":false,"rental_uris":{"android":"levelo://app?vid=8d6d7866-ca13-4393-b6cc-b9a7a3005b82","ios":"levelo://app?vid=8d6d7866-ca13-4393-b6cc-b9a7a3005b82"},"vehicle_type_id":"4","last_reported":1729879963,"current_range_meters":32400,"station_id":"ce4bhgh2rcd13ifvqfa0","pricing_plan_id":"cebpf4jnsgd1na2vs0mg"},{"bike_id":"93d9c1a5-13fa-4234-9322-cf08e4c097b5","system_id":"levelo_inurba_marseille","lat":43.298804,"lon":5.38909,"is_reserved":false,"is_disabled":false,"rental_uris":{"android":"levelo://app?vid=93d9c1a5-13fa-4234-9322-cf08e4c097b5","ios":"levelo://app?vid=93d9c1a5-13fa-4234-9322-cf08e4c097b5"},"vehicle_type_id":"4","last_reported":1729879963,"current_range_meters":33600,"station_id":"ce4bh392rcd13ifvqdl0","pricing_plan_id":"cebpf4jnsgd1na2vs0mg"},{"bike_id":"28714978-4dce-46c8-9c95-88092c7e6a13","system_id":"levelo_inurba_marseille","lat":43.23191,"lon":5.35555,"is_reserved":false,"is_disabled":false,"rental_uris":{"android":"levelo://app?vid=28714978-4dce-46c8-9c95-88092c7e6a13","ios":"levelo://app?vid=28714978-4dce-46c8-9c95-88092c7e6a13"},"vehicle_type_id":"4","last_reported":1729879963,"current_range_meters":19200,"station_id":"ce4bhu92rcd13ifvqi70","pricing_plan_id":"cebpf4jnsgd1na2vs0mg"},{"bike_id":"329ddc8e-e369-426e-ae38-24e6f662aed3","system_id":"levelo_inurba_marseille","lat":43.2926,"lon":5.38442,"is_reserved":false,"is_disabled":false,"rental_uris":{"android":"levelo://app?vid=329ddc8e-e369-426e-ae38-24e6f662aed3","ios":"levelo://app?vid=329ddc8e-e369-426e-ae38-24e6f662aed3"},"vehicle_type_id":"4","last_reported":1729879963,"current_range_meters":28800,"station_id":"ce4bh692rcd13ifvqea0","pricing_plan_id":"cebpf4jnsgd1na2vs0mg"},{"bike_id":"d55aee67-871d-4e99-97c7-587f19a4af15","system_id":"levelo_inurba_marseille","lat":43.28846,"lon":5.35853,"is_reserved":false,"is_disabled":false,"rental_uris":{"android":"levelo://app?vid=d55aee67-871d-4e99-97c7-587f19a4af15","ios":"levelo://app?vid=d55aee67-871d-4e99-97c7-587f19a4af15"},"vehicle_type_id":"4","last_reported":1729879963,"current_range_meters":38000,"station_id":"ce4bhb12rcd13ifvqem0","pricing_plan_id":"cebpf4jnsgd1na2vs0mg"},{"bike_id":"1eddc096-4e0d-4a67-a58f-388b7ad23292","system_id":"levelo_inurba_marseille","lat":43.29261,"lon":5.38442,"is_reserved":false,"is_disabled":false,"rental_uris":{"android":"levelo://app?vid=1eddc096-4e0d-4a67-a58f-388b7ad23292","ios":"levelo://app?vid=1eddc096-4e0d-4a67-a58f-388b7ad23292"},"vehicle_type_id":"4","last_reported":1729879963,"current_range_meters":11600,"station_id":"ce4bh692rcd13ifvqea0","pricing_plan_id":"cebpf4jnsgd1na2vs0mg"},{"bike_id":"932ea71d-ee8c-47de-a617-0174efb85402","system_id":"levelo_inurba_marseille","lat":43.26567,"lon":5.39014,"is_reserved":false,"is_disabled":false,"rental_uris":{"android":"levelo://app?vid=932ea71d-ee8c-47de-a617-0174efb85402","ios":"levelo://app?vid=932ea71d-ee8c-47de-a617-0174efb85402"},"vehicle_type_id":"4","last_reported":1729879963,"current_range_meters":38800,"station_id":"ce4bhe12rcd13ifvqf30","pricing_plan_id":"cebpf4jnsgd1na2vs0mg"},{"bike_id":"abd43e3d-ad3e-4ac4-b89e-484cd8d44879","system_id":"levelo_inurba_marseille","lat":43.27069,"lon":5.42283,"is_reserved":false,"is_disabled":false,"rental_uris":{"android":"levelo://app?vid=abd43e3d-ad3e-4ac4-b89e-484cd8d44879","ios":"levelo://app?vid=abd43e3d-ad3e-4ac4-b89e-484cd8d44879"},"vehicle_type_id":"4","last_reported":1729879963,"current_range_meters":27600,"station_id":"ce4bhk92rcd13ifvqgb0","pricing_plan_id":"cebpf4jnsgd1na2vs0mg"},{"bike_id":"3ed92a29-5c44-4b6c-b46b-0d6d23a4fe6a","system_id":"levelo_inurba_marseille","lat":43.29556,"lon":5.42282,"is_reserved":false,"is_disabled":false,"rental_uris":{"android":"levelo://app?vid=3ed92a29-5c44-4b6c-b46b-0d6d23a4fe6a","ios":"levelo://app?vid=3ed92a29-5c44-4b6c-b46b-0d6d23a4fe6a"},"vehicle_type_id":"4","last_reported":1729879963,"current_range_meters":35600,"station_id":"ce4bhph2rcd13ifvqhdg","pricing_plan_id":"cebpf4jnsgd1na2vs0mg"},{"bike_id":"07d1e332-63a2-467e-88d9-4eaaeb91b8fb","system_id":"levelo_inurba_marseille","lat":43.31726,"lon":5.42398,"is_reserved":false,"is_disabled":false,"rental_uris":{"android":"levelo://app?vid=07d1e332-63a2-467e-88d9-4eaaeb91b8fb","ios":"levelo://app?vid=07d1e332-63a2-467e-88d9-4eaaeb91b8fb"},"vehicle_type_id":"4","last_reported":1729879963,"current_range_meters":37600,"station_id":"ce4bhp92rcd13ifvqhbg","pricing_plan_id":"cebpf4jnsgd1na2vs0mg"},{"bike_id":"aff91f51-608d-4a47-ae2d-de8203292322","system_id":"levelo_inurba_marseille","lat":43.31084,"lon":5.42419,"is_reserved":false,"is_disabled":false,"rental_uris":{"android":"levelo://app?vid=aff91f51-608d-4a47-ae2d-de8203292322","ios":"levelo://app?vid=aff91f51-608d-4a47-ae2d-de8203292322"},"vehicle_type_id":"4","last_reported":1729879963,"current_range_meters":14400,"station_id":"ce4bhp92rcd13ifvqhag","pricing_plan_id":"cebpf4jnsgd1na2vs0mg"},{"bike_id":"49c8c9ac-0d23-4ffb-8845-ed7257616396","system_id":"levelo_inurba_marseille","lat":43.27919,"lon":5.39581,"is_reserved":false,"is_disabled":false,"rental_uris":{"android":"levelo://app?vid=49c8c9ac-0d23-4ffb-8845-ed7257616396","ios":"levelo://app?vid=49c8c9ac-0d23-4ffb-8845-ed7257616396"},"vehicle_type_id":"4","last_reported":1729879963,"current_range_meters":28000,"station_id":"ce4bhf92rcd13ifvqf40","pricing_plan_id":"cebpf4jnsgd1na2vs0mg"},{"bike_id":"9b05d30e-22f3-443f-9318-a3360d301af1","system_id":"levelo_inurba_marseille","lat":43.27807,"lon":5.40716,"is_reserved":false,"is_disabled":false,"rental_uris":{"android":"levelo://app?vid=9b05d30e-22f3-443f-9318-a3360d301af1","ios":"levelo://app?vid=9b05d30e-22f3-443f-9318-a3360d301af1"},"vehicle_type_id":"4","last_reported":1729879963,"current_range_meters":32000,"station_id":"ce4bhnh2rcd13ifvqgtg","pricing_plan_id":"cebpf4jnsgd1na2vs0mg"},{"bike_id":"d27cec62-1d00-43c5-a294-6ec7896d59e3","system_id":"levelo_inurba_marseille","lat":43.29261,"lon":5.38439,"is_reserved":false,"is_disabled":false,"rental_uris":{"android":"levelo://app?vid=d27cec62-1d00-43c5-a294-6ec7896d59e3","ios":"levelo://app?vid=d27cec62-1d00-43c5-a294-6ec7896d59e3"},"vehicle_type_id":"4","last_reported":1729879963,"current_range_meters":3600,"station_id":"ce4bh692rcd13ifvqea0","pricing_plan_id":"cebpf4jnsgd1na2vs0mg"},{"bike_id":"9cd0e2b0-d9e9-4a98-8925-6cb42648b3f1","system_id":"levelo_inurba_marseille","lat":43.2453,"lon":5.39505,"is_reserved":false,"is_disabled":false,"rental_uris":{"android":"levelo://app?vid=9cd0e2b0-d9e9-4a98-8925-6cb42648b3f1","ios":"levelo://app?vid=9cd0e2b0-d9e9-4a98-8925-6cb42648b3f1"},"vehicle_type_id":"4","last_reported":1729879963,"current_range_meters":15200,"station_id":"ce4bhlp2rcd13ifvqgjg","pricing_plan_id":"cebpf4jnsgd1na2vs0mg"},{"bike_id":"25596ccd-8388-452e-9656-2a293e16965b","system_id":"levelo_inurba_marseille","lat":43.29532,"lon":5.3854,"is_reserved":false,"is_disabled":false,"rental_uris":{"android":"levelo://app?vid=25596ccd-8388-452e-9656-2a293e16965b","ios":"levelo://app?vid=25596ccd-8388-452e-9656-2a293e16965b"},"vehicle_type_id":"4","last_reported":1729879963,"current_range_meters":19200,"station_id":"ce4bgih2rcd13ifvqba0","pricing_plan_id":"cebpf4jnsgd1na2vs0mg"},{"bike_id":"5602e2ca-6524-49d7-acee-1364e8d9af55","system_id":"levelo_inurba_marseille","lat":43.28045,"lon":5.36951,"is_reserved":false,"is_disabled":false,"rental_uris":{"android":"levelo://app?vid=5602e2ca-6524-49d7-acee-1364e8d9af55","ios":"levelo://app?vid=5602e2ca-6524-49d7-acee-1364e8d9af55"},"vehicle_type_id":"4","last_reported":1729879963,"current_range_meters":26800,"station_id":"ce4bha12rcd13ifvqef0","pricing_plan_id":"cebpf4jnsgd1na2vs0mg"},{"bike_id":"78f272a1-2c74-4489-8c36-83bc93a6d452","system_id":"levelo_inurba_marseille","lat":43.23958,"lon":5.36632,"is_reserved":false,"is_disabled":false,"rental_uris":{"android":"levelo://app?vid=78f272a1-2c74-4489-8c36-83bc93a6d452","ios":"levelo://app?vid=78f272a1-2c74-4489-8c36-83bc93a6d452"},"vehicle_type_id":"4","last_reported":1729879963,"current_range_meters":20000,"station_id":"ce4bhi12rcd13ifvqfp0","pricing_plan_id":"cebpf4jnsgd1na2vs0mg"},{"bike_id":"55779e07-f16f-4297-b271-ba5201fd50de","system_id":"levelo_inurba_marseille","lat":43.30149,"lon":5.38768,"is_reserved":false,"is_disabled":false,"rental_uris":{"android":"levelo://app?vid=55779e07-f16f-4297-b271-ba5201fd50de","ios":"levelo://app?vid=55779e07-f16f-4297-b271-ba5201fd50de"},"vehicle_type_id":"4","last_reported":1729879963,"current_range_meters":36800,"station_id":"ce4bghh2rcd13ifvqb60","pricing_plan_id":"cebpf4jnsgd1na2vs0mg"},{"bike_id":"efdd3aa0-e144-46ca-b8b0-257cd2be71e6","system_id":"levelo_inurba_marseille","lat":43.25574,"lon":5.38239,"is_reserved":false,"is_disabled":false,"rental_uris":{"android":"levelo://app?vid=efdd3aa0-e144-46ca-b8b0-257cd2be71e6","ios":"levelo://app?vid=efdd3aa0-e144-46ca-b8b0-257cd2be71e6"},"vehicle_type_id":"4","last_reported":1729879963,"current_range_meters":38400,"station_id":"ce4bhih2rcd13ifvqfs0","pricing_plan_id":"cebpf4jnsgd1na2vs0mg"},{"bike_id":"a42b0bdd-1f10-437f-813e-02df169ed0a9","system_id":"levelo_inurba_marseille","lat":43.22933,"lon":5.35386,"is_reserved":false,"is_disabled":false,"rental_uris":{"android":"levelo://app?vid=a42b0bdd-1f10-437f-813e-02df169ed0a9","ios":"levelo://app?vid=a42b0bdd-1f10-437f-813e-02df169ed0a9"},"vehicle_type_id":"4","last_reported":1729879963,"current_range_meters":26800,"station_id":"cpo3532slgdg3j2ikp40","pricing_plan_id":"cebpf4jnsgd1na2vs0mg"},{"bike_id":"dd173f55-43ca-40cc-976e-f7d0bc821886","system_id":"levelo_inurba_marseille","lat":43.29542,"lon":5.37503,"is_reserved":false,"is_disabled":false,"rental_uris":{"android":"levelo://app?vid=dd173f55-43ca-40cc-976e-f7d0bc821886","ios":"levelo://app?vid=dd173f55-43ca-40cc-976e-f7d0bc821886"},"vehicle_type_id":"4","last_reported":1729879963,"current_range_meters":8400,"station_id":"ce4bgkp2rcd13ifvqbmg","pricing_plan_id":"cebpf4jnsgd1na2vs0mg"},{"bike_id":"b2901409-8e6d-4646-8c82-cc27683679c3","system_id":"levelo_inurba_marseille","lat":43.29261,"lon":5.38441,"is_reserved":false,"is_disabled":false,"rental_uris":{"android":"levelo://app?vid=b2901409-8e6d-4646-8c82-cc27683679c3","ios":"levelo://app?vid=b2901409-8e6d-4646-8c82-cc27683679c3"},"vehicle_type_id":"4","last_reported":1729879963,"current_range_meters":12400,"station_id":"ce4bh692rcd13ifvqea0","pricing_plan_id":"cebpf4jnsgd1na2vs0mg"},{"bike_id":"5f358f61-67b4-483a-857c-d197db71c9c4","system_id":"levelo_inurba_marseille","lat":43.30088,"lon":5.39083,"is_reserved":false,"is_disabled":false,"rental_uris":{"android":"levelo://app?vid=5f358f61-67b4-483a-857c-d197db71c9c4","ios":"levelo://app?vid=5f358f61-67b4-483a-857c-d197db71c9c4"},"vehicle_type_id":"4","last_reported":1729879963,"current_range_meters":6000,"station_id":"ce4bh192rcd13ifvqdb0","pricing_plan_id":"cebpf4jnsgd1na2vs0mg"},{"bike_id":"bea14d1a-0cb1-4cb7-a923-6a066fa454eb","system_id":"levelo_inurba_marseille","lat":43.31991,"lon":5.38165,"is_reserved":false,"is_disabled":false,"rental_uris":{"android":"levelo://app?vid=bea14d1a-0cb1-4cb7-a923-6a066fa454eb","ios":"levelo://app?vid=bea14d1a-0cb1-4cb7-a923-6a066fa454eb"},"vehicle_type_id":"4","last_reported":1729879963,"current_range_meters":23200,"station_id":"ce4bhr12rcd13ifvqhpg","pricing_plan_id":"cebpf4jnsgd1na2vs0mg"},{"bike_id":"9861c7e0-fe51-40ae-863b-bb4ec1eb19ee","system_id":"levelo_inurba_marseille","lat":43.28472,"lon":5.38421,"is_reserved":false,"is_disabled":false,"rental_uris":{"android":"levelo://app?vid=9861c7e0-fe51-40ae-863b-bb4ec1eb19ee","ios":"levelo://app?vid=9861c7e0-fe51-40ae-863b-bb4ec1eb19ee"},"vehicle_type_id":"4","last_reported":1729879963,"current_range_meters":3600,"station_id":"ce4bh512rcd13ifvqe3g","pricing_plan_id":"cebpf4jnsgd1na2vs0mg"},{"bike_id":"14b32013-16c9-4a3a-9b24-38e904708fdb","system_id":"levelo_inurba_marseille","lat":43.2828,"lon":5.35069,"is_reserved":false,"is_disabled":false,"rental_uris":{"android":"levelo://app?vid=14b32013-16c9-4a3a-9b24-38e904708fdb","ios":"levelo://app?vid=14b32013-16c9-4a3a-9b24-38e904708fdb"},"vehicle_type_id":"4","last_reported":1729879963,"current_range_meters":25600,"station_id":"ce4bhbp2rcd13ifvqerg","pricing_plan_id":"cebpf4jnsgd1na2vs0mg"},{"bike_id":"7c75fd5c-f190-461b-a4fd-ce394e95cf97","system_id":"levelo_inurba_marseille","lat":43.28155,"lon":5.42637,"is_reserved":false,"is_disabled":false,"rental_uris":{"android":"levelo://app?vid=7c75fd5c-f190-461b-a4fd-ce394e95cf97","ios":"levelo://app?vid=7c75fd5c-f190-461b-a4fd-ce394e95cf97"},"vehicle_type_id":"4","last_reported":1729879963,"current_range_meters":20400,"station_id":"ce4bhnh2rcd13ifvqgug","pricing_plan_id":"cebpf4jnsgd1na2vs0mg"},{"bike_id":"dd77751c-ae4b-4568-94a5-b2ea5e9ce908","system_id":"levelo_inurba_marseille","lat":43.2993,"lon":5.36554,"is_reserved":false,"is_disabled":false,"rental_uris":{"android":"levelo://app?vid=dd77751c-ae4b-4568-94a5-b2ea5e9ce908","ios":"levelo://app?vid=dd77751c-ae4b-4568-94a5-b2ea5e9ce908"},"vehicle_type_id":"4","last_reported":1729879963,"current_range_meters":36000,"station_id":"ce4bgm92rcd13ifvqbr0","pricing_plan_id":"cebpf4jnsgd1na2vs0mg"},{"bike_id":"2c17badd-dce7-4467-a5e8-af4224e64847","system_id":"levelo_inurba_marseille","lat":43.27547,"lon":5.38425,"is_reserved":false,"is_disabled":false,"rental_uris":{"android":"levelo://app?vid=2c17badd-dce7-4467-a5e8-af4224e64847","ios":"levelo://app?vid=2c17badd-dce7-4467-a5e8-af4224e64847"},"vehicle_type_id":"4","last_reported":1729879963,"current_range_meters":22400,"station_id":"ce4bhh92rcd13ifvqfi0","pricing_plan_id":"cebpf4jnsgd1na2vs0mg"},{"bike_id":"353dd1d1-aedf-4e9f-b96e-2d6c13c12501","system_id":"levelo_inurba_marseille","lat":43.25005,"lon":5.38916,"is_reserved":false,"is_disabled":false,"rental_uris":{"android":"levelo://app?vid=353dd1d1-aedf-4e9f-b96e-2d6c13c12501","ios":"levelo://app?vid=353dd1d1-aedf-4e9f-b96e-2d6c13c12501"},"vehicle_type_id":"4","last_reported":1729879963,"current_range_meters":14000,"station_id":"ce4bhgp2rcd13ifvqfd0","pricing_plan_id":"cebpf4jnsgd1na2vs0mg"},{"bike_id":"9547fe9f-7da9-478b-9033-f446ea71bb69","system_id":"levelo_inurba_marseille","lat":43.31081,"lon":5.42429,"is_reserved":false,"is_disabled":false,"rental_uris":{"android":"levelo://app?vid=9547fe9f-7da9-478b-9033-f446ea71bb69","ios":"levelo://app?vid=9547fe9f-7da9-478b-9033-f446ea71bb69"},"vehicle_type_id":"4","last_reported":1729879963,"current_range_meters":36400,"station_id":"ce4bhp92rcd13ifvqhag","pricing_plan_id":"cebpf4jnsgd1na2vs0mg"},{"bike_id":"df68c236-3429-47dc-8d0d-da0fa7924a52","system_id":"levelo_inurba_marseille","lat":43.29424,"lon":5.3863,"is_reserved":false,"is_disabled":false,"rental_uris":{"android":"levelo://app?vid=df68c236-3429-47dc-8d0d-da0fa7924a52","ios":"levelo://app?vid=df68c236-3429-47dc-8d0d-da0fa7924a52"},"vehicle_type_id":"4","last_reported":1729879963,"current_range_meters":38800,"station_id":"ce4bh2h2rcd13ifvqdh0","pricing_plan_id":"cebpf4jnsgd1na2vs0mg"},{"bike_id":"3c22a2f3-7b5a-45d5-aa75-1b778a334340","system_id":"levelo_inurba_marseille","lat":43.27995,"lon":5.41662,"is_reserved":false,"is_disabled":false,"rental_uris":{"android":"levelo://app?vid=3c22a2f3-7b5a-45d5-aa75-1b778a334340","ios":"levelo://app?vid=3c22a2f3-7b5a-45d5-aa75-1b778a334340"},"vehicle_type_id":"4","last_reported":1729879963,"current_range_meters":20000,"station_id":"ce4bho12rcd13ifvqh1g","pricing_plan_id":"cebpf4jnsgd1na2vs0mg"},{"bike_id":"914712da-9129-49a4-ad21-34c49f788602","system_id":"levelo_inurba_marseille","lat":43.30889,"lon":5.3965,"is_reserved":false,"is_disabled":false,"rental_uris":{"android":"levelo://app?vid=914712da-9129-49a4-ad21-34c49f788602","ios":"levelo://app?vid=914712da-9129-49a4-ad21-34c49f788602"},"vehicle_type_id":"4","last_reported":1729879963,"current_range_meters":36800,"station_id":"ce4bh012rcd13ifvqcv0","pricing_plan_id":"cebpf4jnsgd1na2vs0mg"},{"bike_id":"518c042c-2848-4935-b167-8a54c0e91e48","system_id":"levelo_inurba_marseille","lat":43.30182,"lon":5.36617,"is_reserved":false,"is_disabled":false,"rental_uris":{"android":"levelo://app?vid=518c042c-2848-4935-b167-8a54c0e91e48","ios":"levelo://app?vid=518c042c-2848-4935-b167-8a54c0e91e48"},"vehicle_type_id":"4","last_reported":1729879963,"current_range_meters":22800,"station_id":"ce4bgrh2rcd13ifvqc8g","pricing_plan_id":"cebpf4jnsgd1na2vs0mg"},{"bike_id":"58afcffd-31ed-44e7-99ff-2fa445db19b3","system_id":"levelo_inurba_marseille","lat":43.2987,"lon":5.39734,"is_reserved":false,"is_disabled":false,"rental_uris":{"android":"levelo://app?vid=58afcffd-31ed-44e7-99ff-2fa445db19b3","ios":"levelo://app?vid=58afcffd-31ed-44e7-99ff-2fa445db19b3"},"vehicle_type_id":"4","last_reported":1729879963,"current_range_meters":22400,"station_id":"ce4bh0h2rcd13ifvqd50","pricing_plan_id":"cebpf4jnsgd1na2vs0mg"},{"bike_id":"866b0d50-2d2d-4bb2-aa91-ede19b59e424","system_id":"levelo_inurba_marseille","lat":43.32367,"lon":5.3888,"is_reserved":false,"is_disabled":false,"rental_uris":{"android":"levelo://app?vid=866b0d50-2d2d-4bb2-aa91-ede19b59e424","ios":"levelo://app?vid=866b0d50-2d2d-4bb2-aa91-ede19b59e424"},"vehicle_type_id":"4","last_reported":1729879963,"current_range_meters":19200,"station_id":"ce4bhqp2rcd13ifvqhog","pricing_plan_id":"cebpf4jnsgd1na2vs0mg"},{"bike_id":"299b572c-b7b5-4447-8edf-eee9bf9980f9","system_id":"levelo_inurba_marseille","lat":43.272156,"lon":5.391753,"is_reserved":false,"is_disabled":false,"rental_uris":{"android":"levelo://app?vid=299b572c-b7b5-4447-8edf-eee9bf9980f9","ios":"levelo://app?vid=299b572c-b7b5-4447-8edf-eee9bf9980f9"},"vehicle_type_id":"4","last_reported":1729879963,"current_range_meters":3600,"station_id":"ce4bgpp2rcd13ifvqc3g","pricing_plan_id":"cebpf4jnsgd1na2vs0mg"},{"bike_id":"da3ad195-98e3-4f0d-b931-03210b5944bb","system_id":"levelo_inurba_marseille","lat":43.29033,"lon":5.37561,"is_reserved":false,"is_disabled":false,"rental_uris":{"android":"levelo://app?vid=da3ad195-98e3-4f0d-b931-03210b5944bb","ios":"levelo://app?vid=da3ad195-98e3-4f0d-b931-03210b5944bb"},"vehicle_type_id":"4","last_reported":1729879963,"current_range_meters":39200,"station_id":"ce4bh692rcd13ifvqe90","pricing_plan_id":"cebpf4jnsgd1na2vs0mg"},{"bike_id":"51eb24a5-d36b-4170-8fba-5def4da9dac7","system_id":"levelo_inurba_marseille","lat":43.29506,"lon":5.39042,"is_reserved":false,"is_disabled":false,"rental_uris":{"android":"levelo://app?vid=51eb24a5-d36b-4170-8fba-5def4da9dac7","ios":"levelo://app?vid=51eb24a5-d36b-4170-8fba-5def4da9dac7"},"vehicle_type_id":"4","last_reported":1729879963,"current_range_meters":38800,"station_id":"ce4bh3p2rcd13ifvqdp0","pricing_plan_id":"cebpf4jnsgd1na2vs0mg"},{"bike_id":"c402c880-0470-4e8a-ac20-8317f48fc5dd","system_id":"levelo_inurba_marseille","lat":43.2794,"lon":5.4105,"is_reserved":false,"is_disabled":false,"rental_uris":{"android":"levelo://app?vid=c402c880-0470-4e8a-ac20-8317f48fc5dd","ios":"levelo://app?vid=c402c880-0470-4e8a-ac20-8317f48fc5dd"},"vehicle_type_id":"4","last_reported":1729879963,"current_range_meters":37600,"station_id":"ce4bhnp2rcd13ifvqh0g","pricing_plan_id":"cebpf4jnsgd1na2vs0mg"},{"bike_id":"31b7db78-d83e-4bcc-a6e2-1a7a1428b1d6","system_id":"levelo_inurba_marseille","lat":43.32106,"lon":5.3677,"is_reserved":false,"is_disabled":false,"rental_uris":{"android":"levelo://app?vid=31b7db78-d83e-4bcc-a6e2-1a7a1428b1d6","ios":"levelo://app?vid=31b7db78-d83e-4bcc-a6e2-1a7a1428b1d6"},"vehicle_type_id":"4","last_reported":1729879963,"current_range_meters":6800,"station_id":"ce4bhrh2rcd13ifvqhug","pricing_plan_id":"cebpf4jnsgd1na2vs0mg"},{"bike_id":"cb33b543-184c-4b89-a5a3-70cc837bfd79","system_id":"levelo_inurba_marseille","lat":43.284763,"lon":5.385669,"is_reserved":false,"is_disabled":false,"rental_uris":{"android":"levelo://app?vid=cb33b543-184c-4b89-a5a3-70cc837bfd79","ios":"levelo://app?vid=cb33b543-184c-4b89-a5a3-70cc837bfd79"},"vehicle_type_id":"4","last_reported":1729879963,"current_range_meters":34000,"station_id":"ce4bh8p2rcd13ifvqeb0","pricing_plan_id":"cebpf4jnsgd1na2vs0mg"},{"bike_id":"a3eeba97-8d75-45c7-8ce4-166d75a9b74d","system_id":"levelo_inurba_marseille","lat":43.29526,"lon":5.38547,"is_reserved":false,"is_disabled":false,"rental_uris":{"android":"levelo://app?vid=a3eeba97-8d75-45c7-8ce4-166d75a9b74d","ios":"levelo://app?vid=a3eeba97-8d75-45c7-8ce4-166d75a9b74d"},"vehicle_type_id":"4","last_reported":1729879963,"current_range_meters":38800,"station_id":"ce4bgih2rcd13ifvqba0","pricing_plan_id":"cebpf4jnsgd1na2vs0mg"},{"bike_id":"7ed179a5-09db-442c-b1b3-3e5dd21573fb","system_id":"levelo_inurba_marseille","lat":43.29837,"lon":5.43232,"is_reserved":false,"is_disabled":false,"rental_uris":{"android":"levelo://app?vid=7ed179a5-09db-442c-b1b3-3e5dd21573fb","ios":"levelo://app?vid=7ed179a5-09db-442c-b1b3-3e5dd21573fb"},"vehicle_type_id":"4","last_reported":1729879963,"current_range_meters":6000,"station_id":"","pricing_plan_id":"cebpf4jnsgd1na2vs0mg"},{"bike_id":"7cdbc354-e29a-4da2-ba27-32a5d73caf23","system_id":"levelo_inurba_marseille","lat":43.23957,"lon":5.36633,"is_reserved":false,"is_disabled":false,"rental_uris":{"android":"levelo://app?vid=7cdbc354-e29a-4da2-ba27-32a5d73caf23","ios":"levelo://app?vid=7cdbc354-e29a-4da2-ba27-32a5d73caf23"},"vehicle_type_id":"4","last_reported":1729879963,"current_range_meters":30000,"station_id":"ce4bhi12rcd13ifvqfp0","pricing_plan_id":"cebpf4jnsgd1na2vs0mg"},{"bike_id":"b74a2668-6a53-432b-a1cc-fe03a92d6f33","system_id":"levelo_inurba_marseille","lat":43.3031,"lon":5.39216,"is_reserved":false,"is_disabled":false,"rental_uris":{"android":"levelo://app?vid=b74a2668-6a53-432b-a1cc-fe03a92d6f33","ios":"levelo://app?vid=b74a2668-6a53-432b-a1cc-fe03a92d6f33"},"vehicle_type_id":"4","last_reported":1729879963,"current_range_meters":2000,"station_id":"ce4bgkh2rcd13ifvqbk0","pricing_plan_id":"cebpf4jnsgd1na2vs0mg"},{"bike_id":"9ddc4e87-5a62-45aa-954f-39747c640c2a","system_id":"levelo_inurba_marseille","lat":43.28741,"lon":5.37941,"is_reserved":false,"is_disabled":false,"rental_uris":{"android":"levelo://app?vid=9ddc4e87-5a62-45aa-954f-39747c640c2a","ios":"levelo://app?vid=9ddc4e87-5a62-45aa-954f-39747c640c2a"},"vehicle_type_id":"4","last_reported":1729879963,"current_range_meters":12800,"station_id":"ce4bh9p2rcd13ifvqec0","pricing_plan_id":"cebpf4jnsgd1na2vs0mg"},{"bike_id":"7691659f-eea1-4b4d-8db5-2728fcde3a23","system_id":"levelo_inurba_marseille","lat":43.30096,"lon":5.36417,"is_reserved":false,"is_disabled":false,"rental_uris":{"android":"levelo://app?vid=7691659f-eea1-4b4d-8db5-2728fcde3a23","ios":"levelo://app?vid=7691659f-eea1-4b4d-8db5-2728fcde3a23"},"vehicle_type_id":"4","last_reported":1729879963,"current_range_meters":27600,"station_id":"","pricing_plan_id":"cebpf4jnsgd1na2vs0mg"},{"bike_id":"f4dd5c52-4716-4541-bfaa-6c89b9978680","system_id":"levelo_inurba_marseille","lat":43.33022,"lon":5.39036,"is_reserved":false,"is_disabled":false,"rental_uris":{"android":"levelo://app?vid=f4dd5c52-4716-4541-bfaa-6c89b9978680","ios":"levelo://app?vid=f4dd5c52-4716-4541-bfaa-6c89b9978680"},"vehicle_type_id":"4","last_reported":1729879963,"current_range_meters":24000,"station_id":"ce4bhr92rcd13ifvqhrg","pricing_plan_id":"cebpf4jnsgd1na2vs0mg"},{"bike_id":"98fb5270-7171-4de2-bb2a-842989f65d8c","system_id":"levelo_inurba_marseille","lat":43.24997,"lon":5.38937,"is_reserved":false,"is_disabled":false,"rental_uris":{"android":"levelo://app?vid=98fb5270-7171-4de2-bb2a-842989f65d8c","ios":"levelo://app?vid=98fb5270-7171-4de2-bb2a-842989f65d8c"},"vehicle_type_id":"4","last_reported":1729879963,"current_range_meters":2000,"station_id":"ce4bhgp2rcd13ifvqfd0","pricing_plan_id":"cebpf4jnsgd1na2vs0mg"},{"bike_id":"bc58c01f-50d2-4308-a58d-10282d32b4cd","system_id":"levelo_inurba_marseille","lat":43.29426,"lon":5.39984,"is_reserved":false,"is_disabled":false,"rental_uris":{"android":"levelo://app?vid=bc58c01f-50d2-4308-a58d-10282d32b4cd","ios":"levelo://app?vid=bc58c01f-50d2-4308-a58d-10282d32b4cd"},"vehicle_type_id":"4","last_reported":1729879963,"current_range_meters":21600,"station_id":"","pricing_plan_id":"cebpf4jnsgd1na2vs0mg"},{"bike_id":"0b60c0a2-d546-4805-97f4-2954d58c7fc7","system_id":"levelo_inurba_marseille","lat":43.24801,"lon":5.3745,"is_reserved":false,"is_disabled":false,"rental_uris":{"android":"levelo://app?vid=0b60c0a2-d546-4805-97f4-2954d58c7fc7","ios":"levelo://app?vid=0b60c0a2-d546-4805-97f4-2954d58c7fc7"},"vehicle_type_id":"4","last_reported":1729879963,"current_range_meters":1200,"station_id":"ce4bhgh2rcd13ifvqfb0","pricing_plan_id":"cebpf4jnsgd1na2vs0mg"},{"bike_id":"1778e0b9-5fc6-459c-b37b-3841076f9374","system_id":"levelo_inurba_marseille","lat":43.29893,"lon":5.43673,"is_reserved":false,"is_disabled":false,"rental_uris":{"android":"levelo://app?vid=1778e0b9-5fc6-459c-b37b-3841076f9374","ios":"levelo://app?vid=1778e0b9-5fc6-459c-b37b-3841076f9374"},"vehicle_type_id":"4","last_reported":1729879963,"current_range_meters":30000,"station_id":"ce4bhpp2rcd13ifvqhfg","pricing_plan_id":"cebpf4jnsgd1na2vs0mg"},{"bike_id":"18cd883a-f1cd-4f34-98dc-7580d7e4256d","system_id":"levelo_inurba_marseille","lat":43.24645,"lon":5.38894,"is_reserved":false,"is_disabled":false,"rental_uris":{"android":"levelo://app?vid=18cd883a-f1cd-4f34-98dc-7580d7e4256d","ios":"levelo://app?vid=18cd883a-f1cd-4f34-98dc-7580d7e4256d"},"vehicle_type_id":"4","last_reported":1729879963,"current_range_meters":30400,"station_id":"ce4bhg12rcd13ifvqf60","pricing_plan_id":"cebpf4jnsgd1na2vs0mg"},{"bike_id":"f0fc82ca-f5ec-4e02-8e94-135a203ff8d2","system_id":"levelo_inurba_marseille","lat":43.24812,"lon":5.37458,"is_reserved":false,"is_disabled":false,"rental_uris":{"android":"levelo://app?vid=f0fc82ca-f5ec-4e02-8e94-135a203ff8d2","ios":"levelo://app?vid=f0fc82ca-f5ec-4e02-8e94-135a203ff8d2"},"vehicle_type_id":"4","last_reported":1729879963,"current_range_meters":38800,"station_id":"ce4bhgh2rcd13ifvqfb0","pricing_plan_id":"cebpf4jnsgd1na2vs0mg"},{"bike_id":"4bed707c-d39c-4ff0-ab65-67885b0a805d","system_id":"levelo_inurba_marseille","lat":43.28488,"lon":5.38422,"is_reserved":false,"is_disabled":false,"rental_uris":{"android":"levelo://app?vid=4bed707c-d39c-4ff0-ab65-67885b0a805d","ios":"levelo://app?vid=4bed707c-d39c-4ff0-ab65-67885b0a805d"},"vehicle_type_id":"4","last_reported":1729879963,"current_range_meters":18800,"station_id":"ce4bh512rcd13ifvqe3g","pricing_plan_id":"cebpf4jnsgd1na2vs0mg"},{"bike_id":"486d22fe-c2f0-48e8-87e1-c7662eff9a82","system_id":"levelo_inurba_marseille","lat":43.24544,"lon":5.39522,"is_reserved":false,"is_disabled":false,"rental_uris":{"android":"levelo://app?vid=486d22fe-c2f0-48e8-87e1-c7662eff9a82","ios":"levelo://app?vid=486d22fe-c2f0-48e8-87e1-c7662eff9a82"},"vehicle_type_id":"4","last_reported":1729879963,"current_range_meters":19200,"station_id":"ce4bhlp2rcd13ifvqgjg","pricing_plan_id":"cebpf4jnsgd1na2vs0mg"},{"bike_id":"66f020ae-5526-4ad0-8af9-6a968240ac52","system_id":"levelo_inurba_marseille","lat":43.32483,"lon":5.3657,"is_reserved":false,"is_disabled":false,"rental_uris":{"android":"levelo://app?vid=66f020ae-5526-4ad0-8af9-6a968240ac52","ios":"levelo://app?vid=66f020ae-5526-4ad0-8af9-6a968240ac52"},"vehicle_type_id":"4","last_reported":1729879963,"current_range_meters":36800,"station_id":"ce4bhs12rcd13ifvqhvg","pricing_plan_id":"cebpf4jnsgd1na2vs0mg"},{"bike_id":"20cf6f1c-7236-412b-8689-5f9328ef8039","system_id":"levelo_inurba_marseille","lat":43.29258,"lon":5.38447,"is_reserved":false,"is_disabled":false,"rental_uris":{"android":"levelo://app?vid=20cf6f1c-7236-412b-8689-5f9328ef8039","ios":"levelo://app?vid=20cf6f1c-7236-412b-8689-5f9328ef8039"},"vehicle_type_id":"4","last_reported":1729879963,"current_range_meters":8400,"station_id":"ce4bh692rcd13ifvqea0","pricing_plan_id":"cebpf4jnsgd1na2vs0mg"},{"bike_id":"1aac1f7a-a64c-43c7-9fea-28291f50e750","system_id":"levelo_inurba_marseille","lat":43.29527,"lon":5.38544,"is_reserved":false,"is_disabled":false,"rental_uris":{"android":"levelo://app?vid=1aac1f7a-a64c-43c7-9fea-28291f50e750","ios":"levelo://app?vid=1aac1f7a-a64c-43c7-9fea-28291f50e750"},"vehicle_type_id":"4","last_reported":1729879963,"current_range_meters":39200,"station_id":"ce4bgih2rcd13ifvqba0","pricing_plan_id":"cebpf4jnsgd1na2vs0mg"},{"bike_id":"a4916ca8-8cea-41ca-9bd0-83ea66e6f362","system_id":"levelo_inurba_marseille","lat":43.22929,"lon":5.35382,"is_reserved":false,"is_disabled":false,"rental_uris":{"android":"levelo://app?vid=a4916ca8-8cea-41ca-9bd0-83ea66e6f362","ios":"levelo://app?vid=a4916ca8-8cea-41ca-9bd0-83ea66e6f362"},"vehicle_type_id":"4","last_reported":1729879963,"current_range_meters":38800,"station_id":"cpo3532slgdg3j2ikp40","pricing_plan_id":"cebpf4jnsgd1na2vs0mg"},{"bike_id":"699456ce-52d6-46d9-87c9-5fbe5dc593d3","system_id":"levelo_inurba_marseille","lat":43.29031,"lon":5.35923,"is_reserved":false,"is_disabled":false,"rental_uris":{"android":"levelo://app?vid=699456ce-52d6-46d9-87c9-5fbe5dc593d3","ios":"levelo://app?vid=699456ce-52d6-46d9-87c9-5fbe5dc593d3"},"vehicle_type_id":"4","last_reported":1729879963,"current_range_meters":19200,"station_id":"ce4bha92rcd13ifvqeg0","pricing_plan_id":"cebpf4jnsgd1na2vs0mg"},{"bike_id":"2ada8318-94ce-472e-83c8-63a6e48a8456","system_id":"levelo_inurba_marseille","lat":43.295351,"lon":5.37504,"is_reserved":false,"is_disabled":false,"rental_uris":{"android":"levelo://app?vid=2ada8318-94ce-472e-83c8-63a6e48a8456","ios":"levelo://app?vid=2ada8318-94ce-472e-83c8-63a6e48a8456"},"vehicle_type_id":"4","last_reported":1729879963,"current_range_meters":11600,"station_id":"ce4bgkp2rcd13ifvqbmg","pricing_plan_id":"cebpf4jnsgd1na2vs0mg"},{"bike_id":"19bd8ade-2c53-47ee-9430-afe5409ecd59","system_id":"levelo_inurba_marseille","lat":43.29882,"lon":5.39733,"is_reserved":false,"is_disabled":false,"rental_uris":{"android":"levelo://app?vid=19bd8ade-2c53-47ee-9430-afe5409ecd59","ios":"levelo://app?vid=19bd8ade-2c53-47ee-9430-afe5409ecd59"},"vehicle_type_id":"4","last_reported":1729879963,"current_range_meters":30400,"station_id":"ce4bh0h2rcd13ifvqd50","pricing_plan_id":"cebpf4jnsgd1na2vs0mg"},{"bike_id":"4251a455-6a51-4266-a828-feb5d7a95895","system_id":"levelo_inurba_marseille","lat":43.27065,"lon":5.42282,"is_reserved":false,"is_disabled":false,"rental_uris":{"android":"levelo://app?vid=4251a455-6a51-4266-a828-feb5d7a95895","ios":"levelo://app?vid=4251a455-6a51-4266-a828-feb5d7a95895"},"vehicle_type_id":"4","last_reported":1729879963,"current_range_meters":38000,"station_id":"ce4bhk92rcd13ifvqgb0","pricing_plan_id":"cebpf4jnsgd1na2vs0mg"},{"bike_id":"b69629f5-3119-4609-ab12-4016242cb5ca","system_id":"levelo_inurba_marseille","lat":43.27071,"lon":5.42274,"is_reserved":false,"is_disabled":false,"rental_uris":{"android":"levelo://app?vid=b69629f5-3119-4609-ab12-4016242cb5ca","ios":"levelo://app?vid=b69629f5-3119-4609-ab12-4016242cb5ca"},"vehicle_type_id":"4","last_reported":1729879963,"current_range_meters":39200,"station_id":"ce4bhk92rcd13ifvqgb0","pricing_plan_id":"cebpf4jnsgd1na2vs0mg"},{"bike_id":"a177cf92-fe46-44a6-8fe0-6df07ad8a3cd","system_id":"levelo_inurba_marseille","lat":43.27072,"lon":5.42279,"is_reserved":false,"is_disabled":false,"rental_uris":{"android":"levelo://app?vid=a177cf92-fe46-44a6-8fe0-6df07ad8a3cd","ios":"levelo://app?vid=a177cf92-fe46-44a6-8fe0-6df07ad8a3cd"},"vehicle_type_id":"4","last_reported":1729879963,"current_range_meters":35200,"station_id":"ce4bhk92rcd13ifvqgb0","pricing_plan_id":"cebpf4jnsgd1na2vs0mg"},{"bike_id":"7e2daf59-2616-4159-b541-45190f2735b3","system_id":"levelo_inurba_marseille","lat":43.29846,"lon":5.3628,"is_reserved":false,"is_disabled":false,"rental_uris":{"android":"levelo://app?vid=7e2daf59-2616-4159-b541-45190f2735b3","ios":"levelo://app?vid=7e2daf59-2616-4159-b541-45190f2735b3"},"vehicle_type_id":"4","last_reported":1729879963,"current_range_meters":8400,"station_id":"ce4bgpp2rcd13ifvqc3g","pricing_plan_id":"cebpf4jnsgd1na2vs0mg"},{"bike_id":"f68f9a5d-9f6f-4e9b-a260-c646a873f52f","system_id":"levelo_inurba_marseille","lat":43.2481,"lon":5.37459,"is_reserved":false,"is_disabled":false,"rental_uris":{"android":"levelo://app?vid=f68f9a5d-9f6f-4e9b-a260-c646a873f52f","ios":"levelo://app?vid=f68f9a5d-9f6f-4e9b-a260-c646a873f52f"},"vehicle_type_id":"4","last_reported":1729879963,"current_range_meters":38800,"station_id":"ce4bhgh2rcd13ifvqfb0","pricing_plan_id":"cebpf4jnsgd1na2vs0mg"},{"bike_id":"8b34db6e-7ac5-421b-8140-e12375d73aa9","system_id":"levelo_inurba_marseille","lat":43.29528,"lon":5.38547,"is_reserved":false,"is_disabled":false,"rental_uris":{"android":"levelo://app?vid=8b34db6e-7ac5-421b-8140-e12375d73aa9","ios":"levelo://app?vid=8b34db6e-7ac5-421b-8140-e12375d73aa9"},"vehicle_type_id":"4","last_reported":1729879963,"current_range_meters":26000,"station_id":"ce4bgih2rcd13ifvqba0","pricing_plan_id":"cebpf4jnsgd1na2vs0mg"},{"bike_id":"c7397917-ecbe-40af-b69b-093ada4bcf72","system_id":"levelo_inurba_marseille","lat":43.27071,"lon":5.42284,"is_reserved":false,"is_disabled":false,"rental_uris":{"android":"levelo://app?vid=c7397917-ecbe-40af-b69b-093ada4bcf72","ios":"levelo://app?vid=c7397917-ecbe-40af-b69b-093ada4bcf72"},"vehicle_type_id":"4","last_reported":1729879963,"current_range_meters":16000,"station_id":"ce4bhk92rcd13ifvqgb0","pricing_plan_id":"cebpf4jnsgd1na2vs0mg"},{"bike_id":"a64b3754-53de-42eb-978d-641562e11181","system_id":"levelo_inurba_marseille","lat":43.25726,"lon":5.41108,"is_reserved":false,"is_disabled":false,"rental_uris":{"android":"levelo://app?vid=a64b3754-53de-42eb-978d-641562e11181","ios":"levelo://app?vid=a64b3754-53de-42eb-978d-641562e11181"},"vehicle_type_id":"4","last_reported":1729879963,"current_range_meters":18800,"station_id":"ce4bhkp2rcd13ifvqgd0","pricing_plan_id":"cebpf4jnsgd1na2vs0mg"},{"bike_id":"abecc21c-4a29-433f-85dd-76d259461fd8","system_id":"levelo_inurba_marseille","lat":43.2572,"lon":5.41111,"is_reserved":false,"is_disabled":false,"rental_uris":{"android":"levelo://app?vid=abecc21c-4a29-433f-85dd-76d259461fd8","ios":"levelo://app?vid=abecc21c-4a29-433f-85dd-76d259461fd8"},"vehicle_type_id":"4","last_reported":1729879963,"current_range_meters":9600,"station_id":"ce4bhkp2rcd13ifvqgd0","pricing_plan_id":"cebpf4jnsgd1na2vs0mg"},{"bike_id":"4609b7d6-6ad1-46f8-925a-ff14cfa5a988","system_id":"levelo_inurba_marseille","lat":43.29019,"lon":5.38142,"is_reserved":false,"is_disabled":false,"rental_uris":{"android":"levelo://app?vid=4609b7d6-6ad1-46f8-925a-ff14cfa5a988","ios":"levelo://app?vid=4609b7d6-6ad1-46f8-925a-ff14cfa5a988"},"vehicle_type_id":"4","last_reported":1729879963,"current_range_meters":37600,"station_id":"ce4bh4p2rcd13ifvqe1g","pricing_plan_id":"cebpf4jnsgd1na2vs0mg"},{"bike_id":"fbdd9888-b351-41c0-95a4-d20180097d17","system_id":"levelo_inurba_marseille","lat":43.26061,"lon":5.39399,"is_reserved":false,"is_disabled":false,"rental_uris":{"android":"levelo://app?vid=fbdd9888-b351-41c0-95a4-d20180097d17","ios":"levelo://app?vid=fbdd9888-b351-41c0-95a4-d20180097d17"},"vehicle_type_id":"4","last_reported":1729879963,"current_range_meters":8400,"station_id":"ce4bhh92rcd13ifvqfj0","pricing_plan_id":"cebpf4jnsgd1na2vs0mg"},{"bike_id":"596be825-098f-44c6-8b18-f1ed8c1bf80b","system_id":"levelo_inurba_marseille","lat":43.28446,"lon":5.39198,"is_reserved":false,"is_disabled":false,"rental_uris":{"android":"levelo://app?vid=596be825-098f-44c6-8b18-f1ed8c1bf80b","ios":"levelo://app?vid=596be825-098f-44c6-8b18-f1ed8c1bf80b"},"vehicle_type_id":"4","last_reported":1729879963,"current_range_meters":36400,"station_id":"ce4bhoh2rcd13ifvqh5g","pricing_plan_id":"cebpf4jnsgd1na2vs0mg"},{"bike_id":"3b42f02d-4c2a-48f2-92ac-a4eac0e1a07a","system_id":"levelo_inurba_marseille","lat":43.28276,"lon":5.35084,"is_reserved":false,"is_disabled":false,"rental_uris":{"android":"levelo://app?vid=3b42f02d-4c2a-48f2-92ac-a4eac0e1a07a","ios":"levelo://app?vid=3b42f02d-4c2a-48f2-92ac-a4eac0e1a07a"},"vehicle_type_id":"4","last_reported":1729879963,"current_range_meters":38800,"station_id":"ce4bhbp2rcd13ifvqerg","pricing_plan_id":"cebpf4jnsgd1na2vs0mg"},{"bike_id":"68744267-f6b5-4ef9-a825-c5f0afe36ec4","system_id":"levelo_inurba_marseille","lat":43.29903,"lon":5.38138,"is_reserved":false,"is_disabled":false,"rental_uris":{"android":"levelo://app?vid=68744267-f6b5-4ef9-a825-c5f0afe36ec4","ios":"levelo://app?vid=68744267-f6b5-4ef9-a825-c5f0afe36ec4"},"vehicle_type_id":"4","last_reported":1729879963,"current_range_meters":28800,"station_id":"ce4bgj12rcd13ifvqbc0","pricing_plan_id":"cebpf4jnsgd1na2vs0mg"},{"bike_id":"3f0f2bc4-a0c4-4af9-a75d-1a43a8a53e9d","system_id":"levelo_inurba_marseille","lat":43.2985,"lon":5.39751,"is_reserved":false,"is_disabled":false,"rental_uris":{"android":"levelo://app?vid=3f0f2bc4-a0c4-4af9-a75d-1a43a8a53e9d","ios":"levelo://app?vid=3f0f2bc4-a0c4-4af9-a75d-1a43a8a53e9d"},"vehicle_type_id":"4","last_reported":1729879963,"current_range_meters":37600,"station_id":"ce4bh0h2rcd13ifvqd50","pricing_plan_id":"cebpf4jnsgd1na2vs0mg"},{"bike_id":"993213e6-6063-466a-bdfd-588dc3c51d3c","system_id":"levelo_inurba_marseille","lat":43.28425,"lon":5.34985,"is_reserved":false,"is_disabled":false,"rental_uris":{"android":"levelo://app?vid=993213e6-6063-466a-bdfd-588dc3c51d3c","ios":"levelo://app?vid=993213e6-6063-466a-bdfd-588dc3c51d3c"},"vehicle_type_id":"4","last_reported":1729879963,"current_range_meters":38800,"station_id":"ce4bhbh2rcd13ifvqepg","pricing_plan_id":"cebpf4jnsgd1na2vs0mg"},{"bike_id":"44460db4-113d-4331-9546-a5ed508f442d","system_id":"levelo_inurba_marseille","lat":43.29256,"lon":5.38445,"is_reserved":false,"is_disabled":false,"rental_uris":{"android":"levelo://app?vid=44460db4-113d-4331-9546-a5ed508f442d","ios":"levelo://app?vid=44460db4-113d-4331-9546-a5ed508f442d"},"vehicle_type_id":"4","last_reported":1729879963,"current_range_meters":30000,"station_id":"ce4bh692rcd13ifvqea0","pricing_plan_id":"cebpf4jnsgd1na2vs0mg"},{"bike_id":"43e0342e-7c69-4ef3-9959-2e5c770bab9f","system_id":"levelo_inurba_marseille","lat":43.22937,"lon":5.35381,"is_reserved":false,"is_disabled":false,"rental_uris":{"android":"levelo://app?vid=43e0342e-7c69-4ef3-9959-2e5c770bab9f","ios":"levelo://app?vid=43e0342e-7c69-4ef3-9959-2e5c770bab9f"},"vehicle_type_id":"4","last_reported":1729879963,"current_range_meters":17200,"station_id":"cpo3532slgdg3j2ikp40","pricing_plan_id":"cebpf4jnsgd1na2vs0mg"},{"bike_id":"5a26d067-1f72-4b7a-ab7f-cfdfb675f698","system_id":"levelo_inurba_marseille","lat":43.27323,"lon":5.39044,"is_reserved":false,"is_disabled":false,"rental_uris":{"android":"levelo://app?vid=5a26d067-1f72-4b7a-ab7f-cfdfb675f698","ios":"levelo://app?vid=5a26d067-1f72-4b7a-ab7f-cfdfb675f698"},"vehicle_type_id":"4","last_reported":1729879963,"current_range_meters":19600,"station_id":"ce4bhgp2rcd13ifvqfe0","pricing_plan_id":"cebpf4jnsgd1na2vs0mg"},{"bike_id":"8078a39c-4d87-426c-a385-2f17dd756ed4","system_id":"levelo_inurba_marseille","lat":43.30133,"lon":5.38788,"is_reserved":false,"is_disabled":false,"rental_uris":{"android":"levelo://app?vid=8078a39c-4d87-426c-a385-2f17dd756ed4","ios":"levelo://app?vid=8078a39c-4d87-426c-a385-2f17dd756ed4"},"vehicle_type_id":"4","last_reported":1729879963,"current_range_meters":36800,"station_id":"ce4bghh2rcd13ifvqb60","pricing_plan_id":"cebpf4jnsgd1na2vs0mg"},{"bike_id":"2c0d5328-10dc-4172-8f62-30d9bb25422a","system_id":"levelo_inurba_marseille","lat":43.31711,"lon":5.43708,"is_reserved":false,"is_disabled":false,"rental_uris":{"android":"levelo://app?vid=2c0d5328-10dc-4172-8f62-30d9bb25422a","ios":"levelo://app?vid=2c0d5328-10dc-4172-8f62-30d9bb25422a"},"vehicle_type_id":"4","last_reported":1729879963,"current_range_meters":27600,"station_id":"ce4bhp92rcd13ifvqhcg","pricing_plan_id":"cebpf4jnsgd1na2vs0mg"},{"bike_id":"bf1f917d-6fa9-4a2e-afa1-a39c1e7f64cd","system_id":"levelo_inurba_marseille","lat":43.28409,"lon":5.34989,"is_reserved":false,"is_disabled":false,"rental_uris":{"android":"levelo://app?vid=bf1f917d-6fa9-4a2e-afa1-a39c1e7f64cd","ios":"levelo://app?vid=bf1f917d-6fa9-4a2e-afa1-a39c1e7f64cd"},"vehicle_type_id":"4","last_reported":1729879963,"current_range_meters":38800,"station_id":"ce4bhbh2rcd13ifvqepg","pricing_plan_id":"cebpf4jnsgd1na2vs0mg"},{"bike_id":"365a5e76-e012-4983-b8a9-1a07480bde83","system_id":"levelo_inurba_marseille","lat":43.23194,"lon":5.35548,"is_reserved":false,"is_disabled":false,"rental_uris":{"android":"levelo://app?vid=365a5e76-e012-4983-b8a9-1a07480bde83","ios":"levelo://app?vid=365a5e76-e012-4983-b8a9-1a07480bde83"},"vehicle_type_id":"4","last_reported":1729879963,"current_range_meters":39200,"station_id":"ce4bhu92rcd13ifvqi70","pricing_plan_id":"cebpf4jnsgd1na2vs0mg"},{"bike_id":"e0343aaf-cba5-4f03-9191-3bd4993cd32b","system_id":"levelo_inurba_marseille","lat":43.2953,"lon":5.38547,"is_reserved":false,"is_disabled":false,"rental_uris":{"android":"levelo://app?vid=e0343aaf-cba5-4f03-9191-3bd4993cd32b","ios":"levelo://app?vid=e0343aaf-cba5-4f03-9191-3bd4993cd32b"},"vehicle_type_id":"4","last_reported":1729879963,"current_range_meters":24000,"station_id":"ce4bgih2rcd13ifvqba0","pricing_plan_id":"cebpf4jnsgd1na2vs0mg"},{"bike_id":"96cdd95e-3482-4a43-addc-7928483a6278","system_id":"levelo_inurba_marseille","lat":43.23193,"lon":5.35561,"is_reserved":false,"is_disabled":false,"rental_uris":{"android":"levelo://app?vid=96cdd95e-3482-4a43-addc-7928483a6278","ios":"levelo://app?vid=96cdd95e-3482-4a43-addc-7928483a6278"},"vehicle_type_id":"4","last_reported":1729879963,"current_range_meters":24400,"station_id":"ce4bhu92rcd13ifvqi70","pricing_plan_id":"cebpf4jnsgd1na2vs0mg"},{"bike_id":"3fcf5b64-8431-4e2e-9917-04460244a8cf","system_id":"levelo_inurba_marseille","lat":43.33019,"lon":5.39035,"is_reserved":false,"is_disabled":false,"rental_uris":{"android":"levelo://app?vid=3fcf5b64-8431-4e2e-9917-04460244a8cf","ios":"levelo://app?vid=3fcf5b64-8431-4e2e-9917-04460244a8cf"},"vehicle_type_id":"4","last_reported":1729879963,"current_range_meters":33200,"station_id":"ce4bhr92rcd13ifvqhrg","pricing_plan_id":"cebpf4jnsgd1na2vs0mg"},{"bike_id":"25b56222-17a5-40f4-b2d7-0f34167f9053","system_id":"levelo_inurba_marseille","lat":43.29531,"lon":5.38551,"is_reserved":false,"is_disabled":false,"rental_uris":{"android":"levelo://app?vid=25b56222-17a5-40f4-b2d7-0f34167f9053","ios":"levelo://app?vid=25b56222-17a5-40f4-b2d7-0f34167f9053"},"vehicle_type_id":"4","last_reported":1729879963,"current_range_meters":19200,"station_id":"ce4bgih2rcd13ifvqba0","pricing_plan_id":"cebpf4jnsgd1na2vs0mg"},{"bike_id":"1e1f7c35-31f8-4b86-a10d-e0a57acfc6c5","system_id":"levelo_inurba_marseille","lat":43.25575,"lon":5.3824,"is_reserved":false,"is_disabled":false,"rental_uris":{"android":"levelo://app?vid=1e1f7c35-31f8-4b86-a10d-e0a57acfc6c5","ios":"levelo://app?vid=1e1f7c35-31f8-4b86-a10d-e0a57acfc6c5"},"vehicle_type_id":"4","last_reported":1729879963,"current_range_meters":9200,"station_id":"ce4bhih2rcd13ifvqfs0","pricing_plan_id":"cebpf4jnsgd1na2vs0mg"},{"bike_id":"5b297233-ffba-4dd4-af61-47dd7b989a79","system_id":"levelo_inurba_marseille","lat":43.28149,"lon":5.42648,"is_reserved":false,"is_disabled":false,"rental_uris":{"android":"levelo://app?vid=5b297233-ffba-4dd4-af61-47dd7b989a79","ios":"levelo://app?vid=5b297233-ffba-4dd4-af61-47dd7b989a79"},"vehicle_type_id":"4","last_reported":1729879963,"current_range_meters":19600,"station_id":"ce4bhnh2rcd13ifvqgug","pricing_plan_id":"cebpf4jnsgd1na2vs0mg"},{"bike_id":"5953bccf-ff76-4026-b5c3-fa0979ea07be","system_id":"levelo_inurba_marseille","lat":43.27994,"lon":5.41662,"is_reserved":false,"is_disabled":false,"rental_uris":{"android":"levelo://app?vid=5953bccf-ff76-4026-b5c3-fa0979ea07be","ios":"levelo://app?vid=5953bccf-ff76-4026-b5c3-fa0979ea07be"},"vehicle_type_id":"4","last_reported":1729879963,"current_range_meters":2800,"station_id":"ce4bho12rcd13ifvqh1g","pricing_plan_id":"cebpf4jnsgd1na2vs0mg"},{"bike_id":"8fbb5018-d780-4512-8f51-d9ee6b357ec0","system_id":"levelo_inurba_marseille","lat":43.2942,"lon":5.38628,"is_reserved":false,"is_disabled":false,"rental_uris":{"android":"levelo://app?vid=8fbb5018-d780-4512-8f51-d9ee6b357ec0","ios":"levelo://app?vid=8fbb5018-d780-4512-8f51-d9ee6b357ec0"},"vehicle_type_id":"4","last_reported":1729879963,"current_range_meters":7200,"station_id":"ce4bh2h2rcd13ifvqdh0","pricing_plan_id":"cebpf4jnsgd1na2vs0mg"},{"bike_id":"ee94d1ca-4351-4bd6-ac27-a1e1f85c6aa1","system_id":"levelo_inurba_marseille","lat":43.298862,"lon":5.400336,"is_reserved":false,"is_disabled":false,"rental_uris":{"android":"levelo://app?vid=ee94d1ca-4351-4bd6-ac27-a1e1f85c6aa1","ios":"levelo://app?vid=ee94d1ca-4351-4bd6-ac27-a1e1f85c6aa1"},"vehicle_type_id":"4","last_reported":1729879963,"current_range_meters":12000,"station_id":"","pricing_plan_id":"cebpf4jnsgd1na2vs0mg"},{"bike_id":"0b1f8152-fa24-402f-b2cf-4a0283d5698f","system_id":"levelo_inurba_marseille","lat":43.29422,"lon":5.38623,"is_reserved":false,"is_disabled":false,"rental_uris":{"android":"levelo://app?vid=0b1f8152-fa24-402f-b2cf-4a0283d5698f","ios":"levelo://app?vid=0b1f8152-fa24-402f-b2cf-4a0283d5698f"},"vehicle_type_id":"4","last_reported":1729879963,"current_range_meters":38000,"station_id":"ce4bh2h2rcd13ifvqdh0","pricing_plan_id":"cebpf4jnsgd1na2vs0mg"},{"bike_id":"71cda5a0-571c-4b08-8476-48efcbdc28b3","system_id":"levelo_inurba_marseille","lat":43.24656,"lon":5.38173,"is_reserved":false,"is_disabled":false,"rental_uris":{"android":"levelo://app?vid=71cda5a0-571c-4b08-8476-48efcbdc28b3","ios":"levelo://app?vid=71cda5a0-571c-4b08-8476-48efcbdc28b3"},"vehicle_type_id":"4","last_reported":1729879963,"current_range_meters":7200,"station_id":"ce4bhih2rcd13ifvqfr0","pricing_plan_id":"cebpf4jnsgd1na2vs0mg"},{"bike_id":"08a2ab05-3f95-4a71-8a30-9173f725e207","system_id":"levelo_inurba_marseille","lat":43.22931,"lon":5.35375,"is_reserved":false,"is_disabled":false,"rental_uris":{"android":"levelo://app?vid=08a2ab05-3f95-4a71-8a30-9173f725e207","ios":"levelo://app?vid=08a2ab05-3f95-4a71-8a30-9173f725e207"},"vehicle_type_id":"4","last_reported":1729879963,"current_range_meters":26000,"station_id":"cpo3532slgdg3j2ikp40","pricing_plan_id":"cebpf4jnsgd1na2vs0mg"},{"bike_id":"8eae44b4-b468-4819-91ab-6eabc3b2e2a1","system_id":"levelo_inurba_marseille","lat":43.28152,"lon":5.42647,"is_reserved":false,"is_disabled":false,"rental_uris":{"android":"levelo://app?vid=8eae44b4-b468-4819-91ab-6eabc3b2e2a1","ios":"levelo://app?vid=8eae44b4-b468-4819-91ab-6eabc3b2e2a1"},"vehicle_type_id":"4","last_reported":1729879963,"current_range_meters":18800,"station_id":"ce4bhnh2rcd13ifvqgug","pricing_plan_id":"cebpf4jnsgd1na2vs0mg"},{"bike_id":"d47125da-5cc2-4649-b5a8-242a91be0c50","system_id":"levelo_inurba_marseille","lat":43.30535,"lon":5.38435,"is_reserved":false,"is_disabled":false,"rental_uris":{"android":"levelo://app?vid=d47125da-5cc2-4649-b5a8-242a91be0c50","ios":"levelo://app?vid=d47125da-5cc2-4649-b5a8-242a91be0c50"},"vehicle_type_id":"4","last_reported":1729879963,"current_range_meters":33600,"station_id":"ce4bgg92rcd13ifvqb30","pricing_plan_id":"cebpf4jnsgd1na2vs0mg"},{"bike_id":"82396d12-f8f0-47cf-8a72-3cdcc3a9bdc9","system_id":"levelo_inurba_marseille","lat":43.23957,"lon":5.36641,"is_reserved":false,"is_disabled":false,"rental_uris":{"android":"levelo://app?vid=82396d12-f8f0-47cf-8a72-3cdcc3a9bdc9","ios":"levelo://app?vid=82396d12-f8f0-47cf-8a72-3cdcc3a9bdc9"},"vehicle_type_id":"4","last_reported":1729879963,"current_range_meters":30400,"station_id":"ce4bhi12rcd13ifvqfp0","pricing_plan_id":"cebpf4jnsgd1na2vs0mg"},{"bike_id":"466e3130-40a2-479d-b783-d6f5d5b4986c","system_id":"levelo_inurba_marseille","lat":43.30427,"lon":5.3975,"is_reserved":false,"is_disabled":false,"rental_uris":{"android":"levelo://app?vid=466e3130-40a2-479d-b783-d6f5d5b4986c","ios":"levelo://app?vid=466e3130-40a2-479d-b783-d6f5d5b4986c"},"vehicle_type_id":"4","last_reported":1729879963,"current_range_meters":38800,"station_id":"ce4bh092rcd13ifvqd20","pricing_plan_id":"cebpf4jnsgd1na2vs0mg"},{"bike_id":"615c03e8-8c89-42d4-ba8d-652106ecb49a","system_id":"levelo_inurba_marseille","lat":43.29268,"lon":5.38448,"is_reserved":false,"is_disabled":false,"rental_uris":{"android":"levelo://app?vid=615c03e8-8c89-42d4-ba8d-652106ecb49a","ios":"levelo://app?vid=615c03e8-8c89-42d4-ba8d-652106ecb49a"},"vehicle_type_id":"4","last_reported":1729879963,"current_range_meters":16000,"station_id":"ce4bh692rcd13ifvqea0","pricing_plan_id":"cebpf4jnsgd1na2vs0mg"},{"bike_id":"a1e2ef12-c00b-4ce9-b4ed-c608391a1c8c","system_id":"levelo_inurba_marseille","lat":43.30427,"lon":5.39752,"is_reserved":false,"is_disabled":false,"rental_uris":{"android":"levelo://app?vid=a1e2ef12-c00b-4ce9-b4ed-c608391a1c8c","ios":"levelo://app?vid=a1e2ef12-c00b-4ce9-b4ed-c608391a1c8c"},"vehicle_type_id":"4","last_reported":1729879963,"current_range_meters":38800,"station_id":"ce4bh092rcd13ifvqd20","pricing_plan_id":"cebpf4jnsgd1na2vs0mg"},{"bike_id":"484ab180-2404-40cf-9335-634418a83214","system_id":"levelo_inurba_marseille","lat":43.30634,"lon":5.38169,"is_reserved":false,"is_disabled":false,"rental_uris":{"android":"levelo://app?vid=484ab180-2404-40cf-9335-634418a83214","ios":"levelo://app?vid=484ab180-2404-40cf-9335-634418a83214"},"vehicle_type_id":"4","last_reported":1729879963,"current_range_meters":33600,"station_id":"","pricing_plan_id":"cebpf4jnsgd1na2vs0mg"},{"bike_id":"48abd70a-4c11-4827-9f3d-cf6368bdc3c2","system_id":"levelo_inurba_marseille","lat":43.26801,"lon":5.4027,"is_reserved":false,"is_disabled":false,"rental_uris":{"android":"levelo://app?vid=48abd70a-4c11-4827-9f3d-cf6368bdc3c2","ios":"levelo://app?vid=48abd70a-4c11-4827-9f3d-cf6368bdc3c2"},"vehicle_type_id":"4","last_reported":1729879963,"current_range_meters":31200,"station_id":"ce501612rcd8frsf0b60","pricing_plan_id":"cebpf4jnsgd1na2vs0mg"},{"bike_id":"748175fc-06ab-4a0c-9926-5c6537d5d944","system_id":"levelo_inurba_marseille","lat":43.32365,"lon":5.38883,"is_reserved":false,"is_disabled":false,"rental_uris":{"android":"levelo://app?vid=748175fc-06ab-4a0c-9926-5c6537d5d944","ios":"levelo://app?vid=748175fc-06ab-4a0c-9926-5c6537d5d944"},"vehicle_type_id":"4","last_reported":1729879963,"current_range_meters":38800,"station_id":"ce4bhqp2rcd13ifvqhog","pricing_plan_id":"cebpf4jnsgd1na2vs0mg"},{"bike_id":"87a8630c-661f-47af-ba8e-870355648b01","system_id":"levelo_inurba_marseille","lat":43.29526,"lon":5.38544,"is_reserved":false,"is_disabled":false,"rental_uris":{"android":"levelo://app?vid=87a8630c-661f-47af-ba8e-870355648b01","ios":"levelo://app?vid=87a8630c-661f-47af-ba8e-870355648b01"},"vehicle_type_id":"4","last_reported":1729879963,"current_range_meters":8400,"station_id":"ce4bgih2rcd13ifvqba0","pricing_plan_id":"cebpf4jnsgd1na2vs0mg"},{"bike_id":"d5ed5176-eee0-4493-8937-56c9fdfb73fc","system_id":"levelo_inurba_marseille","lat":43.27995,"lon":5.40024,"is_reserved":false,"is_disabled":false,"rental_uris":{"android":"levelo://app?vid=d5ed5176-eee0-4493-8937-56c9fdfb73fc","ios":"levelo://app?vid=d5ed5176-eee0-4493-8937-56c9fdfb73fc"},"vehicle_type_id":"4","last_reported":1729879963,"current_range_meters":28800,"station_id":"ce4bho92rcd13ifvqh4g","pricing_plan_id":"cebpf4jnsgd1na2vs0mg"},{"bike_id":"6bd52fa6-c8ce-46de-b2d1-303f100f2eef","system_id":"levelo_inurba_marseille","lat":43.29419,"lon":5.38627,"is_reserved":false,"is_disabled":false,"rental_uris":{"android":"levelo://app?vid=6bd52fa6-c8ce-46de-b2d1-303f100f2eef","ios":"levelo://app?vid=6bd52fa6-c8ce-46de-b2d1-303f100f2eef"},"vehicle_type_id":"4","last_reported":1729879963,"current_range_meters":3600,"station_id":"ce4bh2h2rcd13ifvqdh0","pricing_plan_id":"cebpf4jnsgd1na2vs0mg"},{"bike_id":"6e31f1de-92fc-48e4-a7b1-371833a18f14","system_id":"levelo_inurba_marseille","lat":43.25126,"lon":5.40331,"is_reserved":false,"is_disabled":false,"rental_uris":{"android":"levelo://app?vid=6e31f1de-92fc-48e4-a7b1-371833a18f14","ios":"levelo://app?vid=6e31f1de-92fc-48e4-a7b1-371833a18f14"},"vehicle_type_id":"4","last_reported":1729879963,"current_range_meters":12000,"station_id":"ce4bhlh2rcd13ifvqgig","pricing_plan_id":"cebpf4jnsgd1na2vs0mg"},{"bike_id":"695004d6-a345-42a8-b2e6-36e1b1adca12","system_id":"levelo_inurba_marseille","lat":43.25005,"lon":5.38919,"is_reserved":false,"is_disabled":false,"rental_uris":{"android":"levelo://app?vid=695004d6-a345-42a8-b2e6-36e1b1adca12","ios":"levelo://app?vid=695004d6-a345-42a8-b2e6-36e1b1adca12"},"vehicle_type_id":"4","last_reported":1729879963,"current_range_meters":24800,"station_id":"ce4bhgp2rcd13ifvqfd0","pricing_plan_id":"cebpf4jnsgd1na2vs0mg"},{"bike_id":"7b8b631b-05a1-4bd7-bbbf-6c9fbfe178ce","system_id":"levelo_inurba_marseille","lat":43.2926,"lon":5.38452,"is_reserved":false,"is_disabled":false,"rental_uris":{"android":"levelo://app?vid=7b8b631b-05a1-4bd7-bbbf-6c9fbfe178ce","ios":"levelo://app?vid=7b8b631b-05a1-4bd7-bbbf-6c9fbfe178ce"},"vehicle_type_id":"4","last_reported":1729879963,"current_range_meters":38800,"station_id":"ce4bh692rcd13ifvqea0","pricing_plan_id":"cebpf4jnsgd1na2vs0mg"},{"bike_id":"d9cf720f-2e05-402a-ac9c-2558cfe9b324","system_id":"levelo_inurba_marseille","lat":43.23757,"lon":5.36658,"is_reserved":false,"is_disabled":false,"rental_uris":{"android":"levelo://app?vid=d9cf720f-2e05-402a-ac9c-2558cfe9b324","ios":"levelo://app?vid=d9cf720f-2e05-402a-ac9c-2558cfe9b324"},"vehicle_type_id":"4","last_reported":1729879963,"current_range_meters":12000,"station_id":"","pricing_plan_id":"cebpf4jnsgd1na2vs0mg"},{"bike_id":"680fc5b5-fdce-4140-acfa-c983f765f98c","system_id":"levelo_inurba_marseille","lat":43.28152,"lon":5.42649,"is_reserved":false,"is_disabled":false,"rental_uris":{"android":"levelo://app?vid=680fc5b5-fdce-4140-acfa-c983f765f98c","ios":"levelo://app?vid=680fc5b5-fdce-4140-acfa-c983f765f98c"},"vehicle_type_id":"4","last_reported":1729879963,"current_range_meters":31200,"station_id":"ce4bhnh2rcd13ifvqgug","pricing_plan_id":"cebpf4jnsgd1na2vs0mg"},{"bike_id":"9c8b933c-d75e-4099-b80a-14e73dd824bc","system_id":"levelo_inurba_marseille","lat":43.28928,"lon":5.3663,"is_reserved":false,"is_disabled":false,"rental_uris":{"android":"levelo://app?vid=9c8b933c-d75e-4099-b80a-14e73dd824bc","ios":"levelo://app?vid=9c8b933c-d75e-4099-b80a-14e73dd824bc"},"vehicle_type_id":"4","last_reported":1729879963,"current_range_meters":38800,"station_id":"ce4bhap2rcd13ifvqek0","pricing_plan_id":"cebpf4jnsgd1na2vs0mg"},{"bike_id":"58452de1-b4eb-46a9-afa8-4f668a6ba2cd","system_id":"levelo_inurba_marseille","lat":43.29549,"lon":5.42286,"is_reserved":false,"is_disabled":false,"rental_uris":{"android":"levelo://app?vid=58452de1-b4eb-46a9-afa8-4f668a6ba2cd","ios":"levelo://app?vid=58452de1-b4eb-46a9-afa8-4f668a6ba2cd"},"vehicle_type_id":"4","last_reported":1729879963,"current_range_meters":11600,"station_id":"ce4bhph2rcd13ifvqhdg","pricing_plan_id":"cebpf4jnsgd1na2vs0mg"},{"bike_id":"53058b10-7c79-43f4-963c-3acc4edad4eb","system_id":"levelo_inurba_marseille","lat":43.28422,"lon":5.34983,"is_reserved":false,"is_disabled":false,"rental_uris":{"android":"levelo://app?vid=53058b10-7c79-43f4-963c-3acc4edad4eb","ios":"levelo://app?vid=53058b10-7c79-43f4-963c-3acc4edad4eb"},"vehicle_type_id":"4","last_reported":1729879963,"current_range_meters":38800,"station_id":"ce4bhbh2rcd13ifvqepg","pricing_plan_id":"cebpf4jnsgd1na2vs0mg"},{"bike_id":"f72163a3-2487-47c2-a8da-ff90278e4df9","system_id":"levelo_inurba_marseille","lat":43.29421,"lon":5.38619,"is_reserved":false,"is_disabled":false,"rental_uris":{"android":"levelo://app?vid=f72163a3-2487-47c2-a8da-ff90278e4df9","ios":"levelo://app?vid=f72163a3-2487-47c2-a8da-ff90278e4df9"},"vehicle_type_id":"4","last_reported":1729879963,"current_range_meters":35200,"station_id":"ce4bh2h2rcd13ifvqdh0","pricing_plan_id":"cebpf4jnsgd1na2vs0mg"},{"bike_id":"d913e464-44d7-415a-809c-7925f19bf8b3","system_id":"levelo_inurba_marseille","lat":43.3172,"lon":5.42396,"is_reserved":false,"is_disabled":false,"rental_uris":{"android":"levelo://app?vid=d913e464-44d7-415a-809c-7925f19bf8b3","ios":"levelo://app?vid=d913e464-44d7-415a-809c-7925f19bf8b3"},"vehicle_type_id":"4","last_reported":1729879963,"current_range_meters":36000,"station_id":"ce4bhp92rcd13ifvqhbg","pricing_plan_id":"cebpf4jnsgd1na2vs0mg"},{"bike_id":"d5c7f0fa-d268-4fbc-9015-e6aef6c4db60","system_id":"levelo_inurba_marseille","lat":43.28724,"lon":5.36098,"is_reserved":false,"is_disabled":false,"rental_uris":{"android":"levelo://app?vid=d5c7f0fa-d268-4fbc-9015-e6aef6c4db60","ios":"levelo://app?vid=d5c7f0fa-d268-4fbc-9015-e6aef6c4db60"},"vehicle_type_id":"4","last_reported":1729879963,"current_range_meters":25200,"station_id":"ce4bh512rcd13ifvqe2g","pricing_plan_id":"cebpf4jnsgd1na2vs0mg"},{"bike_id":"cde46f62-26c4-4005-ba1c-909a6e048f7a","system_id":"levelo_inurba_marseille","lat":43.27554,"lon":5.38434,"is_reserved":false,"is_disabled":false,"rental_uris":{"android":"levelo://app?vid=cde46f62-26c4-4005-ba1c-909a6e048f7a","ios":"levelo://app?vid=cde46f62-26c4-4005-ba1c-909a6e048f7a"},"vehicle_type_id":"4","last_reported":1729879963,"current_range_meters":38000,"station_id":"ce4bhh92rcd13ifvqfi0","pricing_plan_id":"cebpf4jnsgd1na2vs0mg"},{"bike_id":"a4a202fc-8671-4f2a-8bea-89bcb41c5141","system_id":"levelo_inurba_marseille","lat":43.30596,"lon":5.39347,"is_reserved":false,"is_disabled":false,"rental_uris":{"android":"levelo://app?vid=a4a202fc-8671-4f2a-8bea-89bcb41c5141","ios":"levelo://app?vid=a4a202fc-8671-4f2a-8bea-89bcb41c5141"},"vehicle_type_id":"4","last_reported":1729879963,"current_range_meters":8000,"station_id":"ce4bh0p2rcd13ifvqd80","pricing_plan_id":"cebpf4jnsgd1na2vs0mg"},{"bike_id":"5f34afad-4783-4912-87a1-e19336828274","system_id":"levelo_inurba_marseille","lat":43.25082,"lon":5.39515,"is_reserved":false,"is_disabled":false,"rental_uris":{"android":"levelo://app?vid=5f34afad-4783-4912-87a1-e19336828274","ios":"levelo://app?vid=5f34afad-4783-4912-87a1-e19336828274"},"vehicle_type_id":"4","last_reported":1729879963,"current_range_meters":6000,"station_id":"ce4bhm12rcd13ifvqgkg","pricing_plan_id":"cebpf4jnsgd1na2vs0mg"},{"bike_id":"9ed0461b-bec1-49c2-bedc-c3d4b13453d4","system_id":"levelo_inurba_marseille","lat":43.31494,"lon":5.37304,"is_reserved":false,"is_disabled":false,"rental_uris":{"android":"levelo://app?vid=9ed0461b-bec1-49c2-bedc-c3d4b13453d4","ios":"levelo://app?vid=9ed0461b-bec1-49c2-bedc-c3d4b13453d4"},"vehicle_type_id":"4","last_reported":1729879963,"current_range_meters":38800,"station_id":"ce4bgt12rcd13ifvqcd0","pricing_plan_id":"cebpf4jnsgd1na2vs0mg"},{"bike_id":"3da59c8f-6e35-481e-9eac-1c248f3e843f","system_id":"levelo_inurba_marseille","lat":43.29415,"lon":5.38627,"is_reserved":false,"is_disabled":false,"rental_uris":{"android":"levelo://app?vid=3da59c8f-6e35-481e-9eac-1c248f3e843f","ios":"levelo://app?vid=3da59c8f-6e35-481e-9eac-1c248f3e843f"},"vehicle_type_id":"4","last_reported":1729879963,"current_range_meters":26800,"station_id":"ce4bh2h2rcd13ifvqdh0","pricing_plan_id":"cebpf4jnsgd1na2vs0mg"},{"bike_id":"4e747c4a-f17f-473b-a9c5-2552843199c7","system_id":"levelo_inurba_marseille","lat":43.284657,"lon":5.358875,"is_reserved":false,"is_disabled":false,"rental_uris":{"android":"levelo://app?vid=4e747c4a-f17f-473b-a9c5-2552843199c7","ios":"levelo://app?vid=4e747c4a-f17f-473b-a9c5-2552843199c7"},"vehicle_type_id":"4","last_reported":1729879963,"current_range_meters":30400,"station_id":"ce4bhah2rcd13ifvqei0","pricing_plan_id":"cebpf4jnsgd1na2vs0mg"},{"bike_id":"ed6713bc-d136-41e9-b2cb-4c5e09d9a0dc","system_id":"levelo_inurba_marseille","lat":43.24737,"lon":5.38021,"is_reserved":false,"is_disabled":false,"rental_uris":{"android":"levelo://app?vid=ed6713bc-d136-41e9-b2cb-4c5e09d9a0dc","ios":"levelo://app?vid=ed6713bc-d136-41e9-b2cb-4c5e09d9a0dc"},"vehicle_type_id":"4","last_reported":1729879963,"current_range_meters":17200,"station_id":"","pricing_plan_id":"cebpf4jnsgd1na2vs0mg"},{"bike_id":"84e2cb0f-484a-491b-ae45-6aac51170ed8","system_id":"levelo_inurba_marseille","lat":43.28277,"lon":5.35076,"is_reserved":false,"is_disabled":false,"rental_uris":{"android":"levelo://app?vid=84e2cb0f-484a-491b-ae45-6aac51170ed8","ios":"levelo://app?vid=84e2cb0f-484a-491b-ae45-6aac51170ed8"},"vehicle_type_id":"4","last_reported":1729879963,"current_range_meters":38800,"station_id":"ce4bhbp2rcd13ifvqerg","pricing_plan_id":"cebpf4jnsgd1na2vs0mg"},{"bike_id":"1e30ec08-da10-40a6-a36b-412bb4e9f5b7","system_id":"levelo_inurba_marseille","lat":43.31492,"lon":5.37311,"is_reserved":false,"is_disabled":false,"rental_uris":{"android":"levelo://app?vid=1e30ec08-da10-40a6-a36b-412bb4e9f5b7","ios":"levelo://app?vid=1e30ec08-da10-40a6-a36b-412bb4e9f5b7"},"vehicle_type_id":"4","last_reported":1729879963,"current_range_meters":8400,"station_id":"ce4bgt12rcd13ifvqcd0","pricing_plan_id":"cebpf4jnsgd1na2vs0mg"},{"bike_id":"15233c58-2e26-46da-a313-3fde9bc102b6","system_id":"levelo_inurba_marseille","lat":43.297974,"lon":5.374131,"is_reserved":false,"is_disabled":false,"rental_uris":{"android":"levelo://app?vid=15233c58-2e26-46da-a313-3fde9bc102b6","ios":"levelo://app?vid=15233c58-2e26-46da-a313-3fde9bc102b6"},"vehicle_type_id":"4","last_reported":1729879963,"current_range_meters":38800,"station_id":"ce4bgv92rcd13ifvqcq0","pricing_plan_id":"cebpf4jnsgd1na2vs0mg"},{"bike_id":"fd41fe95-b1c7-4fc7-b5f7-64188bf17aaf","system_id":"levelo_inurba_marseille","lat":43.29558,"lon":5.42293,"is_reserved":false,"is_disabled":false,"rental_uris":{"android":"levelo://app?vid=fd41fe95-b1c7-4fc7-b5f7-64188bf17aaf","ios":"levelo://app?vid=fd41fe95-b1c7-4fc7-b5f7-64188bf17aaf"},"vehicle_type_id":"4","last_reported":1729879963,"current_range_meters":6400,"station_id":"ce4bhph2rcd13ifvqhdg","pricing_plan_id":"cebpf4jnsgd1na2vs0mg"},{"bike_id":"823751f5-5672-40de-9c48-41af80f3ac62","system_id":"levelo_inurba_marseille","lat":43.28439,"lon":5.39213,"is_reserved":false,"is_disabled":false,"rental_uris":{"android":"levelo://app?vid=823751f5-5672-40de-9c48-41af80f3ac62","ios":"levelo://app?vid=823751f5-5672-40de-9c48-41af80f3ac62"},"vehicle_type_id":"4","last_reported":1729879963,"current_range_meters":36000,"station_id":"ce4bhoh2rcd13ifvqh5g","pricing_plan_id":"cebpf4jnsgd1na2vs0mg"},{"bike_id":"1296b487-5553-4433-91a2-fa57fa863c98","system_id":"levelo_inurba_marseille","lat":43.23194,"lon":5.35553,"is_reserved":false,"is_disabled":false,"rental_uris":{"android":"levelo://app?vid=1296b487-5553-4433-91a2-fa57fa863c98","ios":"levelo://app?vid=1296b487-5553-4433-91a2-fa57fa863c98"},"vehicle_type_id":"4","last_reported":1729879963,"current_range_meters":11600,"station_id":"ce4bhu92rcd13ifvqi70","pricing_plan_id":"cebpf4jnsgd1na2vs0mg"},{"bike_id":"a043994a-146b-4267-b6c4-d6b3978a05f2","system_id":"levelo_inurba_marseille","lat":43.29886,"lon":5.38903,"is_reserved":false,"is_disabled":false,"rental_uris":{"android":"levelo://app?vid=a043994a-146b-4267-b6c4-d6b3978a05f2","ios":"levelo://app?vid=a043994a-146b-4267-b6c4-d6b3978a05f2"},"vehicle_type_id":"4","last_reported":1729879963,"current_range_meters":10000,"station_id":"ce4bh392rcd13ifvqdl0","pricing_plan_id":"cebpf4jnsgd1na2vs0mg"},{"bike_id":"7267e639-36a5-43dc-8ef6-f490e7eae428","system_id":"levelo_inurba_marseille","lat":43.2657,"lon":5.39026,"is_reserved":false,"is_disabled":false,"rental_uris":{"android":"levelo://app?vid=7267e639-36a5-43dc-8ef6-f490e7eae428","ios":"levelo://app?vid=7267e639-36a5-43dc-8ef6-f490e7eae428"},"vehicle_type_id":"4","last_reported":1729879963,"current_range_meters":31200,"station_id":"ce4bhe12rcd13ifvqf30","pricing_plan_id":"cebpf4jnsgd1na2vs0mg"},{"bike_id":"a8605dfc-7ee3-46a5-a9d3-ee1308daddd8","system_id":"levelo_inurba_marseille","lat":43.3088,"lon":5.39657,"is_reserved":false,"is_disabled":false,"rental_uris":{"android":"levelo://app?vid=a8605dfc-7ee3-46a5-a9d3-ee1308daddd8","ios":"levelo://app?vid=a8605dfc-7ee3-46a5-a9d3-ee1308daddd8"},"vehicle_type_id":"4","last_reported":1729879963,"current_range_meters":14400,"station_id":"ce4bh012rcd13ifvqcv0","pricing_plan_id":"cebpf4jnsgd1na2vs0mg"},{"bike_id":"97871a69-d4a7-4c4f-98d4-24422f8f1052","system_id":"levelo_inurba_marseille","lat":43.29529,"lon":5.38547,"is_reserved":false,"is_disabled":false,"rental_uris":{"android":"levelo://app?vid=97871a69-d4a7-4c4f-98d4-24422f8f1052","ios":"levelo://app?vid=97871a69-d4a7-4c4f-98d4-24422f8f1052"},"vehicle_type_id":"4","last_reported":1729879963,"current_range_meters":13600,"station_id":"ce4bgih2rcd13ifvqba0","pricing_plan_id":"cebpf4jnsgd1na2vs0mg"},{"bike_id":"c496f2d6-16bc-4951-91ae-5fc5338f6691","system_id":"levelo_inurba_marseille","lat":43.3376,"lon":5.374567,"is_reserved":false,"is_disabled":false,"rental_uris":{"android":"levelo://app?vid=c496f2d6-16bc-4951-91ae-5fc5338f6691","ios":"levelo://app?vid=c496f2d6-16bc-4951-91ae-5fc5338f6691"},"vehicle_type_id":"4","last_reported":1729879963,"current_range_meters":34800,"station_id":"","pricing_plan_id":"cebpf4jnsgd1na2vs0mg"},{"bike_id":"10d79d2d-6077-4033-90b9-e989e1e01882","system_id":"levelo_inurba_marseille","lat":43.29964,"lon":5.38496,"is_reserved":false,"is_disabled":false,"rental_uris":{"android":"levelo://app?vid=10d79d2d-6077-4033-90b9-e989e1e01882","ios":"levelo://app?vid=10d79d2d-6077-4033-90b9-e989e1e01882"},"vehicle_type_id":"4","last_reported":1729879963,"current_range_meters":38800,"station_id":"ce4bgj92rcd13ifvqbd0","pricing_plan_id":"cebpf4jnsgd1na2vs0mg"},{"bike_id":"1a067143-334e-4fe8-b0ca-9c0d45c55e65","system_id":"levelo_inurba_marseille","lat":43.31075,"lon":5.38352,"is_reserved":false,"is_disabled":false,"rental_uris":{"android":"levelo://app?vid=1a067143-334e-4fe8-b0ca-9c0d45c55e65","ios":"levelo://app?vid=1a067143-334e-4fe8-b0ca-9c0d45c55e65"},"vehicle_type_id":"4","last_reported":1729879963,"current_range_meters":26000,"station_id":"ce4bgv92rcd13ifvqcr0","pricing_plan_id":"cebpf4jnsgd1na2vs0mg"},{"bike_id":"d3035504-3f1a-4fb0-998c-0737b49322a1","system_id":"levelo_inurba_marseille","lat":43.29429,"lon":5.43055,"is_reserved":false,"is_disabled":false,"rental_uris":{"android":"levelo://app?vid=d3035504-3f1a-4fb0-998c-0737b49322a1","ios":"levelo://app?vid=d3035504-3f1a-4fb0-998c-0737b49322a1"},"vehicle_type_id":"4","last_reported":1729879963,"current_range_meters":33600,"station_id":"ce4bh192rcd13ifvqdc0","pricing_plan_id":"cebpf4jnsgd1na2vs0mg"},{"bike_id":"620c5fc7-d049-498e-8f89-a6bd1844bc34","system_id":"levelo_inurba_marseille","lat":43.31521,"lon":5.38036,"is_reserved":false,"is_disabled":false,"rental_uris":{"android":"levelo://app?vid=620c5fc7-d049-498e-8f89-a6bd1844bc34","ios":"levelo://app?vid=620c5fc7-d049-498e-8f89-a6bd1844bc34"},"vehicle_type_id":"4","last_reported":1729879963,"current_range_meters":38800,"station_id":"ce4bhsp2rcd13ifvqi50","pricing_plan_id":"cebpf4jnsgd1na2vs0mg"},{"bike_id":"283bc4ae-8ffb-45ed-93e9-181a9644dc19","system_id":"levelo_inurba_marseille","lat":43.31076,"lon":5.38359,"is_reserved":false,"is_disabled":false,"rental_uris":{"android":"levelo://app?vid=283bc4ae-8ffb-45ed-93e9-181a9644dc19","ios":"levelo://app?vid=283bc4ae-8ffb-45ed-93e9-181a9644dc19"},"vehicle_type_id":"4","last_reported":1729879963,"current_range_meters":8400,"station_id":"ce4bgv92rcd13ifvqcr0","pricing_plan_id":"cebpf4jnsgd1na2vs0mg"},{"bike_id":"031c308a-18c9-48e1-9b43-53f783b42d37","system_id":"levelo_inurba_marseille","lat":43.25718,"lon":5.41114,"is_reserved":false,"is_disabled":false,"rental_uris":{"android":"levelo://app?vid=031c308a-18c9-48e1-9b43-53f783b42d37","ios":"levelo://app?vid=031c308a-18c9-48e1-9b43-53f783b42d37"},"vehicle_type_id":"4","last_reported":1729879963,"current_range_meters":26800,"station_id":"ce4bhkp2rcd13ifvqgd0","pricing_plan_id":"cebpf4jnsgd1na2vs0mg"},{"bike_id":"375cd58d-8060-4c4b-ab69-3c259b9e0d4c","system_id":"levelo_inurba_marseille","lat":43.31267,"lon":5.40182,"is_reserved":false,"is_disabled":false,"rental_uris":{"android":"levelo://app?vid=375cd58d-8060-4c4b-ab69-3c259b9e0d4c","ios":"levelo://app?vid=375cd58d-8060-4c4b-ab69-3c259b9e0d4c"},"vehicle_type_id":"4","last_reported":1729879963,"current_range_meters":32400,"station_id":"ce4bh092rcd13ifvqd30","pricing_plan_id":"cebpf4jnsgd1na2vs0mg"},{"bike_id":"35c20e1c-2b7c-43b7-816f-1b50bb34fb92","system_id":"levelo_inurba_marseille","lat":43.29528,"lon":5.38543,"is_reserved":false,"is_disabled":false,"rental_uris":{"android":"levelo://app?vid=35c20e1c-2b7c-43b7-816f-1b50bb34fb92","ios":"levelo://app?vid=35c20e1c-2b7c-43b7-816f-1b50bb34fb92"},"vehicle_type_id":"4","last_reported":1729879963,"current_range_meters":6400,"station_id":"ce4bgih2rcd13ifvqba0","pricing_plan_id":"cebpf4jnsgd1na2vs0mg"},{"bike_id":"3c042f6f-0081-4480-92b7-3a9b28037451","system_id":"levelo_inurba_marseille","lat":43.2954,"lon":5.38552,"is_reserved":false,"is_disabled":false,"rental_uris":{"android":"levelo://app?vid=3c042f6f-0081-4480-92b7-3a9b28037451","ios":"levelo://app?vid=3c042f6f-0081-4480-92b7-3a9b28037451"},"vehicle_type_id":"4","last_reported":1729879963,"current_range_meters":36800,"station_id":"ce4bgih2rcd13ifvqba0","pricing_plan_id":"cebpf4jnsgd1na2vs0mg"},{"bike_id":"f4a0523f-03d2-4588-adb4-7481b0229b28","system_id":"levelo_inurba_marseille","lat":43.2466,"lon":5.38165,"is_reserved":false,"is_disabled":false,"rental_uris":{"android":"levelo://app?vid=f4a0523f-03d2-4588-adb4-7481b0229b28","ios":"levelo://app?vid=f4a0523f-03d2-4588-adb4-7481b0229b28"},"vehicle_type_id":"4","last_reported":1729879963,"current_range_meters":22400,"station_id":"ce4bhih2rcd13ifvqfr0","pricing_plan_id":"cebpf4jnsgd1na2vs0mg"},{"bike_id":"d6e9fef2-7e55-4f51-97ad-b807b6fa7382","system_id":"levelo_inurba_marseille","lat":43.24657,"lon":5.38162,"is_reserved":false,"is_disabled":false,"rental_uris":{"android":"levelo://app?vid=d6e9fef2-7e55-4f51-97ad-b807b6fa7382","ios":"levelo://app?vid=d6e9fef2-7e55-4f51-97ad-b807b6fa7382"},"vehicle_type_id":"4","last_reported":1729879963,"current_range_meters":29600,"station_id":"ce4bhih2rcd13ifvqfr0","pricing_plan_id":"cebpf4jnsgd1na2vs0mg"},