{"last_updated":1744125030,"ttl":60,"version":"2.2","data":{"bikes":[{"bike_id":"99287bb4-cacd-40d9-a08d-0d04b12ff7f8","system_id":"levelo_inurba_marseille","lat":43.30551,"lon":5.36543,"is_reserved":false,"is_disabled":false,"rental_uris":{"android":"levelo://app?vid=99287bb4-cacd-40d9-a08d-0d04b12ff7f8","ios":"levelo://app?vid=99287bb4-cacd-40d9-a08d-0d04b12ff7f8"},"vehicle_type_id":"4","last_reported":1744125030,"current_range_meters":2800,"station_id":"ce4bgs12rcd13ifvqcag","pricing_plan_id":"cebpf4jnsgd1na2vs0mg"},{"bike_id":"60d303c0-8e57-416a-969b-a371fda2d189","system_id":"levelo_inurba_marseille","lat":43.26569,"lon":5.39012,"is_reserved":false,"is_disabled":false,"rental_uris":{"android":"levelo://app?vid=60d303c0-8e57-416a-969b-a371fda2d189","ios":"levelo://app?vid=60d303c0-8e57-416a-969b-a371fda2d189"},"vehicle_type_id":"4","last_reported":1744125030,"current_range_meters":2800,"station_id":"ce4bhe12rcd13ifvqf30","pricing_plan_id":"cebpf4jnsgd1na2vs0mg"},{"bike_id":"25f19322-3940-48f6-9994-30b1cf35b098","system_id":"levelo_inurba_marseille","lat":43.28616,"lon":5.35106,"is_reserved":false,"is_disabled":false,"rental_uris":{"android":"levelo://app?vid=25f19322-3940-48f6-9994-30b1cf35b098","ios":"levelo://app?vid=25f19322-3940-48f6-9994-30b1cf35b098"},"vehicle_type_id":"4","last_reported":1744125030,"current_range_meters":3600,"station_id":"ce4bhch2rcd13ifvqeug","pricing_plan_id":"cebpf4jnsgd1na2vs0mg"},{"bike_id":"a959694d-18ce-4d80-917f-23c91ed81065","system_id":"levelo_inurba_marseille","lat":43.29904,"lon":5.43668,"is_reserved":false,"is_disabled":true,"rental_uris":{"android":"levelo://app?vid=a959694d-18ce-4d80-917f-23c91ed81065","ios":"levelo://app?vid=a959694d-18ce-4d80-917f-23c91ed81065"},"vehicle_type_id":"4","last_reported":1744125030,"current_range_meters":3200,"station_id":"ce4bhpp2rcd13ifvqhfg","pricing_plan_id":"cebpf4jnsgd1na2vs0mg"},{"bike_id":"4e772136-e971-401b-8c28-b4fe8f5bcdbf","system_id":"levelo_inurba_marseille","lat":43.25108,"lon":5.40322,"is_reserved":false,"is_disabled":false,"rental_uris":{"android":"levelo://app?vid=4e772136-e971-401b-8c28-b4fe8f5bcdbf","ios":"levelo://app?vid=4e772136-e971-401b-8c28-b4fe8f5bcdbf"},"vehicle_type_id":"4","last_reported":1744125030,"current_range_meters":3200,"station_id":"ce4bhlh2rcd13ifvqgig","pricing_plan_id":"cebpf4jnsgd1na2vs0mg"},{"bike_id":"23292eab-d7d9-46bc-8be7-974f33cf3f73","system_id":"levelo_inurba_marseille","lat":43.321076,"lon":5.367624,"is_reserved":false,"is_disabled":false,"rental_uris":{"android":"levelo://app?vid=23292eab-d7d9-46bc-8be7-974f33cf3f73","ios":"levelo://app?vid=23292eab-d7d9-46bc-8be7-974f33cf3f73"},"vehicle_type_id":"4","last_reported":1744125030,"current_range_meters":3200,"station_id":"ce4bh692rcd13ifvqea0","pricing_plan_id":"cebpf4jnsgd1na2vs0mg"},{"bike_id":"d3045b13-ea31-46e1-9d34-d6ac8eb2daa2","system_id":"levelo_inurba_marseille","lat":43.27374,"lon":5.36254,"is_reserved":false,"is_disabled":true,"rental_uris":{"android":"levelo://app?vid=d3045b13-ea31-46e1-9d34-d6ac8eb2daa2","ios":"levelo://app?vid=d3045b13-ea31-46e1-9d34-d6ac8eb2daa2"},"vehicle_type_id":"4","last_reported":1744125030,"current_range_meters":3600,"station_id":"ce4bhbh2rcd13ifvqeo0","pricing_plan_id":"cebpf4jnsgd1na2vs0mg"},{"bike_id":"615f06e3-dcdd-4063-b33f-aef772513918","system_id":"levelo_inurba_marseille","lat":43.28703,"lon":5.37385,"is_reserved":false,"is_disabled":false,"rental_uris":{"android":"levelo://app?vid=615f06e3-dcdd-4063-b33f-aef772513918","ios":"levelo://app?vid=615f06e3-dcdd-4063-b33f-aef772513918"},"vehicle_type_id":"4","last_reported":1744125030,"current_range_meters":4800,"station_id":"ce4bh3p2rcd13ifvqdq0","pricing_plan_id":"cebpf4jnsgd1na2vs0mg"},{"bike_id":"f3b83e8a-c65f-4f5d-8899-2b84c089f530","system_id":"levelo_inurba_marseille","lat":43.32097,"lon":5.36765,"is_reserved":false,"is_disabled":false,"rental_uris":{"android":"levelo://app?vid=f3b83e8a-c65f-4f5d-8899-2b84c089f530","ios":"levelo://app?vid=f3b83e8a-c65f-4f5d-8899-2b84c089f530"},"vehicle_type_id":"4","last_reported":1744125030,"current_range_meters":4400,"station_id":"ce4bhrh2rcd13ifvqhug","pricing_plan_id":"cebpf4jnsgd1na2vs0mg"},{"bike_id":"5b79fd17-71c7-46ba-a08e-72b15d99e820","system_id":"levelo_inurba_marseille","lat":43.22501,"lon":5.34778,"is_reserved":false,"is_disabled":true,"rental_uris":{"android":"levelo://app?vid=5b79fd17-71c7-46ba-a08e-72b15d99e820","ios":"levelo://app?vid=5b79fd17-71c7-46ba-a08e-72b15d99e820"},"vehicle_type_id":"4","last_reported":1744125030,"current_range_meters":4400,"station_id":"","pricing_plan_id":"cebpf4jnsgd1na2vs0mg"},{"bike_id":"86e3ee03-0206-4400-b42e-0561154239c7","system_id":"levelo_inurba_marseille","lat":43.30148,"lon":5.38782,"is_reserved":false,"is_disabled":false,"rental_uris":{"android":"levelo://app?vid=86e3ee03-0206-4400-b42e-0561154239c7","ios":"levelo://app?vid=86e3ee03-0206-4400-b42e-0561154239c7"},"vehicle_type_id":"4","last_reported":1744125030,"current_range_meters":4400,"station_id":"ce4bghh2rcd13ifvqb60","pricing_plan_id":"cebpf4jnsgd1na2vs0mg"},{"bike_id":"b95f3cd3-0a5b-40e0-b06e-939996ffefa6","system_id":"levelo_inurba_marseille","lat":43.27827,"lon":5.40728,"is_reserved":false,"is_disabled":true,"rental_uris":{"android":"levelo://app?vid=b95f3cd3-0a5b-40e0-b06e-939996ffefa6","ios":"levelo://app?vid=b95f3cd3-0a5b-40e0-b06e-939996ffefa6"},"vehicle_type_id":"4","last_reported":1744125030,"current_range_meters":4400,"station_id":"ce4bhnh2rcd13ifvqgtg","pricing_plan_id":"cebpf4jnsgd1na2vs0mg"},{"bike_id":"379f8c27-dcaa-47ae-a257-8453270bbd26","system_id":"levelo_inurba_marseille","lat":43.24383,"lon":5.37054,"is_reserved":false,"is_disabled":false,"rental_uris":{"android":"levelo://app?vid=379f8c27-dcaa-47ae-a257-8453270bbd26","ios":"levelo://app?vid=379f8c27-dcaa-47ae-a257-8453270bbd26"},"vehicle_type_id":"4","last_reported":1744125030,"current_range_meters":4000,"station_id":"ce4bhhh2rcd13ifvqfk0","pricing_plan_id":"cebpf4jnsgd1na2vs0mg"},{"bike_id":"9911a8bc-6711-458d-9c1e-536347a85497","system_id":"levelo_inurba_marseille","lat":43.30593,"lon":5.39358,"is_reserved":false,"is_disabled":false,"rental_uris":{"android":"levelo://app?vid=9911a8bc-6711-458d-9c1e-536347a85497","ios":"levelo://app?vid=9911a8bc-6711-458d-9c1e-536347a85497"},"vehicle_type_id":"4","last_reported":1744125030,"current_range_meters":4800,"station_id":"ce4bh0p2rcd13ifvqd80","pricing_plan_id":"cebpf4jnsgd1na2vs0mg"},{"bike_id":"b5b48d8a-b630-4fe9-92e3-ff8bcc7018c7","system_id":"levelo_inurba_marseille","lat":43.28482,"lon":5.38432,"is_reserved":false,"is_disabled":false,"rental_uris":{"android":"levelo://app?vid=b5b48d8a-b630-4fe9-92e3-ff8bcc7018c7","ios":"levelo://app?vid=b5b48d8a-b630-4fe9-92e3-ff8bcc7018c7"},"vehicle_type_id":"4","last_reported":1744125030,"current_range_meters":4800,"station_id":"ce4bh512rcd13ifvqe3g","pricing_plan_id":"cebpf4jnsgd1na2vs0mg"},{"bike_id":"9119d80c-a34a-4bc1-913e-f447180f8b22","system_id":"levelo_inurba_marseille","lat":43.28267,"lon":5.35074,"is_reserved":false,"is_disabled":false,"rental_uris":{"android":"levelo://app?vid=9119d80c-a34a-4bc1-913e-f447180f8b22","ios":"levelo://app?vid=9119d80c-a34a-4bc1-913e-f447180f8b22"},"vehicle_type_id":"4","last_reported":1744125030,"current_range_meters":4800,"station_id":"ce4bhbp2rcd13ifvqerg","pricing_plan_id":"cebpf4jnsgd1na2vs0mg"},{"bike_id":"afc3b9ca-15ab-4881-8d26-240d91261052","system_id":"levelo_inurba_marseille","lat":43.28276,"lon":5.35087,"is_reserved":false,"is_disabled":false,"rental_uris":{"android":"levelo://app?vid=afc3b9ca-15ab-4881-8d26-240d91261052","ios":"levelo://app?vid=afc3b9ca-15ab-4881-8d26-240d91261052"},"vehicle_type_id":"4","last_reported":1744125030,"current_range_meters":4800,"station_id":"ce4bhbp2rcd13ifvqerg","pricing_plan_id":"cebpf4jnsgd1na2vs0mg"},{"bike_id":"44f86a1a-f6fc-48a9-baa8-86f6a6451093","system_id":"levelo_inurba_marseille","lat":43.3046,"lon":5.37916,"is_reserved":false,"is_disabled":false,"rental_uris":{"android":"levelo://app?vid=44f86a1a-f6fc-48a9-baa8-86f6a6451093","ios":"levelo://app?vid=44f86a1a-f6fc-48a9-baa8-86f6a6451093"},"vehicle_type_id":"4","last_reported":1744125030,"current_range_meters":5600,"station_id":"ce4bgup2rcd13ifvqcn0","pricing_plan_id":"cebpf4jnsgd1na2vs0mg"},{"bike_id":"01c1c213-6d1a-42e1-bb3c-44d2a2898f1e","system_id":"levelo_inurba_marseille","lat":43.297598,"lon":5.372068,"is_reserved":false,"is_disabled":false,"rental_uris":{"android":"levelo://app?vid=01c1c213-6d1a-42e1-bb3c-44d2a2898f1e","ios":"levelo://app?vid=01c1c213-6d1a-42e1-bb3c-44d2a2898f1e"},"vehicle_type_id":"4","last_reported":1744125030,"current_range_meters":5600,"station_id":"ce4bgn12rcd13ifvqbt0","pricing_plan_id":"cebpf4jnsgd1na2vs0mg"},{"bike_id":"3e3172b1-ade3-45cb-9056-a68fd5861276","system_id":"levelo_inurba_marseille","lat":43.28626,"lon":5.35107,"is_reserved":false,"is_disabled":false,"rental_uris":{"android":"levelo://app?vid=3e3172b1-ade3-45cb-9056-a68fd5861276","ios":"levelo://app?vid=3e3172b1-ade3-45cb-9056-a68fd5861276"},"vehicle_type_id":"4","last_reported":1744125030,"current_range_meters":5600,"station_id":"ce4bhch2rcd13ifvqeug","pricing_plan_id":"cebpf4jnsgd1na2vs0mg"},{"bike_id":"5537f42e-63ff-40cb-bd04-969831f4e7ff","system_id":"levelo_inurba_marseille","lat":43.28414,"lon":5.34994,"is_reserved":false,"is_disabled":false,"rental_uris":{"android":"levelo://app?vid=5537f42e-63ff-40cb-bd04-969831f4e7ff","ios":"levelo://app?vid=5537f42e-63ff-40cb-bd04-969831f4e7ff"},"vehicle_type_id":"4","last_reported":1744125030,"current_range_meters":5600,"station_id":"ce4bhbh2rcd13ifvqepg","pricing_plan_id":"cebpf4jnsgd1na2vs0mg"},{"bike_id":"9bfef5a5-f763-486f-909b-e46d133b0c05","system_id":"levelo_inurba_marseille","lat":43.28,"lon":5.40012,"is_reserved":false,"is_disabled":false,"rental_uris":{"android":"levelo://app?vid=9bfef5a5-f763-486f-909b-e46d133b0c05","ios":"levelo://app?vid=9bfef5a5-f763-486f-909b-e46d133b0c05"},"vehicle_type_id":"4","last_reported":1744125030,"current_range_meters":5600,"station_id":"ce4bho92rcd13ifvqh4g","pricing_plan_id":"cebpf4jnsgd1na2vs0mg"},{"bike_id":"f7e37ee1-d7fc-433d-aedd-514eff8b59af","system_id":"levelo_inurba_marseille","lat":43.24801,"lon":5.37465,"is_reserved":false,"is_disabled":false,"rental_uris":{"android":"levelo://app?vid=f7e37ee1-d7fc-433d-aedd-514eff8b59af","ios":"levelo://app?vid=f7e37ee1-d7fc-433d-aedd-514eff8b59af"},"vehicle_type_id":"4","last_reported":1744125030,"current_range_meters":6000,"station_id":"ce4bhgh2rcd13ifvqfb0","pricing_plan_id":"cebpf4jnsgd1na2vs0mg"},{"bike_id":"faed10aa-f469-4f37-8c4a-89065619cc9b","system_id":"levelo_inurba_marseille","lat":43.28657,"lon":5.36342,"is_reserved":false,"is_disabled":false,"rental_uris":{"android":"levelo://app?vid=faed10aa-f469-4f37-8c4a-89065619cc9b","ios":"levelo://app?vid=faed10aa-f469-4f37-8c4a-89065619cc9b"},"vehicle_type_id":"4","last_reported":1744125030,"current_range_meters":6000,"station_id":"ce4bhah2rcd13ifvqej0","pricing_plan_id":"cebpf4jnsgd1na2vs0mg"},{"bike_id":"594a6d28-9d28-4371-b059-12dd5ce6fbe3","system_id":"levelo_inurba_marseille","lat":43.27915,"lon":5.39574,"is_reserved":false,"is_disabled":false,"rental_uris":{"android":"levelo://app?vid=594a6d28-9d28-4371-b059-12dd5ce6fbe3","ios":"levelo://app?vid=594a6d28-9d28-4371-b059-12dd5ce6fbe3"},"vehicle_type_id":"4","last_reported":1744125030,"current_range_meters":6000,"station_id":"ce4bhf92rcd13ifvqf40","pricing_plan_id":"cebpf4jnsgd1na2vs0mg"},{"bike_id":"81b4eeec-d26b-4050-a92d-04743fb93072","system_id":"levelo_inurba_marseille","lat":43.23185,"lon":5.39982,"is_reserved":false,"is_disabled":true,"rental_uris":{"android":"levelo://app?vid=81b4eeec-d26b-4050-a92d-04743fb93072","ios":"levelo://app?vid=81b4eeec-d26b-4050-a92d-04743fb93072"},"vehicle_type_id":"4","last_reported":1744125030,"current_range_meters":6000,"station_id":"ce4bhn12rcd13ifvqgqg","pricing_plan_id":"cebpf4jnsgd1na2vs0mg"},{"bike_id":"78384d8d-f29b-4978-a063-c2454a7c2478","system_id":"levelo_inurba_marseille","lat":43.28415,"lon":5.34985,"is_reserved":false,"is_disabled":false,"rental_uris":{"android":"levelo://app?vid=78384d8d-f29b-4978-a063-c2454a7c2478","ios":"levelo://app?vid=78384d8d-f29b-4978-a063-c2454a7c2478"},"vehicle_type_id":"4","last_reported":1744125030,"current_range_meters":6000,"station_id":"ce4bhbh2rcd13ifvqepg","pricing_plan_id":"cebpf4jnsgd1na2vs0mg"},{"bike_id":"ee766450-9e3e-4cfa-ae24-9e9470e90500","system_id":"levelo_inurba_marseille","lat":43.3236,"lon":5.3675,"is_reserved":false,"is_disabled":false,"rental_uris":{"android":"levelo://app?vid=ee766450-9e3e-4cfa-ae24-9e9470e90500","ios":"levelo://app?vid=ee766450-9e3e-4cfa-ae24-9e9470e90500"},"vehicle_type_id":"4","last_reported":1744125030,"current_range_meters":6000,"station_id":"ce4bhsh2rcd13ifvqi2g","pricing_plan_id":"cebpf4jnsgd1na2vs0mg"},{"bike_id":"cc057f14-b1e1-4dee-b107-8741c01c5964","system_id":"levelo_inurba_marseille","lat":43.3212,"lon":5.36794,"is_reserved":false,"is_disabled":true,"rental_uris":{"android":"levelo://app?vid=cc057f14-b1e1-4dee-b107-8741c01c5964","ios":"levelo://app?vid=cc057f14-b1e1-4dee-b107-8741c01c5964"},"vehicle_type_id":"4","last_reported":1744125030,"current_range_meters":6000,"station_id":"ce4bhrh2rcd13ifvqhug","pricing_plan_id":"cebpf4jnsgd1na2vs0mg"},{"bike_id":"1bdd2909-77c9-48d1-bb86-de7660d11cf8","system_id":"levelo_inurba_marseille","lat":43.28275,"lon":5.35081,"is_reserved":false,"is_disabled":false,"rental_uris":{"android":"levelo://app?vid=1bdd2909-77c9-48d1-bb86-de7660d11cf8","ios":"levelo://app?vid=1bdd2909-77c9-48d1-bb86-de7660d11cf8"},"vehicle_type_id":"4","last_reported":1744125030,"current_range_meters":6000,"station_id":"ce4bhbp2rcd13ifvqerg","pricing_plan_id":"cebpf4jnsgd1na2vs0mg"},{"bike_id":"fee9b9cf-8e45-47cb-9448-51e871243ae8","system_id":"levelo_inurba_marseille","lat":43.286184,"lon":5.399089,"is_reserved":false,"is_disabled":false,"rental_uris":{"android":"levelo://app?vid=fee9b9cf-8e45-47cb-9448-51e871243ae8","ios":"levelo://app?vid=fee9b9cf-8e45-47cb-9448-51e871243ae8"},"vehicle_type_id":"4","last_reported":1744125030,"current_range_meters":6400,"station_id":"ce4bh192rcd13ifvqdd0","pricing_plan_id":"cebpf4jnsgd1na2vs0mg"},{"bike_id":"f5047986-d647-4d30-b68a-bee9d5cb76a9","system_id":"levelo_inurba_marseille","lat":43.29958,"lon":5.38495,"is_reserved":false,"is_disabled":false,"rental_uris":{"android":"levelo://app?vid=f5047986-d647-4d30-b68a-bee9d5cb76a9","ios":"levelo://app?vid=f5047986-d647-4d30-b68a-bee9d5cb76a9"},"vehicle_type_id":"4","last_reported":1744125030,"current_range_meters":6400,"station_id":"ce4bgj92rcd13ifvqbd0","pricing_plan_id":"cebpf4jnsgd1na2vs0mg"},{"bike_id":"87bda883-ac94-49fc-94c2-3a86e52b4f97","system_id":"levelo_inurba_marseille","lat":43.30711,"lon":5.38339,"is_reserved":false,"is_disabled":false,"rental_uris":{"android":"levelo://app?vid=87bda883-ac94-49fc-94c2-3a86e52b4f97","ios":"levelo://app?vid=87bda883-ac94-49fc-94c2-3a86e52b4f97"},"vehicle_type_id":"4","last_reported":1744125030,"current_range_meters":6400,"station_id":"","pricing_plan_id":"cebpf4jnsgd1na2vs0mg"},{"bike_id":"07b7a8a1-026e-48a2-a2c2-fc4ad7c672ff","system_id":"levelo_inurba_marseille","lat":43.29007,"lon":5.35604,"is_reserved":false,"is_disabled":false,"rental_uris":{"android":"levelo://app?vid=07b7a8a1-026e-48a2-a2c2-fc4ad7c672ff","ios":"levelo://app?vid=07b7a8a1-026e-48a2-a2c2-fc4ad7c672ff"},"vehicle_type_id":"4","last_reported":1744125030,"current_range_meters":6400,"station_id":"ce4bhb92rcd13ifvqen0","pricing_plan_id":"cebpf4jnsgd1na2vs0mg"},{"bike_id":"5c035424-00b8-4556-b324-6e3b5a84f5bd","system_id":"levelo_inurba_marseille","lat":43.28612,"lon":5.35112,"is_reserved":false,"is_disabled":false,"rental_uris":{"android":"levelo://app?vid=5c035424-00b8-4556-b324-6e3b5a84f5bd","ios":"levelo://app?vid=5c035424-00b8-4556-b324-6e3b5a84f5bd"},"vehicle_type_id":"4","last_reported":1744125030,"current_range_meters":6400,"station_id":"ce4bhch2rcd13ifvqeug","pricing_plan_id":"cebpf4jnsgd1na2vs0mg"},{"bike_id":"9575e0ad-3a1f-4944-93fd-130c10137436","system_id":"levelo_inurba_marseille","lat":43.250843,"lon":5.39528,"is_reserved":false,"is_disabled":false,"rental_uris":{"android":"levelo://app?vid=9575e0ad-3a1f-4944-93fd-130c10137436","ios":"levelo://app?vid=9575e0ad-3a1f-4944-93fd-130c10137436"},"vehicle_type_id":"4","last_reported":1744125030,"current_range_meters":6800,"station_id":"ce4bhm12rcd13ifvqgkg","pricing_plan_id":"cebpf4jnsgd1na2vs0mg"},{"bike_id":"252e6c12-3e63-49da-b6ab-9d85406b6d2d","system_id":"levelo_inurba_marseille","lat":43.28417,"lon":5.34979,"is_reserved":false,"is_disabled":false,"rental_uris":{"android":"levelo://app?vid=252e6c12-3e63-49da-b6ab-9d85406b6d2d","ios":"levelo://app?vid=252e6c12-3e63-49da-b6ab-9d85406b6d2d"},"vehicle_type_id":"4","last_reported":1744125030,"current_range_meters":6800,"station_id":"ce4bhbh2rcd13ifvqepg","pricing_plan_id":"cebpf4jnsgd1na2vs0mg"},{"bike_id":"159779cf-52bd-4b36-a130-092d2c35fb4d","system_id":"levelo_inurba_marseille","lat":43.27378,"lon":5.36251,"is_reserved":false,"is_disabled":false,"rental_uris":{"android":"levelo://app?vid=159779cf-52bd-4b36-a130-092d2c35fb4d","ios":"levelo://app?vid=159779cf-52bd-4b36-a130-092d2c35fb4d"},"vehicle_type_id":"4","last_reported":1744125030,"current_range_meters":6800,"station_id":"ce4bhbh2rcd13ifvqeo0","pricing_plan_id":"cebpf4jnsgd1na2vs0mg"},{"bike_id":"35dc2e8e-35d4-4539-b1b5-cb66fa51170a","system_id":"levelo_inurba_marseille","lat":43.30798,"lon":5.38152,"is_reserved":false,"is_disabled":false,"rental_uris":{"android":"levelo://app?vid=35dc2e8e-35d4-4539-b1b5-cb66fa51170a","ios":"levelo://app?vid=35dc2e8e-35d4-4539-b1b5-cb66fa51170a"},"vehicle_type_id":"4","last_reported":1744125030,"current_range_meters":6400,"station_id":"ce4bgt12rcd13ifvqce0","pricing_plan_id":"cebpf4jnsgd1na2vs0mg"},{"bike_id":"00640de7-29b0-45aa-9dd7-fc9dc5a6d9e6","system_id":"levelo_inurba_marseille","lat":43.24179,"lon":5.39726,"is_reserved":false,"is_disabled":false,"rental_uris":{"android":"levelo://app?vid=00640de7-29b0-45aa-9dd7-fc9dc5a6d9e6","ios":"levelo://app?vid=00640de7-29b0-45aa-9dd7-fc9dc5a6d9e6"},"vehicle_type_id":"4","last_reported":1744125030,"current_range_meters":6800,"station_id":"ce4bhn12rcd13ifvqgpg","pricing_plan_id":"cebpf4jnsgd1na2vs0mg"},{"bike_id":"d9a01693-2124-4ece-92a2-e6c63eeda160","system_id":"levelo_inurba_marseille","lat":43.2556,"lon":5.3825,"is_reserved":false,"is_disabled":false,"rental_uris":{"android":"levelo://app?vid=d9a01693-2124-4ece-92a2-e6c63eeda160","ios":"levelo://app?vid=d9a01693-2124-4ece-92a2-e6c63eeda160"},"vehicle_type_id":"4","last_reported":1744125030,"current_range_meters":6800,"station_id":"ce4bhih2rcd13ifvqfs0","pricing_plan_id":"cebpf4jnsgd1na2vs0mg"},{"bike_id":"06027a16-f687-449b-8347-6295815589f3","system_id":"levelo_inurba_marseille","lat":43.28423,"lon":5.35006,"is_reserved":false,"is_disabled":false,"rental_uris":{"android":"levelo://app?vid=06027a16-f687-449b-8347-6295815589f3","ios":"levelo://app?vid=06027a16-f687-449b-8347-6295815589f3"},"vehicle_type_id":"4","last_reported":1744125030,"current_range_meters":6800,"station_id":"ce4bhbh2rcd13ifvqepg","pricing_plan_id":"cebpf4jnsgd1na2vs0mg"},{"bike_id":"ef95ef08-33d2-4557-a883-59d5b56aeae3","system_id":"levelo_inurba_marseille","lat":43.30789,"lon":5.38165,"is_reserved":false,"is_disabled":false,"rental_uris":{"android":"levelo://app?vid=ef95ef08-33d2-4557-a883-59d5b56aeae3","ios":"levelo://app?vid=ef95ef08-33d2-4557-a883-59d5b56aeae3"},"vehicle_type_id":"4","last_reported":1744125030,"current_range_meters":6800,"station_id":"ce4bgt12rcd13ifvqce0","pricing_plan_id":"cebpf4jnsgd1na2vs0mg"},{"bike_id":"7475da77-ffd0-4f8c-9e1d-b093b451e23f","system_id":"levelo_inurba_marseille","lat":43.27566,"lon":5.38418,"is_reserved":false,"is_disabled":false,"rental_uris":{"android":"levelo://app?vid=7475da77-ffd0-4f8c-9e1d-b093b451e23f","ios":"levelo://app?vid=7475da77-ffd0-4f8c-9e1d-b093b451e23f"},"vehicle_type_id":"4","last_reported":1744125030,"current_range_meters":6800,"station_id":"ce4bhh92rcd13ifvqfi0","pricing_plan_id":"cebpf4jnsgd1na2vs0mg"},{"bike_id":"e1e3e4d7-821d-4134-a13a-280ec3f9cbaa","system_id":"levelo_inurba_marseille","lat":43.32352,"lon":5.36763,"is_reserved":false,"is_disabled":false,"rental_uris":{"android":"levelo://app?vid=e1e3e4d7-821d-4134-a13a-280ec3f9cbaa","ios":"levelo://app?vid=e1e3e4d7-821d-4134-a13a-280ec3f9cbaa"},"vehicle_type_id":"4","last_reported":1744125030,"current_range_meters":6800,"station_id":"ce4bhsh2rcd13ifvqi2g","pricing_plan_id":"cebpf4jnsgd1na2vs0mg"},{"bike_id":"a2bc1534-fa4c-44c0-9bf1-e145e671d810","system_id":"levelo_inurba_marseille","lat":43.30311,"lon":5.40072,"is_reserved":false,"is_disabled":false,"rental_uris":{"android":"levelo://app?vid=a2bc1534-fa4c-44c0-9bf1-e145e671d810","ios":"levelo://app?vid=a2bc1534-fa4c-44c0-9bf1-e145e671d810"},"vehicle_type_id":"4","last_reported":1744125030,"current_range_meters":7200,"station_id":"ce4bgvh2rcd13ifvqcs0","pricing_plan_id":"cebpf4jnsgd1na2vs0mg"},{"bike_id":"7151a70c-7ec0-4c2e-b1eb-bcd786cc8c99","system_id":"levelo_inurba_marseille","lat":43.300856,"lon":5.390834,"is_reserved":false,"is_disabled":false,"rental_uris":{"android":"levelo://app?vid=7151a70c-7ec0-4c2e-b1eb-bcd786cc8c99","ios":"levelo://app?vid=7151a70c-7ec0-4c2e-b1eb-bcd786cc8c99"},"vehicle_type_id":"4","last_reported":1744125030,"current_range_meters":7200,"station_id":"ce4bh0p2rcd13ifvqd70","pricing_plan_id":"cebpf4jnsgd1na2vs0mg"},{"bike_id":"c4873e4a-824f-4d07-be80-e29a9e14c503","system_id":"levelo_inurba_marseille","lat":43.2953,"lon":5.38531,"is_reserved":false,"is_disabled":false,"rental_uris":{"android":"levelo://app?vid=c4873e4a-824f-4d07-be80-e29a9e14c503","ios":"levelo://app?vid=c4873e4a-824f-4d07-be80-e29a9e14c503"},"vehicle_type_id":"4","last_reported":1744125030,"current_range_meters":7200,"station_id":"ce4bgih2rcd13ifvqba0","pricing_plan_id":"cebpf4jnsgd1na2vs0mg"},{"bike_id":"d1d3d353-b4c0-42d1-a9fa-6dc52075c4c2","system_id":"levelo_inurba_marseille","lat":43.27379,"lon":5.36253,"is_reserved":false,"is_disabled":false,"rental_uris":{"android":"levelo://app?vid=d1d3d353-b4c0-42d1-a9fa-6dc52075c4c2","ios":"levelo://app?vid=d1d3d353-b4c0-42d1-a9fa-6dc52075c4c2"},"vehicle_type_id":"4","last_reported":1744125030,"current_range_meters":7200,"station_id":"ce4bhbh2rcd13ifvqeo0","pricing_plan_id":"cebpf4jnsgd1na2vs0mg"},{"bike_id":"b2c03bd9-c98c-4659-918c-7a5785ca1407","system_id":"levelo_inurba_marseille","lat":43.28267,"lon":5.35073,"is_reserved":false,"is_disabled":false,"rental_uris":{"android":"levelo://app?vid=b2c03bd9-c98c-4659-918c-7a5785ca1407","ios":"levelo://app?vid=b2c03bd9-c98c-4659-918c-7a5785ca1407"},"vehicle_type_id":"4","last_reported":1744125030,"current_range_meters":7200,"station_id":"ce4bhbp2rcd13ifvqerg","pricing_plan_id":"cebpf4jnsgd1na2vs0mg"},{"bike_id":"4fe21798-e4d1-4985-bc15-6a7a89cb6541","system_id":"levelo_inurba_marseille","lat":43.21179,"lon":5.35063,"is_reserved":false,"is_disabled":false,"rental_uris":{"android":"levelo://app?vid=4fe21798-e4d1-4985-bc15-6a7a89cb6541","ios":"levelo://app?vid=4fe21798-e4d1-4985-bc15-6a7a89cb6541"},"vehicle_type_id":"4","last_reported":1744125030,"current_range_meters":7200,"station_id":"st_cvj6sg6p6f1abm77japg","pricing_plan_id":"cebpf4jnsgd1na2vs0mg"},{"bike_id":"b62cc60d-008d-40e8-9155-ebde0c93d444","system_id":"levelo_inurba_marseille","lat":43.25117,"lon":5.40319,"is_reserved":false,"is_disabled":false,"rental_uris":{"android":"levelo://app?vid=b62cc60d-008d-40e8-9155-ebde0c93d444","ios":"levelo://app?vid=b62cc60d-008d-40e8-9155-ebde0c93d444"},"vehicle_type_id":"4","last_reported":1744125030,"current_range_meters":6000,"station_id":"ce4bhlh2rcd13ifvqgig","pricing_plan_id":"cebpf4jnsgd1na2vs0mg"},{"bike_id":"ecef8e9e-03dc-4612-b74e-b978f92e2873","system_id":"levelo_inurba_marseille","lat":43.30107,"lon":5.39081,"is_reserved":false,"is_disabled":true,"rental_uris":{"android":"levelo://app?vid=ecef8e9e-03dc-4612-b74e-b978f92e2873","ios":"levelo://app?vid=ecef8e9e-03dc-4612-b74e-b978f92e2873"},"vehicle_type_id":"4","last_reported":1744125030,"current_range_meters":8000,"station_id":"ce4bh192rcd13ifvqdb0","pricing_plan_id":"cebpf4jnsgd1na2vs0mg"},{"bike_id":"cf033fe6-9fc0-472a-9164-273e8e61ac67","system_id":"levelo_inurba_marseille","lat":43.26807,"lon":5.40268,"is_reserved":false,"is_disabled":false,"rental_uris":{"android":"levelo://app?vid=cf033fe6-9fc0-472a-9164-273e8e61ac67","ios":"levelo://app?vid=cf033fe6-9fc0-472a-9164-273e8e61ac67"},"vehicle_type_id":"4","last_reported":1744125030,"current_range_meters":8000,"station_id":"ce501612rcd8frsf0b60","pricing_plan_id":"cebpf4jnsgd1na2vs0mg"},{"bike_id":"a1214fb6-ec32-4f6d-b480-2c868d210d82","system_id":"levelo_inurba_marseille","lat":43.23193,"lon":5.35557,"is_reserved":false,"is_disabled":false,"rental_uris":{"android":"levelo://app?vid=a1214fb6-ec32-4f6d-b480-2c868d210d82","ios":"levelo://app?vid=a1214fb6-ec32-4f6d-b480-2c868d210d82"},"vehicle_type_id":"4","last_reported":1744125030,"current_range_meters":8000,"station_id":"ce4bhu92rcd13ifvqi70","pricing_plan_id":"cebpf4jnsgd1na2vs0mg"},{"bike_id":"a7d3b2f4-0a8a-4400-9556-b337345fe9c5","system_id":"levelo_inurba_marseille","lat":43.30848,"lon":5.37322,"is_reserved":false,"is_disabled":false,"rental_uris":{"android":"levelo://app?vid=a7d3b2f4-0a8a-4400-9556-b337345fe9c5","ios":"levelo://app?vid=a7d3b2f4-0a8a-4400-9556-b337345fe9c5"},"vehicle_type_id":"4","last_reported":1744125030,"current_range_meters":8000,"station_id":"","pricing_plan_id":"cebpf4jnsgd1na2vs0mg"},{"bike_id":"f2a8798d-d571-48ec-a1ca-8c27f1efdf4d","system_id":"levelo_inurba_marseille","lat":43.30602,"lon":5.38032,"is_reserved":false,"is_disabled":false,"rental_uris":{"android":"levelo://app?vid=f2a8798d-d571-48ec-a1ca-8c27f1efdf4d","ios":"levelo://app?vid=f2a8798d-d571-48ec-a1ca-8c27f1efdf4d"},"vehicle_type_id":"4","last_reported":1744125030,"current_range_meters":8400,"station_id":"ce4bgt12rcd13ifvqce0","pricing_plan_id":"cebpf4jnsgd1na2vs0mg"},{"bike_id":"294c3853-3138-4169-8c3c-ad6e0f544058","system_id":"levelo_inurba_marseille","lat":43.29975,"lon":5.38499,"is_reserved":false,"is_disabled":false,"rental_uris":{"android":"levelo://app?vid=294c3853-3138-4169-8c3c-ad6e0f544058","ios":"levelo://app?vid=294c3853-3138-4169-8c3c-ad6e0f544058"},"vehicle_type_id":"4","last_reported":1744125030,"current_range_meters":8400,"station_id":"ce4bgj92rcd13ifvqbd0","pricing_plan_id":"cebpf4jnsgd1na2vs0mg"},{"bike_id":"892d236a-e9ef-416c-afbe-8300f0aceab3","system_id":"levelo_inurba_marseille","lat":43.25493,"lon":5.37646,"is_reserved":false,"is_disabled":false,"rental_uris":{"android":"levelo://app?vid=892d236a-e9ef-416c-afbe-8300f0aceab3","ios":"levelo://app?vid=892d236a-e9ef-416c-afbe-8300f0aceab3"},"vehicle_type_id":"4","last_reported":1744125030,"current_range_meters":8400,"station_id":"ce4bhh12rcd13ifvqff0","pricing_plan_id":"cebpf4jnsgd1na2vs0mg"},{"bike_id":"9fd9afcf-8606-4db3-b765-345a62705d71","system_id":"levelo_inurba_marseille","lat":43.27367,"lon":5.36254,"is_reserved":false,"is_disabled":false,"rental_uris":{"android":"levelo://app?vid=9fd9afcf-8606-4db3-b765-345a62705d71","ios":"levelo://app?vid=9fd9afcf-8606-4db3-b765-345a62705d71"},"vehicle_type_id":"4","last_reported":1744125030,"current_range_meters":8400,"station_id":"ce4bhbh2rcd13ifvqeo0","pricing_plan_id":"cebpf4jnsgd1na2vs0mg"},{"bike_id":"7e2bfb3c-422b-4033-ada7-8c5491c48bc9","system_id":"levelo_inurba_marseille","lat":43.2509,"lon":5.39491,"is_reserved":false,"is_disabled":false,"rental_uris":{"android":"levelo://app?vid=7e2bfb3c-422b-4033-ada7-8c5491c48bc9","ios":"levelo://app?vid=7e2bfb3c-422b-4033-ada7-8c5491c48bc9"},"vehicle_type_id":"4","last_reported":1744125030,"current_range_meters":8400,"station_id":"ce4bhm12rcd13ifvqgkg","pricing_plan_id":"cebpf4jnsgd1na2vs0mg"},{"bike_id":"8391fb49-d5d7-4cb2-afbd-9565f53dad12","system_id":"levelo_inurba_marseille","lat":43.2866,"lon":5.36353,"is_reserved":false,"is_disabled":false,"rental_uris":{"android":"levelo://app?vid=8391fb49-d5d7-4cb2-afbd-9565f53dad12","ios":"levelo://app?vid=8391fb49-d5d7-4cb2-afbd-9565f53dad12"},"vehicle_type_id":"4","last_reported":1744125030,"current_range_meters":8400,"station_id":"ce4bhah2rcd13ifvqej0","pricing_plan_id":"cebpf4jnsgd1na2vs0mg"},{"bike_id":"f39be6f5-2f69-4c37-b021-559d20b299a4","system_id":"levelo_inurba_marseille","lat":43.30008,"lon":5.37631,"is_reserved":false,"is_disabled":false,"rental_uris":{"android":"levelo://app?vid=f39be6f5-2f69-4c37-b021-559d20b299a4","ios":"levelo://app?vid=f39be6f5-2f69-4c37-b021-559d20b299a4"},"vehicle_type_id":"4","last_reported":1744125030,"current_range_meters":8400,"station_id":"","pricing_plan_id":"cebpf4jnsgd1na2vs0mg"},{"bike_id":"f54ed993-fedb-455c-8329-424ac8299963","system_id":"levelo_inurba_marseille","lat":43.32371,"lon":5.36751,"is_reserved":false,"is_disabled":false,"rental_uris":{"android":"levelo://app?vid=f54ed993-fedb-455c-8329-424ac8299963","ios":"levelo://app?vid=f54ed993-fedb-455c-8329-424ac8299963"},"vehicle_type_id":"4","last_reported":1744125030,"current_range_meters":8400,"station_id":"ce4bhsh2rcd13ifvqi2g","pricing_plan_id":"cebpf4jnsgd1na2vs0mg"},{"bike_id":"e4ae93b2-a534-4202-b71b-1cf97be29067","system_id":"levelo_inurba_marseille","lat":43.28614,"lon":5.35106,"is_reserved":false,"is_disabled":false,"rental_uris":{"android":"levelo://app?vid=e4ae93b2-a534-4202-b71b-1cf97be29067","ios":"levelo://app?vid=e4ae93b2-a534-4202-b71b-1cf97be29067"},"vehicle_type_id":"4","last_reported":1744125030,"current_range_meters":8400,"station_id":"ce4bhch2rcd13ifvqeug","pricing_plan_id":"cebpf4jnsgd1na2vs0mg"},{"bike_id":"6c57ce9d-7a82-4bce-9f79-3829cc89e588","system_id":"levelo_inurba_marseille","lat":43.29199,"lon":5.35804,"is_reserved":false,"is_disabled":false,"rental_uris":{"android":"levelo://app?vid=6c57ce9d-7a82-4bce-9f79-3829cc89e588","ios":"levelo://app?vid=6c57ce9d-7a82-4bce-9f79-3829cc89e588"},"vehicle_type_id":"4","last_reported":1744125030,"current_range_meters":8400,"station_id":"ce4bhb12rcd13ifvqel0","pricing_plan_id":"cebpf4jnsgd1na2vs0mg"},{"bike_id":"2e9000dc-6400-4918-a994-dd60039ca96d","system_id":"levelo_inurba_marseille","lat":43.31993,"lon":5.38146,"is_reserved":false,"is_disabled":true,"rental_uris":{"android":"levelo://app?vid=2e9000dc-6400-4918-a994-dd60039ca96d","ios":"levelo://app?vid=2e9000dc-6400-4918-a994-dd60039ca96d"},"vehicle_type_id":"4","last_reported":1744125030,"current_range_meters":8400,"station_id":"ce4bhr12rcd13ifvqhpg","pricing_plan_id":"cebpf4jnsgd1na2vs0mg"},{"bike_id":"4e1a40db-d727-4e55-b907-1b57a8610604","system_id":"levelo_inurba_marseille","lat":43.28453,"lon":5.35894,"is_reserved":false,"is_disabled":false,"rental_uris":{"android":"levelo://app?vid=4e1a40db-d727-4e55-b907-1b57a8610604","ios":"levelo://app?vid=4e1a40db-d727-4e55-b907-1b57a8610604"},"vehicle_type_id":"4","last_reported":1744125030,"current_range_meters":8800,"station_id":"ce4bhah2rcd13ifvqei0","pricing_plan_id":"cebpf4jnsgd1na2vs0mg"},{"bike_id":"3576b946-70b3-456f-a60a-d98e227f015c","system_id":"levelo_inurba_marseille","lat":43.30107,"lon":5.38218,"is_reserved":false,"is_disabled":false,"rental_uris":{"android":"levelo://app?vid=3576b946-70b3-456f-a60a-d98e227f015c","ios":"levelo://app?vid=3576b946-70b3-456f-a60a-d98e227f015c"},"vehicle_type_id":"4","last_reported":1744125030,"current_range_meters":8800,"station_id":"ce4bgup2rcd13ifvqcn0","pricing_plan_id":"cebpf4jnsgd1na2vs0mg"},{"bike_id":"02f5f556-9aca-41a9-928c-e217b6392b4b","system_id":"levelo_inurba_marseille","lat":43.31827,"lon":5.43511,"is_reserved":false,"is_disabled":false,"rental_uris":{"android":"levelo://app?vid=02f5f556-9aca-41a9-928c-e217b6392b4b","ios":"levelo://app?vid=02f5f556-9aca-41a9-928c-e217b6392b4b"},"vehicle_type_id":"4","last_reported":1744125030,"current_range_meters":8800,"station_id":"","pricing_plan_id":"cebpf4jnsgd1na2vs0mg"},{"bike_id":"669a984a-58c6-4deb-9708-efad0cb92f56","system_id":"levelo_inurba_marseille","lat":43.287552,"lon":5.387076,"is_reserved":false,"is_disabled":false,"rental_uris":{"android":"levelo://app?vid=669a984a-58c6-4deb-9708-efad0cb92f56","ios":"levelo://app?vid=669a984a-58c6-4deb-9708-efad0cb92f56"},"vehicle_type_id":"4","last_reported":1744125030,"current_range_meters":8800,"station_id":"ce4bh492rcd13ifvqdug","pricing_plan_id":"cebpf4jnsgd1na2vs0mg"},{"bike_id":"eeff0145-0f49-49da-a32e-887831b39435","system_id":"levelo_inurba_marseille","lat":43.29032,"lon":5.38648,"is_reserved":false,"is_disabled":false,"rental_uris":{"android":"levelo://app?vid=eeff0145-0f49-49da-a32e-887831b39435","ios":"levelo://app?vid=eeff0145-0f49-49da-a32e-887831b39435"},"vehicle_type_id":"4","last_reported":1744125030,"current_range_meters":12000,"station_id":"ce4bh4p2rcd13ifvqe0g","pricing_plan_id":"cebpf4jnsgd1na2vs0mg"},{"bike_id":"0d79114e-0669-4ab7-b81f-ea01b8787d90","system_id":"levelo_inurba_marseille","lat":43.24387,"lon":5.37063,"is_reserved":false,"is_disabled":false,"rental_uris":{"android":"levelo://app?vid=0d79114e-0669-4ab7-b81f-ea01b8787d90","ios":"levelo://app?vid=0d79114e-0669-4ab7-b81f-ea01b8787d90"},"vehicle_type_id":"4","last_reported":1744125030,"current_range_meters":8800,"station_id":"ce4bhhh2rcd13ifvqfk0","pricing_plan_id":"cebpf4jnsgd1na2vs0mg"},{"bike_id":"f17ce36f-e80a-4732-89e2-7a7dfab19d87","system_id":"levelo_inurba_marseille","lat":43.29875,"lon":5.43696,"is_reserved":false,"is_disabled":false,"rental_uris":{"android":"levelo://app?vid=f17ce36f-e80a-4732-89e2-7a7dfab19d87","ios":"levelo://app?vid=f17ce36f-e80a-4732-89e2-7a7dfab19d87"},"vehicle_type_id":"4","last_reported":1744125030,"current_range_meters":9200,"station_id":"ce4bhpp2rcd13ifvqhfg","pricing_plan_id":"cebpf4jnsgd1na2vs0mg"},{"bike_id":"82f28cf6-556c-431d-a12b-bd3ce5fc2f28","system_id":"levelo_inurba_marseille","lat":43.27501,"lon":5.37762,"is_reserved":false,"is_disabled":false,"rental_uris":{"android":"levelo://app?vid=82f28cf6-556c-431d-a12b-bd3ce5fc2f28","ios":"levelo://app?vid=82f28cf6-556c-431d-a12b-bd3ce5fc2f28"},"vehicle_type_id":"4","last_reported":1744125030,"current_range_meters":9200,"station_id":"","pricing_plan_id":"cebpf4jnsgd1na2vs0mg"},{"bike_id":"c61e9056-3c51-4616-8d90-44cd8893db51","system_id":"levelo_inurba_marseille","lat":43.30135,"lon":5.38782,"is_reserved":false,"is_disabled":false,"rental_uris":{"android":"levelo://app?vid=c61e9056-3c51-4616-8d90-44cd8893db51","ios":"levelo://app?vid=c61e9056-3c51-4616-8d90-44cd8893db51"},"vehicle_type_id":"4","last_reported":1744125030,"current_range_meters":9200,"station_id":"ce4bghh2rcd13ifvqb60","pricing_plan_id":"cebpf4jnsgd1na2vs0mg"},{"bike_id":"91af7c49-4122-4f83-a08d-fc084211eb7b","system_id":"levelo_inurba_marseille","lat":43.31381,"lon":5.36721,"is_reserved":false,"is_disabled":false,"rental_uris":{"android":"levelo://app?vid=91af7c49-4122-4f83-a08d-fc084211eb7b","ios":"levelo://app?vid=91af7c49-4122-4f83-a08d-fc084211eb7b"},"vehicle_type_id":"4","last_reported":1744125030,"current_range_meters":9200,"station_id":"ce4bgr92rcd13ifvqc6g","pricing_plan_id":"cebpf4jnsgd1na2vs0mg"},{"bike_id":"0057f413-e319-43b9-b172-ad35f9c2e6aa","system_id":"levelo_inurba_marseille","lat":43.26218,"lon":5.3744,"is_reserved":false,"is_disabled":false,"rental_uris":{"android":"levelo://app?vid=0057f413-e319-43b9-b172-ad35f9c2e6aa","ios":"levelo://app?vid=0057f413-e319-43b9-b172-ad35f9c2e6aa"},"vehicle_type_id":"4","last_reported":1744125030,"current_range_meters":9200,"station_id":"ce4bhgp2rcd13ifvqfc0","pricing_plan_id":"cebpf4jnsgd1na2vs0mg"},{"bike_id":"70810d3e-9936-4863-b211-84f880613e88","system_id":"levelo_inurba_marseille","lat":43.31284,"lon":5.37327,"is_reserved":false,"is_disabled":false,"rental_uris":{"android":"levelo://app?vid=70810d3e-9936-4863-b211-84f880613e88","ios":"levelo://app?vid=70810d3e-9936-4863-b211-84f880613e88"},"vehicle_type_id":"4","last_reported":1744125030,"current_range_meters":9200,"station_id":"","pricing_plan_id":"cebpf4jnsgd1na2vs0mg"},{"bike_id":"ff34050c-4c4a-4bf2-b85c-24efa305d18d","system_id":"levelo_inurba_marseille","lat":43.32366,"lon":5.36731,"is_reserved":false,"is_disabled":false,"rental_uris":{"android":"levelo://app?vid=ff34050c-4c4a-4bf2-b85c-24efa305d18d","ios":"levelo://app?vid=ff34050c-4c4a-4bf2-b85c-24efa305d18d"},"vehicle_type_id":"4","last_reported":1744125030,"current_range_meters":9200,"station_id":"ce4bhsh2rcd13ifvqi2g","pricing_plan_id":"cebpf4jnsgd1na2vs0mg"},{"bike_id":"a7184a15-a462-4c1f-998d-abd1b0b3a033","system_id":"levelo_inurba_marseille","lat":43.23053,"lon":5.35495,"is_reserved":false,"is_disabled":false,"rental_uris":{"android":"levelo://app?vid=a7184a15-a462-4c1f-998d-abd1b0b3a033","ios":"levelo://app?vid=a7184a15-a462-4c1f-998d-abd1b0b3a033"},"vehicle_type_id":"4","last_reported":1744125030,"current_range_meters":9200,"station_id":"cpo3342slgdg3j2ifvpg","pricing_plan_id":"cebpf4jnsgd1na2vs0mg"},{"bike_id":"e211479e-508a-4c8c-b24f-bacb52e17937","system_id":"levelo_inurba_marseille","lat":43.23193,"lon":5.35557,"is_reserved":false,"is_disabled":false,"rental_uris":{"android":"levelo://app?vid=e211479e-508a-4c8c-b24f-bacb52e17937","ios":"levelo://app?vid=e211479e-508a-4c8c-b24f-bacb52e17937"},"vehicle_type_id":"4","last_reported":1744125030,"current_range_meters":9200,"station_id":"ce4bhu92rcd13ifvqi70","pricing_plan_id":"cebpf4jnsgd1na2vs0mg"},{"bike_id":"c57c451f-2113-4f8f-8962-6b5082c0541f","system_id":"levelo_inurba_marseille","lat":43.28415,"lon":5.34991,"is_reserved":false,"is_disabled":false,"rental_uris":{"android":"levelo://app?vid=c57c451f-2113-4f8f-8962-6b5082c0541f","ios":"levelo://app?vid=c57c451f-2113-4f8f-8962-6b5082c0541f"},"vehicle_type_id":"4","last_reported":1744125030,"current_range_meters":9200,"station_id":"ce4bhbh2rcd13ifvqepg","pricing_plan_id":"cebpf4jnsgd1na2vs0mg"},{"bike_id":"2b065782-5db8-4a66-a8e3-7e922f4bccfb","system_id":"levelo_inurba_marseille","lat":43.304688,"lon":5.379129,"is_reserved":false,"is_disabled":false,"rental_uris":{"android":"levelo://app?vid=2b065782-5db8-4a66-a8e3-7e922f4bccfb","ios":"levelo://app?vid=2b065782-5db8-4a66-a8e3-7e922f4bccfb"},"vehicle_type_id":"4","last_reported":1744125030,"current_range_meters":9200,"station_id":"ce4bgup2rcd13ifvqcn0","pricing_plan_id":"cebpf4jnsgd1na2vs0mg"},{"bike_id":"dff0c398-5457-4c82-99b9-071db8607d47","system_id":"levelo_inurba_marseille","lat":43.25686,"lon":5.41934,"is_reserved":false,"is_disabled":false,"rental_uris":{"android":"levelo://app?vid=dff0c398-5457-4c82-99b9-071db8607d47","ios":"levelo://app?vid=dff0c398-5457-4c82-99b9-071db8607d47"},"vehicle_type_id":"4","last_reported":1744125030,"current_range_meters":9600,"station_id":"","pricing_plan_id":"cebpf4jnsgd1na2vs0mg"},{"bike_id":"88909947-dd33-4c66-a6d4-0816e3f69146","system_id":"levelo_inurba_marseille","lat":43.28424,"lon":5.34991,"is_reserved":false,"is_disabled":false,"rental_uris":{"android":"levelo://app?vid=88909947-dd33-4c66-a6d4-0816e3f69146","ios":"levelo://app?vid=88909947-dd33-4c66-a6d4-0816e3f69146"},"vehicle_type_id":"4","last_reported":1744125030,"current_range_meters":9600,"station_id":"ce4bhbh2rcd13ifvqepg","pricing_plan_id":"cebpf4jnsgd1na2vs0mg"},{"bike_id":"ed99067f-b25e-4803-81a9-25852f568c79","system_id":"levelo_inurba_marseille","lat":43.28413,"lon":5.34991,"is_reserved":false,"is_disabled":false,"rental_uris":{"android":"levelo://app?vid=ed99067f-b25e-4803-81a9-25852f568c79","ios":"levelo://app?vid=ed99067f-b25e-4803-81a9-25852f568c79"},"vehicle_type_id":"4","last_reported":1744125030,"current_range_meters":9600,"station_id":"ce4bhbh2rcd13ifvqepg","pricing_plan_id":"cebpf4jnsgd1na2vs0mg"},{"bike_id":"9a40efa3-7426-433a-81fc-7c27ab3c7932","system_id":"levelo_inurba_marseille","lat":43.2319,"lon":5.35549,"is_reserved":false,"is_disabled":false,"rental_uris":{"android":"levelo://app?vid=9a40efa3-7426-433a-81fc-7c27ab3c7932","ios":"levelo://app?vid=9a40efa3-7426-433a-81fc-7c27ab3c7932"},"vehicle_type_id":"4","last_reported":1744125030,"current_range_meters":9600,"station_id":"ce4bhu92rcd13ifvqi70","pricing_plan_id":"cebpf4jnsgd1na2vs0mg"},{"bike_id":"3f3b9480-7ec0-4ac7-8a9b-e0ac0ad3b0dd","system_id":"levelo_inurba_marseille","lat":43.28264,"lon":5.35067,"is_reserved":false,"is_disabled":false,"rental_uris":{"android":"levelo://app?vid=3f3b9480-7ec0-4ac7-8a9b-e0ac0ad3b0dd","ios":"levelo://app?vid=3f3b9480-7ec0-4ac7-8a9b-e0ac0ad3b0dd"},"vehicle_type_id":"4","last_reported":1744125030,"current_range_meters":9600,"station_id":"ce4bhbp2rcd13ifvqerg","pricing_plan_id":"cebpf4jnsgd1na2vs0mg"},{"bike_id":"385c6352-e3ba-4dce-9c4a-e59a544e6998","system_id":"levelo_inurba_marseille","lat":43.28611,"lon":5.35104,"is_reserved":false,"is_disabled":false,"rental_uris":{"android":"levelo://app?vid=385c6352-e3ba-4dce-9c4a-e59a544e6998","ios":"levelo://app?vid=385c6352-e3ba-4dce-9c4a-e59a544e6998"},"vehicle_type_id":"4","last_reported":1744125030,"current_range_meters":9600,"station_id":"ce4bhch2rcd13ifvqeug","pricing_plan_id":"cebpf4jnsgd1na2vs0mg"},{"bike_id":"c69c88ed-5ffa-4990-a2e1-b69286124fee","system_id":"levelo_inurba_marseille","lat":43.25492,"lon":5.37654,"is_reserved":false,"is_disabled":false,"rental_uris":{"android":"levelo://app?vid=c69c88ed-5ffa-4990-a2e1-b69286124fee","ios":"levelo://app?vid=c69c88ed-5ffa-4990-a2e1-b69286124fee"},"vehicle_type_id":"4","last_reported":1744125030,"current_range_meters":9600,"station_id":"ce4bhh12rcd13ifvqff0","pricing_plan_id":"cebpf4jnsgd1na2vs0mg"},{"bike_id":"29136b6f-e4cc-4db5-9179-9813aa9a5e78","system_id":"levelo_inurba_marseille","lat":43.30398,"lon":5.4129,"is_reserved":false,"is_disabled":false,"rental_uris":{"android":"levelo://app?vid=29136b6f-e4cc-4db5-9179-9813aa9a5e78","ios":"levelo://app?vid=29136b6f-e4cc-4db5-9179-9813aa9a5e78"},"vehicle_type_id":"4","last_reported":1744125030,"current_range_meters":9600,"station_id":"ce4bhop2rcd13ifvqh8g","pricing_plan_id":"cebpf4jnsgd1na2vs0mg"},{"bike_id":"42a2a0dd-e073-46d3-a004-33e2e45e3038","system_id":"levelo_inurba_marseille","lat":43.34143,"lon":5.40926,"is_reserved":false,"is_disabled":false,"rental_uris":{"android":"levelo://app?vid=42a2a0dd-e073-46d3-a004-33e2e45e3038","ios":"levelo://app?vid=42a2a0dd-e073-46d3-a004-33e2e45e3038"},"vehicle_type_id":"4","last_reported":1744125030,"current_range_meters":10000,"station_id":"ce4bhqh2rcd13ifvqhlg","pricing_plan_id":"cebpf4jnsgd1na2vs0mg"},{"bike_id":"37b2591d-7265-4820-a87b-554301495f71","system_id":"levelo_inurba_marseille","lat":43.2894,"lon":5.36626,"is_reserved":false,"is_disabled":true,"rental_uris":{"android":"levelo://app?vid=37b2591d-7265-4820-a87b-554301495f71","ios":"levelo://app?vid=37b2591d-7265-4820-a87b-554301495f71"},"vehicle_type_id":"4","last_reported":1744125030,"current_range_meters":10000,"station_id":"ce4bhap2rcd13ifvqek0","pricing_plan_id":"cebpf4jnsgd1na2vs0mg"},{"bike_id":"949509d7-2150-4bd6-b0fa-fd0f69f12e62","system_id":"levelo_inurba_marseille","lat":43.26156,"lon":5.37453,"is_reserved":false,"is_disabled":false,"rental_uris":{"android":"levelo://app?vid=949509d7-2150-4bd6-b0fa-fd0f69f12e62","ios":"levelo://app?vid=949509d7-2150-4bd6-b0fa-fd0f69f12e62"},"vehicle_type_id":"4","last_reported":1744125030,"current_range_meters":10000,"station_id":"ce4bhgp2rcd13ifvqfc0","pricing_plan_id":"cebpf4jnsgd1na2vs0mg"},{"bike_id":"f2f8031e-8acf-441f-a6b8-4b845409031c","system_id":"levelo_inurba_marseille","lat":43.27404,"lon":5.36213,"is_reserved":false,"is_disabled":false,"rental_uris":{"android":"levelo://app?vid=f2f8031e-8acf-441f-a6b8-4b845409031c","ios":"levelo://app?vid=f2f8031e-8acf-441f-a6b8-4b845409031c"},"vehicle_type_id":"4","last_reported":1744125030,"current_range_meters":10000,"station_id":"","pricing_plan_id":"cebpf4jnsgd1na2vs0mg"},{"bike_id":"c7f8a85d-74e3-4fe9-9316-eeff84761c00","system_id":"levelo_inurba_marseille","lat":43.27311,"lon":5.39078,"is_reserved":false,"is_disabled":false,"rental_uris":{"android":"levelo://app?vid=c7f8a85d-74e3-4fe9-9316-eeff84761c00","ios":"levelo://app?vid=c7f8a85d-74e3-4fe9-9316-eeff84761c00"},"vehicle_type_id":"4","last_reported":1744125030,"current_range_meters":10000,"station_id":"ce4bhgp2rcd13ifvqfe0","pricing_plan_id":"cebpf4jnsgd1na2vs0mg"},{"bike_id":"1c16ce55-fc77-44db-8b14-5e0e03e28ace","system_id":"levelo_inurba_marseille","lat":43.28424,"lon":5.34985,"is_reserved":false,"is_disabled":false,"rental_uris":{"android":"levelo://app?vid=1c16ce55-fc77-44db-8b14-5e0e03e28ace","ios":"levelo://app?vid=1c16ce55-fc77-44db-8b14-5e0e03e28ace"},"vehicle_type_id":"4","last_reported":1744125030,"current_range_meters":10000,"station_id":"ce4bhbh2rcd13ifvqepg","pricing_plan_id":"cebpf4jnsgd1na2vs0mg"},{"bike_id":"b5c1688b-f2bc-4162-9231-d15fd8892d9c","system_id":"levelo_inurba_marseille","lat":43.29772,"lon":5.38112,"is_reserved":false,"is_disabled":false,"rental_uris":{"android":"levelo://app?vid=b5c1688b-f2bc-4162-9231-d15fd8892d9c","ios":"levelo://app?vid=b5c1688b-f2bc-4162-9231-d15fd8892d9c"},"vehicle_type_id":"4","last_reported":1744125030,"current_range_meters":10000,"station_id":"ce4bgip2rcd13ifvqbb0","pricing_plan_id":"cebpf4jnsgd1na2vs0mg"},{"bike_id":"8e3c3689-a4ef-454e-9c42-4c376658f31c","system_id":"levelo_inurba_marseille","lat":43.28448,"lon":5.35893,"is_reserved":false,"is_disabled":false,"rental_uris":{"android":"levelo://app?vid=8e3c3689-a4ef-454e-9c42-4c376658f31c","ios":"levelo://app?vid=8e3c3689-a4ef-454e-9c42-4c376658f31c"},"vehicle_type_id":"4","last_reported":1744125030,"current_range_meters":10800,"station_id":"ce4bhah2rcd13ifvqei0","pricing_plan_id":"cebpf4jnsgd1na2vs0mg"},{"bike_id":"31134649-31b9-42bc-b51e-ef06ed5b347a","system_id":"levelo_inurba_marseille","lat":43.28615,"lon":5.351,"is_reserved":false,"is_disabled":false,"rental_uris":{"android":"levelo://app?vid=31134649-31b9-42bc-b51e-ef06ed5b347a","ios":"levelo://app?vid=31134649-31b9-42bc-b51e-ef06ed5b347a"},"vehicle_type_id":"4","last_reported":1744125030,"current_range_meters":10800,"station_id":"ce4bhch2rcd13ifvqeug","pricing_plan_id":"cebpf4jnsgd1na2vs0mg"},{"bike_id":"a6093dbc-a7c6-404f-906d-e5410b791e91","system_id":"levelo_inurba_marseille","lat":43.27378,"lon":5.36249,"is_reserved":false,"is_disabled":false,"rental_uris":{"android":"levelo://app?vid=a6093dbc-a7c6-404f-906d-e5410b791e91","ios":"levelo://app?vid=a6093dbc-a7c6-404f-906d-e5410b791e91"},"vehicle_type_id":"4","last_reported":1744125030,"current_range_meters":10800,"station_id":"ce4bhbh2rcd13ifvqeo0","pricing_plan_id":"cebpf4jnsgd1na2vs0mg"},{"bike_id":"0aa02c49-cbb3-4907-a588-f754056f3ba8","system_id":"levelo_inurba_marseille","lat":43.30823,"lon":5.38148,"is_reserved":false,"is_disabled":true,"rental_uris":{"android":"levelo://app?vid=0aa02c49-cbb3-4907-a588-f754056f3ba8","ios":"levelo://app?vid=0aa02c49-cbb3-4907-a588-f754056f3ba8"},"vehicle_type_id":"4","last_reported":1744125030,"current_range_meters":10800,"station_id":"ce4bgt12rcd13ifvqce0","pricing_plan_id":"cebpf4jnsgd1na2vs0mg"},{"bike_id":"bb6823c5-8eac-4384-a4fc-1e4ac31ff201","system_id":"levelo_inurba_marseille","lat":43.29539,"lon":5.38549,"is_reserved":false,"is_disabled":false,"rental_uris":{"android":"levelo://app?vid=bb6823c5-8eac-4384-a4fc-1e4ac31ff201","ios":"levelo://app?vid=bb6823c5-8eac-4384-a4fc-1e4ac31ff201"},"vehicle_type_id":"4","last_reported":1744125030,"current_range_meters":9600,"station_id":"ce4bgih2rcd13ifvqba0","pricing_plan_id":"cebpf4jnsgd1na2vs0mg"},{"bike_id":"14031425-56fe-4d59-8635-56f17d050a85","system_id":"levelo_inurba_marseille","lat":43.21757,"lon":5.34601,"is_reserved":false,"is_disabled":false,"rental_uris":{"android":"levelo://app?vid=14031425-56fe-4d59-8635-56f17d050a85","ios":"levelo://app?vid=14031425-56fe-4d59-8635-56f17d050a85"},"vehicle_type_id":"4","last_reported":1744125030,"current_range_meters":10800,"station_id":"st_cvj6r9ubvosntc0bgbag","pricing_plan_id":"cebpf4jnsgd1na2vs0mg"},{"bike_id":"68d1cc33-0218-451e-8e10-d32225c21263","system_id":"levelo_inurba_marseille","lat":43.23138,"lon":5.43696,"is_reserved":false,"is_disabled":true,"rental_uris":{"android":"levelo://app?vid=68d1cc33-0218-451e-8e10-d32225c21263","ios":"levelo://app?vid=68d1cc33-0218-451e-8e10-d32225c21263"},"vehicle_type_id":"4","last_reported":1744125030,"current_range_meters":10800,"station_id":"ce4bhmp2rcd13ifvqgog","pricing_plan_id":"cebpf4jnsgd1na2vs0mg"},{"bike_id":"462484fb-7399-4810-a9af-37dc48881c50","system_id":"levelo_inurba_marseille","lat":43.25497,"lon":5.37666,"is_reserved":false,"is_disabled":false,"rental_uris":{"android":"levelo://app?vid=462484fb-7399-4810-a9af-37dc48881c50","ios":"levelo://app?vid=462484fb-7399-4810-a9af-37dc48881c50"},"vehicle_type_id":"4","last_reported":1744125030,"current_range_meters":11200,"station_id":"ce4bhh12rcd13ifvqff0","pricing_plan_id":"cebpf4jnsgd1na2vs0mg"},{"bike_id":"ee22328b-554a-4b1a-b84c-e86b9e5143a2","system_id":"levelo_inurba_marseille","lat":43.27373,"lon":5.36257,"is_reserved":false,"is_disabled":false,"rental_uris":{"android":"levelo://app?vid=ee22328b-554a-4b1a-b84c-e86b9e5143a2","ios":"levelo://app?vid=ee22328b-554a-4b1a-b84c-e86b9e5143a2"},"vehicle_type_id":"4","last_reported":1744125030,"current_range_meters":11200,"station_id":"ce4bhbh2rcd13ifvqeo0","pricing_plan_id":"cebpf4jnsgd1na2vs0mg"},{"bike_id":"a634f9ef-d8a6-4cdb-a20b-d6a1f8539f3e","system_id":"levelo_inurba_marseille","lat":43.30661,"lon":5.400692,"is_reserved":false,"is_disabled":false,"rental_uris":{"android":"levelo://app?vid=a634f9ef-d8a6-4cdb-a20b-d6a1f8539f3e","ios":"levelo://app?vid=a634f9ef-d8a6-4cdb-a20b-d6a1f8539f3e"},"vehicle_type_id":"4","last_reported":1744125030,"current_range_meters":10000,"station_id":"ce4bh112rcd13ifvqda0","pricing_plan_id":"cebpf4jnsgd1na2vs0mg"},{"bike_id":"196aab48-85b0-499e-8220-62200322436d","system_id":"levelo_inurba_marseille","lat":43.23183,"lon":5.35553,"is_reserved":false,"is_disabled":false,"rental_uris":{"android":"levelo://app?vid=196aab48-85b0-499e-8220-62200322436d","ios":"levelo://app?vid=196aab48-85b0-499e-8220-62200322436d"},"vehicle_type_id":"4","last_reported":1744125030,"current_range_meters":11200,"station_id":"ce4bhu92rcd13ifvqi70","pricing_plan_id":"cebpf4jnsgd1na2vs0mg"},{"bike_id":"4091cab6-7327-409e-92fa-5f4d857ffc78","system_id":"levelo_inurba_marseille","lat":43.28103,"lon":5.37831,"is_reserved":false,"is_disabled":false,"rental_uris":{"android":"levelo://app?vid=4091cab6-7327-409e-92fa-5f4d857ffc78","ios":"levelo://app?vid=4091cab6-7327-409e-92fa-5f4d857ffc78"},"vehicle_type_id":"4","last_reported":1744125030,"current_range_meters":11200,"station_id":"ce4bha12rcd13ifvqee0","pricing_plan_id":"cebpf4jnsgd1na2vs0mg"},{"bike_id":"ba72e991-420a-41be-b140-8a3add9461aa","system_id":"levelo_inurba_marseille","lat":43.26805,"lon":5.40273,"is_reserved":false,"is_disabled":false,"rental_uris":{"android":"levelo://app?vid=ba72e991-420a-41be-b140-8a3add9461aa","ios":"levelo://app?vid=ba72e991-420a-41be-b140-8a3add9461aa"},"vehicle_type_id":"4","last_reported":1744125030,"current_range_meters":11200,"station_id":"ce501612rcd8frsf0b60","pricing_plan_id":"cebpf4jnsgd1na2vs0mg"},{"bike_id":"4af48280-972e-4331-a42c-8ad0c9df46e1","system_id":"levelo_inurba_marseille","lat":43.27376,"lon":5.36245,"is_reserved":false,"is_disabled":false,"rental_uris":{"android":"levelo://app?vid=4af48280-972e-4331-a42c-8ad0c9df46e1","ios":"levelo://app?vid=4af48280-972e-4331-a42c-8ad0c9df46e1"},"vehicle_type_id":"4","last_reported":1744125030,"current_range_meters":11200,"station_id":"ce4bhbh2rcd13ifvqeo0","pricing_plan_id":"cebpf4jnsgd1na2vs0mg"},{"bike_id":"576ee2c5-9f7d-4bf7-875c-d4692697039a","system_id":"levelo_inurba_marseille","lat":43.28924,"lon":5.38393,"is_reserved":false,"is_disabled":false,"rental_uris":{"android":"levelo://app?vid=576ee2c5-9f7d-4bf7-875c-d4692697039a","ios":"levelo://app?vid=576ee2c5-9f7d-4bf7-875c-d4692697039a"},"vehicle_type_id":"4","last_reported":1744125030,"current_range_meters":11200,"station_id":"ce4bh612rcd13ifvqe6g","pricing_plan_id":"cebpf4jnsgd1na2vs0mg"},{"bike_id":"93e3fd92-d65f-4f36-ba40-a3e5476ebc87","system_id":"levelo_inurba_marseille","lat":43.30669,"lon":5.36595,"is_reserved":false,"is_disabled":false,"rental_uris":{"android":"levelo://app?vid=93e3fd92-d65f-4f36-ba40-a3e5476ebc87","ios":"levelo://app?vid=93e3fd92-d65f-4f36-ba40-a3e5476ebc87"},"vehicle_type_id":"4","last_reported":1744125030,"current_range_meters":11600,"station_id":"","pricing_plan_id":"cebpf4jnsgd1na2vs0mg"},{"bike_id":"5fb74e8f-2691-4661-8cdf-9dc302fd5c1d","system_id":"levelo_inurba_marseille","lat":43.303,"lon":5.39204,"is_reserved":false,"is_disabled":false,"rental_uris":{"android":"levelo://app?vid=5fb74e8f-2691-4661-8cdf-9dc302fd5c1d","ios":"levelo://app?vid=5fb74e8f-2691-4661-8cdf-9dc302fd5c1d"},"vehicle_type_id":"4","last_reported":1744125030,"current_range_meters":11600,"station_id":"ce4bgkh2rcd13ifvqbk0","pricing_plan_id":"cebpf4jnsgd1na2vs0mg"},{"bike_id":"68592c35-cb06-4590-a194-9aeea62db763","system_id":"levelo_inurba_marseille","lat":43.26058,"lon":5.39395,"is_reserved":false,"is_disabled":false,"rental_uris":{"android":"levelo://app?vid=68592c35-cb06-4590-a194-9aeea62db763","ios":"levelo://app?vid=68592c35-cb06-4590-a194-9aeea62db763"},"vehicle_type_id":"4","last_reported":1744125030,"current_range_meters":11600,"station_id":"ce4bhh92rcd13ifvqfj0","pricing_plan_id":"cebpf4jnsgd1na2vs0mg"},{"bike_id":"5b808185-0a5a-48a8-8a34-81f7ce536aa8","system_id":"levelo_inurba_marseille","lat":43.28424,"lon":5.34999,"is_reserved":false,"is_disabled":false,"rental_uris":{"android":"levelo://app?vid=5b808185-0a5a-48a8-8a34-81f7ce536aa8","ios":"levelo://app?vid=5b808185-0a5a-48a8-8a34-81f7ce536aa8"},"vehicle_type_id":"4","last_reported":1744125030,"current_range_meters":11600,"station_id":"ce4bhbh2rcd13ifvqepg","pricing_plan_id":"cebpf4jnsgd1na2vs0mg"},{"bike_id":"08f9c0c8-8b33-4578-8a03-20f44d582241","system_id":"levelo_inurba_marseille","lat":43.30618,"lon":5.37186,"is_reserved":false,"is_disabled":false,"rental_uris":{"android":"levelo://app?vid=08f9c0c8-8b33-4578-8a03-20f44d582241","ios":"levelo://app?vid=08f9c0c8-8b33-4578-8a03-20f44d582241"},"vehicle_type_id":"4","last_reported":1744125030,"current_range_meters":11600,"station_id":"ce4bgqh2rcd13ifvqc4g","pricing_plan_id":"cebpf4jnsgd1na2vs0mg"},{"bike_id":"1ca7d0c4-b7aa-4350-ad9f-4e24c2ba029a","system_id":"levelo_inurba_marseille","lat":43.30376,"lon":5.42486,"is_reserved":false,"is_disabled":true,"rental_uris":{"android":"levelo://app?vid=1ca7d0c4-b7aa-4350-ad9f-4e24c2ba029a","ios":"levelo://app?vid=1ca7d0c4-b7aa-4350-ad9f-4e24c2ba029a"},"vehicle_type_id":"4","last_reported":1744125030,"current_range_meters":12000,"station_id":"ce4bhoh2rcd13ifvqh6g","pricing_plan_id":"cebpf4jnsgd1na2vs0mg"},{"bike_id":"a4289c3d-27f3-4c3f-829e-0d00a0c64123","system_id":"levelo_inurba_marseille","lat":43.2396,"lon":5.36642,"is_reserved":false,"is_disabled":false,"rental_uris":{"android":"levelo://app?vid=a4289c3d-27f3-4c3f-829e-0d00a0c64123","ios":"levelo://app?vid=a4289c3d-27f3-4c3f-829e-0d00a0c64123"},"vehicle_type_id":"4","last_reported":1744125030,"current_range_meters":12000,"station_id":"ce4bhi12rcd13ifvqfp0","pricing_plan_id":"cebpf4jnsgd1na2vs0mg"},{"bike_id":"8c783b34-3f8f-4d8a-8fd8-eadc57f5da27","system_id":"levelo_inurba_marseille","lat":43.28917,"lon":5.38391,"is_reserved":false,"is_disabled":false,"rental_uris":{"android":"levelo://app?vid=8c783b34-3f8f-4d8a-8fd8-eadc57f5da27","ios":"levelo://app?vid=8c783b34-3f8f-4d8a-8fd8-eadc57f5da27"},"vehicle_type_id":"4","last_reported":1744125030,"current_range_meters":11600,"station_id":"ce4bh612rcd13ifvqe6g","pricing_plan_id":"cebpf4jnsgd1na2vs0mg"},{"bike_id":"c1a72a4c-76c3-47f5-93fa-ed6cb8a8fd66","system_id":"levelo_inurba_marseille","lat":43.29192,"lon":5.358,"is_reserved":false,"is_disabled":false,"rental_uris":{"android":"levelo://app?vid=c1a72a4c-76c3-47f5-93fa-ed6cb8a8fd66","ios":"levelo://app?vid=c1a72a4c-76c3-47f5-93fa-ed6cb8a8fd66"},"vehicle_type_id":"4","last_reported":1744125030,"current_range_meters":12000,"station_id":"ce4bhb12rcd13ifvqel0","pricing_plan_id":"cebpf4jnsgd1na2vs0mg"},{"bike_id":"a28500db-1ca5-4df1-abd2-90d67bbc3521","system_id":"levelo_inurba_marseille","lat":43.3021,"lon":5.39467,"is_reserved":false,"is_disabled":false,"rental_uris":{"android":"levelo://app?vid=a28500db-1ca5-4df1-abd2-90d67bbc3521","ios":"levelo://app?vid=a28500db-1ca5-4df1-abd2-90d67bbc3521"},"vehicle_type_id":"4","last_reported":1744125030,"current_range_meters":12000,"station_id":"ce4bh0p2rcd13ifvqd70","pricing_plan_id":"cebpf4jnsgd1na2vs0mg"},{"bike_id":"ef76bcb4-485e-4e0f-bf28-4b16cd0b94f5","system_id":"levelo_inurba_marseille","lat":43.2583,"lon":5.39438,"is_reserved":false,"is_disabled":false,"rental_uris":{"android":"levelo://app?vid=ef76bcb4-485e-4e0f-bf28-4b16cd0b94f5","ios":"levelo://app?vid=ef76bcb4-485e-4e0f-bf28-4b16cd0b94f5"},"vehicle_type_id":"4","last_reported":1744125030,"current_range_meters":11600,"station_id":"ce4bhip2rcd13ifvqft0","pricing_plan_id":"cebpf4jnsgd1na2vs0mg"},{"bike_id":"99262713-2b03-4ce5-9b13-b96360231bd6","system_id":"levelo_inurba_marseille","lat":43.29106,"lon":5.38117,"is_reserved":false,"is_disabled":false,"rental_uris":{"android":"levelo://app?vid=99262713-2b03-4ce5-9b13-b96360231bd6","ios":"levelo://app?vid=99262713-2b03-4ce5-9b13-b96360231bd6"},"vehicle_type_id":"4","last_reported":1744125030,"current_range_meters":11600,"station_id":"ce4bh512rcd13ifvqe2g","pricing_plan_id":"cebpf4jnsgd1na2vs0mg"},{"bike_id":"35039778-76d3-412e-b4c0-3a03e0528f57","system_id":"levelo_inurba_marseille","lat":43.29505,"lon":5.39389,"is_reserved":false,"is_disabled":false,"rental_uris":{"android":"levelo://app?vid=35039778-76d3-412e-b4c0-3a03e0528f57","ios":"levelo://app?vid=35039778-76d3-412e-b4c0-3a03e0528f57"},"vehicle_type_id":"4","last_reported":1744125030,"current_range_meters":12000,"station_id":"ce4bh292rcd13ifvqdf0","pricing_plan_id":"cebpf4jnsgd1na2vs0mg"},{"bike_id":"89f27e36-1e90-4073-b220-f996423451c5","system_id":"levelo_inurba_marseille","lat":43.30302,"lon":5.39209,"is_reserved":false,"is_disabled":false,"rental_uris":{"android":"levelo://app?vid=89f27e36-1e90-4073-b220-f996423451c5","ios":"levelo://app?vid=89f27e36-1e90-4073-b220-f996423451c5"},"vehicle_type_id":"4","last_reported":1744125030,"current_range_meters":12400,"station_id":"ce4bgkh2rcd13ifvqbk0","pricing_plan_id":"cebpf4jnsgd1na2vs0mg"},{"bike_id":"b344f492-a10e-443a-a2fd-bda399fd56e4","system_id":"levelo_inurba_marseille","lat":43.28148,"lon":5.42643,"is_reserved":false,"is_disabled":false,"rental_uris":{"android":"levelo://app?vid=b344f492-a10e-443a-a2fd-bda399fd56e4","ios":"levelo://app?vid=b344f492-a10e-443a-a2fd-bda399fd56e4"},"vehicle_type_id":"4","last_reported":1744125030,"current_range_meters":12400,"station_id":"ce4bhnh2rcd13ifvqgug","pricing_plan_id":"cebpf4jnsgd1na2vs0mg"},{"bike_id":"9413013a-30eb-4f01-b9e2-6c45594d3872","system_id":"levelo_inurba_marseille","lat":43.25585,"lon":5.38231,"is_reserved":false,"is_disabled":false,"rental_uris":{"android":"levelo://app?vid=9413013a-30eb-4f01-b9e2-6c45594d3872","ios":"levelo://app?vid=9413013a-30eb-4f01-b9e2-6c45594d3872"},"vehicle_type_id":"4","last_reported":1744125030,"current_range_meters":12400,"station_id":"ce4bhih2rcd13ifvqfs0","pricing_plan_id":"cebpf4jnsgd1na2vs0mg"},{"bike_id":"b397701f-0d3d-44bf-ab3e-3ccc7e74fb2e","system_id":"levelo_inurba_marseille","lat":43.264337,"lon":5.422797,"is_reserved":false,"is_disabled":false,"rental_uris":{"android":"levelo://app?vid=b397701f-0d3d-44bf-ab3e-3ccc7e74fb2e","ios":"levelo://app?vid=b397701f-0d3d-44bf-ab3e-3ccc7e74fb2e"},"vehicle_type_id":"4","last_reported":1744125030,"current_range_meters":12400,"station_id":"","pricing_plan_id":"cebpf4jnsgd1na2vs0mg"},{"bike_id":"56ee759a-b574-4911-9e6e-32e32e9ade9a","system_id":"levelo_inurba_marseille","lat":43.28622,"lon":5.35111,"is_reserved":false,"is_disabled":false,"rental_uris":{"android":"levelo://app?vid=56ee759a-b574-4911-9e6e-32e32e9ade9a","ios":"levelo://app?vid=56ee759a-b574-4911-9e6e-32e32e9ade9a"},"vehicle_type_id":"4","last_reported":1744125030,"current_range_meters":12800,"station_id":"ce4bhch2rcd13ifvqeug","pricing_plan_id":"cebpf4jnsgd1na2vs0mg"},{"bike_id":"fcba2fad-8717-4251-93ef-1b115b919533","system_id":"levelo_inurba_marseille","lat":43.27386,"lon":5.36257,"is_reserved":false,"is_disabled":false,"rental_uris":{"android":"levelo://app?vid=fcba2fad-8717-4251-93ef-1b115b919533","ios":"levelo://app?vid=fcba2fad-8717-4251-93ef-1b115b919533"},"vehicle_type_id":"4","last_reported":1744125030,"current_range_meters":12800,"station_id":"ce4bhbh2rcd13ifvqeo0","pricing_plan_id":"cebpf4jnsgd1na2vs0mg"},{"bike_id":"e2d6eeb8-169b-4304-9ec9-1b440e12a81e","system_id":"levelo_inurba_marseille","lat":43.28419,"lon":5.34989,"is_reserved":false,"is_disabled":false,"rental_uris":{"android":"levelo://app?vid=e2d6eeb8-169b-4304-9ec9-1b440e12a81e","ios":"levelo://app?vid=e2d6eeb8-169b-4304-9ec9-1b440e12a81e"},"vehicle_type_id":"4","last_reported":1744125030,"current_range_meters":13600,"station_id":"ce4bhbh2rcd13ifvqepg","pricing_plan_id":"cebpf4jnsgd1na2vs0mg"},{"bike_id":"a7d57033-a862-4579-b40b-58dfa576f05e","system_id":"levelo_inurba_marseille","lat":43.27212,"lon":5.3918,"is_reserved":false,"is_disabled":false,"rental_uris":{"android":"levelo://app?vid=a7d57033-a862-4579-b40b-58dfa576f05e","ios":"levelo://app?vid=a7d57033-a862-4579-b40b-58dfa576f05e"},"vehicle_type_id":"4","last_reported":1744125030,"current_range_meters":17200,"station_id":"ce4bhhp2rcd13ifvqfm0","pricing_plan_id":"cebpf4jnsgd1na2vs0mg"},{"bike_id":"a2166692-c995-48af-87a3-77369f826782","system_id":"levelo_inurba_marseille","lat":43.29584,"lon":5.36741,"is_reserved":false,"is_disabled":false,"rental_uris":{"android":"levelo://app?vid=a2166692-c995-48af-87a3-77369f826782","ios":"levelo://app?vid=a2166692-c995-48af-87a3-77369f826782"},"vehicle_type_id":"4","last_reported":1744125030,"current_range_meters":13600,"station_id":"ce4bgph2rcd13ifvqc2g","pricing_plan_id":"cebpf4jnsgd1na2vs0mg"},{"bike_id":"e369bf82-6cc6-437c-90e2-7dde304cbc2f","system_id":"levelo_inurba_marseille","lat":43.24181,"lon":5.36422,"is_reserved":false,"is_disabled":false,"rental_uris":{"android":"levelo://app?vid=e369bf82-6cc6-437c-90e2-7dde304cbc2f","ios":"levelo://app?vid=e369bf82-6cc6-437c-90e2-7dde304cbc2f"},"vehicle_type_id":"4","last_reported":1744125030,"current_range_meters":13600,"station_id":"cpo36qri1sfpv3e86is0","pricing_plan_id":"cebpf4jnsgd1na2vs0mg"},{"bike_id":"baf856f5-96bb-497d-b90c-811d64539e46","system_id":"levelo_inurba_marseille","lat":43.30445,"lon":5.36514,"is_reserved":false,"is_disabled":false,"rental_uris":{"android":"levelo://app?vid=baf856f5-96bb-497d-b90c-811d64539e46","ios":"levelo://app?vid=baf856f5-96bb-497d-b90c-811d64539e46"},"vehicle_type_id":"4","last_reported":1744125030,"current_range_meters":14000,"station_id":"ce4bgs12rcd13ifvqcag","pricing_plan_id":"cebpf4jnsgd1na2vs0mg"},{"bike_id":"8c33120b-fb8a-43fc-b964-011265f7c0c0","system_id":"levelo_inurba_marseille","lat":43.28613,"lon":5.35097,"is_reserved":false,"is_disabled":false,"rental_uris":{"android":"levelo://app?vid=8c33120b-fb8a-43fc-b964-011265f7c0c0","ios":"levelo://app?vid=8c33120b-fb8a-43fc-b964-011265f7c0c0"},"vehicle_type_id":"4","last_reported":1744125030,"current_range_meters":14000,"station_id":"ce4bhch2rcd13ifvqeug","pricing_plan_id":"cebpf4jnsgd1na2vs0mg"},{"bike_id":"0840e584-1ba7-42e1-b58e-cf4ed4cd2a94","system_id":"levelo_inurba_marseille","lat":43.30308,"lon":5.39206,"is_reserved":false,"is_disabled":false,"rental_uris":{"android":"levelo://app?vid=0840e584-1ba7-42e1-b58e-cf4ed4cd2a94","ios":"levelo://app?vid=0840e584-1ba7-42e1-b58e-cf4ed4cd2a94"},"vehicle_type_id":"4","last_reported":1744125030,"current_range_meters":14000,"station_id":"ce4bgkh2rcd13ifvqbk0","pricing_plan_id":"cebpf4jnsgd1na2vs0mg"},{"bike_id":"4f073928-3686-488a-a4df-31530c94bbd5","system_id":"levelo_inurba_marseille","lat":43.23171,"lon":5.39984,"is_reserved":false,"is_disabled":false,"rental_uris":{"android":"levelo://app?vid=4f073928-3686-488a-a4df-31530c94bbd5","ios":"levelo://app?vid=4f073928-3686-488a-a4df-31530c94bbd5"},"vehicle_type_id":"4","last_reported":1744125030,"current_range_meters":17200,"station_id":"ce4bhn12rcd13ifvqgqg","pricing_plan_id":"cebpf4jnsgd1na2vs0mg"},{"bike_id":"b9431eef-d7e2-4f75-96fa-11dfb4e9c2e3","system_id":"levelo_inurba_marseille","lat":43.29226,"lon":5.36304,"is_reserved":false,"is_disabled":false,"rental_uris":{"android":"levelo://app?vid=b9431eef-d7e2-4f75-96fa-11dfb4e9c2e3","ios":"levelo://app?vid=b9431eef-d7e2-4f75-96fa-11dfb4e9c2e3"},"vehicle_type_id":"4","last_reported":1744125030,"current_range_meters":14400,"station_id":"","pricing_plan_id":"cebpf4jnsgd1na2vs0mg"},{"bike_id":"55e9a752-0bc7-447f-8600-1a171678ea09","system_id":"levelo_inurba_marseille","lat":43.260879,"lon":5.373271,"is_reserved":false,"is_disabled":false,"rental_uris":{"android":"levelo://app?vid=55e9a752-0bc7-447f-8600-1a171678ea09","ios":"levelo://app?vid=55e9a752-0bc7-447f-8600-1a171678ea09"},"vehicle_type_id":"4","last_reported":1744125030,"current_range_meters":14000,"station_id":"ce4bhe12rcd13ifvqf30","pricing_plan_id":"cebpf4jnsgd1na2vs0mg"},{"bike_id":"d9a00655-9937-4e00-82fd-08f0f84632ce","system_id":"levelo_inurba_marseille","lat":43.2838,"lon":5.38653,"is_reserved":false,"is_disabled":false,"rental_uris":{"android":"levelo://app?vid=d9a00655-9937-4e00-82fd-08f0f84632ce","ios":"levelo://app?vid=d9a00655-9937-4e00-82fd-08f0f84632ce"},"vehicle_type_id":"4","last_reported":1744125030,"current_range_meters":14000,"station_id":"ce4bh492rcd13ifvqdvg","pricing_plan_id":"cebpf4jnsgd1na2vs0mg"},{"bike_id":"81b64744-0879-4ca1-ade3-6929ca29a720","system_id":"levelo_inurba_marseille","lat":43.26205,"lon":5.37929,"is_reserved":false,"is_disabled":false,"rental_uris":{"android":"levelo://app?vid=81b64744-0879-4ca1-ade3-6929ca29a720","ios":"levelo://app?vid=81b64744-0879-4ca1-ade3-6929ca29a720"},"vehicle_type_id":"4","last_reported":1744125030,"current_range_meters":14000,"station_id":"ce4bhjp2rcd13ifvqg90","pricing_plan_id":"cebpf4jnsgd1na2vs0mg"},{"bike_id":"852819f8-8577-46de-b1fa-432b264e47e4","system_id":"levelo_inurba_marseille","lat":43.24184,"lon":5.39708,"is_reserved":false,"is_disabled":false,"rental_uris":{"android":"levelo://app?vid=852819f8-8577-46de-b1fa-432b264e47e4","ios":"levelo://app?vid=852819f8-8577-46de-b1fa-432b264e47e4"},"vehicle_type_id":"4","last_reported":1744125030,"current_range_meters":14400,"station_id":"ce4bhn12rcd13ifvqgpg","pricing_plan_id":"cebpf4jnsgd1na2vs0mg"},{"bike_id":"e4bffa2d-261c-4f4c-b85a-49a2f9138e9e","system_id":"levelo_inurba_marseille","lat":43.28617,"lon":5.35104,"is_reserved":false,"is_disabled":false,"rental_uris":{"android":"levelo://app?vid=e4bffa2d-261c-4f4c-b85a-49a2f9138e9e","ios":"levelo://app?vid=e4bffa2d-261c-4f4c-b85a-49a2f9138e9e"},"vehicle_type_id":"4","last_reported":1744125030,"current_range_meters":14400,"station_id":"ce4bhch2rcd13ifvqeug","pricing_plan_id":"cebpf4jnsgd1na2vs0mg"},{"bike_id":"f0b8cf65-e52a-460e-8b0e-857a6757057d","system_id":"levelo_inurba_marseille","lat":43.29004,"lon":5.35916,"is_reserved":false,"is_disabled":false,"rental_uris":{"android":"levelo://app?vid=f0b8cf65-e52a-460e-8b0e-857a6757057d","ios":"levelo://app?vid=f0b8cf65-e52a-460e-8b0e-857a6757057d"},"vehicle_type_id":"4","last_reported":1744125030,"current_range_meters":14400,"station_id":"","pricing_plan_id":"cebpf4jnsgd1na2vs0mg"},{"bike_id":"588c1689-5828-41a3-b21b-499fa1f6e748","system_id":"levelo_inurba_marseille","lat":43.26784,"lon":5.39409,"is_reserved":false,"is_disabled":false,"rental_uris":{"android":"levelo://app?vid=588c1689-5828-41a3-b21b-499fa1f6e748","ios":"levelo://app?vid=588c1689-5828-41a3-b21b-499fa1f6e748"},"vehicle_type_id":"4","last_reported":1744125030,"current_range_meters":14800,"station_id":"ce4bhh12rcd13ifvqfg0","pricing_plan_id":"cebpf4jnsgd1na2vs0mg"},{"bike_id":"b82be460-391f-4622-8721-ae14d7086d04","system_id":"levelo_inurba_marseille","lat":43.27374,"lon":5.36254,"is_reserved":false,"is_disabled":false,"rental_uris":{"android":"levelo://app?vid=b82be460-391f-4622-8721-ae14d7086d04","ios":"levelo://app?vid=b82be460-391f-4622-8721-ae14d7086d04"},"vehicle_type_id":"4","last_reported":1744125030,"current_range_meters":14800,"station_id":"ce4bhbh2rcd13ifvqeo0","pricing_plan_id":"cebpf4jnsgd1na2vs0mg"},{"bike_id":"dfbcdf58-d3ff-44b8-8e16-479563e07337","system_id":"levelo_inurba_marseille","lat":43.28398,"lon":5.37515,"is_reserved":false,"is_disabled":false,"rental_uris":{"android":"levelo://app?vid=dfbcdf58-d3ff-44b8-8e16-479563e07337","ios":"levelo://app?vid=dfbcdf58-d3ff-44b8-8e16-479563e07337"},"vehicle_type_id":"4","last_reported":1744125030,"current_range_meters":14800,"station_id":"ce4bh412rcd13ifvqds0","pricing_plan_id":"cebpf4jnsgd1na2vs0mg"},{"bike_id":"b7e2da3b-b083-4eb4-8c20-3e9487d0fe67","system_id":"levelo_inurba_marseille","lat":43.32045,"lon":5.38097,"is_reserved":false,"is_disabled":false,"rental_uris":{"android":"levelo://app?vid=b7e2da3b-b083-4eb4-8c20-3e9487d0fe67","ios":"levelo://app?vid=b7e2da3b-b083-4eb4-8c20-3e9487d0fe67"},"vehicle_type_id":"4","last_reported":1744125030,"current_range_meters":14800,"station_id":"","pricing_plan_id":"cebpf4jnsgd1na2vs0mg"},{"bike_id":"5502d420-e67c-4afa-aa72-e61f998ba566","system_id":"levelo_inurba_marseille","lat":43.24385,"lon":5.37054,"is_reserved":false,"is_disabled":false,"rental_uris":{"android":"levelo://app?vid=5502d420-e67c-4afa-aa72-e61f998ba566","ios":"levelo://app?vid=5502d420-e67c-4afa-aa72-e61f998ba566"},"vehicle_type_id":"4","last_reported":1744125030,"current_range_meters":14800,"station_id":"ce4bhhh2rcd13ifvqfk0","pricing_plan_id":"cebpf4jnsgd1na2vs0mg"},{"bike_id":"62553da6-a736-4f8a-81cf-af8417fb01f9","system_id":"levelo_inurba_marseille","lat":43.31067,"lon":5.3835,"is_reserved":false,"is_disabled":false,"rental_uris":{"android":"levelo://app?vid=62553da6-a736-4f8a-81cf-af8417fb01f9","ios":"levelo://app?vid=62553da6-a736-4f8a-81cf-af8417fb01f9"},"vehicle_type_id":"4","last_reported":1744125030,"current_range_meters":15200,"station_id":"ce4bgv92rcd13ifvqcr0","pricing_plan_id":"cebpf4jnsgd1na2vs0mg"},{"bike_id":"e24c6fd3-f9cb-40c7-9e57-dd2c20540e9b","system_id":"levelo_inurba_marseille","lat":43.31718,"lon":5.42422,"is_reserved":false,"is_disabled":false,"rental_uris":{"android":"levelo://app?vid=e24c6fd3-f9cb-40c7-9e57-dd2c20540e9b","ios":"levelo://app?vid=e24c6fd3-f9cb-40c7-9e57-dd2c20540e9b"},"vehicle_type_id":"4","last_reported":1744125030,"current_range_meters":15200,"station_id":"ce4bhp92rcd13ifvqhbg","pricing_plan_id":"cebpf4jnsgd1na2vs0mg"},{"bike_id":"61bdc912-cd12-4692-9660-8eae7d6473d1","system_id":"levelo_inurba_marseille","lat":43.279289,"lon":5.382842,"is_reserved":false,"is_disabled":false,"rental_uris":{"android":"levelo://app?vid=61bdc912-cd12-4692-9660-8eae7d6473d1","ios":"levelo://app?vid=61bdc912-cd12-4692-9660-8eae7d6473d1"},"vehicle_type_id":"4","last_reported":1744125030,"current_range_meters":15200,"station_id":"ce4bhf92rcd13ifvqf50","pricing_plan_id":"cebpf4jnsgd1na2vs0mg"},{"bike_id":"2c32caba-ee07-45c4-ba91-c5c8bd00c91c","system_id":"levelo_inurba_marseille","lat":43.29527,"lon":5.394,"is_reserved":false,"is_disabled":false,"rental_uris":{"android":"levelo://app?vid=2c32caba-ee07-45c4-ba91-c5c8bd00c91c","ios":"levelo://app?vid=2c32caba-ee07-45c4-ba91-c5c8bd00c91c"},"vehicle_type_id":"4","last_reported":1744125030,"current_range_meters":15200,"station_id":"ce4bh292rcd13ifvqdf0","pricing_plan_id":"cebpf4jnsgd1na2vs0mg"},{"bike_id":"d220da27-bb5e-4ca4-b262-16736cac0246","system_id":"levelo_inurba_marseille","lat":43.28413,"lon":5.34988,"is_reserved":false,"is_disabled":false,"rental_uris":{"android":"levelo://app?vid=d220da27-bb5e-4ca4-b262-16736cac0246","ios":"levelo://app?vid=d220da27-bb5e-4ca4-b262-16736cac0246"},"vehicle_type_id":"4","last_reported":1744125030,"current_range_meters":16000,"station_id":"ce4bhbh2rcd13ifvqepg","pricing_plan_id":"cebpf4jnsgd1na2vs0mg"},{"bike_id":"72aa523e-8431-4007-8ecd-b8dccf63c9e6","system_id":"levelo_inurba_marseille","lat":43.23961,"lon":5.36628,"is_reserved":false,"is_disabled":false,"rental_uris":{"android":"levelo://app?vid=72aa523e-8431-4007-8ecd-b8dccf63c9e6","ios":"levelo://app?vid=72aa523e-8431-4007-8ecd-b8dccf63c9e6"},"vehicle_type_id":"4","last_reported":1744125030,"current_range_meters":16000,"station_id":"ce4bhi12rcd13ifvqfp0","pricing_plan_id":"cebpf4jnsgd1na2vs0mg"},{"bike_id":"d35f7520-5f58-49a4-ab07-c9b4dfe2244c","system_id":"levelo_inurba_marseille","lat":43.30186,"lon":5.36605,"is_reserved":false,"is_disabled":false,"rental_uris":{"android":"levelo://app?vid=d35f7520-5f58-49a4-ab07-c9b4dfe2244c","ios":"levelo://app?vid=d35f7520-5f58-49a4-ab07-c9b4dfe2244c"},"vehicle_type_id":"4","last_reported":1744125030,"current_range_meters":16000,"station_id":"ce4bgrh2rcd13ifvqc8g","pricing_plan_id":"cebpf4jnsgd1na2vs0mg"},{"bike_id":"2843752d-d32f-42f1-ba25-6b137969236b","system_id":"levelo_inurba_marseille","lat":43.30352,"lon":5.41881,"is_reserved":false,"is_disabled":false,"rental_uris":{"android":"levelo://app?vid=2843752d-d32f-42f1-ba25-6b137969236b","ios":"levelo://app?vid=2843752d-d32f-42f1-ba25-6b137969236b"},"vehicle_type_id":"4","last_reported":1744125030,"current_range_meters":16000,"station_id":"ce4bhop2rcd13ifvqh7g","pricing_plan_id":"cebpf4jnsgd1na2vs0mg"},{"bike_id":"f72f75a5-43f0-45ff-942a-fd3cc84b7d49","system_id":"levelo_inurba_marseille","lat":43.27369,"lon":5.36226,"is_reserved":false,"is_disabled":false,"rental_uris":{"android":"levelo://app?vid=f72f75a5-43f0-45ff-942a-fd3cc84b7d49","ios":"levelo://app?vid=f72f75a5-43f0-45ff-942a-fd3cc84b7d49"},"vehicle_type_id":"4","last_reported":1744125030,"current_range_meters":16000,"station_id":"ce4bhbh2rcd13ifvqeo0","pricing_plan_id":"cebpf4jnsgd1na2vs0mg"},{"bike_id":"2749ff2c-98ed-46a4-8ef7-846566fd7de3","system_id":"levelo_inurba_marseille","lat":43.31081,"lon":5.38356,"is_reserved":false,"is_disabled":false,"rental_uris":{"android":"levelo://app?vid=2749ff2c-98ed-46a4-8ef7-846566fd7de3","ios":"levelo://app?vid=2749ff2c-98ed-46a4-8ef7-846566fd7de3"},"vehicle_type_id":"4","last_reported":1744125030,"current_range_meters":16000,"station_id":"ce4bgv92rcd13ifvqcr0","pricing_plan_id":"cebpf4jnsgd1na2vs0mg"},{"bike_id":"8de911fb-750c-45f4-afe3-d7903f67d759","system_id":"levelo_inurba_marseille","lat":43.28421,"lon":5.34943,"is_reserved":false,"is_disabled":false,"rental_uris":{"android":"levelo://app?vid=8de911fb-750c-45f4-afe3-d7903f67d759","ios":"levelo://app?vid=8de911fb-750c-45f4-afe3-d7903f67d759"},"vehicle_type_id":"4","last_reported":1744125030,"current_range_meters":16000,"station_id":"ce4bhbh2rcd13ifvqepg","pricing_plan_id":"cebpf4jnsgd1na2vs0mg"},{"bike_id":"dc92e84f-c532-4ea5-ba73-f4002b6f85aa","system_id":"levelo_inurba_marseille","lat":43.29895,"lon":5.4368,"is_reserved":false,"is_disabled":false,"rental_uris":{"android":"levelo://app?vid=dc92e84f-c532-4ea5-ba73-f4002b6f85aa","ios":"levelo://app?vid=dc92e84f-c532-4ea5-ba73-f4002b6f85aa"},"vehicle_type_id":"4","last_reported":1744125030,"current_range_meters":16000,"station_id":"ce4bhpp2rcd13ifvqhfg","pricing_plan_id":"cebpf4jnsgd1na2vs0mg"},{"bike_id":"19069c2f-0208-4704-a07b-98794b3b100d","system_id":"levelo_inurba_marseille","lat":43.29018,"lon":5.3815,"is_reserved":false,"is_disabled":false,"rental_uris":{"android":"levelo://app?vid=19069c2f-0208-4704-a07b-98794b3b100d","ios":"levelo://app?vid=19069c2f-0208-4704-a07b-98794b3b100d"},"vehicle_type_id":"4","last_reported":1744125030,"current_range_meters":16400,"station_id":"ce4bh4p2rcd13ifvqe1g","pricing_plan_id":"cebpf4jnsgd1na2vs0mg"},{"bike_id":"d7b5946f-2c92-40d4-a3ea-22d06cd8411e","system_id":"levelo_inurba_marseille","lat":43.28461,"lon":5.35879,"is_reserved":false,"is_disabled":false,"rental_uris":{"android":"levelo://app?vid=d7b5946f-2c92-40d4-a3ea-22d06cd8411e","ios":"levelo://app?vid=d7b5946f-2c92-40d4-a3ea-22d06cd8411e"},"vehicle_type_id":"4","last_reported":1744125030,"current_range_meters":16400,"station_id":"ce4bhah2rcd13ifvqei0","pricing_plan_id":"cebpf4jnsgd1na2vs0mg"},{"bike_id":"455e941c-0a24-43c0-acf1-222ee20e0ee4","system_id":"levelo_inurba_marseille","lat":43.29418,"lon":5.3862,"is_reserved":false,"is_disabled":false,"rental_uris":{"android":"levelo://app?vid=455e941c-0a24-43c0-acf1-222ee20e0ee4","ios":"levelo://app?vid=455e941c-0a24-43c0-acf1-222ee20e0ee4"},"vehicle_type_id":"4","last_reported":1744125030,"current_range_meters":16400,"station_id":"ce4bh2h2rcd13ifvqdh0","pricing_plan_id":"cebpf4jnsgd1na2vs0mg"},{"bike_id":"46c99737-914c-4908-aeb8-48d54b22c93a","system_id":"levelo_inurba_marseille","lat":43.31724,"lon":5.424,"is_reserved":false,"is_disabled":false,"rental_uris":{"android":"levelo://app?vid=46c99737-914c-4908-aeb8-48d54b22c93a","ios":"levelo://app?vid=46c99737-914c-4908-aeb8-48d54b22c93a"},"vehicle_type_id":"4","last_reported":1744125030,"current_range_meters":16400,"station_id":"ce4bhp92rcd13ifvqhbg","pricing_plan_id":"cebpf4jnsgd1na2vs0mg"},{"bike_id":"285e3e55-71fa-46f0-b884-83d31b2fcdea","system_id":"levelo_inurba_marseille","lat":43.286133,"lon":5.351057,"is_reserved":false,"is_disabled":false,"rental_uris":{"android":"levelo://app?vid=285e3e55-71fa-46f0-b884-83d31b2fcdea","ios":"levelo://app?vid=285e3e55-71fa-46f0-b884-83d31b2fcdea"},"vehicle_type_id":"4","last_reported":1744125030,"current_range_meters":18800,"station_id":"ce4bgj92rcd13ifvqbd0","pricing_plan_id":"cebpf4jnsgd1na2vs0mg"},{"bike_id":"e0fd6dfe-2ee7-4885-afd8-4dab70c7b899","system_id":"levelo_inurba_marseille","lat":43.28671,"lon":5.36345,"is_reserved":false,"is_disabled":false,"rental_uris":{"android":"levelo://app?vid=e0fd6dfe-2ee7-4885-afd8-4dab70c7b899","ios":"levelo://app?vid=e0fd6dfe-2ee7-4885-afd8-4dab70c7b899"},"vehicle_type_id":"4","last_reported":1744125030,"current_range_meters":16400,"station_id":"ce4bhah2rcd13ifvqej0","pricing_plan_id":"cebpf4jnsgd1na2vs0mg"},{"bike_id":"2807dd24-4fc7-4faa-a42c-f3d2a647f041","system_id":"levelo_inurba_marseille","lat":43.25085,"lon":5.39524,"is_reserved":false,"is_disabled":false,"rental_uris":{"android":"levelo://app?vid=2807dd24-4fc7-4faa-a42c-f3d2a647f041","ios":"levelo://app?vid=2807dd24-4fc7-4faa-a42c-f3d2a647f041"},"vehicle_type_id":"4","last_reported":1744125030,"current_range_meters":16400,"station_id":"ce4bhm12rcd13ifvqgkg","pricing_plan_id":"cebpf4jnsgd1na2vs0mg"},{"bike_id":"74d74a48-5c2e-4464-a400-9c8d904f54ac","system_id":"levelo_inurba_marseille","lat":43.28608,"lon":5.398748,"is_reserved":false,"is_disabled":false,"rental_uris":{"android":"levelo://app?vid=74d74a48-5c2e-4464-a400-9c8d904f54ac","ios":"levelo://app?vid=74d74a48-5c2e-4464-a400-9c8d904f54ac"},"vehicle_type_id":"4","last_reported":1744125030,"current_range_meters":16800,"station_id":"ce4bho92rcd13ifvqh3g","pricing_plan_id":"cebpf4jnsgd1na2vs0mg"},{"bike_id":"3070725d-d407-46fd-82c0-8da7e9760e2b","system_id":"levelo_inurba_marseille","lat":43.27171,"lon":5.40995,"is_reserved":false,"is_disabled":false,"rental_uris":{"android":"levelo://app?vid=3070725d-d407-46fd-82c0-8da7e9760e2b","ios":"levelo://app?vid=3070725d-d407-46fd-82c0-8da7e9760e2b"},"vehicle_type_id":"4","last_reported":1744125030,"current_range_meters":16800,"station_id":"ce4bhl12rcd13ifvqgf0","pricing_plan_id":"cebpf4jnsgd1na2vs0mg"},{"bike_id":"ac0d6d3b-ea04-4d2c-a0a7-ff94920b0b4d","system_id":"levelo_inurba_marseille","lat":43.304743,"lon":5.379109,"is_reserved":false,"is_disabled":false,"rental_uris":{"android":"levelo://app?vid=ac0d6d3b-ea04-4d2c-a0a7-ff94920b0b4d","ios":"levelo://app?vid=ac0d6d3b-ea04-4d2c-a0a7-ff94920b0b4d"},"vehicle_type_id":"4","last_reported":1744125030,"current_range_meters":16400,"station_id":"ce4bgup2rcd13ifvqcn0","pricing_plan_id":"cebpf4jnsgd1na2vs0mg"},{"bike_id":"d5c0918c-4021-4f5a-a2cb-a74b493b3636","system_id":"levelo_inurba_marseille","lat":43.24167,"lon":5.36395,"is_reserved":false,"is_disabled":false,"rental_uris":{"android":"levelo://app?vid=d5c0918c-4021-4f5a-a2cb-a74b493b3636","ios":"levelo://app?vid=d5c0918c-4021-4f5a-a2cb-a74b493b3636"},"vehicle_type_id":"4","last_reported":1744125030,"current_range_meters":16800,"station_id":"cpo36qri1sfpv3e86is0","pricing_plan_id":"cebpf4jnsgd1na2vs0mg"},{"bike_id":"6e047f61-3873-40bd-9046-6a9c4b05fa6e","system_id":"levelo_inurba_marseille","lat":43.29274,"lon":5.36845,"is_reserved":false,"is_disabled":false,"rental_uris":{"android":"levelo://app?vid=6e047f61-3873-40bd-9046-6a9c4b05fa6e","ios":"levelo://app?vid=6e047f61-3873-40bd-9046-6a9c4b05fa6e"},"vehicle_type_id":"4","last_reported":1744125030,"current_range_meters":16800,"station_id":"ce4bhbp2rcd13ifvqesg","pricing_plan_id":"cebpf4jnsgd1na2vs0mg"},{"bike_id":"8b02b398-7e69-4517-b745-659a010c21f3","system_id":"levelo_inurba_marseille","lat":43.27193,"lon":5.40985,"is_reserved":false,"is_disabled":false,"rental_uris":{"android":"levelo://app?vid=8b02b398-7e69-4517-b745-659a010c21f3","ios":"levelo://app?vid=8b02b398-7e69-4517-b745-659a010c21f3"},"vehicle_type_id":"4","last_reported":1744125030,"current_range_meters":16800,"station_id":"ce4bhl12rcd13ifvqgf0","pricing_plan_id":"cebpf4jnsgd1na2vs0mg"},{"bike_id":"5273534c-3473-4abd-9c4b-e677a5c1499a","system_id":"levelo_inurba_marseille","lat":43.29051,"lon":5.36947,"is_reserved":false,"is_disabled":false,"rental_uris":{"android":"levelo://app?vid=5273534c-3473-4abd-9c4b-e677a5c1499a","ios":"levelo://app?vid=5273534c-3473-4abd-9c4b-e677a5c1499a"},"vehicle_type_id":"4","last_reported":1744125030,"current_range_meters":16800,"station_id":"","pricing_plan_id":"cebpf4jnsgd1na2vs0mg"},{"bike_id":"1e099cf5-9456-4ac3-8d36-9153ce8a87f2","system_id":"levelo_inurba_marseille","lat":43.29573,"lon":5.39957,"is_reserved":false,"is_disabled":true,"rental_uris":{"android":"levelo://app?vid=1e099cf5-9456-4ac3-8d36-9153ce8a87f2","ios":"levelo://app?vid=1e099cf5-9456-4ac3-8d36-9153ce8a87f2"},"vehicle_type_id":"4","last_reported":1744125030,"current_range_meters":17200,"station_id":"ce4bh312rcd13ifvqdj0","pricing_plan_id":"cebpf4jnsgd1na2vs0mg"},{"bike_id":"5ff0f812-ab56-486a-ade1-46d331b55c2b","system_id":"levelo_inurba_marseille","lat":43.257872,"lon":5.399995,"is_reserved":false,"is_disabled":false,"rental_uris":{"android":"levelo://app?vid=5ff0f812-ab56-486a-ade1-46d331b55c2b","ios":"levelo://app?vid=5ff0f812-ab56-486a-ade1-46d331b55c2b"},"vehicle_type_id":"4","last_reported":1744125030,"current_range_meters":17200,"station_id":"ce4bhlh2rcd13ifvqgig","pricing_plan_id":"cebpf4jnsgd1na2vs0mg"},{"bike_id":"0a3af305-b6a9-4888-8116-6cbe448a4d61","system_id":"levelo_inurba_marseille","lat":43.27368,"lon":5.36253,"is_reserved":false,"is_disabled":false,"rental_uris":{"android":"levelo://app?vid=0a3af305-b6a9-4888-8116-6cbe448a4d61","ios":"levelo://app?vid=0a3af305-b6a9-4888-8116-6cbe448a4d61"},"vehicle_type_id":"4","last_reported":1744125030,"current_range_meters":17200,"station_id":"ce4bhbh2rcd13ifvqeo0","pricing_plan_id":"cebpf4jnsgd1na2vs0mg"},{"bike_id":"a39ff9c3-8391-4246-bc08-bfe789d104d3","system_id":"levelo_inurba_marseille","lat":43.31156,"lon":5.36836,"is_reserved":false,"is_disabled":false,"rental_uris":{"android":"levelo://app?vid=a39ff9c3-8391-4246-bc08-bfe789d104d3","ios":"levelo://app?vid=a39ff9c3-8391-4246-bc08-bfe789d104d3"},"vehicle_type_id":"4","last_reported":1744125030,"current_range_meters":17200,"station_id":"","pricing_plan_id":"cebpf4jnsgd1na2vs0mg"},{"bike_id":"ea587018-fc38-48dc-abf9-d491c8c6d284","system_id":"levelo_inurba_marseille","lat":43.25498,"lon":5.37652,"is_reserved":false,"is_disabled":false,"rental_uris":{"android":"levelo://app?vid=ea587018-fc38-48dc-abf9-d491c8c6d284","ios":"levelo://app?vid=ea587018-fc38-48dc-abf9-d491c8c6d284"},"vehicle_type_id":"4","last_reported":1744125030,"current_range_meters":17600,"station_id":"ce4bhh12rcd13ifvqff0","pricing_plan_id":"cebpf4jnsgd1na2vs0mg"},{"bike_id":"27768073-dde6-48e9-bf13-e40e2934834a","system_id":"levelo_inurba_marseille","lat":43.24169,"lon":5.39736,"is_reserved":false,"is_disabled":false,"rental_uris":{"android":"levelo://app?vid=27768073-dde6-48e9-bf13-e40e2934834a","ios":"levelo://app?vid=27768073-dde6-48e9-bf13-e40e2934834a"},"vehicle_type_id":"4","last_reported":1744125030,"current_range_meters":17600,"station_id":"ce4bhn12rcd13ifvqgpg","pricing_plan_id":"cebpf4jnsgd1na2vs0mg"},{"bike_id":"52dfef30-eef0-4dd6-a138-a48c8dcc2c3a","system_id":"levelo_inurba_marseille","lat":43.30391,"lon":5.42764,"is_reserved":false,"is_disabled":true,"rental_uris":{"android":"levelo://app?vid=52dfef30-eef0-4dd6-a138-a48c8dcc2c3a","ios":"levelo://app?vid=52dfef30-eef0-4dd6-a138-a48c8dcc2c3a"},"vehicle_type_id":"4","last_reported":1744125030,"current_range_meters":17600,"station_id":"","pricing_plan_id":"cebpf4jnsgd1na2vs0mg"},{"bike_id":"7e1501fb-f8fb-478d-8ee5-44121202eac5","system_id":"levelo_inurba_marseille","lat":43.31708,"lon":5.37751,"is_reserved":false,"is_disabled":false,"rental_uris":{"android":"levelo://app?vid=7e1501fb-f8fb-478d-8ee5-44121202eac5","ios":"levelo://app?vid=7e1501fb-f8fb-478d-8ee5-44121202eac5"},"vehicle_type_id":"4","last_reported":1744125030,"current_range_meters":17600,"station_id":"ce4bgth2rcd13ifvqch0","pricing_plan_id":"cebpf4jnsgd1na2vs0mg"},{"bike_id":"b37944fb-f9c1-4c8e-ac3a-9da227afb433","system_id":"levelo_inurba_marseille","lat":43.30822,"lon":5.38149,"is_reserved":false,"is_disabled":true,"rental_uris":{"android":"levelo://app?vid=b37944fb-f9c1-4c8e-ac3a-9da227afb433","ios":"levelo://app?vid=b37944fb-f9c1-4c8e-ac3a-9da227afb433"},"vehicle_type_id":"4","last_reported":1744125030,"current_range_meters":17600,"station_id":"ce4bgt12rcd13ifvqce0","pricing_plan_id":"cebpf4jnsgd1na2vs0mg"},{"bike_id":"24694445-8b3e-4b0e-84f7-857c0ebbbb46","system_id":"levelo_inurba_marseille","lat":43.26208,"lon":5.37445,"is_reserved":false,"is_disabled":false,"rental_uris":{"android":"levelo://app?vid=24694445-8b3e-4b0e-84f7-857c0ebbbb46","ios":"levelo://app?vid=24694445-8b3e-4b0e-84f7-857c0ebbbb46"},"vehicle_type_id":"4","last_reported":1744125030,"current_range_meters":18000,"station_id":"ce4bhgp2rcd13ifvqfc0","pricing_plan_id":"cebpf4jnsgd1na2vs0mg"},{"bike_id":"f42c7b0f-bb58-4fdc-b932-a748801a925b","system_id":"levelo_inurba_marseille","lat":43.28307,"lon":5.35034,"is_reserved":false,"is_disabled":false,"rental_uris":{"android":"levelo://app?vid=f42c7b0f-bb58-4fdc-b932-a748801a925b","ios":"levelo://app?vid=f42c7b0f-bb58-4fdc-b932-a748801a925b"},"vehicle_type_id":"4","last_reported":1744125030,"current_range_meters":18000,"station_id":"","pricing_plan_id":"cebpf4jnsgd1na2vs0mg"},{"bike_id":"33586a7c-f52a-4f7d-9e96-bb7e2cca08c4","system_id":"levelo_inurba_marseille","lat":43.28617,"lon":5.35097,"is_reserved":false,"is_disabled":false,"rental_uris":{"android":"levelo://app?vid=33586a7c-f52a-4f7d-9e96-bb7e2cca08c4","ios":"levelo://app?vid=33586a7c-f52a-4f7d-9e96-bb7e2cca08c4"},"vehicle_type_id":"4","last_reported":1744125030,"current_range_meters":18000,"station_id":"ce4bhch2rcd13ifvqeug","pricing_plan_id":"cebpf4jnsgd1na2vs0mg"},{"bike_id":"f94338fd-9e3b-4372-8ee4-831ad6954be2","system_id":"levelo_inurba_marseille","lat":43.28666,"lon":5.36353,"is_reserved":false,"is_disabled":false,"rental_uris":{"android":"levelo://app?vid=f94338fd-9e3b-4372-8ee4-831ad6954be2","ios":"levelo://app?vid=f94338fd-9e3b-4372-8ee4-831ad6954be2"},"vehicle_type_id":"4","last_reported":1744125030,"current_range_meters":18000,"station_id":"ce4bhah2rcd13ifvqej0","pricing_plan_id":"cebpf4jnsgd1na2vs0mg"},{"bike_id":"68a7da11-b211-47bc-9d67-46c2d4a20d9c","system_id":"levelo_inurba_marseille","lat":43.29952,"lon":5.41316,"is_reserved":false,"is_disabled":false,"rental_uris":{"android":"levelo://app?vid=68a7da11-b211-47bc-9d67-46c2d4a20d9c","ios":"levelo://app?vid=68a7da11-b211-47bc-9d67-46c2d4a20d9c"},"vehicle_type_id":"4","last_reported":1744125030,"current_range_meters":18000,"station_id":"ce4bhp12rcd13ifvqh9g","pricing_plan_id":"cebpf4jnsgd1na2vs0mg"},{"bike_id":"9f2d0244-f31e-4b70-a107-9fcab4aa7eae","system_id":"levelo_inurba_marseille","lat":43.27381,"lon":5.36261,"is_reserved":false,"is_disabled":false,"rental_uris":{"android":"levelo://app?vid=9f2d0244-f31e-4b70-a107-9fcab4aa7eae","ios":"levelo://app?vid=9f2d0244-f31e-4b70-a107-9fcab4aa7eae"},"vehicle_type_id":"4","last_reported":1744125030,"current_range_meters":18000,"station_id":"ce4bhbh2rcd13ifvqeo0","pricing_plan_id":"cebpf4jnsgd1na2vs0mg"},{"bike_id":"d1ab4a48-3ebf-4448-991f-741c70a9cfa1","system_id":"levelo_inurba_marseille","lat":43.28428,"lon":5.34989,"is_reserved":false,"is_disabled":false,"rental_uris":{"android":"levelo://app?vid=d1ab4a48-3ebf-4448-991f-741c70a9cfa1","ios":"levelo://app?vid=d1ab4a48-3ebf-4448-991f-741c70a9cfa1"},"vehicle_type_id":"4","last_reported":1744125030,"current_range_meters":18000,"station_id":"ce4bhbh2rcd13ifvqepg","pricing_plan_id":"cebpf4jnsgd1na2vs0mg"},{"bike_id":"6e5ac126-c372-4a39-b836-bcab5ad1f2e7","system_id":"levelo_inurba_marseille","lat":43.2416,"lon":5.36407,"is_reserved":false,"is_disabled":false,"rental_uris":{"android":"levelo://app?vid=6e5ac126-c372-4a39-b836-bcab5ad1f2e7","ios":"levelo://app?vid=6e5ac126-c372-4a39-b836-bcab5ad1f2e7"},"vehicle_type_id":"4","last_reported":1744125030,"current_range_meters":18800,"station_id":"cpo36qri1sfpv3e86is0","pricing_plan_id":"cebpf4jnsgd1na2vs0mg"},{"bike_id":"2d12ff8d-1952-4980-89ff-252f89adff8e","system_id":"levelo_inurba_marseille","lat":43.26572,"lon":5.39007,"is_reserved":false,"is_disabled":false,"rental_uris":{"android":"levelo://app?vid=2d12ff8d-1952-4980-89ff-252f89adff8e","ios":"levelo://app?vid=2d12ff8d-1952-4980-89ff-252f89adff8e"},"vehicle_type_id":"4","last_reported":1744125030,"current_range_meters":18800,"station_id":"ce4bhe12rcd13ifvqf30","pricing_plan_id":"cebpf4jnsgd1na2vs0mg"},{"bike_id":"ffa44d8b-2d4b-416a-a68e-6f2cf44e1fea","system_id":"levelo_inurba_marseille","lat":43.27373,"lon":5.36259,"is_reserved":false,"is_disabled":false,"rental_uris":{"android":"levelo://app?vid=ffa44d8b-2d4b-416a-a68e-6f2cf44e1fea","ios":"levelo://app?vid=ffa44d8b-2d4b-416a-a68e-6f2cf44e1fea"},"vehicle_type_id":"4","last_reported":1744125030,"current_range_meters":18800,"station_id":"ce4bhbh2rcd13ifvqeo0","pricing_plan_id":"cebpf4jnsgd1na2vs0mg"},{"bike_id":"4818a333-e2d7-4f15-b301-c1332126dbfb","system_id":"levelo_inurba_marseille","lat":43.30911,"lon":5.36865,"is_reserved":false,"is_disabled":false,"rental_uris":{"android":"levelo://app?vid=4818a333-e2d7-4f15-b301-c1332126dbfb","ios":"levelo://app?vid=4818a333-e2d7-4f15-b301-c1332126dbfb"},"vehicle_type_id":"4","last_reported":1744125030,"current_range_meters":18800,"station_id":"ce4bgn92rcd13ifvqbvg","pricing_plan_id":"cebpf4jnsgd1na2vs0mg"},{"bike_id":"d7b2134e-575c-40f1-9b3b-0ad40ab4b220","system_id":"levelo_inurba_marseille","lat":43.29829,"lon":5.43674,"is_reserved":false,"is_disabled":false,"rental_uris":{"android":"levelo://app?vid=d7b2134e-575c-40f1-9b3b-0ad40ab4b220","ios":"levelo://app?vid=d7b2134e-575c-40f1-9b3b-0ad40ab4b220"},"vehicle_type_id":"4","last_reported":1744125030,"current_range_meters":18800,"station_id":"","pricing_plan_id":"cebpf4jnsgd1na2vs0mg"},{"bike_id":"1920f5a0-f04a-48ef-b613-92b01b8d4924","system_id":"levelo_inurba_marseille","lat":43.29524,"lon":5.38539,"is_reserved":false,"is_disabled":false,"rental_uris":{"android":"levelo://app?vid=1920f5a0-f04a-48ef-b613-92b01b8d4924","ios":"levelo://app?vid=1920f5a0-f04a-48ef-b613-92b01b8d4924"},"vehicle_type_id":"4","last_reported":1744125030,"current_range_meters":16800,"station_id":"ce4bgih2rcd13ifvqba0","pricing_plan_id":"cebpf4jnsgd1na2vs0mg"},{"bike_id":"677baad4-e7ca-4f18-a5af-a1707c566fe2","system_id":"levelo_inurba_marseille","lat":43.276933,"lon":5.388882,"is_reserved":false,"is_disabled":false,"rental_uris":{"android":"levelo://app?vid=677baad4-e7ca-4f18-a5af-a1707c566fe2","ios":"levelo://app?vid=677baad4-e7ca-4f18-a5af-a1707c566fe2"},"vehicle_type_id":"4","last_reported":1744125030,"current_range_meters":18800,"station_id":"ce4bhi12rcd13ifvqfo0","pricing_plan_id":"cebpf4jnsgd1na2vs0mg"},{"bike_id":"91253db5-3529-4bbd-9cf7-1be8f47890aa","system_id":"levelo_inurba_marseille","lat":43.28614,"lon":5.35102,"is_reserved":false,"is_disabled":false,"rental_uris":{"android":"levelo://app?vid=91253db5-3529-4bbd-9cf7-1be8f47890aa","ios":"levelo://app?vid=91253db5-3529-4bbd-9cf7-1be8f47890aa"},"vehicle_type_id":"4","last_reported":1744125030,"current_range_meters":19200,"station_id":"ce4bhch2rcd13ifvqeug","pricing_plan_id":"cebpf4jnsgd1na2vs0mg"},{"bike_id":"6b68cb44-2214-4363-bbfb-6597cc95cf8e","system_id":"levelo_inurba_marseille","lat":43.27374,"lon":5.36266,"is_reserved":false,"is_disabled":false,"rental_uris":{"android":"levelo://app?vid=6b68cb44-2214-4363-bbfb-6597cc95cf8e","ios":"levelo://app?vid=6b68cb44-2214-4363-bbfb-6597cc95cf8e"},"vehicle_type_id":"4","last_reported":1744125030,"current_range_meters":19200,"station_id":"ce4bhbh2rcd13ifvqeo0","pricing_plan_id":"cebpf4jnsgd1na2vs0mg"},{"bike_id":"acbae7f0-93cd-4929-b6c7-f802c50e60ec","system_id":"levelo_inurba_marseille","lat":43.296847,"lon":5.3672,"is_reserved":false,"is_disabled":false,"rental_uris":{"android":"levelo://app?vid=acbae7f0-93cd-4929-b6c7-f802c50e60ec","ios":"levelo://app?vid=acbae7f0-93cd-4929-b6c7-f802c50e60ec"},"vehicle_type_id":"4","last_reported":1744125030,"current_range_meters":19200,"station_id":"ce4bgn12rcd13ifvqbt0","pricing_plan_id":"cebpf4jnsgd1na2vs0mg"},{"bike_id":"1c847153-94c1-43ae-841d-ed1885c3844f","system_id":"levelo_inurba_marseille","lat":43.28697,"lon":5.37918,"is_reserved":false,"is_disabled":false,"rental_uris":{"android":"levelo://app?vid=1c847153-94c1-43ae-841d-ed1885c3844f","ios":"levelo://app?vid=1c847153-94c1-43ae-841d-ed1885c3844f"},"vehicle_type_id":"4","last_reported":1744125030,"current_range_meters":19200,"station_id":"ce4bh9p2rcd13ifvqec0","pricing_plan_id":"cebpf4jnsgd1na2vs0mg"},{"bike_id":"c1c63035-c83b-4419-8cbf-133778d95125","system_id":"levelo_inurba_marseille","lat":43.29794,"lon":5.39346,"is_reserved":false,"is_disabled":true,"rental_uris":{"android":"levelo://app?vid=c1c63035-c83b-4419-8cbf-133778d95125","ios":"levelo://app?vid=c1c63035-c83b-4419-8cbf-133778d95125"},"vehicle_type_id":"4","last_reported":1744125030,"current_range_meters":19200,"station_id":"chh1huq6cuj3fo74tm60","pricing_plan_id":"cebpf4jnsgd1na2vs0mg"},{"bike_id":"8fac91fa-9b3d-4ad0-bede-583061a959b8","system_id":"levelo_inurba_marseille","lat":43.27369,"lon":5.36244,"is_reserved":false,"is_disabled":false,"rental_uris":{"android":"levelo://app?vid=8fac91fa-9b3d-4ad0-bede-583061a959b8","ios":"levelo://app?vid=8fac91fa-9b3d-4ad0-bede-583061a959b8"},"vehicle_type_id":"4","last_reported":1744125030,"current_range_meters":19200,"station_id":"ce4bhbh2rcd13ifvqeo0","pricing_plan_id":"cebpf4jnsgd1na2vs0mg"},{"bike_id":"6278194a-3064-41bd-8565-b8ff44b1552d","system_id":"levelo_inurba_marseille","lat":43.29554,"lon":5.38561,"is_reserved":false,"is_disabled":true,"rental_uris":{"android":"levelo://app?vid=6278194a-3064-41bd-8565-b8ff44b1552d","ios":"levelo://app?vid=6278194a-3064-41bd-8565-b8ff44b1552d"},"vehicle_type_id":"4","last_reported":1744125030,"current_range_meters":19200,"station_id":"ce4bgih2rcd13ifvqba0","pricing_plan_id":"cebpf4jnsgd1na2vs0mg"},{"bike_id":"294e3a44-6a69-46e5-87fd-cbddf154da4c","system_id":"levelo_inurba_marseille","lat":43.28421,"lon":5.34999,"is_reserved":false,"is_disabled":false,"rental_uris":{"android":"levelo://app?vid=294e3a44-6a69-46e5-87fd-cbddf154da4c","ios":"levelo://app?vid=294e3a44-6a69-46e5-87fd-cbddf154da4c"},"vehicle_type_id":"4","last_reported":1744125030,"current_range_meters":19200,"station_id":"ce4bhbh2rcd13ifvqepg","pricing_plan_id":"cebpf4jnsgd1na2vs0mg"},{"bike_id":"115750eb-e4b6-47fd-aaf7-cc0d82044f94","system_id":"levelo_inurba_marseille","lat":43.28936,"lon":5.38397,"is_reserved":false,"is_disabled":false,"rental_uris":{"android":"levelo://app?vid=115750eb-e4b6-47fd-aaf7-cc0d82044f94","ios":"levelo://app?vid=115750eb-e4b6-47fd-aaf7-cc0d82044f94"},"vehicle_type_id":"4","last_reported":1744125030,"current_range_meters":19200,"station_id":"ce4bh612rcd13ifvqe6g","pricing_plan_id":"cebpf4jnsgd1na2vs0mg"},{"bike_id":"faaebabd-cb38-4408-9483-3422bdcc7bd0","system_id":"levelo_inurba_marseille","lat":43.30541,"lon":5.3654,"is_reserved":false,"is_disabled":false,"rental_uris":{"android":"levelo://app?vid=faaebabd-cb38-4408-9483-3422bdcc7bd0","ios":"levelo://app?vid=faaebabd-cb38-4408-9483-3422bdcc7bd0"},"vehicle_type_id":"4","last_reported":1744125030,"current_range_meters":19600,"station_id":"ce4bgs12rcd13ifvqcag","pricing_plan_id":"cebpf4jnsgd1na2vs0mg"},{"bike_id":"56095257-f688-443c-bd66-3457c7b0d7bb","system_id":"levelo_inurba_marseille","lat":43.31115,"lon":5.37781,"is_reserved":false,"is_disabled":false,"rental_uris":{"android":"levelo://app?vid=56095257-f688-443c-bd66-3457c7b0d7bb","ios":"levelo://app?vid=56095257-f688-443c-bd66-3457c7b0d7bb"},"vehicle_type_id":"4","last_reported":1744125030,"current_range_meters":19600,"station_id":"ce4bgt92rcd13ifvqcg0","pricing_plan_id":"cebpf4jnsgd1na2vs0mg"},{"bike_id":"655395b5-1460-4952-bf11-be87c4014c2d","system_id":"levelo_inurba_marseille","lat":43.28393,"lon":5.34994,"is_reserved":false,"is_disabled":false,"rental_uris":{"android":"levelo://app?vid=655395b5-1460-4952-bf11-be87c4014c2d","ios":"levelo://app?vid=655395b5-1460-4952-bf11-be87c4014c2d"},"vehicle_type_id":"4","last_reported":1744125030,"current_range_meters":19600,"station_id":"ce4bhbh2rcd13ifvqepg","pricing_plan_id":"cebpf4jnsgd1na2vs0mg"},{"bike_id":"168b3bd3-4d4f-4d90-a7bd-a1d4012eca2c","system_id":"levelo_inurba_marseille","lat":43.28409,"lon":5.34994,"is_reserved":false,"is_disabled":false,"rental_uris":{"android":"levelo://app?vid=168b3bd3-4d4f-4d90-a7bd-a1d4012eca2c","ios":"levelo://app?vid=168b3bd3-4d4f-4d90-a7bd-a1d4012eca2c"},"vehicle_type_id":"4","last_reported":1744125030,"current_range_meters":19600,"station_id":"ce4bhbh2rcd13ifvqepg","pricing_plan_id":"cebpf4jnsgd1na2vs0mg"},{"bike_id":"8db02bd7-18fe-4ff7-b560-31d52f8ef84c","system_id":"levelo_inurba_marseille","lat":43.245447,"lon":5.395256,"is_reserved":false,"is_disabled":false,"rental_uris":{"android":"levelo://app?vid=8db02bd7-18fe-4ff7-b560-31d52f8ef84c","ios":"levelo://app?vid=8db02bd7-18fe-4ff7-b560-31d52f8ef84c"},"vehicle_type_id":"4","last_reported":1744125030,"current_range_meters":19600,"station_id":"ce4bhlp2rcd13ifvqgjg","pricing_plan_id":"cebpf4jnsgd1na2vs0mg"},{"bike_id":"07b4949c-0524-449c-8918-ecf28c8a5a56","system_id":"levelo_inurba_marseille","lat":43.308,"lon":5.3816,"is_reserved":false,"is_disabled":false,"rental_uris":{"android":"levelo://app?vid=07b4949c-0524-449c-8918-ecf28c8a5a56","ios":"levelo://app?vid=07b4949c-0524-449c-8918-ecf28c8a5a56"},"vehicle_type_id":"4","last_reported":1744125030,"current_range_meters":19600,"station_id":"ce4bgt12rcd13ifvqce0","pricing_plan_id":"cebpf4jnsgd1na2vs0mg"},{"bike_id":"ee7ec64d-b560-45bf-ab8f-f405c356597c","system_id":"levelo_inurba_marseille","lat":43.29924,"lon":5.38094,"is_reserved":false,"is_disabled":false,"rental_uris":{"android":"levelo://app?vid=ee7ec64d-b560-45bf-ab8f-f405c356597c","ios":"levelo://app?vid=ee7ec64d-b560-45bf-ab8f-f405c356597c"},"vehicle_type_id":"4","last_reported":1744125030,"current_range_meters":19600,"station_id":"","pricing_plan_id":"cebpf4jnsgd1na2vs0mg"},{"bike_id":"62b60fbd-1d07-4f15-bc04-705844254bd1","system_id":"levelo_inurba_marseille","lat":43.27372,"lon":5.36256,"is_reserved":false,"is_disabled":false,"rental_uris":{"android":"levelo://app?vid=62b60fbd-1d07-4f15-bc04-705844254bd1","ios":"levelo://app?vid=62b60fbd-1d07-4f15-bc04-705844254bd1"},"vehicle_type_id":"4","last_reported":1744125030,"current_range_meters":20000,"station_id":"ce4bhbh2rcd13ifvqeo0","pricing_plan_id":"cebpf4jnsgd1na2vs0mg"},{"bike_id":"e3a3b7b6-73c6-4689-8541-c38f9a4eb699","system_id":"levelo_inurba_marseille","lat":43.301577,"lon":5.381026,"is_reserved":false,"is_disabled":false,"rental_uris":{"android":"levelo://app?vid=e3a3b7b6-73c6-4689-8541-c38f9a4eb699","ios":"levelo://app?vid=e3a3b7b6-73c6-4689-8541-c38f9a4eb699"},