{"last_updated":1771197356,"ttl":60,"version":"2.2","data":{"bikes":[{"bike_id":"d96f1086-8d9b-4b38-8774-136993319875","system_id":"levelo_inurba_marseille","lat":43.24647,"lon":5.38887,"is_reserved":false,"is_disabled":false,"rental_uris":{"android":"levelo://app?vid=d96f1086-8d9b-4b38-8774-136993319875","ios":"levelo://app?vid=d96f1086-8d9b-4b38-8774-136993319875"},"vehicle_type_id":"4","last_reported":1771197356,"current_range_meters":12400,"station_id":"ce4bhg12rcd13ifvqf60","pricing_plan_id":"cebpf4jnsgd1na2vs0mg"},{"bike_id":"597ba019-6a14-4724-bfeb-cc559411f270","system_id":"levelo_inurba_marseille","lat":43.27597,"lon":5.36133,"is_reserved":false,"is_disabled":false,"rental_uris":{"android":"levelo://app?vid=597ba019-6a14-4724-bfeb-cc559411f270","ios":"levelo://app?vid=597ba019-6a14-4724-bfeb-cc559411f270"},"vehicle_type_id":"4","last_reported":1771197356,"current_range_meters":40000,"station_id":"ce4bgj92rcd13ifvqbe0","pricing_plan_id":"cebpf4jnsgd1na2vs0mg"},{"bike_id":"34d70057-47d6-4c17-b6c1-e79de54e1e52","system_id":"levelo_inurba_marseille","lat":43.32987,"lon":5.39033,"is_reserved":false,"is_disabled":false,"rental_uris":{"android":"levelo://app?vid=34d70057-47d6-4c17-b6c1-e79de54e1e52","ios":"levelo://app?vid=34d70057-47d6-4c17-b6c1-e79de54e1e52"},"vehicle_type_id":"4","last_reported":1771197356,"current_range_meters":24400,"station_id":"ce4bhr92rcd13ifvqhrg","pricing_plan_id":"cebpf4jnsgd1na2vs0mg"},{"bike_id":"68ef5776-ce7e-4d76-bed7-b3b2136e9f86","system_id":"levelo_inurba_marseille","lat":43.32983,"lon":5.39052,"is_reserved":false,"is_disabled":false,"rental_uris":{"android":"levelo://app?vid=68ef5776-ce7e-4d76-bed7-b3b2136e9f86","ios":"levelo://app?vid=68ef5776-ce7e-4d76-bed7-b3b2136e9f86"},"vehicle_type_id":"4","last_reported":1771197356,"current_range_meters":38800,"station_id":"ce4bhr92rcd13ifvqhrg","pricing_plan_id":"cebpf4jnsgd1na2vs0mg"},{"bike_id":"dcf21c8a-af55-489b-ae7c-c01a8eafbc40","system_id":"levelo_inurba_marseille","lat":43.337444,"lon":5.374475,"is_reserved":false,"is_disabled":false,"rental_uris":{"android":"levelo://app?vid=dcf21c8a-af55-489b-ae7c-c01a8eafbc40","ios":"levelo://app?vid=dcf21c8a-af55-489b-ae7c-c01a8eafbc40"},"vehicle_type_id":"4","last_reported":1771197356,"current_range_meters":17600,"station_id":"","pricing_plan_id":"cebpf4jnsgd1na2vs0mg"},{"bike_id":"05431520-0744-4aff-8d56-5eda07b7d4bf","system_id":"levelo_inurba_marseille","lat":43.32953,"lon":5.39,"is_reserved":false,"is_disabled":false,"rental_uris":{"android":"levelo://app?vid=05431520-0744-4aff-8d56-5eda07b7d4bf","ios":"levelo://app?vid=05431520-0744-4aff-8d56-5eda07b7d4bf"},"vehicle_type_id":"4","last_reported":1771197356,"current_range_meters":37600,"station_id":"ce4bhr92rcd13ifvqhrg","pricing_plan_id":"cebpf4jnsgd1na2vs0mg"},{"bike_id":"b07f3ef1-c8ed-4cbb-96c2-2cf40b5d7a28","system_id":"levelo_inurba_marseille","lat":43.33017,"lon":5.39044,"is_reserved":false,"is_disabled":false,"rental_uris":{"android":"levelo://app?vid=b07f3ef1-c8ed-4cbb-96c2-2cf40b5d7a28","ios":"levelo://app?vid=b07f3ef1-c8ed-4cbb-96c2-2cf40b5d7a28"},"vehicle_type_id":"4","last_reported":1771197356,"current_range_meters":39200,"station_id":"ce4bhr92rcd13ifvqhrg","pricing_plan_id":"cebpf4jnsgd1na2vs0mg"},{"bike_id":"8ff7e5fe-aeff-4c28-befd-849a0d3b0506","system_id":"levelo_inurba_marseille","lat":43.33102,"lon":5.38955,"is_reserved":false,"is_disabled":false,"rental_uris":{"android":"levelo://app?vid=8ff7e5fe-aeff-4c28-befd-849a0d3b0506","ios":"levelo://app?vid=8ff7e5fe-aeff-4c28-befd-849a0d3b0506"},"vehicle_type_id":"4","last_reported":1771197356,"current_range_meters":38400,"station_id":"ce4bhr92rcd13ifvqhrg","pricing_plan_id":"cebpf4jnsgd1na2vs0mg"},{"bike_id":"64f460a1-288f-42d2-88de-a92a667fff57","system_id":"levelo_inurba_marseille","lat":43.33007,"lon":5.39027,"is_reserved":false,"is_disabled":false,"rental_uris":{"android":"levelo://app?vid=64f460a1-288f-42d2-88de-a92a667fff57","ios":"levelo://app?vid=64f460a1-288f-42d2-88de-a92a667fff57"},"vehicle_type_id":"4","last_reported":1771197356,"current_range_meters":38800,"station_id":"ce4bhr92rcd13ifvqhrg","pricing_plan_id":"cebpf4jnsgd1na2vs0mg"},{"bike_id":"4b69d9ac-5988-4e0b-b555-d4763bf81efe","system_id":"levelo_inurba_marseille","lat":43.33018,"lon":5.39034,"is_reserved":false,"is_disabled":false,"rental_uris":{"android":"levelo://app?vid=4b69d9ac-5988-4e0b-b555-d4763bf81efe","ios":"levelo://app?vid=4b69d9ac-5988-4e0b-b555-d4763bf81efe"},"vehicle_type_id":"4","last_reported":1771197356,"current_range_meters":38400,"station_id":"ce4bhr92rcd13ifvqhrg","pricing_plan_id":"cebpf4jnsgd1na2vs0mg"},{"bike_id":"9942bbc5-c241-4e8a-b7a0-e7948f4f2e45","system_id":"levelo_inurba_marseille","lat":43.32365,"lon":5.38874,"is_reserved":false,"is_disabled":false,"rental_uris":{"android":"levelo://app?vid=9942bbc5-c241-4e8a-b7a0-e7948f4f2e45","ios":"levelo://app?vid=9942bbc5-c241-4e8a-b7a0-e7948f4f2e45"},"vehicle_type_id":"4","last_reported":1771197356,"current_range_meters":39200,"station_id":"ce4bhqp2rcd13ifvqhog","pricing_plan_id":"cebpf4jnsgd1na2vs0mg"},{"bike_id":"8e8e8859-a5a6-43b8-9a3a-3d7ba83a2210","system_id":"levelo_inurba_marseille","lat":43.33041,"lon":5.39027,"is_reserved":false,"is_disabled":false,"rental_uris":{"android":"levelo://app?vid=8e8e8859-a5a6-43b8-9a3a-3d7ba83a2210","ios":"levelo://app?vid=8e8e8859-a5a6-43b8-9a3a-3d7ba83a2210"},"vehicle_type_id":"4","last_reported":1771197356,"current_range_meters":38000,"station_id":"ce4bhr92rcd13ifvqhrg","pricing_plan_id":"cebpf4jnsgd1na2vs0mg"},{"bike_id":"e09b1854-500a-4103-9ded-791ea62f0cef","system_id":"levelo_inurba_marseille","lat":43.323678,"lon":5.388691,"is_reserved":false,"is_disabled":false,"rental_uris":{"android":"levelo://app?vid=e09b1854-500a-4103-9ded-791ea62f0cef","ios":"levelo://app?vid=e09b1854-500a-4103-9ded-791ea62f0cef"},"vehicle_type_id":"4","last_reported":1771197356,"current_range_meters":39200,"station_id":"ce4bhqp2rcd13ifvqhog","pricing_plan_id":"cebpf4jnsgd1na2vs0mg"},{"bike_id":"be8ecc47-b3b1-4e9a-89ec-d105b0b19936","system_id":"levelo_inurba_marseille","lat":43.323655,"lon":5.388798,"is_reserved":false,"is_disabled":false,"rental_uris":{"android":"levelo://app?vid=be8ecc47-b3b1-4e9a-89ec-d105b0b19936","ios":"levelo://app?vid=be8ecc47-b3b1-4e9a-89ec-d105b0b19936"},"vehicle_type_id":"4","last_reported":1771197356,"current_range_meters":39200,"station_id":"ce4bhqp2rcd13ifvqhog","pricing_plan_id":"cebpf4jnsgd1na2vs0mg"},{"bike_id":"2f797b8f-6a1b-4134-b3da-d67715f7aa4a","system_id":"levelo_inurba_marseille","lat":43.23956,"lon":5.36628,"is_reserved":false,"is_disabled":false,"rental_uris":{"android":"levelo://app?vid=2f797b8f-6a1b-4134-b3da-d67715f7aa4a","ios":"levelo://app?vid=2f797b8f-6a1b-4134-b3da-d67715f7aa4a"},"vehicle_type_id":"4","last_reported":1771197356,"current_range_meters":22400,"station_id":"ce4bhi12rcd13ifvqfp0","pricing_plan_id":"cebpf4jnsgd1na2vs0mg"},{"bike_id":"bdf72b80-d7a9-4303-9f7f-d62bd85c9012","system_id":"levelo_inurba_marseille","lat":43.30579,"lon":5.36589,"is_reserved":false,"is_disabled":false,"rental_uris":{"android":"levelo://app?vid=bdf72b80-d7a9-4303-9f7f-d62bd85c9012","ios":"levelo://app?vid=bdf72b80-d7a9-4303-9f7f-d62bd85c9012"},"vehicle_type_id":"4","last_reported":1771197356,"current_range_meters":39200,"station_id":"ce4bgrp2rcd13ifvqc9g","pricing_plan_id":"cebpf4jnsgd1na2vs0mg"},{"bike_id":"2ee2501b-b2dd-4e3f-bff3-a91ee1254efa","system_id":"levelo_inurba_marseille","lat":43.28912,"lon":5.39622,"is_reserved":false,"is_disabled":true,"rental_uris":{"android":"levelo://app?vid=2ee2501b-b2dd-4e3f-bff3-a91ee1254efa","ios":"levelo://app?vid=2ee2501b-b2dd-4e3f-bff3-a91ee1254efa"},"vehicle_type_id":"4","last_reported":1771197356,"current_range_meters":18800,"station_id":"ce4bh3h2rcd13ifvqdn0","pricing_plan_id":"cebpf4jnsgd1na2vs0mg"},{"bike_id":"e28b54de-af57-425f-96ed-b1caac28166f","system_id":"levelo_inurba_marseille","lat":43.33151,"lon":5.37695,"is_reserved":false,"is_disabled":false,"rental_uris":{"android":"levelo://app?vid=e28b54de-af57-425f-96ed-b1caac28166f","ios":"levelo://app?vid=e28b54de-af57-425f-96ed-b1caac28166f"},"vehicle_type_id":"4","last_reported":1771197356,"current_range_meters":33200,"station_id":"st_d46cu089ee8s73dldbu0","pricing_plan_id":"cebpf4jnsgd1na2vs0mg"},{"bike_id":"ed8b1808-34db-4cb5-9b6a-04cdb8e399f5","system_id":"levelo_inurba_marseille","lat":43.30154,"lon":5.38028,"is_reserved":false,"is_disabled":true,"rental_uris":{"android":"levelo://app?vid=ed8b1808-34db-4cb5-9b6a-04cdb8e399f5","ios":"levelo://app?vid=ed8b1808-34db-4cb5-9b6a-04cdb8e399f5"},"vehicle_type_id":"4","last_reported":1771197356,"current_range_meters":19200,"station_id":"ce4bgjp2rcd13ifvqbh0","pricing_plan_id":"cebpf4jnsgd1na2vs0mg"},{"bike_id":"d43115ad-a729-49ce-89e0-975a929f6aa6","system_id":"levelo_inurba_marseille","lat":43.248067,"lon":5.374551,"is_reserved":false,"is_disabled":false,"rental_uris":{"android":"levelo://app?vid=d43115ad-a729-49ce-89e0-975a929f6aa6","ios":"levelo://app?vid=d43115ad-a729-49ce-89e0-975a929f6aa6"},"vehicle_type_id":"4","last_reported":1771197356,"current_range_meters":39200,"station_id":"ce4bhgh2rcd13ifvqfb0","pricing_plan_id":"cebpf4jnsgd1na2vs0mg"},{"bike_id":"f9091509-8dd9-43bc-9ed0-0ab9dbc4420f","system_id":"levelo_inurba_marseille","lat":43.26542,"lon":5.37299,"is_reserved":false,"is_disabled":false,"rental_uris":{"android":"levelo://app?vid=f9091509-8dd9-43bc-9ed0-0ab9dbc4420f","ios":"levelo://app?vid=f9091509-8dd9-43bc-9ed0-0ab9dbc4420f"},"vehicle_type_id":"4","last_reported":1771197356,"current_range_meters":3600,"station_id":"ce4bhg12rcd13ifvqf70","pricing_plan_id":"cebpf4jnsgd1na2vs0mg"},{"bike_id":"b829afcc-9b72-4b0e-9514-8b2754aea185","system_id":"levelo_inurba_marseille","lat":43.29394,"lon":5.38352,"is_reserved":false,"is_disabled":true,"rental_uris":{"android":"levelo://app?vid=b829afcc-9b72-4b0e-9514-8b2754aea185","ios":"levelo://app?vid=b829afcc-9b72-4b0e-9514-8b2754aea185"},"vehicle_type_id":"4","last_reported":1771197356,"current_range_meters":13600,"station_id":"","pricing_plan_id":"cebpf4jnsgd1na2vs0mg"},{"bike_id":"42dd80ef-92f5-4809-b9e9-eb63cba0612c","system_id":"levelo_inurba_marseille","lat":43.27584,"lon":5.36142,"is_reserved":false,"is_disabled":false,"rental_uris":{"android":"levelo://app?vid=42dd80ef-92f5-4809-b9e9-eb63cba0612c","ios":"levelo://app?vid=42dd80ef-92f5-4809-b9e9-eb63cba0612c"},"vehicle_type_id":"4","last_reported":1771197356,"current_range_meters":19200,"station_id":"ce4bgj92rcd13ifvqbe0","pricing_plan_id":"cebpf4jnsgd1na2vs0mg"},{"bike_id":"2a5ef9b8-1859-4a82-8031-3c1de4378080","system_id":"levelo_inurba_marseille","lat":43.304207,"lon":5.412811,"is_reserved":false,"is_disabled":false,"rental_uris":{"android":"levelo://app?vid=2a5ef9b8-1859-4a82-8031-3c1de4378080","ios":"levelo://app?vid=2a5ef9b8-1859-4a82-8031-3c1de4378080"},"vehicle_type_id":"4","last_reported":1771197356,"current_range_meters":15200,"station_id":"ce4bhop2rcd13ifvqh8g","pricing_plan_id":"cebpf4jnsgd1na2vs0mg"},{"bike_id":"4c72cba5-fae3-469f-be25-30de407f6291","system_id":"levelo_inurba_marseille","lat":43.31169,"lon":5.38709,"is_reserved":false,"is_disabled":false,"rental_uris":{"android":"levelo://app?vid=4c72cba5-fae3-469f-be25-30de407f6291","ios":"levelo://app?vid=4c72cba5-fae3-469f-be25-30de407f6291"},"vehicle_type_id":"4","last_reported":1771197356,"current_range_meters":24000,"station_id":"ce4bgv12rcd13ifvqcp0","pricing_plan_id":"cebpf4jnsgd1na2vs0mg"},{"bike_id":"d6d5d12a-80c0-4acd-bbde-41f77c6e52d4","system_id":"levelo_inurba_marseille","lat":43.27203,"lon":5.39184,"is_reserved":false,"is_disabled":true,"rental_uris":{"android":"levelo://app?vid=d6d5d12a-80c0-4acd-bbde-41f77c6e52d4","ios":"levelo://app?vid=d6d5d12a-80c0-4acd-bbde-41f77c6e52d4"},"vehicle_type_id":"4","last_reported":1771197356,"current_range_meters":12800,"station_id":"ce4bhhp2rcd13ifvqfm0","pricing_plan_id":"cebpf4jnsgd1na2vs0mg"},{"bike_id":"fcdc8164-8974-4034-a4c9-bef73e1a1a6f","system_id":"levelo_inurba_marseille","lat":43.28671,"lon":5.38669,"is_reserved":false,"is_disabled":true,"rental_uris":{"android":"levelo://app?vid=fcdc8164-8974-4034-a4c9-bef73e1a1a6f","ios":"levelo://app?vid=fcdc8164-8974-4034-a4c9-bef73e1a1a6f"},"vehicle_type_id":"4","last_reported":1771197356,"current_range_meters":33200,"station_id":"ce4bh492rcd13ifvqdug","pricing_plan_id":"cebpf4jnsgd1na2vs0mg"},{"bike_id":"fcee6df9-8c9c-45c6-8633-7f15f28e3024","system_id":"levelo_inurba_marseille","lat":43.29681,"lon":5.40426,"is_reserved":false,"is_disabled":false,"rental_uris":{"android":"levelo://app?vid=fcee6df9-8c9c-45c6-8633-7f15f28e3024","ios":"levelo://app?vid=fcee6df9-8c9c-45c6-8633-7f15f28e3024"},"vehicle_type_id":"4","last_reported":1771197356,"current_range_meters":39200,"station_id":"","pricing_plan_id":"cebpf4jnsgd1na2vs0mg"},{"bike_id":"6116c3c6-7e2f-46d2-b983-6c1d98a39660","system_id":"levelo_inurba_marseille","lat":43.31113,"lon":5.37749,"is_reserved":false,"is_disabled":false,"rental_uris":{"android":"levelo://app?vid=6116c3c6-7e2f-46d2-b983-6c1d98a39660","ios":"levelo://app?vid=6116c3c6-7e2f-46d2-b983-6c1d98a39660"},"vehicle_type_id":"4","last_reported":1771197356,"current_range_meters":28800,"station_id":"ce4bgt92rcd13ifvqcg0","pricing_plan_id":"cebpf4jnsgd1na2vs0mg"},{"bike_id":"460264f3-8bc6-4c77-beaf-ea8534482f84","system_id":"levelo_inurba_marseille","lat":43.24935,"lon":5.4049,"is_reserved":false,"is_disabled":false,"rental_uris":{"android":"levelo://app?vid=460264f3-8bc6-4c77-beaf-ea8534482f84","ios":"levelo://app?vid=460264f3-8bc6-4c77-beaf-ea8534482f84"},"vehicle_type_id":"4","last_reported":1771197356,"current_range_meters":30400,"station_id":"st_d2ngiaodas8pm72gd1h0","pricing_plan_id":"cebpf4jnsgd1na2vs0mg"},{"bike_id":"bfd89baa-fbc2-45c5-8b74-3d61cb004f40","system_id":"levelo_inurba_marseille","lat":43.23808,"lon":5.36622,"is_reserved":false,"is_disabled":false,"rental_uris":{"android":"levelo://app?vid=bfd89baa-fbc2-45c5-8b74-3d61cb004f40","ios":"levelo://app?vid=bfd89baa-fbc2-45c5-8b74-3d61cb004f40"},"vehicle_type_id":"4","last_reported":1771197356,"current_range_meters":35600,"station_id":"ce4bhi12rcd13ifvqfp0","pricing_plan_id":"cebpf4jnsgd1na2vs0mg"},{"bike_id":"1e61c11e-bb48-462f-95ea-c1bf1ce34a30","system_id":"levelo_inurba_marseille","lat":43.29596,"lon":5.37515,"is_reserved":false,"is_disabled":true,"rental_uris":{"android":"levelo://app?vid=1e61c11e-bb48-462f-95ea-c1bf1ce34a30","ios":"levelo://app?vid=1e61c11e-bb48-462f-95ea-c1bf1ce34a30"},"vehicle_type_id":"4","last_reported":1771197356,"current_range_meters":38000,"station_id":"ce4bgh92rcd13ifvqb50","pricing_plan_id":"cebpf4jnsgd1na2vs0mg"},{"bike_id":"8718598a-1081-46c7-a280-9095999de0bb","system_id":"levelo_inurba_marseille","lat":43.28703,"lon":5.3739,"is_reserved":false,"is_disabled":false,"rental_uris":{"android":"levelo://app?vid=8718598a-1081-46c7-a280-9095999de0bb","ios":"levelo://app?vid=8718598a-1081-46c7-a280-9095999de0bb"},"vehicle_type_id":"4","last_reported":1771197356,"current_range_meters":16000,"station_id":"ce4bh3p2rcd13ifvqdq0","pricing_plan_id":"cebpf4jnsgd1na2vs0mg"},{"bike_id":"21477e6a-0fbf-48eb-9e8a-44289a574c26","system_id":"levelo_inurba_marseille","lat":43.28941,"lon":5.36631,"is_reserved":false,"is_disabled":true,"rental_uris":{"android":"levelo://app?vid=21477e6a-0fbf-48eb-9e8a-44289a574c26","ios":"levelo://app?vid=21477e6a-0fbf-48eb-9e8a-44289a574c26"},"vehicle_type_id":"4","last_reported":1771197356,"current_range_meters":28000,"station_id":"ce4bhap2rcd13ifvqek0","pricing_plan_id":"cebpf4jnsgd1na2vs0mg"},{"bike_id":"79fe0ffc-50eb-4d4d-9b5d-ccf40f43cda2","system_id":"levelo_inurba_marseille","lat":43.29975,"lon":5.38466,"is_reserved":false,"is_disabled":true,"rental_uris":{"android":"levelo://app?vid=79fe0ffc-50eb-4d4d-9b5d-ccf40f43cda2","ios":"levelo://app?vid=79fe0ffc-50eb-4d4d-9b5d-ccf40f43cda2"},"vehicle_type_id":"4","last_reported":1771197356,"current_range_meters":13600,"station_id":"ce4bgj92rcd13ifvqbd0","pricing_plan_id":"cebpf4jnsgd1na2vs0mg"},{"bike_id":"0e48dc1c-9aa4-42a2-b145-dfa1d6073771","system_id":"levelo_inurba_marseille","lat":43.27208,"lon":5.39181,"is_reserved":false,"is_disabled":true,"rental_uris":{"android":"levelo://app?vid=0e48dc1c-9aa4-42a2-b145-dfa1d6073771","ios":"levelo://app?vid=0e48dc1c-9aa4-42a2-b145-dfa1d6073771"},"vehicle_type_id":"4","last_reported":1771197356,"current_range_meters":30400,"station_id":"ce4bhdp2rcd13ifvqf20","pricing_plan_id":"cebpf4jnsgd1na2vs0mg"},{"bike_id":"eb1d8e0c-5780-49ee-972d-40f80953fa65","system_id":"levelo_inurba_marseille","lat":43.31262,"lon":5.36871,"is_reserved":false,"is_disabled":false,"rental_uris":{"android":"levelo://app?vid=eb1d8e0c-5780-49ee-972d-40f80953fa65","ios":"levelo://app?vid=eb1d8e0c-5780-49ee-972d-40f80953fa65"},"vehicle_type_id":"4","last_reported":1771197356,"current_range_meters":38000,"station_id":"ce4bgl92rcd13ifvqbq0","pricing_plan_id":"cebpf4jnsgd1na2vs0mg"},{"bike_id":"8dbcea64-9f6f-4a45-955d-20ac996cb21e","system_id":"levelo_inurba_marseille","lat":43.29171,"lon":5.37148,"is_reserved":false,"is_disabled":false,"rental_uris":{"android":"levelo://app?vid=8dbcea64-9f6f-4a45-955d-20ac996cb21e","ios":"levelo://app?vid=8dbcea64-9f6f-4a45-955d-20ac996cb21e"},"vehicle_type_id":"4","last_reported":1771197356,"current_range_meters":38800,"station_id":"ce4bha92rcd13ifvqeh0","pricing_plan_id":"cebpf4jnsgd1na2vs0mg"},{"bike_id":"5ebe73de-2cf7-4bc4-9047-e5658e66ceb9","system_id":"levelo_inurba_marseille","lat":43.2416,"lon":5.3641,"is_reserved":false,"is_disabled":true,"rental_uris":{"android":"levelo://app?vid=5ebe73de-2cf7-4bc4-9047-e5658e66ceb9","ios":"levelo://app?vid=5ebe73de-2cf7-4bc4-9047-e5658e66ceb9"},"vehicle_type_id":"4","last_reported":1771197356,"current_range_meters":14000,"station_id":"cpo36qri1sfpv3e86is0","pricing_plan_id":"cebpf4jnsgd1na2vs0mg"},{"bike_id":"183bbebf-a6f0-4fd8-aed0-aca122c2064d","system_id":"levelo_inurba_marseille","lat":43.29723,"lon":5.3705,"is_reserved":false,"is_disabled":false,"rental_uris":{"android":"levelo://app?vid=183bbebf-a6f0-4fd8-aed0-aca122c2064d","ios":"levelo://app?vid=183bbebf-a6f0-4fd8-aed0-aca122c2064d"},"vehicle_type_id":"4","last_reported":1771197356,"current_range_meters":34800,"station_id":"ce4bgop2rcd13ifvqc1g","pricing_plan_id":"cebpf4jnsgd1na2vs0mg"},{"bike_id":"5c1439a3-4b4f-419f-9804-6795c0de17fa","system_id":"levelo_inurba_marseille","lat":43.27422,"lon":5.39415,"is_reserved":false,"is_disabled":false,"rental_uris":{"android":"levelo://app?vid=5c1439a3-4b4f-419f-9804-6795c0de17fa","ios":"levelo://app?vid=5c1439a3-4b4f-419f-9804-6795c0de17fa"},"vehicle_type_id":"4","last_reported":1771197356,"current_range_meters":37600,"station_id":"ce4bhdp2rcd13ifvqf20","pricing_plan_id":"cebpf4jnsgd1na2vs0mg"},{"bike_id":"ed8b5fe8-1920-4dfd-97af-072031019259","system_id":"levelo_inurba_marseille","lat":43.26363,"lon":5.41021,"is_reserved":false,"is_disabled":false,"rental_uris":{"android":"levelo://app?vid=ed8b5fe8-1920-4dfd-97af-072031019259","ios":"levelo://app?vid=ed8b5fe8-1920-4dfd-97af-072031019259"},"vehicle_type_id":"4","last_reported":1771197356,"current_range_meters":32000,"station_id":"st_d4e5ca6na9uc73bfl5fg","pricing_plan_id":"cebpf4jnsgd1na2vs0mg"},{"bike_id":"90fbdb23-dd88-48cc-b007-d8ab22a05e67","system_id":"levelo_inurba_marseille","lat":43.28928,"lon":5.38392,"is_reserved":false,"is_disabled":false,"rental_uris":{"android":"levelo://app?vid=90fbdb23-dd88-48cc-b007-d8ab22a05e67","ios":"levelo://app?vid=90fbdb23-dd88-48cc-b007-d8ab22a05e67"},"vehicle_type_id":"4","last_reported":1771197356,"current_range_meters":18800,"station_id":"ce4bh612rcd13ifvqe6g","pricing_plan_id":"cebpf4jnsgd1na2vs0mg"},{"bike_id":"c84892b3-eb4b-4559-98db-0e8ff16c6ff1","system_id":"levelo_inurba_marseille","lat":43.32649,"lon":5.40992,"is_reserved":false,"is_disabled":false,"rental_uris":{"android":"levelo://app?vid=c84892b3-eb4b-4559-98db-0e8ff16c6ff1","ios":"levelo://app?vid=c84892b3-eb4b-4559-98db-0e8ff16c6ff1"},"vehicle_type_id":"4","last_reported":1771197356,"current_range_meters":37600,"station_id":"ce4bhpp2rcd13ifvqhgg","pricing_plan_id":"cebpf4jnsgd1na2vs0mg"},{"bike_id":"d97604ce-364c-459d-8875-8f54c335d253","system_id":"levelo_inurba_marseille","lat":43.24689,"lon":5.41718,"is_reserved":false,"is_disabled":false,"rental_uris":{"android":"levelo://app?vid=d97604ce-364c-459d-8875-8f54c335d253","ios":"levelo://app?vid=d97604ce-364c-459d-8875-8f54c335d253"},"vehicle_type_id":"4","last_reported":1771197356,"current_range_meters":7200,"station_id":"","pricing_plan_id":"cebpf4jnsgd1na2vs0mg"},{"bike_id":"79a7e591-1b27-4aab-b9f7-840e2732a2bc","system_id":"levelo_inurba_marseille","lat":43.31583,"lon":5.40402,"is_reserved":false,"is_disabled":false,"rental_uris":{"android":"levelo://app?vid=79a7e591-1b27-4aab-b9f7-840e2732a2bc","ios":"levelo://app?vid=79a7e591-1b27-4aab-b9f7-840e2732a2bc"},"vehicle_type_id":"4","last_reported":1771197356,"current_range_meters":2800,"station_id":"","pricing_plan_id":"cebpf4jnsgd1na2vs0mg"},{"bike_id":"a575f2d1-d424-40d7-a2a0-65b91b01499f","system_id":"levelo_inurba_marseille","lat":43.29514,"lon":5.39404,"is_reserved":false,"is_disabled":false,"rental_uris":{"android":"levelo://app?vid=a575f2d1-d424-40d7-a2a0-65b91b01499f","ios":"levelo://app?vid=a575f2d1-d424-40d7-a2a0-65b91b01499f"},"vehicle_type_id":"4","last_reported":1771197356,"current_range_meters":20000,"station_id":"ce4bh292rcd13ifvqdf0","pricing_plan_id":"cebpf4jnsgd1na2vs0mg"},{"bike_id":"3bbfca29-c9f7-4b28-a8c8-0f31f45dfbd9","system_id":"levelo_inurba_marseille","lat":43.29781,"lon":5.3935,"is_reserved":false,"is_disabled":false,"rental_uris":{"android":"levelo://app?vid=3bbfca29-c9f7-4b28-a8c8-0f31f45dfbd9","ios":"levelo://app?vid=3bbfca29-c9f7-4b28-a8c8-0f31f45dfbd9"},"vehicle_type_id":"4","last_reported":1771197356,"current_range_meters":30800,"station_id":"chh1huq6cuj3fo74tm60","pricing_plan_id":"cebpf4jnsgd1na2vs0mg"},{"bike_id":"6ec9b5ec-8430-4b82-bad3-74211bbb0188","system_id":"levelo_inurba_marseille","lat":43.28458,"lon":5.38473,"is_reserved":false,"is_disabled":false,"rental_uris":{"android":"levelo://app?vid=6ec9b5ec-8430-4b82-bad3-74211bbb0188","ios":"levelo://app?vid=6ec9b5ec-8430-4b82-bad3-74211bbb0188"},"vehicle_type_id":"4","last_reported":1771197356,"current_range_meters":22800,"station_id":"","pricing_plan_id":"cebpf4jnsgd1na2vs0mg"},{"bike_id":"e4d4c284-28ad-482b-9ff4-d0399390b2a0","system_id":"levelo_inurba_marseille","lat":43.30201,"lon":5.36612,"is_reserved":false,"is_disabled":false,"rental_uris":{"android":"levelo://app?vid=e4d4c284-28ad-482b-9ff4-d0399390b2a0","ios":"levelo://app?vid=e4d4c284-28ad-482b-9ff4-d0399390b2a0"},"vehicle_type_id":"4","last_reported":1771197356,"current_range_meters":39200,"station_id":"ce4bgrh2rcd13ifvqc8g","pricing_plan_id":"cebpf4jnsgd1na2vs0mg"},{"bike_id":"125e011b-4a09-46ca-94c4-958704b75201","system_id":"levelo_inurba_marseille","lat":43.24057,"lon":5.37729,"is_reserved":false,"is_disabled":false,"rental_uris":{"android":"levelo://app?vid=125e011b-4a09-46ca-94c4-958704b75201","ios":"levelo://app?vid=125e011b-4a09-46ca-94c4-958704b75201"},"vehicle_type_id":"4","last_reported":1771197356,"current_range_meters":38000,"station_id":"ce4bhnp2rcd13ifvqgvg","pricing_plan_id":"cebpf4jnsgd1na2vs0mg"},{"bike_id":"7e1f0635-eba2-4277-aaed-97dad1711a86","system_id":"levelo_inurba_marseille","lat":43.30845,"lon":5.37272,"is_reserved":false,"is_disabled":false,"rental_uris":{"android":"levelo://app?vid=7e1f0635-eba2-4277-aaed-97dad1711a86","ios":"levelo://app?vid=7e1f0635-eba2-4277-aaed-97dad1711a86"},"vehicle_type_id":"4","last_reported":1771197356,"current_range_meters":38400,"station_id":"ce4bguh2rcd13ifvqckg","pricing_plan_id":"cebpf4jnsgd1na2vs0mg"},{"bike_id":"b7fcb2da-5243-440b-926b-4edc89af4b76","system_id":"levelo_inurba_marseille","lat":43.27998,"lon":5.40026,"is_reserved":false,"is_disabled":false,"rental_uris":{"android":"levelo://app?vid=b7fcb2da-5243-440b-926b-4edc89af4b76","ios":"levelo://app?vid=b7fcb2da-5243-440b-926b-4edc89af4b76"},"vehicle_type_id":"4","last_reported":1771197356,"current_range_meters":21600,"station_id":"ce4bho92rcd13ifvqh4g","pricing_plan_id":"cebpf4jnsgd1na2vs0mg"},{"bike_id":"de23c09b-999d-4731-91c0-faf2e4461159","system_id":"levelo_inurba_marseille","lat":43.29182,"lon":5.36088,"is_reserved":false,"is_disabled":false,"rental_uris":{"android":"levelo://app?vid=de23c09b-999d-4731-91c0-faf2e4461159","ios":"levelo://app?vid=de23c09b-999d-4731-91c0-faf2e4461159"},"vehicle_type_id":"4","last_reported":1771197356,"current_range_meters":4800,"station_id":"ce4bhbh2rcd13ifvqeqg","pricing_plan_id":"cebpf4jnsgd1na2vs0mg"},{"bike_id":"d22f4ee9-1e35-4339-bd68-5bd716d18ca6","system_id":"levelo_inurba_marseille","lat":43.31183,"lon":5.36919,"is_reserved":false,"is_disabled":false,"rental_uris":{"android":"levelo://app?vid=d22f4ee9-1e35-4339-bd68-5bd716d18ca6","ios":"levelo://app?vid=d22f4ee9-1e35-4339-bd68-5bd716d18ca6"},"vehicle_type_id":"4","last_reported":1771197356,"current_range_meters":17600,"station_id":"ce4bgl92rcd13ifvqbq0","pricing_plan_id":"cebpf4jnsgd1na2vs0mg"},{"bike_id":"0cc2918b-b433-4ce0-97e8-2fc8fa58f178","system_id":"levelo_inurba_marseille","lat":43.29533,"lon":5.375,"is_reserved":false,"is_disabled":false,"rental_uris":{"android":"levelo://app?vid=0cc2918b-b433-4ce0-97e8-2fc8fa58f178","ios":"levelo://app?vid=0cc2918b-b433-4ce0-97e8-2fc8fa58f178"},"vehicle_type_id":"4","last_reported":1771197356,"current_range_meters":34800,"station_id":"ce4bgkp2rcd13ifvqbmg","pricing_plan_id":"cebpf4jnsgd1na2vs0mg"},{"bike_id":"c1c8bc9a-9539-4baf-b255-98d41b8538e3","system_id":"levelo_inurba_marseille","lat":43.29209,"lon":5.3603,"is_reserved":false,"is_disabled":false,"rental_uris":{"android":"levelo://app?vid=c1c8bc9a-9539-4baf-b255-98d41b8538e3","ios":"levelo://app?vid=c1c8bc9a-9539-4baf-b255-98d41b8538e3"},"vehicle_type_id":"4","last_reported":1771197356,"current_range_meters":39200,"station_id":"ce4bhbh2rcd13ifvqeqg","pricing_plan_id":"cebpf4jnsgd1na2vs0mg"},{"bike_id":"082d7188-6986-4402-9f74-688922c9aa84","system_id":"levelo_inurba_marseille","lat":43.25102,"lon":5.40326,"is_reserved":false,"is_disabled":true,"rental_uris":{"android":"levelo://app?vid=082d7188-6986-4402-9f74-688922c9aa84","ios":"levelo://app?vid=082d7188-6986-4402-9f74-688922c9aa84"},"vehicle_type_id":"4","last_reported":1771197356,"current_range_meters":36400,"station_id":"ce4bhlh2rcd13ifvqgig","pricing_plan_id":"cebpf4jnsgd1na2vs0mg"},{"bike_id":"7cdae2e1-5306-459b-96ab-2c3aaae39e37","system_id":"levelo_inurba_marseille","lat":43.25005,"lon":5.38933,"is_reserved":false,"is_disabled":false,"rental_uris":{"android":"levelo://app?vid=7cdae2e1-5306-459b-96ab-2c3aaae39e37","ios":"levelo://app?vid=7cdae2e1-5306-459b-96ab-2c3aaae39e37"},"vehicle_type_id":"4","last_reported":1771197356,"current_range_meters":32800,"station_id":"ce4bhgp2rcd13ifvqfd0","pricing_plan_id":"cebpf4jnsgd1na2vs0mg"},{"bike_id":"9664a5c4-41bd-49a0-bca7-ccecab569b6a","system_id":"levelo_inurba_marseille","lat":43.32041,"lon":5.4153,"is_reserved":false,"is_disabled":false,"rental_uris":{"android":"levelo://app?vid=9664a5c4-41bd-49a0-bca7-ccecab569b6a","ios":"levelo://app?vid=9664a5c4-41bd-49a0-bca7-ccecab569b6a"},"vehicle_type_id":"4","last_reported":1771197356,"current_range_meters":38400,"station_id":"ce4bhq92rcd13ifvqhkg","pricing_plan_id":"cebpf4jnsgd1na2vs0mg"},{"bike_id":"30de403d-aee7-4467-9e50-3761f2a5df5e","system_id":"levelo_inurba_marseille","lat":43.28453,"lon":5.39184,"is_reserved":false,"is_disabled":true,"rental_uris":{"android":"levelo://app?vid=30de403d-aee7-4467-9e50-3761f2a5df5e","ios":"levelo://app?vid=30de403d-aee7-4467-9e50-3761f2a5df5e"},"vehicle_type_id":"4","last_reported":1771197356,"current_range_meters":38000,"station_id":"ce4bhoh2rcd13ifvqh5g","pricing_plan_id":"cebpf4jnsgd1na2vs0mg"},{"bike_id":"0664bc9f-767f-467e-a2c8-c71096fcbc2b","system_id":"levelo_inurba_marseille","lat":43.30497,"lon":5.36563,"is_reserved":false,"is_disabled":false,"rental_uris":{"android":"levelo://app?vid=0664bc9f-767f-467e-a2c8-c71096fcbc2b","ios":"levelo://app?vid=0664bc9f-767f-467e-a2c8-c71096fcbc2b"},"vehicle_type_id":"4","last_reported":1771197356,"current_range_meters":39200,"station_id":"ce4bgs12rcd13ifvqcag","pricing_plan_id":"cebpf4jnsgd1na2vs0mg"},{"bike_id":"06ca1e50-0c57-4308-ab33-37f48737feed","system_id":"levelo_inurba_marseille","lat":43.3317,"lon":5.37717,"is_reserved":false,"is_disabled":false,"rental_uris":{"android":"levelo://app?vid=06ca1e50-0c57-4308-ab33-37f48737feed","ios":"levelo://app?vid=06ca1e50-0c57-4308-ab33-37f48737feed"},"vehicle_type_id":"4","last_reported":1771197356,"current_range_meters":17200,"station_id":"st_d46cu089ee8s73dldbu0","pricing_plan_id":"cebpf4jnsgd1na2vs0mg"},{"bike_id":"a40147a5-bbf0-4381-a348-9cea87200b78","system_id":"levelo_inurba_marseille","lat":43.26007,"lon":5.39387,"is_reserved":false,"is_disabled":false,"rental_uris":{"android":"levelo://app?vid=a40147a5-bbf0-4381-a348-9cea87200b78","ios":"levelo://app?vid=a40147a5-bbf0-4381-a348-9cea87200b78"},"vehicle_type_id":"4","last_reported":1771197356,"current_range_meters":13600,"station_id":"ce4bhh92rcd13ifvqfj0","pricing_plan_id":"cebpf4jnsgd1na2vs0mg"},{"bike_id":"bae1dbdd-eec7-44bf-9469-fb241658fdbb","system_id":"levelo_inurba_marseille","lat":43.28958,"lon":5.36606,"is_reserved":false,"is_disabled":false,"rental_uris":{"android":"levelo://app?vid=bae1dbdd-eec7-44bf-9469-fb241658fdbb","ios":"levelo://app?vid=bae1dbdd-eec7-44bf-9469-fb241658fdbb"},"vehicle_type_id":"4","last_reported":1771197356,"current_range_meters":22800,"station_id":"","pricing_plan_id":"cebpf4jnsgd1na2vs0mg"},{"bike_id":"abb5386c-aa85-45f1-b3a9-55f4ea4e4b5b","system_id":"levelo_inurba_marseille","lat":43.24958,"lon":5.40452,"is_reserved":false,"is_disabled":true,"rental_uris":{"android":"levelo://app?vid=abb5386c-aa85-45f1-b3a9-55f4ea4e4b5b","ios":"levelo://app?vid=abb5386c-aa85-45f1-b3a9-55f4ea4e4b5b"},"vehicle_type_id":"4","last_reported":1771197356,"current_range_meters":32400,"station_id":"st_d2ngiaodas8pm72gd1h0","pricing_plan_id":"cebpf4jnsgd1na2vs0mg"},{"bike_id":"ed5548bc-62cc-4d35-8f24-dd46dc5c1ee5","system_id":"levelo_inurba_marseille","lat":43.290413,"lon":5.359094,"is_reserved":false,"is_disabled":false,"rental_uris":{"android":"levelo://app?vid=ed5548bc-62cc-4d35-8f24-dd46dc5c1ee5","ios":"levelo://app?vid=ed5548bc-62cc-4d35-8f24-dd46dc5c1ee5"},"vehicle_type_id":"4","last_reported":1771197356,"current_range_meters":39200,"station_id":"ce4bha92rcd13ifvqeg0","pricing_plan_id":"cebpf4jnsgd1na2vs0mg"},{"bike_id":"579af26e-548a-4f86-9c31-c74739ec3a56","system_id":"levelo_inurba_marseille","lat":43.29805,"lon":5.37058,"is_reserved":false,"is_disabled":false,"rental_uris":{"android":"levelo://app?vid=579af26e-548a-4f86-9c31-c74739ec3a56","ios":"levelo://app?vid=579af26e-548a-4f86-9c31-c74739ec3a56"},"vehicle_type_id":"4","last_reported":1771197356,"current_range_meters":26000,"station_id":"ce4bgop2rcd13ifvqc1g","pricing_plan_id":"cebpf4jnsgd1na2vs0mg"},{"bike_id":"faeaa62e-5678-49f6-addf-2b34cf6bd45c","system_id":"levelo_inurba_marseille","lat":43.312095,"lon":5.368822,"is_reserved":false,"is_disabled":true,"rental_uris":{"android":"levelo://app?vid=faeaa62e-5678-49f6-addf-2b34cf6bd45c","ios":"levelo://app?vid=faeaa62e-5678-49f6-addf-2b34cf6bd45c"},"vehicle_type_id":"4","last_reported":1771197356,"current_range_meters":0,"station_id":"ce4bgl92rcd13ifvqbq0","pricing_plan_id":"cebpf4jnsgd1na2vs0mg"},{"bike_id":"242f7311-d2cc-4df7-a0f0-7c6d245cdc25","system_id":"levelo_inurba_marseille","lat":43.32357,"lon":5.36734,"is_reserved":false,"is_disabled":false,"rental_uris":{"android":"levelo://app?vid=242f7311-d2cc-4df7-a0f0-7c6d245cdc25","ios":"levelo://app?vid=242f7311-d2cc-4df7-a0f0-7c6d245cdc25"},"vehicle_type_id":"4","last_reported":1771197356,"current_range_meters":18800,"station_id":"ce4bhsh2rcd13ifvqi2g","pricing_plan_id":"cebpf4jnsgd1na2vs0mg"},{"bike_id":"1c552d2a-5637-49d5-bd03-c19868d9f5f0","system_id":"levelo_inurba_marseille","lat":43.27502,"lon":5.42445,"is_reserved":false,"is_disabled":false,"rental_uris":{"android":"levelo://app?vid=1c552d2a-5637-49d5-bd03-c19868d9f5f0","ios":"levelo://app?vid=1c552d2a-5637-49d5-bd03-c19868d9f5f0"},"vehicle_type_id":"4","last_reported":1771197356,"current_range_meters":12000,"station_id":"ce4bhn92rcd13ifvqgrg","pricing_plan_id":"cebpf4jnsgd1na2vs0mg"},{"bike_id":"1c376293-36a4-4bd9-a121-a0f5ce367cc0","system_id":"levelo_inurba_marseille","lat":43.29477,"lon":5.38161,"is_reserved":false,"is_disabled":true,"rental_uris":{"android":"levelo://app?vid=1c376293-36a4-4bd9-a121-a0f5ce367cc0","ios":"levelo://app?vid=1c376293-36a4-4bd9-a121-a0f5ce367cc0"},"vehicle_type_id":"4","last_reported":1771197356,"current_range_meters":0,"station_id":"ce4bgl12rcd13ifvqbo0","pricing_plan_id":"cebpf4jnsgd1na2vs0mg"},{"bike_id":"97ebd584-accc-4ff9-bdb7-a1f9903c0787","system_id":"levelo_inurba_marseille","lat":43.29236,"lon":5.36067,"is_reserved":false,"is_disabled":false,"rental_uris":{"android":"levelo://app?vid=97ebd584-accc-4ff9-bdb7-a1f9903c0787","ios":"levelo://app?vid=97ebd584-accc-4ff9-bdb7-a1f9903c0787"},"vehicle_type_id":"4","last_reported":1771197356,"current_range_meters":39200,"station_id":"ce4bhbh2rcd13ifvqeqg","pricing_plan_id":"cebpf4jnsgd1na2vs0mg"},{"bike_id":"32b57a59-4a3e-409c-83e2-3bcac12a2f19","system_id":"levelo_inurba_marseille","lat":43.30468,"lon":5.3969,"is_reserved":false,"is_disabled":false,"rental_uris":{"android":"levelo://app?vid=32b57a59-4a3e-409c-83e2-3bcac12a2f19","ios":"levelo://app?vid=32b57a59-4a3e-409c-83e2-3bcac12a2f19"},"vehicle_type_id":"4","last_reported":1771197356,"current_range_meters":38400,"station_id":"ce4bh092rcd13ifvqd20","pricing_plan_id":"cebpf4jnsgd1na2vs0mg"},{"bike_id":"958633c8-fb89-4946-a10b-95dd0409fed7","system_id":"levelo_inurba_marseille","lat":43.25831,"lon":5.39427,"is_reserved":false,"is_disabled":false,"rental_uris":{"android":"levelo://app?vid=958633c8-fb89-4946-a10b-95dd0409fed7","ios":"levelo://app?vid=958633c8-fb89-4946-a10b-95dd0409fed7"},"vehicle_type_id":"4","last_reported":1771197356,"current_range_meters":35200,"station_id":"ce4bhip2rcd13ifvqft0","pricing_plan_id":"cebpf4jnsgd1na2vs0mg"},{"bike_id":"af14ffb7-f097-4d2f-abf2-2d568989ce76","system_id":"levelo_inurba_marseille","lat":43.31459,"lon":5.39103,"is_reserved":false,"is_disabled":false,"rental_uris":{"android":"levelo://app?vid=af14ffb7-f097-4d2f-abf2-2d568989ce76","ios":"levelo://app?vid=af14ffb7-f097-4d2f-abf2-2d568989ce76"},"vehicle_type_id":"4","last_reported":1771197356,"current_range_meters":32000,"station_id":"","pricing_plan_id":"cebpf4jnsgd1na2vs0mg"},{"bike_id":"145e6984-28ea-4666-b90f-7d63cfee56d4","system_id":"levelo_inurba_marseille","lat":43.27517,"lon":5.42483,"is_reserved":false,"is_disabled":false,"rental_uris":{"android":"levelo://app?vid=145e6984-28ea-4666-b90f-7d63cfee56d4","ios":"levelo://app?vid=145e6984-28ea-4666-b90f-7d63cfee56d4"},"vehicle_type_id":"4","last_reported":1771197356,"current_range_meters":32000,"station_id":"ce4bhn92rcd13ifvqgrg","pricing_plan_id":"cebpf4jnsgd1na2vs0mg"},{"bike_id":"361472a9-140d-4e92-9e16-c96fbc664522","system_id":"levelo_inurba_marseille","lat":43.241736,"lon":5.363911,"is_reserved":false,"is_disabled":false,"rental_uris":{"android":"levelo://app?vid=361472a9-140d-4e92-9e16-c96fbc664522","ios":"levelo://app?vid=361472a9-140d-4e92-9e16-c96fbc664522"},"vehicle_type_id":"4","last_reported":1771197356,"current_range_meters":9200,"station_id":"cpo36qri1sfpv3e86is0","pricing_plan_id":"cebpf4jnsgd1na2vs0mg"},{"bike_id":"b9090109-0e85-4d33-94b9-9c3dce7583a5","system_id":"levelo_inurba_marseille","lat":43.31719,"lon":5.4371,"is_reserved":false,"is_disabled":false,"rental_uris":{"android":"levelo://app?vid=b9090109-0e85-4d33-94b9-9c3dce7583a5","ios":"levelo://app?vid=b9090109-0e85-4d33-94b9-9c3dce7583a5"},"vehicle_type_id":"4","last_reported":1771197356,"current_range_meters":33200,"station_id":"ce4bhp92rcd13ifvqhcg","pricing_plan_id":"cebpf4jnsgd1na2vs0mg"},{"bike_id":"ee286eea-5c31-4ed9-a873-d32b0eb3cbe8","system_id":"levelo_inurba_marseille","lat":43.25113,"lon":5.4032,"is_reserved":false,"is_disabled":false,"rental_uris":{"android":"levelo://app?vid=ee286eea-5c31-4ed9-a873-d32b0eb3cbe8","ios":"levelo://app?vid=ee286eea-5c31-4ed9-a873-d32b0eb3cbe8"},"vehicle_type_id":"4","last_reported":1771197356,"current_range_meters":12800,"station_id":"ce4bhlh2rcd13ifvqgig","pricing_plan_id":"cebpf4jnsgd1na2vs0mg"},{"bike_id":"49a391b4-4a87-46fa-a21c-cc41412de409","system_id":"levelo_inurba_marseille","lat":43.270629,"lon":5.383112,"is_reserved":false,"is_disabled":true,"rental_uris":{"android":"levelo://app?vid=49a391b4-4a87-46fa-a21c-cc41412de409","ios":"levelo://app?vid=49a391b4-4a87-46fa-a21c-cc41412de409"},"vehicle_type_id":"4","last_reported":1771197356,"current_range_meters":400,"station_id":"st_d3n2fo6cfp8s73cte1j0","pricing_plan_id":"cebpf4jnsgd1na2vs0mg"},{"bike_id":"2ec6af17-8360-42f8-81b1-2ea371b0e0ca","system_id":"levelo_inurba_marseille","lat":43.28573,"lon":5.39496,"is_reserved":false,"is_disabled":false,"rental_uris":{"android":"levelo://app?vid=2ec6af17-8360-42f8-81b1-2ea371b0e0ca","ios":"levelo://app?vid=2ec6af17-8360-42f8-81b1-2ea371b0e0ca"},"vehicle_type_id":"4","last_reported":1771197356,"current_range_meters":37600,"station_id":"ce4bh292rcd13ifvqdg0","pricing_plan_id":"cebpf4jnsgd1na2vs0mg"},{"bike_id":"8f357e68-5ae4-4ee2-8fa0-31b6de03647b","system_id":"levelo_inurba_marseille","lat":43.29984,"lon":5.385,"is_reserved":false,"is_disabled":false,"rental_uris":{"android":"levelo://app?vid=8f357e68-5ae4-4ee2-8fa0-31b6de03647b","ios":"levelo://app?vid=8f357e68-5ae4-4ee2-8fa0-31b6de03647b"},"vehicle_type_id":"4","last_reported":1771197356,"current_range_meters":36800,"station_id":"ce4bgj92rcd13ifvqbd0","pricing_plan_id":"cebpf4jnsgd1na2vs0mg"},{"bike_id":"14e2d3fb-6c68-42f9-a053-741cc12027ec","system_id":"levelo_inurba_marseille","lat":43.24542,"lon":5.3953,"is_reserved":false,"is_disabled":true,"rental_uris":{"android":"levelo://app?vid=14e2d3fb-6c68-42f9-a053-741cc12027ec","ios":"levelo://app?vid=14e2d3fb-6c68-42f9-a053-741cc12027ec"},"vehicle_type_id":"4","last_reported":1771197356,"current_range_meters":7200,"station_id":"ce4bhlp2rcd13ifvqgjg","pricing_plan_id":"cebpf4jnsgd1na2vs0mg"},{"bike_id":"5dc32621-6633-434f-b26f-c8d0d9b27505","system_id":"levelo_inurba_marseille","lat":43.2815,"lon":5.4263,"is_reserved":false,"is_disabled":false,"rental_uris":{"android":"levelo://app?vid=5dc32621-6633-434f-b26f-c8d0d9b27505","ios":"levelo://app?vid=5dc32621-6633-434f-b26f-c8d0d9b27505"},"vehicle_type_id":"4","last_reported":1771197356,"current_range_meters":34800,"station_id":"ce4bhnh2rcd13ifvqgug","pricing_plan_id":"cebpf4jnsgd1na2vs0mg"},{"bike_id":"fef2ac6e-7218-4409-ada0-4bd0bcbfe427","system_id":"levelo_inurba_marseille","lat":43.24624,"lon":5.43157,"is_reserved":false,"is_disabled":false,"rental_uris":{"android":"levelo://app?vid=fef2ac6e-7218-4409-ada0-4bd0bcbfe427","ios":"levelo://app?vid=fef2ac6e-7218-4409-ada0-4bd0bcbfe427"},"vehicle_type_id":"4","last_reported":1771197356,"current_range_meters":18800,"station_id":"st_d2m6c4gdas8pm72e190g","pricing_plan_id":"cebpf4jnsgd1na2vs0mg"},{"bike_id":"c4c10e35-2c8f-4cf6-8bc3-3d0868f5168a","system_id":"levelo_inurba_marseille","lat":43.29947,"lon":5.41328,"is_reserved":false,"is_disabled":false,"rental_uris":{"android":"levelo://app?vid=c4c10e35-2c8f-4cf6-8bc3-3d0868f5168a","ios":"levelo://app?vid=c4c10e35-2c8f-4cf6-8bc3-3d0868f5168a"},"vehicle_type_id":"4","last_reported":1771197356,"current_range_meters":27600,"station_id":"ce4bhp12rcd13ifvqh9g","pricing_plan_id":"cebpf4jnsgd1na2vs0mg"},{"bike_id":"91551ca7-df3c-46ae-b740-97d8aad399d4","system_id":"levelo_inurba_marseille","lat":43.26062,"lon":5.39395,"is_reserved":false,"is_disabled":false,"rental_uris":{"android":"levelo://app?vid=91551ca7-df3c-46ae-b740-97d8aad399d4","ios":"levelo://app?vid=91551ca7-df3c-46ae-b740-97d8aad399d4"},"vehicle_type_id":"4","last_reported":1771197356,"current_range_meters":34800,"station_id":"ce4bhh92rcd13ifvqfj0","pricing_plan_id":"cebpf4jnsgd1na2vs0mg"},{"bike_id":"76e5a958-bf08-4402-8f50-a71eab4b7a62","system_id":"levelo_inurba_marseille","lat":43.31887,"lon":5.40742,"is_reserved":false,"is_disabled":false,"rental_uris":{"android":"levelo://app?vid=76e5a958-bf08-4402-8f50-a71eab4b7a62","ios":"levelo://app?vid=76e5a958-bf08-4402-8f50-a71eab4b7a62"},"vehicle_type_id":"4","last_reported":1771197356,"current_range_meters":39200,"station_id":"ce4bhq12rcd13ifvqhig","pricing_plan_id":"cebpf4jnsgd1na2vs0mg"},{"bike_id":"3c5b9709-56ab-435f-a219-140f4375bdd5","system_id":"levelo_inurba_marseille","lat":43.30806,"lon":5.38143,"is_reserved":false,"is_disabled":false,"rental_uris":{"android":"levelo://app?vid=3c5b9709-56ab-435f-a219-140f4375bdd5","ios":"levelo://app?vid=3c5b9709-56ab-435f-a219-140f4375bdd5"},"vehicle_type_id":"4","last_reported":1771197356,"current_range_meters":9200,"station_id":"ce4bgt12rcd13ifvqce0","pricing_plan_id":"cebpf4jnsgd1na2vs0mg"},{"bike_id":"a578044c-4a5d-4cc9-a7c8-3a275e1dc9eb","system_id":"levelo_inurba_marseille","lat":43.29028,"lon":5.38129,"is_reserved":false,"is_disabled":false,"rental_uris":{"android":"levelo://app?vid=a578044c-4a5d-4cc9-a7c8-3a275e1dc9eb","ios":"levelo://app?vid=a578044c-4a5d-4cc9-a7c8-3a275e1dc9eb"},"vehicle_type_id":"4","last_reported":1771197356,"current_range_meters":36800,"station_id":"ce4bh4p2rcd13ifvqe1g","pricing_plan_id":"cebpf4jnsgd1na2vs0mg"},{"bike_id":"0b22facc-eaf1-48bd-a59c-f5177ab7c79e","system_id":"levelo_inurba_marseille","lat":43.29971,"lon":5.37169,"is_reserved":false,"is_disabled":false,"rental_uris":{"android":"levelo://app?vid=0b22facc-eaf1-48bd-a59c-f5177ab7c79e","ios":"levelo://app?vid=0b22facc-eaf1-48bd-a59c-f5177ab7c79e"},"vehicle_type_id":"4","last_reported":1771197356,"current_range_meters":34000,"station_id":"ce4bgr92rcd13ifvqc7g","pricing_plan_id":"cebpf4jnsgd1na2vs0mg"},{"bike_id":"2329cc2a-0c6e-43fb-b187-08e448b3cbeb","system_id":"levelo_inurba_marseille","lat":43.30809,"lon":5.38165,"is_reserved":false,"is_disabled":false,"rental_uris":{"android":"levelo://app?vid=2329cc2a-0c6e-43fb-b187-08e448b3cbeb","ios":"levelo://app?vid=2329cc2a-0c6e-43fb-b187-08e448b3cbeb"},"vehicle_type_id":"4","last_reported":1771197356,"current_range_meters":37600,"station_id":"ce4bgt12rcd13ifvqce0","pricing_plan_id":"cebpf4jnsgd1na2vs0mg"},{"bike_id":"c4ec75e9-b8c8-4de8-9857-e5ce9c774e35","system_id":"levelo_inurba_marseille","lat":43.29168,"lon":5.35815,"is_reserved":false,"is_disabled":false,"rental_uris":{"android":"levelo://app?vid=c4ec75e9-b8c8-4de8-9857-e5ce9c774e35","ios":"levelo://app?vid=c4ec75e9-b8c8-4de8-9857-e5ce9c774e35"},"vehicle_type_id":"4","last_reported":1771197356,"current_range_meters":38800,"station_id":"ce4bhb12rcd13ifvqel0","pricing_plan_id":"cebpf4jnsgd1na2vs0mg"},{"bike_id":"e5866f9c-7f01-4f68-826c-5019be0d6644","system_id":"levelo_inurba_marseille","lat":43.28702,"lon":5.35519,"is_reserved":false,"is_disabled":true,"rental_uris":{"android":"levelo://app?vid=e5866f9c-7f01-4f68-826c-5019be0d6644","ios":"levelo://app?vid=e5866f9c-7f01-4f68-826c-5019be0d6644"},"vehicle_type_id":"4","last_reported":1771197356,"current_range_meters":6000,"station_id":"","pricing_plan_id":"cebpf4jnsgd1na2vs0mg"},{"bike_id":"fa5a3108-faca-4246-a221-debe22f9b953","system_id":"levelo_inurba_marseille","lat":43.296179,"lon":5.377008,"is_reserved":false,"is_disabled":false,"rental_uris":{"android":"levelo://app?vid=fa5a3108-faca-4246-a221-debe22f9b953","ios":"levelo://app?vid=fa5a3108-faca-4246-a221-debe22f9b953"},"vehicle_type_id":"4","last_reported":1771197356,"current_range_meters":24800,"station_id":"ce4bgi92rcd13ifvqb90","pricing_plan_id":"cebpf4jnsgd1na2vs0mg"},{"bike_id":"db983eb0-3ef8-40cb-807e-7c41f4533b72","system_id":"levelo_inurba_marseille","lat":43.246604,"lon":5.381576,"is_reserved":false,"is_disabled":false,"rental_uris":{"android":"levelo://app?vid=db983eb0-3ef8-40cb-807e-7c41f4533b72","ios":"levelo://app?vid=db983eb0-3ef8-40cb-807e-7c41f4533b72"},"vehicle_type_id":"4","last_reported":1771197356,"current_range_meters":19200,"station_id":"ce4bhih2rcd13ifvqfr0","pricing_plan_id":"cebpf4jnsgd1na2vs0mg"},{"bike_id":"10c2514e-3e10-48b8-b25f-5593fed86aaf","system_id":"levelo_inurba_marseille","lat":43.286175,"lon":5.350991,"is_reserved":false,"is_disabled":false,"rental_uris":{"android":"levelo://app?vid=10c2514e-3e10-48b8-b25f-5593fed86aaf","ios":"levelo://app?vid=10c2514e-3e10-48b8-b25f-5593fed86aaf"},"vehicle_type_id":"4","last_reported":1771197356,"current_range_meters":25600,"station_id":"ce4bhch2rcd13ifvqeug","pricing_plan_id":"cebpf4jnsgd1na2vs0mg"},{"bike_id":"77d97ba8-97db-4bc9-8294-a1d06adce358","system_id":"levelo_inurba_marseille","lat":43.27493,"lon":5.42455,"is_reserved":false,"is_disabled":false,"rental_uris":{"android":"levelo://app?vid=77d97ba8-97db-4bc9-8294-a1d06adce358","ios":"levelo://app?vid=77d97ba8-97db-4bc9-8294-a1d06adce358"},"vehicle_type_id":"4","last_reported":1771197356,"current_range_meters":18800,"station_id":"ce4bhn92rcd13ifvqgrg","pricing_plan_id":"cebpf4jnsgd1na2vs0mg"},{"bike_id":"2e890998-6b11-4d43-89b1-bf06a6d503ec","system_id":"levelo_inurba_marseille","lat":43.251227,"lon":5.403245,"is_reserved":false,"is_disabled":false,"rental_uris":{"android":"levelo://app?vid=2e890998-6b11-4d43-89b1-bf06a6d503ec","ios":"levelo://app?vid=2e890998-6b11-4d43-89b1-bf06a6d503ec"},"vehicle_type_id":"4","last_reported":1771197356,"current_range_meters":38400,"station_id":"ce4bhlh2rcd13ifvqgig","pricing_plan_id":"cebpf4jnsgd1na2vs0mg"},{"bike_id":"44dcd606-b10b-4c40-a8b8-9f9a82bb9a33","system_id":"levelo_inurba_marseille","lat":43.30911,"lon":5.36853,"is_reserved":false,"is_disabled":false,"rental_uris":{"android":"levelo://app?vid=44dcd606-b10b-4c40-a8b8-9f9a82bb9a33","ios":"levelo://app?vid=44dcd606-b10b-4c40-a8b8-9f9a82bb9a33"},"vehicle_type_id":"4","last_reported":1771197356,"current_range_meters":30800,"station_id":"ce4bgn92rcd13ifvqbvg","pricing_plan_id":"cebpf4jnsgd1na2vs0mg"},{"bike_id":"49d1c2a4-d40b-4e97-8c31-a5180841391e","system_id":"levelo_inurba_marseille","lat":43.30583,"lon":5.36539,"is_reserved":false,"is_disabled":false,"rental_uris":{"android":"levelo://app?vid=49d1c2a4-d40b-4e97-8c31-a5180841391e","ios":"levelo://app?vid=49d1c2a4-d40b-4e97-8c31-a5180841391e"},"vehicle_type_id":"4","last_reported":1771197356,"current_range_meters":29600,"station_id":"ce4bgs12rcd13ifvqcag","pricing_plan_id":"cebpf4jnsgd1na2vs0mg"},{"bike_id":"a2749dad-a07d-45a5-b48d-09e644d3c272","system_id":"levelo_inurba_marseille","lat":43.29212,"lon":5.37893,"is_reserved":false,"is_disabled":false,"rental_uris":{"android":"levelo://app?vid=a2749dad-a07d-45a5-b48d-09e644d3c272","ios":"levelo://app?vid=a2749dad-a07d-45a5-b48d-09e644d3c272"},"vehicle_type_id":"4","last_reported":1771197356,"current_range_meters":20000,"station_id":"","pricing_plan_id":"cebpf4jnsgd1na2vs0mg"},{"bike_id":"5f0818d2-4390-4113-9649-e13112879aff","system_id":"levelo_inurba_marseille","lat":43.28936,"lon":5.3666,"is_reserved":false,"is_disabled":false,"rental_uris":{"android":"levelo://app?vid=5f0818d2-4390-4113-9649-e13112879aff","ios":"levelo://app?vid=5f0818d2-4390-4113-9649-e13112879aff"},"vehicle_type_id":"4","last_reported":1771197356,"current_range_meters":17200,"station_id":"ce4bhap2rcd13ifvqek0","pricing_plan_id":"cebpf4jnsgd1na2vs0mg"},{"bike_id":"bdb72ec6-af23-4b9f-bd45-658653346532","system_id":"levelo_inurba_marseille","lat":43.31324,"lon":5.39705,"is_reserved":false,"is_disabled":false,"rental_uris":{"android":"levelo://app?vid=bdb72ec6-af23-4b9f-bd45-658653346532","ios":"levelo://app?vid=bdb72ec6-af23-4b9f-bd45-658653346532"},"vehicle_type_id":"4","last_reported":1771197356,"current_range_meters":39200,"station_id":"ce4bgvp2rcd13ifvqcu0","pricing_plan_id":"cebpf4jnsgd1na2vs0mg"},{"bike_id":"ed7fbdd2-1fe8-4b70-bf65-c956d9d9fc72","system_id":"levelo_inurba_marseille","lat":43.24624,"lon":5.3894,"is_reserved":false,"is_disabled":false,"rental_uris":{"android":"levelo://app?vid=ed7fbdd2-1fe8-4b70-bf65-c956d9d9fc72","ios":"levelo://app?vid=ed7fbdd2-1fe8-4b70-bf65-c956d9d9fc72"},"vehicle_type_id":"4","last_reported":1771197356,"current_range_meters":37600,"station_id":"ce4bhg12rcd13ifvqf60","pricing_plan_id":"cebpf4jnsgd1na2vs0mg"},{"bike_id":"41a5a781-889a-4bff-9a8b-e965a7a7132f","system_id":"levelo_inurba_marseille","lat":43.28476,"lon":5.38551,"is_reserved":false,"is_disabled":false,"rental_uris":{"android":"levelo://app?vid=41a5a781-889a-4bff-9a8b-e965a7a7132f","ios":"levelo://app?vid=41a5a781-889a-4bff-9a8b-e965a7a7132f"},"vehicle_type_id":"4","last_reported":1771197356,"current_range_meters":39200,"station_id":"ce4bh8p2rcd13ifvqeb0","pricing_plan_id":"cebpf4jnsgd1na2vs0mg"},{"bike_id":"1751b9c5-618d-414a-94ab-3ae17fd7c7a7","system_id":"levelo_inurba_marseille","lat":43.24095,"lon":5.37682,"is_reserved":false,"is_disabled":false,"rental_uris":{"android":"levelo://app?vid=1751b9c5-618d-414a-94ab-3ae17fd7c7a7","ios":"levelo://app?vid=1751b9c5-618d-414a-94ab-3ae17fd7c7a7"},"vehicle_type_id":"4","last_reported":1771197356,"current_range_meters":34800,"station_id":"ce4bhnp2rcd13ifvqgvg","pricing_plan_id":"cebpf4jnsgd1na2vs0mg"},{"bike_id":"766ba40c-080a-46d0-a08f-660e07520b61","system_id":"levelo_inurba_marseille","lat":43.29279,"lon":5.36828,"is_reserved":false,"is_disabled":false,"rental_uris":{"android":"levelo://app?vid=766ba40c-080a-46d0-a08f-660e07520b61","ios":"levelo://app?vid=766ba40c-080a-46d0-a08f-660e07520b61"},"vehicle_type_id":"4","last_reported":1771197356,"current_range_meters":37600,"station_id":"ce4bhbp2rcd13ifvqesg","pricing_plan_id":"cebpf4jnsgd1na2vs0mg"},{"bike_id":"f8312403-96e0-48f4-a811-ddf2d3981510","system_id":"levelo_inurba_marseille","lat":43.251131,"lon":5.403254,"is_reserved":false,"is_disabled":false,"rental_uris":{"android":"levelo://app?vid=f8312403-96e0-48f4-a811-ddf2d3981510","ios":"levelo://app?vid=f8312403-96e0-48f4-a811-ddf2d3981510"},"vehicle_type_id":"4","last_reported":1771197356,"current_range_meters":9200,"station_id":"ce4bhlh2rcd13ifvqgig","pricing_plan_id":"cebpf4jnsgd1na2vs0mg"},{"bike_id":"1f3beabe-c8e8-49e0-9f96-57a7b54a4ff1","system_id":"levelo_inurba_marseille","lat":43.27584,"lon":5.38417,"is_reserved":false,"is_disabled":false,"rental_uris":{"android":"levelo://app?vid=1f3beabe-c8e8-49e0-9f96-57a7b54a4ff1","ios":"levelo://app?vid=1f3beabe-c8e8-49e0-9f96-57a7b54a4ff1"},"vehicle_type_id":"4","last_reported":1771197356,"current_range_meters":29600,"station_id":"ce4bhh92rcd13ifvqfi0","pricing_plan_id":"cebpf4jnsgd1na2vs0mg"},{"bike_id":"6486b054-e9ec-415a-9c0a-862769eb635e","system_id":"levelo_inurba_marseille","lat":43.25588,"lon":5.38244,"is_reserved":false,"is_disabled":false,"rental_uris":{"android":"levelo://app?vid=6486b054-e9ec-415a-9c0a-862769eb635e","ios":"levelo://app?vid=6486b054-e9ec-415a-9c0a-862769eb635e"},"vehicle_type_id":"4","last_reported":1771197356,"current_range_meters":38800,"station_id":"ce4bhih2rcd13ifvqfs0","pricing_plan_id":"cebpf4jnsgd1na2vs0mg"},{"bike_id":"0c2c83ad-e393-40d8-aab0-bd23ed680483","system_id":"levelo_inurba_marseille","lat":43.29555,"lon":5.37518,"is_reserved":false,"is_disabled":false,"rental_uris":{"android":"levelo://app?vid=0c2c83ad-e393-40d8-aab0-bd23ed680483","ios":"levelo://app?vid=0c2c83ad-e393-40d8-aab0-bd23ed680483"},"vehicle_type_id":"4","last_reported":1771197356,"current_range_meters":40000,"station_id":"ce4bgh92rcd13ifvqb50","pricing_plan_id":"cebpf4jnsgd1na2vs0mg"},{"bike_id":"91dd6860-d8b6-48df-9afd-382ab92b6bc0","system_id":"levelo_inurba_marseille","lat":43.289224,"lon":5.383971,"is_reserved":false,"is_disabled":true,"rental_uris":{"android":"levelo://app?vid=91dd6860-d8b6-48df-9afd-382ab92b6bc0","ios":"levelo://app?vid=91dd6860-d8b6-48df-9afd-382ab92b6bc0"},"vehicle_type_id":"4","last_reported":1771197356,"current_range_meters":28000,"station_id":"ce4bh612rcd13ifvqe6g","pricing_plan_id":"cebpf4jnsgd1na2vs0mg"},{"bike_id":"2c2fcc31-73d3-4e52-9dc6-24cf681a22fb","system_id":"levelo_inurba_marseille","lat":43.30733,"lon":5.42441,"is_reserved":false,"is_disabled":false,"rental_uris":{"android":"levelo://app?vid=2c2fcc31-73d3-4e52-9dc6-24cf681a22fb","ios":"levelo://app?vid=2c2fcc31-73d3-4e52-9dc6-24cf681a22fb"},"vehicle_type_id":"4","last_reported":1771197356,"current_range_meters":8000,"station_id":"st_cvj6ca6bvosntc0bfgr0","pricing_plan_id":"cebpf4jnsgd1na2vs0mg"},{"bike_id":"524b8461-d679-46b1-a83d-b4bfe7dba6c3","system_id":"levelo_inurba_marseille","lat":43.2175,"lon":5.346,"is_reserved":false,"is_disabled":false,"rental_uris":{"android":"levelo://app?vid=524b8461-d679-46b1-a83d-b4bfe7dba6c3","ios":"levelo://app?vid=524b8461-d679-46b1-a83d-b4bfe7dba6c3"},"vehicle_type_id":"4","last_reported":1771197356,"current_range_meters":37600,"station_id":"st_cvj6r9ubvosntc0bgbag","pricing_plan_id":"cebpf4jnsgd1na2vs0mg"},{"bike_id":"53bb3863-680c-45ee-b078-75f6bac40aa9","system_id":"levelo_inurba_marseille","lat":43.3263,"lon":5.40989,"is_reserved":false,"is_disabled":false,"rental_uris":{"android":"levelo://app?vid=53bb3863-680c-45ee-b078-75f6bac40aa9","ios":"levelo://app?vid=53bb3863-680c-45ee-b078-75f6bac40aa9"},"vehicle_type_id":"4","last_reported":1771197356,"current_range_meters":38000,"station_id":"ce4bhpp2rcd13ifvqhgg","pricing_plan_id":"cebpf4jnsgd1na2vs0mg"},{"bike_id":"80098677-e509-453f-9fc6-0838a503fcfa","system_id":"levelo_inurba_marseille","lat":43.30521,"lon":5.36541,"is_reserved":false,"is_disabled":false,"rental_uris":{"android":"levelo://app?vid=80098677-e509-453f-9fc6-0838a503fcfa","ios":"levelo://app?vid=80098677-e509-453f-9fc6-0838a503fcfa"},"vehicle_type_id":"4","last_reported":1771197356,"current_range_meters":17600,"station_id":"ce4bgs12rcd13ifvqcag","pricing_plan_id":"cebpf4jnsgd1na2vs0mg"},{"bike_id":"2b8f6405-c0a6-4795-ac88-7c71c7e30771","system_id":"levelo_inurba_marseille","lat":43.30764,"lon":5.37658,"is_reserved":false,"is_disabled":false,"rental_uris":{"android":"levelo://app?vid=2b8f6405-c0a6-4795-ac88-7c71c7e30771","ios":"levelo://app?vid=2b8f6405-c0a6-4795-ac88-7c71c7e30771"},"vehicle_type_id":"4","last_reported":1771197356,"current_range_meters":25200,"station_id":"ce4bgv92rcd13ifvqcq0","pricing_plan_id":"cebpf4jnsgd1na2vs0mg"},{"bike_id":"014613de-69aa-4aca-9291-67750cce2e69","system_id":"levelo_inurba_marseille","lat":43.284762,"lon":5.483978,"is_reserved":false,"is_disabled":false,"rental_uris":{"android":"levelo://app?vid=014613de-69aa-4aca-9291-67750cce2e69","ios":"levelo://app?vid=014613de-69aa-4aca-9291-67750cce2e69"},"vehicle_type_id":"4","last_reported":1771197356,"current_range_meters":36800,"station_id":"st_d3svhcjqgbts73a3dn0g","pricing_plan_id":"cebpf4jnsgd1na2vs0mg"},{"bike_id":"ceafdd97-9709-4666-acdc-c6b8a34aace5","system_id":"levelo_inurba_marseille","lat":43.27228,"lon":5.40945,"is_reserved":false,"is_disabled":true,"rental_uris":{"android":"levelo://app?vid=ceafdd97-9709-4666-acdc-c6b8a34aace5","ios":"levelo://app?vid=ceafdd97-9709-4666-acdc-c6b8a34aace5"},"vehicle_type_id":"4","last_reported":1771197356,"current_range_meters":39200,"station_id":"ce4bhl12rcd13ifvqgf0","pricing_plan_id":"cebpf4jnsgd1na2vs0mg"},{"bike_id":"93bab453-c377-4816-a0d3-7383fdfc3ff2","system_id":"levelo_inurba_marseille","lat":43.29559,"lon":5.37503,"is_reserved":false,"is_disabled":false,"rental_uris":{"android":"levelo://app?vid=93bab453-c377-4816-a0d3-7383fdfc3ff2","ios":"levelo://app?vid=93bab453-c377-4816-a0d3-7383fdfc3ff2"},"vehicle_type_id":"4","last_reported":1771197356,"current_range_meters":14400,"station_id":"ce4bgh92rcd13ifvqb50","pricing_plan_id":"cebpf4jnsgd1na2vs0mg"},{"bike_id":"9ed7300e-a4d4-493c-95a2-a0b857cf6348","system_id":"levelo_inurba_marseille","lat":43.22563,"lon":5.41632,"is_reserved":false,"is_disabled":false,"rental_uris":{"android":"levelo://app?vid=9ed7300e-a4d4-493c-95a2-a0b857cf6348","ios":"levelo://app?vid=9ed7300e-a4d4-493c-95a2-a0b857cf6348"},"vehicle_type_id":"4","last_reported":1771197356,"current_range_meters":12000,"station_id":"st_d2o4gvlbi1j2169b742g","pricing_plan_id":"cebpf4jnsgd1na2vs0mg"},{"bike_id":"b8d0dbff-fb51-43c9-8f40-12fc94ab2020","system_id":"levelo_inurba_marseille","lat":43.28432,"lon":5.34986,"is_reserved":false,"is_disabled":false,"rental_uris":{"android":"levelo://app?vid=b8d0dbff-fb51-43c9-8f40-12fc94ab2020","ios":"levelo://app?vid=b8d0dbff-fb51-43c9-8f40-12fc94ab2020"},"vehicle_type_id":"4","last_reported":1771197356,"current_range_meters":14400,"station_id":"ce4bhbh2rcd13ifvqepg","pricing_plan_id":"cebpf4jnsgd1na2vs0mg"},{"bike_id":"4cdc3491-666e-4cb8-a5de-f62d1abfd38d","system_id":"levelo_inurba_marseille","lat":43.31122,"lon":5.37763,"is_reserved":false,"is_disabled":false,"rental_uris":{"android":"levelo://app?vid=4cdc3491-666e-4cb8-a5de-f62d1abfd38d","ios":"levelo://app?vid=4cdc3491-666e-4cb8-a5de-f62d1abfd38d"},"vehicle_type_id":"4","last_reported":1771197356,"current_range_meters":8800,"station_id":"ce4bgt92rcd13ifvqcg0","pricing_plan_id":"cebpf4jnsgd1na2vs0mg"},{"bike_id":"491c9ecf-c613-4666-af5f-af02a2932d22","system_id":"levelo_inurba_marseille","lat":43.30954,"lon":5.3903,"is_reserved":false,"is_disabled":true,"rental_uris":{"android":"levelo://app?vid=491c9ecf-c613-4666-af5f-af02a2932d22","ios":"levelo://app?vid=491c9ecf-c613-4666-af5f-af02a2932d22"},"vehicle_type_id":"4","last_reported":1771197356,"current_range_meters":25200,"station_id":"ce4bgup2rcd13ifvqco0","pricing_plan_id":"cebpf4jnsgd1na2vs0mg"},{"bike_id":"b1d801e3-c963-44ed-99da-f63b3225352c","system_id":"levelo_inurba_marseille","lat":43.31163,"lon":5.38715,"is_reserved":false,"is_disabled":false,"rental_uris":{"android":"levelo://app?vid=b1d801e3-c963-44ed-99da-f63b3225352c","ios":"levelo://app?vid=b1d801e3-c963-44ed-99da-f63b3225352c"},"vehicle_type_id":"4","last_reported":1771197356,"current_range_meters":33600,"station_id":"ce4bgv12rcd13ifvqcp0","pricing_plan_id":"cebpf4jnsgd1na2vs0mg"},{"bike_id":"dc98baeb-281c-4b10-a0d8-1143d2ae501f","system_id":"levelo_inurba_marseille","lat":43.30306,"lon":5.36886,"is_reserved":false,"is_disabled":false,"rental_uris":{"android":"levelo://app?vid=dc98baeb-281c-4b10-a0d8-1143d2ae501f","ios":"levelo://app?vid=dc98baeb-281c-4b10-a0d8-1143d2ae501f"},"vehicle_type_id":"4","last_reported":1771197356,"current_range_meters":31200,"station_id":"ce4bgqh2rcd13ifvqc5g","pricing_plan_id":"cebpf4jnsgd1na2vs0mg"},{"bike_id":"5fd8a138-4462-47cb-9a8e-17d6062f1cae","system_id":"levelo_inurba_marseille","lat":43.29201,"lon":5.35802,"is_reserved":false,"is_disabled":false,"rental_uris":{"android":"levelo://app?vid=5fd8a138-4462-47cb-9a8e-17d6062f1cae","ios":"levelo://app?vid=5fd8a138-4462-47cb-9a8e-17d6062f1cae"},"vehicle_type_id":"4","last_reported":1771197356,"current_range_meters":39200,"station_id":"ce4bhb12rcd13ifvqel0","pricing_plan_id":"cebpf4jnsgd1na2vs0mg"},{"bike_id":"61eb7f07-1c63-4179-84d2-2a4e738d2c5a","system_id":"levelo_inurba_marseille","lat":43.25254,"lon":5.42419,"is_reserved":false,"is_disabled":false,"rental_uris":{"android":"levelo://app?vid=61eb7f07-1c63-4179-84d2-2a4e738d2c5a","ios":"levelo://app?vid=61eb7f07-1c63-4179-84d2-2a4e738d2c5a"},"vehicle_type_id":"4","last_reported":1771197356,"current_range_meters":11200,"station_id":"","pricing_plan_id":"cebpf4jnsgd1na2vs0mg"},{"bike_id":"034224b6-2279-4cbc-9caa-f9a79eebd08e","system_id":"levelo_inurba_marseille","lat":43.31239,"lon":5.36852,"is_reserved":false,"is_disabled":false,"rental_uris":{"android":"levelo://app?vid=034224b6-2279-4cbc-9caa-f9a79eebd08e","ios":"levelo://app?vid=034224b6-2279-4cbc-9caa-f9a79eebd08e"},"vehicle_type_id":"4","last_reported":1771197356,"current_range_meters":39200,"station_id":"ce4bgl92rcd13ifvqbq0","pricing_plan_id":"cebpf4jnsgd1na2vs0mg"},{"bike_id":"3211b5a0-d0e2-4a82-971d-29eb146b2cb0","system_id":"levelo_inurba_marseille","lat":43.28661,"lon":5.36333,"is_reserved":false,"is_disabled":false,"rental_uris":{"android":"levelo://app?vid=3211b5a0-d0e2-4a82-971d-29eb146b2cb0","ios":"levelo://app?vid=3211b5a0-d0e2-4a82-971d-29eb146b2cb0"},"vehicle_type_id":"4","last_reported":1771197356,"current_range_meters":38400,"station_id":"ce4bhah2rcd13ifvqej0","pricing_plan_id":"cebpf4jnsgd1na2vs0mg"},{"bike_id":"128bf807-6e3b-4a15-9089-9c9e1d41a34a","system_id":"levelo_inurba_marseille","lat":43.22938,"lon":5.35374,"is_reserved":false,"is_disabled":false,"rental_uris":{"android":"levelo://app?vid=128bf807-6e3b-4a15-9089-9c9e1d41a34a","ios":"levelo://app?vid=128bf807-6e3b-4a15-9089-9c9e1d41a34a"},"vehicle_type_id":"4","last_reported":1771197356,"current_range_meters":3200,"station_id":"cpo3532slgdg3j2ikp40","pricing_plan_id":"cebpf4jnsgd1na2vs0mg"},{"bike_id":"3b7ab46d-a5b2-42ad-aec6-a2dcef907956","system_id":"levelo_inurba_marseille","lat":43.2718,"lon":5.40987,"is_reserved":false,"is_disabled":false,"rental_uris":{"android":"levelo://app?vid=3b7ab46d-a5b2-42ad-aec6-a2dcef907956","ios":"levelo://app?vid=3b7ab46d-a5b2-42ad-aec6-a2dcef907956"},"vehicle_type_id":"4","last_reported":1771197356,"current_range_meters":39200,"station_id":"ce4bhl12rcd13ifvqgf0","pricing_plan_id":"cebpf4jnsgd1na2vs0mg"},{"bike_id":"053f63a9-b456-4e00-a86e-29f26979507e","system_id":"levelo_inurba_marseille","lat":43.24695,"lon":5.38155,"is_reserved":false,"is_disabled":true,"rental_uris":{"android":"levelo://app?vid=053f63a9-b456-4e00-a86e-29f26979507e","ios":"levelo://app?vid=053f63a9-b456-4e00-a86e-29f26979507e"},"vehicle_type_id":"4","last_reported":1771197356,"current_range_meters":19200,"station_id":"ce4bhih2rcd13ifvqfr0","pricing_plan_id":"cebpf4jnsgd1na2vs0mg"},{"bike_id":"aba49c95-1ed0-472c-931b-037b98c15fc8","system_id":"levelo_inurba_marseille","lat":43.25321,"lon":5.42163,"is_reserved":false,"is_disabled":false,"rental_uris":{"android":"levelo://app?vid=aba49c95-1ed0-472c-931b-037b98c15fc8","ios":"levelo://app?vid=aba49c95-1ed0-472c-931b-037b98c15fc8"},"vehicle_type_id":"4","last_reported":1771197356,"current_range_meters":6800,"station_id":"st_d2m65c5bi1j21697t3ng","pricing_plan_id":"cebpf4jnsgd1na2vs0mg"},{"bike_id":"7cb9d4bb-817c-477e-b821-2482d90489fa","system_id":"levelo_inurba_marseille","lat":43.33033,"lon":5.39025,"is_reserved":false,"is_disabled":false,"rental_uris":{"android":"levelo://app?vid=7cb9d4bb-817c-477e-b821-2482d90489fa","ios":"levelo://app?vid=7cb9d4bb-817c-477e-b821-2482d90489fa"},"vehicle_type_id":"4","last_reported":1771197356,"current_range_meters":9600,"station_id":"ce4bhr92rcd13ifvqhrg","pricing_plan_id":"cebpf4jnsgd1na2vs0mg"},{"bike_id":"ffe3fbd4-6746-48bb-b0b5-fa7f3d6ff56c","system_id":"levelo_inurba_marseille","lat":43.31026,"lon":5.37169,"is_reserved":false,"is_disabled":false,"rental_uris":{"android":"levelo://app?vid=ffe3fbd4-6746-48bb-b0b5-fa7f3d6ff56c","ios":"levelo://app?vid=ffe3fbd4-6746-48bb-b0b5-fa7f3d6ff56c"},"vehicle_type_id":"4","last_reported":1771197356,"current_range_meters":9600,"station_id":"st_d4kl2rp97mjs73e7tdfg","pricing_plan_id":"cebpf4jnsgd1na2vs0mg"},{"bike_id":"f4f4c39c-d293-4a83-92fd-f36bbc65fe4a","system_id":"levelo_inurba_marseille","lat":43.28267,"lon":5.35067,"is_reserved":false,"is_disabled":true,"rental_uris":{"android":"levelo://app?vid=f4f4c39c-d293-4a83-92fd-f36bbc65fe4a","ios":"levelo://app?vid=f4f4c39c-d293-4a83-92fd-f36bbc65fe4a"},"vehicle_type_id":"4","last_reported":1771197356,"current_range_meters":35600,"station_id":"ce4bhbp2rcd13ifvqerg","pricing_plan_id":"cebpf4jnsgd1na2vs0mg"},{"bike_id":"62a8abd2-3087-46db-925f-2d25a2b3f02d","system_id":"levelo_inurba_marseille","lat":43.30437,"lon":5.38886,"is_reserved":false,"is_disabled":true,"rental_uris":{"android":"levelo://app?vid=62a8abd2-3087-46db-925f-2d25a2b3f02d","ios":"levelo://app?vid=62a8abd2-3087-46db-925f-2d25a2b3f02d"},"vehicle_type_id":"4","last_reported":1771197356,"current_range_meters":16800,"station_id":"ce4bgk12rcd13ifvqbi0","pricing_plan_id":"cebpf4jnsgd1na2vs0mg"},{"bike_id":"2fadaefb-d7be-40bc-b8c2-dfba0bb4802c","system_id":"levelo_inurba_marseille","lat":43.302346,"lon":5.40055,"is_reserved":false,"is_disabled":true,"rental_uris":{"android":"levelo://app?vid=2fadaefb-d7be-40bc-b8c2-dfba0bb4802c","ios":"levelo://app?vid=2fadaefb-d7be-40bc-b8c2-dfba0bb4802c"},"vehicle_type_id":"4","last_reported":1771197356,"current_range_meters":28400,"station_id":"ce4bgvh2rcd13ifvqcs0","pricing_plan_id":"cebpf4jnsgd1na2vs0mg"},{"bike_id":"c2622548-2352-4ceb-b8b7-2d2a2030a64c","system_id":"levelo_inurba_marseille","lat":43.2958,"lon":5.37553,"is_reserved":false,"is_disabled":false,"rental_uris":{"android":"levelo://app?vid=c2622548-2352-4ceb-b8b7-2d2a2030a64c","ios":"levelo://app?vid=c2622548-2352-4ceb-b8b7-2d2a2030a64c"},"vehicle_type_id":"4","last_reported":1771197356,"current_range_meters":32800,"station_id":"ce4bgh92rcd13ifvqb50","pricing_plan_id":"cebpf4jnsgd1na2vs0mg"},{"bike_id":"92965a6e-5a72-4818-bf0d-e89de2f0a545","system_id":"levelo_inurba_marseille","lat":43.26961,"lon":5.3889,"is_reserved":false,"is_disabled":false,"rental_uris":{"android":"levelo://app?vid=92965a6e-5a72-4818-bf0d-e89de2f0a545","ios":"levelo://app?vid=92965a6e-5a72-4818-bf0d-e89de2f0a545"},"vehicle_type_id":"4","last_reported":1771197356,"current_range_meters":39200,"station_id":"ce4bhhh2rcd13ifvqfl0","pricing_plan_id":"cebpf4jnsgd1na2vs0mg"},{"bike_id":"2aa05e06-5366-4cfd-80c1-a6e66487250b","system_id":"levelo_inurba_marseille","lat":43.285,"lon":5.48388,"is_reserved":false,"is_disabled":false,"rental_uris":{"android":"levelo://app?vid=2aa05e06-5366-4cfd-80c1-a6e66487250b","ios":"levelo://app?vid=2aa05e06-5366-4cfd-80c1-a6e66487250b"},"vehicle_type_id":"4","last_reported":1771197356,"current_range_meters":23200,"station_id":"st_d3svhcjqgbts73a3dn0g","pricing_plan_id":"cebpf4jnsgd1na2vs0mg"},{"bike_id":"9fa3b8f9-222a-47d4-94ab-1bf20b84c2d5","system_id":"levelo_inurba_marseille","lat":43.295707,"lon":5.375127,"is_reserved":false,"is_disabled":false,"rental_uris":{"android":"levelo://app?vid=9fa3b8f9-222a-47d4-94ab-1bf20b84c2d5","ios":"levelo://app?vid=9fa3b8f9-222a-47d4-94ab-1bf20b84c2d5"},"vehicle_type_id":"4","last_reported":1771197356,"current_range_meters":26800,"station_id":"ce4bgh92rcd13ifvqb50","pricing_plan_id":"cebpf4jnsgd1na2vs0mg"},{"bike_id":"ccddbb7d-23e3-4fb8-a277-f32c1a09e970","system_id":"levelo_inurba_marseille","lat":43.28871,"lon":5.39324,"is_reserved":false,"is_disabled":false,"rental_uris":{"android":"levelo://app?vid=ccddbb7d-23e3-4fb8-a277-f32c1a09e970","ios":"levelo://app?vid=ccddbb7d-23e3-4fb8-a277-f32c1a09e970"},"vehicle_type_id":"4","last_reported":1771197356,"current_range_meters":39200,"station_id":"ce4bh2p2rcd13ifvqdi0","pricing_plan_id":"cebpf4jnsgd1na2vs0mg"},{"bike_id":"9d0335d2-3051-4637-a59f-b5a4ffc47957","system_id":"levelo_inurba_marseille","lat":43.326604,"lon":5.409873,"is_reserved":false,"is_disabled":false,"rental_uris":{"android":"levelo://app?vid=9d0335d2-3051-4637-a59f-b5a4ffc47957","ios":"levelo://app?vid=9d0335d2-3051-4637-a59f-b5a4ffc47957"},"vehicle_type_id":"4","last_reported":1771197356,"current_range_meters":8800,"station_id":"ce4bhpp2rcd13ifvqhgg","pricing_plan_id":"cebpf4jnsgd1na2vs0mg"},{"bike_id":"e8b1603a-117f-4e0f-809e-5f7118aff6fc","system_id":"levelo_inurba_marseille","lat":43.27313,"lon":5.39087,"is_reserved":false,"is_disabled":false,"rental_uris":{"android":"levelo://app?vid=e8b1603a-117f-4e0f-809e-5f7118aff6fc","ios":"levelo://app?vid=e8b1603a-117f-4e0f-809e-5f7118aff6fc"},"vehicle_type_id":"4","last_reported":1771197356,"current_range_meters":28800,"station_id":"ce4bhgp2rcd13ifvqfe0","pricing_plan_id":"cebpf4jnsgd1na2vs0mg"},{"bike_id":"ca702067-4858-4ef5-a319-87f24e598e7d","system_id":"levelo_inurba_marseille","lat":43.312319,"lon":5.368657,"is_reserved":false,"is_disabled":false,"rental_uris":{"android":"levelo://app?vid=ca702067-4858-4ef5-a319-87f24e598e7d","ios":"levelo://app?vid=ca702067-4858-4ef5-a319-87f24e598e7d"},"vehicle_type_id":"4","last_reported":1771197356,"current_range_meters":9600,"station_id":"","pricing_plan_id":"cebpf4jnsgd1na2vs0mg"},{"bike_id":"0a999e6d-a2d1-4b1c-bf91-e11c3fa5ffd3","system_id":"levelo_inurba_marseille","lat":43.29207,"lon":5.3932,"is_reserved":false,"is_disabled":false,"rental_uris":{"android":"levelo://app?vid=0a999e6d-a2d1-4b1c-bf91-e11c3fa5ffd3","ios":"levelo://app?vid=0a999e6d-a2d1-4b1c-bf91-e11c3fa5ffd3"},"vehicle_type_id":"4","last_reported":1771197356,"current_range_meters":32800,"station_id":"ce4bh192rcd13ifvqdd0","pricing_plan_id":"cebpf4jnsgd1na2vs0mg"},{"bike_id":"32970ac4-1746-4d64-913c-72a1346864f7","system_id":"levelo_inurba_marseille","lat":43.29004,"lon":5.35612,"is_reserved":false,"is_disabled":false,"rental_uris":{"android":"levelo://app?vid=32970ac4-1746-4d64-913c-72a1346864f7","ios":"levelo://app?vid=32970ac4-1746-4d64-913c-72a1346864f7"},"vehicle_type_id":"4","last_reported":1771197356,"current_range_meters":36800,"station_id":"ce4bhb92rcd13ifvqen0","pricing_plan_id":"cebpf4jnsgd1na2vs0mg"},{"bike_id":"f609bbc6-67a1-4416-90f1-748294690250","system_id":"levelo_inurba_marseille","lat":43.32357,"lon":5.38885,"is_reserved":false,"is_disabled":false,"rental_uris":{"android":"levelo://app?vid=f609bbc6-67a1-4416-90f1-748294690250","ios":"levelo://app?vid=f609bbc6-67a1-4416-90f1-748294690250"},"vehicle_type_id":"4","last_reported":1771197356,"current_range_meters":31200,"station_id":"ce4bhqp2rcd13ifvqhog","pricing_plan_id":"cebpf4jnsgd1na2vs0mg"},{"bike_id":"10b03d8e-f943-401c-a144-ab85933f89ee","system_id":"levelo_inurba_marseille","lat":43.26531,"lon":5.39069,"is_reserved":false,"is_disabled":false,"rental_uris":{"android":"levelo://app?vid=10b03d8e-f943-401c-a144-ab85933f89ee","ios":"levelo://app?vid=10b03d8e-f943-401c-a144-ab85933f89ee"},"vehicle_type_id":"4","last_reported":1771197356,"current_range_meters":6800,"station_id":"","pricing_plan_id":"cebpf4jnsgd1na2vs0mg"},{"bike_id":"7b124e54-8418-4378-b0ad-874da7c23bc2","system_id":"levelo_inurba_marseille","lat":43.25584,"lon":5.38235,"is_reserved":false,"is_disabled":false,"rental_uris":{"android":"levelo://app?vid=7b124e54-8418-4378-b0ad-874da7c23bc2","ios":"levelo://app?vid=7b124e54-8418-4378-b0ad-874da7c23bc2"},"vehicle_type_id":"4","last_reported":1771197356,"current_range_meters":28400,"station_id":"ce4bhih2rcd13ifvqfs0","pricing_plan_id":"cebpf4jnsgd1na2vs0mg"},{"bike_id":"e951e5e9-ebdf-46dc-97fc-38088d126805","system_id":"levelo_inurba_marseille","lat":43.26546,"lon":5.39052,"is_reserved":false,"is_disabled":false,"rental_uris":{"android":"levelo://app?vid=e951e5e9-ebdf-46dc-97fc-38088d126805","ios":"levelo://app?vid=e951e5e9-ebdf-46dc-97fc-38088d126805"},"vehicle_type_id":"4","last_reported":1771197356,"current_range_meters":8000,"station_id":"ce4bhe12rcd13ifvqf30","pricing_plan_id":"cebpf4jnsgd1na2vs0mg"},{"bike_id":"5ba309a4-12b9-4eee-8397-472968e7c7d4","system_id":"levelo_inurba_marseille","lat":43.31733,"lon":5.40419,"is_reserved":false,"is_disabled":false,"rental_uris":{"android":"levelo://app?vid=5ba309a4-12b9-4eee-8397-472968e7c7d4","ios":"levelo://app?vid=5ba309a4-12b9-4eee-8397-472968e7c7d4"},"vehicle_type_id":"4","last_reported":1771197356,"current_range_meters":19200,"station_id":"","pricing_plan_id":"cebpf4jnsgd1na2vs0mg"},{"bike_id":"3bd048ee-102f-43d2-9e7e-e3c42044f3b2","system_id":"levelo_inurba_marseille","lat":43.296224,"lon":5.377253,"is_reserved":false,"is_disabled":false,"rental_uris":{"android":"levelo://app?vid=3bd048ee-102f-43d2-9e7e-e3c42044f3b2","ios":"levelo://app?vid=3bd048ee-102f-43d2-9e7e-e3c42044f3b2"},"vehicle_type_id":"4","last_reported":1771197356,"current_range_meters":27600,"station_id":"ce4bgi92rcd13ifvqb90","pricing_plan_id":"cebpf4jnsgd1na2vs0mg"},{"bike_id":"b7600f14-bce5-4dda-a976-6cbf8683f3d2","system_id":"levelo_inurba_marseille","lat":43.27438,"lon":5.39413,"is_reserved":false,"is_disabled":false,"rental_uris":{"android":"levelo://app?vid=b7600f14-bce5-4dda-a976-6cbf8683f3d2","ios":"levelo://app?vid=b7600f14-bce5-4dda-a976-6cbf8683f3d2"},"vehicle_type_id":"4","last_reported":1771197356,"current_range_meters":39200,"station_id":"ce4bhdp2rcd13ifvqf20","pricing_plan_id":"cebpf4jnsgd1na2vs0mg"},{"bike_id":"b20bc577-8bc5-47b1-ab41-99d4e049207a","system_id":"levelo_inurba_marseille","lat":43.30172,"lon":5.38771,"is_reserved":false,"is_disabled":false,"rental_uris":{"android":"levelo://app?vid=b20bc577-8bc5-47b1-ab41-99d4e049207a","ios":"levelo://app?vid=b20bc577-8bc5-47b1-ab41-99d4e049207a"},"vehicle_type_id":"4","last_reported":1771197356,"current_range_meters":40000,"station_id":"ce4bghh2rcd13ifvqb60","pricing_plan_id":"cebpf4jnsgd1na2vs0mg"},{"bike_id":"99e0520a-8006-4995-8a2d-495e35242e98","system_id":"levelo_inurba_marseille","lat":43.31544,"lon":5.38051,"is_reserved":false,"is_disabled":false,"rental_uris":{"android":"levelo://app?vid=99e0520a-8006-4995-8a2d-495e35242e98","ios":"levelo://app?vid=99e0520a-8006-4995-8a2d-495e35242e98"},"vehicle_type_id":"4","last_reported":1771197356,"current_range_meters":32400,"station_id":"ce4bhsp2rcd13ifvqi50","pricing_plan_id":"cebpf4jnsgd1na2vs0mg"},{"bike_id":"f5da9fd8-9139-4984-b2de-0b8ca7936184","system_id":"levelo_inurba_marseille","lat":43.29337,"lon":5.37152,"is_reserved":false,"is_disabled":false,"rental_uris":{"android":"levelo://app?vid=f5da9fd8-9139-4984-b2de-0b8ca7936184","ios":"levelo://app?vid=f5da9fd8-9139-4984-b2de-0b8ca7936184"},"vehicle_type_id":"4","last_reported":1771197356,"current_range_meters":39200,"station_id":"ce4bgh92rcd13ifvqb40","pricing_plan_id":"cebpf4jnsgd1na2vs0mg"},{"bike_id":"da3c25f9-78b4-4200-84ad-4ef68623713a","system_id":"levelo_inurba_marseille","lat":43.29825,"lon":5.36254,"is_reserved":false,"is_disabled":false,"rental_uris":{"android":"levelo://app?vid=da3c25f9-78b4-4200-84ad-4ef68623713a","ios":"levelo://app?vid=da3c25f9-78b4-4200-84ad-4ef68623713a"},"vehicle_type_id":"4","last_reported":1771197356,"current_range_meters":39200,"station_id":"ce4bgpp2rcd13ifvqc3g","pricing_plan_id":"cebpf4jnsgd1na2vs0mg"},{"bike_id":"72ef3fa1-d4b2-4df3-b2e3-90b43bf18926","system_id":"levelo_inurba_marseille","lat":43.29675,"lon":5.39776,"is_reserved":false,"is_disabled":false,"rental_uris":{"android":"levelo://app?vid=72ef3fa1-d4b2-4df3-b2e3-90b43bf18926","ios":"levelo://app?vid=72ef3fa1-d4b2-4df3-b2e3-90b43bf18926"},"vehicle_type_id":"4","last_reported":1771197356,"current_range_meters":28400,"station_id":"","pricing_plan_id":"cebpf4jnsgd1na2vs0mg"},{"bike_id":"62887477-39cf-4778-b9de-70347749d248","system_id":"levelo_inurba_marseille","lat":43.29195,"lon":5.35802,"is_reserved":false,"is_disabled":false,"rental_uris":{"android":"levelo://app?vid=62887477-39cf-4778-b9de-70347749d248","ios":"levelo://app?vid=62887477-39cf-4778-b9de-70347749d248"},"vehicle_type_id":"4","last_reported":1771197356,"current_range_meters":16400,"station_id":"ce4bhb12rcd13ifvqel0","pricing_plan_id":"cebpf4jnsgd1na2vs0mg"},{"bike_id":"7766ef44-2f7a-476b-a468-a433520c380f","system_id":"levelo_inurba_marseille","lat":43.29297,"lon":5.37171,"is_reserved":false,"is_disabled":false,"rental_uris":{"android":"levelo://app?vid=7766ef44-2f7a-476b-a468-a433520c380f","ios":"levelo://app?vid=7766ef44-2f7a-476b-a468-a433520c380f"},"vehicle_type_id":"4","last_reported":1771197356,"current_range_meters":25200,"station_id":"ce4bgh92rcd13ifvqb40","pricing_plan_id":"cebpf4jnsgd1na2vs0mg"},{"bike_id":"d3768cbf-e62d-46fe-823f-3ee34eb63d2a","system_id":"levelo_inurba_marseille","lat":43.27989,"lon":5.41669,"is_reserved":false,"is_disabled":false,"rental_uris":{"android":"levelo://app?vid=d3768cbf-e62d-46fe-823f-3ee34eb63d2a","ios":"levelo://app?vid=d3768cbf-e62d-46fe-823f-3ee34eb63d2a"},"vehicle_type_id":"4","last_reported":1771197356,"current_range_meters":25600,"station_id":"ce4bho12rcd13ifvqh1g","pricing_plan_id":"cebpf4jnsgd1na2vs0mg"},{"bike_id":"96467b12-d32e-4143-8fa8-6b73f8e01e6d","system_id":"levelo_inurba_marseille","lat":43.30633,"lon":5.37222,"is_reserved":false,"is_disabled":false,"rental_uris":{"android":"levelo://app?vid=96467b12-d32e-4143-8fa8-6b73f8e01e6d","ios":"levelo://app?vid=96467b12-d32e-4143-8fa8-6b73f8e01e6d"},"vehicle_type_id":"4","last_reported":1771197356,"current_range_meters":33200,"station_id":"ce4bgqh2rcd13ifvqc4g","pricing_plan_id":"cebpf4jnsgd1na2vs0mg"},{"bike_id":"4cb2a9d8-8a61-4838-80c1-000f896cc9a0","system_id":"levelo_inurba_marseille","lat":43.28434,"lon":5.3499,"is_reserved":false,"is_disabled":false,"rental_uris":{"android":"levelo://app?vid=4cb2a9d8-8a61-4838-80c1-000f896cc9a0","ios":"levelo://app?vid=4cb2a9d8-8a61-4838-80c1-000f896cc9a0"},"vehicle_type_id":"4","last_reported":1771197356,"current_range_meters":8800,"station_id":"ce4bhbh2rcd13ifvqepg","pricing_plan_id":"cebpf4jnsgd1na2vs0mg"},{"bike_id":"c9891130-fdc1-47c8-89e2-43372c1c20be","system_id":"levelo_inurba_marseille","lat":43.2986,"lon":5.39061,"is_reserved":false,"is_disabled":false,"rental_uris":{"android":"levelo://app?vid=c9891130-fdc1-47c8-89e2-43372c1c20be","ios":"levelo://app?vid=c9891130-fdc1-47c8-89e2-43372c1c20be"},"vehicle_type_id":"4","last_reported":1771197356,"current_range_meters":33600,"station_id":"ce4bghh2rcd13ifvqb60","pricing_plan_id":"cebpf4jnsgd1na2vs0mg"},{"bike_id":"8cf2d6d7-e51d-4831-bd1b-4195dd83b79f","system_id":"levelo_inurba_marseille","lat":43.29294,"lon":5.40861,"is_reserved":false,"is_disabled":false,"rental_uris":{"android":"levelo://app?vid=8cf2d6d7-e51d-4831-bd1b-4195dd83b79f","ios":"levelo://app?vid=8cf2d6d7-e51d-4831-bd1b-4195dd83b79f"},"vehicle_type_id":"4","last_reported":1771197356,"current_range_meters":7200,"station_id":"","pricing_plan_id":"cebpf4jnsgd1na2vs0mg"},{"bike_id":"a55e9e8a-883d-4e94-be0a-9196b5976981","system_id":"levelo_inurba_marseille","lat":43.28855,"lon":5.35831,"is_reserved":false,"is_disabled":false,"rental_uris":{"android":"levelo://app?vid=a55e9e8a-883d-4e94-be0a-9196b5976981","ios":"levelo://app?vid=a55e9e8a-883d-4e94-be0a-9196b5976981"},"vehicle_type_id":"4","last_reported":1771197356,"current_range_meters":24800,"station_id":"ce4bhb12rcd13ifvqem0","pricing_plan_id":"cebpf4jnsgd1na2vs0mg"},{"bike_id":"5ec9eae3-9154-47fa-b6c5-fd9f748b3e47","system_id":"levelo_inurba_marseille","lat":43.30799,"lon":5.38153,"is_reserved":false,"is_disabled":false,"rental_uris":{"android":"levelo://app?vid=5ec9eae3-9154-47fa-b6c5-fd9f748b3e47","ios":"levelo://app?vid=5ec9eae3-9154-47fa-b6c5-fd9f748b3e47"},"vehicle_type_id":"4","last_reported":1771197356,"current_range_meters":16800,"station_id":"ce4bgt12rcd13ifvqce0","pricing_plan_id":"cebpf4jnsgd1na2vs0mg"},{"bike_id":"11bbe498-cd8f-4b2e-8e45-54529a7a0a47","system_id":"levelo_inurba_marseille","lat":43.297639,"lon":5.427846,"is_reserved":false,"is_disabled":true,"rental_uris":{"android":"levelo://app?vid=11bbe498-cd8f-4b2e-8e45-54529a7a0a47","ios":"levelo://app?vid=11bbe498-cd8f-4b2e-8e45-54529a7a0a47"},"vehicle_type_id":"4","last_reported":1771197356,"current_range_meters":1600,"station_id":"st_d3md5207bmas73dh9klg","pricing_plan_id":"cebpf4jnsgd1na2vs0mg"},{"bike_id":"67416ef9-595d-4317-94e9-1a5ec0fd675e","system_id":"levelo_inurba_marseille","lat":43.28866,"lon":5.35849,"is_reserved":false,"is_disabled":false,"rental_uris":{"android":"levelo://app?vid=67416ef9-595d-4317-94e9-1a5ec0fd675e","ios":"levelo://app?vid=67416ef9-595d-4317-94e9-1a5ec0fd675e"},"vehicle_type_id":"4","last_reported":1771197356,"current_range_meters":33600,"station_id":"ce4bhb12rcd13ifvqem0","pricing_plan_id":"cebpf4jnsgd1na2vs0mg"},{"bike_id":"db85d612-2486-4180-a7a9-4b56d8d31f7d","system_id":"levelo_inurba_marseille","lat":43.29264,"lon":5.36857,"is_reserved":false,"is_disabled":false,"rental_uris":{"android":"levelo://app?vid=db85d612-2486-4180-a7a9-4b56d8d31f7d","ios":"levelo://app?vid=db85d612-2486-4180-a7a9-4b56d8d31f7d"},"vehicle_type_id":"4","last_reported":1771197356,"current_range_meters":30400,"station_id":"ce4bhbp2rcd13ifvqesg","pricing_plan_id":"cebpf4jnsgd1na2vs0mg"},{"bike_id":"c68d4169-f907-4c79-9246-9c72b1a7a46a","system_id":"levelo_inurba_marseille","lat":43.29226,"lon":5.36053,"is_reserved":false,"is_disabled":false,"rental_uris":{"android":"levelo://app?vid=c68d4169-f907-4c79-9246-9c72b1a7a46a","ios":"levelo://app?vid=c68d4169-f907-4c79-9246-9c72b1a7a46a"},"vehicle_type_id":"4","last_reported":1771197356,"current_range_meters":39200,"station_id":"ce4bhbh2rcd13ifvqeqg","pricing_plan_id":"cebpf4jnsgd1na2vs0mg"},{"bike_id":"6f6a04ad-dd00-4f4a-bdfd-a835cfa0cc11","system_id":"levelo_inurba_marseille","lat":43.27073,"lon":5.38326,"is_reserved":false,"is_disabled":false,"rental_uris":{"android":"levelo://app?vid=6f6a04ad-dd00-4f4a-bdfd-a835cfa0cc11","ios":"levelo://app?vid=6f6a04ad-dd00-4f4a-bdfd-a835cfa0cc11"},"vehicle_type_id":"4","last_reported":1771197356,"current_range_meters":31200,"station_id":"st_d3n2fo6cfp8s73cte1j0","pricing_plan_id":"cebpf4jnsgd1na2vs0mg"},{"bike_id":"801aea90-6d04-4d6c-bccd-030211377390","system_id":"levelo_inurba_marseille","lat":43.2749,"lon":5.42467,"is_reserved":false,"is_disabled":false,"rental_uris":{"android":"levelo://app?vid=801aea90-6d04-4d6c-bccd-030211377390","ios":"levelo://app?vid=801aea90-6d04-4d6c-bccd-030211377390"},"vehicle_type_id":"4","last_reported":1771197356,"current_range_meters":22400,"station_id":"ce4bhn92rcd13ifvqgrg","pricing_plan_id":"cebpf4jnsgd1na2vs0mg"},{"bike_id":"4e4c79b4-286f-458a-a494-98664f2e8591","system_id":"levelo_inurba_marseille","lat":43.33125,"lon":5.39271,"is_reserved":false,"is_disabled":false,"rental_uris":{"android":"levelo://app?vid=4e4c79b4-286f-458a-a494-98664f2e8591","ios":"levelo://app?vid=4e4c79b4-286f-458a-a494-98664f2e8591"},"vehicle_type_id":"4","last_reported":1771197356,"current_range_meters":28000,"station_id":"","pricing_plan_id":"cebpf4jnsgd1na2vs0mg"},{"bike_id":"fcdee124-54c2-45c2-866c-075925635f0c","system_id":"levelo_inurba_marseille","lat":43.28639,"lon":5.35084,"is_reserved":false,"is_disabled":false,"rental_uris":{"android":"levelo://app?vid=fcdee124-54c2-45c2-866c-075925635f0c","ios":"levelo://app?vid=fcdee124-54c2-45c2-866c-075925635f0c"},"vehicle_type_id":"4","last_reported":1771197356,"current_range_meters":18800,"station_id":"ce4bhch2rcd13ifvqeug","pricing_plan_id":"cebpf4jnsgd1na2vs0mg"},{"bike_id":"3466503b-af29-415c-826a-265b92625e7e","system_id":"levelo_inurba_marseille","lat":43.32092,"lon":5.36776,"is_reserved":false,"is_disabled":false,"rental_uris":{"android":"levelo://app?vid=3466503b-af29-415c-826a-265b92625e7e","ios":"levelo://app?vid=3466503b-af29-415c-826a-265b92625e7e"},"vehicle_type_id":"4","last_reported":1771197356,"current_range_meters":28000,"station_id":"ce4bhrh2rcd13ifvqhug","pricing_plan_id":"cebpf4jnsgd1na2vs0mg"},{"bike_id":"30242c10-815e-4f77-9fd9-a2c22a5db905","system_id":"levelo_inurba_marseille","lat":43.28078,"lon":5.3968,"is_reserved":false,"is_disabled":false,"rental_uris":{"android":"levelo://app?vid=30242c10-815e-4f77-9fd9-a2c22a5db905","ios":"levelo://app?vid=30242c10-815e-4f77-9fd9-a2c22a5db905"},"vehicle_type_id":"4","last_reported":1771197356,"current_range_meters":38400,"station_id":"ce4bho12rcd13ifvqh2g","pricing_plan_id":"cebpf4jnsgd1na2vs0mg"},{"bike_id":"8a5adf31-8043-4756-b6af-6195148d5774","system_id":"levelo_inurba_marseille","lat":43.29202,"lon":5.35807,"is_reserved":false,"is_disabled":false,"rental_uris":{"android":"levelo://app?vid=8a5adf31-8043-4756-b6af-6195148d5774","ios":"levelo://app?vid=8a5adf31-8043-4756-b6af-6195148d5774"},"vehicle_type_id":"4","last_reported":1771197356,"current_range_meters":18800,"station_id":"ce4bhb12rcd13ifvqel0","pricing_plan_id":"cebpf4jnsgd1na2vs0mg"},{"bike_id":"6d819218-6dc0-4758-82ab-51c5e4561485","system_id":"levelo_inurba_marseille","lat":43.28614,"lon":5.35105,"is_reserved":false,"is_disabled":false,"rental_uris":{"android":"levelo://app?vid=6d819218-6dc0-4758-82ab-51c5e4561485","ios":"levelo://app?vid=6d819218-6dc0-4758-82ab-51c5e4561485"},"vehicle_type_id":"4","last_reported":1771197356,"current_range_meters":6000,"station_id":"ce4bhch2rcd13ifvqeug","pricing_plan_id":"cebpf4jnsgd1na2vs0mg"},{"bike_id":"0cfeca90-3a0f-4841-9a00-2513602bf4d3","system_id":"levelo_inurba_marseille","lat":43.29573,"lon":5.3775,"is_reserved":false,"is_disabled":false,"rental_uris":{"android":"levelo://app?vid=0cfeca90-3a0f-4841-9a00-2513602bf4d3","ios":"levelo://app?vid=0cfeca90-3a0f-4841-9a00-2513602bf4d3"},"vehicle_type_id":"4","last_reported":1771197356,"current_range_meters":30400,"station_id":"","pricing_plan_id":"cebpf4jnsgd1na2vs0mg"},{"bike_id":"eaa5a20b-1cfb-4952-b36f-41363341fdee","system_id":"levelo_inurba_marseille","lat":43.23971,"lon":5.36626,"is_reserved":false,"is_disabled":false,"rental_uris":{"android":"levelo://app?vid=eaa5a20b-1cfb-4952-b36f-41363341fdee","ios":"levelo://app?vid=eaa5a20b-1cfb-4952-b36f-41363341fdee"},"vehicle_type_id":"4","last_reported":1771197356,"current_range_meters":11200,"station_id":"ce4bhi12rcd13ifvqfp0","pricing_plan_id":"cebpf4jnsgd1na2vs0mg"},{"bike_id":"728a8600-c06b-4447-9a71-a43a2371fd54","system_id":"levelo_inurba_marseille","lat":43.25105,"lon":5.39491,"is_reserved":false,"is_disabled":true,"rental_uris":{"android":"levelo://app?vid=728a8600-c06b-4447-9a71-a43a2371fd54","ios":"levelo://app?vid=728a8600-c06b-4447-9a71-a43a2371fd54"},"vehicle_type_id":"4","last_reported":1771197356,"current_range_meters":10000,"station_id":"ce4bhm12rcd13ifvqgkg","pricing_plan_id":"cebpf4jnsgd1na2vs0mg"},{"bike_id":"41c4ec5c-3a76-42f4-a567-7ea7206ebc6f","system_id":"levelo_inurba_marseille","lat":43.24552,"lon":5.39537,"is_reserved":false,"is_disabled":false,"rental_uris":{"android":"levelo://app?vid=41c4ec5c-3a76-42f4-a567-7ea7206ebc6f","ios":"levelo://app?vid=41c4ec5c-3a76-42f4-a567-7ea7206ebc6f"},"vehicle_type_id":"4","last_reported":1771197356,"current_range_meters":34000,"station_id":"ce4bhlp2rcd13ifvqgjg","pricing_plan_id":"cebpf4jnsgd1na2vs0mg"},{"bike_id":"985f9182-c072-40ac-a0db-0d07f6465584","system_id":"levelo_inurba_marseille","lat":43.243888,"lon":5.37052,"is_reserved":false,"is_disabled":false,"rental_uris":{"android":"levelo://app?vid=985f9182-c072-40ac-a0db-0d07f6465584","ios":"levelo://app?vid=985f9182-c072-40ac-a0db-0d07f6465584"},"vehicle_type_id":"4","last_reported":1771197356,"current_range_meters":28000,"station_id":"ce4bhhh2rcd13ifvqfk0","pricing_plan_id":"cebpf4jnsgd1na2vs0mg"},{"bike_id":"2f0b85aa-c457-4958-914e-08f5ab13887b","system_id":"levelo_inurba_marseille","lat":43.2407,"lon":5.37762,"is_reserved":false,"is_disabled":false,"rental_uris":{"android":"levelo://app?vid=2f0b85aa-c457-4958-914e-08f5ab13887b","ios":"levelo://app?vid=2f0b85aa-c457-4958-914e-08f5ab13887b"},"vehicle_type_id":"4","last_reported":1771197356,"current_range_meters":25600,"station_id":"ce4bhnp2rcd13ifvqgvg","pricing_plan_id":"cebpf4jnsgd1na2vs0mg"},{"bike_id":"978d2f99-2f31-4c4e-be2a-4e68224c9eda","system_id":"levelo_inurba_marseille","lat":43.2681,"lon":5.40266,"is_reserved":false,"is_disabled":false,"rental_uris":{"android":"levelo://app?vid=978d2f99-2f31-4c4e-be2a-4e68224c9eda","ios":"levelo://app?vid=978d2f99-2f31-4c4e-be2a-4e68224c9eda"},"vehicle_type_id":"4","last_reported":1771197356,"current_range_meters":24000,"station_id":"ce501612rcd8frsf0b60","pricing_plan_id":"cebpf4jnsgd1na2vs0mg"},{"bike_id":"e71994a2-65a6-4b6d-9113-3678b38f3c81","system_id":"levelo_inurba_marseille","lat":43.30563,"lon":5.36549,"is_reserved":false,"is_disabled":false,"rental_uris":{"android":"levelo://app?vid=e71994a2-65a6-4b6d-9113-3678b38f3c81","ios":"levelo://app?vid=e71994a2-65a6-4b6d-9113-3678b38f3c81"},"vehicle_type_id":"4","last_reported":1771197356,"current_range_meters":12400,"station_id":"ce4bgs12rcd13ifvqcag","pricing_plan_id":"cebpf4jnsgd1na2vs0mg"},{"bike_id":"a7f7b660-0691-444e-a35e-d0e7e558f8cd","system_id":"levelo_inurba_marseille","lat":43.269442,"lon":5.386355,"is_reserved":false,"is_disabled":true,"rental_uris":{"android":"levelo://app?vid=a7f7b660-0691-444e-a35e-d0e7e558f8cd","ios":"levelo://app?vid=a7f7b660-0691-444e-a35e-d0e7e558f8cd"},"vehicle_type_id":"4","last_reported":1771197356,"current_range_meters":32000,"station_id":"ce4bhh92rcd13ifvqfh0","pricing_plan_id":"cebpf4jnsgd1na2vs0mg"},{"bike_id":"80033249-05b9-472e-b39e-455c6dac54cf","system_id":"levelo_inurba_marseille","lat":43.24084,"lon":5.37742,"is_reserved":false,"is_disabled":false,"rental_uris":{"android":"levelo://app?vid=80033249-05b9-472e-b39e-455c6dac54cf","ios":"levelo://app?vid=80033249-05b9-472e-b39e-455c6dac54cf"},"vehicle_type_id":"4","last_reported":1771197356,"current_range_meters":33600,"station_id":"ce4bhnp2rcd13ifvqgvg","pricing_plan_id":"cebpf4jnsgd1na2vs0mg"},{"bike_id":"cf8b7d0a-9a5a-4f97-92c3-931492bbfb02","system_id":"levelo_inurba_marseille","lat":43.27212,"lon":5.40967,"is_reserved":false,"is_disabled":false,"rental_uris":{"android":"levelo://app?vid=cf8b7d0a-9a5a-4f97-92c3-931492bbfb02","ios":"levelo://app?vid=cf8b7d0a-9a5a-4f97-92c3-931492bbfb02"},"vehicle_type_id":"4","last_reported":1771197356,"current_range_meters":28000,"station_id":"","pricing_plan_id":"cebpf4jnsgd1na2vs0mg"},{"bike_id":"bfd9d056-3cd0-4156-bc1c-ed231a73ccbf","system_id":"levelo_inurba_marseille","lat":43.295656,"lon":5.375151,"is_reserved":false,"is_disabled":false,"rental_uris":{"android":"levelo://app?vid=bfd9d056-3cd0-4156-bc1c-ed231a73ccbf","ios":"levelo://app?vid=bfd9d056-3cd0-4156-bc1c-ed231a73ccbf"},"vehicle_type_id":"4","last_reported":1771197356,"current_range_meters":12800,"station_id":"ce4bgh92rcd13ifvqb50","pricing_plan_id":"cebpf4jnsgd1na2vs0mg"},{"bike_id":"81302b6a-ae55-48e0-a499-b5924cd99720","system_id":"levelo_inurba_marseille","lat":43.28702,"lon":5.37382,"is_reserved":false,"is_disabled":false,"rental_uris":{"android":"levelo://app?vid=81302b6a-ae55-48e0-a499-b5924cd99720","ios":"levelo://app?vid=81302b6a-ae55-48e0-a499-b5924cd99720"},"vehicle_type_id":"4","last_reported":1771197356,"current_range_meters":38400,"station_id":"ce4bh3p2rcd13ifvqdq0","pricing_plan_id":"cebpf4jnsgd1na2vs0mg"},{"bike_id":"88ff9439-db02-4be2-a9f2-dbfd8e7a5968","system_id":"levelo_inurba_marseille","lat":43.25845,"lon":5.39893,"is_reserved":false,"is_disabled":false,"rental_uris":{"android":"levelo://app?vid=88ff9439-db02-4be2-a9f2-dbfd8e7a5968","ios":"levelo://app?vid=88ff9439-db02-4be2-a9f2-dbfd8e7a5968"},"vehicle_type_id":"4","last_reported":1771197356,"current_range_meters":30400,"station_id":"ce4bhl92rcd13ifvqghg","pricing_plan_id":"cebpf4jnsgd1na2vs0mg"},{"bike_id":"cfae685f-c63c-4f49-9c1b-ab3959e7fdd6","system_id":"levelo_inurba_marseille","lat":43.2495,"lon":5.40508,"is_reserved":false,"is_disabled":false,"rental_uris":{"android":"levelo://app?vid=cfae685f-c63c-4f49-9c1b-ab3959e7fdd6","ios":"levelo://app?vid=cfae685f-c63c-4f49-9c1b-ab3959e7fdd6"},"vehicle_type_id":"4","last_reported":1771197356,"current_range_meters":35200,"station_id":"st_d2ngiaodas8pm72gd1h0","pricing_plan_id":"cebpf4jnsgd1na2vs0mg"},{"bike_id":"ffcb95c1-3776-4292-8599-220fd7020f47","system_id":"levelo_inurba_marseille","lat":43.28199,"lon":5.39085,"is_reserved":false,"is_disabled":true,"rental_uris":{"android":"levelo://app?vid=ffcb95c1-3776-4292-8599-220fd7020f47","ios":"levelo://app?vid=ffcb95c1-3776-4292-8599-220fd7020f47"},"vehicle_type_id":"4","last_reported":1771197356,"current_range_meters":23200,"station_id":"ce4bhn92rcd13ifvqgsg","pricing_plan_id":"cebpf4jnsgd1na2vs0mg"},{"bike_id":"a92aea04-d9ee-40a7-9385-9fbb090f0026","system_id":"levelo_inurba_marseille","lat":43.26064,"lon":5.39412,"is_reserved":false,"is_disabled":false,"rental_uris":{"android":"levelo://app?vid=a92aea04-d9ee-40a7-9385-9fbb090f0026","ios":"levelo://app?vid=a92aea04-d9ee-40a7-9385-9fbb090f0026"},"vehicle_type_id":"4","last_reported":1771197356,"current_range_meters":39200,"station_id":"ce4bhh92rcd13ifvqfj0","pricing_plan_id":"cebpf4jnsgd1na2vs0mg"},{"bike_id":"c3f34589-7e52-4b06-ab1f-2b2644d4bc2a","system_id":"levelo_inurba_marseille","lat":43.29006,"lon":5.35611,"is_reserved":false,"is_disabled":false,"rental_uris":{"android":"levelo://app?vid=c3f34589-7e52-4b06-ab1f-2b2644d4bc2a","ios":"levelo://app?vid=c3f34589-7e52-4b06-ab1f-2b2644d4bc2a"},"vehicle_type_id":"4","last_reported":1771197356,"current_range_meters":24800,"station_id":"ce4bhb92rcd13ifvqen0","pricing_plan_id":"cebpf4jnsgd1na2vs0mg"},{"bike_id":"ddc08c7d-272e-4f9e-9760-0703e441790a","system_id":"levelo_inurba_marseille","lat":43.29564,"lon":5.37504,"is_reserved":false,"is_disabled":false,"rental_uris":{"android":"levelo://app?vid=ddc08c7d-272e-4f9e-9760-0703e441790a","ios":"levelo://app?vid=ddc08c7d-272e-4f9e-9760-0703e441790a"},"vehicle_type_id":"4","last_reported":1771197356,"current_range_meters":27600,"station_id":"ce4bgh92rcd13ifvqb50","pricing_plan_id":"cebpf4jnsgd1na2vs0mg"},{"bike_id":"0f5b678e-a1bb-4884-bdfb-2b656f055e65","system_id":"levelo_inurba_marseille","lat":43.27899,"lon":5.37973,"is_reserved":false,"is_disabled":false,"rental_uris":{"android":"levelo://app?vid=0f5b678e-a1bb-4884-bdfb-2b656f055e65","ios":"levelo://app?vid=0f5b678e-a1bb-4884-bdfb-2b656f055e65"},"vehicle_type_id":"4","last_reported":1771197356,"current_range_meters":10000,"station_id":"ce4bhf92rcd13ifvqf50","pricing_plan_id":"cebpf4jnsgd1na2vs0mg"},{"bike_id":"48aed61f-414a-497a-ac68-86d9f7b9bb97","system_id":"levelo_inurba_marseille","lat":43.3059,"lon":5.37237,"is_reserved":false,"is_disabled":true,"rental_uris":{"android":"levelo://app?vid=48aed61f-414a-497a-ac68-86d9f7b9bb97","ios":"levelo://app?vid=48aed61f-414a-497a-ac68-86d9f7b9bb97"},"vehicle_type_id":"4","last_reported":1771197356,"current_range_meters":24400,"station_id":"ce4bgqh2rcd13ifvqc4g","pricing_plan_id":"cebpf4jnsgd1na2vs0mg"},{"bike_id":"9a845590-bef0-4cac-8aaf-99569a2ff2ac","system_id":"levelo_inurba_marseille","lat":43.29258,"lon":5.40886,"is_reserved":false,"is_disabled":false,"rental_uris":{"android":"levelo://app?vid=9a845590-bef0-4cac-8aaf-99569a2ff2ac","ios":"levelo://app?vid=9a845590-bef0-4cac-8aaf-99569a2ff2ac"},"vehicle_type_id":"4","last_reported":1771197356,"current_range_meters":34800,"station_id":"ce4bh192rcd13ifvqdc0","pricing_plan_id":"cebpf4jnsgd1na2vs0mg"},{"bike_id":"8491b334-0ba7-4277-9797-3edac002b21f","system_id":"levelo_inurba_marseille","lat":43.26219,"lon":5.40456,"is_reserved":false,"is_disabled":false,"rental_uris":{"android":"levelo://app?vid=8491b334-0ba7-4277-9797-3edac002b21f","ios":"levelo://app?vid=8491b334-0ba7-4277-9797-3edac002b21f"},"vehicle_type_id":"4","last_reported":1771197356,"current_range_meters":7200,"station_id":"ce4bhmh2rcd13ifvqgmg","pricing_plan_id":"cebpf4jnsgd1na2vs0mg"},{"bike_id":"62b046b0-ceed-4557-baf8-1db2a63a9c49","system_id":"levelo_inurba_marseille","lat":43.29594,"lon":5.43905,"is_reserved":false,"is_disabled":false,"rental_uris":{"android":"levelo://app?vid=62b046b0-ceed-4557-baf8-1db2a63a9c49","ios":"levelo://app?vid=62b046b0-ceed-4557-baf8-1db2a63a9c49"},"vehicle_type_id":"4","last_reported":1771197356,"current_range_meters":32000,"station_id":"","pricing_plan_id":"cebpf4jnsgd1na2vs0mg"},{"bike_id":"d25f787f-a585-4027-9b19-9c757e5f8581","system_id":"levelo_inurba_marseille","lat":43.26801,"lon":5.39461,"is_reserved":false,"is_disabled":false,"rental_uris":{"android":"levelo://app?vid=d25f787f-a585-4027-9b19-9c757e5f8581","ios":"levelo://app?vid=d25f787f-a585-4027-9b19-9c757e5f8581"},"vehicle_type_id":"4","last_reported":1771197356,"current_range_meters":24800,"station_id":"","pricing_plan_id":"cebpf4jnsgd1na2vs0mg"},{"bike_id":"af1bad4a-9a8c-4ce6-826d-62498546f4f1","system_id":"levelo_inurba_marseille","lat":43.3043,"lon":5.36878,"is_reserved":false,"is_disabled":false,"rental_uris":{"android":"levelo://app?vid=af1bad4a-9a8c-4ce6-826d-62498546f4f1","ios":"levelo://app?vid=af1bad4a-9a8c-4ce6-826d-62498546f4f1"},"vehicle_type_id":"4","last_reported":1771197356,"current_range_meters":24800,"station_id":"","pricing_plan_id":"cebpf4jnsgd1na2vs0mg"},{"bike_id":"8119e919-d611-43a7-bf9d-f4a474ebc7c9","system_id":"levelo_inurba_marseille","lat":43.28853,"lon":5.39288,"is_reserved":false,"is_disabled":false,"rental_uris":{"android":"levelo://app?vid=8119e919-d611-43a7-bf9d-f4a474ebc7c9","ios":"levelo://app?vid=8119e919-d611-43a7-bf9d-f4a474ebc7c9"},"vehicle_type_id":"4","last_reported":1771197356,"current_range_meters":39200,"station_id":"ce4bh2p2rcd13ifvqdi0","pricing_plan_id":"cebpf4jnsgd1na2vs0mg"},{"bike_id":"3bb5bc67-1d0a-4908-8016-273223517602","system_id":"levelo_inurba_marseille","lat":43.26064,"lon":5.39395,"is_reserved":false,"is_disabled":false,"rental_uris":{"android":"levelo://app?vid=3bb5bc67-1d0a-4908-8016-273223517602","ios":"levelo://app?vid=3bb5bc67-1d0a-4908-8016-273223517602"},"vehicle_type_id":"4","last_reported":1771197356,"current_range_meters":4400,"station_id":"ce4bhh92rcd13ifvqfj0","pricing_plan_id":"cebpf4jnsgd1na2vs0mg"},{"bike_id":"bb8da79f-40bd-46c5-8d9f-995adda9ec00","system_id":"levelo_inurba_marseille","lat":43.27979,"lon":5.38722,"is_reserved":false,"is_disabled":true,"rental_uris":{"android":"levelo://app?vid=bb8da79f-40bd-46c5-8d9f-995adda9ec00","ios":"levelo://app?vid=bb8da79f-40bd-46c5-8d9f-995adda9ec00"},"vehicle_type_id":"4","last_reported":1771197356,"current_range_meters":28000,"station_id":"ce4bhg12rcd13ifvqf80","pricing_plan_id":"cebpf4jnsgd1na2vs0mg"},{"bike_id":"4ecccdf8-eeb1-4e16-8486-1a035343c059","system_id":"levelo_inurba_marseille","lat":43.28627,"lon":5.35097,"is_reserved":false,"is_disabled":false,"rental_uris":{"android":"levelo://app?vid=4ecccdf8-eeb1-4e16-8486-1a035343c059","ios":"levelo://app?vid=4ecccdf8-eeb1-4e16-8486-1a035343c059"},"vehicle_type_id":"4","last_reported":1771197356,"current_range_meters":12400,"station_id":"ce4bhch2rcd13ifvqeug","pricing_plan_id":"cebpf4jnsgd1na2vs0mg"},{"bike_id":"1513b4fb-a1b1-4be9-8f5c-de1994804d23","system_id":"levelo_inurba_marseille","lat":43.28926,"lon":5.36635,"is_reserved":false,"is_disabled":false,"rental_uris":{"android":"levelo://app?vid=1513b4fb-a1b1-4be9-8f5c-de1994804d23","ios":"levelo://app?vid=1513b4fb-a1b1-4be9-8f5c-de1994804d23"},"vehicle_type_id":"4","last_reported":1771197356,"current_range_meters":36400,"station_id":"ce4bhap2rcd13ifvqek0","pricing_plan_id":"cebpf4jnsgd1na2vs0mg"},{"bike_id":"b25d14fc-b504-4447-a03d-7ca17c4c80bd","system_id":"levelo_inurba_marseille","lat":43.25335,"lon":5.42157,"is_reserved":false,"is_disabled":false,"rental_uris":{"android":"levelo://app?vid=b25d14fc-b504-4447-a03d-7ca17c4c80bd","ios":"levelo://app?vid=b25d14fc-b504-4447-a03d-7ca17c4c80bd"},"vehicle_type_id":"4","last_reported":1771197356,"current_range_meters":23200,"station_id":"st_d2m65c5bi1j21697t3ng","pricing_plan_id":"cebpf4jnsgd1na2vs0mg"},{"bike_id":"9c84dd9d-345d-4e79-b566-6f7378557fe2","system_id":"levelo_inurba_marseille","lat":43.28416,"lon":5.37537,"is_reserved":false,"is_disabled":false,"rental_uris":{"android":"levelo://app?vid=9c84dd9d-345d-4e79-b566-6f7378557fe2","ios":"levelo://app?vid=9c84dd9d-345d-4e79-b566-6f7378557fe2"},"vehicle_type_id":"4","last_reported":1771197356,"current_range_meters":36800,"station_id":"ce4bh412rcd13ifvqds0","pricing_plan_id":"cebpf4jnsgd1na2vs0mg"},{"bike_id":"414fe893-910a-4545-b16e-dc2665c28af7","system_id":"levelo_inurba_marseille","lat":43.299621,"lon":5.413197,"is_reserved":false,"is_disabled":false,"rental_uris":{"android":"levelo://app?vid=414fe893-910a-4545-b16e-dc2665c28af7","ios":"levelo://app?vid=414fe893-910a-4545-b16e-dc2665c28af7"},"vehicle_type_id":"4","last_reported":1771197356,"current_range_meters":38800,"station_id":"ce4bhp12rcd13ifvqh9g","pricing_plan_id":"cebpf4jnsgd1na2vs0mg"},{"bike_id":"d2229b13-3c01-426f-a1c3-3c9e5d3accfe","system_id":"levelo_inurba_marseille","lat":43.23373,"lon":5.41243,"is_reserved":false,"is_disabled":true,"rental_uris":{"android":"levelo://app?vid=d2229b13-3c01-426f-a1c3-3c9e5d3accfe","ios":"levelo://app?vid=d2229b13-3c01-426f-a1c3-3c9e5d3accfe"},"vehicle_type_id":"4","last_reported":1771197356,"current_range_meters":400,"station_id":"","pricing_plan_id":"cebpf4jnsgd1na2vs0mg"},{"bike_id":"581b66d3-dac2-4059-bda9-8d59c6f0b236","system_id":"levelo_inurba_marseille","lat":43.28938,"lon":5.38402,"is_reserved":false,"is_disabled":false,"rental_uris":{"android":"levelo://app?vid=581b66d3-dac2-4059-bda9-8d59c6f0b236","ios":"levelo://app?vid=581b66d3-dac2-4059-bda9-8d59c6f0b236"},