{"last_updated":1769465579,"ttl":60,"version":"2.2","data":{"bikes":[{"bike_id":"82b5d913-4277-4632-aba8-efdc4660c6ca","system_id":"levelo_inurba_marseille","lat":43.321092,"lon":5.36766,"is_reserved":false,"is_disabled":false,"rental_uris":{"android":"levelo://app?vid=82b5d913-4277-4632-aba8-efdc4660c6ca","ios":"levelo://app?vid=82b5d913-4277-4632-aba8-efdc4660c6ca"},"vehicle_type_id":"4","last_reported":1769465579,"current_range_meters":2800,"station_id":"ce4bhrh2rcd13ifvqhug","pricing_plan_id":"cebpf4jnsgd1na2vs0mg"},{"bike_id":"c617e641-6731-42d0-9e99-c0557746d623","system_id":"levelo_inurba_marseille","lat":43.295929,"lon":5.380929,"is_reserved":false,"is_disabled":false,"rental_uris":{"android":"levelo://app?vid=c617e641-6731-42d0-9e99-c0557746d623","ios":"levelo://app?vid=c617e641-6731-42d0-9e99-c0557746d623"},"vehicle_type_id":"4","last_reported":1769465579,"current_range_meters":2800,"station_id":"ce4bgl12rcd13ifvqbo0","pricing_plan_id":"cebpf4jnsgd1na2vs0mg"},{"bike_id":"a7d2959e-278b-41d6-9192-a644114b55de","system_id":"levelo_inurba_marseille","lat":43.23799,"lon":5.36643,"is_reserved":false,"is_disabled":false,"rental_uris":{"android":"levelo://app?vid=a7d2959e-278b-41d6-9192-a644114b55de","ios":"levelo://app?vid=a7d2959e-278b-41d6-9192-a644114b55de"},"vehicle_type_id":"4","last_reported":1769465579,"current_range_meters":2800,"station_id":"st_d3nk18o9ro0c73en2l3g","pricing_plan_id":"cebpf4jnsgd1na2vs0mg"},{"bike_id":"e0d481e3-a2f1-4611-bee7-da7ec40e5a79","system_id":"levelo_inurba_marseille","lat":43.27321,"lon":5.3908,"is_reserved":false,"is_disabled":false,"rental_uris":{"android":"levelo://app?vid=e0d481e3-a2f1-4611-bee7-da7ec40e5a79","ios":"levelo://app?vid=e0d481e3-a2f1-4611-bee7-da7ec40e5a79"},"vehicle_type_id":"4","last_reported":1769465579,"current_range_meters":2800,"station_id":"ce4bhgp2rcd13ifvqfe0","pricing_plan_id":"cebpf4jnsgd1na2vs0mg"},{"bike_id":"1af134af-b248-498e-96dc-9a2ddb9f63a5","system_id":"levelo_inurba_marseille","lat":43.28656,"lon":5.36356,"is_reserved":false,"is_disabled":false,"rental_uris":{"android":"levelo://app?vid=1af134af-b248-498e-96dc-9a2ddb9f63a5","ios":"levelo://app?vid=1af134af-b248-498e-96dc-9a2ddb9f63a5"},"vehicle_type_id":"4","last_reported":1769465579,"current_range_meters":2800,"station_id":"ce4bhah2rcd13ifvqej0","pricing_plan_id":"cebpf4jnsgd1na2vs0mg"},{"bike_id":"bdb69a13-aead-4f82-83aa-de58bde97ddd","system_id":"levelo_inurba_marseille","lat":43.27818,"lon":5.40711,"is_reserved":false,"is_disabled":false,"rental_uris":{"android":"levelo://app?vid=bdb69a13-aead-4f82-83aa-de58bde97ddd","ios":"levelo://app?vid=bdb69a13-aead-4f82-83aa-de58bde97ddd"},"vehicle_type_id":"4","last_reported":1769465579,"current_range_meters":3200,"station_id":"ce4bhnh2rcd13ifvqgtg","pricing_plan_id":"cebpf4jnsgd1na2vs0mg"},{"bike_id":"8f67af62-3175-4e61-a1b4-f65469f192e9","system_id":"levelo_inurba_marseille","lat":43.24675,"lon":5.43194,"is_reserved":false,"is_disabled":false,"rental_uris":{"android":"levelo://app?vid=8f67af62-3175-4e61-a1b4-f65469f192e9","ios":"levelo://app?vid=8f67af62-3175-4e61-a1b4-f65469f192e9"},"vehicle_type_id":"4","last_reported":1769465579,"current_range_meters":3200,"station_id":"","pricing_plan_id":"cebpf4jnsgd1na2vs0mg"},{"bike_id":"67ff9a75-4fe8-45e7-914d-fc416a457597","system_id":"levelo_inurba_marseille","lat":43.32191,"lon":5.36789,"is_reserved":false,"is_disabled":false,"rental_uris":{"android":"levelo://app?vid=67ff9a75-4fe8-45e7-914d-fc416a457597","ios":"levelo://app?vid=67ff9a75-4fe8-45e7-914d-fc416a457597"},"vehicle_type_id":"4","last_reported":1769465579,"current_range_meters":3200,"station_id":"","pricing_plan_id":"cebpf4jnsgd1na2vs0mg"},{"bike_id":"05702008-b9fb-4485-8852-be0161cdf405","system_id":"levelo_inurba_marseille","lat":43.25494,"lon":5.37677,"is_reserved":false,"is_disabled":false,"rental_uris":{"android":"levelo://app?vid=05702008-b9fb-4485-8852-be0161cdf405","ios":"levelo://app?vid=05702008-b9fb-4485-8852-be0161cdf405"},"vehicle_type_id":"4","last_reported":1769465579,"current_range_meters":3200,"station_id":"ce4bhh12rcd13ifvqff0","pricing_plan_id":"cebpf4jnsgd1na2vs0mg"},{"bike_id":"2d49407c-600e-4267-a6a3-9c914fca903d","system_id":"levelo_inurba_marseille","lat":43.24803,"lon":5.37457,"is_reserved":false,"is_disabled":false,"rental_uris":{"android":"levelo://app?vid=2d49407c-600e-4267-a6a3-9c914fca903d","ios":"levelo://app?vid=2d49407c-600e-4267-a6a3-9c914fca903d"},"vehicle_type_id":"4","last_reported":1769465579,"current_range_meters":3200,"station_id":"ce4bhgh2rcd13ifvqfb0","pricing_plan_id":"cebpf4jnsgd1na2vs0mg"},{"bike_id":"e8e4e087-a5f5-46d6-bde5-a155ee69ec30","system_id":"levelo_inurba_marseille","lat":43.26206,"lon":5.37907,"is_reserved":false,"is_disabled":false,"rental_uris":{"android":"levelo://app?vid=e8e4e087-a5f5-46d6-bde5-a155ee69ec30","ios":"levelo://app?vid=e8e4e087-a5f5-46d6-bde5-a155ee69ec30"},"vehicle_type_id":"4","last_reported":1769465579,"current_range_meters":3200,"station_id":"ce4bhjp2rcd13ifvqg90","pricing_plan_id":"cebpf4jnsgd1na2vs0mg"},{"bike_id":"e91ddedc-e58d-413a-aeeb-4a5d1cd0f030","system_id":"levelo_inurba_marseille","lat":43.30139,"lon":5.43072,"is_reserved":false,"is_disabled":false,"rental_uris":{"android":"levelo://app?vid=e91ddedc-e58d-413a-aeeb-4a5d1cd0f030","ios":"levelo://app?vid=e91ddedc-e58d-413a-aeeb-4a5d1cd0f030"},"vehicle_type_id":"4","last_reported":1769465579,"current_range_meters":3200,"station_id":"st_d3js3co5814s73ftftug","pricing_plan_id":"cebpf4jnsgd1na2vs0mg"},{"bike_id":"de5f2f04-920e-4722-ad7f-a65e27e670eb","system_id":"levelo_inurba_marseille","lat":43.32094,"lon":5.36778,"is_reserved":false,"is_disabled":false,"rental_uris":{"android":"levelo://app?vid=de5f2f04-920e-4722-ad7f-a65e27e670eb","ios":"levelo://app?vid=de5f2f04-920e-4722-ad7f-a65e27e670eb"},"vehicle_type_id":"4","last_reported":1769465579,"current_range_meters":3200,"station_id":"ce4bhrh2rcd13ifvqhug","pricing_plan_id":"cebpf4jnsgd1na2vs0mg"},{"bike_id":"75429793-44eb-4ba0-b0b0-a4e96d69fbf4","system_id":"levelo_inurba_marseille","lat":43.28136,"lon":5.42663,"is_reserved":false,"is_disabled":false,"rental_uris":{"android":"levelo://app?vid=75429793-44eb-4ba0-b0b0-a4e96d69fbf4","ios":"levelo://app?vid=75429793-44eb-4ba0-b0b0-a4e96d69fbf4"},"vehicle_type_id":"4","last_reported":1769465579,"current_range_meters":3200,"station_id":"ce4bhnh2rcd13ifvqgug","pricing_plan_id":"cebpf4jnsgd1na2vs0mg"},{"bike_id":"2f242890-4c1e-4235-8eed-4ce5bbbc589c","system_id":"levelo_inurba_marseille","lat":43.27565,"lon":5.38393,"is_reserved":false,"is_disabled":false,"rental_uris":{"android":"levelo://app?vid=2f242890-4c1e-4235-8eed-4ce5bbbc589c","ios":"levelo://app?vid=2f242890-4c1e-4235-8eed-4ce5bbbc589c"},"vehicle_type_id":"4","last_reported":1769465579,"current_range_meters":3200,"station_id":"ce4bhh92rcd13ifvqfi0","pricing_plan_id":"cebpf4jnsgd1na2vs0mg"},{"bike_id":"5d6ab070-f68e-4aa8-929f-8e2f0e97c8c5","system_id":"levelo_inurba_marseille","lat":43.31358,"lon":5.37015,"is_reserved":false,"is_disabled":false,"rental_uris":{"android":"levelo://app?vid=5d6ab070-f68e-4aa8-929f-8e2f0e97c8c5","ios":"levelo://app?vid=5d6ab070-f68e-4aa8-929f-8e2f0e97c8c5"},"vehicle_type_id":"4","last_reported":1769465579,"current_range_meters":3200,"station_id":"","pricing_plan_id":"cebpf4jnsgd1na2vs0mg"},{"bike_id":"872ca787-ea41-43ac-9081-3181ff9b1e3b","system_id":"levelo_inurba_marseille","lat":43.27381,"lon":5.36257,"is_reserved":false,"is_disabled":false,"rental_uris":{"android":"levelo://app?vid=872ca787-ea41-43ac-9081-3181ff9b1e3b","ios":"levelo://app?vid=872ca787-ea41-43ac-9081-3181ff9b1e3b"},"vehicle_type_id":"4","last_reported":1769465579,"current_range_meters":3200,"station_id":"ce4bhbh2rcd13ifvqeo0","pricing_plan_id":"cebpf4jnsgd1na2vs0mg"},{"bike_id":"ac187026-3811-481a-999e-88941a14da12","system_id":"levelo_inurba_marseille","lat":43.275575,"lon":5.384241,"is_reserved":false,"is_disabled":false,"rental_uris":{"android":"levelo://app?vid=ac187026-3811-481a-999e-88941a14da12","ios":"levelo://app?vid=ac187026-3811-481a-999e-88941a14da12"},"vehicle_type_id":"4","last_reported":1769465579,"current_range_meters":3200,"station_id":"ce4bhh92rcd13ifvqfi0","pricing_plan_id":"cebpf4jnsgd1na2vs0mg"},{"bike_id":"99bc9e46-2a2d-4354-b606-97e38b1b91d7","system_id":"levelo_inurba_marseille","lat":43.23929,"lon":5.37575,"is_reserved":false,"is_disabled":false,"rental_uris":{"android":"levelo://app?vid=99bc9e46-2a2d-4354-b606-97e38b1b91d7","ios":"levelo://app?vid=99bc9e46-2a2d-4354-b606-97e38b1b91d7"},"vehicle_type_id":"4","last_reported":1769465579,"current_range_meters":3200,"station_id":"","pricing_plan_id":"cebpf4jnsgd1na2vs0mg"},{"bike_id":"1daef85b-ca98-47ee-9f6e-ad7e13e7014c","system_id":"levelo_inurba_marseille","lat":43.27993,"lon":5.41648,"is_reserved":false,"is_disabled":false,"rental_uris":{"android":"levelo://app?vid=1daef85b-ca98-47ee-9f6e-ad7e13e7014c","ios":"levelo://app?vid=1daef85b-ca98-47ee-9f6e-ad7e13e7014c"},"vehicle_type_id":"4","last_reported":1769465579,"current_range_meters":3600,"station_id":"ce4bho12rcd13ifvqh1g","pricing_plan_id":"cebpf4jnsgd1na2vs0mg"},{"bike_id":"b41ba2a0-1343-49eb-803d-f14eb8b0ccdf","system_id":"levelo_inurba_marseille","lat":43.26701,"lon":5.39242,"is_reserved":false,"is_disabled":false,"rental_uris":{"android":"levelo://app?vid=b41ba2a0-1343-49eb-803d-f14eb8b0ccdf","ios":"levelo://app?vid=b41ba2a0-1343-49eb-803d-f14eb8b0ccdf"},"vehicle_type_id":"4","last_reported":1769465579,"current_range_meters":3600,"station_id":"","pricing_plan_id":"cebpf4jnsgd1na2vs0mg"},{"bike_id":"35de4117-1885-471d-ae81-ebbd7b148d3a","system_id":"levelo_inurba_marseille","lat":43.2815,"lon":5.42644,"is_reserved":false,"is_disabled":false,"rental_uris":{"android":"levelo://app?vid=35de4117-1885-471d-ae81-ebbd7b148d3a","ios":"levelo://app?vid=35de4117-1885-471d-ae81-ebbd7b148d3a"},"vehicle_type_id":"4","last_reported":1769465579,"current_range_meters":3600,"station_id":"ce4bhnh2rcd13ifvqgug","pricing_plan_id":"cebpf4jnsgd1na2vs0mg"},{"bike_id":"51f288b4-018b-4d88-8207-ee946fd883e8","system_id":"levelo_inurba_marseille","lat":43.279238,"lon":5.395742,"is_reserved":false,"is_disabled":false,"rental_uris":{"android":"levelo://app?vid=51f288b4-018b-4d88-8207-ee946fd883e8","ios":"levelo://app?vid=51f288b4-018b-4d88-8207-ee946fd883e8"},"vehicle_type_id":"4","last_reported":1769465579,"current_range_meters":3600,"station_id":"ce4bhf92rcd13ifvqf40","pricing_plan_id":"cebpf4jnsgd1na2vs0mg"},{"bike_id":"281c13db-7575-4f01-8cb4-ab2b2ff0bb6c","system_id":"levelo_inurba_marseille","lat":43.23075,"lon":5.35495,"is_reserved":false,"is_disabled":false,"rental_uris":{"android":"levelo://app?vid=281c13db-7575-4f01-8cb4-ab2b2ff0bb6c","ios":"levelo://app?vid=281c13db-7575-4f01-8cb4-ab2b2ff0bb6c"},"vehicle_type_id":"4","last_reported":1769465579,"current_range_meters":3600,"station_id":"cpo3342slgdg3j2ifvpg","pricing_plan_id":"cebpf4jnsgd1na2vs0mg"},{"bike_id":"4f3227c3-1acb-4c7e-850c-2344260be767","system_id":"levelo_inurba_marseille","lat":43.27351,"lon":5.39106,"is_reserved":false,"is_disabled":false,"rental_uris":{"android":"levelo://app?vid=4f3227c3-1acb-4c7e-850c-2344260be767","ios":"levelo://app?vid=4f3227c3-1acb-4c7e-850c-2344260be767"},"vehicle_type_id":"4","last_reported":1769465579,"current_range_meters":3600,"station_id":"ce4bhgp2rcd13ifvqfe0","pricing_plan_id":"cebpf4jnsgd1na2vs0mg"},{"bike_id":"0ba18f4b-143f-4682-967c-913382d8183f","system_id":"levelo_inurba_marseille","lat":43.25097,"lon":5.39509,"is_reserved":false,"is_disabled":false,"rental_uris":{"android":"levelo://app?vid=0ba18f4b-143f-4682-967c-913382d8183f","ios":"levelo://app?vid=0ba18f4b-143f-4682-967c-913382d8183f"},"vehicle_type_id":"4","last_reported":1769465579,"current_range_meters":4000,"station_id":"ce4bhm12rcd13ifvqgkg","pricing_plan_id":"cebpf4jnsgd1na2vs0mg"},{"bike_id":"a28cadf6-c0c8-4b85-a813-e875d1738946","system_id":"levelo_inurba_marseille","lat":43.24665,"lon":5.38153,"is_reserved":false,"is_disabled":false,"rental_uris":{"android":"levelo://app?vid=a28cadf6-c0c8-4b85-a813-e875d1738946","ios":"levelo://app?vid=a28cadf6-c0c8-4b85-a813-e875d1738946"},"vehicle_type_id":"4","last_reported":1769465579,"current_range_meters":4000,"station_id":"ce4bhih2rcd13ifvqfr0","pricing_plan_id":"cebpf4jnsgd1na2vs0mg"},{"bike_id":"5a924aa5-a60a-459f-9ce9-4aee6291d40d","system_id":"levelo_inurba_marseille","lat":43.24167,"lon":5.36387,"is_reserved":false,"is_disabled":false,"rental_uris":{"android":"levelo://app?vid=5a924aa5-a60a-459f-9ce9-4aee6291d40d","ios":"levelo://app?vid=5a924aa5-a60a-459f-9ce9-4aee6291d40d"},"vehicle_type_id":"4","last_reported":1769465579,"current_range_meters":4000,"station_id":"cpo36qri1sfpv3e86is0","pricing_plan_id":"cebpf4jnsgd1na2vs0mg"},{"bike_id":"367a6bfa-022d-4ac7-9a7a-fafdb9ad5966","system_id":"levelo_inurba_marseille","lat":43.231878,"lon":5.399785,"is_reserved":false,"is_disabled":false,"rental_uris":{"android":"levelo://app?vid=367a6bfa-022d-4ac7-9a7a-fafdb9ad5966","ios":"levelo://app?vid=367a6bfa-022d-4ac7-9a7a-fafdb9ad5966"},"vehicle_type_id":"4","last_reported":1769465579,"current_range_meters":4000,"station_id":"ce4bhn12rcd13ifvqgqg","pricing_plan_id":"cebpf4jnsgd1na2vs0mg"},{"bike_id":"9f4420a9-be11-4676-b7e1-428ce9cf9263","system_id":"levelo_inurba_marseille","lat":43.254633,"lon":5.378162,"is_reserved":false,"is_disabled":false,"rental_uris":{"android":"levelo://app?vid=9f4420a9-be11-4676-b7e1-428ce9cf9263","ios":"levelo://app?vid=9f4420a9-be11-4676-b7e1-428ce9cf9263"},"vehicle_type_id":"4","last_reported":1769465579,"current_range_meters":4000,"station_id":"ce4bhh12rcd13ifvqff0","pricing_plan_id":"cebpf4jnsgd1na2vs0mg"},{"bike_id":"87b9f7ee-9694-473f-a64e-391d26e62fd2","system_id":"levelo_inurba_marseille","lat":43.30869,"lon":5.39668,"is_reserved":false,"is_disabled":false,"rental_uris":{"android":"levelo://app?vid=87b9f7ee-9694-473f-a64e-391d26e62fd2","ios":"levelo://app?vid=87b9f7ee-9694-473f-a64e-391d26e62fd2"},"vehicle_type_id":"4","last_reported":1769465579,"current_range_meters":4000,"station_id":"ce4bh012rcd13ifvqcv0","pricing_plan_id":"cebpf4jnsgd1na2vs0mg"},{"bike_id":"399ac81d-4eef-4dd6-9d3c-75f658e814f0","system_id":"levelo_inurba_marseille","lat":43.23173,"lon":5.35522,"is_reserved":false,"is_disabled":false,"rental_uris":{"android":"levelo://app?vid=399ac81d-4eef-4dd6-9d3c-75f658e814f0","ios":"levelo://app?vid=399ac81d-4eef-4dd6-9d3c-75f658e814f0"},"vehicle_type_id":"4","last_reported":1769465579,"current_range_meters":4000,"station_id":"ce4bhu92rcd13ifvqi70","pricing_plan_id":"cebpf4jnsgd1na2vs0mg"},{"bike_id":"00c57c00-61e3-4dce-b3d2-a0f7e1489fd8","system_id":"levelo_inurba_marseille","lat":43.28158,"lon":5.42661,"is_reserved":false,"is_disabled":false,"rental_uris":{"android":"levelo://app?vid=00c57c00-61e3-4dce-b3d2-a0f7e1489fd8","ios":"levelo://app?vid=00c57c00-61e3-4dce-b3d2-a0f7e1489fd8"},"vehicle_type_id":"4","last_reported":1769465579,"current_range_meters":4000,"station_id":"ce4bhnh2rcd13ifvqgug","pricing_plan_id":"cebpf4jnsgd1na2vs0mg"},{"bike_id":"454df14f-1f20-4d9b-aee9-4f23ee68b2d4","system_id":"levelo_inurba_marseille","lat":43.23189,"lon":5.43717,"is_reserved":false,"is_disabled":false,"rental_uris":{"android":"levelo://app?vid=454df14f-1f20-4d9b-aee9-4f23ee68b2d4","ios":"levelo://app?vid=454df14f-1f20-4d9b-aee9-4f23ee68b2d4"},"vehicle_type_id":"4","last_reported":1769465579,"current_range_meters":4000,"station_id":"ce4bhmp2rcd13ifvqgog","pricing_plan_id":"cebpf4jnsgd1na2vs0mg"},{"bike_id":"c5bef746-5e35-4629-bb18-e2f7eaf59326","system_id":"levelo_inurba_marseille","lat":43.23147,"lon":5.43706,"is_reserved":false,"is_disabled":false,"rental_uris":{"android":"levelo://app?vid=c5bef746-5e35-4629-bb18-e2f7eaf59326","ios":"levelo://app?vid=c5bef746-5e35-4629-bb18-e2f7eaf59326"},"vehicle_type_id":"4","last_reported":1769465579,"current_range_meters":4000,"station_id":"ce4bhmp2rcd13ifvqgog","pricing_plan_id":"cebpf4jnsgd1na2vs0mg"},{"bike_id":"ea588fac-e24d-4d35-941a-f2a03f03483f","system_id":"levelo_inurba_marseille","lat":43.31356,"lon":5.39707,"is_reserved":false,"is_disabled":false,"rental_uris":{"android":"levelo://app?vid=ea588fac-e24d-4d35-941a-f2a03f03483f","ios":"levelo://app?vid=ea588fac-e24d-4d35-941a-f2a03f03483f"},"vehicle_type_id":"4","last_reported":1769465579,"current_range_meters":4000,"station_id":"ce4bgvp2rcd13ifvqcu0","pricing_plan_id":"cebpf4jnsgd1na2vs0mg"},{"bike_id":"47492743-489d-45ae-8cd5-a690ce98ece0","system_id":"levelo_inurba_marseille","lat":43.25572,"lon":5.38257,"is_reserved":false,"is_disabled":false,"rental_uris":{"android":"levelo://app?vid=47492743-489d-45ae-8cd5-a690ce98ece0","ios":"levelo://app?vid=47492743-489d-45ae-8cd5-a690ce98ece0"},"vehicle_type_id":"4","last_reported":1769465579,"current_range_meters":4400,"station_id":"ce4bhih2rcd13ifvqfs0","pricing_plan_id":"cebpf4jnsgd1na2vs0mg"},{"bike_id":"620120a6-8a36-4b57-b49f-d8065118fae9","system_id":"levelo_inurba_marseille","lat":43.23164,"lon":5.43734,"is_reserved":false,"is_disabled":false,"rental_uris":{"android":"levelo://app?vid=620120a6-8a36-4b57-b49f-d8065118fae9","ios":"levelo://app?vid=620120a6-8a36-4b57-b49f-d8065118fae9"},"vehicle_type_id":"4","last_reported":1769465579,"current_range_meters":4400,"station_id":"ce4bhmp2rcd13ifvqgog","pricing_plan_id":"cebpf4jnsgd1na2vs0mg"},{"bike_id":"cdcf56f5-7813-42f5-ba12-33deb4932740","system_id":"levelo_inurba_marseille","lat":43.25519,"lon":5.37655,"is_reserved":false,"is_disabled":false,"rental_uris":{"android":"levelo://app?vid=cdcf56f5-7813-42f5-ba12-33deb4932740","ios":"levelo://app?vid=cdcf56f5-7813-42f5-ba12-33deb4932740"},"vehicle_type_id":"4","last_reported":1769465579,"current_range_meters":4400,"station_id":"ce4bhh12rcd13ifvqff0","pricing_plan_id":"cebpf4jnsgd1na2vs0mg"},{"bike_id":"9b1c3c11-e9b9-443c-bcaf-397cf90c5b93","system_id":"levelo_inurba_marseille","lat":43.319831,"lon":5.381347,"is_reserved":false,"is_disabled":false,"rental_uris":{"android":"levelo://app?vid=9b1c3c11-e9b9-443c-bcaf-397cf90c5b93","ios":"levelo://app?vid=9b1c3c11-e9b9-443c-bcaf-397cf90c5b93"},"vehicle_type_id":"4","last_reported":1769465579,"current_range_meters":4400,"station_id":"ce4bhr12rcd13ifvqhpg","pricing_plan_id":"cebpf4jnsgd1na2vs0mg"},{"bike_id":"7f3e5c0b-c06f-4356-b8cb-68c8424b7076","system_id":"levelo_inurba_marseille","lat":43.33198,"lon":5.41264,"is_reserved":false,"is_disabled":false,"rental_uris":{"android":"levelo://app?vid=7f3e5c0b-c06f-4356-b8cb-68c8424b7076","ios":"levelo://app?vid=7f3e5c0b-c06f-4356-b8cb-68c8424b7076"},"vehicle_type_id":"4","last_reported":1769465579,"current_range_meters":4400,"station_id":"","pricing_plan_id":"cebpf4jnsgd1na2vs0mg"},{"bike_id":"d63ed78d-eca7-4700-aaa5-48377a2e3e4e","system_id":"levelo_inurba_marseille","lat":43.26374,"lon":5.41077,"is_reserved":false,"is_disabled":false,"rental_uris":{"android":"levelo://app?vid=d63ed78d-eca7-4700-aaa5-48377a2e3e4e","ios":"levelo://app?vid=d63ed78d-eca7-4700-aaa5-48377a2e3e4e"},"vehicle_type_id":"4","last_reported":1769465579,"current_range_meters":4400,"station_id":"st_d4e5ca6na9uc73bfl5fg","pricing_plan_id":"cebpf4jnsgd1na2vs0mg"},{"bike_id":"b89b4caf-e759-48f0-87a9-9f0c27d24098","system_id":"levelo_inurba_marseille","lat":43.2861,"lon":5.35098,"is_reserved":false,"is_disabled":false,"rental_uris":{"android":"levelo://app?vid=b89b4caf-e759-48f0-87a9-9f0c27d24098","ios":"levelo://app?vid=b89b4caf-e759-48f0-87a9-9f0c27d24098"},"vehicle_type_id":"4","last_reported":1769465579,"current_range_meters":4800,"station_id":"ce4bhch2rcd13ifvqeug","pricing_plan_id":"cebpf4jnsgd1na2vs0mg"},{"bike_id":"1a951af2-5019-4c90-8a93-9f5b260990f4","system_id":"levelo_inurba_marseille","lat":43.30884,"lon":5.39658,"is_reserved":false,"is_disabled":false,"rental_uris":{"android":"levelo://app?vid=1a951af2-5019-4c90-8a93-9f5b260990f4","ios":"levelo://app?vid=1a951af2-5019-4c90-8a93-9f5b260990f4"},"vehicle_type_id":"4","last_reported":1769465579,"current_range_meters":4800,"station_id":"ce4bh012rcd13ifvqcv0","pricing_plan_id":"cebpf4jnsgd1na2vs0mg"},{"bike_id":"bfd19003-43ce-4d1b-ab98-d88466ea1f9b","system_id":"levelo_inurba_marseille","lat":43.280817,"lon":5.396596,"is_reserved":false,"is_disabled":false,"rental_uris":{"android":"levelo://app?vid=bfd19003-43ce-4d1b-ab98-d88466ea1f9b","ios":"levelo://app?vid=bfd19003-43ce-4d1b-ab98-d88466ea1f9b"},"vehicle_type_id":"4","last_reported":1769465579,"current_range_meters":4800,"station_id":"ce4bho12rcd13ifvqh2g","pricing_plan_id":"cebpf4jnsgd1na2vs0mg"},{"bike_id":"22504924-9e54-4399-93b4-2d8b2985824d","system_id":"levelo_inurba_marseille","lat":43.24083,"lon":5.37771,"is_reserved":false,"is_disabled":false,"rental_uris":{"android":"levelo://app?vid=22504924-9e54-4399-93b4-2d8b2985824d","ios":"levelo://app?vid=22504924-9e54-4399-93b4-2d8b2985824d"},"vehicle_type_id":"4","last_reported":1769465579,"current_range_meters":4800,"station_id":"ce4bhnp2rcd13ifvqgvg","pricing_plan_id":"cebpf4jnsgd1na2vs0mg"},{"bike_id":"601f55a6-583a-4dbf-a5ec-2030c0f950b7","system_id":"levelo_inurba_marseille","lat":43.29514,"lon":5.39404,"is_reserved":false,"is_disabled":false,"rental_uris":{"android":"levelo://app?vid=601f55a6-583a-4dbf-a5ec-2030c0f950b7","ios":"levelo://app?vid=601f55a6-583a-4dbf-a5ec-2030c0f950b7"},"vehicle_type_id":"4","last_reported":1769465579,"current_range_meters":4800,"station_id":"ce4bh292rcd13ifvqdf0","pricing_plan_id":"cebpf4jnsgd1na2vs0mg"},{"bike_id":"3554d7de-d5ce-4541-bed5-448b189dc9bc","system_id":"levelo_inurba_marseille","lat":43.27059,"lon":5.38303,"is_reserved":false,"is_disabled":false,"rental_uris":{"android":"levelo://app?vid=3554d7de-d5ce-4541-bed5-448b189dc9bc","ios":"levelo://app?vid=3554d7de-d5ce-4541-bed5-448b189dc9bc"},"vehicle_type_id":"4","last_reported":1769465579,"current_range_meters":4800,"station_id":"st_d3n2fo6cfp8s73cte1j0","pricing_plan_id":"cebpf4jnsgd1na2vs0mg"},{"bike_id":"42bb40a9-fbe5-41d6-a540-56e07de5dbf4","system_id":"levelo_inurba_marseille","lat":43.26578,"lon":5.37313,"is_reserved":false,"is_disabled":false,"rental_uris":{"android":"levelo://app?vid=42bb40a9-fbe5-41d6-a540-56e07de5dbf4","ios":"levelo://app?vid=42bb40a9-fbe5-41d6-a540-56e07de5dbf4"},"vehicle_type_id":"4","last_reported":1769465579,"current_range_meters":4800,"station_id":"ce4bhg12rcd13ifvqf70","pricing_plan_id":"cebpf4jnsgd1na2vs0mg"},{"bike_id":"45e07959-74ee-4a53-b95d-b4b3dff2ce2f","system_id":"levelo_inurba_marseille","lat":43.23778,"lon":5.36636,"is_reserved":false,"is_disabled":false,"rental_uris":{"android":"levelo://app?vid=45e07959-74ee-4a53-b95d-b4b3dff2ce2f","ios":"levelo://app?vid=45e07959-74ee-4a53-b95d-b4b3dff2ce2f"},"vehicle_type_id":"4","last_reported":1769465579,"current_range_meters":4800,"station_id":"st_d3nk18o9ro0c73en2l3g","pricing_plan_id":"cebpf4jnsgd1na2vs0mg"},{"bike_id":"6e26fc8c-448e-43cd-b37f-f4be03989230","system_id":"levelo_inurba_marseille","lat":43.323492,"lon":5.367388,"is_reserved":false,"is_disabled":false,"rental_uris":{"android":"levelo://app?vid=6e26fc8c-448e-43cd-b37f-f4be03989230","ios":"levelo://app?vid=6e26fc8c-448e-43cd-b37f-f4be03989230"},"vehicle_type_id":"4","last_reported":1769465579,"current_range_meters":4800,"station_id":"ce4bhsh2rcd13ifvqi2g","pricing_plan_id":"cebpf4jnsgd1na2vs0mg"},{"bike_id":"d8e353ee-a24d-49a1-b311-041cbc1996e9","system_id":"levelo_inurba_marseille","lat":43.25526,"lon":5.37676,"is_reserved":false,"is_disabled":false,"rental_uris":{"android":"levelo://app?vid=d8e353ee-a24d-49a1-b311-041cbc1996e9","ios":"levelo://app?vid=d8e353ee-a24d-49a1-b311-041cbc1996e9"},"vehicle_type_id":"4","last_reported":1769465579,"current_range_meters":4800,"station_id":"ce4bhh12rcd13ifvqff0","pricing_plan_id":"cebpf4jnsgd1na2vs0mg"},{"bike_id":"94e99806-117e-4d9c-8d35-a79f25024243","system_id":"levelo_inurba_marseille","lat":43.28932,"lon":5.36396,"is_reserved":false,"is_disabled":false,"rental_uris":{"android":"levelo://app?vid=94e99806-117e-4d9c-8d35-a79f25024243","ios":"levelo://app?vid=94e99806-117e-4d9c-8d35-a79f25024243"},"vehicle_type_id":"4","last_reported":1769465579,"current_range_meters":4800,"station_id":"ce4bhc92rcd13ifvqetg","pricing_plan_id":"cebpf4jnsgd1na2vs0mg"},{"bike_id":"3b5a4c25-8fd0-4c8d-9794-315ef613a5a9","system_id":"levelo_inurba_marseille","lat":43.30308,"lon":5.36924,"is_reserved":false,"is_disabled":false,"rental_uris":{"android":"levelo://app?vid=3b5a4c25-8fd0-4c8d-9794-315ef613a5a9","ios":"levelo://app?vid=3b5a4c25-8fd0-4c8d-9794-315ef613a5a9"},"vehicle_type_id":"4","last_reported":1769465579,"current_range_meters":4800,"station_id":"ce4bgqh2rcd13ifvqc5g","pricing_plan_id":"cebpf4jnsgd1na2vs0mg"},{"bike_id":"c93e1f14-659a-4c36-9882-7c8126ccb5ec","system_id":"levelo_inurba_marseille","lat":43.284646,"lon":5.384126,"is_reserved":false,"is_disabled":false,"rental_uris":{"android":"levelo://app?vid=c93e1f14-659a-4c36-9882-7c8126ccb5ec","ios":"levelo://app?vid=c93e1f14-659a-4c36-9882-7c8126ccb5ec"},"vehicle_type_id":"4","last_reported":1769465579,"current_range_meters":4800,"station_id":"ce4bh512rcd13ifvqe3g","pricing_plan_id":"cebpf4jnsgd1na2vs0mg"},{"bike_id":"5447534c-2c74-470a-8e78-11fcdfaa225f","system_id":"levelo_inurba_marseille","lat":43.2378,"lon":5.36638,"is_reserved":false,"is_disabled":false,"rental_uris":{"android":"levelo://app?vid=5447534c-2c74-470a-8e78-11fcdfaa225f","ios":"levelo://app?vid=5447534c-2c74-470a-8e78-11fcdfaa225f"},"vehicle_type_id":"4","last_reported":1769465579,"current_range_meters":4800,"station_id":"st_d3nk18o9ro0c73en2l3g","pricing_plan_id":"cebpf4jnsgd1na2vs0mg"},{"bike_id":"2d78c52a-e821-423c-8912-3c0fcf451046","system_id":"levelo_inurba_marseille","lat":43.24188,"lon":5.36418,"is_reserved":false,"is_disabled":false,"rental_uris":{"android":"levelo://app?vid=2d78c52a-e821-423c-8912-3c0fcf451046","ios":"levelo://app?vid=2d78c52a-e821-423c-8912-3c0fcf451046"},"vehicle_type_id":"4","last_reported":1769465579,"current_range_meters":4800,"station_id":"cpo36qri1sfpv3e86is0","pricing_plan_id":"cebpf4jnsgd1na2vs0mg"},{"bike_id":"1d64597d-9aab-4864-8716-3d19fa5cdb9d","system_id":"levelo_inurba_marseille","lat":43.298189,"lon":5.440678,"is_reserved":false,"is_disabled":false,"rental_uris":{"android":"levelo://app?vid=1d64597d-9aab-4864-8716-3d19fa5cdb9d","ios":"levelo://app?vid=1d64597d-9aab-4864-8716-3d19fa5cdb9d"},"vehicle_type_id":"4","last_reported":1769465579,"current_range_meters":4800,"station_id":"st_d3jp68qikq2c7381ktn0","pricing_plan_id":"cebpf4jnsgd1na2vs0mg"},{"bike_id":"d1889511-b137-4f93-abf5-20e5d029d7b3","system_id":"levelo_inurba_marseille","lat":43.25579,"lon":5.38234,"is_reserved":false,"is_disabled":false,"rental_uris":{"android":"levelo://app?vid=d1889511-b137-4f93-abf5-20e5d029d7b3","ios":"levelo://app?vid=d1889511-b137-4f93-abf5-20e5d029d7b3"},"vehicle_type_id":"4","last_reported":1769465579,"current_range_meters":4800,"station_id":"ce4bhih2rcd13ifvqfs0","pricing_plan_id":"cebpf4jnsgd1na2vs0mg"},{"bike_id":"5777293f-b66a-4a6f-8081-966890dd397a","system_id":"levelo_inurba_marseille","lat":43.32116,"lon":5.36776,"is_reserved":false,"is_disabled":false,"rental_uris":{"android":"levelo://app?vid=5777293f-b66a-4a6f-8081-966890dd397a","ios":"levelo://app?vid=5777293f-b66a-4a6f-8081-966890dd397a"},"vehicle_type_id":"4","last_reported":1769465579,"current_range_meters":4800,"station_id":"ce4bhrh2rcd13ifvqhug","pricing_plan_id":"cebpf4jnsgd1na2vs0mg"},{"bike_id":"a495a4b2-c23d-4ea3-913f-787b60161ac7","system_id":"levelo_inurba_marseille","lat":43.27996,"lon":5.40023,"is_reserved":false,"is_disabled":false,"rental_uris":{"android":"levelo://app?vid=a495a4b2-c23d-4ea3-913f-787b60161ac7","ios":"levelo://app?vid=a495a4b2-c23d-4ea3-913f-787b60161ac7"},"vehicle_type_id":"4","last_reported":1769465579,"current_range_meters":5600,"station_id":"ce4bho92rcd13ifvqh4g","pricing_plan_id":"cebpf4jnsgd1na2vs0mg"},{"bike_id":"5e4893e0-7e86-482d-a767-2dc95c5fbe1a","system_id":"levelo_inurba_marseille","lat":43.28135,"lon":5.40967,"is_reserved":false,"is_disabled":false,"rental_uris":{"android":"levelo://app?vid=5e4893e0-7e86-482d-a767-2dc95c5fbe1a","ios":"levelo://app?vid=5e4893e0-7e86-482d-a767-2dc95c5fbe1a"},"vehicle_type_id":"4","last_reported":1769465579,"current_range_meters":5600,"station_id":"","pricing_plan_id":"cebpf4jnsgd1na2vs0mg"},{"bike_id":"8fcc7dfb-9afa-4b40-8aed-c00c1dd819d8","system_id":"levelo_inurba_marseille","lat":43.31108,"lon":5.37826,"is_reserved":false,"is_disabled":false,"rental_uris":{"android":"levelo://app?vid=8fcc7dfb-9afa-4b40-8aed-c00c1dd819d8","ios":"levelo://app?vid=8fcc7dfb-9afa-4b40-8aed-c00c1dd819d8"},"vehicle_type_id":"4","last_reported":1769465579,"current_range_meters":5600,"station_id":"ce4bgt92rcd13ifvqcg0","pricing_plan_id":"cebpf4jnsgd1na2vs0mg"},{"bike_id":"7f97a81c-df61-474b-98b1-e4344e090f8f","system_id":"levelo_inurba_marseille","lat":43.2721,"lon":5.39209,"is_reserved":false,"is_disabled":false,"rental_uris":{"android":"levelo://app?vid=7f97a81c-df61-474b-98b1-e4344e090f8f","ios":"levelo://app?vid=7f97a81c-df61-474b-98b1-e4344e090f8f"},"vehicle_type_id":"4","last_reported":1769465579,"current_range_meters":5600,"station_id":"ce4bhhp2rcd13ifvqfm0","pricing_plan_id":"cebpf4jnsgd1na2vs0mg"},{"bike_id":"35a7406f-c3d7-4ad8-baa5-77e0b1066dfe","system_id":"levelo_inurba_marseille","lat":43.28157,"lon":5.42645,"is_reserved":false,"is_disabled":false,"rental_uris":{"android":"levelo://app?vid=35a7406f-c3d7-4ad8-baa5-77e0b1066dfe","ios":"levelo://app?vid=35a7406f-c3d7-4ad8-baa5-77e0b1066dfe"},"vehicle_type_id":"4","last_reported":1769465579,"current_range_meters":5600,"station_id":"ce4bhnh2rcd13ifvqgug","pricing_plan_id":"cebpf4jnsgd1na2vs0mg"},{"bike_id":"b633e966-5653-4f4f-933b-143a8d470829","system_id":"levelo_inurba_marseille","lat":43.26075,"lon":5.37301,"is_reserved":false,"is_disabled":false,"rental_uris":{"android":"levelo://app?vid=b633e966-5653-4f4f-933b-143a8d470829","ios":"levelo://app?vid=b633e966-5653-4f4f-933b-143a8d470829"},"vehicle_type_id":"4","last_reported":1769465579,"current_range_meters":5600,"station_id":"","pricing_plan_id":"cebpf4jnsgd1na2vs0mg"},{"bike_id":"41ee23aa-0dba-468d-8fa2-740dd6a2a2df","system_id":"levelo_inurba_marseille","lat":43.31335,"lon":5.3971,"is_reserved":false,"is_disabled":false,"rental_uris":{"android":"levelo://app?vid=41ee23aa-0dba-468d-8fa2-740dd6a2a2df","ios":"levelo://app?vid=41ee23aa-0dba-468d-8fa2-740dd6a2a2df"},"vehicle_type_id":"4","last_reported":1769465579,"current_range_meters":5600,"station_id":"ce4bgvp2rcd13ifvqcu0","pricing_plan_id":"cebpf4jnsgd1na2vs0mg"},{"bike_id":"4f9646d0-e890-4075-9fb7-8871574ea59d","system_id":"levelo_inurba_marseille","lat":43.25021,"lon":5.38929,"is_reserved":false,"is_disabled":false,"rental_uris":{"android":"levelo://app?vid=4f9646d0-e890-4075-9fb7-8871574ea59d","ios":"levelo://app?vid=4f9646d0-e890-4075-9fb7-8871574ea59d"},"vehicle_type_id":"4","last_reported":1769465579,"current_range_meters":5600,"station_id":"ce4bhgp2rcd13ifvqfd0","pricing_plan_id":"cebpf4jnsgd1na2vs0mg"},{"bike_id":"2e7dad9e-9695-44d6-bc96-ef3eee5dfbfa","system_id":"levelo_inurba_marseille","lat":43.31413,"lon":5.3668,"is_reserved":false,"is_disabled":false,"rental_uris":{"android":"levelo://app?vid=2e7dad9e-9695-44d6-bc96-ef3eee5dfbfa","ios":"levelo://app?vid=2e7dad9e-9695-44d6-bc96-ef3eee5dfbfa"},"vehicle_type_id":"4","last_reported":1769465579,"current_range_meters":5600,"station_id":"","pricing_plan_id":"cebpf4jnsgd1na2vs0mg"},{"bike_id":"b870a273-6d60-43b1-aeff-305310ce9e81","system_id":"levelo_inurba_marseille","lat":43.2396,"lon":5.36652,"is_reserved":false,"is_disabled":false,"rental_uris":{"android":"levelo://app?vid=b870a273-6d60-43b1-aeff-305310ce9e81","ios":"levelo://app?vid=b870a273-6d60-43b1-aeff-305310ce9e81"},"vehicle_type_id":"4","last_reported":1769465579,"current_range_meters":5600,"station_id":"ce4bhi12rcd13ifvqfp0","pricing_plan_id":"cebpf4jnsgd1na2vs0mg"},{"bike_id":"b6c21133-2bc7-4e53-93db-5d7ab9341050","system_id":"levelo_inurba_marseille","lat":43.29427,"lon":5.39754,"is_reserved":false,"is_disabled":false,"rental_uris":{"android":"levelo://app?vid=b6c21133-2bc7-4e53-93db-5d7ab9341050","ios":"levelo://app?vid=b6c21133-2bc7-4e53-93db-5d7ab9341050"},"vehicle_type_id":"4","last_reported":1769465579,"current_range_meters":5600,"station_id":"ce4bh3h2rcd13ifvqdo0","pricing_plan_id":"cebpf4jnsgd1na2vs0mg"},{"bike_id":"87774b39-9613-43b6-8597-6b0d538ea47d","system_id":"levelo_inurba_marseille","lat":43.30634,"lon":5.40091,"is_reserved":false,"is_disabled":false,"rental_uris":{"android":"levelo://app?vid=87774b39-9613-43b6-8597-6b0d538ea47d","ios":"levelo://app?vid=87774b39-9613-43b6-8597-6b0d538ea47d"},"vehicle_type_id":"4","last_reported":1769465579,"current_range_meters":5600,"station_id":"ce4bh112rcd13ifvqda0","pricing_plan_id":"cebpf4jnsgd1na2vs0mg"},{"bike_id":"2ea93c3a-0d0a-472b-b231-85dc213d24b7","system_id":"levelo_inurba_marseille","lat":43.250026,"lon":5.389257,"is_reserved":false,"is_disabled":false,"rental_uris":{"android":"levelo://app?vid=2ea93c3a-0d0a-472b-b231-85dc213d24b7","ios":"levelo://app?vid=2ea93c3a-0d0a-472b-b231-85dc213d24b7"},"vehicle_type_id":"4","last_reported":1769465579,"current_range_meters":5600,"station_id":"ce4bhgp2rcd13ifvqfd0","pricing_plan_id":"cebpf4jnsgd1na2vs0mg"},{"bike_id":"7b15f2fd-32ec-469a-8e16-4c24a06add97","system_id":"levelo_inurba_marseille","lat":43.3132,"lon":5.39694,"is_reserved":false,"is_disabled":false,"rental_uris":{"android":"levelo://app?vid=7b15f2fd-32ec-469a-8e16-4c24a06add97","ios":"levelo://app?vid=7b15f2fd-32ec-469a-8e16-4c24a06add97"},"vehicle_type_id":"4","last_reported":1769465579,"current_range_meters":5600,"station_id":"ce4bgvp2rcd13ifvqcu0","pricing_plan_id":"cebpf4jnsgd1na2vs0mg"},{"bike_id":"e73f1781-62f4-4a23-b153-6815bc29f05e","system_id":"levelo_inurba_marseille","lat":43.29292,"lon":5.41168,"is_reserved":false,"is_disabled":false,"rental_uris":{"android":"levelo://app?vid=e73f1781-62f4-4a23-b153-6815bc29f05e","ios":"levelo://app?vid=e73f1781-62f4-4a23-b153-6815bc29f05e"},"vehicle_type_id":"4","last_reported":1769465579,"current_range_meters":5600,"station_id":"","pricing_plan_id":"cebpf4jnsgd1na2vs0mg"},{"bike_id":"2d8d5c2b-1e92-40eb-89d2-bd72b0a480e9","system_id":"levelo_inurba_marseille","lat":43.28562,"lon":5.395,"is_reserved":false,"is_disabled":false,"rental_uris":{"android":"levelo://app?vid=2d8d5c2b-1e92-40eb-89d2-bd72b0a480e9","ios":"levelo://app?vid=2d8d5c2b-1e92-40eb-89d2-bd72b0a480e9"},"vehicle_type_id":"4","last_reported":1769465579,"current_range_meters":5600,"station_id":"ce4bh292rcd13ifvqdg0","pricing_plan_id":"cebpf4jnsgd1na2vs0mg"},{"bike_id":"1d4557f2-9194-433e-908c-7af0a931319a","system_id":"levelo_inurba_marseille","lat":43.25499,"lon":5.37676,"is_reserved":false,"is_disabled":false,"rental_uris":{"android":"levelo://app?vid=1d4557f2-9194-433e-908c-7af0a931319a","ios":"levelo://app?vid=1d4557f2-9194-433e-908c-7af0a931319a"},"vehicle_type_id":"4","last_reported":1769465579,"current_range_meters":6000,"station_id":"ce4bhh12rcd13ifvqff0","pricing_plan_id":"cebpf4jnsgd1na2vs0mg"},{"bike_id":"93c7ca3c-2e02-4311-a0d1-b461f66e2ced","system_id":"levelo_inurba_marseille","lat":43.314982,"lon":5.373115,"is_reserved":false,"is_disabled":false,"rental_uris":{"android":"levelo://app?vid=93c7ca3c-2e02-4311-a0d1-b461f66e2ced","ios":"levelo://app?vid=93c7ca3c-2e02-4311-a0d1-b461f66e2ced"},"vehicle_type_id":"4","last_reported":1769465579,"current_range_meters":6000,"station_id":"","pricing_plan_id":"cebpf4jnsgd1na2vs0mg"},{"bike_id":"4300228c-a74d-4d37-940c-46e3542698e2","system_id":"levelo_inurba_marseille","lat":43.252373,"lon":5.406192,"is_reserved":false,"is_disabled":false,"rental_uris":{"android":"levelo://app?vid=4300228c-a74d-4d37-940c-46e3542698e2","ios":"levelo://app?vid=4300228c-a74d-4d37-940c-46e3542698e2"},"vehicle_type_id":"4","last_reported":1769465579,"current_range_meters":6000,"station_id":"ce4bhdp2rcd13ifvqf20","pricing_plan_id":"cebpf4jnsgd1na2vs0mg"},{"bike_id":"b0d2c80e-ed15-4930-af0a-5bfc09a11396","system_id":"levelo_inurba_marseille","lat":43.22929,"lon":5.35373,"is_reserved":false,"is_disabled":false,"rental_uris":{"android":"levelo://app?vid=b0d2c80e-ed15-4930-af0a-5bfc09a11396","ios":"levelo://app?vid=b0d2c80e-ed15-4930-af0a-5bfc09a11396"},"vehicle_type_id":"4","last_reported":1769465579,"current_range_meters":6000,"station_id":"cpo3532slgdg3j2ikp40","pricing_plan_id":"cebpf4jnsgd1na2vs0mg"},{"bike_id":"3ea061e6-3522-4acc-948f-9e8a2f88b026","system_id":"levelo_inurba_marseille","lat":43.231444,"lon":5.437032,"is_reserved":false,"is_disabled":false,"rental_uris":{"android":"levelo://app?vid=3ea061e6-3522-4acc-948f-9e8a2f88b026","ios":"levelo://app?vid=3ea061e6-3522-4acc-948f-9e8a2f88b026"},"vehicle_type_id":"4","last_reported":1769465579,"current_range_meters":6000,"station_id":"ce4bhmp2rcd13ifvqgog","pricing_plan_id":"cebpf4jnsgd1na2vs0mg"},{"bike_id":"66635ff5-1455-40c0-978e-60bbaea2798e","system_id":"levelo_inurba_marseille","lat":43.297139,"lon":5.366208,"is_reserved":false,"is_disabled":false,"rental_uris":{"android":"levelo://app?vid=66635ff5-1455-40c0-978e-60bbaea2798e","ios":"levelo://app?vid=66635ff5-1455-40c0-978e-60bbaea2798e"},"vehicle_type_id":"4","last_reported":1769465579,"current_range_meters":6000,"station_id":"ce4bgn12rcd13ifvqbt0","pricing_plan_id":"cebpf4jnsgd1na2vs0mg"},{"bike_id":"b310bd46-efd6-40da-b4d5-b9992577e5e4","system_id":"levelo_inurba_marseille","lat":43.26223,"lon":5.40392,"is_reserved":false,"is_disabled":false,"rental_uris":{"android":"levelo://app?vid=b310bd46-efd6-40da-b4d5-b9992577e5e4","ios":"levelo://app?vid=b310bd46-efd6-40da-b4d5-b9992577e5e4"},"vehicle_type_id":"4","last_reported":1769465579,"current_range_meters":6000,"station_id":"ce4bhmh2rcd13ifvqgmg","pricing_plan_id":"cebpf4jnsgd1na2vs0mg"},{"bike_id":"23ebf9eb-35b0-4aaa-be4d-04b1f5047515","system_id":"levelo_inurba_marseille","lat":43.23199,"lon":5.39999,"is_reserved":false,"is_disabled":false,"rental_uris":{"android":"levelo://app?vid=23ebf9eb-35b0-4aaa-be4d-04b1f5047515","ios":"levelo://app?vid=23ebf9eb-35b0-4aaa-be4d-04b1f5047515"},"vehicle_type_id":"4","last_reported":1769465579,"current_range_meters":6000,"station_id":"ce4bhn12rcd13ifvqgqg","pricing_plan_id":"cebpf4jnsgd1na2vs0mg"},{"bike_id":"8f9da522-4132-4e9e-a406-f805a0681f69","system_id":"levelo_inurba_marseille","lat":43.28493,"lon":5.38234,"is_reserved":false,"is_disabled":false,"rental_uris":{"android":"levelo://app?vid=8f9da522-4132-4e9e-a406-f805a0681f69","ios":"levelo://app?vid=8f9da522-4132-4e9e-a406-f805a0681f69"},"vehicle_type_id":"4","last_reported":1769465579,"current_range_meters":6000,"station_id":"","pricing_plan_id":"cebpf4jnsgd1na2vs0mg"},{"bike_id":"b81ca986-1c94-4b0d-931e-ce66cddf52bd","system_id":"levelo_inurba_marseille","lat":43.24304,"lon":5.37992,"is_reserved":false,"is_disabled":false,"rental_uris":{"android":"levelo://app?vid=b81ca986-1c94-4b0d-931e-ce66cddf52bd","ios":"levelo://app?vid=b81ca986-1c94-4b0d-931e-ce66cddf52bd"},"vehicle_type_id":"4","last_reported":1769465579,"current_range_meters":6000,"station_id":"","pricing_plan_id":"cebpf4jnsgd1na2vs0mg"},{"bike_id":"a31c88fe-eab3-4a9e-bb85-de943818a780","system_id":"levelo_inurba_marseille","lat":43.23796,"lon":5.36628,"is_reserved":false,"is_disabled":false,"rental_uris":{"android":"levelo://app?vid=a31c88fe-eab3-4a9e-bb85-de943818a780","ios":"levelo://app?vid=a31c88fe-eab3-4a9e-bb85-de943818a780"},"vehicle_type_id":"4","last_reported":1769465579,"current_range_meters":6400,"station_id":"st_d3nk18o9ro0c73en2l3g","pricing_plan_id":"cebpf4jnsgd1na2vs0mg"},{"bike_id":"aeaa2f78-4472-4f7c-89f1-7a1a254f34d5","system_id":"levelo_inurba_marseille","lat":43.30324,"lon":5.40455,"is_reserved":false,"is_disabled":false,"rental_uris":{"android":"levelo://app?vid=aeaa2f78-4472-4f7c-89f1-7a1a254f34d5","ios":"levelo://app?vid=aeaa2f78-4472-4f7c-89f1-7a1a254f34d5"},"vehicle_type_id":"4","last_reported":1769465579,"current_range_meters":6400,"station_id":"ce4bh012rcd13ifvqd10","pricing_plan_id":"cebpf4jnsgd1na2vs0mg"},{"bike_id":"c03ddeec-e836-49fd-b78f-62619ea57896","system_id":"levelo_inurba_marseille","lat":43.29708,"lon":5.36602,"is_reserved":false,"is_disabled":false,"rental_uris":{"android":"levelo://app?vid=c03ddeec-e836-49fd-b78f-62619ea57896","ios":"levelo://app?vid=c03ddeec-e836-49fd-b78f-62619ea57896"},"vehicle_type_id":"4","last_reported":1769465579,"current_range_meters":6400,"station_id":"ce4bgn12rcd13ifvqbt0","pricing_plan_id":"cebpf4jnsgd1na2vs0mg"},{"bike_id":"cfb67ada-34b1-419c-91f0-868c9be1a48b","system_id":"levelo_inurba_marseille","lat":43.241707,"lon":5.363936,"is_reserved":false,"is_disabled":false,"rental_uris":{"android":"levelo://app?vid=cfb67ada-34b1-419c-91f0-868c9be1a48b","ios":"levelo://app?vid=cfb67ada-34b1-419c-91f0-868c9be1a48b"},"vehicle_type_id":"4","last_reported":1769465579,"current_range_meters":6400,"station_id":"cpo36qri1sfpv3e86is0","pricing_plan_id":"cebpf4jnsgd1na2vs0mg"},{"bike_id":"daab4c5f-eb65-4192-89dd-6363e81a674d","system_id":"levelo_inurba_marseille","lat":43.27536,"lon":5.40948,"is_reserved":false,"is_disabled":false,"rental_uris":{"android":"levelo://app?vid=daab4c5f-eb65-4192-89dd-6363e81a674d","ios":"levelo://app?vid=daab4c5f-eb65-4192-89dd-6363e81a674d"},"vehicle_type_id":"4","last_reported":1769465579,"current_range_meters":6400,"station_id":"","pricing_plan_id":"cebpf4jnsgd1na2vs0mg"},{"bike_id":"e329dd71-725a-4dd6-828f-456a085ef790","system_id":"levelo_inurba_marseille","lat":43.30464,"lon":5.38894,"is_reserved":false,"is_disabled":false,"rental_uris":{"android":"levelo://app?vid=e329dd71-725a-4dd6-828f-456a085ef790","ios":"levelo://app?vid=e329dd71-725a-4dd6-828f-456a085ef790"},"vehicle_type_id":"4","last_reported":1769465579,"current_range_meters":6400,"station_id":"ce4bgk12rcd13ifvqbi0","pricing_plan_id":"cebpf4jnsgd1na2vs0mg"},{"bike_id":"c06d86c1-3ce9-4d98-9573-b6d0b1a6715e","system_id":"levelo_inurba_marseille","lat":43.28754,"lon":5.3613,"is_reserved":false,"is_disabled":false,"rental_uris":{"android":"levelo://app?vid=c06d86c1-3ce9-4d98-9573-b6d0b1a6715e","ios":"levelo://app?vid=c06d86c1-3ce9-4d98-9573-b6d0b1a6715e"},"vehicle_type_id":"4","last_reported":1769465579,"current_range_meters":6400,"station_id":"","pricing_plan_id":"cebpf4jnsgd1na2vs0mg"},{"bike_id":"9529b62c-70d8-4a14-97b4-fe13622d1c5b","system_id":"levelo_inurba_marseille","lat":43.296243,"lon":5.377143,"is_reserved":false,"is_disabled":false,"rental_uris":{"android":"levelo://app?vid=9529b62c-70d8-4a14-97b4-fe13622d1c5b","ios":"levelo://app?vid=9529b62c-70d8-4a14-97b4-fe13622d1c5b"},"vehicle_type_id":"4","last_reported":1769465579,"current_range_meters":6400,"station_id":"ce4bh3p2rcd13ifvqdp0","pricing_plan_id":"cebpf4jnsgd1na2vs0mg"},{"bike_id":"a85c4dff-4d0e-447f-be35-ab46b7400fe4","system_id":"levelo_inurba_marseille","lat":43.24801,"lon":5.37454,"is_reserved":false,"is_disabled":false,"rental_uris":{"android":"levelo://app?vid=a85c4dff-4d0e-447f-be35-ab46b7400fe4","ios":"levelo://app?vid=a85c4dff-4d0e-447f-be35-ab46b7400fe4"},"vehicle_type_id":"4","last_reported":1769465579,"current_range_meters":6400,"station_id":"ce4bhgh2rcd13ifvqfb0","pricing_plan_id":"cebpf4jnsgd1na2vs0mg"},{"bike_id":"03628ce2-f90f-4215-9e8f-4d1a2c153b49","system_id":"levelo_inurba_marseille","lat":43.24557,"lon":5.37327,"is_reserved":false,"is_disabled":false,"rental_uris":{"android":"levelo://app?vid=03628ce2-f90f-4215-9e8f-4d1a2c153b49","ios":"levelo://app?vid=03628ce2-f90f-4215-9e8f-4d1a2c153b49"},"vehicle_type_id":"4","last_reported":1769465579,"current_range_meters":6400,"station_id":"","pricing_plan_id":"cebpf4jnsgd1na2vs0mg"},{"bike_id":"1be5c9eb-27e3-427d-8b79-039e6802232b","system_id":"levelo_inurba_marseille","lat":43.31045,"lon":5.38361,"is_reserved":false,"is_disabled":false,"rental_uris":{"android":"levelo://app?vid=1be5c9eb-27e3-427d-8b79-039e6802232b","ios":"levelo://app?vid=1be5c9eb-27e3-427d-8b79-039e6802232b"},"vehicle_type_id":"4","last_reported":1769465579,"current_range_meters":6400,"station_id":"ce4bgv92rcd13ifvqcr0","pricing_plan_id":"cebpf4jnsgd1na2vs0mg"},{"bike_id":"618af153-27fa-4b2e-89ba-9b1fa2ffdb54","system_id":"levelo_inurba_marseille","lat":43.29499,"lon":5.39379,"is_reserved":false,"is_disabled":false,"rental_uris":{"android":"levelo://app?vid=618af153-27fa-4b2e-89ba-9b1fa2ffdb54","ios":"levelo://app?vid=618af153-27fa-4b2e-89ba-9b1fa2ffdb54"},"vehicle_type_id":"4","last_reported":1769465579,"current_range_meters":6400,"station_id":"ce4bh292rcd13ifvqdf0","pricing_plan_id":"cebpf4jnsgd1na2vs0mg"},{"bike_id":"11a846e9-9802-4769-b7fc-69d7786adabd","system_id":"levelo_inurba_marseille","lat":43.246431,"lon":5.38892,"is_reserved":false,"is_disabled":false,"rental_uris":{"android":"levelo://app?vid=11a846e9-9802-4769-b7fc-69d7786adabd","ios":"levelo://app?vid=11a846e9-9802-4769-b7fc-69d7786adabd"},"vehicle_type_id":"4","last_reported":1769465579,"current_range_meters":6400,"station_id":"ce4bhg12rcd13ifvqf60","pricing_plan_id":"cebpf4jnsgd1na2vs0mg"},{"bike_id":"ccf326ac-ae0a-4ffb-a071-520b4c6f402c","system_id":"levelo_inurba_marseille","lat":43.33268,"lon":5.37964,"is_reserved":false,"is_disabled":false,"rental_uris":{"android":"levelo://app?vid=ccf326ac-ae0a-4ffb-a071-520b4c6f402c","ios":"levelo://app?vid=ccf326ac-ae0a-4ffb-a071-520b4c6f402c"},"vehicle_type_id":"4","last_reported":1769465579,"current_range_meters":6400,"station_id":"","pricing_plan_id":"cebpf4jnsgd1na2vs0mg"},{"bike_id":"062ac5f5-90b2-4964-8a95-05a79098170a","system_id":"levelo_inurba_marseille","lat":43.24488,"lon":5.42561,"is_reserved":false,"is_disabled":false,"rental_uris":{"android":"levelo://app?vid=062ac5f5-90b2-4964-8a95-05a79098170a","ios":"levelo://app?vid=062ac5f5-90b2-4964-8a95-05a79098170a"},"vehicle_type_id":"4","last_reported":1769465579,"current_range_meters":6400,"station_id":"st_d4a3vfp97mjs738cd8kg","pricing_plan_id":"cebpf4jnsgd1na2vs0mg"},{"bike_id":"736929a0-d6a8-4f12-8769-fcb0d31195b2","system_id":"levelo_inurba_marseille","lat":43.27875,"lon":5.40379,"is_reserved":false,"is_disabled":false,"rental_uris":{"android":"levelo://app?vid=736929a0-d6a8-4f12-8769-fcb0d31195b2","ios":"levelo://app?vid=736929a0-d6a8-4f12-8769-fcb0d31195b2"},"vehicle_type_id":"4","last_reported":1769465579,"current_range_meters":6400,"station_id":"","pricing_plan_id":"cebpf4jnsgd1na2vs0mg"},{"bike_id":"79b6158d-49ea-4914-8da1-643529c2d44f","system_id":"levelo_inurba_marseille","lat":43.24645,"lon":5.3889,"is_reserved":false,"is_disabled":false,"rental_uris":{"android":"levelo://app?vid=79b6158d-49ea-4914-8da1-643529c2d44f","ios":"levelo://app?vid=79b6158d-49ea-4914-8da1-643529c2d44f"},"vehicle_type_id":"4","last_reported":1769465579,"current_range_meters":6800,"station_id":"ce4bhg12rcd13ifvqf60","pricing_plan_id":"cebpf4jnsgd1na2vs0mg"},{"bike_id":"860d4648-96bb-41c6-990b-e19b394bde4c","system_id":"levelo_inurba_marseille","lat":43.29483,"lon":5.43271,"is_reserved":false,"is_disabled":false,"rental_uris":{"android":"levelo://app?vid=860d4648-96bb-41c6-990b-e19b394bde4c","ios":"levelo://app?vid=860d4648-96bb-41c6-990b-e19b394bde4c"},"vehicle_type_id":"4","last_reported":1769465579,"current_range_meters":6800,"station_id":"st_d3j5ugp08ojc73fj9d10","pricing_plan_id":"cebpf4jnsgd1na2vs0mg"},{"bike_id":"de627c95-b9c3-415b-a205-de08f16c1b3b","system_id":"levelo_inurba_marseille","lat":43.26396,"lon":5.41061,"is_reserved":false,"is_disabled":false,"rental_uris":{"android":"levelo://app?vid=de627c95-b9c3-415b-a205-de08f16c1b3b","ios":"levelo://app?vid=de627c95-b9c3-415b-a205-de08f16c1b3b"},"vehicle_type_id":"4","last_reported":1769465579,"current_range_meters":6800,"station_id":"st_d4e5ca6na9uc73bfl5fg","pricing_plan_id":"cebpf4jnsgd1na2vs0mg"},{"bike_id":"0a7f8eaf-e9ad-4963-8a79-4fcb3ddecae5","system_id":"levelo_inurba_marseille","lat":43.27832,"lon":5.39204,"is_reserved":false,"is_disabled":false,"rental_uris":{"android":"levelo://app?vid=0a7f8eaf-e9ad-4963-8a79-4fcb3ddecae5","ios":"levelo://app?vid=0a7f8eaf-e9ad-4963-8a79-4fcb3ddecae5"},"vehicle_type_id":"4","last_reported":1769465579,"current_range_meters":6800,"station_id":"ce4bhjp2rcd13ifvqga0","pricing_plan_id":"cebpf4jnsgd1na2vs0mg"},{"bike_id":"41de7acf-b606-4491-881d-a6daa5d6eaa6","system_id":"levelo_inurba_marseille","lat":43.29529,"lon":5.39054,"is_reserved":false,"is_disabled":false,"rental_uris":{"android":"levelo://app?vid=41de7acf-b606-4491-881d-a6daa5d6eaa6","ios":"levelo://app?vid=41de7acf-b606-4491-881d-a6daa5d6eaa6"},"vehicle_type_id":"4","last_reported":1769465579,"current_range_meters":6800,"station_id":"ce4bh3p2rcd13ifvqdp0","pricing_plan_id":"cebpf4jnsgd1na2vs0mg"},{"bike_id":"77c28fe0-5ae7-4aac-b4aa-5a886888a2e9","system_id":"levelo_inurba_marseille","lat":43.27958,"lon":5.41043,"is_reserved":false,"is_disabled":false,"rental_uris":{"android":"levelo://app?vid=77c28fe0-5ae7-4aac-b4aa-5a886888a2e9","ios":"levelo://app?vid=77c28fe0-5ae7-4aac-b4aa-5a886888a2e9"},"vehicle_type_id":"4","last_reported":1769465579,"current_range_meters":6800,"station_id":"ce4bhnp2rcd13ifvqh0g","pricing_plan_id":"cebpf4jnsgd1na2vs0mg"},{"bike_id":"25fdb873-b1d5-4615-9092-8534f17c5e38","system_id":"levelo_inurba_marseille","lat":43.25103,"lon":5.4033,"is_reserved":false,"is_disabled":false,"rental_uris":{"android":"levelo://app?vid=25fdb873-b1d5-4615-9092-8534f17c5e38","ios":"levelo://app?vid=25fdb873-b1d5-4615-9092-8534f17c5e38"},"vehicle_type_id":"4","last_reported":1769465579,"current_range_meters":6800,"station_id":"ce4bhlh2rcd13ifvqgig","pricing_plan_id":"cebpf4jnsgd1na2vs0mg"},{"bike_id":"5b91b93d-b3ae-4751-8498-b1dabc506a1f","system_id":"levelo_inurba_marseille","lat":43.24464,"lon":5.42531,"is_reserved":false,"is_disabled":false,"rental_uris":{"android":"levelo://app?vid=5b91b93d-b3ae-4751-8498-b1dabc506a1f","ios":"levelo://app?vid=5b91b93d-b3ae-4751-8498-b1dabc506a1f"},"vehicle_type_id":"4","last_reported":1769465579,"current_range_meters":6800,"station_id":"st_d4a3vfp97mjs738cd8kg","pricing_plan_id":"cebpf4jnsgd1na2vs0mg"},{"bike_id":"fefe4d30-1974-4c06-9b66-899aa1dd538f","system_id":"levelo_inurba_marseille","lat":43.33013,"lon":5.39043,"is_reserved":false,"is_disabled":false,"rental_uris":{"android":"levelo://app?vid=fefe4d30-1974-4c06-9b66-899aa1dd538f","ios":"levelo://app?vid=fefe4d30-1974-4c06-9b66-899aa1dd538f"},"vehicle_type_id":"4","last_reported":1769465579,"current_range_meters":6800,"station_id":"ce4bhr92rcd13ifvqhrg","pricing_plan_id":"cebpf4jnsgd1na2vs0mg"},{"bike_id":"bda8d170-c411-43f2-99e3-22f10d72b0e6","system_id":"levelo_inurba_marseille","lat":43.23143,"lon":5.43729,"is_reserved":false,"is_disabled":false,"rental_uris":{"android":"levelo://app?vid=bda8d170-c411-43f2-99e3-22f10d72b0e6","ios":"levelo://app?vid=bda8d170-c411-43f2-99e3-22f10d72b0e6"},"vehicle_type_id":"4","last_reported":1769465579,"current_range_meters":6800,"station_id":"ce4bhmp2rcd13ifvqgog","pricing_plan_id":"cebpf4jnsgd1na2vs0mg"},{"bike_id":"a57ac1b9-36db-4721-8a5f-8013a4daf2e4","system_id":"levelo_inurba_marseille","lat":43.28513,"lon":5.44103,"is_reserved":false,"is_disabled":false,"rental_uris":{"android":"levelo://app?vid=a57ac1b9-36db-4721-8a5f-8013a4daf2e4","ios":"levelo://app?vid=a57ac1b9-36db-4721-8a5f-8013a4daf2e4"},"vehicle_type_id":"4","last_reported":1769465579,"current_range_meters":6800,"station_id":"st_d3j3df2ikq2c7380ej80","pricing_plan_id":"cebpf4jnsgd1na2vs0mg"},{"bike_id":"5bd03fda-17ed-42fc-aa4d-7ef68bd0ba56","system_id":"levelo_inurba_marseille","lat":43.24649,"lon":5.38157,"is_reserved":false,"is_disabled":false,"rental_uris":{"android":"levelo://app?vid=5bd03fda-17ed-42fc-aa4d-7ef68bd0ba56","ios":"levelo://app?vid=5bd03fda-17ed-42fc-aa4d-7ef68bd0ba56"},"vehicle_type_id":"4","last_reported":1769465579,"current_range_meters":6800,"station_id":"ce4bhih2rcd13ifvqfr0","pricing_plan_id":"cebpf4jnsgd1na2vs0mg"},{"bike_id":"61f9b512-dfe2-4c6f-b9eb-0a539aacc6ab","system_id":"levelo_inurba_marseille","lat":43.29899,"lon":5.43671,"is_reserved":false,"is_disabled":false,"rental_uris":{"android":"levelo://app?vid=61f9b512-dfe2-4c6f-b9eb-0a539aacc6ab","ios":"levelo://app?vid=61f9b512-dfe2-4c6f-b9eb-0a539aacc6ab"},"vehicle_type_id":"4","last_reported":1769465579,"current_range_meters":6800,"station_id":"ce4bhpp2rcd13ifvqhfg","pricing_plan_id":"cebpf4jnsgd1na2vs0mg"},{"bike_id":"5743090c-9a1b-4d9c-82d1-51bc64427c21","system_id":"levelo_inurba_marseille","lat":43.28703,"lon":5.37937,"is_reserved":false,"is_disabled":true,"rental_uris":{"android":"levelo://app?vid=5743090c-9a1b-4d9c-82d1-51bc64427c21","ios":"levelo://app?vid=5743090c-9a1b-4d9c-82d1-51bc64427c21"},"vehicle_type_id":"4","last_reported":1769465579,"current_range_meters":6800,"station_id":"ce4bh9p2rcd13ifvqec0","pricing_plan_id":"cebpf4jnsgd1na2vs0mg"},{"bike_id":"d6688788-056e-4826-ab86-d4dd6ad4a0fd","system_id":"levelo_inurba_marseille","lat":43.28629,"lon":5.35083,"is_reserved":false,"is_disabled":false,"rental_uris":{"android":"levelo://app?vid=d6688788-056e-4826-ab86-d4dd6ad4a0fd","ios":"levelo://app?vid=d6688788-056e-4826-ab86-d4dd6ad4a0fd"},"vehicle_type_id":"4","last_reported":1769465579,"current_range_meters":6800,"station_id":"ce4bhch2rcd13ifvqeug","pricing_plan_id":"cebpf4jnsgd1na2vs0mg"},{"bike_id":"898169fa-29c0-4349-a185-41ab96475b8a","system_id":"levelo_inurba_marseille","lat":43.24998,"lon":5.38915,"is_reserved":false,"is_disabled":false,"rental_uris":{"android":"levelo://app?vid=898169fa-29c0-4349-a185-41ab96475b8a","ios":"levelo://app?vid=898169fa-29c0-4349-a185-41ab96475b8a"},"vehicle_type_id":"4","last_reported":1769465579,"current_range_meters":6800,"station_id":"ce4bhgp2rcd13ifvqfd0","pricing_plan_id":"cebpf4jnsgd1na2vs0mg"},{"bike_id":"20748162-a355-4c7c-8caf-612a7ad95f24","system_id":"levelo_inurba_marseille","lat":43.291809,"lon":5.385995,"is_reserved":false,"is_disabled":false,"rental_uris":{"android":"levelo://app?vid=20748162-a355-4c7c-8caf-612a7ad95f24","ios":"levelo://app?vid=20748162-a355-4c7c-8caf-612a7ad95f24"},"vehicle_type_id":"4","last_reported":1769465579,"current_range_meters":6800,"station_id":"ce4bh3h2rcd13ifvqdn0","pricing_plan_id":"cebpf4jnsgd1na2vs0mg"},{"bike_id":"21be62a1-c968-473b-9c56-f2f1e7e2371d","system_id":"levelo_inurba_marseille","lat":43.27066,"lon":5.383123,"is_reserved":false,"is_disabled":false,"rental_uris":{"android":"levelo://app?vid=21be62a1-c968-473b-9c56-f2f1e7e2371d","ios":"levelo://app?vid=21be62a1-c968-473b-9c56-f2f1e7e2371d"},"vehicle_type_id":"4","last_reported":1769465579,"current_range_meters":6800,"station_id":"st_d3n2fo6cfp8s73cte1j0","pricing_plan_id":"cebpf4jnsgd1na2vs0mg"},{"bike_id":"c060f6fe-9c22-4601-a3d6-b324dc7e883d","system_id":"levelo_inurba_marseille","lat":43.22932,"lon":5.35366,"is_reserved":false,"is_disabled":false,"rental_uris":{"android":"levelo://app?vid=c060f6fe-9c22-4601-a3d6-b324dc7e883d","ios":"levelo://app?vid=c060f6fe-9c22-4601-a3d6-b324dc7e883d"},"vehicle_type_id":"4","last_reported":1769465579,"current_range_meters":6800,"station_id":"cpo3532slgdg3j2ikp40","pricing_plan_id":"cebpf4jnsgd1na2vs0mg"},{"bike_id":"7e659817-a1f0-4944-87e6-b538da6c9df9","system_id":"levelo_inurba_marseille","lat":43.26542,"lon":5.37291,"is_reserved":false,"is_disabled":false,"rental_uris":{"android":"levelo://app?vid=7e659817-a1f0-4944-87e6-b538da6c9df9","ios":"levelo://app?vid=7e659817-a1f0-4944-87e6-b538da6c9df9"},"vehicle_type_id":"4","last_reported":1769465579,"current_range_meters":6800,"station_id":"ce4bhg12rcd13ifvqf70","pricing_plan_id":"cebpf4jnsgd1na2vs0mg"},{"bike_id":"f09c06aa-a05d-4b00-b228-d8bee2b62b4f","system_id":"levelo_inurba_marseille","lat":43.32364,"lon":5.36755,"is_reserved":false,"is_disabled":false,"rental_uris":{"android":"levelo://app?vid=f09c06aa-a05d-4b00-b228-d8bee2b62b4f","ios":"levelo://app?vid=f09c06aa-a05d-4b00-b228-d8bee2b62b4f"},"vehicle_type_id":"4","last_reported":1769465579,"current_range_meters":7200,"station_id":"ce4bhsh2rcd13ifvqi2g","pricing_plan_id":"cebpf4jnsgd1na2vs0mg"},{"bike_id":"fcf7a98f-1fd5-4e85-9314-c14ad8323d94","system_id":"levelo_inurba_marseille","lat":43.31174,"lon":5.39373,"is_reserved":false,"is_disabled":false,"rental_uris":{"android":"levelo://app?vid=fcf7a98f-1fd5-4e85-9314-c14ad8323d94","ios":"levelo://app?vid=fcf7a98f-1fd5-4e85-9314-c14ad8323d94"},"vehicle_type_id":"4","last_reported":1769465579,"current_range_meters":7200,"station_id":"","pricing_plan_id":"cebpf4jnsgd1na2vs0mg"},{"bike_id":"a916d745-d182-4531-966b-51a04f934c34","system_id":"levelo_inurba_marseille","lat":43.29256,"lon":5.38448,"is_reserved":false,"is_disabled":false,"rental_uris":{"android":"levelo://app?vid=a916d745-d182-4531-966b-51a04f934c34","ios":"levelo://app?vid=a916d745-d182-4531-966b-51a04f934c34"},"vehicle_type_id":"4","last_reported":1769465579,"current_range_meters":7200,"station_id":"ce4bh692rcd13ifvqea0","pricing_plan_id":"cebpf4jnsgd1na2vs0mg"},{"bike_id":"539af392-7350-492a-86ff-031e626096d7","system_id":"levelo_inurba_marseille","lat":43.32349,"lon":5.36729,"is_reserved":false,"is_disabled":false,"rental_uris":{"android":"levelo://app?vid=539af392-7350-492a-86ff-031e626096d7","ios":"levelo://app?vid=539af392-7350-492a-86ff-031e626096d7"},"vehicle_type_id":"4","last_reported":1769465579,"current_range_meters":7200,"station_id":"ce4bhsh2rcd13ifvqi2g","pricing_plan_id":"cebpf4jnsgd1na2vs0mg"},{"bike_id":"908b886e-cc4b-4226-b372-446a0d3f1b77","system_id":"levelo_inurba_marseille","lat":43.23184,"lon":5.35556,"is_reserved":false,"is_disabled":false,"rental_uris":{"android":"levelo://app?vid=908b886e-cc4b-4226-b372-446a0d3f1b77","ios":"levelo://app?vid=908b886e-cc4b-4226-b372-446a0d3f1b77"},"vehicle_type_id":"4","last_reported":1769465579,"current_range_meters":7200,"station_id":"ce4bhu92rcd13ifvqi70","pricing_plan_id":"cebpf4jnsgd1na2vs0mg"},{"bike_id":"780f37c1-f90d-49a0-a2ac-cb1a69ad708a","system_id":"levelo_inurba_marseille","lat":43.25936,"lon":5.40911,"is_reserved":false,"is_disabled":false,"rental_uris":{"android":"levelo://app?vid=780f37c1-f90d-49a0-a2ac-cb1a69ad708a","ios":"levelo://app?vid=780f37c1-f90d-49a0-a2ac-cb1a69ad708a"},"vehicle_type_id":"4","last_reported":1769465579,"current_range_meters":7200,"station_id":"ce4bhm92rcd13ifvqglg","pricing_plan_id":"cebpf4jnsgd1na2vs0mg"},{"bike_id":"5c99255e-2f49-4613-b032-b12f2a20b34f","system_id":"levelo_inurba_marseille","lat":43.30416,"lon":5.39756,"is_reserved":false,"is_disabled":false,"rental_uris":{"android":"levelo://app?vid=5c99255e-2f49-4613-b032-b12f2a20b34f","ios":"levelo://app?vid=5c99255e-2f49-4613-b032-b12f2a20b34f"},"vehicle_type_id":"4","last_reported":1769465579,"current_range_meters":7200,"station_id":"ce4bh092rcd13ifvqd20","pricing_plan_id":"cebpf4jnsgd1na2vs0mg"},{"bike_id":"d59a1339-9c53-4675-bf9d-3552aa5174f0","system_id":"levelo_inurba_marseille","lat":43.28936,"lon":5.38401,"is_reserved":false,"is_disabled":false,"rental_uris":{"android":"levelo://app?vid=d59a1339-9c53-4675-bf9d-3552aa5174f0","ios":"levelo://app?vid=d59a1339-9c53-4675-bf9d-3552aa5174f0"},"vehicle_type_id":"4","last_reported":1769465579,"current_range_meters":7200,"station_id":"ce4bh612rcd13ifvqe6g","pricing_plan_id":"cebpf4jnsgd1na2vs0mg"},{"bike_id":"4c5e84a3-878b-4e80-a848-d4891b4199bc","system_id":"levelo_inurba_marseille","lat":43.32362,"lon":5.36771,"is_reserved":false,"is_disabled":false,"rental_uris":{"android":"levelo://app?vid=4c5e84a3-878b-4e80-a848-d4891b4199bc","ios":"levelo://app?vid=4c5e84a3-878b-4e80-a848-d4891b4199bc"},"vehicle_type_id":"4","last_reported":1769465579,"current_range_meters":7200,"station_id":"ce4bhsh2rcd13ifvqi2g","pricing_plan_id":"cebpf4jnsgd1na2vs0mg"},{"bike_id":"7bd6d805-b68f-46a2-8696-18247a4b8c1e","system_id":"levelo_inurba_marseille","lat":43.3235,"lon":5.36742,"is_reserved":false,"is_disabled":false,"rental_uris":{"android":"levelo://app?vid=7bd6d805-b68f-46a2-8696-18247a4b8c1e","ios":"levelo://app?vid=7bd6d805-b68f-46a2-8696-18247a4b8c1e"},"vehicle_type_id":"4","last_reported":1769465579,"current_range_meters":7200,"station_id":"ce4bhsh2rcd13ifvqi2g","pricing_plan_id":"cebpf4jnsgd1na2vs0mg"},{"bike_id":"2e56e0de-f8d6-44d0-a2bc-1be0c0e19b40","system_id":"levelo_inurba_marseille","lat":43.2844,"lon":5.35087,"is_reserved":false,"is_disabled":false,"rental_uris":{"android":"levelo://app?vid=2e56e0de-f8d6-44d0-a2bc-1be0c0e19b40","ios":"levelo://app?vid=2e56e0de-f8d6-44d0-a2bc-1be0c0e19b40"},"vehicle_type_id":"4","last_reported":1769465579,"current_range_meters":7200,"station_id":"ce4bhbh2rcd13ifvqepg","pricing_plan_id":"cebpf4jnsgd1na2vs0mg"},{"bike_id":"62689e11-30b2-4cf7-a0a0-b39283952b26","system_id":"levelo_inurba_marseille","lat":43.244678,"lon":5.425355,"is_reserved":false,"is_disabled":false,"rental_uris":{"android":"levelo://app?vid=62689e11-30b2-4cf7-a0a0-b39283952b26","ios":"levelo://app?vid=62689e11-30b2-4cf7-a0a0-b39283952b26"},"vehicle_type_id":"4","last_reported":1769465579,"current_range_meters":7200,"station_id":"st_d4a3vfp97mjs738cd8kg","pricing_plan_id":"cebpf4jnsgd1na2vs0mg"},{"bike_id":"a240423c-4d7e-41a8-a549-8c46c4bdd550","system_id":"levelo_inurba_marseille","lat":43.24838,"lon":5.37474,"is_reserved":false,"is_disabled":false,"rental_uris":{"android":"levelo://app?vid=a240423c-4d7e-41a8-a549-8c46c4bdd550","ios":"levelo://app?vid=a240423c-4d7e-41a8-a549-8c46c4bdd550"},"vehicle_type_id":"4","last_reported":1769465579,"current_range_meters":7200,"station_id":"","pricing_plan_id":"cebpf4jnsgd1na2vs0mg"},{"bike_id":"f88d705c-fd5d-47fd-9cec-4cc11d33b889","system_id":"levelo_inurba_marseille","lat":43.28425,"lon":5.34995,"is_reserved":false,"is_disabled":false,"rental_uris":{"android":"levelo://app?vid=f88d705c-fd5d-47fd-9cec-4cc11d33b889","ios":"levelo://app?vid=f88d705c-fd5d-47fd-9cec-4cc11d33b889"},"vehicle_type_id":"4","last_reported":1769465579,"current_range_meters":7200,"station_id":"ce4bhbh2rcd13ifvqepg","pricing_plan_id":"cebpf4jnsgd1na2vs0mg"},{"bike_id":"22e8e03e-d2e8-4f18-b5d4-ece44b58d5b1","system_id":"levelo_inurba_marseille","lat":43.24957,"lon":5.40505,"is_reserved":false,"is_disabled":false,"rental_uris":{"android":"levelo://app?vid=22e8e03e-d2e8-4f18-b5d4-ece44b58d5b1","ios":"levelo://app?vid=22e8e03e-d2e8-4f18-b5d4-ece44b58d5b1"},"vehicle_type_id":"4","last_reported":1769465579,"current_range_meters":7200,"station_id":"st_d2ngiaodas8pm72gd1h0","pricing_plan_id":"cebpf4jnsgd1na2vs0mg"},{"bike_id":"5be68105-477a-4926-9923-7b5ffbb88956","system_id":"levelo_inurba_marseille","lat":43.285308,"lon":5.441026,"is_reserved":false,"is_disabled":false,"rental_uris":{"android":"levelo://app?vid=5be68105-477a-4926-9923-7b5ffbb88956","ios":"levelo://app?vid=5be68105-477a-4926-9923-7b5ffbb88956"},"vehicle_type_id":"4","last_reported":1769465579,"current_range_meters":7200,"station_id":"st_d3j3df2ikq2c7380ej80","pricing_plan_id":"cebpf4jnsgd1na2vs0mg"},{"bike_id":"0c486cf0-025b-47c2-895e-055063b4dc31","system_id":"levelo_inurba_marseille","lat":43.23778,"lon":5.36635,"is_reserved":false,"is_disabled":false,"rental_uris":{"android":"levelo://app?vid=0c486cf0-025b-47c2-895e-055063b4dc31","ios":"levelo://app?vid=0c486cf0-025b-47c2-895e-055063b4dc31"},"vehicle_type_id":"4","last_reported":1769465579,"current_range_meters":7200,"station_id":"st_d3nk18o9ro0c73en2l3g","pricing_plan_id":"cebpf4jnsgd1na2vs0mg"},{"bike_id":"5c18bca9-46cd-42a4-bd07-ba7493ce75f5","system_id":"levelo_inurba_marseille","lat":43.24632,"lon":5.43147,"is_reserved":false,"is_disabled":false,"rental_uris":{"android":"levelo://app?vid=5c18bca9-46cd-42a4-bd07-ba7493ce75f5","ios":"levelo://app?vid=5c18bca9-46cd-42a4-bd07-ba7493ce75f5"},"vehicle_type_id":"4","last_reported":1769465579,"current_range_meters":7200,"station_id":"st_d2m6c4gdas8pm72e190g","pricing_plan_id":"cebpf4jnsgd1na2vs0mg"},{"bike_id":"37f80f06-28e8-4bdc-8235-2b5370b5eec4","system_id":"levelo_inurba_marseille","lat":43.29804,"lon":5.37122,"is_reserved":false,"is_disabled":false,"rental_uris":{"android":"levelo://app?vid=37f80f06-28e8-4bdc-8235-2b5370b5eec4","ios":"levelo://app?vid=37f80f06-28e8-4bdc-8235-2b5370b5eec4"},"vehicle_type_id":"4","last_reported":1769465579,"current_range_meters":7200,"station_id":"ce4bgop2rcd13ifvqc1g","pricing_plan_id":"cebpf4jnsgd1na2vs0mg"},{"bike_id":"f845e441-1ca1-4fde-889e-45a681c017c7","system_id":"levelo_inurba_marseille","lat":43.24542,"lon":5.3953,"is_reserved":false,"is_disabled":false,"rental_uris":{"android":"levelo://app?vid=f845e441-1ca1-4fde-889e-45a681c017c7","ios":"levelo://app?vid=f845e441-1ca1-4fde-889e-45a681c017c7"},"vehicle_type_id":"4","last_reported":1769465579,"current_range_meters":8000,"station_id":"ce4bhlp2rcd13ifvqgjg","pricing_plan_id":"cebpf4jnsgd1na2vs0mg"},{"bike_id":"cd32b736-566b-4d35-8940-26c8819f750b","system_id":"levelo_inurba_marseille","lat":43.25024,"lon":5.38944,"is_reserved":false,"is_disabled":false,"rental_uris":{"android":"levelo://app?vid=cd32b736-566b-4d35-8940-26c8819f750b","ios":"levelo://app?vid=cd32b736-566b-4d35-8940-26c8819f750b"},"vehicle_type_id":"4","last_reported":1769465579,"current_range_meters":8000,"station_id":"ce4bhgp2rcd13ifvqfd0","pricing_plan_id":"cebpf4jnsgd1na2vs0mg"},{"bike_id":"9c4736d7-a2be-4a24-a763-5e7f00e0a104","system_id":"levelo_inurba_marseille","lat":43.2515,"lon":5.40336,"is_reserved":false,"is_disabled":false,"rental_uris":{"android":"levelo://app?vid=9c4736d7-a2be-4a24-a763-5e7f00e0a104","ios":"levelo://app?vid=9c4736d7-a2be-4a24-a763-5e7f00e0a104"},"vehicle_type_id":"4","last_reported":1769465579,"current_range_meters":8000,"station_id":"","pricing_plan_id":"cebpf4jnsgd1na2vs0mg"},{"bike_id":"e495c2f5-f80d-4df9-82ae-75a42acd9c16","system_id":"levelo_inurba_marseille","lat":43.279954,"lon":5.400069,"is_reserved":false,"is_disabled":false,"rental_uris":{"android":"levelo://app?vid=e495c2f5-f80d-4df9-82ae-75a42acd9c16","ios":"levelo://app?vid=e495c2f5-f80d-4df9-82ae-75a42acd9c16"},"vehicle_type_id":"4","last_reported":1769465579,"current_range_meters":8000,"station_id":"ce4bho92rcd13ifvqh4g","pricing_plan_id":"cebpf4jnsgd1na2vs0mg"},{"bike_id":"45604e1e-fc75-4a08-b963-95d5701ab030","system_id":"levelo_inurba_marseille","lat":43.29055,"lon":5.37166,"is_reserved":false,"is_disabled":false,"rental_uris":{"android":"levelo://app?vid=45604e1e-fc75-4a08-b963-95d5701ab030","ios":"levelo://app?vid=45604e1e-fc75-4a08-b963-95d5701ab030"},"vehicle_type_id":"4","last_reported":1769465579,"current_range_meters":8000,"station_id":"ce4bh5p2rcd13ifvqe4g","pricing_plan_id":"cebpf4jnsgd1na2vs0mg"},{"bike_id":"abe3f4a1-7241-420f-a757-2993be441687","system_id":"levelo_inurba_marseille","lat":43.28935,"lon":5.36406,"is_reserved":false,"is_disabled":false,"rental_uris":{"android":"levelo://app?vid=abe3f4a1-7241-420f-a757-2993be441687","ios":"levelo://app?vid=abe3f4a1-7241-420f-a757-2993be441687"},"vehicle_type_id":"4","last_reported":1769465579,"current_range_meters":8000,"station_id":"ce4bhc92rcd13ifvqetg","pricing_plan_id":"cebpf4jnsgd1na2vs0mg"},{"bike_id":"aaf68de7-a8ba-4f2c-b543-643a8694a695","system_id":"levelo_inurba_marseille","lat":43.2481,"lon":5.37463,"is_reserved":false,"is_disabled":false,"rental_uris":{"android":"levelo://app?vid=aaf68de7-a8ba-4f2c-b543-643a8694a695","ios":"levelo://app?vid=aaf68de7-a8ba-4f2c-b543-643a8694a695"},"vehicle_type_id":"4","last_reported":1769465579,"current_range_meters":8000,"station_id":"ce4bhgh2rcd13ifvqfb0","pricing_plan_id":"cebpf4jnsgd1na2vs0mg"},{"bike_id":"4f438dad-01fc-4a34-afef-9521fac04b4f","system_id":"levelo_inurba_marseille","lat":43.32354,"lon":5.36742,"is_reserved":false,"is_disabled":false,"rental_uris":{"android":"levelo://app?vid=4f438dad-01fc-4a34-afef-9521fac04b4f","ios":"levelo://app?vid=4f438dad-01fc-4a34-afef-9521fac04b4f"},"vehicle_type_id":"4","last_reported":1769465579,"current_range_meters":8000,"station_id":"ce4bhsh2rcd13ifvqi2g","pricing_plan_id":"cebpf4jnsgd1na2vs0mg"},{"bike_id":"8a93e3a0-3ca0-43b8-b3e4-03f8b8efb7d4","system_id":"levelo_inurba_marseille","lat":43.25718,"lon":5.41102,"is_reserved":false,"is_disabled":false,"rental_uris":{"android":"levelo://app?vid=8a93e3a0-3ca0-43b8-b3e4-03f8b8efb7d4","ios":"levelo://app?vid=8a93e3a0-3ca0-43b8-b3e4-03f8b8efb7d4"},"vehicle_type_id":"4","last_reported":1769465579,"current_range_meters":8000,"station_id":"ce4bhkp2rcd13ifvqgd0","pricing_plan_id":"cebpf4jnsgd1na2vs0mg"},{"bike_id":"ddf0627f-8ae1-4070-900d-7896689996f7","system_id":"levelo_inurba_marseille","lat":43.24992,"lon":5.38923,"is_reserved":false,"is_disabled":false,"rental_uris":{"android":"levelo://app?vid=ddf0627f-8ae1-4070-900d-7896689996f7","ios":"levelo://app?vid=ddf0627f-8ae1-4070-900d-7896689996f7"},"vehicle_type_id":"4","last_reported":1769465579,"current_range_meters":8000,"station_id":"ce4bhgp2rcd13ifvqfd0","pricing_plan_id":"cebpf4jnsgd1na2vs0mg"},{"bike_id":"f90a7cba-5743-45de-a991-86993c3511a7","system_id":"levelo_inurba_marseille","lat":43.32357,"lon":5.36775,"is_reserved":false,"is_disabled":false,"rental_uris":{"android":"levelo://app?vid=f90a7cba-5743-45de-a991-86993c3511a7","ios":"levelo://app?vid=f90a7cba-5743-45de-a991-86993c3511a7"},"vehicle_type_id":"4","last_reported":1769465579,"current_range_meters":8000,"station_id":"ce4bhsh2rcd13ifvqi2g","pricing_plan_id":"cebpf4jnsgd1na2vs0mg"},{"bike_id":"0bd3fd33-ca42-4b1b-b0cd-6ec4b1ecd569","system_id":"levelo_inurba_marseille","lat":43.32601,"lon":5.37861,"is_reserved":false,"is_disabled":false,"rental_uris":{"android":"levelo://app?vid=0bd3fd33-ca42-4b1b-b0cd-6ec4b1ecd569","ios":"levelo://app?vid=0bd3fd33-ca42-4b1b-b0cd-6ec4b1ecd569"},"vehicle_type_id":"4","last_reported":1769465579,"current_range_meters":8000,"station_id":"","pricing_plan_id":"cebpf4jnsgd1na2vs0mg"},{"bike_id":"628d1d29-948b-4815-bc3f-a0ef2ac1c781","system_id":"levelo_inurba_marseille","lat":43.24162,"lon":5.36393,"is_reserved":false,"is_disabled":false,"rental_uris":{"android":"levelo://app?vid=628d1d29-948b-4815-bc3f-a0ef2ac1c781","ios":"levelo://app?vid=628d1d29-948b-4815-bc3f-a0ef2ac1c781"},"vehicle_type_id":"4","last_reported":1769465579,"current_range_meters":8000,"station_id":"cpo36qri1sfpv3e86is0","pricing_plan_id":"cebpf4jnsgd1na2vs0mg"},{"bike_id":"74975ee5-cc21-4f8d-8ef0-3c4b42557576","system_id":"levelo_inurba_marseille","lat":43.32087,"lon":5.36779,"is_reserved":false,"is_disabled":false,"rental_uris":{"android":"levelo://app?vid=74975ee5-cc21-4f8d-8ef0-3c4b42557576","ios":"levelo://app?vid=74975ee5-cc21-4f8d-8ef0-3c4b42557576"},"vehicle_type_id":"4","last_reported":1769465579,"current_range_meters":8000,"station_id":"ce4bhrh2rcd13ifvqhug","pricing_plan_id":"cebpf4jnsgd1na2vs0mg"},{"bike_id":"53794d06-1a16-44c3-b71c-7469affc740c","system_id":"levelo_inurba_marseille","lat":43.27928,"lon":5.3961,"is_reserved":false,"is_disabled":false,"rental_uris":{"android":"levelo://app?vid=53794d06-1a16-44c3-b71c-7469affc740c","ios":"levelo://app?vid=53794d06-1a16-44c3-b71c-7469affc740c"},"vehicle_type_id":"4","last_reported":1769465579,"current_range_meters":8000,"station_id":"ce4bhf92rcd13ifvqf40","pricing_plan_id":"cebpf4jnsgd1na2vs0mg"},{"bike_id":"8d44fa9f-abea-4043-bcef-d17417c9f4ed","system_id":"levelo_inurba_marseille","lat":43.25855,"lon":5.39411,"is_reserved":false,"is_disabled":false,"rental_uris":{"android":"levelo://app?vid=8d44fa9f-abea-4043-bcef-d17417c9f4ed","ios":"levelo://app?vid=8d44fa9f-abea-4043-bcef-d17417c9f4ed"},"vehicle_type_id":"4","last_reported":1769465579,"current_range_meters":8000,"station_id":"ce4bhip2rcd13ifvqft0","pricing_plan_id":"cebpf4jnsgd1na2vs0mg"},{"bike_id":"0cbe870f-8349-4837-ae0a-20b1625481ea","system_id":"levelo_inurba_marseille","lat":43.31338,"lon":5.39707,"is_reserved":false,"is_disabled":false,"rental_uris":{"android":"levelo://app?vid=0cbe870f-8349-4837-ae0a-20b1625481ea","ios":"levelo://app?vid=0cbe870f-8349-4837-ae0a-20b1625481ea"},"vehicle_type_id":"4","last_reported":1769465579,"current_range_meters":8000,"station_id":"ce4bgvp2rcd13ifvqcu0","pricing_plan_id":"cebpf4jnsgd1na2vs0mg"},{"bike_id":"346ecd88-88c6-4035-95a8-a47b2e471399","system_id":"levelo_inurba_marseille","lat":43.32059,"lon":5.4153,"is_reserved":false,"is_disabled":false,"rental_uris":{"android":"levelo://app?vid=346ecd88-88c6-4035-95a8-a47b2e471399","ios":"levelo://app?vid=346ecd88-88c6-4035-95a8-a47b2e471399"},"vehicle_type_id":"4","last_reported":1769465579,"current_range_meters":8000,"station_id":"ce4bhq92rcd13ifvqhkg","pricing_plan_id":"cebpf4jnsgd1na2vs0mg"},{"bike_id":"88ffd3a2-1506-480b-abc1-f9282e869380","system_id":"levelo_inurba_marseille","lat":43.25097,"lon":5.39528,"is_reserved":false,"is_disabled":false,"rental_uris":{"android":"levelo://app?vid=88ffd3a2-1506-480b-abc1-f9282e869380","ios":"levelo://app?vid=88ffd3a2-1506-480b-abc1-f9282e869380"},"vehicle_type_id":"4","last_reported":1769465579,"current_range_meters":8000,"station_id":"ce4bhm12rcd13ifvqgkg","pricing_plan_id":"cebpf4jnsgd1na2vs0mg"},{"bike_id":"376d69a1-6c6a-4847-9e8d-b0a51343ba06","system_id":"levelo_inurba_marseille","lat":43.29655,"lon":5.38021,"is_reserved":false,"is_disabled":false,"rental_uris":{"android":"levelo://app?vid=376d69a1-6c6a-4847-9e8d-b0a51343ba06","ios":"levelo://app?vid=376d69a1-6c6a-4847-9e8d-b0a51343ba06"},"vehicle_type_id":"4","last_reported":1769465579,"current_range_meters":8000,"station_id":"","pricing_plan_id":"cebpf4jnsgd1na2vs0mg"},{"bike_id":"9b1c50e7-861a-446c-a905-970dce1508ba","system_id":"levelo_inurba_marseille","lat":43.29973,"lon":5.37181,"is_reserved":false,"is_disabled":false,"rental_uris":{"android":"levelo://app?vid=9b1c50e7-861a-446c-a905-970dce1508ba","ios":"levelo://app?vid=9b1c50e7-861a-446c-a905-970dce1508ba"},"vehicle_type_id":"4","last_reported":1769465579,"current_range_meters":8000,"station_id":"ce4bgr92rcd13ifvqc7g","pricing_plan_id":"cebpf4jnsgd1na2vs0mg"},{"bike_id":"9ab8ecac-aeb3-4a0c-a494-377ef9a5914e","system_id":"levelo_inurba_marseille","lat":43.28415,"lon":5.34997,"is_reserved":false,"is_disabled":false,"rental_uris":{"android":"levelo://app?vid=9ab8ecac-aeb3-4a0c-a494-377ef9a5914e","ios":"levelo://app?vid=9ab8ecac-aeb3-4a0c-a494-377ef9a5914e"},"vehicle_type_id":"4","last_reported":1769465579,"current_range_meters":8000,"station_id":"ce4bhbh2rcd13ifvqepg","pricing_plan_id":"cebpf4jnsgd1na2vs0mg"},{"bike_id":"cdd00e40-e898-421e-b9d3-7f5546861658","system_id":"levelo_inurba_marseille","lat":43.23793,"lon":5.36638,"is_reserved":false,"is_disabled":false,"rental_uris":{"android":"levelo://app?vid=cdd00e40-e898-421e-b9d3-7f5546861658","ios":"levelo://app?vid=cdd00e40-e898-421e-b9d3-7f5546861658"},"vehicle_type_id":"4","last_reported":1769465579,"current_range_meters":8000,"station_id":"st_d3nk18o9ro0c73en2l3g","pricing_plan_id":"cebpf4jnsgd1na2vs0mg"},{"bike_id":"3dfd3f67-a1be-47ac-9e28-dad6917ffdeb","system_id":"levelo_inurba_marseille","lat":43.30882,"lon":5.39652,"is_reserved":false,"is_disabled":false,"rental_uris":{"android":"levelo://app?vid=3dfd3f67-a1be-47ac-9e28-dad6917ffdeb","ios":"levelo://app?vid=3dfd3f67-a1be-47ac-9e28-dad6917ffdeb"},"vehicle_type_id":"4","last_reported":1769465579,"current_range_meters":8000,"station_id":"ce4bh012rcd13ifvqcv0","pricing_plan_id":"cebpf4jnsgd1na2vs0mg"},{"bike_id":"e5d711e4-bd13-457b-b6dd-87787f653a94","system_id":"levelo_inurba_marseille","lat":43.29558,"lon":5.39396,"is_reserved":false,"is_disabled":false,"rental_uris":{"android":"levelo://app?vid=e5d711e4-bd13-457b-b6dd-87787f653a94","ios":"levelo://app?vid=e5d711e4-bd13-457b-b6dd-87787f653a94"},"vehicle_type_id":"4","last_reported":1769465579,"current_range_meters":8000,"station_id":"ce4bh292rcd13ifvqdf0","pricing_plan_id":"cebpf4jnsgd1na2vs0mg"},{"bike_id":"97d1eda0-a9af-4c4a-9c8b-3b1301d74ec8","system_id":"levelo_inurba_marseille","lat":43.22939,"lon":5.35389,"is_reserved":false,"is_disabled":false,"rental_uris":{"android":"levelo://app?vid=97d1eda0-a9af-4c4a-9c8b-3b1301d74ec8","ios":"levelo://app?vid=97d1eda0-a9af-4c4a-9c8b-3b1301d74ec8"},"vehicle_type_id":"4","last_reported":1769465579,"current_range_meters":8400,"station_id":"cpo3532slgdg3j2ikp40","pricing_plan_id":"cebpf4jnsgd1na2vs0mg"},{"bike_id":"4982447f-e072-41ab-8515-f50997651ddc","system_id":"levelo_inurba_marseille","lat":43.2309,"lon":5.35517,"is_reserved":false,"is_disabled":true,"rental_uris":{"android":"levelo://app?vid=4982447f-e072-41ab-8515-f50997651ddc","ios":"levelo://app?vid=4982447f-e072-41ab-8515-f50997651ddc"},"vehicle_type_id":"4","last_reported":1769465579,"current_range_meters":8400,"station_id":"cpo3342slgdg3j2ifvpg","pricing_plan_id":"cebpf4jnsgd1na2vs0mg"},{"bike_id":"56076317-b66a-45ba-b3b6-c261c650aa84","system_id":"levelo_inurba_marseille","lat":43.29674,"lon":5.37826,"is_reserved":false,"is_disabled":false,"rental_uris":{"android":"levelo://app?vid=56076317-b66a-45ba-b3b6-c261c650aa84","ios":"levelo://app?vid=56076317-b66a-45ba-b3b6-c261c650aa84"},"vehicle_type_id":"4","last_reported":1769465579,"current_range_meters":8400,"station_id":"","pricing_plan_id":"cebpf4jnsgd1na2vs0mg"},{"bike_id":"fd72f9ae-206c-4312-bc08-7921ba3261a6","system_id":"levelo_inurba_marseille","lat":43.29691,"lon":5.39453,"is_reserved":false,"is_disabled":false,"rental_uris":{"android":"levelo://app?vid=fd72f9ae-206c-4312-bc08-7921ba3261a6","ios":"levelo://app?vid=fd72f9ae-206c-4312-bc08-7921ba3261a6"},"vehicle_type_id":"4","last_reported":1769465579,"current_range_meters":8400,"station_id":"","pricing_plan_id":"cebpf4jnsgd1na2vs0mg"},{"bike_id":"8dc1c371-7a8b-4d40-96de-5f21b3f68e5e","system_id":"levelo_inurba_marseille","lat":43.29912,"lon":5.37501,"is_reserved":false,"is_disabled":false,"rental_uris":{"android":"levelo://app?vid=8dc1c371-7a8b-4d40-96de-5f21b3f68e5e","ios":"levelo://app?vid=8dc1c371-7a8b-4d40-96de-5f21b3f68e5e"},"vehicle_type_id":"4","last_reported":1769465579,"current_range_meters":8400,"station_id":"ce4bgjh2rcd13ifvqbg0","pricing_plan_id":"cebpf4jnsgd1na2vs0mg"},{"bike_id":"15ffb544-9cf9-4c83-98f5-22f43ecc1d4c","system_id":"levelo_inurba_marseille","lat":43.30842,"lon":5.40494,"is_reserved":false,"is_disabled":false,"rental_uris":{"android":"levelo://app?vid=15ffb544-9cf9-4c83-98f5-22f43ecc1d4c","ios":"levelo://app?vid=15ffb544-9cf9-4c83-98f5-22f43ecc1d4c"},"vehicle_type_id":"4","last_reported":1769465579,"current_range_meters":8400,"station_id":"","pricing_plan_id":"cebpf4jnsgd1na2vs0mg"},{"bike_id":"7b79d6d9-03df-4b67-ae67-deffb4b9b80f","system_id":"levelo_inurba_marseille","lat":43.2925,"lon":5.3761,"is_reserved":false,"is_disabled":false,"rental_uris":{"android":"levelo://app?vid=7b79d6d9-03df-4b67-ae67-deffb4b9b80f","ios":"levelo://app?vid=7b79d6d9-03df-4b67-ae67-deffb4b9b80f"},"vehicle_type_id":"4","last_reported":1769465579,"current_range_meters":8400,"station_id":"ce4bgi12rcd13ifvqb80","pricing_plan_id":"cebpf4jnsgd1na2vs0mg"},{"bike_id":"a75b5e2d-4bc7-45d9-aa21-a914f9f2e7f2","system_id":"levelo_inurba_marseille","lat":43.28855,"lon":5.35857,"is_reserved":false,"is_disabled":false,"rental_uris":{"android":"levelo://app?vid=a75b5e2d-4bc7-45d9-aa21-a914f9f2e7f2","ios":"levelo://app?vid=a75b5e2d-4bc7-45d9-aa21-a914f9f2e7f2"},"vehicle_type_id":"4","last_reported":1769465579,"current_range_meters":8400,"station_id":"ce4bhb12rcd13ifvqem0","pricing_plan_id":"cebpf4jnsgd1na2vs0mg"},{"bike_id":"c8bb2a08-170b-4c3f-9a7c-8d580e9bd3cc","system_id":"levelo_inurba_marseille","lat":43.24484,"lon":5.42536,"is_reserved":false,"is_disabled":false,"rental_uris":{"android":"levelo://app?vid=c8bb2a08-170b-4c3f-9a7c-8d580e9bd3cc","ios":"levelo://app?vid=c8bb2a08-170b-4c3f-9a7c-8d580e9bd3cc"},"vehicle_type_id":"4","last_reported":1769465579,"current_range_meters":8400,"station_id":"st_d4a3vfp97mjs738cd8kg","pricing_plan_id":"cebpf4jnsgd1na2vs0mg"},{"bike_id":"1e6ae573-7b0d-4ca7-8d21-23950df7df4a","system_id":"levelo_inurba_marseille","lat":43.28533,"lon":5.4412,"is_reserved":false,"is_disabled":false,"rental_uris":{"android":"levelo://app?vid=1e6ae573-7b0d-4ca7-8d21-23950df7df4a","ios":"levelo://app?vid=1e6ae573-7b0d-4ca7-8d21-23950df7df4a"},"vehicle_type_id":"4","last_reported":1769465579,"current_range_meters":8400,"station_id":"st_d3j3df2ikq2c7380ej80","pricing_plan_id":"cebpf4jnsgd1na2vs0mg"},{"bike_id":"4511a9ff-3875-477c-83b9-697cc946e0f0","system_id":"levelo_inurba_marseille","lat":43.304276,"lon":5.38895,"is_reserved":false,"is_disabled":false,"rental_uris":{"android":"levelo://app?vid=4511a9ff-3875-477c-83b9-697cc946e0f0","ios":"levelo://app?vid=4511a9ff-3875-477c-83b9-697cc946e0f0"},"vehicle_type_id":"4","last_reported":1769465579,"current_range_meters":8400,"station_id":"ce4bgk12rcd13ifvqbi0","pricing_plan_id":"cebpf4jnsgd1na2vs0mg"},{"bike_id":"4e7998cc-623f-4738-8139-b97df6c53947","system_id":"levelo_inurba_marseille","lat":43.28423,"lon":5.37525,"is_reserved":false,"is_disabled":false,"rental_uris":{"android":"levelo://app?vid=4e7998cc-623f-4738-8139-b97df6c53947","ios":"levelo://app?vid=4e7998cc-623f-4738-8139-b97df6c53947"},"vehicle_type_id":"4","last_reported":1769465579,"current_range_meters":8400,"station_id":"ce4bh412rcd13ifvqds0","pricing_plan_id":"cebpf4jnsgd1na2vs0mg"},{"bike_id":"fbbfdfb0-2a68-42b1-8e98-f01f0f60526d","system_id":"levelo_inurba_marseille","lat":43.28084,"lon":5.39643,"is_reserved":false,"is_disabled":false,"rental_uris":{"android":"levelo://app?vid=fbbfdfb0-2a68-42b1-8e98-f01f0f60526d","ios":"levelo://app?vid=fbbfdfb0-2a68-42b1-8e98-f01f0f60526d"},"vehicle_type_id":"4","last_reported":1769465579,"current_range_meters":8400,"station_id":"ce4bho12rcd13ifvqh2g","pricing_plan_id":"cebpf4jnsgd1na2vs0mg"},{"bike_id":"8631421d-21a9-439a-82c3-3764ee3e564c","system_id":"levelo_inurba_marseille","lat":43.271847,"lon":5.40981,"is_reserved":false,"is_disabled":false,"rental_uris":{"android":"levelo://app?vid=8631421d-21a9-439a-82c3-3764ee3e564c","ios":"levelo://app?vid=8631421d-21a9-439a-82c3-3764ee3e564c"},"vehicle_type_id":"4","last_reported":1769465579,"current_range_meters":8400,"station_id":"ce4bhl12rcd13ifvqgf0","pricing_plan_id":"cebpf4jnsgd1na2vs0mg"},{"bike_id":"2abdbc45-a66e-4faf-971c-b57d8f806d8d","system_id":"levelo_inurba_marseille","lat":43.284915,"lon":5.48394,"is_reserved":false,"is_disabled":false,"rental_uris":{"android":"levelo://app?vid=2abdbc45-a66e-4faf-971c-b57d8f806d8d","ios":"levelo://app?vid=2abdbc45-a66e-4faf-971c-b57d8f806d8d"},"vehicle_type_id":"4","last_reported":1769465579,"current_range_meters":8400,"station_id":"st_d3svhcjqgbts73a3dn0g","pricing_plan_id":"cebpf4jnsgd1na2vs0mg"},{"bike_id":"fb8934f6-9dab-439c-acce-05fcdc10c589","system_id":"levelo_inurba_marseille","lat":43.249451,"lon":5.404944,"is_reserved":false,"is_disabled":false,"rental_uris":{"android":"levelo://app?vid=fb8934f6-9dab-439c-acce-05fcdc10c589","ios":"levelo://app?vid=fb8934f6-9dab-439c-acce-05fcdc10c589"},"vehicle_type_id":"4","last_reported":1769465579,"current_range_meters":8400,"station_id":"st_d2ngiaodas8pm72gd1h0","pricing_plan_id":"cebpf4jnsgd1na2vs0mg"},{"bike_id":"4a78ede7-c205-41bb-85bc-7d98f1bcea51","system_id":"levelo_inurba_marseille","lat":43.28716,"lon":5.37403,"is_reserved":false,"is_disabled":false,"rental_uris":{"android":"levelo://app?vid=4a78ede7-c205-41bb-85bc-7d98f1bcea51","ios":"levelo://app?vid=4a78ede7-c205-41bb-85bc-7d98f1bcea51"},"vehicle_type_id":"4","last_reported":1769465579,"current_range_meters":8400,"station_id":"ce4bh3p2rcd13ifvqdq0","pricing_plan_id":"cebpf4jnsgd1na2vs0mg"},{"bike_id":"97d9c0be-7863-4ee9-9664-219df15d50b8","system_id":"levelo_inurba_marseille","lat":43.27747,"lon":5.38361,"is_reserved":false,"is_disabled":false,"rental_uris":{"android":"levelo://app?vid=97d9c0be-7863-4ee9-9664-219df15d50b8","ios":"levelo://app?vid=97d9c0be-7863-4ee9-9664-219df15d50b8"},"vehicle_type_id":"4","last_reported":1769465579,"current_range_meters":8400,"station_id":"","pricing_plan_id":"cebpf4jnsgd1na2vs0mg"},{"bike_id":"ef2d9e29-a0d7-414b-95da-a7f8bfed90fb","system_id":"levelo_inurba_marseille","lat":43.33049,"lon":5.39146,"is_reserved":false,"is_disabled":false,"rental_uris":{"android":"levelo://app?vid=ef2d9e29-a0d7-414b-95da-a7f8bfed90fb","ios":"levelo://app?vid=ef2d9e29-a0d7-414b-95da-a7f8bfed90fb"},"vehicle_type_id":"4","last_reported":1769465579,"current_range_meters":8800,"station_id":"","pricing_plan_id":"cebpf4jnsgd1na2vs0mg"},{"bike_id":"77427743-0d55-493d-b311-adc15917f736","system_id":"levelo_inurba_marseille","lat":43.2997,"lon":5.37181,"is_reserved":false,"is_disabled":false,"rental_uris":{"android":"levelo://app?vid=77427743-0d55-493d-b311-adc15917f736","ios":"levelo://app?vid=77427743-0d55-493d-b311-adc15917f736"},"vehicle_type_id":"4","last_reported":1769465579,"current_range_meters":8800,"station_id":"ce4bgr92rcd13ifvqc7g","pricing_plan_id":"cebpf4jnsgd1na2vs0mg"},{"bike_id":"ea522609-0ed7-4984-8790-8a7ed4d9009b","system_id":"levelo_inurba_marseille","lat":43.22563,"lon":5.41621,"is_reserved":false,"is_disabled":false,"rental_uris":{"android":"levelo://app?vid=ea522609-0ed7-4984-8790-8a7ed4d9009b","ios":"levelo://app?vid=ea522609-0ed7-4984-8790-8a7ed4d9009b"},"vehicle_type_id":"4","last_reported":1769465579,"current_range_meters":8800,"station_id":"st_d2o4gvlbi1j2169b742g","pricing_plan_id":"cebpf4jnsgd1na2vs0mg"},{"bike_id":"b778e9ae-9e5d-422f-9aa0-c2aebe5892bf","system_id":"levelo_inurba_marseille","lat":43.32341,"lon":5.36751,"is_reserved":false,"is_disabled":false,"rental_uris":{"android":"levelo://app?vid=b778e9ae-9e5d-422f-9aa0-c2aebe5892bf","ios":"levelo://app?vid=b778e9ae-9e5d-422f-9aa0-c2aebe5892bf"},"vehicle_type_id":"4","last_reported":1769465579,"current_range_meters":8800,"station_id":"ce4bhsh2rcd13ifvqi2g","pricing_plan_id":"cebpf4jnsgd1na2vs0mg"},{"bike_id":"e1b65952-cf23-4d4c-bb61-476f12fae8d2","system_id":"levelo_inurba_marseille","lat":43.2318,"lon":5.35521,"is_reserved":false,"is_disabled":false,"rental_uris":{"android":"levelo://app?vid=e1b65952-cf23-4d4c-bb61-476f12fae8d2","ios":"levelo://app?vid=e1b65952-cf23-4d4c-bb61-476f12fae8d2"},"vehicle_type_id":"4","last_reported":1769465579,"current_range_meters":8800,"station_id":"ce4bhu92rcd13ifvqi70","pricing_plan_id":"cebpf4jnsgd1na2vs0mg"},{"bike_id":"4df45a23-8322-48c7-91ed-b9f0dfff1365","system_id":"levelo_inurba_marseille","lat":43.31358,"lon":5.39715,"is_reserved":false,"is_disabled":false,"rental_uris":{"android":"levelo://app?vid=4df45a23-8322-48c7-91ed-b9f0dfff1365","ios":"levelo://app?vid=4df45a23-8322-48c7-91ed-b9f0dfff1365"},"vehicle_type_id":"4","last_reported":1769465579,"current_range_meters":8800,"station_id":"ce4bgvp2rcd13ifvqcu0","pricing_plan_id":"cebpf4jnsgd1na2vs0mg"},{"bike_id":"39c45b00-edbc-4039-9410-db409ff71c29","system_id":"levelo_inurba_marseille","lat":43.30485,"lon":5.37255,"is_reserved":false,"is_disabled":false,"rental_uris":{"android":"levelo://app?vid=39c45b00-edbc-4039-9410-db409ff71c29","ios":"levelo://app?vid=39c45b00-edbc-4039-9410-db409ff71c29"},"vehicle_type_id":"4","last_reported":1769465579,"current_range_meters":8800,"station_id":"","pricing_plan_id":"cebpf4jnsgd1na2vs0mg"},{"bike_id":"77303589-c1d8-4b2a-831f-ef70821c780d","system_id":"levelo_inurba_marseille","lat":43.28531,"lon":5.44116,"is_reserved":false,"is_disabled":false,"rental_uris":{"android":"levelo://app?vid=77303589-c1d8-4b2a-831f-ef70821c780d","ios":"levelo://app?vid=77303589-c1d8-4b2a-831f-ef70821c780d"},"vehicle_type_id":"4","last_reported":1769465579,"current_range_meters":8800,"station_id":"st_d3j3df2ikq2c7380ej80","pricing_plan_id":"cebpf4jnsgd1na2vs0mg"},{"bike_id":"04ddf445-c90e-4eb2-b7e0-2646a674cd14","system_id":"levelo_inurba_marseille","lat":43.24795,"lon":5.37474,"is_reserved":false,"is_disabled":false,"rental_uris":{"android":"levelo://app?vid=04ddf445-c90e-4eb2-b7e0-2646a674cd14","ios":"levelo://app?vid=04ddf445-c90e-4eb2-b7e0-2646a674cd14"},"vehicle_type_id":"4","last_reported":1769465579,"current_range_meters":8800,"station_id":"ce4bhgh2rcd13ifvqfb0","pricing_plan_id":"cebpf4jnsgd1na2vs0mg"},{"bike_id":"449affbd-aaf8-41d6-bed7-0d41a00c111d","system_id":"levelo_inurba_marseille","lat":43.33278,"lon":5.36628,"is_reserved":false,"is_disabled":false,"rental_uris":{"android":"levelo://app?vid=449affbd-aaf8-41d6-bed7-0d41a00c111d","ios":"levelo://app?vid=449affbd-aaf8-41d6-bed7-0d41a00c111d"},"vehicle_type_id":"4","last_reported":1769465579,"current_range_meters":8800,"station_id":"","pricing_plan_id":"cebpf4jnsgd1na2vs0mg"},{"bike_id":"99dbcf00-df5b-4cca-a30e-b1ad9293dc4e","system_id":"levelo_inurba_marseille","lat":43.27812,"lon":5.40718,"is_reserved":false,"is_disabled":false,"rental_uris":{"android":"levelo://app?vid=99dbcf00-df5b-4cca-a30e-b1ad9293dc4e","ios":"levelo://app?vid=99dbcf00-df5b-4cca-a30e-b1ad9293dc4e"},"vehicle_type_id":"4","last_reported":1769465579,"current_range_meters":8800,"station_id":"ce4bhnh2rcd13ifvqgtg","pricing_plan_id":"cebpf4jnsgd1na2vs0mg"},{"bike_id":"6d06c21c-b3a0-4a4c-b24e-191f22182658","system_id":"levelo_inurba_marseille","lat":43.24629,"lon":5.43139,"is_reserved":false,"is_disabled":false,"rental_uris":{"android":"levelo://app?vid=6d06c21c-b3a0-4a4c-b24e-191f22182658","ios":"levelo://app?vid=6d06c21c-b3a0-4a4c-b24e-191f22182658"},"vehicle_type_id":"4","last_reported":1769465579,"current_range_meters":8800,"station_id":"st_d2m6c4gdas8pm72e190g","pricing_plan_id":"cebpf4jnsgd1na2vs0mg"},{"bike_id":"9e60ed0e-251a-4867-be0d-81099b8503ef","system_id":"levelo_inurba_marseille","lat":43.27903,"lon":5.39572,"is_reserved":false,"is_disabled":false,"rental_uris":{"android":"levelo://app?vid=9e60ed0e-251a-4867-be0d-81099b8503ef","ios":"levelo://app?vid=9e60ed0e-251a-4867-be0d-81099b8503ef"},"vehicle_type_id":"4","last_reported":1769465579,"current_range_meters":8800,"station_id":"ce4bhf92rcd13ifvqf40","pricing_plan_id":"cebpf4jnsgd1na2vs0mg"},{"bike_id":"c3616682-88ec-472f-b28b-1fbb837fa9d1","system_id":"levelo_inurba_marseille","lat":43.24158,"lon":5.36448,"is_reserved":false,"is_disabled":false,"rental_uris":{"android":"levelo://app?vid=c3616682-88ec-472f-b28b-1fbb837fa9d1","ios":"levelo://app?vid=c3616682-88ec-472f-b28b-1fbb837fa9d1"},"vehicle_type_id":"4","last_reported":1769465579,"current_range_meters":8800,"station_id":"cpo36qri1sfpv3e86is0","pricing_plan_id":"cebpf4jnsgd1na2vs0mg"},{"bike_id":"71e4063f-a131-40b9-b906-a778662b6ea8","system_id":"levelo_inurba_marseille","lat":43.23962,"lon":5.36653,"is_reserved":false,"is_disabled":false,"rental_uris":{"android":"levelo://app?vid=71e4063f-a131-40b9-b906-a778662b6ea8","ios":"levelo://app?vid=71e4063f-a131-40b9-b906-a778662b6ea8"},"vehicle_type_id":"4","last_reported":1769465579,"current_range_meters":8800,"station_id":"ce4bhi12rcd13ifvqfp0","pricing_plan_id":"cebpf4jnsgd1na2vs0mg"},{"bike_id":"34490c13-8bcf-415c-b9e5-3eb81df8b667","system_id":"levelo_inurba_marseille","lat":43.26585,"lon":5.37315,"is_reserved":false,"is_disabled":false,"rental_uris":{"android":"levelo://app?vid=34490c13-8bcf-415c-b9e5-3eb81df8b667","ios":"levelo://app?vid=34490c13-8bcf-415c-b9e5-3eb81df8b667"},"vehicle_type_id":"4","last_reported":1769465579,"current_range_meters":8800,"station_id":"ce4bhg12rcd13ifvqf70","pricing_plan_id":"cebpf4jnsgd1na2vs0mg"},{"bike_id":"ebf94705-971d-438e-a953-f7c4d4ddfd43","system_id":"levelo_inurba_marseille","lat":43.28424,"lon":5.3753,"is_reserved":false,"is_disabled":false,"rental_uris":{"android":"levelo://app?vid=ebf94705-971d-438e-a953-f7c4d4ddfd43","ios":"levelo://app?vid=ebf94705-971d-438e-a953-f7c4d4ddfd43"},"vehicle_type_id":"4","last_reported":1769465579,"current_range_meters":9200,"station_id":"ce4bh412rcd13ifvqds0","pricing_plan_id":"cebpf4jnsgd1na2vs0mg"},{"bike_id":"bed981e9-239a-4c8e-b1c1-b226709af449","system_id":"levelo_inurba_marseille","lat":43.26553,"lon":5.37288,"is_reserved":false,"is_disabled":false,"rental_uris":{"android":"levelo://app?vid=bed981e9-239a-4c8e-b1c1-b226709af449","ios":"levelo://app?vid=bed981e9-239a-4c8e-b1c1-b226709af449"},"vehicle_type_id":"4","last_reported":1769465579,"current_range_meters":9200,"station_id":"ce4bhg12rcd13ifvqf70","pricing_plan_id":"cebpf4jnsgd1na2vs0mg"},{"bike_id":"62185d4d-46dd-4a84-abc6-9c9c9da6969c","system_id":"levelo_inurba_marseille","lat":43.2862,"lon":5.35101,"is_reserved":false,"is_disabled":false,"rental_uris":{"android":"levelo://app?vid=62185d4d-46dd-4a84-abc6-9c9c9da6969c","ios":"levelo://app?vid=62185d4d-46dd-4a84-abc6-9c9c9da6969c"},"vehicle_type_id":"4","last_reported":1769465579,"current_range_meters":9200,"station_id":"ce4bhch2rcd13ifvqeug","pricing_plan_id":"cebpf4jnsgd1na2vs0mg"},{"bike_id":"054e163b-1e47-4a0a-a038-a7939885860e","system_id":"levelo_inurba_marseille","lat":43.32351,"lon":5.36733,"is_reserved":false,"is_disabled":false,"rental_uris":{"android":"levelo://app?vid=054e163b-1e47-4a0a-a038-a7939885860e","ios":"levelo://app?vid=054e163b-1e47-4a0a-a038-a7939885860e"},"vehicle_type_id":"4","last_reported":1769465579,"current_range_meters":9200,"station_id":"ce4bhsh2rcd13ifvqi2g","pricing_plan_id":"cebpf4jnsgd1na2vs0mg"},{"bike_id":"cd97a287-f3db-4bb8-af84-655827a2ff9f","system_id":"levelo_inurba_marseille","lat":43.23169,"lon":5.43709,"is_reserved":false,"is_disabled":false,"rental_uris":{"android":"levelo://app?vid=cd97a287-f3db-4bb8-af84-655827a2ff9f","ios":"levelo://app?vid=cd97a287-f3db-4bb8-af84-655827a2ff9f"},"vehicle_type_id":"4","last_reported":1769465579,"current_range_meters":9200,"station_id":"ce4bhmp2rcd13ifvqgog","pricing_plan_id":"cebpf4jnsgd1na2vs0mg"},{"bike_id":"c91f91f3-98b3-4fcf-bd93-581840c2823a","system_id":"levelo_inurba_marseille","lat":43.28448,"lon":5.39189,"is_reserved":false,"is_disabled":true,"rental_uris":{"android":"levelo://app?vid=c91f91f3-98b3-4fcf-bd93-581840c2823a","ios":"levelo://app?vid=c91f91f3-98b3-4fcf-bd93-581840c2823a"},"vehicle_type_id":"4","last_reported":1769465579,"current_range_meters":9200,"station_id":"ce4bhoh2rcd13ifvqh5g","pricing_plan_id":"cebpf4jnsgd1na2vs0mg"},{"bike_id":"ccb8f850-15c8-4a47-a07e-b172230b2bf2","system_id":"levelo_inurba_marseille","lat":43.24484,"lon":5.42546,"is_reserved":false,"is_disabled":false,"rental_uris":{"android":"levelo://app?vid=ccb8f850-15c8-4a47-a07e-b172230b2bf2","ios":"levelo://app?vid=ccb8f850-15c8-4a47-a07e-b172230b2bf2"},"vehicle_type_id":"4","last_reported":1769465579,"current_range_meters":9200,"station_id":"st_d4a3vfp97mjs738cd8kg","pricing_plan_id":"cebpf4jnsgd1na2vs0mg"},{"bike_id":"1a56152d-f93b-4ba8-94fe-9709967df90d","system_id":"levelo_inurba_marseille","lat":43.23962,"lon":5.36636,"is_reserved":false,"is_disabled":false,"rental_uris":{"android":"levelo://app?vid=1a56152d-f93b-4ba8-94fe-9709967df90d","ios":"levelo://app?vid=1a56152d-f93b-4ba8-94fe-9709967df90d"},"vehicle_type_id":"4","last_reported":1769465579,"current_range_meters":9200,"station_id":"ce4bhi12rcd13ifvqfp0","pricing_plan_id":"cebpf4jnsgd1na2vs0mg"},{"bike_id":"06179d86-77e3-4b4d-a603-0c1d56004883","system_id":"levelo_inurba_marseille","lat":43.24803,"lon":5.37439,"is_reserved":false,"is_disabled":false,"rental_uris":{"android":"levelo://app?vid=06179d86-77e3-4b4d-a603-0c1d56004883","ios":"levelo://app?vid=06179d86-77e3-4b4d-a603-0c1d56004883"},"vehicle_type_id":"4","last_reported":1769465579,"current_range_meters":9200,"station_id":"ce4bhgh2rcd13ifvqfb0","pricing_plan_id":"cebpf4jnsgd1na2vs0mg"},{"bike_id":"73fc0ed2-33b8-469f-9d74-8809de49ae7e","system_id":"levelo_inurba_marseille","lat":43.26056,"lon":5.39402,"is_reserved":false,"is_disabled":false,"rental_uris":{"android":"levelo://app?vid=73fc0ed2-33b8-469f-9d74-8809de49ae7e","ios":"levelo://app?vid=73fc0ed2-33b8-469f-9d74-8809de49ae7e"},"vehicle_type_id":"4","last_reported":1769465579,"current_range_meters":9200,"station_id":"ce4bhh92rcd13ifvqfj0","pricing_plan_id":"cebpf4jnsgd1na2vs0mg"},{"bike_id":"496493e3-6885-4f38-a394-131cfed7b63e","system_id":"levelo_inurba_marseille","lat":43.29531,"lon":5.3996,"is_reserved":false,"is_disabled":false,"rental_uris":{"android":"levelo://app?vid=496493e3-6885-4f38-a394-131cfed7b63e","ios":"levelo://app?vid=496493e3-6885-4f38-a394-131cfed7b63e"},"vehicle_type_id":"4","last_reported":1769465579,"current_range_meters":9200,"station_id":"ce4bh312rcd13ifvqdj0","pricing_plan_id":"cebpf4jnsgd1na2vs0mg"},{"bike_id":"10ed2664-109e-43f4-9dbd-256742a1695f","system_id":"levelo_inurba_marseille","lat":43.30176,"lon":5.3662,"is_reserved":false,"is_disabled":false,"rental_uris":{"android":"levelo://app?vid=10ed2664-109e-43f4-9dbd-256742a1695f","ios":"levelo://app?vid=10ed2664-109e-43f4-9dbd-256742a1695f"},"vehicle_type_id":"4","last_reported":1769465579,"current_range_meters":9200,"station_id":"ce4bgrh2rcd13ifvqc8g","pricing_plan_id":"cebpf4jnsgd1na2vs0mg"},{"bike_id":"5d64d6a0-f474-49eb-ae32-ed64f657fad1","system_id":"levelo_inurba_marseille","lat":43.272094,"lon":5.39181,"is_reserved":false,"is_disabled":false,"rental_uris":{"android":"levelo://app?vid=5d64d6a0-f474-49eb-ae32-ed64f657fad1","ios":"levelo://app?vid=5d64d6a0-f474-49eb-ae32-ed64f657fad1"},"vehicle_type_id":"4","last_reported":1769465579,"current_range_meters":9200,"station_id":"ce4bhhp2rcd13ifvqfm0","pricing_plan_id":"cebpf4jnsgd1na2vs0mg"},{"bike_id":"b17b5124-beec-4a5a-bebf-2b8f718a1349","system_id":"levelo_inurba_marseille","lat":43.23229,"lon":5.35557,"is_reserved":false,"is_disabled":false,"rental_uris":{"android":"levelo://app?vid=b17b5124-beec-4a5a-bebf-2b8f718a1349","ios":"levelo://app?vid=b17b5124-beec-4a5a-bebf-2b8f718a1349"},"vehicle_type_id":"4","last_reported":1769465579,"current_range_meters":9200,"station_id":"ce4bhu92rcd13ifvqi70","pricing_plan_id":"cebpf4jnsgd1na2vs0mg"},{"bike_id":"3bff5cec-8847-4371-9dcf-08e0ac5a358c","system_id":"levelo_inurba_marseille","lat":43.25021,"lon":5.38926,"is_reserved":false,"is_disabled":false,"rental_uris":{"android":"levelo://app?vid=3bff5cec-8847-4371-9dcf-08e0ac5a358c","ios":"levelo://app?vid=3bff5cec-8847-4371-9dcf-08e0ac5a358c"},"vehicle_type_id":"4","last_reported":1769465579,"current_range_meters":9200,"station_id":"ce4bhgp2rcd13ifvqfd0","pricing_plan_id":"cebpf4jnsgd1na2vs0mg"},{"bike_id":"5f91c991-b402-4c10-a117-7fa07f19fc0c","system_id":"levelo_inurba_marseille","lat":43.27827,"lon":5.40713,"is_reserved":false,"is_disabled":false,"rental_uris":{"android":"levelo://app?vid=5f91c991-b402-4c10-a117-7fa07f19fc0c","ios":"levelo://app?vid=5f91c991-b402-4c10-a117-7fa07f19fc0c"},"vehicle_type_id":"4","last_reported":1769465579,"current_range_meters":9600,"station_id":"ce4bhnh2rcd13ifvqgtg","pricing_plan_id":"cebpf4jnsgd1na2vs0mg"},{"bike_id":"c1d76fe7-8229-49b0-8dae-038c2bf0b5b7","system_id":"levelo_inurba_marseille","lat":43.30906,"lon":5.40338,"is_reserved":false,"is_disabled":false,"rental_uris":{"android":"levelo://app?vid=c1d76fe7-8229-49b0-8dae-038c2bf0b5b7","ios":"levelo://app?vid=c1d76fe7-8229-49b0-8dae-038c2bf0b5b7"},"vehicle_type_id":"4","last_reported":1769465579,"current_range_meters":9600,"station_id":"","pricing_plan_id":"cebpf4jnsgd1na2vs0mg"},{"bike_id":"cc827cf5-4f3f-4ac3-aba7-6f8c4601f689","system_id":"levelo_inurba_marseille","lat":43.24163,"lon":5.36431,"is_reserved":false,"is_disabled":false,"rental_uris":{"android":"levelo://app?vid=cc827cf5-4f3f-4ac3-aba7-6f8c4601f689","ios":"levelo://app?vid=cc827cf5-4f3f-4ac3-aba7-6f8c4601f689"},"vehicle_type_id":"4","last_reported":1769465579,"current_range_meters":9600,"station_id":"cpo36qri1sfpv3e86is0","pricing_plan_id":"cebpf4jnsgd1na2vs0mg"},{"bike_id":"d8fe5977-167d-4d79-bb8d-a90abddb5736","system_id":"levelo_inurba_marseille","lat":43.24852,"lon":5.37464,"is_reserved":false,"is_disabled":false,"rental_uris":{"android":"levelo://app?vid=d8fe5977-167d-4d79-bb8d-a90abddb5736","ios":"levelo://app?vid=d8fe5977-167d-4d79-bb8d-a90abddb5736"},"vehicle_type_id":"4","last_reported":1769465579,"current_range_meters":9600,"station_id":"","pricing_plan_id":"cebpf4jnsgd1na2vs0mg"},{"bike_id":"dd17e14d-0564-4393-a6fd-cb7a120675c0","system_id":"levelo_inurba_marseille","lat":43.24473,"lon":5.42542,"is_reserved":false,"is_disabled":false,"rental_uris":{"android":"levelo://app?vid=dd17e14d-0564-4393-a6fd-cb7a120675c0","ios":"levelo://app?vid=dd17e14d-0564-4393-a6fd-cb7a120675c0"},"vehicle_type_id":"4","last_reported":1769465579,"current_range_meters":9600,"station_id":"st_d4a3vfp97mjs738cd8kg","pricing_plan_id":"cebpf4jnsgd1na2vs0mg"},