{"last_updated":1738181378,"ttl":60,"version":"2.2","data":{"bikes":[{"bike_id":"f506a9e5-ac7d-4ec1-bc7d-dca336ec0ff0","system_id":"levelo_inurba_marseille","lat":43.30871,"lon":5.37815,"is_reserved":false,"is_disabled":false,"rental_uris":{"android":"levelo://app?vid=f506a9e5-ac7d-4ec1-bc7d-dca336ec0ff0","ios":"levelo://app?vid=f506a9e5-ac7d-4ec1-bc7d-dca336ec0ff0"},"vehicle_type_id":"4","last_reported":1738181378,"current_range_meters":30800,"station_id":"","pricing_plan_id":"cebpf4jnsgd1na2vs0mg"},{"bike_id":"bb645bb6-1ffd-4d52-b874-a82d359e4752","system_id":"levelo_inurba_marseille","lat":43.29501,"lon":5.39029,"is_reserved":false,"is_disabled":false,"rental_uris":{"android":"levelo://app?vid=bb645bb6-1ffd-4d52-b874-a82d359e4752","ios":"levelo://app?vid=bb645bb6-1ffd-4d52-b874-a82d359e4752"},"vehicle_type_id":"4","last_reported":1738181378,"current_range_meters":35600,"station_id":"ce4bh3p2rcd13ifvqdp0","pricing_plan_id":"cebpf4jnsgd1na2vs0mg"},{"bike_id":"9fd73913-dbae-4c44-9a9b-e393df78b1e9","system_id":"levelo_inurba_marseille","lat":43.25588,"lon":5.38253,"is_reserved":false,"is_disabled":false,"rental_uris":{"android":"levelo://app?vid=9fd73913-dbae-4c44-9a9b-e393df78b1e9","ios":"levelo://app?vid=9fd73913-dbae-4c44-9a9b-e393df78b1e9"},"vehicle_type_id":"4","last_reported":1738181378,"current_range_meters":38800,"station_id":"ce4bhih2rcd13ifvqfs0","pricing_plan_id":"cebpf4jnsgd1na2vs0mg"},{"bike_id":"6f54618b-a91a-49da-80b2-2b2a67e027e4","system_id":"levelo_inurba_marseille","lat":43.26549,"lon":5.37289,"is_reserved":false,"is_disabled":true,"rental_uris":{"android":"levelo://app?vid=6f54618b-a91a-49da-80b2-2b2a67e027e4","ios":"levelo://app?vid=6f54618b-a91a-49da-80b2-2b2a67e027e4"},"vehicle_type_id":"4","last_reported":1738181378,"current_range_meters":36400,"station_id":"ce4bhg12rcd13ifvqf70","pricing_plan_id":"cebpf4jnsgd1na2vs0mg"},{"bike_id":"db11cd7f-3734-41eb-95c8-7815def5f300","system_id":"levelo_inurba_marseille","lat":43.27829,"lon":5.39223,"is_reserved":false,"is_disabled":false,"rental_uris":{"android":"levelo://app?vid=db11cd7f-3734-41eb-95c8-7815def5f300","ios":"levelo://app?vid=db11cd7f-3734-41eb-95c8-7815def5f300"},"vehicle_type_id":"4","last_reported":1738181378,"current_range_meters":36000,"station_id":"ce4bhjp2rcd13ifvqga0","pricing_plan_id":"cebpf4jnsgd1na2vs0mg"},{"bike_id":"61db69aa-0f32-48f3-bc1e-91f693338465","system_id":"levelo_inurba_marseille","lat":43.29633,"lon":5.406,"is_reserved":false,"is_disabled":false,"rental_uris":{"android":"levelo://app?vid=61db69aa-0f32-48f3-bc1e-91f693338465","ios":"levelo://app?vid=61db69aa-0f32-48f3-bc1e-91f693338465"},"vehicle_type_id":"4","last_reported":1738181378,"current_range_meters":22400,"station_id":"ce4bh0h2rcd13ifvqd60","pricing_plan_id":"cebpf4jnsgd1na2vs0mg"},{"bike_id":"f7f8117f-03ef-415e-85c6-2eeaf165e4f2","system_id":"levelo_inurba_marseille","lat":43.26177,"lon":5.40374,"is_reserved":false,"is_disabled":true,"rental_uris":{"android":"levelo://app?vid=f7f8117f-03ef-415e-85c6-2eeaf165e4f2","ios":"levelo://app?vid=f7f8117f-03ef-415e-85c6-2eeaf165e4f2"},"vehicle_type_id":"4","last_reported":1738181378,"current_range_meters":28000,"station_id":"","pricing_plan_id":"cebpf4jnsgd1na2vs0mg"},{"bike_id":"1784c1d4-7a12-49a0-bc4c-ef263247f212","system_id":"levelo_inurba_marseille","lat":43.29309,"lon":5.37159,"is_reserved":false,"is_disabled":false,"rental_uris":{"android":"levelo://app?vid=1784c1d4-7a12-49a0-bc4c-ef263247f212","ios":"levelo://app?vid=1784c1d4-7a12-49a0-bc4c-ef263247f212"},"vehicle_type_id":"4","last_reported":1738181378,"current_range_meters":39200,"station_id":"ce4bgh92rcd13ifvqb40","pricing_plan_id":"cebpf4jnsgd1na2vs0mg"},{"bike_id":"41dd62a4-9c6c-4f22-8522-a74901e6ccce","system_id":"levelo_inurba_marseille","lat":43.29267,"lon":5.38445,"is_reserved":false,"is_disabled":false,"rental_uris":{"android":"levelo://app?vid=41dd62a4-9c6c-4f22-8522-a74901e6ccce","ios":"levelo://app?vid=41dd62a4-9c6c-4f22-8522-a74901e6ccce"},"vehicle_type_id":"4","last_reported":1738181378,"current_range_meters":24400,"station_id":"ce4bh692rcd13ifvqea0","pricing_plan_id":"cebpf4jnsgd1na2vs0mg"},{"bike_id":"e43ea19b-d0b3-42fa-b02a-feb412797ad3","system_id":"levelo_inurba_marseille","lat":43.31172,"lon":5.38719,"is_reserved":false,"is_disabled":false,"rental_uris":{"android":"levelo://app?vid=e43ea19b-d0b3-42fa-b02a-feb412797ad3","ios":"levelo://app?vid=e43ea19b-d0b3-42fa-b02a-feb412797ad3"},"vehicle_type_id":"4","last_reported":1738181378,"current_range_meters":13600,"station_id":"ce4bgv12rcd13ifvqcp0","pricing_plan_id":"cebpf4jnsgd1na2vs0mg"},{"bike_id":"95368096-d0f9-4c12-bf75-9f98ccb1b0a5","system_id":"levelo_inurba_marseille","lat":43.30925,"lon":5.40144,"is_reserved":false,"is_disabled":false,"rental_uris":{"android":"levelo://app?vid=95368096-d0f9-4c12-bf75-9f98ccb1b0a5","ios":"levelo://app?vid=95368096-d0f9-4c12-bf75-9f98ccb1b0a5"},"vehicle_type_id":"4","last_reported":1738181378,"current_range_meters":19600,"station_id":"ce4bgvp2rcd13ifvqct0","pricing_plan_id":"cebpf4jnsgd1na2vs0mg"},{"bike_id":"de1b162f-edfa-4b86-b016-f125f78b5cd4","system_id":"levelo_inurba_marseille","lat":43.31292,"lon":5.40177,"is_reserved":false,"is_disabled":false,"rental_uris":{"android":"levelo://app?vid=de1b162f-edfa-4b86-b016-f125f78b5cd4","ios":"levelo://app?vid=de1b162f-edfa-4b86-b016-f125f78b5cd4"},"vehicle_type_id":"4","last_reported":1738181378,"current_range_meters":26800,"station_id":"ce4bh092rcd13ifvqd30","pricing_plan_id":"cebpf4jnsgd1na2vs0mg"},{"bike_id":"1d17cce0-e7c7-4a6a-b1c9-55b05af46374","system_id":"levelo_inurba_marseille","lat":43.28932,"lon":5.3964,"is_reserved":false,"is_disabled":false,"rental_uris":{"android":"levelo://app?vid=1d17cce0-e7c7-4a6a-b1c9-55b05af46374","ios":"levelo://app?vid=1d17cce0-e7c7-4a6a-b1c9-55b05af46374"},"vehicle_type_id":"4","last_reported":1738181378,"current_range_meters":38000,"station_id":"ce4bh3h2rcd13ifvqdn0","pricing_plan_id":"cebpf4jnsgd1na2vs0mg"},{"bike_id":"1c5b88fe-6ff2-4c32-ba3b-a7d2697f1be1","system_id":"levelo_inurba_marseille","lat":43.29805,"lon":5.40415,"is_reserved":false,"is_disabled":true,"rental_uris":{"android":"levelo://app?vid=1c5b88fe-6ff2-4c32-ba3b-a7d2697f1be1","ios":"levelo://app?vid=1c5b88fe-6ff2-4c32-ba3b-a7d2697f1be1"},"vehicle_type_id":"4","last_reported":1738181378,"current_range_meters":2000,"station_id":"ce4bh112rcd13ifvqd90","pricing_plan_id":"cebpf4jnsgd1na2vs0mg"},{"bike_id":"adc2855c-ce96-4ab1-9132-d4c82e18f627","system_id":"levelo_inurba_marseille","lat":43.26483,"lon":5.39542,"is_reserved":false,"is_disabled":false,"rental_uris":{"android":"levelo://app?vid=adc2855c-ce96-4ab1-9132-d4c82e18f627","ios":"levelo://app?vid=adc2855c-ce96-4ab1-9132-d4c82e18f627"},"vehicle_type_id":"4","last_reported":1738181378,"current_range_meters":31200,"station_id":"ce4bhi12rcd13ifvqfq0","pricing_plan_id":"cebpf4jnsgd1na2vs0mg"},{"bike_id":"00970890-8d2a-4782-80af-803a5b395166","system_id":"levelo_inurba_marseille","lat":43.29022,"lon":5.38647,"is_reserved":false,"is_disabled":false,"rental_uris":{"android":"levelo://app?vid=00970890-8d2a-4782-80af-803a5b395166","ios":"levelo://app?vid=00970890-8d2a-4782-80af-803a5b395166"},"vehicle_type_id":"4","last_reported":1738181378,"current_range_meters":9200,"station_id":"ce4bh4p2rcd13ifvqe0g","pricing_plan_id":"cebpf4jnsgd1na2vs0mg"},{"bike_id":"df517269-7978-40e7-92b9-aba0b6440d0d","system_id":"levelo_inurba_marseille","lat":43.27375,"lon":5.36252,"is_reserved":false,"is_disabled":false,"rental_uris":{"android":"levelo://app?vid=df517269-7978-40e7-92b9-aba0b6440d0d","ios":"levelo://app?vid=df517269-7978-40e7-92b9-aba0b6440d0d"},"vehicle_type_id":"4","last_reported":1738181378,"current_range_meters":25600,"station_id":"ce4bhbh2rcd13ifvqeo0","pricing_plan_id":"cebpf4jnsgd1na2vs0mg"},{"bike_id":"be5fec28-c48c-432e-98b5-4c8c347e328c","system_id":"levelo_inurba_marseille","lat":43.29253,"lon":5.38445,"is_reserved":false,"is_disabled":false,"rental_uris":{"android":"levelo://app?vid=be5fec28-c48c-432e-98b5-4c8c347e328c","ios":"levelo://app?vid=be5fec28-c48c-432e-98b5-4c8c347e328c"},"vehicle_type_id":"4","last_reported":1738181378,"current_range_meters":35600,"station_id":"ce4bh692rcd13ifvqea0","pricing_plan_id":"cebpf4jnsgd1na2vs0mg"},{"bike_id":"79b7a714-6899-43f0-a0e6-1e9b5234e282","system_id":"levelo_inurba_marseille","lat":43.29545,"lon":5.42294,"is_reserved":false,"is_disabled":false,"rental_uris":{"android":"levelo://app?vid=79b7a714-6899-43f0-a0e6-1e9b5234e282","ios":"levelo://app?vid=79b7a714-6899-43f0-a0e6-1e9b5234e282"},"vehicle_type_id":"4","last_reported":1738181378,"current_range_meters":38800,"station_id":"ce4bhph2rcd13ifvqhdg","pricing_plan_id":"cebpf4jnsgd1na2vs0mg"},{"bike_id":"fef603c9-e2f8-4f17-9592-e93f77412abb","system_id":"levelo_inurba_marseille","lat":43.300964,"lon":5.390873,"is_reserved":false,"is_disabled":false,"rental_uris":{"android":"levelo://app?vid=fef603c9-e2f8-4f17-9592-e93f77412abb","ios":"levelo://app?vid=fef603c9-e2f8-4f17-9592-e93f77412abb"},"vehicle_type_id":"4","last_reported":1738181378,"current_range_meters":36000,"station_id":"ce4bh192rcd13ifvqdb0","pricing_plan_id":"cebpf4jnsgd1na2vs0mg"},{"bike_id":"e05d3339-457c-46fa-9827-97d4d0e79dfd","system_id":"levelo_inurba_marseille","lat":43.25865,"lon":5.39901,"is_reserved":false,"is_disabled":false,"rental_uris":{"android":"levelo://app?vid=e05d3339-457c-46fa-9827-97d4d0e79dfd","ios":"levelo://app?vid=e05d3339-457c-46fa-9827-97d4d0e79dfd"},"vehicle_type_id":"4","last_reported":1738181378,"current_range_meters":38800,"station_id":"ce4bhl92rcd13ifvqghg","pricing_plan_id":"cebpf4jnsgd1na2vs0mg"},{"bike_id":"9bd21267-26f6-4122-9567-2f0b5d4f790f","system_id":"levelo_inurba_marseille","lat":43.32372,"lon":5.38886,"is_reserved":false,"is_disabled":false,"rental_uris":{"android":"levelo://app?vid=9bd21267-26f6-4122-9567-2f0b5d4f790f","ios":"levelo://app?vid=9bd21267-26f6-4122-9567-2f0b5d4f790f"},"vehicle_type_id":"4","last_reported":1738181378,"current_range_meters":8000,"station_id":"ce4bhqp2rcd13ifvqhog","pricing_plan_id":"cebpf4jnsgd1na2vs0mg"},{"bike_id":"0914551a-d643-4e36-834f-517682cb7e72","system_id":"levelo_inurba_marseille","lat":43.28077,"lon":5.39651,"is_reserved":false,"is_disabled":false,"rental_uris":{"android":"levelo://app?vid=0914551a-d643-4e36-834f-517682cb7e72","ios":"levelo://app?vid=0914551a-d643-4e36-834f-517682cb7e72"},"vehicle_type_id":"4","last_reported":1738181378,"current_range_meters":17200,"station_id":"ce4bho12rcd13ifvqh2g","pricing_plan_id":"cebpf4jnsgd1na2vs0mg"},{"bike_id":"883f004f-de79-405a-a8b2-65deefbed021","system_id":"levelo_inurba_marseille","lat":43.29268,"lon":5.38431,"is_reserved":false,"is_disabled":false,"rental_uris":{"android":"levelo://app?vid=883f004f-de79-405a-a8b2-65deefbed021","ios":"levelo://app?vid=883f004f-de79-405a-a8b2-65deefbed021"},"vehicle_type_id":"4","last_reported":1738181378,"current_range_meters":38800,"station_id":"ce4bh692rcd13ifvqea0","pricing_plan_id":"cebpf4jnsgd1na2vs0mg"},{"bike_id":"8bde1ebe-5abf-474a-84a7-7794fe44c931","system_id":"levelo_inurba_marseille","lat":43.33053,"lon":5.39046,"is_reserved":false,"is_disabled":false,"rental_uris":{"android":"levelo://app?vid=8bde1ebe-5abf-474a-84a7-7794fe44c931","ios":"levelo://app?vid=8bde1ebe-5abf-474a-84a7-7794fe44c931"},"vehicle_type_id":"4","last_reported":1738181378,"current_range_meters":38800,"station_id":"ce4bhr92rcd13ifvqhrg","pricing_plan_id":"cebpf4jnsgd1na2vs0mg"},{"bike_id":"c98aea08-4be0-4fe4-8ee6-bca40d6296f7","system_id":"levelo_inurba_marseille","lat":43.27981,"lon":5.4165,"is_reserved":false,"is_disabled":false,"rental_uris":{"android":"levelo://app?vid=c98aea08-4be0-4fe4-8ee6-bca40d6296f7","ios":"levelo://app?vid=c98aea08-4be0-4fe4-8ee6-bca40d6296f7"},"vehicle_type_id":"4","last_reported":1738181378,"current_range_meters":38800,"station_id":"ce4bho12rcd13ifvqh1g","pricing_plan_id":"cebpf4jnsgd1na2vs0mg"},{"bike_id":"1c63fa7b-8bb3-4da5-8267-9c40ab75cc0b","system_id":"levelo_inurba_marseille","lat":43.33728,"lon":5.39183,"is_reserved":false,"is_disabled":false,"rental_uris":{"android":"levelo://app?vid=1c63fa7b-8bb3-4da5-8267-9c40ab75cc0b","ios":"levelo://app?vid=1c63fa7b-8bb3-4da5-8267-9c40ab75cc0b"},"vehicle_type_id":"4","last_reported":1738181378,"current_range_meters":39200,"station_id":"ce4bhr92rcd13ifvqhsg","pricing_plan_id":"cebpf4jnsgd1na2vs0mg"},{"bike_id":"17af1dd2-4036-4414-a293-314fa19f63b0","system_id":"levelo_inurba_marseille","lat":43.29422,"lon":5.3862,"is_reserved":false,"is_disabled":false,"rental_uris":{"android":"levelo://app?vid=17af1dd2-4036-4414-a293-314fa19f63b0","ios":"levelo://app?vid=17af1dd2-4036-4414-a293-314fa19f63b0"},"vehicle_type_id":"4","last_reported":1738181378,"current_range_meters":38800,"station_id":"ce4bh2h2rcd13ifvqdh0","pricing_plan_id":"cebpf4jnsgd1na2vs0mg"},{"bike_id":"fb57aee5-301b-407c-a9d0-c23dec2dfbec","system_id":"levelo_inurba_marseille","lat":43.2737,"lon":5.36257,"is_reserved":false,"is_disabled":false,"rental_uris":{"android":"levelo://app?vid=fb57aee5-301b-407c-a9d0-c23dec2dfbec","ios":"levelo://app?vid=fb57aee5-301b-407c-a9d0-c23dec2dfbec"},"vehicle_type_id":"4","last_reported":1738181378,"current_range_meters":29600,"station_id":"ce4bhbh2rcd13ifvqeo0","pricing_plan_id":"cebpf4jnsgd1na2vs0mg"},{"bike_id":"5d4915e0-4a9f-4c36-821a-8bde58abc3cd","system_id":"levelo_inurba_marseille","lat":43.25111,"lon":5.40321,"is_reserved":false,"is_disabled":true,"rental_uris":{"android":"levelo://app?vid=5d4915e0-4a9f-4c36-821a-8bde58abc3cd","ios":"levelo://app?vid=5d4915e0-4a9f-4c36-821a-8bde58abc3cd"},"vehicle_type_id":"4","last_reported":1738181378,"current_range_meters":38800,"station_id":"ce4bhlh2rcd13ifvqgig","pricing_plan_id":"cebpf4jnsgd1na2vs0mg"},{"bike_id":"71fe1c26-5853-405a-bd0a-7fc15a5f97c1","system_id":"levelo_inurba_marseille","lat":43.31342,"lon":5.36756,"is_reserved":false,"is_disabled":true,"rental_uris":{"android":"levelo://app?vid=71fe1c26-5853-405a-bd0a-7fc15a5f97c1","ios":"levelo://app?vid=71fe1c26-5853-405a-bd0a-7fc15a5f97c1"},"vehicle_type_id":"4","last_reported":1738181378,"current_range_meters":36400,"station_id":"ce4bgr92rcd13ifvqc6g","pricing_plan_id":"cebpf4jnsgd1na2vs0mg"},{"bike_id":"e13b7a82-8d03-471f-ac70-6a6d40fcbd32","system_id":"levelo_inurba_marseille","lat":43.2869,"lon":5.3833,"is_reserved":false,"is_disabled":true,"rental_uris":{"android":"levelo://app?vid=e13b7a82-8d03-471f-ac70-6a6d40fcbd32","ios":"levelo://app?vid=e13b7a82-8d03-471f-ac70-6a6d40fcbd32"},"vehicle_type_id":"4","last_reported":1738181378,"current_range_meters":1200,"station_id":"","pricing_plan_id":"cebpf4jnsgd1na2vs0mg"},{"bike_id":"28d1e491-eda7-448f-9629-8e22654ba2cf","system_id":"levelo_inurba_marseille","lat":43.26935,"lon":5.40252,"is_reserved":false,"is_disabled":false,"rental_uris":{"android":"levelo://app?vid=28d1e491-eda7-448f-9629-8e22654ba2cf","ios":"levelo://app?vid=28d1e491-eda7-448f-9629-8e22654ba2cf"},"vehicle_type_id":"4","last_reported":1738181378,"current_range_meters":27600,"station_id":"cjm6bp8fraef2m0cb0m0","pricing_plan_id":"cebpf4jnsgd1na2vs0mg"},{"bike_id":"10d8361f-7304-4b98-a7da-1e8470473995","system_id":"levelo_inurba_marseille","lat":43.31721,"lon":5.42401,"is_reserved":false,"is_disabled":false,"rental_uris":{"android":"levelo://app?vid=10d8361f-7304-4b98-a7da-1e8470473995","ios":"levelo://app?vid=10d8361f-7304-4b98-a7da-1e8470473995"},"vehicle_type_id":"4","last_reported":1738181378,"current_range_meters":38800,"station_id":"ce4bhp92rcd13ifvqhbg","pricing_plan_id":"cebpf4jnsgd1na2vs0mg"},{"bike_id":"5eb90794-1bdf-4569-bb83-163f959d1121","system_id":"levelo_inurba_marseille","lat":43.29257,"lon":5.38441,"is_reserved":false,"is_disabled":false,"rental_uris":{"android":"levelo://app?vid=5eb90794-1bdf-4569-bb83-163f959d1121","ios":"levelo://app?vid=5eb90794-1bdf-4569-bb83-163f959d1121"},"vehicle_type_id":"4","last_reported":1738181378,"current_range_meters":30400,"station_id":"ce4bh692rcd13ifvqea0","pricing_plan_id":"cebpf4jnsgd1na2vs0mg"},{"bike_id":"00e04e95-d7ba-4250-a4a6-3abcd4574027","system_id":"levelo_inurba_marseille","lat":43.28673,"lon":5.38652,"is_reserved":false,"is_disabled":false,"rental_uris":{"android":"levelo://app?vid=00e04e95-d7ba-4250-a4a6-3abcd4574027","ios":"levelo://app?vid=00e04e95-d7ba-4250-a4a6-3abcd4574027"},"vehicle_type_id":"4","last_reported":1738181378,"current_range_meters":6800,"station_id":"ce4bh492rcd13ifvqdug","pricing_plan_id":"cebpf4jnsgd1na2vs0mg"},{"bike_id":"266e5dd3-ca7f-45a4-8866-5bd9b835abc1","system_id":"levelo_inurba_marseille","lat":43.28837,"lon":5.35842,"is_reserved":false,"is_disabled":false,"rental_uris":{"android":"levelo://app?vid=266e5dd3-ca7f-45a4-8866-5bd9b835abc1","ios":"levelo://app?vid=266e5dd3-ca7f-45a4-8866-5bd9b835abc1"},"vehicle_type_id":"4","last_reported":1738181378,"current_range_meters":26000,"station_id":"ce4bhb12rcd13ifvqem0","pricing_plan_id":"cebpf4jnsgd1na2vs0mg"},{"bike_id":"cd6b76b1-5041-4a85-957d-ae81df735153","system_id":"levelo_inurba_marseille","lat":43.29234,"lon":5.36869,"is_reserved":false,"is_disabled":false,"rental_uris":{"android":"levelo://app?vid=cd6b76b1-5041-4a85-957d-ae81df735153","ios":"levelo://app?vid=cd6b76b1-5041-4a85-957d-ae81df735153"},"vehicle_type_id":"4","last_reported":1738181378,"current_range_meters":38000,"station_id":"ce4bhbp2rcd13ifvqesg","pricing_plan_id":"cebpf4jnsgd1na2vs0mg"},{"bike_id":"e24b0b00-1780-4162-aac0-9bb6ee5464a6","system_id":"levelo_inurba_marseille","lat":43.29039,"lon":5.3759,"is_reserved":false,"is_disabled":true,"rental_uris":{"android":"levelo://app?vid=e24b0b00-1780-4162-aac0-9bb6ee5464a6","ios":"levelo://app?vid=e24b0b00-1780-4162-aac0-9bb6ee5464a6"},"vehicle_type_id":"4","last_reported":1738181378,"current_range_meters":6400,"station_id":"ce4bh692rcd13ifvqe90","pricing_plan_id":"cebpf4jnsgd1na2vs0mg"},{"bike_id":"d6a3b64e-2610-4e3c-87bb-b17282c413d8","system_id":"levelo_inurba_marseille","lat":43.30324,"lon":5.4044,"is_reserved":false,"is_disabled":false,"rental_uris":{"android":"levelo://app?vid=d6a3b64e-2610-4e3c-87bb-b17282c413d8","ios":"levelo://app?vid=d6a3b64e-2610-4e3c-87bb-b17282c413d8"},"vehicle_type_id":"4","last_reported":1738181378,"current_range_meters":13600,"station_id":"ce4bh012rcd13ifvqd10","pricing_plan_id":"cebpf4jnsgd1na2vs0mg"},{"bike_id":"dd5c5c45-05d7-435f-b329-97ebdf5c921f","system_id":"levelo_inurba_marseille","lat":43.25111,"lon":5.40333,"is_reserved":false,"is_disabled":true,"rental_uris":{"android":"levelo://app?vid=dd5c5c45-05d7-435f-b329-97ebdf5c921f","ios":"levelo://app?vid=dd5c5c45-05d7-435f-b329-97ebdf5c921f"},"vehicle_type_id":"4","last_reported":1738181378,"current_range_meters":10000,"station_id":"ce4bhlh2rcd13ifvqgig","pricing_plan_id":"cebpf4jnsgd1na2vs0mg"},{"bike_id":"c7bdc074-3c4f-4d2d-8b38-3436f976868d","system_id":"levelo_inurba_marseille","lat":43.30397,"lon":5.41274,"is_reserved":false,"is_disabled":false,"rental_uris":{"android":"levelo://app?vid=c7bdc074-3c4f-4d2d-8b38-3436f976868d","ios":"levelo://app?vid=c7bdc074-3c4f-4d2d-8b38-3436f976868d"},"vehicle_type_id":"4","last_reported":1738181378,"current_range_meters":38800,"station_id":"ce4bhop2rcd13ifvqh8g","pricing_plan_id":"cebpf4jnsgd1na2vs0mg"},{"bike_id":"14167344-1e0d-4e4b-b2b2-36b5e7f3356a","system_id":"levelo_inurba_marseille","lat":43.28269,"lon":5.350664,"is_reserved":false,"is_disabled":false,"rental_uris":{"android":"levelo://app?vid=14167344-1e0d-4e4b-b2b2-36b5e7f3356a","ios":"levelo://app?vid=14167344-1e0d-4e4b-b2b2-36b5e7f3356a"},"vehicle_type_id":"4","last_reported":1738181378,"current_range_meters":20800,"station_id":"ce4bhbp2rcd13ifvqerg","pricing_plan_id":"cebpf4jnsgd1na2vs0mg"},{"bike_id":"13cf75fe-f660-456c-ad9e-8c9251fee13a","system_id":"levelo_inurba_marseille","lat":43.28398,"lon":5.38606,"is_reserved":false,"is_disabled":false,"rental_uris":{"android":"levelo://app?vid=13cf75fe-f660-456c-ad9e-8c9251fee13a","ios":"levelo://app?vid=13cf75fe-f660-456c-ad9e-8c9251fee13a"},"vehicle_type_id":"4","last_reported":1738181378,"current_range_meters":2800,"station_id":"","pricing_plan_id":"cebpf4jnsgd1na2vs0mg"},{"bike_id":"bf94b5cf-6e0a-4706-b635-1d348d1ff856","system_id":"levelo_inurba_marseille","lat":43.27951,"lon":5.41037,"is_reserved":false,"is_disabled":false,"rental_uris":{"android":"levelo://app?vid=bf94b5cf-6e0a-4706-b635-1d348d1ff856","ios":"levelo://app?vid=bf94b5cf-6e0a-4706-b635-1d348d1ff856"},"vehicle_type_id":"4","last_reported":1738181378,"current_range_meters":10800,"station_id":"ce4bhnp2rcd13ifvqh0g","pricing_plan_id":"cebpf4jnsgd1na2vs0mg"},{"bike_id":"9f7cbc3c-6e0b-4442-8c70-64c0b2a1452e","system_id":"levelo_inurba_marseille","lat":43.23054,"lon":5.35485,"is_reserved":false,"is_disabled":false,"rental_uris":{"android":"levelo://app?vid=9f7cbc3c-6e0b-4442-8c70-64c0b2a1452e","ios":"levelo://app?vid=9f7cbc3c-6e0b-4442-8c70-64c0b2a1452e"},"vehicle_type_id":"4","last_reported":1738181378,"current_range_meters":16400,"station_id":"cpo3342slgdg3j2ifvpg","pricing_plan_id":"cebpf4jnsgd1na2vs0mg"},{"bike_id":"c8a3a0ed-dff2-4f3c-87dc-2e6b47b1ad28","system_id":"levelo_inurba_marseille","lat":43.337444,"lon":5.374475,"is_reserved":false,"is_disabled":true,"rental_uris":{"android":"levelo://app?vid=c8a3a0ed-dff2-4f3c-87dc-2e6b47b1ad28","ios":"levelo://app?vid=c8a3a0ed-dff2-4f3c-87dc-2e6b47b1ad28"},"vehicle_type_id":"4","last_reported":1738181378,"current_range_meters":0,"station_id":"","pricing_plan_id":"cebpf4jnsgd1na2vs0mg"},{"bike_id":"07b6c8a7-699e-4f1b-ae76-02e8d55b8d30","system_id":"levelo_inurba_marseille","lat":43.27374,"lon":5.36256,"is_reserved":false,"is_disabled":false,"rental_uris":{"android":"levelo://app?vid=07b6c8a7-699e-4f1b-ae76-02e8d55b8d30","ios":"levelo://app?vid=07b6c8a7-699e-4f1b-ae76-02e8d55b8d30"},"vehicle_type_id":"4","last_reported":1738181378,"current_range_meters":38000,"station_id":"ce4bhbh2rcd13ifvqeo0","pricing_plan_id":"cebpf4jnsgd1na2vs0mg"},{"bike_id":"62c0a05a-8c99-422d-8d99-b615ce2d9639","system_id":"levelo_inurba_marseille","lat":43.27952,"lon":5.41054,"is_reserved":false,"is_disabled":false,"rental_uris":{"android":"levelo://app?vid=62c0a05a-8c99-422d-8d99-b615ce2d9639","ios":"levelo://app?vid=62c0a05a-8c99-422d-8d99-b615ce2d9639"},"vehicle_type_id":"4","last_reported":1738181378,"current_range_meters":19600,"station_id":"ce4bhnp2rcd13ifvqh0g","pricing_plan_id":"cebpf4jnsgd1na2vs0mg"},{"bike_id":"d6b02c53-f0cf-4b2a-a86f-01340b4cf04e","system_id":"levelo_inurba_marseille","lat":43.31357,"lon":5.38499,"is_reserved":false,"is_disabled":false,"rental_uris":{"android":"levelo://app?vid=d6b02c53-f0cf-4b2a-a86f-01340b4cf04e","ios":"levelo://app?vid=d6b02c53-f0cf-4b2a-a86f-01340b4cf04e"},"vehicle_type_id":"4","last_reported":1738181378,"current_range_meters":14800,"station_id":"ce4bgt92rcd13ifvqcf0","pricing_plan_id":"cebpf4jnsgd1na2vs0mg"},{"bike_id":"8e100111-c09e-4654-9f8f-948138e4e333","system_id":"levelo_inurba_marseille","lat":43.29269,"lon":5.38435,"is_reserved":false,"is_disabled":false,"rental_uris":{"android":"levelo://app?vid=8e100111-c09e-4654-9f8f-948138e4e333","ios":"levelo://app?vid=8e100111-c09e-4654-9f8f-948138e4e333"},"vehicle_type_id":"4","last_reported":1738181378,"current_range_meters":17600,"station_id":"ce4bh692rcd13ifvqea0","pricing_plan_id":"cebpf4jnsgd1na2vs0mg"},{"bike_id":"1a1680fa-7e4b-44f6-b1cb-2d0ef9d84c76","system_id":"levelo_inurba_marseille","lat":43.25004,"lon":5.38927,"is_reserved":false,"is_disabled":false,"rental_uris":{"android":"levelo://app?vid=1a1680fa-7e4b-44f6-b1cb-2d0ef9d84c76","ios":"levelo://app?vid=1a1680fa-7e4b-44f6-b1cb-2d0ef9d84c76"},"vehicle_type_id":"4","last_reported":1738181378,"current_range_meters":16800,"station_id":"ce4bhgp2rcd13ifvqfd0","pricing_plan_id":"cebpf4jnsgd1na2vs0mg"},{"bike_id":"c866f847-b446-40c6-87b4-6dc3be168564","system_id":"levelo_inurba_marseille","lat":43.29026,"lon":5.38635,"is_reserved":false,"is_disabled":false,"rental_uris":{"android":"levelo://app?vid=c866f847-b446-40c6-87b4-6dc3be168564","ios":"levelo://app?vid=c866f847-b446-40c6-87b4-6dc3be168564"},"vehicle_type_id":"4","last_reported":1738181378,"current_range_meters":38800,"station_id":"ce4bh4p2rcd13ifvqe0g","pricing_plan_id":"cebpf4jnsgd1na2vs0mg"},{"bike_id":"991e7465-9292-4d33-b4eb-9ae38338f8c0","system_id":"levelo_inurba_marseille","lat":43.25888,"lon":5.39916,"is_reserved":false,"is_disabled":false,"rental_uris":{"android":"levelo://app?vid=991e7465-9292-4d33-b4eb-9ae38338f8c0","ios":"levelo://app?vid=991e7465-9292-4d33-b4eb-9ae38338f8c0"},"vehicle_type_id":"4","last_reported":1738181378,"current_range_meters":38800,"station_id":"ce4bhl92rcd13ifvqghg","pricing_plan_id":"cebpf4jnsgd1na2vs0mg"},{"bike_id":"6811fcdd-0dd6-46b0-93c3-921932e8f90c","system_id":"levelo_inurba_marseille","lat":43.32546,"lon":5.41469,"is_reserved":false,"is_disabled":true,"rental_uris":{"android":"levelo://app?vid=6811fcdd-0dd6-46b0-93c3-921932e8f90c","ios":"levelo://app?vid=6811fcdd-0dd6-46b0-93c3-921932e8f90c"},"vehicle_type_id":"4","last_reported":1738181378,"current_range_meters":38800,"station_id":"ce4bhq12rcd13ifvqhhg","pricing_plan_id":"cebpf4jnsgd1na2vs0mg"},{"bike_id":"e80ea158-b19d-484f-b536-c2f57483be8c","system_id":"levelo_inurba_marseille","lat":43.28151,"lon":5.42637,"is_reserved":false,"is_disabled":false,"rental_uris":{"android":"levelo://app?vid=e80ea158-b19d-484f-b536-c2f57483be8c","ios":"levelo://app?vid=e80ea158-b19d-484f-b536-c2f57483be8c"},"vehicle_type_id":"4","last_reported":1738181378,"current_range_meters":14400,"station_id":"ce4bhnh2rcd13ifvqgug","pricing_plan_id":"cebpf4jnsgd1na2vs0mg"},{"bike_id":"0014cff3-2094-48fa-ad89-600a745069ff","system_id":"levelo_inurba_marseille","lat":43.29243,"lon":5.40928,"is_reserved":false,"is_disabled":false,"rental_uris":{"android":"levelo://app?vid=0014cff3-2094-48fa-ad89-600a745069ff","ios":"levelo://app?vid=0014cff3-2094-48fa-ad89-600a745069ff"},"vehicle_type_id":"4","last_reported":1738181378,"current_range_meters":8400,"station_id":"ce4bh192rcd13ifvqdc0","pricing_plan_id":"cebpf4jnsgd1na2vs0mg"},{"bike_id":"9d2811f0-ab30-43e1-8fef-b9b6cb04c9ac","system_id":"levelo_inurba_marseille","lat":43.29023,"lon":5.38136,"is_reserved":false,"is_disabled":true,"rental_uris":{"android":"levelo://app?vid=9d2811f0-ab30-43e1-8fef-b9b6cb04c9ac","ios":"levelo://app?vid=9d2811f0-ab30-43e1-8fef-b9b6cb04c9ac"},"vehicle_type_id":"4","last_reported":1738181378,"current_range_meters":38800,"station_id":"ce4bh4p2rcd13ifvqe1g","pricing_plan_id":"cebpf4jnsgd1na2vs0mg"},{"bike_id":"ebb62ccf-3b30-4887-8c47-8865caf0c2fb","system_id":"levelo_inurba_marseille","lat":43.29873,"lon":5.38909,"is_reserved":false,"is_disabled":false,"rental_uris":{"android":"levelo://app?vid=ebb62ccf-3b30-4887-8c47-8865caf0c2fb","ios":"levelo://app?vid=ebb62ccf-3b30-4887-8c47-8865caf0c2fb"},"vehicle_type_id":"4","last_reported":1738181378,"current_range_meters":38800,"station_id":"ce4bh392rcd13ifvqdl0","pricing_plan_id":"cebpf4jnsgd1na2vs0mg"},{"bike_id":"96111419-020e-4b85-8005-96ab906d2273","system_id":"levelo_inurba_marseille","lat":43.28147,"lon":5.42639,"is_reserved":false,"is_disabled":false,"rental_uris":{"android":"levelo://app?vid=96111419-020e-4b85-8005-96ab906d2273","ios":"levelo://app?vid=96111419-020e-4b85-8005-96ab906d2273"},"vehicle_type_id":"4","last_reported":1738181378,"current_range_meters":38800,"station_id":"ce4bhnh2rcd13ifvqgug","pricing_plan_id":"cebpf4jnsgd1na2vs0mg"},{"bike_id":"2353f8a3-867b-4ae3-b217-5acfd48310b6","system_id":"levelo_inurba_marseille","lat":43.29023,"lon":5.38137,"is_reserved":false,"is_disabled":false,"rental_uris":{"android":"levelo://app?vid=2353f8a3-867b-4ae3-b217-5acfd48310b6","ios":"levelo://app?vid=2353f8a3-867b-4ae3-b217-5acfd48310b6"},"vehicle_type_id":"4","last_reported":1738181378,"current_range_meters":14000,"station_id":"ce4bh4p2rcd13ifvqe1g","pricing_plan_id":"cebpf4jnsgd1na2vs0mg"},{"bike_id":"9838cc78-2b53-49d3-ae13-82df62c4fd64","system_id":"levelo_inurba_marseille","lat":43.28412,"lon":5.40934,"is_reserved":false,"is_disabled":true,"rental_uris":{"android":"levelo://app?vid=9838cc78-2b53-49d3-ae13-82df62c4fd64","ios":"levelo://app?vid=9838cc78-2b53-49d3-ae13-82df62c4fd64"},"vehicle_type_id":"4","last_reported":1738181378,"current_range_meters":0,"station_id":"","pricing_plan_id":"cebpf4jnsgd1na2vs0mg"},{"bike_id":"a765fe06-018c-4a73-898c-2082c09f528c","system_id":"levelo_inurba_marseille","lat":43.27206,"lon":5.40987,"is_reserved":false,"is_disabled":false,"rental_uris":{"android":"levelo://app?vid=a765fe06-018c-4a73-898c-2082c09f528c","ios":"levelo://app?vid=a765fe06-018c-4a73-898c-2082c09f528c"},"vehicle_type_id":"4","last_reported":1738181378,"current_range_meters":26000,"station_id":"ce4bhl12rcd13ifvqgf0","pricing_plan_id":"cebpf4jnsgd1na2vs0mg"},{"bike_id":"0b1f4817-4c30-44b7-9201-5f8be66aeb19","system_id":"levelo_inurba_marseille","lat":43.28037,"lon":5.36944,"is_reserved":false,"is_disabled":false,"rental_uris":{"android":"levelo://app?vid=0b1f4817-4c30-44b7-9201-5f8be66aeb19","ios":"levelo://app?vid=0b1f4817-4c30-44b7-9201-5f8be66aeb19"},"vehicle_type_id":"4","last_reported":1738181378,"current_range_meters":19600,"station_id":"ce4bha12rcd13ifvqef0","pricing_plan_id":"cebpf4jnsgd1na2vs0mg"},{"bike_id":"c4b612cf-bd83-4c1a-9a6d-5ad5ed4741f9","system_id":"levelo_inurba_marseille","lat":43.271824,"lon":5.409893,"is_reserved":false,"is_disabled":false,"rental_uris":{"android":"levelo://app?vid=c4b612cf-bd83-4c1a-9a6d-5ad5ed4741f9","ios":"levelo://app?vid=c4b612cf-bd83-4c1a-9a6d-5ad5ed4741f9"},"vehicle_type_id":"4","last_reported":1738181378,"current_range_meters":39200,"station_id":"ce4bhl12rcd13ifvqgf0","pricing_plan_id":"cebpf4jnsgd1na2vs0mg"},{"bike_id":"cebc1cc3-2475-48cb-aa41-05d47858d44e","system_id":"levelo_inurba_marseille","lat":43.29903,"lon":5.43676,"is_reserved":false,"is_disabled":false,"rental_uris":{"android":"levelo://app?vid=cebc1cc3-2475-48cb-aa41-05d47858d44e","ios":"levelo://app?vid=cebc1cc3-2475-48cb-aa41-05d47858d44e"},"vehicle_type_id":"4","last_reported":1738181378,"current_range_meters":26000,"station_id":"ce4bhpp2rcd13ifvqhfg","pricing_plan_id":"cebpf4jnsgd1na2vs0mg"},{"bike_id":"c854bde6-3823-4924-a211-655b97685edf","system_id":"levelo_inurba_marseille","lat":43.27671,"lon":5.38935,"is_reserved":false,"is_disabled":false,"rental_uris":{"android":"levelo://app?vid=c854bde6-3823-4924-a211-655b97685edf","ios":"levelo://app?vid=c854bde6-3823-4924-a211-655b97685edf"},"vehicle_type_id":"4","last_reported":1738181378,"current_range_meters":0,"station_id":"ce4bhi12rcd13ifvqfo0","pricing_plan_id":"cebpf4jnsgd1na2vs0mg"},{"bike_id":"062fa843-16c7-44ce-b405-e100835283d1","system_id":"levelo_inurba_marseille","lat":43.29189,"lon":5.39312,"is_reserved":false,"is_disabled":false,"rental_uris":{"android":"levelo://app?vid=062fa843-16c7-44ce-b405-e100835283d1","ios":"levelo://app?vid=062fa843-16c7-44ce-b405-e100835283d1"},"vehicle_type_id":"4","last_reported":1738181378,"current_range_meters":8000,"station_id":"ce4bh192rcd13ifvqdd0","pricing_plan_id":"cebpf4jnsgd1na2vs0mg"},{"bike_id":"0f565fe1-2865-492d-a5d4-e8e73bf44190","system_id":"levelo_inurba_marseille","lat":43.30945,"lon":5.3904,"is_reserved":false,"is_disabled":false,"rental_uris":{"android":"levelo://app?vid=0f565fe1-2865-492d-a5d4-e8e73bf44190","ios":"levelo://app?vid=0f565fe1-2865-492d-a5d4-e8e73bf44190"},"vehicle_type_id":"4","last_reported":1738181378,"current_range_meters":31200,"station_id":"ce4bgup2rcd13ifvqco0","pricing_plan_id":"cebpf4jnsgd1na2vs0mg"},{"bike_id":"4d8bb960-d758-4e7b-9421-1e5b22e8d25e","system_id":"levelo_inurba_marseille","lat":43.30645,"lon":5.4009,"is_reserved":false,"is_disabled":false,"rental_uris":{"android":"levelo://app?vid=4d8bb960-d758-4e7b-9421-1e5b22e8d25e","ios":"levelo://app?vid=4d8bb960-d758-4e7b-9421-1e5b22e8d25e"},"vehicle_type_id":"4","last_reported":1738181378,"current_range_meters":20400,"station_id":"ce4bh112rcd13ifvqda0","pricing_plan_id":"cebpf4jnsgd1na2vs0mg"},{"bike_id":"ed88b46a-d0b3-4087-a39c-582794290237","system_id":"levelo_inurba_marseille","lat":43.28716,"lon":5.37432,"is_reserved":false,"is_disabled":false,"rental_uris":{"android":"levelo://app?vid=ed88b46a-d0b3-4087-a39c-582794290237","ios":"levelo://app?vid=ed88b46a-d0b3-4087-a39c-582794290237"},"vehicle_type_id":"4","last_reported":1738181378,"current_range_meters":28000,"station_id":"ce4bh3p2rcd13ifvqdq0","pricing_plan_id":"cebpf4jnsgd1na2vs0mg"},{"bike_id":"060157b3-febc-4f7a-af96-fae1cece7b4a","system_id":"levelo_inurba_marseille","lat":43.25094,"lon":5.39516,"is_reserved":false,"is_disabled":false,"rental_uris":{"android":"levelo://app?vid=060157b3-febc-4f7a-af96-fae1cece7b4a","ios":"levelo://app?vid=060157b3-febc-4f7a-af96-fae1cece7b4a"},"vehicle_type_id":"4","last_reported":1738181378,"current_range_meters":38800,"station_id":"ce4bhm12rcd13ifvqgkg","pricing_plan_id":"cebpf4jnsgd1na2vs0mg"},{"bike_id":"8316cb10-023d-4bec-a7d1-c688e60191c8","system_id":"levelo_inurba_marseille","lat":43.28148,"lon":5.42639,"is_reserved":false,"is_disabled":false,"rental_uris":{"android":"levelo://app?vid=8316cb10-023d-4bec-a7d1-c688e60191c8","ios":"levelo://app?vid=8316cb10-023d-4bec-a7d1-c688e60191c8"},"vehicle_type_id":"4","last_reported":1738181378,"current_range_meters":14000,"station_id":"ce4bhnh2rcd13ifvqgug","pricing_plan_id":"cebpf4jnsgd1na2vs0mg"},{"bike_id":"d51bd018-b652-4e1d-9bf4-54de43279c9c","system_id":"levelo_inurba_marseille","lat":43.32292,"lon":5.38281,"is_reserved":false,"is_disabled":false,"rental_uris":{"android":"levelo://app?vid=d51bd018-b652-4e1d-9bf4-54de43279c9c","ios":"levelo://app?vid=d51bd018-b652-4e1d-9bf4-54de43279c9c"},"vehicle_type_id":"4","last_reported":1738181378,"current_range_meters":31200,"station_id":"ce4bhr12rcd13ifvqhqg","pricing_plan_id":"cebpf4jnsgd1na2vs0mg"},{"bike_id":"4ad67fee-8571-4fab-a34a-5f44c7802ceb","system_id":"levelo_inurba_marseille","lat":43.28718,"lon":5.36082,"is_reserved":false,"is_disabled":false,"rental_uris":{"android":"levelo://app?vid=4ad67fee-8571-4fab-a34a-5f44c7802ceb","ios":"levelo://app?vid=4ad67fee-8571-4fab-a34a-5f44c7802ceb"},"vehicle_type_id":"4","last_reported":1738181378,"current_range_meters":22400,"station_id":"cki0cbj6b192h4jlfktg","pricing_plan_id":"cebpf4jnsgd1na2vs0mg"},{"bike_id":"e616b313-df38-422a-b95a-06db009f6756","system_id":"levelo_inurba_marseille","lat":43.2721,"lon":5.40998,"is_reserved":false,"is_disabled":false,"rental_uris":{"android":"levelo://app?vid=e616b313-df38-422a-b95a-06db009f6756","ios":"levelo://app?vid=e616b313-df38-422a-b95a-06db009f6756"},"vehicle_type_id":"4","last_reported":1738181378,"current_range_meters":38400,"station_id":"ce4bhl12rcd13ifvqgf0","pricing_plan_id":"cebpf4jnsgd1na2vs0mg"},{"bike_id":"d979d8d2-ec65-47af-9229-e4270aab279a","system_id":"levelo_inurba_marseille","lat":43.2306,"lon":5.35489,"is_reserved":false,"is_disabled":false,"rental_uris":{"android":"levelo://app?vid=d979d8d2-ec65-47af-9229-e4270aab279a","ios":"levelo://app?vid=d979d8d2-ec65-47af-9229-e4270aab279a"},"vehicle_type_id":"4","last_reported":1738181378,"current_range_meters":17600,"station_id":"cpo3342slgdg3j2ifvpg","pricing_plan_id":"cebpf4jnsgd1na2vs0mg"},{"bike_id":"d3e0dde3-8423-4b65-9bd9-d1f668df0be7","system_id":"levelo_inurba_marseille","lat":43.28726,"lon":5.36078,"is_reserved":false,"is_disabled":false,"rental_uris":{"android":"levelo://app?vid=d3e0dde3-8423-4b65-9bd9-d1f668df0be7","ios":"levelo://app?vid=d3e0dde3-8423-4b65-9bd9-d1f668df0be7"},"vehicle_type_id":"4","last_reported":1738181378,"current_range_meters":36000,"station_id":"cki0cbj6b192h4jlfktg","pricing_plan_id":"cebpf4jnsgd1na2vs0mg"},{"bike_id":"4022c348-0a12-4ca9-b1a7-9ff470eab2bf","system_id":"levelo_inurba_marseille","lat":43.283515,"lon":5.38118,"is_reserved":false,"is_disabled":false,"rental_uris":{"android":"levelo://app?vid=4022c348-0a12-4ca9-b1a7-9ff470eab2bf","ios":"levelo://app?vid=4022c348-0a12-4ca9-b1a7-9ff470eab2bf"},"vehicle_type_id":"4","last_reported":1738181378,"current_range_meters":6800,"station_id":"ce4bh412rcd13ifvqdr0","pricing_plan_id":"cebpf4jnsgd1na2vs0mg"},{"bike_id":"8401c82e-2c7e-4101-98a2-b12f578674b6","system_id":"levelo_inurba_marseille","lat":43.28504,"lon":5.39229,"is_reserved":false,"is_disabled":false,"rental_uris":{"android":"levelo://app?vid=8401c82e-2c7e-4101-98a2-b12f578674b6","ios":"levelo://app?vid=8401c82e-2c7e-4101-98a2-b12f578674b6"},"vehicle_type_id":"4","last_reported":1738181378,"current_range_meters":38800,"station_id":"ce4bhoh2rcd13ifvqh5g","pricing_plan_id":"cebpf4jnsgd1na2vs0mg"},{"bike_id":"4b9d69a3-9df6-4088-b015-95b203e90966","system_id":"levelo_inurba_marseille","lat":43.25822,"lon":5.39434,"is_reserved":false,"is_disabled":false,"rental_uris":{"android":"levelo://app?vid=4b9d69a3-9df6-4088-b015-95b203e90966","ios":"levelo://app?vid=4b9d69a3-9df6-4088-b015-95b203e90966"},"vehicle_type_id":"4","last_reported":1738181378,"current_range_meters":38400,"station_id":"ce4bhip2rcd13ifvqft0","pricing_plan_id":"cebpf4jnsgd1na2vs0mg"},{"bike_id":"7d6260ec-6d8c-4d5b-8950-1a493871014c","system_id":"levelo_inurba_marseille","lat":43.29902,"lon":5.43665,"is_reserved":false,"is_disabled":false,"rental_uris":{"android":"levelo://app?vid=7d6260ec-6d8c-4d5b-8950-1a493871014c","ios":"levelo://app?vid=7d6260ec-6d8c-4d5b-8950-1a493871014c"},"vehicle_type_id":"4","last_reported":1738181378,"current_range_meters":37600,"station_id":"ce4bhpp2rcd13ifvqhfg","pricing_plan_id":"cebpf4jnsgd1na2vs0mg"},{"bike_id":"6391c701-9c0c-43a0-a77d-e2665bfc6fd3","system_id":"levelo_inurba_marseille","lat":43.23959,"lon":5.36641,"is_reserved":false,"is_disabled":false,"rental_uris":{"android":"levelo://app?vid=6391c701-9c0c-43a0-a77d-e2665bfc6fd3","ios":"levelo://app?vid=6391c701-9c0c-43a0-a77d-e2665bfc6fd3"},"vehicle_type_id":"4","last_reported":1738181378,"current_range_meters":28400,"station_id":"ce4bhi12rcd13ifvqfp0","pricing_plan_id":"cebpf4jnsgd1na2vs0mg"},{"bike_id":"6be92d7d-a8c1-4c68-9c57-5f393165cf28","system_id":"levelo_inurba_marseille","lat":43.27071,"lon":5.42277,"is_reserved":false,"is_disabled":false,"rental_uris":{"android":"levelo://app?vid=6be92d7d-a8c1-4c68-9c57-5f393165cf28","ios":"levelo://app?vid=6be92d7d-a8c1-4c68-9c57-5f393165cf28"},"vehicle_type_id":"4","last_reported":1738181378,"current_range_meters":2800,"station_id":"ce4bhk92rcd13ifvqgb0","pricing_plan_id":"cebpf4jnsgd1na2vs0mg"},{"bike_id":"3a44a603-1c3c-4d3d-9e74-63974292e3f7","system_id":"levelo_inurba_marseille","lat":43.33003,"lon":5.39033,"is_reserved":false,"is_disabled":false,"rental_uris":{"android":"levelo://app?vid=3a44a603-1c3c-4d3d-9e74-63974292e3f7","ios":"levelo://app?vid=3a44a603-1c3c-4d3d-9e74-63974292e3f7"},"vehicle_type_id":"4","last_reported":1738181378,"current_range_meters":17600,"station_id":"ce4bhr92rcd13ifvqhrg","pricing_plan_id":"cebpf4jnsgd1na2vs0mg"},{"bike_id":"18c22e71-b05e-4c30-8c64-0f917598502e","system_id":"levelo_inurba_marseille","lat":43.24993,"lon":5.3893,"is_reserved":false,"is_disabled":false,"rental_uris":{"android":"levelo://app?vid=18c22e71-b05e-4c30-8c64-0f917598502e","ios":"levelo://app?vid=18c22e71-b05e-4c30-8c64-0f917598502e"},"vehicle_type_id":"4","last_reported":1738181378,"current_range_meters":17600,"station_id":"ce4bhgp2rcd13ifvqfd0","pricing_plan_id":"cebpf4jnsgd1na2vs0mg"},{"bike_id":"a7fa174b-9e7a-480f-96ea-d7b68ff91040","system_id":"levelo_inurba_marseille","lat":43.29981,"lon":5.38498,"is_reserved":false,"is_disabled":true,"rental_uris":{"android":"levelo://app?vid=a7fa174b-9e7a-480f-96ea-d7b68ff91040","ios":"levelo://app?vid=a7fa174b-9e7a-480f-96ea-d7b68ff91040"},"vehicle_type_id":"4","last_reported":1738181378,"current_range_meters":32800,"station_id":"ce4bgj92rcd13ifvqbd0","pricing_plan_id":"cebpf4jnsgd1na2vs0mg"},{"bike_id":"d8b1c3f9-ff6e-4179-8423-4ba0d2a2af0e","system_id":"levelo_inurba_marseille","lat":43.33729,"lon":5.39176,"is_reserved":false,"is_disabled":false,"rental_uris":{"android":"levelo://app?vid=d8b1c3f9-ff6e-4179-8423-4ba0d2a2af0e","ios":"levelo://app?vid=d8b1c3f9-ff6e-4179-8423-4ba0d2a2af0e"},"vehicle_type_id":"4","last_reported":1738181378,"current_range_meters":38800,"station_id":"ce4bhr92rcd13ifvqhsg","pricing_plan_id":"cebpf4jnsgd1na2vs0mg"},{"bike_id":"3a697741-3bd1-4639-8533-6c884e7fbbdc","system_id":"levelo_inurba_marseille","lat":43.28944,"lon":5.36393,"is_reserved":false,"is_disabled":false,"rental_uris":{"android":"levelo://app?vid=3a697741-3bd1-4639-8533-6c884e7fbbdc","ios":"levelo://app?vid=3a697741-3bd1-4639-8533-6c884e7fbbdc"},"vehicle_type_id":"4","last_reported":1738181378,"current_range_meters":37600,"station_id":"ce4bhc92rcd13ifvqetg","pricing_plan_id":"cebpf4jnsgd1na2vs0mg"},{"bike_id":"e24a026a-c0e3-4ed2-bec3-0ff2a9afc08f","system_id":"levelo_inurba_marseille","lat":43.33023,"lon":5.39043,"is_reserved":false,"is_disabled":false,"rental_uris":{"android":"levelo://app?vid=e24a026a-c0e3-4ed2-bec3-0ff2a9afc08f","ios":"levelo://app?vid=e24a026a-c0e3-4ed2-bec3-0ff2a9afc08f"},"vehicle_type_id":"4","last_reported":1738181378,"current_range_meters":39200,"station_id":"ce4bhr92rcd13ifvqhrg","pricing_plan_id":"cebpf4jnsgd1na2vs0mg"},{"bike_id":"ccb6318c-6994-46f1-b382-d420e97e4a87","system_id":"levelo_inurba_marseille","lat":43.27207,"lon":5.39194,"is_reserved":false,"is_disabled":true,"rental_uris":{"android":"levelo://app?vid=ccb6318c-6994-46f1-b382-d420e97e4a87","ios":"levelo://app?vid=ccb6318c-6994-46f1-b382-d420e97e4a87"},"vehicle_type_id":"4","last_reported":1738181378,"current_range_meters":36800,"station_id":"ce4bhhp2rcd13ifvqfm0","pricing_plan_id":"cebpf4jnsgd1na2vs0mg"},{"bike_id":"c6b22e63-3112-4b18-a4bd-a7ccda40bad7","system_id":"levelo_inurba_marseille","lat":43.29905,"lon":5.38142,"is_reserved":false,"is_disabled":true,"rental_uris":{"android":"levelo://app?vid=c6b22e63-3112-4b18-a4bd-a7ccda40bad7","ios":"levelo://app?vid=c6b22e63-3112-4b18-a4bd-a7ccda40bad7"},"vehicle_type_id":"4","last_reported":1738181378,"current_range_meters":27600,"station_id":"ce4bgj12rcd13ifvqbc0","pricing_plan_id":"cebpf4jnsgd1na2vs0mg"},{"bike_id":"ddb7a940-59b0-4fc7-98fa-01566c8db992","system_id":"levelo_inurba_marseille","lat":43.30132,"lon":5.38773,"is_reserved":false,"is_disabled":false,"rental_uris":{"android":"levelo://app?vid=ddb7a940-59b0-4fc7-98fa-01566c8db992","ios":"levelo://app?vid=ddb7a940-59b0-4fc7-98fa-01566c8db992"},"vehicle_type_id":"4","last_reported":1738181378,"current_range_meters":3200,"station_id":"ce4bhoh2rcd13ifvqh6g","pricing_plan_id":"cebpf4jnsgd1na2vs0mg"},{"bike_id":"6c20e54e-ad86-4dfa-9695-6e98cc81c1c2","system_id":"levelo_inurba_marseille","lat":43.29029,"lon":5.38652,"is_reserved":false,"is_disabled":false,"rental_uris":{"android":"levelo://app?vid=6c20e54e-ad86-4dfa-9695-6e98cc81c1c2","ios":"levelo://app?vid=6c20e54e-ad86-4dfa-9695-6e98cc81c1c2"},"vehicle_type_id":"4","last_reported":1738181378,"current_range_meters":19200,"station_id":"ce4bh4p2rcd13ifvqe0g","pricing_plan_id":"cebpf4jnsgd1na2vs0mg"},{"bike_id":"dcef333a-ad9b-40e8-9822-f1ec24f5dc31","system_id":"levelo_inurba_marseille","lat":43.29022,"lon":5.38136,"is_reserved":false,"is_disabled":false,"rental_uris":{"android":"levelo://app?vid=dcef333a-ad9b-40e8-9822-f1ec24f5dc31","ios":"levelo://app?vid=dcef333a-ad9b-40e8-9822-f1ec24f5dc31"},"vehicle_type_id":"4","last_reported":1738181378,"current_range_meters":31200,"station_id":"ce4bh4p2rcd13ifvqe1g","pricing_plan_id":"cebpf4jnsgd1na2vs0mg"},{"bike_id":"3c9c9088-9c27-4609-bc62-8218c0dc2be8","system_id":"levelo_inurba_marseille","lat":43.23189,"lon":5.35565,"is_reserved":false,"is_disabled":false,"rental_uris":{"android":"levelo://app?vid=3c9c9088-9c27-4609-bc62-8218c0dc2be8","ios":"levelo://app?vid=3c9c9088-9c27-4609-bc62-8218c0dc2be8"},"vehicle_type_id":"4","last_reported":1738181378,"current_range_meters":39200,"station_id":"ce4bhu92rcd13ifvqi70","pricing_plan_id":"cebpf4jnsgd1na2vs0mg"},{"bike_id":"ee6cddcb-3675-46e7-b2e2-06e8f68994d8","system_id":"levelo_inurba_marseille","lat":43.29418,"lon":5.38628,"is_reserved":false,"is_disabled":false,"rental_uris":{"android":"levelo://app?vid=ee6cddcb-3675-46e7-b2e2-06e8f68994d8","ios":"levelo://app?vid=ee6cddcb-3675-46e7-b2e2-06e8f68994d8"},"vehicle_type_id":"4","last_reported":1738181378,"current_range_meters":20800,"station_id":"ce4bh2h2rcd13ifvqdh0","pricing_plan_id":"cebpf4jnsgd1na2vs0mg"},{"bike_id":"baec8711-6377-4d19-a18d-08800da226ee","system_id":"levelo_inurba_marseille","lat":43.29043,"lon":5.38662,"is_reserved":false,"is_disabled":false,"rental_uris":{"android":"levelo://app?vid=baec8711-6377-4d19-a18d-08800da226ee","ios":"levelo://app?vid=baec8711-6377-4d19-a18d-08800da226ee"},"vehicle_type_id":"4","last_reported":1738181378,"current_range_meters":24400,"station_id":"ce4bh4p2rcd13ifvqe0g","pricing_plan_id":"cebpf4jnsgd1na2vs0mg"},{"bike_id":"fa2f1c21-3bfc-46ef-bcba-588774df180a","system_id":"levelo_inurba_marseille","lat":43.25866,"lon":5.39895,"is_reserved":false,"is_disabled":false,"rental_uris":{"android":"levelo://app?vid=fa2f1c21-3bfc-46ef-bcba-588774df180a","ios":"levelo://app?vid=fa2f1c21-3bfc-46ef-bcba-588774df180a"},"vehicle_type_id":"4","last_reported":1738181378,"current_range_meters":19200,"station_id":"ce4bhl92rcd13ifvqghg","pricing_plan_id":"cebpf4jnsgd1na2vs0mg"},{"bike_id":"53fa82d1-eb43-4e19-8ac1-1347a372b80a","system_id":"levelo_inurba_marseille","lat":43.25885,"lon":5.399077,"is_reserved":false,"is_disabled":false,"rental_uris":{"android":"levelo://app?vid=53fa82d1-eb43-4e19-8ac1-1347a372b80a","ios":"levelo://app?vid=53fa82d1-eb43-4e19-8ac1-1347a372b80a"},"vehicle_type_id":"4","last_reported":1738181378,"current_range_meters":33200,"station_id":"ce4bhl92rcd13ifvqghg","pricing_plan_id":"cebpf4jnsgd1na2vs0mg"},{"bike_id":"796664c1-d207-429d-b5f8-272d4d89b86b","system_id":"levelo_inurba_marseille","lat":43.3303,"lon":5.39048,"is_reserved":false,"is_disabled":false,"rental_uris":{"android":"levelo://app?vid=796664c1-d207-429d-b5f8-272d4d89b86b","ios":"levelo://app?vid=796664c1-d207-429d-b5f8-272d4d89b86b"},"vehicle_type_id":"4","last_reported":1738181378,"current_range_meters":36000,"station_id":"ce4bhr92rcd13ifvqhrg","pricing_plan_id":"cebpf4jnsgd1na2vs0mg"},{"bike_id":"5683d34d-fae6-4bb4-9a26-e437c2be4b82","system_id":"levelo_inurba_marseille","lat":43.292647,"lon":5.384353,"is_reserved":false,"is_disabled":false,"rental_uris":{"android":"levelo://app?vid=5683d34d-fae6-4bb4-9a26-e437c2be4b82","ios":"levelo://app?vid=5683d34d-fae6-4bb4-9a26-e437c2be4b82"},"vehicle_type_id":"4","last_reported":1738181378,"current_range_meters":9600,"station_id":"ce4bh692rcd13ifvqea0","pricing_plan_id":"cebpf4jnsgd1na2vs0mg"},{"bike_id":"cef6cfaf-f15b-4d6c-a7bb-5bab1ed4d520","system_id":"levelo_inurba_marseille","lat":43.29868,"lon":5.36282,"is_reserved":false,"is_disabled":false,"rental_uris":{"android":"levelo://app?vid=cef6cfaf-f15b-4d6c-a7bb-5bab1ed4d520","ios":"levelo://app?vid=cef6cfaf-f15b-4d6c-a7bb-5bab1ed4d520"},"vehicle_type_id":"4","last_reported":1738181378,"current_range_meters":28400,"station_id":"ce4bgpp2rcd13ifvqc3g","pricing_plan_id":"cebpf4jnsgd1na2vs0mg"},{"bike_id":"de4c86c5-9d6b-4f8f-97f0-3b32cdd9a9ee","system_id":"levelo_inurba_marseille","lat":43.29296,"lon":5.37165,"is_reserved":false,"is_disabled":false,"rental_uris":{"android":"levelo://app?vid=de4c86c5-9d6b-4f8f-97f0-3b32cdd9a9ee","ios":"levelo://app?vid=de4c86c5-9d6b-4f8f-97f0-3b32cdd9a9ee"},"vehicle_type_id":"4","last_reported":1738181378,"current_range_meters":9200,"station_id":"ce4bgh92rcd13ifvqb40","pricing_plan_id":"cebpf4jnsgd1na2vs0mg"},{"bike_id":"1e3bc1ac-75bb-44a1-8857-ef8f9e3ea1b0","system_id":"levelo_inurba_marseille","lat":43.32286,"lon":5.3827,"is_reserved":false,"is_disabled":false,"rental_uris":{"android":"levelo://app?vid=1e3bc1ac-75bb-44a1-8857-ef8f9e3ea1b0","ios":"levelo://app?vid=1e3bc1ac-75bb-44a1-8857-ef8f9e3ea1b0"},"vehicle_type_id":"4","last_reported":1738181378,"current_range_meters":37600,"station_id":"ce4bhr12rcd13ifvqhqg","pricing_plan_id":"cebpf4jnsgd1na2vs0mg"},{"bike_id":"d9c0e4ac-e684-4303-bf2d-fa41eb783e92","system_id":"levelo_inurba_marseille","lat":43.29865,"lon":5.39726,"is_reserved":false,"is_disabled":false,"rental_uris":{"android":"levelo://app?vid=d9c0e4ac-e684-4303-bf2d-fa41eb783e92","ios":"levelo://app?vid=d9c0e4ac-e684-4303-bf2d-fa41eb783e92"},"vehicle_type_id":"4","last_reported":1738181378,"current_range_meters":15200,"station_id":"ce4bh0h2rcd13ifvqd50","pricing_plan_id":"cebpf4jnsgd1na2vs0mg"},{"bike_id":"2292ab1f-40c5-467c-9c25-01a8803a37d0","system_id":"levelo_inurba_marseille","lat":43.29514,"lon":5.39048,"is_reserved":false,"is_disabled":false,"rental_uris":{"android":"levelo://app?vid=2292ab1f-40c5-467c-9c25-01a8803a37d0","ios":"levelo://app?vid=2292ab1f-40c5-467c-9c25-01a8803a37d0"},"vehicle_type_id":"4","last_reported":1738181378,"current_range_meters":13600,"station_id":"ce4bh3p2rcd13ifvqdp0","pricing_plan_id":"cebpf4jnsgd1na2vs0mg"},{"bike_id":"ed91be64-cef5-490b-8ec1-3351f1f0455f","system_id":"levelo_inurba_marseille","lat":43.302558,"lon":5.400717,"is_reserved":false,"is_disabled":false,"rental_uris":{"android":"levelo://app?vid=ed91be64-cef5-490b-8ec1-3351f1f0455f","ios":"levelo://app?vid=ed91be64-cef5-490b-8ec1-3351f1f0455f"},"vehicle_type_id":"4","last_reported":1738181378,"current_range_meters":39200,"station_id":"ce4bgvh2rcd13ifvqcs0","pricing_plan_id":"cebpf4jnsgd1na2vs0mg"},{"bike_id":"9061c30b-f0f7-46e3-8477-d3c2c36b1f53","system_id":"levelo_inurba_marseille","lat":43.2803,"lon":5.36961,"is_reserved":false,"is_disabled":false,"rental_uris":{"android":"levelo://app?vid=9061c30b-f0f7-46e3-8477-d3c2c36b1f53","ios":"levelo://app?vid=9061c30b-f0f7-46e3-8477-d3c2c36b1f53"},"vehicle_type_id":"4","last_reported":1738181378,"current_range_meters":38800,"station_id":"ce4bha12rcd13ifvqef0","pricing_plan_id":"cebpf4jnsgd1na2vs0mg"},{"bike_id":"f13d5aa8-c024-4fbb-8216-a7ef6ab1eff4","system_id":"levelo_inurba_marseille","lat":43.31887,"lon":5.40741,"is_reserved":false,"is_disabled":false,"rental_uris":{"android":"levelo://app?vid=f13d5aa8-c024-4fbb-8216-a7ef6ab1eff4","ios":"levelo://app?vid=f13d5aa8-c024-4fbb-8216-a7ef6ab1eff4"},"vehicle_type_id":"4","last_reported":1738181378,"current_range_meters":38000,"station_id":"ce4bhq12rcd13ifvqhig","pricing_plan_id":"cebpf4jnsgd1na2vs0mg"},{"bike_id":"39bd9e28-59f1-42e3-98fa-8269cd3a779a","system_id":"levelo_inurba_marseille","lat":43.28094,"lon":5.39643,"is_reserved":false,"is_disabled":false,"rental_uris":{"android":"levelo://app?vid=39bd9e28-59f1-42e3-98fa-8269cd3a779a","ios":"levelo://app?vid=39bd9e28-59f1-42e3-98fa-8269cd3a779a"},"vehicle_type_id":"4","last_reported":1738181378,"current_range_meters":38800,"station_id":"ce4bho12rcd13ifvqh2g","pricing_plan_id":"cebpf4jnsgd1na2vs0mg"},{"bike_id":"ab2c796a-c23b-4a3a-9534-777b873d6a05","system_id":"levelo_inurba_marseille","lat":43.2414,"lon":5.36418,"is_reserved":false,"is_disabled":false,"rental_uris":{"android":"levelo://app?vid=ab2c796a-c23b-4a3a-9534-777b873d6a05","ios":"levelo://app?vid=ab2c796a-c23b-4a3a-9534-777b873d6a05"},"vehicle_type_id":"4","last_reported":1738181378,"current_range_meters":14800,"station_id":"cpo36qri1sfpv3e86is0","pricing_plan_id":"cebpf4jnsgd1na2vs0mg"},{"bike_id":"eca914c1-5c29-44d5-b3d0-f7b51a76a49b","system_id":"levelo_inurba_marseille","lat":43.2603,"lon":5.37551,"is_reserved":false,"is_disabled":false,"rental_uris":{"android":"levelo://app?vid=eca914c1-5c29-44d5-b3d0-f7b51a76a49b","ios":"levelo://app?vid=eca914c1-5c29-44d5-b3d0-f7b51a76a49b"},"vehicle_type_id":"4","last_reported":1738181378,"current_range_meters":38000,"station_id":"ce4bhgh2rcd13ifvqfa0","pricing_plan_id":"cebpf4jnsgd1na2vs0mg"},{"bike_id":"f1da0945-986b-44b8-8d64-d1b8cc5d0cd2","system_id":"levelo_inurba_marseille","lat":43.30135,"lon":5.38064,"is_reserved":false,"is_disabled":false,"rental_uris":{"android":"levelo://app?vid=f1da0945-986b-44b8-8d64-d1b8cc5d0cd2","ios":"levelo://app?vid=f1da0945-986b-44b8-8d64-d1b8cc5d0cd2"},"vehicle_type_id":"4","last_reported":1738181378,"current_range_meters":38000,"station_id":"ce4bgjp2rcd13ifvqbh0","pricing_plan_id":"cebpf4jnsgd1na2vs0mg"},{"bike_id":"0b3a30c8-9d61-46ef-b4be-10a28dc70ae6","system_id":"levelo_inurba_marseille","lat":43.28708,"lon":5.37389,"is_reserved":false,"is_disabled":false,"rental_uris":{"android":"levelo://app?vid=0b3a30c8-9d61-46ef-b4be-10a28dc70ae6","ios":"levelo://app?vid=0b3a30c8-9d61-46ef-b4be-10a28dc70ae6"},"vehicle_type_id":"4","last_reported":1738181378,"current_range_meters":28800,"station_id":"ce4bh3p2rcd13ifvqdq0","pricing_plan_id":"cebpf4jnsgd1na2vs0mg"},{"bike_id":"fa910578-4caa-4210-aa45-ea80af27e609","system_id":"levelo_inurba_marseille","lat":43.31713,"lon":5.42411,"is_reserved":false,"is_disabled":false,"rental_uris":{"android":"levelo://app?vid=fa910578-4caa-4210-aa45-ea80af27e609","ios":"levelo://app?vid=fa910578-4caa-4210-aa45-ea80af27e609"},"vehicle_type_id":"4","last_reported":1738181378,"current_range_meters":37600,"station_id":"ce4bhp92rcd13ifvqhbg","pricing_plan_id":"cebpf4jnsgd1na2vs0mg"},{"bike_id":"11a7852e-270e-45d9-9892-b44ae6bcec93","system_id":"levelo_inurba_marseille","lat":43.2884,"lon":5.35841,"is_reserved":false,"is_disabled":false,"rental_uris":{"android":"levelo://app?vid=11a7852e-270e-45d9-9892-b44ae6bcec93","ios":"levelo://app?vid=11a7852e-270e-45d9-9892-b44ae6bcec93"},"vehicle_type_id":"4","last_reported":1738181378,"current_range_meters":35200,"station_id":"ce4bhb12rcd13ifvqem0","pricing_plan_id":"cebpf4jnsgd1na2vs0mg"},{"bike_id":"8aadf7de-3b4f-46b0-8200-de52d69e303c","system_id":"levelo_inurba_marseille","lat":43.27987,"lon":5.41657,"is_reserved":false,"is_disabled":false,"rental_uris":{"android":"levelo://app?vid=8aadf7de-3b4f-46b0-8200-de52d69e303c","ios":"levelo://app?vid=8aadf7de-3b4f-46b0-8200-de52d69e303c"},"vehicle_type_id":"4","last_reported":1738181378,"current_range_meters":28800,"station_id":"ce4bho12rcd13ifvqh1g","pricing_plan_id":"cebpf4jnsgd1na2vs0mg"},{"bike_id":"f0f07e84-01c4-443b-852b-4e00b882c1d8","system_id":"levelo_inurba_marseille","lat":43.30799,"lon":5.43518,"is_reserved":false,"is_disabled":false,"rental_uris":{"android":"levelo://app?vid=f0f07e84-01c4-443b-852b-4e00b882c1d8","ios":"levelo://app?vid=f0f07e84-01c4-443b-852b-4e00b882c1d8"},"vehicle_type_id":"4","last_reported":1738181378,"current_range_meters":38800,"station_id":"ce4bhph2rcd13ifvqheg","pricing_plan_id":"cebpf4jnsgd1na2vs0mg"},{"bike_id":"8e82ee82-410d-4c3c-843c-7cb2dbab5f0e","system_id":"levelo_inurba_marseille","lat":43.29968,"lon":5.38493,"is_reserved":false,"is_disabled":false,"rental_uris":{"android":"levelo://app?vid=8e82ee82-410d-4c3c-843c-7cb2dbab5f0e","ios":"levelo://app?vid=8e82ee82-410d-4c3c-843c-7cb2dbab5f0e"},"vehicle_type_id":"4","last_reported":1738181378,"current_range_meters":38800,"station_id":"ce4bgj92rcd13ifvqbd0","pricing_plan_id":"cebpf4jnsgd1na2vs0mg"},{"bike_id":"615a0747-8d06-4fbf-b735-2ce44cc12594","system_id":"levelo_inurba_marseille","lat":43.32365,"lon":5.38888,"is_reserved":false,"is_disabled":false,"rental_uris":{"android":"levelo://app?vid=615a0747-8d06-4fbf-b735-2ce44cc12594","ios":"levelo://app?vid=615a0747-8d06-4fbf-b735-2ce44cc12594"},"vehicle_type_id":"4","last_reported":1738181378,"current_range_meters":18800,"station_id":"ce4bhqp2rcd13ifvqhog","pricing_plan_id":"cebpf4jnsgd1na2vs0mg"},{"bike_id":"59abceb4-3874-48b9-9e5a-0a19e10373dd","system_id":"levelo_inurba_marseille","lat":43.27951,"lon":5.41039,"is_reserved":false,"is_disabled":false,"rental_uris":{"android":"levelo://app?vid=59abceb4-3874-48b9-9e5a-0a19e10373dd","ios":"levelo://app?vid=59abceb4-3874-48b9-9e5a-0a19e10373dd"},"vehicle_type_id":"4","last_reported":1738181378,"current_range_meters":38400,"station_id":"ce4bhnp2rcd13ifvqh0g","pricing_plan_id":"cebpf4jnsgd1na2vs0mg"},{"bike_id":"3afe2907-14fe-40b0-8ce8-247215ed16c8","system_id":"levelo_inurba_marseille","lat":43.26933,"lon":5.38924,"is_reserved":false,"is_disabled":true,"rental_uris":{"android":"levelo://app?vid=3afe2907-14fe-40b0-8ce8-247215ed16c8","ios":"levelo://app?vid=3afe2907-14fe-40b0-8ce8-247215ed16c8"},"vehicle_type_id":"4","last_reported":1738181378,"current_range_meters":3200,"station_id":"ce4bhhh2rcd13ifvqfl0","pricing_plan_id":"cebpf4jnsgd1na2vs0mg"},{"bike_id":"e8e1f7c6-d773-4c38-bfcc-4a6d773355ce","system_id":"levelo_inurba_marseille","lat":43.22936,"lon":5.35375,"is_reserved":false,"is_disabled":false,"rental_uris":{"android":"levelo://app?vid=e8e1f7c6-d773-4c38-bfcc-4a6d773355ce","ios":"levelo://app?vid=e8e1f7c6-d773-4c38-bfcc-4a6d773355ce"},"vehicle_type_id":"4","last_reported":1738181378,"current_range_meters":38800,"station_id":"cpo3532slgdg3j2ikp40","pricing_plan_id":"cebpf4jnsgd1na2vs0mg"},{"bike_id":"f0ed3e26-8dad-4678-bee9-f6903412b754","system_id":"levelo_inurba_marseille","lat":43.28109,"lon":5.37883,"is_reserved":false,"is_disabled":false,"rental_uris":{"android":"levelo://app?vid=f0ed3e26-8dad-4678-bee9-f6903412b754","ios":"levelo://app?vid=f0ed3e26-8dad-4678-bee9-f6903412b754"},"vehicle_type_id":"4","last_reported":1738181378,"current_range_meters":36800,"station_id":"ce4bha12rcd13ifvqee0","pricing_plan_id":"cebpf4jnsgd1na2vs0mg"},{"bike_id":"d925a497-8f8a-4a29-b367-c6b1d65481fe","system_id":"levelo_inurba_marseille","lat":43.28364,"lon":5.38647,"is_reserved":false,"is_disabled":false,"rental_uris":{"android":"levelo://app?vid=d925a497-8f8a-4a29-b367-c6b1d65481fe","ios":"levelo://app?vid=d925a497-8f8a-4a29-b367-c6b1d65481fe"},"vehicle_type_id":"4","last_reported":1738181378,"current_range_meters":28400,"station_id":"ce4bh492rcd13ifvqdvg","pricing_plan_id":"cebpf4jnsgd1na2vs0mg"},{"bike_id":"021dcc3c-936d-4543-abfe-8e83065afdeb","system_id":"levelo_inurba_marseille","lat":43.29035,"lon":5.38643,"is_reserved":false,"is_disabled":false,"rental_uris":{"android":"levelo://app?vid=021dcc3c-936d-4543-abfe-8e83065afdeb","ios":"levelo://app?vid=021dcc3c-936d-4543-abfe-8e83065afdeb"},"vehicle_type_id":"4","last_reported":1738181378,"current_range_meters":13600,"station_id":"ce4bh4p2rcd13ifvqe0g","pricing_plan_id":"cebpf4jnsgd1na2vs0mg"},{"bike_id":"b9c67b31-5b70-486d-ab63-ac678ea85199","system_id":"levelo_inurba_marseille","lat":43.261899,"lon":5.374548,"is_reserved":false,"is_disabled":false,"rental_uris":{"android":"levelo://app?vid=b9c67b31-5b70-486d-ab63-ac678ea85199","ios":"levelo://app?vid=b9c67b31-5b70-486d-ab63-ac678ea85199"},"vehicle_type_id":"4","last_reported":1738181378,"current_range_meters":22800,"station_id":"ce4bhgp2rcd13ifvqfc0","pricing_plan_id":"cebpf4jnsgd1na2vs0mg"},{"bike_id":"433d5a45-145c-4ced-adc1-0b63fe52b7d2","system_id":"levelo_inurba_marseille","lat":43.28081,"lon":5.39651,"is_reserved":false,"is_disabled":false,"rental_uris":{"android":"levelo://app?vid=433d5a45-145c-4ced-adc1-0b63fe52b7d2","ios":"levelo://app?vid=433d5a45-145c-4ced-adc1-0b63fe52b7d2"},"vehicle_type_id":"4","last_reported":1738181378,"current_range_meters":24400,"station_id":"ce4bho12rcd13ifvqh2g","pricing_plan_id":"cebpf4jnsgd1na2vs0mg"},{"bike_id":"13da3b75-536b-4260-bc06-acbd5c63dff9","system_id":"levelo_inurba_marseille","lat":43.23185,"lon":5.39994,"is_reserved":false,"is_disabled":false,"rental_uris":{"android":"levelo://app?vid=13da3b75-536b-4260-bc06-acbd5c63dff9","ios":"levelo://app?vid=13da3b75-536b-4260-bc06-acbd5c63dff9"},"vehicle_type_id":"4","last_reported":1738181378,"current_range_meters":38800,"station_id":"ce4bhn12rcd13ifvqgqg","pricing_plan_id":"cebpf4jnsgd1na2vs0mg"},{"bike_id":"c7d3cd14-c17e-40b6-ad28-95f8e7b23957","system_id":"levelo_inurba_marseille","lat":43.25722,"lon":5.41106,"is_reserved":false,"is_disabled":false,"rental_uris":{"android":"levelo://app?vid=c7d3cd14-c17e-40b6-ad28-95f8e7b23957","ios":"levelo://app?vid=c7d3cd14-c17e-40b6-ad28-95f8e7b23957"},"vehicle_type_id":"4","last_reported":1738181378,"current_range_meters":38400,"station_id":"ce4bhkp2rcd13ifvqgd0","pricing_plan_id":"cebpf4jnsgd1na2vs0mg"},{"bike_id":"494daf72-aa0d-46bb-bbaf-164361090b39","system_id":"levelo_inurba_marseille","lat":43.27159,"lon":5.41,"is_reserved":false,"is_disabled":false,"rental_uris":{"android":"levelo://app?vid=494daf72-aa0d-46bb-bbaf-164361090b39","ios":"levelo://app?vid=494daf72-aa0d-46bb-bbaf-164361090b39"},"vehicle_type_id":"4","last_reported":1738181378,"current_range_meters":24000,"station_id":"ce4bhl12rcd13ifvqgf0","pricing_plan_id":"cebpf4jnsgd1na2vs0mg"},{"bike_id":"ba31f84e-cbe5-49e8-9983-339e553731ce","system_id":"levelo_inurba_marseille","lat":43.32663,"lon":5.41003,"is_reserved":false,"is_disabled":true,"rental_uris":{"android":"levelo://app?vid=ba31f84e-cbe5-49e8-9983-339e553731ce","ios":"levelo://app?vid=ba31f84e-cbe5-49e8-9983-339e553731ce"},"vehicle_type_id":"4","last_reported":1738181378,"current_range_meters":0,"station_id":"ce4bhpp2rcd13ifvqhgg","pricing_plan_id":"cebpf4jnsgd1na2vs0mg"},{"bike_id":"165200d8-bb03-4fd3-a0bc-2e96d4a93fba","system_id":"levelo_inurba_marseille","lat":43.30318,"lon":5.40437,"is_reserved":false,"is_disabled":false,"rental_uris":{"android":"levelo://app?vid=165200d8-bb03-4fd3-a0bc-2e96d4a93fba","ios":"levelo://app?vid=165200d8-bb03-4fd3-a0bc-2e96d4a93fba"},"vehicle_type_id":"4","last_reported":1738181378,"current_range_meters":36400,"station_id":"ce4bh012rcd13ifvqd10","pricing_plan_id":"cebpf4jnsgd1na2vs0mg"},{"bike_id":"2e521d63-e09d-44b8-b0e9-5d974b341e93","system_id":"levelo_inurba_marseille","lat":43.27991,"lon":5.41658,"is_reserved":false,"is_disabled":false,"rental_uris":{"android":"levelo://app?vid=2e521d63-e09d-44b8-b0e9-5d974b341e93","ios":"levelo://app?vid=2e521d63-e09d-44b8-b0e9-5d974b341e93"},"vehicle_type_id":"4","last_reported":1738181378,"current_range_meters":14800,"station_id":"ce4bho12rcd13ifvqh1g","pricing_plan_id":"cebpf4jnsgd1na2vs0mg"},{"bike_id":"dd195832-ff3f-4763-a260-74003ef7ff4c","system_id":"levelo_inurba_marseille","lat":43.29205,"lon":5.3603,"is_reserved":false,"is_disabled":false,"rental_uris":{"android":"levelo://app?vid=dd195832-ff3f-4763-a260-74003ef7ff4c","ios":"levelo://app?vid=dd195832-ff3f-4763-a260-74003ef7ff4c"},"vehicle_type_id":"4","last_reported":1738181378,"current_range_meters":32400,"station_id":"ce4bhbh2rcd13ifvqeqg","pricing_plan_id":"cebpf4jnsgd1na2vs0mg"},{"bike_id":"078ce1de-fdde-4b25-8006-9875d485872a","system_id":"levelo_inurba_marseille","lat":43.31766,"lon":5.38999,"is_reserved":false,"is_disabled":false,"rental_uris":{"android":"levelo://app?vid=078ce1de-fdde-4b25-8006-9875d485872a","ios":"levelo://app?vid=078ce1de-fdde-4b25-8006-9875d485872a"},"vehicle_type_id":"4","last_reported":1738181378,"current_range_meters":21600,"station_id":"ce4bhqp2rcd13ifvqhng","pricing_plan_id":"cebpf4jnsgd1na2vs0mg"},{"bike_id":"ee757b3c-1b66-4688-957f-c178b479b260","system_id":"levelo_inurba_marseille","lat":43.28428,"lon":5.39178,"is_reserved":false,"is_disabled":false,"rental_uris":{"android":"levelo://app?vid=ee757b3c-1b66-4688-957f-c178b479b260","ios":"levelo://app?vid=ee757b3c-1b66-4688-957f-c178b479b260"},"vehicle_type_id":"4","last_reported":1738181378,"current_range_meters":28800,"station_id":"ce4bhoh2rcd13ifvqh5g","pricing_plan_id":"cebpf4jnsgd1na2vs0mg"},{"bike_id":"7cbfc840-8be9-451b-83cd-cd2511b7a3d1","system_id":"levelo_inurba_marseille","lat":43.2757,"lon":5.38459,"is_reserved":false,"is_disabled":false,"rental_uris":{"android":"levelo://app?vid=7cbfc840-8be9-451b-83cd-cd2511b7a3d1","ios":"levelo://app?vid=7cbfc840-8be9-451b-83cd-cd2511b7a3d1"},"vehicle_type_id":"4","last_reported":1738181378,"current_range_meters":38400,"station_id":"ce4bhh92rcd13ifvqfi0","pricing_plan_id":"cebpf4jnsgd1na2vs0mg"},{"bike_id":"c1d1ce73-8f8f-42c4-8303-66858ad4f592","system_id":"levelo_inurba_marseille","lat":43.274925,"lon":5.424596,"is_reserved":false,"is_disabled":true,"rental_uris":{"android":"levelo://app?vid=c1d1ce73-8f8f-42c4-8303-66858ad4f592","ios":"levelo://app?vid=c1d1ce73-8f8f-42c4-8303-66858ad4f592"},"vehicle_type_id":"4","last_reported":1738181378,"current_range_meters":26800,"station_id":"ce4bhn92rcd13ifvqgrg","pricing_plan_id":"cebpf4jnsgd1na2vs0mg"},{"bike_id":"3a7c8af9-56e6-4b6f-98fd-d18f27c9e3b9","system_id":"levelo_inurba_marseille","lat":43.297,"lon":5.36616,"is_reserved":false,"is_disabled":false,"rental_uris":{"android":"levelo://app?vid=3a7c8af9-56e6-4b6f-98fd-d18f27c9e3b9","ios":"levelo://app?vid=3a7c8af9-56e6-4b6f-98fd-d18f27c9e3b9"},"vehicle_type_id":"4","last_reported":1738181378,"current_range_meters":6000,"station_id":"ce4bgn12rcd13ifvqbt0","pricing_plan_id":"cebpf4jnsgd1na2vs0mg"},{"bike_id":"71f34f72-d3b7-46a5-9bd4-1fe057b3152f","system_id":"levelo_inurba_marseille","lat":43.22931,"lon":5.35376,"is_reserved":false,"is_disabled":false,"rental_uris":{"android":"levelo://app?vid=71f34f72-d3b7-46a5-9bd4-1fe057b3152f","ios":"levelo://app?vid=71f34f72-d3b7-46a5-9bd4-1fe057b3152f"},"vehicle_type_id":"4","last_reported":1738181378,"current_range_meters":39200,"station_id":"cpo3532slgdg3j2ikp40","pricing_plan_id":"cebpf4jnsgd1na2vs0mg"},{"bike_id":"66c12baa-9477-443c-ad62-ceeda86c1e58","system_id":"levelo_inurba_marseille","lat":43.2586,"lon":5.39909,"is_reserved":false,"is_disabled":false,"rental_uris":{"android":"levelo://app?vid=66c12baa-9477-443c-ad62-ceeda86c1e58","ios":"levelo://app?vid=66c12baa-9477-443c-ad62-ceeda86c1e58"},"vehicle_type_id":"4","last_reported":1738181378,"current_range_meters":6400,"station_id":"ce4bhl92rcd13ifvqghg","pricing_plan_id":"cebpf4jnsgd1na2vs0mg"},{"bike_id":"20029bdd-9f9c-4ff9-86e4-5ba6ed30f46a","system_id":"levelo_inurba_marseille","lat":43.23147,"lon":5.43715,"is_reserved":false,"is_disabled":true,"rental_uris":{"android":"levelo://app?vid=20029bdd-9f9c-4ff9-86e4-5ba6ed30f46a","ios":"levelo://app?vid=20029bdd-9f9c-4ff9-86e4-5ba6ed30f46a"},"vehicle_type_id":"4","last_reported":1738181378,"current_range_meters":0,"station_id":"ce4bhmp2rcd13ifvqgog","pricing_plan_id":"cebpf4jnsgd1na2vs0mg"},{"bike_id":"89f2eb9e-0310-448e-bf5a-27b031c9f2ed","system_id":"levelo_inurba_marseille","lat":43.29617,"lon":5.37168,"is_reserved":false,"is_disabled":false,"rental_uris":{"android":"levelo://app?vid=89f2eb9e-0310-448e-bf5a-27b031c9f2ed","ios":"levelo://app?vid=89f2eb9e-0310-448e-bf5a-27b031c9f2ed"},"vehicle_type_id":"4","last_reported":1738181378,"current_range_meters":22000,"station_id":"ce4bgnh2rcd13ifvqc0g","pricing_plan_id":"cebpf4jnsgd1na2vs0mg"},{"bike_id":"669de347-4793-46f9-b7aa-9822a4a7a353","system_id":"levelo_inurba_marseille","lat":43.25003,"lon":5.38924,"is_reserved":false,"is_disabled":false,"rental_uris":{"android":"levelo://app?vid=669de347-4793-46f9-b7aa-9822a4a7a353","ios":"levelo://app?vid=669de347-4793-46f9-b7aa-9822a4a7a353"},"vehicle_type_id":"4","last_reported":1738181378,"current_range_meters":39200,"station_id":"ce4bhgp2rcd13ifvqfd0","pricing_plan_id":"cebpf4jnsgd1na2vs0mg"},{"bike_id":"ecf6e76f-5faa-4cd6-aaac-ee69b01d2a2c","system_id":"levelo_inurba_marseille","lat":43.2619,"lon":5.37452,"is_reserved":false,"is_disabled":false,"rental_uris":{"android":"levelo://app?vid=ecf6e76f-5faa-4cd6-aaac-ee69b01d2a2c","ios":"levelo://app?vid=ecf6e76f-5faa-4cd6-aaac-ee69b01d2a2c"},"vehicle_type_id":"4","last_reported":1738181378,"current_range_meters":38800,"station_id":"ce4bhgp2rcd13ifvqfc0","pricing_plan_id":"cebpf4jnsgd1na2vs0mg"},{"bike_id":"3f65cc72-6791-4e20-b3d8-bac9eb0b90d1","system_id":"levelo_inurba_marseille","lat":43.25091,"lon":5.40329,"is_reserved":false,"is_disabled":false,"rental_uris":{"android":"levelo://app?vid=3f65cc72-6791-4e20-b3d8-bac9eb0b90d1","ios":"levelo://app?vid=3f65cc72-6791-4e20-b3d8-bac9eb0b90d1"},"vehicle_type_id":"4","last_reported":1738181378,"current_range_meters":19200,"station_id":"ce4bhlh2rcd13ifvqgig","pricing_plan_id":"cebpf4jnsgd1na2vs0mg"},{"bike_id":"9cef6fa4-3ddb-412a-b91c-2ed6416e1e06","system_id":"levelo_inurba_marseille","lat":43.30319,"lon":5.40431,"is_reserved":false,"is_disabled":false,"rental_uris":{"android":"levelo://app?vid=9cef6fa4-3ddb-412a-b91c-2ed6416e1e06","ios":"levelo://app?vid=9cef6fa4-3ddb-412a-b91c-2ed6416e1e06"},"vehicle_type_id":"4","last_reported":1738181378,"current_range_meters":28400,"station_id":"ce4bh012rcd13ifvqd10","pricing_plan_id":"cebpf4jnsgd1na2vs0mg"},{"bike_id":"46f1f77e-98b6-4ba2-a396-1e36c4b255d1","system_id":"levelo_inurba_marseille","lat":43.28102,"lon":5.37846,"is_reserved":false,"is_disabled":false,"rental_uris":{"android":"levelo://app?vid=46f1f77e-98b6-4ba2-a396-1e36c4b255d1","ios":"levelo://app?vid=46f1f77e-98b6-4ba2-a396-1e36c4b255d1"},"vehicle_type_id":"4","last_reported":1738181378,"current_range_meters":17600,"station_id":"ce4bha12rcd13ifvqee0","pricing_plan_id":"cebpf4jnsgd1na2vs0mg"},{"bike_id":"67010c49-4067-40f8-abbe-e9abaf8588d1","system_id":"levelo_inurba_marseille","lat":43.26036,"lon":5.37546,"is_reserved":false,"is_disabled":false,"rental_uris":{"android":"levelo://app?vid=67010c49-4067-40f8-abbe-e9abaf8588d1","ios":"levelo://app?vid=67010c49-4067-40f8-abbe-e9abaf8588d1"},"vehicle_type_id":"4","last_reported":1738181378,"current_range_meters":37600,"station_id":"ce4bhgh2rcd13ifvqfa0","pricing_plan_id":"cebpf4jnsgd1na2vs0mg"},{"bike_id":"bee89fe1-75de-4aa4-8834-a29197d70af2","system_id":"levelo_inurba_marseille","lat":43.31843,"lon":5.37254,"is_reserved":false,"is_disabled":true,"rental_uris":{"android":"levelo://app?vid=bee89fe1-75de-4aa4-8834-a29197d70af2","ios":"levelo://app?vid=bee89fe1-75de-4aa4-8834-a29197d70af2"},"vehicle_type_id":"4","last_reported":1738181378,"current_range_meters":0,"station_id":"","pricing_plan_id":"cebpf4jnsgd1na2vs0mg"},{"bike_id":"2ec84c22-8666-467b-b9ab-b38e4ac8ff9f","system_id":"levelo_inurba_marseille","lat":43.29898,"lon":5.43658,"is_reserved":false,"is_disabled":true,"rental_uris":{"android":"levelo://app?vid=2ec84c22-8666-467b-b9ab-b38e4ac8ff9f","ios":"levelo://app?vid=2ec84c22-8666-467b-b9ab-b38e4ac8ff9f"},"vehicle_type_id":"4","last_reported":1738181378,"current_range_meters":32400,"station_id":"ce4bhpp2rcd13ifvqhfg","pricing_plan_id":"cebpf4jnsgd1na2vs0mg"},{"bike_id":"7320c235-7fdd-49cb-83c0-b4ca9629f8a8","system_id":"levelo_inurba_marseille","lat":43.28458,"lon":5.35888,"is_reserved":false,"is_disabled":false,"rental_uris":{"android":"levelo://app?vid=7320c235-7fdd-49cb-83c0-b4ca9629f8a8","ios":"levelo://app?vid=7320c235-7fdd-49cb-83c0-b4ca9629f8a8"},"vehicle_type_id":"4","last_reported":1738181378,"current_range_meters":6000,"station_id":"ce4bhah2rcd13ifvqei0","pricing_plan_id":"cebpf4jnsgd1na2vs0mg"},{"bike_id":"31b58c8a-ac4d-4d11-9da7-bf54ca92e707","system_id":"levelo_inurba_marseille","lat":43.29629,"lon":5.40595,"is_reserved":false,"is_disabled":false,"rental_uris":{"android":"levelo://app?vid=31b58c8a-ac4d-4d11-9da7-bf54ca92e707","ios":"levelo://app?vid=31b58c8a-ac4d-4d11-9da7-bf54ca92e707"},"vehicle_type_id":"4","last_reported":1738181378,"current_range_meters":36400,"station_id":"ce4bh0h2rcd13ifvqd60","pricing_plan_id":"cebpf4jnsgd1na2vs0mg"},{"bike_id":"9ea78203-8f98-4ce9-a46f-06802a5df390","system_id":"levelo_inurba_marseille","lat":43.23193,"lon":5.39974,"is_reserved":false,"is_disabled":false,"rental_uris":{"android":"levelo://app?vid=9ea78203-8f98-4ce9-a46f-06802a5df390","ios":"levelo://app?vid=9ea78203-8f98-4ce9-a46f-06802a5df390"},"vehicle_type_id":"4","last_reported":1738181378,"current_range_meters":11600,"station_id":"ce4bhn12rcd13ifvqgqg","pricing_plan_id":"cebpf4jnsgd1na2vs0mg"},{"bike_id":"39e64475-42a9-4145-a7f8-c07810bb0546","system_id":"levelo_inurba_marseille","lat":43.24668,"lon":5.38153,"is_reserved":false,"is_disabled":false,"rental_uris":{"android":"levelo://app?vid=39e64475-42a9-4145-a7f8-c07810bb0546","ios":"levelo://app?vid=39e64475-42a9-4145-a7f8-c07810bb0546"},"vehicle_type_id":"4","last_reported":1738181378,"current_range_meters":35200,"station_id":"ce4bhih2rcd13ifvqfr0","pricing_plan_id":"cebpf4jnsgd1na2vs0mg"},{"bike_id":"96b8e4ef-534c-4051-9f0e-c2158b65cb6c","system_id":"levelo_inurba_marseille","lat":43.27943,"lon":5.41038,"is_reserved":false,"is_disabled":false,"rental_uris":{"android":"levelo://app?vid=96b8e4ef-534c-4051-9f0e-c2158b65cb6c","ios":"levelo://app?vid=96b8e4ef-534c-4051-9f0e-c2158b65cb6c"},"vehicle_type_id":"4","last_reported":1738181378,"current_range_meters":27600,"station_id":"ce4bhnp2rcd13ifvqh0g","pricing_plan_id":"cebpf4jnsgd1na2vs0mg"},{"bike_id":"296acca2-a355-4830-bc97-a6939a85f573","system_id":"levelo_inurba_marseille","lat":43.255713,"lon":5.382383,"is_reserved":false,"is_disabled":false,"rental_uris":{"android":"levelo://app?vid=296acca2-a355-4830-bc97-a6939a85f573","ios":"levelo://app?vid=296acca2-a355-4830-bc97-a6939a85f573"},"vehicle_type_id":"4","last_reported":1738181378,"current_range_meters":22800,"station_id":"ce4bhih2rcd13ifvqfs0","pricing_plan_id":"cebpf4jnsgd1na2vs0mg"},{"bike_id":"a79b3a4a-2ffb-47d4-a0ed-c2ebdfbf34cb","system_id":"levelo_inurba_marseille","lat":43.29509,"lon":5.39038,"is_reserved":false,"is_disabled":false,"rental_uris":{"android":"levelo://app?vid=a79b3a4a-2ffb-47d4-a0ed-c2ebdfbf34cb","ios":"levelo://app?vid=a79b3a4a-2ffb-47d4-a0ed-c2ebdfbf34cb"},"vehicle_type_id":"4","last_reported":1738181378,"current_range_meters":39200,"station_id":"ce4bh3p2rcd13ifvqdp0","pricing_plan_id":"cebpf4jnsgd1na2vs0mg"},{"bike_id":"70fd4de4-1a4c-4995-997d-9d6ee8ecf32d","system_id":"levelo_inurba_marseille","lat":43.29418,"lon":5.38612,"is_reserved":false,"is_disabled":false,"rental_uris":{"android":"levelo://app?vid=70fd4de4-1a4c-4995-997d-9d6ee8ecf32d","ios":"levelo://app?vid=70fd4de4-1a4c-4995-997d-9d6ee8ecf32d"},"vehicle_type_id":"4","last_reported":1738181378,"current_range_meters":24800,"station_id":"ce4bh2h2rcd13ifvqdh0","pricing_plan_id":"cebpf4jnsgd1na2vs0mg"},{"bike_id":"5f654e4e-95e6-426d-9211-44da09fb915e","system_id":"levelo_inurba_marseille","lat":43.27825,"lon":5.40722,"is_reserved":false,"is_disabled":false,"rental_uris":{"android":"levelo://app?vid=5f654e4e-95e6-426d-9211-44da09fb915e","ios":"levelo://app?vid=5f654e4e-95e6-426d-9211-44da09fb915e"},"vehicle_type_id":"4","last_reported":1738181378,"current_range_meters":29600,"station_id":"ce4bhnh2rcd13ifvqgtg","pricing_plan_id":"cebpf4jnsgd1na2vs0mg"},{"bike_id":"e8f6ee29-d98f-4b58-a9a2-330f39cb6448","system_id":"levelo_inurba_marseille","lat":43.292644,"lon":5.384447,"is_reserved":false,"is_disabled":false,"rental_uris":{"android":"levelo://app?vid=e8f6ee29-d98f-4b58-a9a2-330f39cb6448","ios":"levelo://app?vid=e8f6ee29-d98f-4b58-a9a2-330f39cb6448"},"vehicle_type_id":"4","last_reported":1738181378,"current_range_meters":38800,"station_id":"ce4bh692rcd13ifvqea0","pricing_plan_id":"cebpf4jnsgd1na2vs0mg"},{"bike_id":"0002070e-3794-4cb5-9dfa-5e512fa72331","system_id":"levelo_inurba_marseille","lat":43.27914,"lon":5.3959,"is_reserved":false,"is_disabled":false,"rental_uris":{"android":"levelo://app?vid=0002070e-3794-4cb5-9dfa-5e512fa72331","ios":"levelo://app?vid=0002070e-3794-4cb5-9dfa-5e512fa72331"},"vehicle_type_id":"4","last_reported":1738181378,"current_range_meters":38800,"station_id":"ce4bhf92rcd13ifvqf40","pricing_plan_id":"cebpf4jnsgd1na2vs0mg"},{"bike_id":"1d58f5fe-6c27-4df6-aaab-84463409b24d","system_id":"levelo_inurba_marseille","lat":43.28458,"lon":5.3588,"is_reserved":false,"is_disabled":false,"rental_uris":{"android":"levelo://app?vid=1d58f5fe-6c27-4df6-aaab-84463409b24d","ios":"levelo://app?vid=1d58f5fe-6c27-4df6-aaab-84463409b24d"},"vehicle_type_id":"4","last_reported":1738181378,"current_range_meters":7200,"station_id":"ce4bhah2rcd13ifvqei0","pricing_plan_id":"cebpf4jnsgd1na2vs0mg"},{"bike_id":"f49434c8-464b-4611-a913-29cc2b905667","system_id":"levelo_inurba_marseille","lat":43.27918,"lon":5.395754,"is_reserved":false,"is_disabled":false,"rental_uris":{"android":"levelo://app?vid=f49434c8-464b-4611-a913-29cc2b905667","ios":"levelo://app?vid=f49434c8-464b-4611-a913-29cc2b905667"},"vehicle_type_id":"4","last_reported":1738181378,"current_range_meters":38800,"station_id":"ce4bhf92rcd13ifvqf40","pricing_plan_id":"cebpf4jnsgd1na2vs0mg"},{"bike_id":"35a5c402-13ca-468f-8a93-76197813b571","system_id":"levelo_inurba_marseille","lat":43.25878,"lon":5.40745,"is_reserved":false,"is_disabled":true,"rental_uris":{"android":"levelo://app?vid=35a5c402-13ca-468f-8a93-76197813b571","ios":"levelo://app?vid=35a5c402-13ca-468f-8a93-76197813b571"},"vehicle_type_id":"4","last_reported":1738181378,"current_range_meters":38800,"station_id":"ce4bhm92rcd13ifvqglg","pricing_plan_id":"cebpf4jnsgd1na2vs0mg"},{"bike_id":"e3c5a10e-948d-477c-91ce-8c835a7fe362","system_id":"levelo_inurba_marseille","lat":43.280721,"lon":5.396474,"is_reserved":false,"is_disabled":true,"rental_uris":{"android":"levelo://app?vid=e3c5a10e-948d-477c-91ce-8c835a7fe362","ios":"levelo://app?vid=e3c5a10e-948d-477c-91ce-8c835a7fe362"},"vehicle_type_id":"4","last_reported":1738181378,"current_range_meters":0,"station_id":"ce4bho12rcd13ifvqh2g","pricing_plan_id":"cebpf4jnsgd1na2vs0mg"},{"bike_id":"f9d35a32-65b2-4842-bd83-8cbe10324274","system_id":"levelo_inurba_marseille","lat":43.28625,"lon":5.35092,"is_reserved":false,"is_disabled":false,"rental_uris":{"android":"levelo://app?vid=f9d35a32-65b2-4842-bd83-8cbe10324274","ios":"levelo://app?vid=f9d35a32-65b2-4842-bd83-8cbe10324274"},"vehicle_type_id":"4","last_reported":1738181378,"current_range_meters":21600,"station_id":"ce4bhch2rcd13ifvqeug","pricing_plan_id":"cebpf4jnsgd1na2vs0mg"},{"bike_id":"b56744dd-c9e9-45e3-a372-031669fe5fab","system_id":"levelo_inurba_marseille","lat":43.29256,"lon":5.38441,"is_reserved":false,"is_disabled":true,"rental_uris":{"android":"levelo://app?vid=b56744dd-c9e9-45e3-a372-031669fe5fab","ios":"levelo://app?vid=b56744dd-c9e9-45e3-a372-031669fe5fab"},"vehicle_type_id":"4","last_reported":1738181378,"current_range_meters":0,"station_id":"ce4bh692rcd13ifvqea0","pricing_plan_id":"cebpf4jnsgd1na2vs0mg"},{"bike_id":"79e99809-e2d5-467c-aa72-b4d7c9afae9f","system_id":"levelo_inurba_marseille","lat":43.28081,"lon":5.39656,"is_reserved":false,"is_disabled":false,"rental_uris":{"android":"levelo://app?vid=79e99809-e2d5-467c-aa72-b4d7c9afae9f","ios":"levelo://app?vid=79e99809-e2d5-467c-aa72-b4d7c9afae9f"},"vehicle_type_id":"4","last_reported":1738181378,"current_range_meters":39200,"station_id":"ce4bho12rcd13ifvqh2g","pricing_plan_id":"cebpf4jnsgd1na2vs0mg"},{"bike_id":"f1641078-9146-47a8-a31e-efbe1f05180f","system_id":"levelo_inurba_marseille","lat":43.24988,"lon":5.38929,"is_reserved":false,"is_disabled":false,"rental_uris":{"android":"levelo://app?vid=f1641078-9146-47a8-a31e-efbe1f05180f","ios":"levelo://app?vid=f1641078-9146-47a8-a31e-efbe1f05180f"},"vehicle_type_id":"4","last_reported":1738181378,"current_range_meters":24400,"station_id":"ce4bhgp2rcd13ifvqfd0","pricing_plan_id":"cebpf4jnsgd1na2vs0mg"},{"bike_id":"140798a4-0859-451e-8806-eea5a65a068a","system_id":"levelo_inurba_marseille","lat":43.26062,"lon":5.39397,"is_reserved":false,"is_disabled":false,"rental_uris":{"android":"levelo://app?vid=140798a4-0859-451e-8806-eea5a65a068a","ios":"levelo://app?vid=140798a4-0859-451e-8806-eea5a65a068a"},"vehicle_type_id":"4","last_reported":1738181378,"current_range_meters":38000,"station_id":"ce4bhh92rcd13ifvqfj0","pricing_plan_id":"cebpf4jnsgd1na2vs0mg"},{"bike_id":"3f8f111c-9d13-4eb5-8754-e794af193a56","system_id":"levelo_inurba_marseille","lat":43.3014,"lon":5.3987,"is_reserved":false,"is_disabled":false,"rental_uris":{"android":"levelo://app?vid=3f8f111c-9d13-4eb5-8754-e794af193a56","ios":"levelo://app?vid=3f8f111c-9d13-4eb5-8754-e794af193a56"},"vehicle_type_id":"4","last_reported":1738181378,"current_range_meters":38800,"station_id":"ce4bh0h2rcd13ifvqd40","pricing_plan_id":"cebpf4jnsgd1na2vs0mg"},{"bike_id":"f902d01f-12dc-415e-8018-36a634953a59","system_id":"levelo_inurba_marseille","lat":43.29257,"lon":5.38413,"is_reserved":false,"is_disabled":false,"rental_uris":{"android":"levelo://app?vid=f902d01f-12dc-415e-8018-36a634953a59","ios":"levelo://app?vid=f902d01f-12dc-415e-8018-36a634953a59"},"vehicle_type_id":"4","last_reported":1738181378,"current_range_meters":16400,"station_id":"ce4bh692rcd13ifvqea0","pricing_plan_id":"cebpf4jnsgd1na2vs0mg"},{"bike_id":"c944d406-f29f-4d82-94b9-2684759473c0","system_id":"levelo_inurba_marseille","lat":43.29189,"lon":5.39311,"is_reserved":false,"is_disabled":false,"rental_uris":{"android":"levelo://app?vid=c944d406-f29f-4d82-94b9-2684759473c0","ios":"levelo://app?vid=c944d406-f29f-4d82-94b9-2684759473c0"},"vehicle_type_id":"4","last_reported":1738181378,"current_range_meters":30400,"station_id":"ce4bh192rcd13ifvqdd0","pricing_plan_id":"cebpf4jnsgd1na2vs0mg"},{"bike_id":"337b4b52-74c3-4c30-a8a3-46cbfa460da4","system_id":"levelo_inurba_marseille","lat":43.29416,"lon":5.3862,"is_reserved":false,"is_disabled":false,"rental_uris":{"android":"levelo://app?vid=337b4b52-74c3-4c30-a8a3-46cbfa460da4","ios":"levelo://app?vid=337b4b52-74c3-4c30-a8a3-46cbfa460da4"},"vehicle_type_id":"4","last_reported":1738181378,"current_range_meters":29600,"station_id":"ce4bh2h2rcd13ifvqdh0","pricing_plan_id":"cebpf4jnsgd1na2vs0mg"},{"bike_id":"e7e53d8d-86c1-4356-a345-e82679c4eeae","system_id":"levelo_inurba_marseille","lat":43.3229,"lon":5.38269,"is_reserved":false,"is_disabled":false,"rental_uris":{"android":"levelo://app?vid=e7e53d8d-86c1-4356-a345-e82679c4eeae","ios":"levelo://app?vid=e7e53d8d-86c1-4356-a345-e82679c4eeae"},"vehicle_type_id":"4","last_reported":1738181378,"current_range_meters":27600,"station_id":"ce4bhr12rcd13ifvqhqg","pricing_plan_id":"cebpf4jnsgd1na2vs0mg"},{"bike_id":"aef32f73-d57f-45dd-8182-87e7bebdda57","system_id":"levelo_inurba_marseille","lat":43.24999,"lon":5.38921,"is_reserved":false,"is_disabled":false,"rental_uris":{"android":"levelo://app?vid=aef32f73-d57f-45dd-8182-87e7bebdda57","ios":"levelo://app?vid=aef32f73-d57f-45dd-8182-87e7bebdda57"},"vehicle_type_id":"4","last_reported":1738181378,"current_range_meters":27200,"station_id":"ce4bhgp2rcd13ifvqfd0","pricing_plan_id":"cebpf4jnsgd1na2vs0mg"},{"bike_id":"ccebac2e-dd56-4f7c-af56-6e5473a29f80","system_id":"levelo_inurba_marseille","lat":43.27993,"lon":5.41645,"is_reserved":false,"is_disabled":false,"rental_uris":{"android":"levelo://app?vid=ccebac2e-dd56-4f7c-af56-6e5473a29f80","ios":"levelo://app?vid=ccebac2e-dd56-4f7c-af56-6e5473a29f80"},"vehicle_type_id":"4","last_reported":1738181378,"current_range_meters":38800,"station_id":"ce4bho12rcd13ifvqh1g","pricing_plan_id":"cebpf4jnsgd1na2vs0mg"},{"bike_id":"0a41ed65-fb70-41da-a817-88f7fe3391d5","system_id":"levelo_inurba_marseille","lat":43.29262,"lon":5.38447,"is_reserved":false,"is_disabled":false,"rental_uris":{"android":"levelo://app?vid=0a41ed65-fb70-41da-a817-88f7fe3391d5","ios":"levelo://app?vid=0a41ed65-fb70-41da-a817-88f7fe3391d5"},"vehicle_type_id":"4","last_reported":1738181378,"current_range_meters":9200,"station_id":"ce4bh692rcd13ifvqea0","pricing_plan_id":"cebpf4jnsgd1na2vs0mg"},{"bike_id":"8c69ea1e-2ad2-43c7-a69e-7814046ee1fc","system_id":"levelo_inurba_marseille","lat":43.28339,"lon":5.38097,"is_reserved":false,"is_disabled":false,"rental_uris":{"android":"levelo://app?vid=8c69ea1e-2ad2-43c7-a69e-7814046ee1fc","ios":"levelo://app?vid=8c69ea1e-2ad2-43c7-a69e-7814046ee1fc"},"vehicle_type_id":"4","last_reported":1738181378,"current_range_meters":8400,"station_id":"ce4bh412rcd13ifvqdr0","pricing_plan_id":"cebpf4jnsgd1na2vs0mg"},{"bike_id":"3ad10b32-c1b1-4c7a-9f3c-30dcc350bc0c","system_id":"levelo_inurba_marseille","lat":43.27956,"lon":5.41037,"is_reserved":false,"is_disabled":false,"rental_uris":{"android":"levelo://app?vid=3ad10b32-c1b1-4c7a-9f3c-30dcc350bc0c","ios":"levelo://app?vid=3ad10b32-c1b1-4c7a-9f3c-30dcc350bc0c"},"vehicle_type_id":"4","last_reported":1738181378,"current_range_meters":10000,"station_id":"ce4bhnp2rcd13ifvqh0g","pricing_plan_id":"cebpf4jnsgd1na2vs0mg"},{"bike_id":"c41cb691-6250-4c52-a233-ef6ba436c7eb","system_id":"levelo_inurba_marseille","lat":43.3095,"lon":5.40151,"is_reserved":false,"is_disabled":false,"rental_uris":{"android":"levelo://app?vid=c41cb691-6250-4c52-a233-ef6ba436c7eb","ios":"levelo://app?vid=c41cb691-6250-4c52-a233-ef6ba436c7eb"},"vehicle_type_id":"4","last_reported":1738181378,"current_range_meters":11600,"station_id":"ce4bgvp2rcd13ifvqct0","pricing_plan_id":"cebpf4jnsgd1na2vs0mg"},{"bike_id":"8382186f-0d25-40e6-beca-2632cc8590f2","system_id":"levelo_inurba_marseille","lat":43.29554,"lon":5.42274,"is_reserved":false,"is_disabled":true,"rental_uris":{"android":"levelo://app?vid=8382186f-0d25-40e6-beca-2632cc8590f2","ios":"levelo://app?vid=8382186f-0d25-40e6-beca-2632cc8590f2"},"vehicle_type_id":"4","last_reported":1738181378,"current_range_meters":11200,"station_id":"ce4bhph2rcd13ifvqhdg","pricing_plan_id":"cebpf4jnsgd1na2vs0mg"},{"bike_id":"5f5803c0-e991-4c07-8a9e-482282f6a7ac","system_id":"levelo_inurba_marseille","lat":43.29043,"lon":5.38624,"is_reserved":false,"is_disabled":false,"rental_uris":{"android":"levelo://app?vid=5f5803c0-e991-4c07-8a9e-482282f6a7ac","ios":"levelo://app?vid=5f5803c0-e991-4c07-8a9e-482282f6a7ac"},"vehicle_type_id":"4","last_reported":1738181378,"current_range_meters":24800,"station_id":"ce4bh4p2rcd13ifvqe0g","pricing_plan_id":"cebpf4jnsgd1na2vs0mg"},{"bike_id":"5b6efb61-6a43-4c5a-bb36-26ebbe66159a","system_id":"levelo_inurba_marseille","lat":43.30308,"lon":5.36895,"is_reserved":false,"is_disabled":false,"rental_uris":{"android":"levelo://app?vid=5b6efb61-6a43-4c5a-bb36-26ebbe66159a","ios":"levelo://app?vid=5b6efb61-6a43-4c5a-bb36-26ebbe66159a"},"vehicle_type_id":"4","last_reported":1738181378,"current_range_meters":35600,"station_id":"ce4bgqh2rcd13ifvqc5g","pricing_plan_id":"cebpf4jnsgd1na2vs0mg"},{"bike_id":"70f0c963-8c36-418f-a110-4edb8ff73131","system_id":"levelo_inurba_marseille","lat":43.2954,"lon":5.39402,"is_reserved":false,"is_disabled":true,"rental_uris":{"android":"levelo://app?vid=70f0c963-8c36-418f-a110-4edb8ff73131","ios":"levelo://app?vid=70f0c963-8c36-418f-a110-4edb8ff73131"},"vehicle_type_id":"4","last_reported":1738181378,"current_range_meters":36400,"station_id":"ce4bh292rcd13ifvqdf0","pricing_plan_id":"cebpf4jnsgd1na2vs0mg"},{"bike_id":"b6a6b106-c0a9-4afa-ad24-a5822ef23f96","system_id":"levelo_inurba_marseille","lat":43.2827,"lon":5.35064,"is_reserved":false,"is_disabled":false,"rental_uris":{"android":"levelo://app?vid=b6a6b106-c0a9-4afa-ad24-a5822ef23f96","ios":"levelo://app?vid=b6a6b106-c0a9-4afa-ad24-a5822ef23f96"},"vehicle_type_id":"4","last_reported":1738181378,"current_range_meters":38800,"station_id":"ce4bhbp2rcd13ifvqerg","pricing_plan_id":"cebpf4jnsgd1na2vs0mg"},{"bike_id":"ad928643-4e1a-4130-a55d-d873565d63d1","system_id":"levelo_inurba_marseille","lat":43.28505,"lon":5.3859,"is_reserved":false,"is_disabled":true,"rental_uris":{"android":"levelo://app?vid=ad928643-4e1a-4130-a55d-d873565d63d1","ios":"levelo://app?vid=ad928643-4e1a-4130-a55d-d873565d63d1"},"vehicle_type_id":"4","last_reported":1738181378,"current_range_meters":2000,"station_id":"ce4bh8p2rcd13ifvqeb0","pricing_plan_id":"cebpf4jnsgd1na2vs0mg"},{"bike_id":"df7d8f6a-5b66-47de-b5fc-4c59f37d7e14","system_id":"levelo_inurba_marseille","lat":43.29202,"lon":5.35801,"is_reserved":false,"is_disabled":false,"rental_uris":{"android":"levelo://app?vid=df7d8f6a-5b66-47de-b5fc-4c59f37d7e14","ios":"levelo://app?vid=df7d8f6a-5b66-47de-b5fc-4c59f37d7e14"},"vehicle_type_id":"4","last_reported":1738181378,"current_range_meters":4400,"station_id":"ce4bhb12rcd13ifvqel0","pricing_plan_id":"cebpf4jnsgd1na2vs0mg"},{"bike_id":"e2bea8e6-f3b7-466c-90bb-d9ccac093d4e","system_id":"levelo_inurba_marseille","lat":43.29249,"lon":5.38428,"is_reserved":false,"is_disabled":false,"rental_uris":{"android":"levelo://app?vid=e2bea8e6-f3b7-466c-90bb-d9ccac093d4e","ios":"levelo://app?vid=e2bea8e6-f3b7-466c-90bb-d9ccac093d4e"},"vehicle_type_id":"4","last_reported":1738181378,"current_range_meters":10000,"station_id":"ce4bh692rcd13ifvqea0","pricing_plan_id":"cebpf4jnsgd1na2vs0mg"},{"bike_id":"7f311075-b0f5-401e-baad-9d24e71a2a9a","system_id":"levelo_inurba_marseille","lat":43.33028,"lon":5.39036,"is_reserved":false,"is_disabled":false,"rental_uris":{"android":"levelo://app?vid=7f311075-b0f5-401e-baad-9d24e71a2a9a","ios":"levelo://app?vid=7f311075-b0f5-401e-baad-9d24e71a2a9a"},"vehicle_type_id":"4","last_reported":1738181378,"current_range_meters":2800,"station_id":"ce4bhr92rcd13ifvqhrg","pricing_plan_id":"cebpf4jnsgd1na2vs0mg"},{"bike_id":"67d87e23-738b-42b4-a250-e369a902027c","system_id":"levelo_inurba_marseille","lat":43.24376,"lon":5.37045,"is_reserved":false,"is_disabled":false,"rental_uris":{"android":"levelo://app?vid=67d87e23-738b-42b4-a250-e369a902027c","ios":"levelo://app?vid=67d87e23-738b-42b4-a250-e369a902027c"},"vehicle_type_id":"4","last_reported":1738181378,"current_range_meters":37600,"station_id":"ce4bhhh2rcd13ifvqfk0","pricing_plan_id":"cebpf4jnsgd1na2vs0mg"},{"bike_id":"6bb46ab8-60a3-4be8-a81e-feec8da4259f","system_id":"levelo_inurba_marseille","lat":43.29045,"lon":5.35924,"is_reserved":false,"is_disabled":false,"rental_uris":{"android":"levelo://app?vid=6bb46ab8-60a3-4be8-a81e-feec8da4259f","ios":"levelo://app?vid=6bb46ab8-60a3-4be8-a81e-feec8da4259f"},"vehicle_type_id":"4","last_reported":1738181378,"current_range_meters":38800,"station_id":"ce4bha92rcd13ifvqeg0","pricing_plan_id":"cebpf4jnsgd1na2vs0mg"},{"bike_id":"f2cd1694-cbcf-4b6f-9463-8b28ee8d6f4b","system_id":"levelo_inurba_marseille","lat":43.23057,"lon":5.35499,"is_reserved":false,"is_disabled":false,"rental_uris":{"android":"levelo://app?vid=f2cd1694-cbcf-4b6f-9463-8b28ee8d6f4b","ios":"levelo://app?vid=f2cd1694-cbcf-4b6f-9463-8b28ee8d6f4b"},"vehicle_type_id":"4","last_reported":1738181378,"current_range_meters":21600,"station_id":"cpo3342slgdg3j2ifvpg","pricing_plan_id":"cebpf4jnsgd1na2vs0mg"},{"bike_id":"0a2fd205-d616-4064-aa75-d4d529957d90","system_id":"levelo_inurba_marseille","lat":43.23065,"lon":5.35488,"is_reserved":false,"is_disabled":false,"rental_uris":{"android":"levelo://app?vid=0a2fd205-d616-4064-aa75-d4d529957d90","ios":"levelo://app?vid=0a2fd205-d616-4064-aa75-d4d529957d90"},"vehicle_type_id":"4","last_reported":1738181378,"current_range_meters":27200,"station_id":"cpo3342slgdg3j2ifvpg","pricing_plan_id":"cebpf4jnsgd1na2vs0mg"},{"bike_id":"1c698f29-cf68-497f-9146-e537081c2812","system_id":"levelo_inurba_marseille","lat":43.27997,"lon":5.40004,"is_reserved":false,"is_disabled":false,"rental_uris":{"android":"levelo://app?vid=1c698f29-cf68-497f-9146-e537081c2812","ios":"levelo://app?vid=1c698f29-cf68-497f-9146-e537081c2812"},"vehicle_type_id":"4","last_reported":1738181378,"current_range_meters":17600,"station_id":"ce4bho92rcd13ifvqh4g","pricing_plan_id":"cebpf4jnsgd1na2vs0mg"},{"bike_id":"824aec70-b504-4c32-b6f4-b5fba8f53db5","system_id":"levelo_inurba_marseille","lat":43.29166,"lon":5.37167,"is_reserved":false,"is_disabled":false,"rental_uris":{"android":"levelo://app?vid=824aec70-b504-4c32-b6f4-b5fba8f53db5","ios":"levelo://app?vid=824aec70-b504-4c32-b6f4-b5fba8f53db5"},"vehicle_type_id":"4","last_reported":1738181378,"current_range_meters":10000,"station_id":"ce4bha92rcd13ifvqeh0","pricing_plan_id":"cebpf4jnsgd1na2vs0mg"},{"bike_id":"851692c4-6ece-4a71-ba19-f442921d2278","system_id":"levelo_inurba_marseille","lat":43.29893,"lon":5.43669,"is_reserved":false,"is_disabled":false,"rental_uris":{"android":"levelo://app?vid=851692c4-6ece-4a71-ba19-f442921d2278","ios":"levelo://app?vid=851692c4-6ece-4a71-ba19-f442921d2278"},"vehicle_type_id":"4","last_reported":1738181378,"current_range_meters":13600,"station_id":"ce4bhpp2rcd13ifvqhfg","pricing_plan_id":"cebpf4jnsgd1na2vs0mg"},{"bike_id":"131290dc-769c-4503-bd81-4aad78d0271d","system_id":"levelo_inurba_marseille","lat":43.29528,"lon":5.39038,"is_reserved":false,"is_disabled":false,"rental_uris":{"android":"levelo://app?vid=131290dc-769c-4503-bd81-4aad78d0271d","ios":"levelo://app?vid=131290dc-769c-4503-bd81-4aad78d0271d"},"vehicle_type_id":"4","last_reported":1738181378,"current_range_meters":18800,"station_id":"ce4bh3p2rcd13ifvqdp0","pricing_plan_id":"cebpf4jnsgd1na2vs0mg"},{"bike_id":"ba7cea56-9b7b-4e11-9d56-da598957cd41","system_id":"levelo_inurba_marseille","lat":43.30121,"lon":5.39868,"is_reserved":false,"is_disabled":false,"rental_uris":{"android":"levelo://app?vid=ba7cea56-9b7b-4e11-9d56-da598957cd41","ios":"levelo://app?vid=ba7cea56-9b7b-4e11-9d56-da598957cd41"},"vehicle_type_id":"4","last_reported":1738181378,"current_range_meters":37600,"station_id":"ce4bh0h2rcd13ifvqd40","pricing_plan_id":"cebpf4jnsgd1na2vs0mg"},{"bike_id":"f6e9fedd-0505-44b4-8eb7-643303b8ede3","system_id":"levelo_inurba_marseille","lat":43.32488,"lon":5.36567,"is_reserved":false,"is_disabled":false,"rental_uris":{"android":"levelo://app?vid=f6e9fedd-0505-44b4-8eb7-643303b8ede3","ios":"levelo://app?vid=f6e9fedd-0505-44b4-8eb7-643303b8ede3"},"vehicle_type_id":"4","last_reported":1738181378,"current_range_meters":28000,"station_id":"ce4bhs12rcd13ifvqhvg","pricing_plan_id":"cebpf4jnsgd1na2vs0mg"},{"bike_id":"eee19f47-252c-4823-9731-a950c178be22","system_id":"levelo_inurba_marseille","lat":43.27951,"lon":5.41027,"is_reserved":false,"is_disabled":false,"rental_uris":{"android":"levelo://app?vid=eee19f47-252c-4823-9731-a950c178be22","ios":"levelo://app?vid=eee19f47-252c-4823-9731-a950c178be22"},"vehicle_type_id":"4","last_reported":1738181378,"current_range_meters":30400,"station_id":"ce4bhnp2rcd13ifvqh0g","pricing_plan_id":"cebpf4jnsgd1na2vs0mg"},{"bike_id":"803e03d8-7d2e-4feb-ac46-774902d16dee","system_id":"levelo_inurba_marseille","lat":43.33731,"lon":5.37442,"is_reserved":false,"is_disabled":true,"rental_uris":{"android":"levelo://app?vid=803e03d8-7d2e-4feb-ac46-774902d16dee","ios":"levelo://app?vid=803e03d8-7d2e-4feb-ac46-774902d16dee"},"vehicle_type_id":"4","last_reported":1738181378,"current_range_meters":32400,"station_id":"","pricing_plan_id":"cebpf4jnsgd1na2vs0mg"},{"bike_id":"46b35455-d22d-4e4c-a4c6-eec33dcce17c","system_id":"levelo_inurba_marseille","lat":43.29576,"lon":5.36734,"is_reserved":false,"is_disabled":false,"rental_uris":{"android":"levelo://app?vid=46b35455-d22d-4e4c-a4c6-eec33dcce17c","ios":"levelo://app?vid=46b35455-d22d-4e4c-a4c6-eec33dcce17c"},"vehicle_type_id":"4","last_reported":1738181378,"current_range_meters":35600,"station_id":"ce4bgph2rcd13ifvqc2g","pricing_plan_id":"cebpf4jnsgd1na2vs0mg"},{"bike_id":"65236341-47fe-42ac-b1ef-e584dc095193","system_id":"levelo_inurba_marseille","lat":43.29097,"lon":5.38131,"is_reserved":false,"is_disabled":false,"rental_uris":{"android":"levelo://app?vid=65236341-47fe-42ac-b1ef-e584dc095193","ios":"levelo://app?vid=65236341-47fe-42ac-b1ef-e584dc095193"},"vehicle_type_id":"4","last_reported":1738181378,"current_range_meters":16800,"station_id":"ce4bh512rcd13ifvqe2g","pricing_plan_id":"cebpf4jnsgd1na2vs0mg"},{"bike_id":"0367fa8e-91ab-4e14-b0b8-43c759ce0a3e","system_id":"levelo_inurba_marseille","lat":43.29168,"lon":5.37138,"is_reserved":false,"is_disabled":false,"rental_uris":{"android":"levelo://app?vid=0367fa8e-91ab-4e14-b0b8-43c759ce0a3e","ios":"levelo://app?vid=0367fa8e-91ab-4e14-b0b8-43c759ce0a3e"},"vehicle_type_id":"4","last_reported":1738181378,"current_range_meters":39200,"station_id":"ce4bha92rcd13ifvqeh0","pricing_plan_id":"cebpf4jnsgd1na2vs0mg"},{"bike_id":"0ea779b5-27c0-4f90-812a-d03284be445c","system_id":"levelo_inurba_marseille","lat":43.270325,"lon":5.402921,"is_reserved":false,"is_disabled":false,"rental_uris":{"android":"levelo://app?vid=0ea779b5-27c0-4f90-812a-d03284be445c","ios":"levelo://app?vid=0ea779b5-27c0-4f90-812a-d03284be445c"},"vehicle_type_id":"4","last_reported":1738181378,"current_range_meters":19600,"station_id":"ce4bhk92rcd13ifvqgc0","pricing_plan_id":"cebpf4jnsgd1na2vs0mg"},{"bike_id":"27e816bd-76b0-401c-9dd6-a81096cc83f0","system_id":"levelo_inurba_marseille","lat":43.29427,"lon":5.38632,"is_reserved":false,"is_disabled":false,"rental_uris":{"android":"levelo://app?vid=27e816bd-76b0-401c-9dd6-a81096cc83f0","ios":"levelo://app?vid=27e816bd-76b0-401c-9dd6-a81096cc83f0"},"vehicle_type_id":"4","last_reported":1738181378,"current_range_meters":38800,"station_id":"ce4bh2h2rcd13ifvqdh0","pricing_plan_id":"cebpf4jnsgd1na2vs0mg"},{"bike_id":"d7b055ae-afa4-45de-a5d1-2d3de46a980e","system_id":"levelo_inurba_marseille","lat":43.33008,"lon":5.39033,"is_reserved":false,"is_disabled":false,"rental_uris":{"android":"levelo://app?vid=d7b055ae-afa4-45de-a5d1-2d3de46a980e","ios":"levelo://app?vid=d7b055ae-afa4-45de-a5d1-2d3de46a980e"},"vehicle_type_id":"4","last_reported":1738181378,"current_range_meters":36000,"station_id":"ce4bhr92rcd13ifvqhrg","pricing_plan_id":"cebpf4jnsgd1na2vs0mg"},{"bike_id":"de436372-d288-4631-84fb-3961a721f61b","system_id":"levelo_inurba_marseille","lat":43.29022,"lon":5.38625,"is_reserved":false,"is_disabled":false,"rental_uris":{"android":"levelo://app?vid=de436372-d288-4631-84fb-3961a721f61b","ios":"levelo://app?vid=de436372-d288-4631-84fb-3961a721f61b"},"vehicle_type_id":"4","last_reported":1738181378,"current_range_meters":20000,"station_id":"ce4bh4p2rcd13ifvqe0g","pricing_plan_id":"cebpf4jnsgd1na2vs0mg"},{"bike_id":"0656b6ae-e27f-445f-aaa1-c8abd4ef4738","system_id":"levelo_inurba_marseille","lat":43.2815,"lon":5.42632,"is_reserved":false,"is_disabled":false,"rental_uris":{"android":"levelo://app?vid=0656b6ae-e27f-445f-aaa1-c8abd4ef4738","ios":"levelo://app?vid=0656b6ae-e27f-445f-aaa1-c8abd4ef4738"},"vehicle_type_id":"4","last_reported":1738181378,"current_range_meters":33600,"station_id":"ce4bhnh2rcd13ifvqgug","pricing_plan_id":"cebpf4jnsgd1na2vs0mg"},{"bike_id":"1cb80b27-39fd-4949-b243-3c7c37b18b3d","system_id":"levelo_inurba_marseille","lat":43.29247,"lon":5.36852,"is_reserved":false,"is_disabled":false,"rental_uris":{"android":"levelo://app?vid=1cb80b27-39fd-4949-b243-3c7c37b18b3d","ios":"levelo://app?vid=1cb80b27-39fd-4949-b243-3c7c37b18b3d"},"vehicle_type_id":"4","last_reported":1738181378,"current_range_meters":8800,"station_id":"ce4bhbp2rcd13ifvqesg","pricing_plan_id":"cebpf4jnsgd1na2vs0mg"},{"bike_id":"1eedbc56-d358-4051-bf2a-244cd8cf52d4","system_id":"levelo_inurba_marseille","lat":43.28147,"lon":5.4264,"is_reserved":false,"is_disabled":false,"rental_uris":{"android":"levelo://app?vid=1eedbc56-d358-4051-bf2a-244cd8cf52d4","ios":"levelo://app?vid=1eedbc56-d358-4051-bf2a-244cd8cf52d4"},"vehicle_type_id":"4","last_reported":1738181378,"current_range_meters":8000,"station_id":"ce4bhnh2rcd13ifvqgug","pricing_plan_id":"cebpf4jnsgd1na2vs0mg"},{"bike_id":"3cab5ce9-fa36-4f37-a4fd-aa59591df4d1","system_id":"levelo_inurba_marseille","lat":43.28421,"lon":5.34974,"is_reserved":false,"is_disabled":true,"rental_uris":{"android":"levelo://app?vid=3cab5ce9-fa36-4f37-a4fd-aa59591df4d1","ios":"levelo://app?vid=3cab5ce9-fa36-4f37-a4fd-aa59591df4d1"},"vehicle_type_id":"4","last_reported":1738181378,"current_range_meters":28800,"station_id":"ce4bhbh2rcd13ifvqepg","pricing_plan_id":"cebpf4jnsgd1na2vs0mg"},{"bike_id":"f67ccf40-ec2d-445e-bba1-6c1e644d1f72","system_id":"levelo_inurba_marseille","lat":43.28703,"lon":5.3739,"is_reserved":false,"is_disabled":false,"rental_uris":{"android":"levelo://app?vid=f67ccf40-ec2d-445e-bba1-6c1e644d1f72","ios":"levelo://app?vid=f67ccf40-ec2d-445e-bba1-6c1e644d1f72"},"vehicle_type_id":"4","last_reported":1738181378,"current_range_meters":16000,"station_id":"ce4bh3p2rcd13ifvqdq0","pricing_plan_id":"cebpf4jnsgd1na2vs0mg"},{"bike_id":"85af6c92-372c-4cd2-84da-c4ec61fa470d","system_id":"levelo_inurba_marseille","lat":43.25711,"lon":5.41123,"is_reserved":false,"is_disabled":true,"rental_uris":{"android":"levelo://app?vid=85af6c92-372c-4cd2-84da-c4ec61fa470d","ios":"levelo://app?vid=85af6c92-372c-4cd2-84da-c4ec61fa470d"},"vehicle_type_id":"4","last_reported":1738181378,"current_range_meters":38800,"station_id":"ce4bhkp2rcd13ifvqgd0","pricing_plan_id":"cebpf4jnsgd1na2vs0mg"},{"bike_id":"14cd41b3-990d-4f2a-addd-8561577a1154","system_id":"levelo_inurba_marseille","lat":43.29207,"lon":5.35781,"is_reserved":false,"is_disabled":false,"rental_uris":{"android":"levelo://app?vid=14cd41b3-990d-4f2a-addd-8561577a1154","ios":"levelo://app?vid=14cd41b3-990d-4f2a-addd-8561577a1154"},"vehicle_type_id":"4","last_reported":1738181378,"current_range_meters":38000,"station_id":"ce4bhb12rcd13ifvqel0","pricing_plan_id":"cebpf4jnsgd1na2vs0mg"},