{"last_updated":1700849327,"ttl":30,"version":"2.2","data":{"bikes":[{"bike_id":"373a0046-98e1-49ec-883e-0aded0a6c670","system_id":"levelo_inurba_marseille","lat":43.312239,"lon":5.368562,"is_reserved":false,"is_disabled":false,"rental_uris":{"android":"levelo://app?vid=373a0046-98e1-49ec-883e-0aded0a6c670","ios":"levelo://app?vid=373a0046-98e1-49ec-883e-0aded0a6c670"},"vehicle_type_id":"4","last_reported":1700849327,"current_range_meters":800,"station_id":"ce4bgl92rcd13ifvqbq0","pricing_plan_id":"free"},{"bike_id":"3c4ea180-3b56-461a-aec8-f84bc2ca78ec","system_id":"levelo_inurba_marseille","lat":43.309076,"lon":5.368465,"is_reserved":false,"is_disabled":false,"rental_uris":{"android":"levelo://app?vid=3c4ea180-3b56-461a-aec8-f84bc2ca78ec","ios":"levelo://app?vid=3c4ea180-3b56-461a-aec8-f84bc2ca78ec"},"vehicle_type_id":"4","last_reported":1700849327,"current_range_meters":16000,"station_id":"ce4bgn92rcd13ifvqbvg","pricing_plan_id":"free"},{"bike_id":"b2890c62-06cb-41c4-96d5-cb49970e12f3","system_id":"levelo_inurba_marseille","lat":43.305706,"lon":5.365654,"is_reserved":false,"is_disabled":false,"rental_uris":{"android":"levelo://app?vid=b2890c62-06cb-41c4-96d5-cb49970e12f3","ios":"levelo://app?vid=b2890c62-06cb-41c4-96d5-cb49970e12f3"},"vehicle_type_id":"4","last_reported":1700849327,"current_range_meters":18000,"station_id":"ce4bgs12rcd13ifvqcag","pricing_plan_id":"free"},{"bike_id":"0e3a20c0-fbe4-4be1-8a70-167c2d1fc9f6","system_id":"levelo_inurba_marseille","lat":43.30529,"lon":5.3657,"is_reserved":false,"is_disabled":false,"rental_uris":{"android":"levelo://app?vid=0e3a20c0-fbe4-4be1-8a70-167c2d1fc9f6","ios":"levelo://app?vid=0e3a20c0-fbe4-4be1-8a70-167c2d1fc9f6"},"vehicle_type_id":"4","last_reported":1700849327,"current_range_meters":2400,"station_id":"ce4bgs12rcd13ifvqcag","pricing_plan_id":"free"},{"bike_id":"6ea7d031-e357-4619-b4d6-e2969c8a0652","system_id":"levelo_inurba_marseille","lat":43.311131,"lon":5.377651,"is_reserved":false,"is_disabled":false,"rental_uris":{"android":"levelo://app?vid=6ea7d031-e357-4619-b4d6-e2969c8a0652","ios":"levelo://app?vid=6ea7d031-e357-4619-b4d6-e2969c8a0652"},"vehicle_type_id":"4","last_reported":1700849327,"current_range_meters":31200,"station_id":"ce4bgt92rcd13ifvqcg0","pricing_plan_id":"free"},{"bike_id":"04368481-06d6-4b31-b7a1-f6c50c0270bf","system_id":"levelo_inurba_marseille","lat":43.305989,"lon":5.37225,"is_reserved":false,"is_disabled":false,"rental_uris":{"android":"levelo://app?vid=04368481-06d6-4b31-b7a1-f6c50c0270bf","ios":"levelo://app?vid=04368481-06d6-4b31-b7a1-f6c50c0270bf"},"vehicle_type_id":"4","last_reported":1700849327,"current_range_meters":20000,"station_id":"ce4bgqh2rcd13ifvqc4g","pricing_plan_id":"free"},{"bike_id":"573a870a-b6c4-429d-8587-8103772b84bc","system_id":"levelo_inurba_marseille","lat":43.30821,"lon":5.37661,"is_reserved":false,"is_disabled":false,"rental_uris":{"android":"levelo://app?vid=573a870a-b6c4-429d-8587-8103772b84bc","ios":"levelo://app?vid=573a870a-b6c4-429d-8587-8103772b84bc"},"vehicle_type_id":"4","last_reported":1700849327,"current_range_meters":8000,"station_id":"ce4bgv92rcd13ifvqcq0","pricing_plan_id":"free"},{"bike_id":"f427a2c3-6e4a-446b-ae2f-9be8aa7f4122","system_id":"levelo_inurba_marseille","lat":43.31719,"lon":5.376813,"is_reserved":false,"is_disabled":false,"rental_uris":{"android":"levelo://app?vid=f427a2c3-6e4a-446b-ae2f-9be8aa7f4122","ios":"levelo://app?vid=f427a2c3-6e4a-446b-ae2f-9be8aa7f4122"},"vehicle_type_id":"4","last_reported":1700849327,"current_range_meters":28000,"station_id":"ce4bgth2rcd13ifvqch0","pricing_plan_id":"free"},{"bike_id":"b898b018-f57d-4901-bab2-fdd15d391de9","system_id":"levelo_inurba_marseille","lat":43.317168,"lon":5.376883,"is_reserved":false,"is_disabled":false,"rental_uris":{"android":"levelo://app?vid=b898b018-f57d-4901-bab2-fdd15d391de9","ios":"levelo://app?vid=b898b018-f57d-4901-bab2-fdd15d391de9"},"vehicle_type_id":"4","last_reported":1700849327,"current_range_meters":30400,"station_id":"ce4bgth2rcd13ifvqch0","pricing_plan_id":"free"},{"bike_id":"94f8c2f4-3ab6-4eb3-a191-4021b37df02c","system_id":"levelo_inurba_marseille","lat":43.317075,"lon":5.377367,"is_reserved":false,"is_disabled":false,"rental_uris":{"android":"levelo://app?vid=94f8c2f4-3ab6-4eb3-a191-4021b37df02c","ios":"levelo://app?vid=94f8c2f4-3ab6-4eb3-a191-4021b37df02c"},"vehicle_type_id":"4","last_reported":1700849327,"current_range_meters":16000,"station_id":"ce4bgth2rcd13ifvqch0","pricing_plan_id":"free"},{"bike_id":"801a5cab-6c4a-4660-a14c-64dca1bef785","system_id":"levelo_inurba_marseille","lat":43.317075,"lon":5.377367,"is_reserved":false,"is_disabled":false,"rental_uris":{"android":"levelo://app?vid=801a5cab-6c4a-4660-a14c-64dca1bef785","ios":"levelo://app?vid=801a5cab-6c4a-4660-a14c-64dca1bef785"},"vehicle_type_id":"4","last_reported":1700849327,"current_range_meters":19200,"station_id":"ce4bgth2rcd13ifvqch0","pricing_plan_id":"free"},{"bike_id":"07cbee22-4a9f-4e1e-bed4-5cb1bd73290b","system_id":"levelo_inurba_marseille","lat":43.30272,"lon":5.36906,"is_reserved":false,"is_disabled":false,"rental_uris":{"android":"levelo://app?vid=07cbee22-4a9f-4e1e-bed4-5cb1bd73290b","ios":"levelo://app?vid=07cbee22-4a9f-4e1e-bed4-5cb1bd73290b"},"vehicle_type_id":"4","last_reported":1700849327,"current_range_meters":20000,"station_id":"","pricing_plan_id":"free"},{"bike_id":"40651570-2caa-481e-83f2-ed9b577fc84a","system_id":"levelo_inurba_marseille","lat":43.323139,"lon":5.374563,"is_reserved":false,"is_disabled":false,"rental_uris":{"android":"levelo://app?vid=40651570-2caa-481e-83f2-ed9b577fc84a","ios":"levelo://app?vid=40651570-2caa-481e-83f2-ed9b577fc84a"},"vehicle_type_id":"4","last_reported":1700849327,"current_range_meters":12800,"station_id":"","pricing_plan_id":"free"},{"bike_id":"a9c6e95c-00aa-4b0d-9609-55d5ea79f33a","system_id":"levelo_inurba_marseille","lat":43.304606,"lon":5.379026,"is_reserved":false,"is_disabled":false,"rental_uris":{"android":"levelo://app?vid=a9c6e95c-00aa-4b0d-9609-55d5ea79f33a","ios":"levelo://app?vid=a9c6e95c-00aa-4b0d-9609-55d5ea79f33a"},"vehicle_type_id":"4","last_reported":1700849327,"current_range_meters":28000,"station_id":"ce4bgup2rcd13ifvqcn0","pricing_plan_id":"free"},{"bike_id":"1f7fbd6a-8222-4f9d-9e0b-9bfe5ae3c679","system_id":"levelo_inurba_marseille","lat":43.304606,"lon":5.379026,"is_reserved":false,"is_disabled":false,"rental_uris":{"android":"levelo://app?vid=1f7fbd6a-8222-4f9d-9e0b-9bfe5ae3c679","ios":"levelo://app?vid=1f7fbd6a-8222-4f9d-9e0b-9bfe5ae3c679"},"vehicle_type_id":"4","last_reported":1700849327,"current_range_meters":21600,"station_id":"ce4bgup2rcd13ifvqcn0","pricing_plan_id":"free"},{"bike_id":"d799e697-56bf-4c66-aeda-03840d60d8da","system_id":"levelo_inurba_marseille","lat":43.304606,"lon":5.379026,"is_reserved":false,"is_disabled":false,"rental_uris":{"android":"levelo://app?vid=d799e697-56bf-4c66-aeda-03840d60d8da","ios":"levelo://app?vid=d799e697-56bf-4c66-aeda-03840d60d8da"},"vehicle_type_id":"4","last_reported":1700849327,"current_range_meters":2400,"station_id":"ce4bgup2rcd13ifvqcn0","pricing_plan_id":"free"},{"bike_id":"35af0623-6a79-46a0-85c8-0147055a50a7","system_id":"levelo_inurba_marseille","lat":43.302784,"lon":5.377158,"is_reserved":false,"is_disabled":false,"rental_uris":{"android":"levelo://app?vid=35af0623-6a79-46a0-85c8-0147055a50a7","ios":"levelo://app?vid=35af0623-6a79-46a0-85c8-0147055a50a7"},"vehicle_type_id":"4","last_reported":1700849327,"current_range_meters":7200,"station_id":"ce4bguh2rcd13ifvqcj0","pricing_plan_id":"free"},{"bike_id":"b0a0be01-b06a-4d0c-b276-a77156cf99b4","system_id":"levelo_inurba_marseille","lat":43.302784,"lon":5.377158,"is_reserved":false,"is_disabled":false,"rental_uris":{"android":"levelo://app?vid=b0a0be01-b06a-4d0c-b276-a77156cf99b4","ios":"levelo://app?vid=b0a0be01-b06a-4d0c-b276-a77156cf99b4"},"vehicle_type_id":"4","last_reported":1700849327,"current_range_meters":6800,"station_id":"ce4bguh2rcd13ifvqcj0","pricing_plan_id":"free"},{"bike_id":"0db55695-7d51-4d5b-b67f-a0d749fa9f8a","system_id":"levelo_inurba_marseille","lat":43.301429,"lon":5.37413,"is_reserved":false,"is_disabled":false,"rental_uris":{"android":"levelo://app?vid=0db55695-7d51-4d5b-b67f-a0d749fa9f8a","ios":"levelo://app?vid=0db55695-7d51-4d5b-b67f-a0d749fa9f8a"},"vehicle_type_id":"4","last_reported":1700849327,"current_range_meters":14000,"station_id":"ce4bgs92rcd13ifvqcc0","pricing_plan_id":"free"},{"bike_id":"79cab56b-dd51-4ddd-b36a-4d474c8ae8ac","system_id":"levelo_inurba_marseille","lat":43.302784,"lon":5.377158,"is_reserved":false,"is_disabled":false,"rental_uris":{"android":"levelo://app?vid=79cab56b-dd51-4ddd-b36a-4d474c8ae8ac","ios":"levelo://app?vid=79cab56b-dd51-4ddd-b36a-4d474c8ae8ac"},"vehicle_type_id":"4","last_reported":1700849327,"current_range_meters":12400,"station_id":"ce4bguh2rcd13ifvqcj0","pricing_plan_id":"free"},{"bike_id":"8d790f2b-f9e4-4852-9bd6-9e806cdf9533","system_id":"levelo_inurba_marseille","lat":43.301429,"lon":5.37413,"is_reserved":false,"is_disabled":false,"rental_uris":{"android":"levelo://app?vid=8d790f2b-f9e4-4852-9bd6-9e806cdf9533","ios":"levelo://app?vid=8d790f2b-f9e4-4852-9bd6-9e806cdf9533"},"vehicle_type_id":"4","last_reported":1700849327,"current_range_meters":14400,"station_id":"ce4bgs92rcd13ifvqcc0","pricing_plan_id":"free"},{"bike_id":"a3e4389c-1958-48e4-a867-d7bc4511147f","system_id":"levelo_inurba_marseille","lat":43.301429,"lon":5.37413,"is_reserved":false,"is_disabled":false,"rental_uris":{"android":"levelo://app?vid=a3e4389c-1958-48e4-a867-d7bc4511147f","ios":"levelo://app?vid=a3e4389c-1958-48e4-a867-d7bc4511147f"},"vehicle_type_id":"4","last_reported":1700849327,"current_range_meters":16400,"station_id":"ce4bgs92rcd13ifvqcc0","pricing_plan_id":"free"},{"bike_id":"6b93a2a8-0b64-4c4f-9291-bd08ab3ac611","system_id":"levelo_inurba_marseille","lat":43.313669,"lon":5.384949,"is_reserved":false,"is_disabled":false,"rental_uris":{"android":"levelo://app?vid=6b93a2a8-0b64-4c4f-9291-bd08ab3ac611","ios":"levelo://app?vid=6b93a2a8-0b64-4c4f-9291-bd08ab3ac611"},"vehicle_type_id":"4","last_reported":1700849327,"current_range_meters":16000,"station_id":"ce4bgt92rcd13ifvqcf0","pricing_plan_id":"free"},{"bike_id":"bcf0a0a6-2ce9-4867-9f17-bfb7b870b05c","system_id":"levelo_inurba_marseille","lat":43.313614,"lon":5.385038,"is_reserved":false,"is_disabled":false,"rental_uris":{"android":"levelo://app?vid=bcf0a0a6-2ce9-4867-9f17-bfb7b870b05c","ios":"levelo://app?vid=bcf0a0a6-2ce9-4867-9f17-bfb7b870b05c"},"vehicle_type_id":"4","last_reported":1700849327,"current_range_meters":23600,"station_id":"ce4bgt92rcd13ifvqcf0","pricing_plan_id":"free"},{"bike_id":"8eccf735-9f13-4d66-89ee-04a7bf59eec2","system_id":"levelo_inurba_marseille","lat":43.32074,"lon":5.38305,"is_reserved":false,"is_disabled":false,"rental_uris":{"android":"levelo://app?vid=8eccf735-9f13-4d66-89ee-04a7bf59eec2","ios":"levelo://app?vid=8eccf735-9f13-4d66-89ee-04a7bf59eec2"},"vehicle_type_id":"4","last_reported":1700849327,"current_range_meters":31200,"station_id":"","pricing_plan_id":"free"},{"bike_id":"3b17b22b-0b96-48ef-b32b-090b18379b0e","system_id":"levelo_inurba_marseille","lat":43.305364,"lon":5.384119,"is_reserved":false,"is_disabled":false,"rental_uris":{"android":"levelo://app?vid=3b17b22b-0b96-48ef-b32b-090b18379b0e","ios":"levelo://app?vid=3b17b22b-0b96-48ef-b32b-090b18379b0e"},"vehicle_type_id":"4","last_reported":1700849327,"current_range_meters":10800,"station_id":"ce4bgg92rcd13ifvqb30","pricing_plan_id":"free"},{"bike_id":"ee2de906-3686-4494-b771-24bbac258c97","system_id":"levelo_inurba_marseille","lat":43.305364,"lon":5.384119,"is_reserved":false,"is_disabled":false,"rental_uris":{"android":"levelo://app?vid=ee2de906-3686-4494-b771-24bbac258c97","ios":"levelo://app?vid=ee2de906-3686-4494-b771-24bbac258c97"},"vehicle_type_id":"4","last_reported":1700849327,"current_range_meters":18000,"station_id":"ce4bgg92rcd13ifvqb30","pricing_plan_id":"free"},{"bike_id":"1baaaadf-ec60-4dcd-a71c-dc5ec92bfca6","system_id":"levelo_inurba_marseille","lat":43.305364,"lon":5.384119,"is_reserved":false,"is_disabled":false,"rental_uris":{"android":"levelo://app?vid=1baaaadf-ec60-4dcd-a71c-dc5ec92bfca6","ios":"levelo://app?vid=1baaaadf-ec60-4dcd-a71c-dc5ec92bfca6"},"vehicle_type_id":"4","last_reported":1700849327,"current_range_meters":22800,"station_id":"ce4bgg92rcd13ifvqb30","pricing_plan_id":"free"},{"bike_id":"1a40b385-68ba-48d5-a1cb-20965b2f9dc5","system_id":"levelo_inurba_marseille","lat":43.320413,"lon":5.384199,"is_reserved":false,"is_disabled":false,"rental_uris":{"android":"levelo://app?vid=1a40b385-68ba-48d5-a1cb-20965b2f9dc5","ios":"levelo://app?vid=1a40b385-68ba-48d5-a1cb-20965b2f9dc5"},"vehicle_type_id":"4","last_reported":1700849327,"current_range_meters":800,"station_id":"","pricing_plan_id":"free"},{"bike_id":"c4c0f35b-9e27-4a97-b29b-a54de764bbd7","system_id":"levelo_inurba_marseille","lat":43.31176,"lon":5.387175,"is_reserved":false,"is_disabled":false,"rental_uris":{"android":"levelo://app?vid=c4c0f35b-9e27-4a97-b29b-a54de764bbd7","ios":"levelo://app?vid=c4c0f35b-9e27-4a97-b29b-a54de764bbd7"},"vehicle_type_id":"4","last_reported":1700849327,"current_range_meters":31200,"station_id":"ce4bgv12rcd13ifvqcp0","pricing_plan_id":"free"},{"bike_id":"57f07daa-f979-41b2-bf81-49ff7a829b2a","system_id":"levelo_inurba_marseille","lat":43.32289,"lon":5.38252,"is_reserved":false,"is_disabled":false,"rental_uris":{"android":"levelo://app?vid=57f07daa-f979-41b2-bf81-49ff7a829b2a","ios":"levelo://app?vid=57f07daa-f979-41b2-bf81-49ff7a829b2a"},"vehicle_type_id":"4","last_reported":1700849327,"current_range_meters":31200,"station_id":"ce4bhr12rcd13ifvqhqg","pricing_plan_id":"free"},{"bike_id":"7c93eefc-07fe-4a09-b42f-ee22a5cbe113","system_id":"levelo_inurba_marseille","lat":43.322872,"lon":5.382756,"is_reserved":false,"is_disabled":false,"rental_uris":{"android":"levelo://app?vid=7c93eefc-07fe-4a09-b42f-ee22a5cbe113","ios":"levelo://app?vid=7c93eefc-07fe-4a09-b42f-ee22a5cbe113"},"vehicle_type_id":"4","last_reported":1700849327,"current_range_meters":10800,"station_id":"ce4bhr12rcd13ifvqhqg","pricing_plan_id":"free"},{"bike_id":"f8736720-e966-45a6-a671-1e9c1c844291","system_id":"levelo_inurba_marseille","lat":43.322872,"lon":5.382756,"is_reserved":false,"is_disabled":false,"rental_uris":{"android":"levelo://app?vid=f8736720-e966-45a6-a671-1e9c1c844291","ios":"levelo://app?vid=f8736720-e966-45a6-a671-1e9c1c844291"},"vehicle_type_id":"4","last_reported":1700849327,"current_range_meters":13200,"station_id":"ce4bhr12rcd13ifvqhqg","pricing_plan_id":"free"},{"bike_id":"4625bec6-4af3-44cb-8699-3acd72afd201","system_id":"levelo_inurba_marseille","lat":43.322872,"lon":5.382756,"is_reserved":false,"is_disabled":false,"rental_uris":{"android":"levelo://app?vid=4625bec6-4af3-44cb-8699-3acd72afd201","ios":"levelo://app?vid=4625bec6-4af3-44cb-8699-3acd72afd201"},"vehicle_type_id":"4","last_reported":1700849327,"current_range_meters":17600,"station_id":"ce4bhr12rcd13ifvqhqg","pricing_plan_id":"free"},{"bike_id":"f9ce9c3f-5ce0-442f-986c-f1a94ddddd6a","system_id":"levelo_inurba_marseille","lat":43.322872,"lon":5.382756,"is_reserved":false,"is_disabled":false,"rental_uris":{"android":"levelo://app?vid=f9ce9c3f-5ce0-442f-986c-f1a94ddddd6a","ios":"levelo://app?vid=f9ce9c3f-5ce0-442f-986c-f1a94ddddd6a"},"vehicle_type_id":"4","last_reported":1700849327,"current_range_meters":30400,"station_id":"ce4bhr12rcd13ifvqhqg","pricing_plan_id":"free"},{"bike_id":"22dcc355-c6c3-4950-90c4-bd4abfc9165f","system_id":"levelo_inurba_marseille","lat":43.328371,"lon":5.366909,"is_reserved":false,"is_disabled":false,"rental_uris":{"android":"levelo://app?vid=22dcc355-c6c3-4950-90c4-bd4abfc9165f","ios":"levelo://app?vid=22dcc355-c6c3-4950-90c4-bd4abfc9165f"},"vehicle_type_id":"4","last_reported":1700849327,"current_range_meters":0,"station_id":"ce4bhs92rcd13ifvqi0g","pricing_plan_id":"free"},{"bike_id":"4d7509f5-9559-42ca-a60d-bef9e80f0981","system_id":"levelo_inurba_marseille","lat":43.2996,"lon":5.37923,"is_reserved":false,"is_disabled":false,"rental_uris":{"android":"levelo://app?vid=4d7509f5-9559-42ca-a60d-bef9e80f0981","ios":"levelo://app?vid=4d7509f5-9559-42ca-a60d-bef9e80f0981"},"vehicle_type_id":"4","last_reported":1700849327,"current_range_meters":0,"station_id":"","pricing_plan_id":"free"},{"bike_id":"d3044786-2431-4822-96f8-37c5954b4b4c","system_id":"levelo_inurba_marseille","lat":43.3234,"lon":5.38328,"is_reserved":false,"is_disabled":false,"rental_uris":{"android":"levelo://app?vid=d3044786-2431-4822-96f8-37c5954b4b4c","ios":"levelo://app?vid=d3044786-2431-4822-96f8-37c5954b4b4c"},"vehicle_type_id":"4","last_reported":1700849327,"current_range_meters":29600,"station_id":"","pricing_plan_id":"free"},{"bike_id":"a4603200-a956-4b27-bc52-8f22fc00857f","system_id":"levelo_inurba_marseille","lat":43.29602,"lon":5.36826,"is_reserved":false,"is_disabled":false,"rental_uris":{"android":"levelo://app?vid=a4603200-a956-4b27-bc52-8f22fc00857f","ios":"levelo://app?vid=a4603200-a956-4b27-bc52-8f22fc00857f"},"vehicle_type_id":"4","last_reported":1700849327,"current_range_meters":12800,"station_id":"","pricing_plan_id":"free"},{"bike_id":"89fd0941-c5e4-41dd-a544-86b5f9138b42","system_id":"levelo_inurba_marseille","lat":43.296129,"lon":5.370777,"is_reserved":false,"is_disabled":false,"rental_uris":{"android":"levelo://app?vid=89fd0941-c5e4-41dd-a544-86b5f9138b42","ios":"levelo://app?vid=89fd0941-c5e4-41dd-a544-86b5f9138b42"},"vehicle_type_id":"4","last_reported":1700849327,"current_range_meters":5600,"station_id":"ce4bgnh2rcd13ifvqc0g","pricing_plan_id":"free"},{"bike_id":"656459cf-498f-49a1-bb2c-2df4545f7de5","system_id":"levelo_inurba_marseille","lat":43.317579,"lon":5.390223,"is_reserved":false,"is_disabled":false,"rental_uris":{"android":"levelo://app?vid=656459cf-498f-49a1-bb2c-2df4545f7de5","ios":"levelo://app?vid=656459cf-498f-49a1-bb2c-2df4545f7de5"},"vehicle_type_id":"4","last_reported":1700849327,"current_range_meters":30800,"station_id":"ce4bhqp2rcd13ifvqhng","pricing_plan_id":"free"},{"bike_id":"ff822368-00cb-4dfa-8697-959628b6f270","system_id":"levelo_inurba_marseille","lat":43.329969,"lon":5.359331,"is_reserved":false,"is_disabled":false,"rental_uris":{"android":"levelo://app?vid=ff822368-00cb-4dfa-8697-959628b6f270","ios":"levelo://app?vid=ff822368-00cb-4dfa-8697-959628b6f270"},"vehicle_type_id":"4","last_reported":1700849327,"current_range_meters":20800,"station_id":"","pricing_plan_id":"free"},{"bike_id":"701bd46f-22f3-4e6a-988b-a86377b71d2b","system_id":"levelo_inurba_marseille","lat":43.29979,"lon":5.385033,"is_reserved":false,"is_disabled":false,"rental_uris":{"android":"levelo://app?vid=701bd46f-22f3-4e6a-988b-a86377b71d2b","ios":"levelo://app?vid=701bd46f-22f3-4e6a-988b-a86377b71d2b"},"vehicle_type_id":"4","last_reported":1700849327,"current_range_meters":0,"station_id":"ce4bgj92rcd13ifvqbd0","pricing_plan_id":"free"},{"bike_id":"6b621983-5e9e-42f7-990d-ad5a093820d2","system_id":"levelo_inurba_marseille","lat":43.293801,"lon":5.363066,"is_reserved":false,"is_disabled":false,"rental_uris":{"android":"levelo://app?vid=6b621983-5e9e-42f7-990d-ad5a093820d2","ios":"levelo://app?vid=6b621983-5e9e-42f7-990d-ad5a093820d2"},"vehicle_type_id":"4","last_reported":1700849327,"current_range_meters":3600,"station_id":"","pricing_plan_id":"free"},{"bike_id":"7537aa19-9ed0-4116-a4ef-1e1f7b78da90","system_id":"levelo_inurba_marseille","lat":43.29602,"lon":5.381084,"is_reserved":false,"is_disabled":false,"rental_uris":{"android":"levelo://app?vid=7537aa19-9ed0-4116-a4ef-1e1f7b78da90","ios":"levelo://app?vid=7537aa19-9ed0-4116-a4ef-1e1f7b78da90"},"vehicle_type_id":"4","last_reported":1700849327,"current_range_meters":21600,"station_id":"ce4bgl12rcd13ifvqbo0","pricing_plan_id":"free"},{"bike_id":"3a296380-dcc4-4bfc-982b-4e702f1ae1f6","system_id":"levelo_inurba_marseille","lat":43.293259,"lon":5.371586,"is_reserved":false,"is_disabled":false,"rental_uris":{"android":"levelo://app?vid=3a296380-dcc4-4bfc-982b-4e702f1ae1f6","ios":"levelo://app?vid=3a296380-dcc4-4bfc-982b-4e702f1ae1f6"},"vehicle_type_id":"4","last_reported":1700849327,"current_range_meters":21600,"station_id":"ce4bgh92rcd13ifvqb40","pricing_plan_id":"free"},{"bike_id":"a0188fd3-7244-446c-88ab-7a8891b3f940","system_id":"levelo_inurba_marseille","lat":43.293259,"lon":5.371586,"is_reserved":false,"is_disabled":false,"rental_uris":{"android":"levelo://app?vid=a0188fd3-7244-446c-88ab-7a8891b3f940","ios":"levelo://app?vid=a0188fd3-7244-446c-88ab-7a8891b3f940"},"vehicle_type_id":"4","last_reported":1700849327,"current_range_meters":14800,"station_id":"ce4bgh92rcd13ifvqb40","pricing_plan_id":"free"},{"bike_id":"d5635feb-d9dc-434a-8591-addd3277c4e1","system_id":"levelo_inurba_marseille","lat":43.293259,"lon":5.371586,"is_reserved":false,"is_disabled":false,"rental_uris":{"android":"levelo://app?vid=d5635feb-d9dc-434a-8591-addd3277c4e1","ios":"levelo://app?vid=d5635feb-d9dc-434a-8591-addd3277c4e1"},"vehicle_type_id":"4","last_reported":1700849327,"current_range_meters":16800,"station_id":"ce4bgh92rcd13ifvqb40","pricing_plan_id":"free"},{"bike_id":"a1073663-9bda-4589-8987-1ca9bf2b1858","system_id":"levelo_inurba_marseille","lat":43.292311,"lon":5.360731,"is_reserved":false,"is_disabled":false,"rental_uris":{"android":"levelo://app?vid=a1073663-9bda-4589-8987-1ca9bf2b1858","ios":"levelo://app?vid=a1073663-9bda-4589-8987-1ca9bf2b1858"},"vehicle_type_id":"4","last_reported":1700849327,"current_range_meters":26400,"station_id":"ce4bhbh2rcd13ifvqeqg","pricing_plan_id":"free"},{"bike_id":"178eb7c0-6a62-4bf1-a56f-a82d0e477eba","system_id":"levelo_inurba_marseille","lat":43.333643,"lon":5.360177,"is_reserved":false,"is_disabled":false,"rental_uris":{"android":"levelo://app?vid=178eb7c0-6a62-4bf1-a56f-a82d0e477eba","ios":"levelo://app?vid=178eb7c0-6a62-4bf1-a56f-a82d0e477eba"},"vehicle_type_id":"4","last_reported":1700849327,"current_range_meters":4000,"station_id":"","pricing_plan_id":"free"},{"bike_id":"09ddcefd-fe4a-48f3-a7fb-19d25a785d43","system_id":"levelo_inurba_marseille","lat":43.313291,"lon":5.396838,"is_reserved":false,"is_disabled":false,"rental_uris":{"android":"levelo://app?vid=09ddcefd-fe4a-48f3-a7fb-19d25a785d43","ios":"levelo://app?vid=09ddcefd-fe4a-48f3-a7fb-19d25a785d43"},"vehicle_type_id":"4","last_reported":1700849327,"current_range_meters":24000,"station_id":"ce4bgvp2rcd13ifvqcu0","pricing_plan_id":"free"},{"bike_id":"187ee882-ab18-47a3-84ad-447a905d2b50","system_id":"levelo_inurba_marseille","lat":43.29198,"lon":5.37658,"is_reserved":false,"is_disabled":false,"rental_uris":{"android":"levelo://app?vid=187ee882-ab18-47a3-84ad-447a905d2b50","ios":"levelo://app?vid=187ee882-ab18-47a3-84ad-447a905d2b50"},"vehicle_type_id":"4","last_reported":1700849327,"current_range_meters":11600,"station_id":"","pricing_plan_id":"free"},{"bike_id":"1d10a1b1-d55f-4279-928a-9c6858f32ca9","system_id":"levelo_inurba_marseille","lat":43.33211,"lon":5.38112,"is_reserved":false,"is_disabled":false,"rental_uris":{"android":"levelo://app?vid=1d10a1b1-d55f-4279-928a-9c6858f32ca9","ios":"levelo://app?vid=1d10a1b1-d55f-4279-928a-9c6858f32ca9"},"vehicle_type_id":"4","last_reported":1700849327,"current_range_meters":0,"station_id":"","pricing_plan_id":"free"},{"bike_id":"da304543-d782-486a-83f4-a24a2158365d","system_id":"levelo_inurba_marseille","lat":43.290779,"lon":5.371482,"is_reserved":false,"is_disabled":false,"rental_uris":{"android":"levelo://app?vid=da304543-d782-486a-83f4-a24a2158365d","ios":"levelo://app?vid=da304543-d782-486a-83f4-a24a2158365d"},"vehicle_type_id":"4","last_reported":1700849327,"current_range_meters":2800,"station_id":"ce4bh5p2rcd13ifvqe4g","pricing_plan_id":"free"},{"bike_id":"58a8a295-249f-4aa3-842b-1548b2d274a0","system_id":"levelo_inurba_marseille","lat":43.290779,"lon":5.371482,"is_reserved":false,"is_disabled":false,"rental_uris":{"android":"levelo://app?vid=58a8a295-249f-4aa3-842b-1548b2d274a0","ios":"levelo://app?vid=58a8a295-249f-4aa3-842b-1548b2d274a0"},"vehicle_type_id":"4","last_reported":1700849327,"current_range_meters":800,"station_id":"ce4bh5p2rcd13ifvqe4g","pricing_plan_id":"free"},{"bike_id":"b106bd43-903b-48da-ad20-824ea83870b6","system_id":"levelo_inurba_marseille","lat":43.297684,"lon":5.390534,"is_reserved":false,"is_disabled":false,"rental_uris":{"android":"levelo://app?vid=b106bd43-903b-48da-ad20-824ea83870b6","ios":"levelo://app?vid=b106bd43-903b-48da-ad20-824ea83870b6"},"vehicle_type_id":"4","last_reported":1700849327,"current_range_meters":24800,"station_id":"","pricing_plan_id":"free"},{"bike_id":"2f80a996-e186-4190-abfd-b9c2b34a8918","system_id":"levelo_inurba_marseille","lat":43.290624,"lon":5.359245,"is_reserved":false,"is_disabled":false,"rental_uris":{"android":"levelo://app?vid=2f80a996-e186-4190-abfd-b9c2b34a8918","ios":"levelo://app?vid=2f80a996-e186-4190-abfd-b9c2b34a8918"},"vehicle_type_id":"4","last_reported":1700849327,"current_range_meters":19200,"station_id":"ce4bha92rcd13ifvqeg0","pricing_plan_id":"free"},{"bike_id":"d19a43d2-a5e2-4c19-a9ed-3397730084b0","system_id":"levelo_inurba_marseille","lat":43.294153,"lon":5.386305,"is_reserved":false,"is_disabled":false,"rental_uris":{"android":"levelo://app?vid=d19a43d2-a5e2-4c19-a9ed-3397730084b0","ios":"levelo://app?vid=d19a43d2-a5e2-4c19-a9ed-3397730084b0"},"vehicle_type_id":"4","last_reported":1700849327,"current_range_meters":0,"station_id":"ce4bh2h2rcd13ifvqdh0","pricing_plan_id":"free"},{"bike_id":"ce7f4ea5-daa2-4fb2-b432-55efd5655219","system_id":"levelo_inurba_marseille","lat":43.289184,"lon":5.366408,"is_reserved":false,"is_disabled":false,"rental_uris":{"android":"levelo://app?vid=ce7f4ea5-daa2-4fb2-b432-55efd5655219","ios":"levelo://app?vid=ce7f4ea5-daa2-4fb2-b432-55efd5655219"},"vehicle_type_id":"4","last_reported":1700849327,"current_range_meters":15200,"station_id":"ce4bhap2rcd13ifvqek0","pricing_plan_id":"free"},{"bike_id":"95ab03a7-e238-4eb2-85b4-97bd807d5afb","system_id":"levelo_inurba_marseille","lat":43.292642,"lon":5.384254,"is_reserved":false,"is_disabled":false,"rental_uris":{"android":"levelo://app?vid=95ab03a7-e238-4eb2-85b4-97bd807d5afb","ios":"levelo://app?vid=95ab03a7-e238-4eb2-85b4-97bd807d5afb"},"vehicle_type_id":"4","last_reported":1700849327,"current_range_meters":5600,"station_id":"ce4bh692rcd13ifvqea0","pricing_plan_id":"free"},{"bike_id":"a4bf1db7-6af6-4709-827a-9e04cc8311ae","system_id":"levelo_inurba_marseille","lat":43.304253,"lon":5.397571,"is_reserved":false,"is_disabled":false,"rental_uris":{"android":"levelo://app?vid=a4bf1db7-6af6-4709-827a-9e04cc8311ae","ios":"levelo://app?vid=a4bf1db7-6af6-4709-827a-9e04cc8311ae"},"vehicle_type_id":"4","last_reported":1700849327,"current_range_meters":23200,"station_id":"ce4bh092rcd13ifvqd20","pricing_plan_id":"free"},{"bike_id":"3297b0bb-783c-4217-95c3-87e0b4ddd542","system_id":"levelo_inurba_marseille","lat":43.290779,"lon":5.371482,"is_reserved":false,"is_disabled":false,"rental_uris":{"android":"levelo://app?vid=3297b0bb-783c-4217-95c3-87e0b4ddd542","ios":"levelo://app?vid=3297b0bb-783c-4217-95c3-87e0b4ddd542"},"vehicle_type_id":"4","last_reported":1700849327,"current_range_meters":3200,"station_id":"ce4bh5p2rcd13ifvqe4g","pricing_plan_id":"free"},{"bike_id":"5c3fd063-6e60-465e-b6e4-aa32bd226fd0","system_id":"levelo_inurba_marseille","lat":43.33038,"lon":5.38922,"is_reserved":false,"is_disabled":false,"rental_uris":{"android":"levelo://app?vid=5c3fd063-6e60-465e-b6e4-aa32bd226fd0","ios":"levelo://app?vid=5c3fd063-6e60-465e-b6e4-aa32bd226fd0"},"vehicle_type_id":"4","last_reported":1700849327,"current_range_meters":27200,"station_id":"ce4bhr92rcd13ifvqhrg","pricing_plan_id":"free"},{"bike_id":"dcfa5beb-5254-4131-bcb8-f980b1a0bd68","system_id":"levelo_inurba_marseille","lat":43.33043,"lon":5.38915,"is_reserved":false,"is_disabled":false,"rental_uris":{"android":"levelo://app?vid=dcfa5beb-5254-4131-bcb8-f980b1a0bd68","ios":"levelo://app?vid=dcfa5beb-5254-4131-bcb8-f980b1a0bd68"},"vehicle_type_id":"4","last_reported":1700849327,"current_range_meters":28800,"station_id":"ce4bhr92rcd13ifvqhrg","pricing_plan_id":"free"},{"bike_id":"4f080e12-3419-4997-bd7e-b716121d92a2","system_id":"levelo_inurba_marseille","lat":43.330397,"lon":5.3892,"is_reserved":false,"is_disabled":false,"rental_uris":{"android":"levelo://app?vid=4f080e12-3419-4997-bd7e-b716121d92a2","ios":"levelo://app?vid=4f080e12-3419-4997-bd7e-b716121d92a2"},"vehicle_type_id":"4","last_reported":1700849327,"current_range_meters":0,"station_id":"ce4bhr92rcd13ifvqhrg","pricing_plan_id":"free"},{"bike_id":"f831f511-0588-455a-be62-7206d9fc21cb","system_id":"levelo_inurba_marseille","lat":43.33044,"lon":5.38922,"is_reserved":false,"is_disabled":false,"rental_uris":{"android":"levelo://app?vid=f831f511-0588-455a-be62-7206d9fc21cb","ios":"levelo://app?vid=f831f511-0588-455a-be62-7206d9fc21cb"},"vehicle_type_id":"4","last_reported":1700849327,"current_range_meters":24400,"station_id":"ce4bhr92rcd13ifvqhrg","pricing_plan_id":"free"},{"bike_id":"061c32d7-835f-43bb-8ad8-c3bb6a8151c2","system_id":"levelo_inurba_marseille","lat":43.33045,"lon":5.38921,"is_reserved":false,"is_disabled":false,"rental_uris":{"android":"levelo://app?vid=061c32d7-835f-43bb-8ad8-c3bb6a8151c2","ios":"levelo://app?vid=061c32d7-835f-43bb-8ad8-c3bb6a8151c2"},"vehicle_type_id":"4","last_reported":1700849327,"current_range_meters":30400,"station_id":"ce4bhr92rcd13ifvqhrg","pricing_plan_id":"free"},{"bike_id":"4039b36c-1d01-4c87-bd47-c6aa5b44e483","system_id":"levelo_inurba_marseille","lat":43.289743,"lon":5.378304,"is_reserved":false,"is_disabled":false,"rental_uris":{"android":"levelo://app?vid=4039b36c-1d01-4c87-bd47-c6aa5b44e483","ios":"levelo://app?vid=4039b36c-1d01-4c87-bd47-c6aa5b44e483"},"vehicle_type_id":"4","last_reported":1700849327,"current_range_meters":10800,"station_id":"ce4bh9p2rcd13ifvqed0","pricing_plan_id":"free"},{"bike_id":"2465e41c-e78d-4129-b1c2-5cf8e6f7597b","system_id":"levelo_inurba_marseille","lat":43.309697,"lon":5.401296,"is_reserved":false,"is_disabled":false,"rental_uris":{"android":"levelo://app?vid=2465e41c-e78d-4129-b1c2-5cf8e6f7597b","ios":"levelo://app?vid=2465e41c-e78d-4129-b1c2-5cf8e6f7597b"},"vehicle_type_id":"4","last_reported":1700849327,"current_range_meters":23200,"station_id":"ce4bgvp2rcd13ifvqct0","pricing_plan_id":"free"},{"bike_id":"cedb40ec-9e11-4ad5-a160-ec1a0c90a709","system_id":"levelo_inurba_marseille","lat":43.33742,"lon":5.37471,"is_reserved":false,"is_disabled":false,"rental_uris":{"android":"levelo://app?vid=cedb40ec-9e11-4ad5-a160-ec1a0c90a709","ios":"levelo://app?vid=cedb40ec-9e11-4ad5-a160-ec1a0c90a709"},"vehicle_type_id":"4","last_reported":1700849327,"current_range_meters":23600,"station_id":"","pricing_plan_id":"free"},{"bike_id":"778a2633-1636-4247-87b9-b84df0c4f3cb","system_id":"levelo_inurba_marseille","lat":43.301117,"lon":5.398795,"is_reserved":false,"is_disabled":false,"rental_uris":{"android":"levelo://app?vid=778a2633-1636-4247-87b9-b84df0c4f3cb","ios":"levelo://app?vid=778a2633-1636-4247-87b9-b84df0c4f3cb"},"vehicle_type_id":"4","last_reported":1700849327,"current_range_meters":22400,"station_id":"ce4bh0h2rcd13ifvqd40","pricing_plan_id":"free"},{"bike_id":"5f6247e6-3223-4327-9c90-f2d4ee149281","system_id":"levelo_inurba_marseille","lat":43.306412,"lon":5.401035,"is_reserved":false,"is_disabled":false,"rental_uris":{"android":"levelo://app?vid=5f6247e6-3223-4327-9c90-f2d4ee149281","ios":"levelo://app?vid=5f6247e6-3223-4327-9c90-f2d4ee149281"},"vehicle_type_id":"4","last_reported":1700849327,"current_range_meters":8400,"station_id":"ce4bh112rcd13ifvqda0","pricing_plan_id":"free"},{"bike_id":"2236b2ba-3efd-4e66-be8b-bf71ca0e49c4","system_id":"levelo_inurba_marseille","lat":43.337849,"lon":5.37434,"is_reserved":false,"is_disabled":false,"rental_uris":{"android":"levelo://app?vid=2236b2ba-3efd-4e66-be8b-bf71ca0e49c4","ios":"levelo://app?vid=2236b2ba-3efd-4e66-be8b-bf71ca0e49c4"},"vehicle_type_id":"4","last_reported":1700849327,"current_range_meters":23600,"station_id":"","pricing_plan_id":"free"},{"bike_id":"af1d0693-a5a1-4b7d-9e41-7401e72bad2d","system_id":"levelo_inurba_marseille","lat":43.28727,"lon":5.36078,"is_reserved":false,"is_disabled":false,"rental_uris":{"android":"levelo://app?vid=af1d0693-a5a1-4b7d-9e41-7401e72bad2d","ios":"levelo://app?vid=af1d0693-a5a1-4b7d-9e41-7401e72bad2d"},"vehicle_type_id":"4","last_reported":1700849327,"current_range_meters":6400,"station_id":"cki0cbj6b192h4jlfktg","pricing_plan_id":"free"},{"bike_id":"3e70bddd-7005-4b10-9770-5395eccc684c","system_id":"levelo_inurba_marseille","lat":43.28727,"lon":5.36078,"is_reserved":false,"is_disabled":false,"rental_uris":{"android":"levelo://app?vid=3e70bddd-7005-4b10-9770-5395eccc684c","ios":"levelo://app?vid=3e70bddd-7005-4b10-9770-5395eccc684c"},"vehicle_type_id":"4","last_reported":1700849327,"current_range_meters":18800,"station_id":"cki0cbj6b192h4jlfktg","pricing_plan_id":"free"},{"bike_id":"26e614ae-3870-41a6-9646-dec166df60d7","system_id":"levelo_inurba_marseille","lat":43.28727,"lon":5.36078,"is_reserved":false,"is_disabled":false,"rental_uris":{"android":"levelo://app?vid=26e614ae-3870-41a6-9646-dec166df60d7","ios":"levelo://app?vid=26e614ae-3870-41a6-9646-dec166df60d7"},"vehicle_type_id":"4","last_reported":1700849327,"current_range_meters":30000,"station_id":"cki0cbj6b192h4jlfktg","pricing_plan_id":"free"},{"bike_id":"4ab8ee9d-b60b-4792-ac21-fdeab911a605","system_id":"levelo_inurba_marseille","lat":43.2954,"lon":5.39388,"is_reserved":false,"is_disabled":false,"rental_uris":{"android":"levelo://app?vid=4ab8ee9d-b60b-4792-ac21-fdeab911a605","ios":"levelo://app?vid=4ab8ee9d-b60b-4792-ac21-fdeab911a605"},"vehicle_type_id":"4","last_reported":1700849327,"current_range_meters":0,"station_id":"ce4bh292rcd13ifvqdf0","pricing_plan_id":"free"},{"bike_id":"8c35c32b-bf47-4c31-83df-5a704eb7bfe8","system_id":"levelo_inurba_marseille","lat":43.29035,"lon":5.386425,"is_reserved":false,"is_disabled":false,"rental_uris":{"android":"levelo://app?vid=8c35c32b-bf47-4c31-83df-5a704eb7bfe8","ios":"levelo://app?vid=8c35c32b-bf47-4c31-83df-5a704eb7bfe8"},"vehicle_type_id":"4","last_reported":1700849327,"current_range_meters":4400,"station_id":"","pricing_plan_id":"free"},{"bike_id":"906743a7-082d-4101-89a9-c99b61f226d5","system_id":"levelo_inurba_marseille","lat":43.29032,"lon":5.38636,"is_reserved":false,"is_disabled":false,"rental_uris":{"android":"levelo://app?vid=906743a7-082d-4101-89a9-c99b61f226d5","ios":"levelo://app?vid=906743a7-082d-4101-89a9-c99b61f226d5"},"vehicle_type_id":"4","last_reported":1700849327,"current_range_meters":1200,"station_id":"","pricing_plan_id":"free"},{"bike_id":"d2598b91-365c-4552-98ac-d211194b61a0","system_id":"levelo_inurba_marseille","lat":43.302759,"lon":5.400793,"is_reserved":false,"is_disabled":false,"rental_uris":{"android":"levelo://app?vid=d2598b91-365c-4552-98ac-d211194b61a0","ios":"levelo://app?vid=d2598b91-365c-4552-98ac-d211194b61a0"},"vehicle_type_id":"4","last_reported":1700849327,"current_range_meters":13200,"station_id":"ce4bgvh2rcd13ifvqcs0","pricing_plan_id":"free"},{"bike_id":"4e28da71-bbae-43a6-8766-0977952626f4","system_id":"levelo_inurba_marseille","lat":43.29032,"lon":5.38649,"is_reserved":false,"is_disabled":false,"rental_uris":{"android":"levelo://app?vid=4e28da71-bbae-43a6-8766-0977952626f4","ios":"levelo://app?vid=4e28da71-bbae-43a6-8766-0977952626f4"},"vehicle_type_id":"4","last_reported":1700849327,"current_range_meters":23200,"station_id":"","pricing_plan_id":"free"},{"bike_id":"1504c115-c61c-40a2-8b77-5e7beb1c12e9","system_id":"levelo_inurba_marseille","lat":43.286062,"lon":5.370697,"is_reserved":false,"is_disabled":false,"rental_uris":{"android":"levelo://app?vid=1504c115-c61c-40a2-8b77-5e7beb1c12e9","ios":"levelo://app?vid=1504c115-c61c-40a2-8b77-5e7beb1c12e9"},"vehicle_type_id":"4","last_reported":1700849327,"current_range_meters":9600,"station_id":"ce4bht12rcd13ifvqi60","pricing_plan_id":"free"},{"bike_id":"3c8c61b4-213d-49b8-9df7-fbcdec8a31f9","system_id":"levelo_inurba_marseille","lat":43.287185,"lon":5.379373,"is_reserved":false,"is_disabled":false,"rental_uris":{"android":"levelo://app?vid=3c8c61b4-213d-49b8-9df7-fbcdec8a31f9","ios":"levelo://app?vid=3c8c61b4-213d-49b8-9df7-fbcdec8a31f9"},"vehicle_type_id":"4","last_reported":1700849327,"current_range_meters":15200,"station_id":"ce4bh9p2rcd13ifvqec0","pricing_plan_id":"free"},{"bike_id":"08b2fe5b-2200-47e6-be06-77090c305b59","system_id":"levelo_inurba_marseille","lat":43.287185,"lon":5.379373,"is_reserved":false,"is_disabled":false,"rental_uris":{"android":"levelo://app?vid=08b2fe5b-2200-47e6-be06-77090c305b59","ios":"levelo://app?vid=08b2fe5b-2200-47e6-be06-77090c305b59"},"vehicle_type_id":"4","last_reported":1700849327,"current_range_meters":2800,"station_id":"ce4bh9p2rcd13ifvqec0","pricing_plan_id":"free"},{"bike_id":"5eefcde0-3eec-406e-8cc4-db6413d70453","system_id":"levelo_inurba_marseille","lat":43.291994,"lon":5.392907,"is_reserved":false,"is_disabled":false,"rental_uris":{"android":"levelo://app?vid=5eefcde0-3eec-406e-8cc4-db6413d70453","ios":"levelo://app?vid=5eefcde0-3eec-406e-8cc4-db6413d70453"},"vehicle_type_id":"4","last_reported":1700849327,"current_range_meters":2400,"station_id":"ce4bh192rcd13ifvqdd0","pricing_plan_id":"free"},{"bike_id":"95507e88-8712-4efa-bdb1-13717452b0f6","system_id":"levelo_inurba_marseille","lat":43.294314,"lon":5.397498,"is_reserved":false,"is_disabled":false,"rental_uris":{"android":"levelo://app?vid=95507e88-8712-4efa-bdb1-13717452b0f6","ios":"levelo://app?vid=95507e88-8712-4efa-bdb1-13717452b0f6"},"vehicle_type_id":"4","last_reported":1700849327,"current_range_meters":4000,"station_id":"ce4bh3h2rcd13ifvqdo0","pricing_plan_id":"free"},{"bike_id":"c64133a3-360a-42f9-b67d-c52ce91f2b00","system_id":"levelo_inurba_marseille","lat":43.284538,"lon":5.358657,"is_reserved":false,"is_disabled":false,"rental_uris":{"android":"levelo://app?vid=c64133a3-360a-42f9-b67d-c52ce91f2b00","ios":"levelo://app?vid=c64133a3-360a-42f9-b67d-c52ce91f2b00"},"vehicle_type_id":"4","last_reported":1700849327,"current_range_meters":17200,"station_id":"ce4bhah2rcd13ifvqei0","pricing_plan_id":"free"},{"bike_id":"37ff114d-e4f2-4925-9a7a-3f82acf8890f","system_id":"levelo_inurba_marseille","lat":43.28616,"lon":5.3511,"is_reserved":false,"is_disabled":false,"rental_uris":{"android":"levelo://app?vid=37ff114d-e4f2-4925-9a7a-3f82acf8890f","ios":"levelo://app?vid=37ff114d-e4f2-4925-9a7a-3f82acf8890f"},"vehicle_type_id":"4","last_reported":1700849327,"current_range_meters":20000,"station_id":"ce4bhch2rcd13ifvqeug","pricing_plan_id":"free"},{"bike_id":"da1cfd50-26a5-40a8-b83a-eb36b86a433b","system_id":"levelo_inurba_marseille","lat":43.285848,"lon":5.350787,"is_reserved":false,"is_disabled":false,"rental_uris":{"android":"levelo://app?vid=da1cfd50-26a5-40a8-b83a-eb36b86a433b","ios":"levelo://app?vid=da1cfd50-26a5-40a8-b83a-eb36b86a433b"},"vehicle_type_id":"4","last_reported":1700849327,"current_range_meters":26000,"station_id":"ce4bhch2rcd13ifvqeug","pricing_plan_id":"free"},{"bike_id":"1fab8d7e-ff76-40fc-b898-bf48027ec930","system_id":"levelo_inurba_marseille","lat":43.285856,"lon":5.350771,"is_reserved":false,"is_disabled":false,"rental_uris":{"android":"levelo://app?vid=1fab8d7e-ff76-40fc-b898-bf48027ec930","ios":"levelo://app?vid=1fab8d7e-ff76-40fc-b898-bf48027ec930"},"vehicle_type_id":"4","last_reported":1700849327,"current_range_meters":800,"station_id":"ce4bhch2rcd13ifvqeug","pricing_plan_id":"free"},{"bike_id":"e8caa0bb-8176-445f-9f23-b711c843ed20","system_id":"levelo_inurba_marseille","lat":43.28609,"lon":5.35109,"is_reserved":false,"is_disabled":false,"rental_uris":{"android":"levelo://app?vid=e8caa0bb-8176-445f-9f23-b711c843ed20","ios":"levelo://app?vid=e8caa0bb-8176-445f-9f23-b711c843ed20"},"vehicle_type_id":"4","last_reported":1700849327,"current_range_meters":20800,"station_id":"ce4bhch2rcd13ifvqeug","pricing_plan_id":"free"},{"bike_id":"35fe95bf-267a-49c8-8bdd-406fb120bcde","system_id":"levelo_inurba_marseille","lat":43.285856,"lon":5.350771,"is_reserved":false,"is_disabled":false,"rental_uris":{"android":"levelo://app?vid=35fe95bf-267a-49c8-8bdd-406fb120bcde","ios":"levelo://app?vid=35fe95bf-267a-49c8-8bdd-406fb120bcde"},"vehicle_type_id":"4","last_reported":1700849327,"current_range_meters":4400,"station_id":"ce4bhch2rcd13ifvqeug","pricing_plan_id":"free"},{"bike_id":"947e2d74-cd20-4a22-a560-fc1b4022a240","system_id":"levelo_inurba_marseille","lat":43.283998,"lon":5.375062,"is_reserved":false,"is_disabled":false,"rental_uris":{"android":"levelo://app?vid=947e2d74-cd20-4a22-a560-fc1b4022a240","ios":"levelo://app?vid=947e2d74-cd20-4a22-a560-fc1b4022a240"},"vehicle_type_id":"4","last_reported":1700849327,"current_range_meters":8400,"station_id":"ce4bh412rcd13ifvqds0","pricing_plan_id":"free"},{"bike_id":"35ba9e78-07c1-4463-8631-23f1dc7c47e3","system_id":"levelo_inurba_marseille","lat":43.295713,"lon":5.399639,"is_reserved":false,"is_disabled":false,"rental_uris":{"android":"levelo://app?vid=35ba9e78-07c1-4463-8631-23f1dc7c47e3","ios":"levelo://app?vid=35ba9e78-07c1-4463-8631-23f1dc7c47e3"},"vehicle_type_id":"4","last_reported":1700849327,"current_range_meters":0,"station_id":"ce4bh312rcd13ifvqdj0","pricing_plan_id":"free"},{"bike_id":"f4cf22ad-b93a-4bd0-85f7-e84065af39cd","system_id":"levelo_inurba_marseille","lat":43.286595,"lon":5.386795,"is_reserved":false,"is_disabled":false,"rental_uris":{"android":"levelo://app?vid=f4cf22ad-b93a-4bd0-85f7-e84065af39cd","ios":"levelo://app?vid=f4cf22ad-b93a-4bd0-85f7-e84065af39cd"},"vehicle_type_id":"4","last_reported":1700849327,"current_range_meters":9600,"station_id":"ce4bh492rcd13ifvqdug","pricing_plan_id":"free"},{"bike_id":"ca0a8f89-f864-494e-9757-0a2ac2ab43b9","system_id":"levelo_inurba_marseille","lat":43.286595,"lon":5.386795,"is_reserved":false,"is_disabled":false,"rental_uris":{"android":"levelo://app?vid=ca0a8f89-f864-494e-9757-0a2ac2ab43b9","ios":"levelo://app?vid=ca0a8f89-f864-494e-9757-0a2ac2ab43b9"},"vehicle_type_id":"4","last_reported":1700849327,"current_range_meters":25600,"station_id":"ce4bh492rcd13ifvqdug","pricing_plan_id":"free"},{"bike_id":"75e0bbd6-e5ce-41b7-9c23-22d14ebd78d4","system_id":"levelo_inurba_marseille","lat":43.286595,"lon":5.386795,"is_reserved":false,"is_disabled":false,"rental_uris":{"android":"levelo://app?vid=75e0bbd6-e5ce-41b7-9c23-22d14ebd78d4","ios":"levelo://app?vid=75e0bbd6-e5ce-41b7-9c23-22d14ebd78d4"},"vehicle_type_id":"4","last_reported":1700849327,"current_range_meters":0,"station_id":"ce4bh492rcd13ifvqdug","pricing_plan_id":"free"},{"bike_id":"142e96e6-a82b-4d09-8358-94e26d393744","system_id":"levelo_inurba_marseille","lat":43.323464,"lon":5.406297,"is_reserved":false,"is_disabled":false,"rental_uris":{"android":"levelo://app?vid=142e96e6-a82b-4d09-8358-94e26d393744","ios":"levelo://app?vid=142e96e6-a82b-4d09-8358-94e26d393744"},"vehicle_type_id":"4","last_reported":1700849327,"current_range_meters":16000,"station_id":"ce4bhq92rcd13ifvqhjg","pricing_plan_id":"free"},{"bike_id":"fbed67cb-7d52-4e0c-8488-1d40e28e0960","system_id":"levelo_inurba_marseille","lat":43.323464,"lon":5.406297,"is_reserved":false,"is_disabled":false,"rental_uris":{"android":"levelo://app?vid=fbed67cb-7d52-4e0c-8488-1d40e28e0960","ios":"levelo://app?vid=fbed67cb-7d52-4e0c-8488-1d40e28e0960"},"vehicle_type_id":"4","last_reported":1700849327,"current_range_meters":1200,"station_id":"ce4bhq92rcd13ifvqhjg","pricing_plan_id":"free"},{"bike_id":"b6b2bf70-9354-4abf-857e-57b6333e8aa5","system_id":"levelo_inurba_marseille","lat":43.323464,"lon":5.406297,"is_reserved":false,"is_disabled":false,"rental_uris":{"android":"levelo://app?vid=b6b2bf70-9354-4abf-857e-57b6333e8aa5","ios":"levelo://app?vid=b6b2bf70-9354-4abf-857e-57b6333e8aa5"},"vehicle_type_id":"4","last_reported":1700849327,"current_range_meters":4400,"station_id":"ce4bhq92rcd13ifvqhjg","pricing_plan_id":"free"},{"bike_id":"60fb846c-95d4-493d-8ff0-fc77dde513c4","system_id":"levelo_inurba_marseille","lat":43.33735,"lon":5.39175,"is_reserved":false,"is_disabled":false,"rental_uris":{"android":"levelo://app?vid=60fb846c-95d4-493d-8ff0-fc77dde513c4","ios":"levelo://app?vid=60fb846c-95d4-493d-8ff0-fc77dde513c4"},"vehicle_type_id":"4","last_reported":1700849327,"current_range_meters":11200,"station_id":"ce4bhr92rcd13ifvqhsg","pricing_plan_id":"free"},{"bike_id":"27dd29e2-320a-4910-8517-716889a2549a","system_id":"levelo_inurba_marseille","lat":43.284793,"lon":5.384113,"is_reserved":false,"is_disabled":false,"rental_uris":{"android":"levelo://app?vid=27dd29e2-320a-4910-8517-716889a2549a","ios":"levelo://app?vid=27dd29e2-320a-4910-8517-716889a2549a"},"vehicle_type_id":"4","last_reported":1700849327,"current_range_meters":22000,"station_id":"ce4bh512rcd13ifvqe3g","pricing_plan_id":"free"},{"bike_id":"dbc777b1-b9ef-44f6-a13b-c9489c6c7142","system_id":"levelo_inurba_marseille","lat":43.284689,"lon":5.384123,"is_reserved":false,"is_disabled":false,"rental_uris":{"android":"levelo://app?vid=dbc777b1-b9ef-44f6-a13b-c9489c6c7142","ios":"levelo://app?vid=dbc777b1-b9ef-44f6-a13b-c9489c6c7142"},"vehicle_type_id":"4","last_reported":1700849327,"current_range_meters":31200,"station_id":"ce4bh512rcd13ifvqe3g","pricing_plan_id":"free"},{"bike_id":"6f5c8a8d-3647-4ba5-8609-ee92f7bb2099","system_id":"levelo_inurba_marseille","lat":43.288501,"lon":5.393087,"is_reserved":false,"is_disabled":false,"rental_uris":{"android":"levelo://app?vid=6f5c8a8d-3647-4ba5-8609-ee92f7bb2099","ios":"levelo://app?vid=6f5c8a8d-3647-4ba5-8609-ee92f7bb2099"},"vehicle_type_id":"4","last_reported":1700849327,"current_range_meters":14800,"station_id":"ce4bh2p2rcd13ifvqdi0","pricing_plan_id":"free"},{"bike_id":"ca1f4393-50bf-4103-9666-dd68325e9880","system_id":"levelo_inurba_marseille","lat":43.283494,"lon":5.380945,"is_reserved":false,"is_disabled":false,"rental_uris":{"android":"levelo://app?vid=ca1f4393-50bf-4103-9666-dd68325e9880","ios":"levelo://app?vid=ca1f4393-50bf-4103-9666-dd68325e9880"},"vehicle_type_id":"4","last_reported":1700849327,"current_range_meters":5200,"station_id":"ce4bh412rcd13ifvqdr0","pricing_plan_id":"free"},{"bike_id":"ecac38ce-b0cd-4f78-ac93-92ba9a0e8c8a","system_id":"levelo_inurba_marseille","lat":43.283494,"lon":5.380945,"is_reserved":false,"is_disabled":false,"rental_uris":{"android":"levelo://app?vid=ecac38ce-b0cd-4f78-ac93-92ba9a0e8c8a","ios":"levelo://app?vid=ecac38ce-b0cd-4f78-ac93-92ba9a0e8c8a"},"vehicle_type_id":"4","last_reported":1700849327,"current_range_meters":8800,"station_id":"ce4bh412rcd13ifvqdr0","pricing_plan_id":"free"},{"bike_id":"131884d1-3181-47a1-9298-e34d35ba0298","system_id":"levelo_inurba_marseille","lat":43.284219,"lon":5.3497,"is_reserved":false,"is_disabled":false,"rental_uris":{"android":"levelo://app?vid=131884d1-3181-47a1-9298-e34d35ba0298","ios":"levelo://app?vid=131884d1-3181-47a1-9298-e34d35ba0298"},"vehicle_type_id":"4","last_reported":1700849327,"current_range_meters":20400,"station_id":"ce4bhbh2rcd13ifvqepg","pricing_plan_id":"free"},{"bike_id":"01a18b74-9b0b-437a-b19c-2cd59def4a89","system_id":"levelo_inurba_marseille","lat":43.284217,"lon":5.349697,"is_reserved":false,"is_disabled":false,"rental_uris":{"android":"levelo://app?vid=01a18b74-9b0b-437a-b19c-2cd59def4a89","ios":"levelo://app?vid=01a18b74-9b0b-437a-b19c-2cd59def4a89"},"vehicle_type_id":"4","last_reported":1700849327,"current_range_meters":17600,"station_id":"ce4bhbh2rcd13ifvqepg","pricing_plan_id":"free"},{"bike_id":"f29d170a-5580-4179-bca4-d39e41a2b79f","system_id":"levelo_inurba_marseille","lat":43.284217,"lon":5.349697,"is_reserved":false,"is_disabled":false,"rental_uris":{"android":"levelo://app?vid=f29d170a-5580-4179-bca4-d39e41a2b79f","ios":"levelo://app?vid=f29d170a-5580-4179-bca4-d39e41a2b79f"},"vehicle_type_id":"4","last_reported":1700849327,"current_range_meters":26400,"station_id":"ce4bhbh2rcd13ifvqepg","pricing_plan_id":"free"},{"bike_id":"e2284003-4e46-4e0a-93e7-73d05c3666d9","system_id":"levelo_inurba_marseille","lat":43.33508,"lon":5.397755,"is_reserved":false,"is_disabled":false,"rental_uris":{"android":"levelo://app?vid=e2284003-4e46-4e0a-93e7-73d05c3666d9","ios":"levelo://app?vid=e2284003-4e46-4e0a-93e7-73d05c3666d9"},"vehicle_type_id":"4","last_reported":1700849327,"current_range_meters":25600,"station_id":"","pricing_plan_id":"free"},{"bike_id":"b4bc6c19-20e6-4b1e-b989-40d4ba171e93","system_id":"levelo_inurba_marseille","lat":43.335266,"lon":5.397585,"is_reserved":false,"is_disabled":false,"rental_uris":{"android":"levelo://app?vid=b4bc6c19-20e6-4b1e-b989-40d4ba171e93","ios":"levelo://app?vid=b4bc6c19-20e6-4b1e-b989-40d4ba171e93"},"vehicle_type_id":"4","last_reported":1700849327,"current_range_meters":7200,"station_id":"","pricing_plan_id":"free"},{"bike_id":"3b44a4c1-40ac-4f50-806a-4279ed57bca6","system_id":"levelo_inurba_marseille","lat":43.282754,"lon":5.350519,"is_reserved":false,"is_disabled":false,"rental_uris":{"android":"levelo://app?vid=3b44a4c1-40ac-4f50-806a-4279ed57bca6","ios":"levelo://app?vid=3b44a4c1-40ac-4f50-806a-4279ed57bca6"},"vehicle_type_id":"4","last_reported":1700849327,"current_range_meters":23600,"station_id":"ce4bhbp2rcd13ifvqerg","pricing_plan_id":"free"},{"bike_id":"83682c74-365e-4498-9f22-246f10277f8d","system_id":"levelo_inurba_marseille","lat":43.29043,"lon":5.39958,"is_reserved":false,"is_disabled":false,"rental_uris":{"android":"levelo://app?vid=83682c74-365e-4498-9f22-246f10277f8d","ios":"levelo://app?vid=83682c74-365e-4498-9f22-246f10277f8d"},"vehicle_type_id":"4","last_reported":1700849327,"current_range_meters":0,"station_id":"ce4bh392rcd13ifvqdm0","pricing_plan_id":"free"},{"bike_id":"6a34765e-e4b9-4e84-8ce7-1b8429bd3677","system_id":"levelo_inurba_marseille","lat":43.296263,"lon":5.40601,"is_reserved":false,"is_disabled":false,"rental_uris":{"android":"levelo://app?vid=6a34765e-e4b9-4e84-8ce7-1b8429bd3677","ios":"levelo://app?vid=6a34765e-e4b9-4e84-8ce7-1b8429bd3677"},"vehicle_type_id":"4","last_reported":1700849327,"current_range_meters":12400,"station_id":"ce4bh0h2rcd13ifvqd60","pricing_plan_id":"free"},{"bike_id":"a438062f-0a9f-4ed2-9b91-1dbba292fab1","system_id":"levelo_inurba_marseille","lat":43.284462,"lon":5.392121,"is_reserved":false,"is_disabled":false,"rental_uris":{"android":"levelo://app?vid=a438062f-0a9f-4ed2-9b91-1dbba292fab1","ios":"levelo://app?vid=a438062f-0a9f-4ed2-9b91-1dbba292fab1"},"vehicle_type_id":"4","last_reported":1700849327,"current_range_meters":22400,"station_id":"ce4bhoh2rcd13ifvqh5g","pricing_plan_id":"free"},{"bike_id":"a0ff1202-2b3e-42c6-9093-8324978b4a68","system_id":"levelo_inurba_marseille","lat":43.28043,"lon":5.353915,"is_reserved":false,"is_disabled":false,"rental_uris":{"android":"levelo://app?vid=a0ff1202-2b3e-42c6-9093-8324978b4a68","ios":"levelo://app?vid=a0ff1202-2b3e-42c6-9093-8324978b4a68"},"vehicle_type_id":"4","last_reported":1700849327,"current_range_meters":7600,"station_id":"ce4bhbh2rcd13ifvqepg","pricing_plan_id":"free"},{"bike_id":"a534731a-e981-4413-9883-7b27a8b408f8","system_id":"levelo_inurba_marseille","lat":43.284462,"lon":5.392121,"is_reserved":false,"is_disabled":false,"rental_uris":{"android":"levelo://app?vid=a534731a-e981-4413-9883-7b27a8b408f8","ios":"levelo://app?vid=a534731a-e981-4413-9883-7b27a8b408f8"},"vehicle_type_id":"4","last_reported":1700849327,"current_range_meters":21200,"station_id":"ce4bhoh2rcd13ifvqh5g","pricing_plan_id":"free"},{"bike_id":"a61f331c-3443-4c6d-bc7d-4f25774ce038","system_id":"levelo_inurba_marseille","lat":43.285742,"lon":5.395004,"is_reserved":false,"is_disabled":false,"rental_uris":{"android":"levelo://app?vid=a61f331c-3443-4c6d-bc7d-4f25774ce038","ios":"levelo://app?vid=a61f331c-3443-4c6d-bc7d-4f25774ce038"},"vehicle_type_id":"4","last_reported":1700849327,"current_range_meters":15200,"station_id":"ce4bh292rcd13ifvqdg0","pricing_plan_id":"free"},{"bike_id":"926465e2-01c5-4483-a2ca-bd4b4a73a9fb","system_id":"levelo_inurba_marseille","lat":43.304188,"lon":5.412904,"is_reserved":false,"is_disabled":false,"rental_uris":{"android":"levelo://app?vid=926465e2-01c5-4483-a2ca-bd4b4a73a9fb","ios":"levelo://app?vid=926465e2-01c5-4483-a2ca-bd4b4a73a9fb"},"vehicle_type_id":"4","last_reported":1700849327,"current_range_meters":3600,"station_id":"ce4bhop2rcd13ifvqh8g","pricing_plan_id":"free"},{"bike_id":"e8997d84-e9e0-4aaa-a76a-c6d2af7271c7","system_id":"levelo_inurba_marseille","lat":43.298835,"lon":5.410163,"is_reserved":false,"is_disabled":false,"rental_uris":{"android":"levelo://app?vid=e8997d84-e9e0-4aaa-a76a-c6d2af7271c7","ios":"levelo://app?vid=e8997d84-e9e0-4aaa-a76a-c6d2af7271c7"},"vehicle_type_id":"4","last_reported":1700849327,"current_range_meters":0,"station_id":"","pricing_plan_id":"free"},{"bike_id":"13dd969c-35ee-464d-9446-118e5956bd84","system_id":"levelo_inurba_marseille","lat":43.279742,"lon":5.38744,"is_reserved":false,"is_disabled":false,"rental_uris":{"android":"levelo://app?vid=13dd969c-35ee-464d-9446-118e5956bd84","ios":"levelo://app?vid=13dd969c-35ee-464d-9446-118e5956bd84"},"vehicle_type_id":"4","last_reported":1700849327,"current_range_meters":0,"station_id":"ce4bhg12rcd13ifvqf80","pricing_plan_id":"free"},{"bike_id":"438ae405-91ab-4b46-8bbf-3702ddbcd60d","system_id":"levelo_inurba_marseille","lat":43.279742,"lon":5.38744,"is_reserved":false,"is_disabled":false,"rental_uris":{"android":"levelo://app?vid=438ae405-91ab-4b46-8bbf-3702ddbcd60d","ios":"levelo://app?vid=438ae405-91ab-4b46-8bbf-3702ddbcd60d"},"vehicle_type_id":"4","last_reported":1700849327,"current_range_meters":3600,"station_id":"ce4bhg12rcd13ifvqf80","pricing_plan_id":"free"},{"bike_id":"82e457ca-da13-48f5-a2e6-6647ecd9275e","system_id":"levelo_inurba_marseille","lat":43.29258,"lon":5.40905,"is_reserved":false,"is_disabled":false,"rental_uris":{"android":"levelo://app?vid=82e457ca-da13-48f5-a2e6-6647ecd9275e","ios":"levelo://app?vid=82e457ca-da13-48f5-a2e6-6647ecd9275e"},"vehicle_type_id":"4","last_reported":1700849327,"current_range_meters":800,"station_id":"ce4bh192rcd13ifvqdc0","pricing_plan_id":"free"},{"bike_id":"e2a0ea41-9c47-4707-9832-da74f9fb79a2","system_id":"levelo_inurba_marseille","lat":43.280784,"lon":5.396622,"is_reserved":false,"is_disabled":false,"rental_uris":{"android":"levelo://app?vid=e2a0ea41-9c47-4707-9832-da74f9fb79a2","ios":"levelo://app?vid=e2a0ea41-9c47-4707-9832-da74f9fb79a2"},"vehicle_type_id":"4","last_reported":1700849327,"current_range_meters":20800,"station_id":"ce4bho12rcd13ifvqh2g","pricing_plan_id":"free"},{"bike_id":"505bc0ec-0c48-4841-90f3-ca45b286b8db","system_id":"levelo_inurba_marseille","lat":43.280784,"lon":5.396622,"is_reserved":false,"is_disabled":false,"rental_uris":{"android":"levelo://app?vid=505bc0ec-0c48-4841-90f3-ca45b286b8db","ios":"levelo://app?vid=505bc0ec-0c48-4841-90f3-ca45b286b8db"},"vehicle_type_id":"4","last_reported":1700849327,"current_range_meters":25200,"station_id":"ce4bho12rcd13ifvqh2g","pricing_plan_id":"free"},{"bike_id":"46049ad0-fbe9-45b2-a4fe-3e84a702334c","system_id":"levelo_inurba_marseille","lat":43.280784,"lon":5.396622,"is_reserved":false,"is_disabled":false,"rental_uris":{"android":"levelo://app?vid=46049ad0-fbe9-45b2-a4fe-3e84a702334c","ios":"levelo://app?vid=46049ad0-fbe9-45b2-a4fe-3e84a702334c"},"vehicle_type_id":"4","last_reported":1700849327,"current_range_meters":27200,"station_id":"ce4bho12rcd13ifvqh2g","pricing_plan_id":"free"},{"bike_id":"80024bed-14a9-42be-bfa8-099ec53584a9","system_id":"levelo_inurba_marseille","lat":43.303837,"lon":5.418724,"is_reserved":false,"is_disabled":false,"rental_uris":{"android":"levelo://app?vid=80024bed-14a9-42be-bfa8-099ec53584a9","ios":"levelo://app?vid=80024bed-14a9-42be-bfa8-099ec53584a9"},"vehicle_type_id":"4","last_reported":1700849327,"current_range_meters":10000,"station_id":"ce4bhop2rcd13ifvqh7g","pricing_plan_id":"free"},{"bike_id":"9850b649-b7b5-4b68-9466-1b8fd5392307","system_id":"levelo_inurba_marseille","lat":43.30354,"lon":5.41882,"is_reserved":false,"is_disabled":false,"rental_uris":{"android":"levelo://app?vid=9850b649-b7b5-4b68-9466-1b8fd5392307","ios":"levelo://app?vid=9850b649-b7b5-4b68-9466-1b8fd5392307"},"vehicle_type_id":"4","last_reported":1700849327,"current_range_meters":8400,"station_id":"ce4bhop2rcd13ifvqh7g","pricing_plan_id":"free"},{"bike_id":"7311761d-0058-48ac-86e1-48a518af315f","system_id":"levelo_inurba_marseille","lat":43.275625,"lon":5.384392,"is_reserved":false,"is_disabled":false,"rental_uris":{"android":"levelo://app?vid=7311761d-0058-48ac-86e1-48a518af315f","ios":"levelo://app?vid=7311761d-0058-48ac-86e1-48a518af315f"},"vehicle_type_id":"4","last_reported":1700849327,"current_range_meters":4800,"station_id":"ce4bhh92rcd13ifvqfi0","pricing_plan_id":"free"},{"bike_id":"4e4b61a0-18e8-4f8e-852d-b0373c9e215e","system_id":"levelo_inurba_marseille","lat":43.27999,"lon":5.4001,"is_reserved":false,"is_disabled":false,"rental_uris":{"android":"levelo://app?vid=4e4b61a0-18e8-4f8e-852d-b0373c9e215e","ios":"levelo://app?vid=4e4b61a0-18e8-4f8e-852d-b0373c9e215e"},"vehicle_type_id":"4","last_reported":1700849327,"current_range_meters":16800,"station_id":"ce4bho92rcd13ifvqh4g","pricing_plan_id":"free"},{"bike_id":"fc8a50fc-7fb9-4b58-ae5e-3658ebaf4b71","system_id":"levelo_inurba_marseille","lat":43.34181,"lon":5.40612,"is_reserved":false,"is_disabled":false,"rental_uris":{"android":"levelo://app?vid=fc8a50fc-7fb9-4b58-ae5e-3658ebaf4b71","ios":"levelo://app?vid=fc8a50fc-7fb9-4b58-ae5e-3658ebaf4b71"},"vehicle_type_id":"4","last_reported":1700849327,"current_range_meters":800,"station_id":"","pricing_plan_id":"free"},{"bike_id":"4fcce5d9-071c-4eeb-873d-e2b8131ef5b1","system_id":"levelo_inurba_marseille","lat":43.317121,"lon":5.423936,"is_reserved":false,"is_disabled":false,"rental_uris":{"android":"levelo://app?vid=4fcce5d9-071c-4eeb-873d-e2b8131ef5b1","ios":"levelo://app?vid=4fcce5d9-071c-4eeb-873d-e2b8131ef5b1"},"vehicle_type_id":"4","last_reported":1700849327,"current_range_meters":3200,"station_id":"ce4bhp92rcd13ifvqhbg","pricing_plan_id":"free"},{"bike_id":"f566f230-9a04-452e-be74-97dcc134388a","system_id":"levelo_inurba_marseille","lat":43.304096,"lon":5.425385,"is_reserved":false,"is_disabled":false,"rental_uris":{"android":"levelo://app?vid=f566f230-9a04-452e-be74-97dcc134388a","ios":"levelo://app?vid=f566f230-9a04-452e-be74-97dcc134388a"},"vehicle_type_id":"4","last_reported":1700849327,"current_range_meters":0,"station_id":"ce4bhoh2rcd13ifvqh6g","pricing_plan_id":"free"},{"bike_id":"ec3d03da-78c9-4642-80f1-267154a38bb0","system_id":"levelo_inurba_marseille","lat":43.29557,"lon":5.4229,"is_reserved":false,"is_disabled":false,"rental_uris":{"android":"levelo://app?vid=ec3d03da-78c9-4642-80f1-267154a38bb0","ios":"levelo://app?vid=ec3d03da-78c9-4642-80f1-267154a38bb0"},"vehicle_type_id":"4","last_reported":1700849327,"current_range_meters":6400,"station_id":"ce4bhph2rcd13ifvqhdg","pricing_plan_id":"free"},{"bike_id":"c0e7c921-2f34-4325-9644-1440c95e11ac","system_id":"levelo_inurba_marseille","lat":43.295523,"lon":5.422926,"is_reserved":false,"is_disabled":false,"rental_uris":{"android":"levelo://app?vid=c0e7c921-2f34-4325-9644-1440c95e11ac","ios":"levelo://app?vid=c0e7c921-2f34-4325-9644-1440c95e11ac"},"vehicle_type_id":"4","last_reported":1700849327,"current_range_meters":8400,"station_id":"ce4bhph2rcd13ifvqhdg","pricing_plan_id":"free"},{"bike_id":"9830637b-caf5-476f-85b7-c02033487ff2","system_id":"levelo_inurba_marseille","lat":43.295511,"lon":5.422926,"is_reserved":false,"is_disabled":false,"rental_uris":{"android":"levelo://app?vid=9830637b-caf5-476f-85b7-c02033487ff2","ios":"levelo://app?vid=9830637b-caf5-476f-85b7-c02033487ff2"},"vehicle_type_id":"4","last_reported":1700849327,"current_range_meters":22800,"station_id":"ce4bhph2rcd13ifvqhdg","pricing_plan_id":"free"},{"bike_id":"6301e110-2505-45cd-9516-38e60cd9c4ff","system_id":"levelo_inurba_marseille","lat":43.272116,"lon":5.391747,"is_reserved":false,"is_disabled":false,"rental_uris":{"android":"levelo://app?vid=6301e110-2505-45cd-9516-38e60cd9c4ff","ios":"levelo://app?vid=6301e110-2505-45cd-9516-38e60cd9c4ff"},"vehicle_type_id":"4","last_reported":1700849327,"current_range_meters":3200,"station_id":"ce4bhhp2rcd13ifvqfm0","pricing_plan_id":"free"},{"bike_id":"dcdfdcd0-a215-407d-bacf-59dfdacc1510","system_id":"levelo_inurba_marseille","lat":43.278128,"lon":5.407195,"is_reserved":false,"is_disabled":false,"rental_uris":{"android":"levelo://app?vid=dcdfdcd0-a215-407d-bacf-59dfdacc1510","ios":"levelo://app?vid=dcdfdcd0-a215-407d-bacf-59dfdacc1510"},"vehicle_type_id":"4","last_reported":1700849327,"current_range_meters":0,"station_id":"ce4bhnh2rcd13ifvqgtg","pricing_plan_id":"free"},{"bike_id":"c99c6bb4-ba40-4aa1-8adb-e4f264770cd6","system_id":"levelo_inurba_marseille","lat":43.278143,"lon":5.407243,"is_reserved":false,"is_disabled":false,"rental_uris":{"android":"levelo://app?vid=c99c6bb4-ba40-4aa1-8adb-e4f264770cd6","ios":"levelo://app?vid=c99c6bb4-ba40-4aa1-8adb-e4f264770cd6"},"vehicle_type_id":"4","last_reported":1700849327,"current_range_meters":0,"station_id":"ce4bhnh2rcd13ifvqgtg","pricing_plan_id":"free"},{"bike_id":"bd44f93e-6624-415b-a634-bedaddf941d4","system_id":"levelo_inurba_marseille","lat":43.269467,"lon":5.386439,"is_reserved":false,"is_disabled":false,"rental_uris":{"android":"levelo://app?vid=bd44f93e-6624-415b-a634-bedaddf941d4","ios":"levelo://app?vid=bd44f93e-6624-415b-a634-bedaddf941d4"},"vehicle_type_id":"4","last_reported":1700849327,"current_range_meters":5600,"station_id":"ce4bhh92rcd13ifvqfh0","pricing_plan_id":"free"},{"bike_id":"28e8ce00-6b21-4e06-9930-c7c4408cc650","system_id":"levelo_inurba_marseille","lat":43.326174,"lon":5.430584,"is_reserved":false,"is_disabled":false,"rental_uris":{"android":"levelo://app?vid=28e8ce00-6b21-4e06-9930-c7c4408cc650","ios":"levelo://app?vid=28e8ce00-6b21-4e06-9930-c7c4408cc650"},"vehicle_type_id":"4","last_reported":1700849327,"current_range_meters":0,"station_id":"","pricing_plan_id":"free"},{"bike_id":"e7b368e8-9edf-4ac8-acef-7e9558d427aa","system_id":"levelo_inurba_marseille","lat":43.32592,"lon":5.43072,"is_reserved":false,"is_disabled":false,"rental_uris":{"android":"levelo://app?vid=e7b368e8-9edf-4ac8-acef-7e9558d427aa","ios":"levelo://app?vid=e7b368e8-9edf-4ac8-acef-7e9558d427aa"},"vehicle_type_id":"4","last_reported":1700849327,"current_range_meters":0,"station_id":"","pricing_plan_id":"free"},{"bike_id":"d67469ee-5362-4610-a163-fe05ae3cf4f7","system_id":"levelo_inurba_marseille","lat":43.32588,"lon":5.43074,"is_reserved":false,"is_disabled":false,"rental_uris":{"android":"levelo://app?vid=d67469ee-5362-4610-a163-fe05ae3cf4f7","ios":"levelo://app?vid=d67469ee-5362-4610-a163-fe05ae3cf4f7"},"vehicle_type_id":"4","last_reported":1700849327,"current_range_meters":12800,"station_id":"","pricing_plan_id":"free"},{"bike_id":"ed30d6a1-b23a-49e5-9c83-5546be72a734","system_id":"levelo_inurba_marseille","lat":43.3259,"lon":5.43075,"is_reserved":false,"is_disabled":false,"rental_uris":{"android":"levelo://app?vid=ed30d6a1-b23a-49e5-9c83-5546be72a734","ios":"levelo://app?vid=ed30d6a1-b23a-49e5-9c83-5546be72a734"},"vehicle_type_id":"4","last_reported":1700849327,"current_range_meters":24400,"station_id":"","pricing_plan_id":"free"},{"bike_id":"f23d8119-b478-4639-98c5-6883279f9f84","system_id":"levelo_inurba_marseille","lat":43.32596,"lon":5.43075,"is_reserved":false,"is_disabled":false,"rental_uris":{"android":"levelo://app?vid=f23d8119-b478-4639-98c5-6883279f9f84","ios":"levelo://app?vid=f23d8119-b478-4639-98c5-6883279f9f84"},"vehicle_type_id":"4","last_reported":1700849327,"current_range_meters":29600,"station_id":"","pricing_plan_id":"free"},{"bike_id":"c85f7616-3a9e-47a4-ae16-28a03e51ab4f","system_id":"levelo_inurba_marseille","lat":43.29142,"lon":5.42694,"is_reserved":false,"is_disabled":false,"rental_uris":{"android":"levelo://app?vid=c85f7616-3a9e-47a4-ae16-28a03e51ab4f","ios":"levelo://app?vid=c85f7616-3a9e-47a4-ae16-28a03e51ab4f"},"vehicle_type_id":"4","last_reported":1700849327,"current_range_meters":8800,"station_id":"","pricing_plan_id":"free"},{"bike_id":"d960234a-9c15-4696-bd94-b5109fc28040","system_id":"levelo_inurba_marseille","lat":43.265714,"lon":5.372891,"is_reserved":false,"is_disabled":false,"rental_uris":{"android":"levelo://app?vid=d960234a-9c15-4696-bd94-b5109fc28040","ios":"levelo://app?vid=d960234a-9c15-4696-bd94-b5109fc28040"},"vehicle_type_id":"4","last_reported":1700849327,"current_range_meters":16800,"station_id":"ce4bhg12rcd13ifvqf70","pricing_plan_id":"free"},{"bike_id":"2b5f0b27-ae58-4e9e-bd76-c585f78e8a73","system_id":"levelo_inurba_marseille","lat":43.26386,"lon":5.37454,"is_reserved":false,"is_disabled":false,"rental_uris":{"android":"levelo://app?vid=2b5f0b27-ae58-4e9e-bd76-c585f78e8a73","ios":"levelo://app?vid=2b5f0b27-ae58-4e9e-bd76-c585f78e8a73"},"vehicle_type_id":"4","last_reported":1700849327,"current_range_meters":14000,"station_id":"","pricing_plan_id":"free"},{"bike_id":"70463576-b446-411d-b3ef-9f48f4cf5a5e","system_id":"levelo_inurba_marseille","lat":43.265569,"lon":5.390047,"is_reserved":false,"is_disabled":false,"rental_uris":{"android":"levelo://app?vid=70463576-b446-411d-b3ef-9f48f4cf5a5e","ios":"levelo://app?vid=70463576-b446-411d-b3ef-9f48f4cf5a5e"},"vehicle_type_id":"4","last_reported":1700849327,"current_range_meters":5600,"station_id":"ce4bhe12rcd13ifvqf30","pricing_plan_id":"free"},{"bike_id":"4a71b939-1f4c-4f6a-9735-874a00d1c488","system_id":"levelo_inurba_marseille","lat":43.26573,"lon":5.39017,"is_reserved":false,"is_disabled":false,"rental_uris":{"android":"levelo://app?vid=4a71b939-1f4c-4f6a-9735-874a00d1c488","ios":"levelo://app?vid=4a71b939-1f4c-4f6a-9735-874a00d1c488"},"vehicle_type_id":"4","last_reported":1700849327,"current_range_meters":0,"station_id":"ce4bhe12rcd13ifvqf30","pricing_plan_id":"free"},{"bike_id":"8bb5fb4c-f033-472d-9384-8c187d29c15f","system_id":"levelo_inurba_marseille","lat":43.308051,"lon":5.43527,"is_reserved":false,"is_disabled":false,"rental_uris":{"android":"levelo://app?vid=8bb5fb4c-f033-472d-9384-8c187d29c15f","ios":"levelo://app?vid=8bb5fb4c-f033-472d-9384-8c187d29c15f"},"vehicle_type_id":"4","last_reported":1700849327,"current_range_meters":31600,"station_id":"ce4bhph2rcd13ifvqheg","pricing_plan_id":"free"},{"bike_id":"a6cf9b04-855d-4dc5-9c72-ce4a8e5bbb9c","system_id":"levelo_inurba_marseille","lat":43.31714,"lon":5.43695,"is_reserved":false,"is_disabled":false,"rental_uris":{"android":"levelo://app?vid=a6cf9b04-855d-4dc5-9c72-ce4a8e5bbb9c","ios":"levelo://app?vid=a6cf9b04-855d-4dc5-9c72-ce4a8e5bbb9c"},"vehicle_type_id":"4","last_reported":1700849327,"current_range_meters":2000,"station_id":"ce4bhp92rcd13ifvqhcg","pricing_plan_id":"free"},{"bike_id":"2f057b81-6fc8-4570-8186-e577abd426a5","system_id":"levelo_inurba_marseille","lat":43.262012,"lon":5.379307,"is_reserved":false,"is_disabled":false,"rental_uris":{"android":"levelo://app?vid=2f057b81-6fc8-4570-8186-e577abd426a5","ios":"levelo://app?vid=2f057b81-6fc8-4570-8186-e577abd426a5"},"vehicle_type_id":"4","last_reported":1700849327,"current_range_meters":4400,"station_id":"ce4bhjp2rcd13ifvqg90","pricing_plan_id":"free"},{"bike_id":"4d0fdd47-bdc7-4f98-927b-b6af6b4aefed","system_id":"levelo_inurba_marseille","lat":43.271368,"lon":5.40928,"is_reserved":false,"is_disabled":false,"rental_uris":{"android":"levelo://app?vid=4d0fdd47-bdc7-4f98-927b-b6af6b4aefed","ios":"levelo://app?vid=4d0fdd47-bdc7-4f98-927b-b6af6b4aefed"},"vehicle_type_id":"4","last_reported":1700849327,"current_range_meters":13200,"station_id":"ce4bhl12rcd13ifvqgf0","pricing_plan_id":"free"},{"bike_id":"d0bb53f7-f1b8-4609-a668-27efdac67f66","system_id":"levelo_inurba_marseille","lat":43.26301,"lon":5.38842,"is_reserved":false,"is_disabled":false,"rental_uris":{"android":"levelo://app?vid=d0bb53f7-f1b8-4609-a668-27efdac67f66","ios":"levelo://app?vid=d0bb53f7-f1b8-4609-a668-27efdac67f66"},"vehicle_type_id":"4","last_reported":1700849327,"current_range_meters":0,"station_id":"","pricing_plan_id":"free"},{"bike_id":"1e272c67-0721-4a45-a082-8c54474509d1","system_id":"levelo_inurba_marseille","lat":43.29901,"lon":5.436851,"is_reserved":false,"is_disabled":false,"rental_uris":{"android":"levelo://app?vid=1e272c67-0721-4a45-a082-8c54474509d1","ios":"levelo://app?vid=1e272c67-0721-4a45-a082-8c54474509d1"},"vehicle_type_id":"4","last_reported":1700849327,"current_range_meters":0,"station_id":"ce4bhpp2rcd13ifvqhfg","pricing_plan_id":"free"},{"bike_id":"7cc9cd61-c4b5-42b2-a634-fcd7e4a788b6","system_id":"levelo_inurba_marseille","lat":43.28156,"lon":5.42644,"is_reserved":false,"is_disabled":false,"rental_uris":{"android":"levelo://app?vid=7cc9cd61-c4b5-42b2-a634-fcd7e4a788b6","ios":"levelo://app?vid=7cc9cd61-c4b5-42b2-a634-fcd7e4a788b6"},"vehicle_type_id":"4","last_reported":1700849327,"current_range_meters":23600,"station_id":"ce4bhnh2rcd13ifvqgug","pricing_plan_id":"free"},{"bike_id":"2496f70c-ec07-44fb-9b04-b20b54c5e53f","system_id":"levelo_inurba_marseille","lat":43.281548,"lon":5.42643,"is_reserved":false,"is_disabled":false,"rental_uris":{"android":"levelo://app?vid=2496f70c-ec07-44fb-9b04-b20b54c5e53f","ios":"levelo://app?vid=2496f70c-ec07-44fb-9b04-b20b54c5e53f"},"vehicle_type_id":"4","last_reported":1700849327,"current_range_meters":25600,"station_id":"ce4bhnh2rcd13ifvqgug","pricing_plan_id":"free"},{"bike_id":"5b695211-cee6-414c-8d21-2a49f6b61949","system_id":"levelo_inurba_marseille","lat":43.281548,"lon":5.42643,"is_reserved":false,"is_disabled":false,"rental_uris":{"android":"levelo://app?vid=5b695211-cee6-414c-8d21-2a49f6b61949","ios":"levelo://app?vid=5b695211-cee6-414c-8d21-2a49f6b61949"},"vehicle_type_id":"4","last_reported":1700849327,"current_range_meters":14400,"station_id":"ce4bhnh2rcd13ifvqgug","pricing_plan_id":"free"},{"bike_id":"5ac38179-4d98-4b89-80f2-dc6cd474e479","system_id":"levelo_inurba_marseille","lat":43.28155,"lon":5.42647,"is_reserved":false,"is_disabled":false,"rental_uris":{"android":"levelo://app?vid=5ac38179-4d98-4b89-80f2-dc6cd474e479","ios":"levelo://app?vid=5ac38179-4d98-4b89-80f2-dc6cd474e479"},"vehicle_type_id":"4","last_reported":1700849327,"current_range_meters":20800,"station_id":"ce4bhnh2rcd13ifvqgug","pricing_plan_id":"free"},{"bike_id":"7b3a93ae-ea0c-4816-9348-8bedf5ebb05b","system_id":"levelo_inurba_marseille","lat":43.2815,"lon":5.42644,"is_reserved":false,"is_disabled":false,"rental_uris":{"android":"levelo://app?vid=7b3a93ae-ea0c-4816-9348-8bedf5ebb05b","ios":"levelo://app?vid=7b3a93ae-ea0c-4816-9348-8bedf5ebb05b"},"vehicle_type_id":"4","last_reported":1700849327,"current_range_meters":3200,"station_id":"ce4bhnh2rcd13ifvqgug","pricing_plan_id":"free"},{"bike_id":"57e79899-8ad3-45b7-9635-8cfec915ab09","system_id":"levelo_inurba_marseille","lat":43.281548,"lon":5.42643,"is_reserved":false,"is_disabled":false,"rental_uris":{"android":"levelo://app?vid=57e79899-8ad3-45b7-9635-8cfec915ab09","ios":"levelo://app?vid=57e79899-8ad3-45b7-9635-8cfec915ab09"},"vehicle_type_id":"4","last_reported":1700849327,"current_range_meters":27200,"station_id":"ce4bhnh2rcd13ifvqgug","pricing_plan_id":"free"},{"bike_id":"6181795c-d57f-4dce-a524-f46690bf06cb","system_id":"levelo_inurba_marseille","lat":43.281548,"lon":5.42643,"is_reserved":false,"is_disabled":false,"rental_uris":{"android":"levelo://app?vid=6181795c-d57f-4dce-a524-f46690bf06cb","ios":"levelo://app?vid=6181795c-d57f-4dce-a524-f46690bf06cb"},"vehicle_type_id":"4","last_reported":1700849327,"current_range_meters":28400,"station_id":"ce4bhnh2rcd13ifvqgug","pricing_plan_id":"free"},{"bike_id":"118822d8-6e1e-4e74-a488-66c0b9bac4ea","system_id":"levelo_inurba_marseille","lat":43.35786,"lon":5.32695,"is_reserved":false,"is_disabled":false,"rental_uris":{"android":"levelo://app?vid=118822d8-6e1e-4e74-a488-66c0b9bac4ea","ios":"levelo://app?vid=118822d8-6e1e-4e74-a488-66c0b9bac4ea"},"vehicle_type_id":"4","last_reported":1700849327,"current_range_meters":23200,"station_id":"","pricing_plan_id":"free"},{"bike_id":"71dea4b9-9c9a-4e26-87d3-8a6fd8579f25","system_id":"levelo_inurba_marseille","lat":43.2607,"lon":5.393983,"is_reserved":false,"is_disabled":false,"rental_uris":{"android":"levelo://app?vid=71dea4b9-9c9a-4e26-87d3-8a6fd8579f25","ios":"levelo://app?vid=71dea4b9-9c9a-4e26-87d3-8a6fd8579f25"},"vehicle_type_id":"4","last_reported":1700849327,"current_range_meters":9200,"station_id":"ce4bhh92rcd13ifvqfj0","pricing_plan_id":"free"},{"bike_id":"2f08033a-dd91-43f2-b6d1-e66a392434a9","system_id":"levelo_inurba_marseille","lat":43.275028,"lon":5.424534,"is_reserved":false,"is_disabled":false,"rental_uris":{"android":"levelo://app?vid=2f08033a-dd91-43f2-b6d1-e66a392434a9","ios":"levelo://app?vid=2f08033a-dd91-43f2-b6d1-e66a392434a9"},"vehicle_type_id":"4","last_reported":1700849327,"current_range_meters":17200,"station_id":"ce4bhn92rcd13ifvqgrg","pricing_plan_id":"free"},{"bike_id":"eafa39ae-f4c1-41f5-a9aa-872ca5c921f5","system_id":"levelo_inurba_marseille","lat":43.260909,"lon":5.397591,"is_reserved":false,"is_disabled":false,"rental_uris":{"android":"levelo://app?vid=eafa39ae-f4c1-41f5-a9aa-872ca5c921f5","ios":"levelo://app?vid=eafa39ae-f4c1-41f5-a9aa-872ca5c921f5"},"vehicle_type_id":"4","last_reported":1700849327,"current_range_meters":15600,"station_id":"ce4bhi12rcd13ifvqfq0","pricing_plan_id":"free"},{"bike_id":"e1f3699b-85ae-411d-a892-32a0a2c7567c","system_id":"levelo_inurba_marseille","lat":43.260909,"lon":5.397591,"is_reserved":false,"is_disabled":false,"rental_uris":{"android":"levelo://app?vid=e1f3699b-85ae-411d-a892-32a0a2c7567c","ios":"levelo://app?vid=e1f3699b-85ae-411d-a892-32a0a2c7567c"},"vehicle_type_id":"4","last_reported":1700849327,"current_range_meters":20800,"station_id":"ce4bhi12rcd13ifvqfq0","pricing_plan_id":"free"},{"bike_id":"e3d53e73-817f-43ab-a8eb-b0fd8cf676da","system_id":"levelo_inurba_marseille","lat":43.290327,"lon":5.375711,"is_reserved":false,"is_disabled":false,"rental_uris":{"android":"levelo://app?vid=e3d53e73-817f-43ab-a8eb-b0fd8cf676da","ios":"levelo://app?vid=e3d53e73-817f-43ab-a8eb-b0fd8cf676da"},"vehicle_type_id":"4","last_reported":1700849327,"current_range_meters":6400,"station_id":"ce4bh692rcd13ifvqe90","pricing_plan_id":"free"},{"bike_id":"ffde74f0-4d88-472d-8f4c-459bd9a997c6","system_id":"levelo_inurba_marseille","lat":43.2558,"lon":5.38235,"is_reserved":false,"is_disabled":false,"rental_uris":{"android":"levelo://app?vid=ffde74f0-4d88-472d-8f4c-459bd9a997c6","ios":"levelo://app?vid=ffde74f0-4d88-472d-8f4c-459bd9a997c6"},"vehicle_type_id":"4","last_reported":1700849327,"current_range_meters":16000,"station_id":"ce4bhih2rcd13ifvqfs0","pricing_plan_id":"free"},{"bike_id":"a533cbd7-5f62-45a1-a009-4de8fe96bbe0","system_id":"levelo_inurba_marseille","lat":43.25575,"lon":5.38237,"is_reserved":false,"is_disabled":false,"rental_uris":{"android":"levelo://app?vid=a533cbd7-5f62-45a1-a009-4de8fe96bbe0","ios":"levelo://app?vid=a533cbd7-5f62-45a1-a009-4de8fe96bbe0"},"vehicle_type_id":"4","last_reported":1700849327,"current_range_meters":10800,"station_id":"ce4bhih2rcd13ifvqfs0","pricing_plan_id":"free"},{"bike_id":"49cf8f67-d996-4067-9019-a07117a861eb","system_id":"levelo_inurba_marseille","lat":43.254947,"lon":5.376454,"is_reserved":false,"is_disabled":false,"rental_uris":{"android":"levelo://app?vid=49cf8f67-d996-4067-9019-a07117a861eb","ios":"levelo://app?vid=49cf8f67-d996-4067-9019-a07117a861eb"},"vehicle_type_id":"4","last_reported":1700849327,"current_range_meters":31600,"station_id":"ce4bhh12rcd13ifvqff0","pricing_plan_id":"free"},{"bike_id":"781c79ba-987b-41ea-bd7a-89cd886f675f","system_id":"levelo_inurba_marseille","lat":43.254947,"lon":5.376454,"is_reserved":false,"is_disabled":false,"rental_uris":{"android":"levelo://app?vid=781c79ba-987b-41ea-bd7a-89cd886f675f","ios":"levelo://app?vid=781c79ba-987b-41ea-bd7a-89cd886f675f"},"vehicle_type_id":"4","last_reported":1700849327,"current_range_meters":29600,"station_id":"ce4bhh12rcd13ifvqff0","pricing_plan_id":"free"},{"bike_id":"761c0585-d314-4547-9fd3-be1703132e70","system_id":"levelo_inurba_marseille","lat":43.254947,"lon":5.376454,"is_reserved":false,"is_disabled":false,"rental_uris":{"android":"levelo://app?vid=761c0585-d314-4547-9fd3-be1703132e70","ios":"levelo://app?vid=761c0585-d314-4547-9fd3-be1703132e70"},"vehicle_type_id":"4","last_reported":1700849327,"current_range_meters":27200,"station_id":"ce4bhh12rcd13ifvqff0","pricing_plan_id":"free"},{"bike_id":"2d65c7e7-8aaf-4ae4-92d0-613f5dce94da","system_id":"levelo_inurba_marseille","lat":43.254947,"lon":5.376454,"is_reserved":false,"is_disabled":false,"rental_uris":{"android":"levelo://app?vid=2d65c7e7-8aaf-4ae4-92d0-613f5dce94da","ios":"levelo://app?vid=2d65c7e7-8aaf-4ae4-92d0-613f5dce94da"},"vehicle_type_id":"4","last_reported":1700849327,"current_range_meters":29200,"station_id":"ce4bhh12rcd13ifvqff0","pricing_plan_id":"free"},{"bike_id":"f77c5a20-ba8a-4a60-9519-3569eebb96e4","system_id":"levelo_inurba_marseille","lat":43.254947,"lon":5.376454,"is_reserved":false,"is_disabled":false,"rental_uris":{"android":"levelo://app?vid=f77c5a20-ba8a-4a60-9519-3569eebb96e4","ios":"levelo://app?vid=f77c5a20-ba8a-4a60-9519-3569eebb96e4"},"vehicle_type_id":"4","last_reported":1700849327,"current_range_meters":31600,"station_id":"ce4bhh12rcd13ifvqff0","pricing_plan_id":"free"},{"bike_id":"6d892d9f-8bb7-466b-91e4-6b4cd5e06b20","system_id":"levelo_inurba_marseille","lat":43.373697,"lon":5.35505,"is_reserved":false,"is_disabled":false,"rental_uris":{"android":"levelo://app?vid=6d892d9f-8bb7-466b-91e4-6b4cd5e06b20","ios":"levelo://app?vid=6d892d9f-8bb7-466b-91e4-6b4cd5e06b20"},"vehicle_type_id":"4","last_reported":1700849327,"current_range_meters":28400,"station_id":"","pricing_plan_id":"free"},{"bike_id":"9f3ea0ae-761e-43b1-ad64-979f3efc0236","system_id":"levelo_inurba_marseille","lat":43.37393,"lon":5.354893,"is_reserved":false,"is_disabled":false,"rental_uris":{"android":"levelo://app?vid=9f3ea0ae-761e-43b1-ad64-979f3efc0236","ios":"levelo://app?vid=9f3ea0ae-761e-43b1-ad64-979f3efc0236"},"vehicle_type_id":"4","last_reported":1700849327,"current_range_meters":25600,"station_id":"","pricing_plan_id":"free"},{"bike_id":"e68fd892-2fee-43b1-895c-bd47b3b7d8ba","system_id":"levelo_inurba_marseille","lat":43.25724,"lon":5.4111,"is_reserved":false,"is_disabled":false,"rental_uris":{"android":"levelo://app?vid=e68fd892-2fee-43b1-895c-bd47b3b7d8ba","ios":"levelo://app?vid=e68fd892-2fee-43b1-895c-bd47b3b7d8ba"},"vehicle_type_id":"4","last_reported":1700849327,"current_range_meters":8400,"station_id":"ce4bhkp2rcd13ifvqgd0","pricing_plan_id":"free"},{"bike_id":"932b3241-dcb8-48b5-a0c3-1202f478e4ac","system_id":"levelo_inurba_marseille","lat":43.24999,"lon":5.38924,"is_reserved":false,"is_disabled":false,"rental_uris":{"android":"levelo://app?vid=932b3241-dcb8-48b5-a0c3-1202f478e4ac","ios":"levelo://app?vid=932b3241-dcb8-48b5-a0c3-1202f478e4ac"},"vehicle_type_id":"4","last_reported":1700849327,"current_range_meters":27200,"station_id":"ce4bhgp2rcd13ifvqfd0","pricing_plan_id":"free"},{"bike_id":"9bbf7764-3302-46af-ae2a-7a7a5f638e71","system_id":"levelo_inurba_marseille","lat":43.250023,"lon":5.38919,"is_reserved":false,"is_disabled":false,"rental_uris":{"android":"levelo://app?vid=9bbf7764-3302-46af-ae2a-7a7a5f638e71","ios":"levelo://app?vid=9bbf7764-3302-46af-ae2a-7a7a5f638e71"},"vehicle_type_id":"4","last_reported":1700849327,"current_range_meters":27200,"station_id":"ce4bhgp2rcd13ifvqfd0","pricing_plan_id":"free"},{"bike_id":"4f0e5786-fde1-4c44-b08c-cc35faa901f7","system_id":"levelo_inurba_marseille","lat":43.248095,"lon":5.37447,"is_reserved":false,"is_disabled":false,"rental_uris":{"android":"levelo://app?vid=4f0e5786-fde1-4c44-b08c-cc35faa901f7","ios":"levelo://app?vid=4f0e5786-fde1-4c44-b08c-cc35faa901f7"},"vehicle_type_id":"4","last_reported":1700849327,"current_range_meters":24400,"station_id":"ce4bhgh2rcd13ifvqfb0","pricing_plan_id":"free"},{"bike_id":"bf56510b-236d-4e21-95da-3995f931863f","system_id":"levelo_inurba_marseille","lat":43.2479,"lon":5.374457,"is_reserved":false,"is_disabled":false,"rental_uris":{"android":"levelo://app?vid=bf56510b-236d-4e21-95da-3995f931863f","ios":"levelo://app?vid=bf56510b-236d-4e21-95da-3995f931863f"},"vehicle_type_id":"4","last_reported":1700849327,"current_range_meters":11200,"station_id":"ce4bhgh2rcd13ifvqfb0","pricing_plan_id":"free"},{"bike_id":"38e01a34-6515-4afd-bfe2-090b66e4a4cd","system_id":"levelo_inurba_marseille","lat":43.24803,"lon":5.37456,"is_reserved":false,"is_disabled":false,"rental_uris":{"android":"levelo://app?vid=38e01a34-6515-4afd-bfe2-090b66e4a4cd","ios":"levelo://app?vid=38e01a34-6515-4afd-bfe2-090b66e4a4cd"},"vehicle_type_id":"4","last_reported":1700849327,"current_range_meters":30400,"station_id":"ce4bhgh2rcd13ifvqfb0","pricing_plan_id":"free"},{"bike_id":"fceb39cb-5ded-4b60-9b83-503bfc89a98e","system_id":"levelo_inurba_marseille","lat":43.2479,"lon":5.374457,"is_reserved":false,"is_disabled":false,"rental_uris":{"android":"levelo://app?vid=fceb39cb-5ded-4b60-9b83-503bfc89a98e","ios":"levelo://app?vid=fceb39cb-5ded-4b60-9b83-503bfc89a98e"},"vehicle_type_id":"4","last_reported":1700849327,"current_range_meters":30400,"station_id":"ce4bhgh2rcd13ifvqfb0","pricing_plan_id":"free"},{"bike_id":"22aa4b5f-e6e6-4e95-912d-c2b537af134b","system_id":"levelo_inurba_marseille","lat":43.2479,"lon":5.374457,"is_reserved":false,"is_disabled":false,"rental_uris":{"android":"levelo://app?vid=22aa4b5f-e6e6-4e95-912d-c2b537af134b","ios":"levelo://app?vid=22aa4b5f-e6e6-4e95-912d-c2b537af134b"},"vehicle_type_id":"4","last_reported":1700849327,"current_range_meters":18800,"station_id":"ce4bhgh2rcd13ifvqfb0","pricing_plan_id":"free"},{"bike_id":"4ef0619b-5e9b-4bba-b8d3-4779dab6deef","system_id":"levelo_inurba_marseille","lat":43.25087,"lon":5.3952,"is_reserved":false,"is_disabled":false,"rental_uris":{"android":"levelo://app?vid=4ef0619b-5e9b-4bba-b8d3-4779dab6deef","ios":"levelo://app?vid=4ef0619b-5e9b-4bba-b8d3-4779dab6deef"},"vehicle_type_id":"4","last_reported":1700849327,"current_range_meters":11200,"station_id":"ce4bhm12rcd13ifvqgkg","pricing_plan_id":"free"},{"bike_id":"06bdcf0e-5a9a-4369-8e9b-bf176d97953b","system_id":"levelo_inurba_marseille","lat":43.250966,"lon":5.395186,"is_reserved":false,"is_disabled":false,"rental_uris":{"android":"levelo://app?vid=06bdcf0e-5a9a-4369-8e9b-bf176d97953b","ios":"levelo://app?vid=06bdcf0e-5a9a-4369-8e9b-bf176d97953b"},"vehicle_type_id":"4","last_reported":1700849327,"current_range_meters":30400,"station_id":"ce4bhm12rcd13ifvqgkg","pricing_plan_id":"free"},{"bike_id":"42f49140-9965-47cd-8af7-3e161c2f7b46","system_id":"levelo_inurba_marseille","lat":43.250966,"lon":5.395186,"is_reserved":false,"is_disabled":false,"rental_uris":{"android":"levelo://app?vid=42f49140-9965-47cd-8af7-3e161c2f7b46","ios":"levelo://app?vid=42f49140-9965-47cd-8af7-3e161c2f7b46"},"vehicle_type_id":"4","last_reported":1700849327,"current_range_meters":27200,"station_id":"ce4bhm12rcd13ifvqgkg","pricing_plan_id":"free"},{"bike_id":"957b7262-74a7-4086-b66e-ee2415a42a5a","system_id":"levelo_inurba_marseille","lat":43.25083,"lon":5.39523,"is_reserved":false,"is_disabled":false,"rental_uris":{"android":"levelo://app?vid=957b7262-74a7-4086-b66e-ee2415a42a5a","ios":"levelo://app?vid=957b7262-74a7-4086-b66e-ee2415a42a5a"},"vehicle_type_id":"4","last_reported":1700849327,"current_range_meters":31200,"station_id":"ce4bhm12rcd13ifvqgkg","pricing_plan_id":"free"},{"bike_id":"eae92935-d2e4-436e-884b-389e9d56d41a","system_id":"levelo_inurba_marseille","lat":43.250966,"lon":5.395186,"is_reserved":false,"is_disabled":false,"rental_uris":{"android":"levelo://app?vid=eae92935-d2e4-436e-884b-389e9d56d41a","ios":"levelo://app?vid=eae92935-d2e4-436e-884b-389e9d56d41a"},"vehicle_type_id":"4","last_reported":1700849327,"current_range_meters":31200,"station_id":"ce4bhm12rcd13ifvqgkg","pricing_plan_id":"free"},{"bike_id":"f96fdfee-81b6-4faf-922d-6836d74fcd18","system_id":"levelo_inurba_marseille","lat":43.251133,"lon":5.403173,"is_reserved":false,"is_disabled":false,"rental_uris":{"android":"levelo://app?vid=f96fdfee-81b6-4faf-922d-6836d74fcd18","ios":"levelo://app?vid=f96fdfee-81b6-4faf-922d-6836d74fcd18"},"vehicle_type_id":"4","last_reported":1700849327,"current_range_meters":0,"station_id":"ce4bhlh2rcd13ifvqgig","pricing_plan_id":"free"},{"bike_id":"8452f167-0f62-4c42-af29-83a24b7b6fd0","system_id":"levelo_inurba_marseille","lat":43.246467,"lon":5.388984,"is_reserved":false,"is_disabled":false,"rental_uris":{"android":"levelo://app?vid=8452f167-0f62-4c42-af29-83a24b7b6fd0","ios":"levelo://app?vid=8452f167-0f62-4c42-af29-83a24b7b6fd0"},"vehicle_type_id":"4","last_reported":1700849327,"current_range_meters":18400,"station_id":"ce4bhg12rcd13ifvqf60","pricing_plan_id":"free"},{"bike_id":"a19fd6bd-1a3b-4ab4-8480-185778b104b2","system_id":"levelo_inurba_marseille","lat":43.243884,"lon":5.370736,"is_reserved":false,"is_disabled":false,"rental_uris":{"android":"levelo://app?vid=a19fd6bd-1a3b-4ab4-8480-185778b104b2","ios":"levelo://app?vid=a19fd6bd-1a3b-4ab4-8480-185778b104b2"},"vehicle_type_id":"4","last_reported":1700849327,"current_range_meters":27200,"station_id":"ce4bhhh2rcd13ifvqfk0","pricing_plan_id":"free"},{"bike_id":"b86fcdcd-817a-457b-93a0-66ea673028a4","system_id":"levelo_inurba_marseille","lat":43.245581,"lon":5.395069,"is_reserved":false,"is_disabled":false,"rental_uris":{"android":"levelo://app?vid=b86fcdcd-817a-457b-93a0-66ea673028a4","ios":"levelo://app?vid=b86fcdcd-817a-457b-93a0-66ea673028a4"},"vehicle_type_id":"4","last_reported":1700849327,"current_range_meters":15600,"station_id":"ce4bhlp2rcd13ifvqgjg","pricing_plan_id":"free"},{"bike_id":"bc12c707-6b63-44c2-b1b1-6b075ff44d59","system_id":"levelo_inurba_marseille","lat":43.240623,"lon":5.377642,"is_reserved":false,"is_disabled":false,"rental_uris":{"android":"levelo://app?vid=bc12c707-6b63-44c2-b1b1-6b075ff44d59","ios":"levelo://app?vid=bc12c707-6b63-44c2-b1b1-6b075ff44d59"},"vehicle_type_id":"4","last_reported":1700849327,"current_range_meters":12800,"station_id":"ce4bhnp2rcd13ifvqgvg","pricing_plan_id":"free"},{"bike_id":"27f55407-e6bf-4288-abfb-fe382a1b3dbc","system_id":"levelo_inurba_marseille","lat":43.240623,"lon":5.377642,"is_reserved":false,"is_disabled":false,"rental_uris":{"android":"levelo://app?vid=27f55407-e6bf-4288-abfb-fe382a1b3dbc","ios":"levelo://app?vid=27f55407-e6bf-4288-abfb-fe382a1b3dbc"},"vehicle_type_id":"4","last_reported":1700849327,"current_range_meters":22800,"station_id":"ce4bhnp2rcd13ifvqgvg","pricing_plan_id":"free"},{"bike_id":"15742252-95da-4bdb-8112-ce95178755dc","system_id":"levelo_inurba_marseille","lat":43.23967,"lon":5.36631,"is_reserved":false,"is_disabled":false,"rental_uris":{"android":"levelo://app?vid=15742252-95da-4bdb-8112-ce95178755dc","ios":"levelo://app?vid=15742252-95da-4bdb-8112-ce95178755dc"},"vehicle_type_id":"4","last_reported":1700849327,"current_range_meters":8800,"station_id":"ce4bhi12rcd13ifvqfp0","pricing_plan_id":"free"},{"bike_id":"3c7fa71f-eea3-4dca-beba-593f51f59c9c","system_id":"levelo_inurba_marseille","lat":43.239656,"lon":5.366368,"is_reserved":false,"is_disabled":false,"rental_uris":{"android":"levelo://app?vid=3c7fa71f-eea3-4dca-beba-593f51f59c9c","ios":"levelo://app?vid=3c7fa71f-eea3-4dca-beba-593f51f59c9c"},"vehicle_type_id":"4","last_reported":1700849327,"current_range_meters":15200,"station_id":"ce4bhi12rcd13ifvqfp0","pricing_plan_id":"free"},{"bike_id":"3ef70aed-f117-47c7-8cf5-f087e626237b","system_id":"levelo_inurba_marseille","lat":43.23963,"lon":5.36644,"is_reserved":false,"is_disabled":false,"rental_uris":{"android":"levelo://app?vid=3ef70aed-f117-47c7-8cf5-f087e626237b","ios":"levelo://app?vid=3ef70aed-f117-47c7-8cf5-f087e626237b"},"vehicle_type_id":"4","last_reported":1700849327,"current_range_meters":11200,"station_id":"ce4bhi12rcd13ifvqfp0","pricing_plan_id":"free"},{"bike_id":"56b0f98d-ecc1-47fa-bd3e-9dc560c42354","system_id":"levelo_inurba_marseille","lat":43.23963,"lon":5.36642,"is_reserved":false,"is_disabled":false,"rental_uris":{"android":"levelo://app?vid=56b0f98d-ecc1-47fa-bd3e-9dc560c42354","ios":"levelo://app?vid=56b0f98d-ecc1-47fa-bd3e-9dc560c42354"},"vehicle_type_id":"4","last_reported":1700849327,"current_range_meters":20800,"station_id":"ce4bhi12rcd13ifvqfp0","pricing_plan_id":"free"},{"bike_id":"124f1bf7-9af9-4782-a052-dd6aa38caf9d","system_id":"levelo_inurba_marseille","lat":43.239627,"lon":5.366451,"is_reserved":false,"is_disabled":false,"rental_uris":{"android":"levelo://app?vid=124f1bf7-9af9-4782-a052-dd6aa38caf9d","ios":"levelo://app?vid=124f1bf7-9af9-4782-a052-dd6aa38caf9d"},"vehicle_type_id":"4","last_reported":1700849327,"current_range_meters":29600,"station_id":"ce4bhi12rcd13ifvqfp0","pricing_plan_id":"free"},{"bike_id":"884cad8c-9715-4994-b1f8-a21278fa1a1d","system_id":"levelo_inurba_marseille","lat":43.23961,"lon":5.36637,"is_reserved":false,"is_disabled":false,"rental_uris":{"android":"levelo://app?vid=884cad8c-9715-4994-b1f8-a21278fa1a1d","ios":"levelo://app?vid=884cad8c-9715-4994-b1f8-a21278fa1a1d"},"vehicle_type_id":"4","last_reported":1700849327,"current_range_meters":27600,"station_id":"ce4bhi12rcd13ifvqfp0","pricing_plan_id":"free"},{"bike_id":"8904bfdf-f635-49c0-b8a9-6f183c7a093b","system_id":"levelo_inurba_marseille","lat":43.23961,"lon":5.36631,"is_reserved":false,"is_disabled":false,"rental_uris":{"android":"levelo://app?vid=8904bfdf-f635-49c0-b8a9-6f183c7a093b","ios":"levelo://app?vid=8904bfdf-f635-49c0-b8a9-6f183c7a093b"},"vehicle_type_id":"4","last_reported":1700849327,"current_range_meters":29200,"station_id":"ce4bhi12rcd13ifvqfp0","pricing_plan_id":"free"},{"bike_id":"1a7a1613-1624-4afd-bf68-9497936761e0","system_id":"levelo_inurba_marseille","lat":43.23959,"lon":5.36635,"is_reserved":false,"is_disabled":false,"rental_uris":{"android":"levelo://app?vid=1a7a1613-1624-4afd-bf68-9497936761e0","ios":"levelo://app?vid=1a7a1613-1624-4afd-bf68-9497936761e0"},"vehicle_type_id":"4","last_reported":1700849327,"current_range_meters":15200,"station_id":"ce4bhi12rcd13ifvqfp0","pricing_plan_id":"free"},{"bike_id":"1c07a5ad-1fa3-4b2f-ad72-6a07be76875e","system_id":"levelo_inurba_marseille","lat":43.239544,"lon":5.366364,"is_reserved":false,"is_disabled":false,"rental_uris":{"android":"levelo://app?vid=1c07a5ad-1fa3-4b2f-ad72-6a07be76875e","ios":"levelo://app?vid=1c07a5ad-1fa3-4b2f-ad72-6a07be76875e"},"vehicle_type_id":"4","last_reported":1700849327,"current_range_meters":17600,"station_id":"ce4bhi12rcd13ifvqfp0","pricing_plan_id":"free"},{"bike_id":"cb03ff43-27e2-4738-93e1-3d7cedf7c707","system_id":"levelo_inurba_marseille","lat":43.241782,"lon":5.397264,"is_reserved":false,"is_disabled":false,"rental_uris":{"android":"levelo://app?vid=cb03ff43-27e2-4738-93e1-3d7cedf7c707","ios":"levelo://app?vid=cb03ff43-27e2-4738-93e1-3d7cedf7c707"},"vehicle_type_id":"4","last_reported":1700849327,"current_range_meters":6400,"station_id":"ce4bhn12rcd13ifvqgpg","pricing_plan_id":"free"},{"bike_id":"e5e514e7-58d5-4766-902e-a692950e8b38","system_id":"levelo_inurba_marseille","lat":43.23199,"lon":5.35554,"is_reserved":false,"is_disabled":false,"rental_uris":{"android":"levelo://app?vid=e5e514e7-58d5-4766-902e-a692950e8b38","ios":"levelo://app?vid=e5e514e7-58d5-4766-902e-a692950e8b38"},"vehicle_type_id":"4","last_reported":1700849327,"current_range_meters":28400,"station_id":"ce4bhu92rcd13ifvqi70","pricing_plan_id":"free"},{"bike_id":"b6ad3896-d180-4d39-a4d6-8a7be3e8c6bd","system_id":"levelo_inurba_marseille","lat":43.231923,"lon":5.355545,"is_reserved":false,"is_disabled":false,"rental_uris":{"android":"levelo://app?vid=b6ad3896-d180-4d39-a4d6-8a7be3e8c6bd","ios":"levelo://app?vid=b6ad3896-d180-4d39-a4d6-8a7be3e8c6bd"},"vehicle_type_id":"4","last_reported":1700849327,"current_range_meters":23600,"station_id":"ce4bhu92rcd13ifvqi70","pricing_plan_id":"free"},{"bike_id":"dcc8f0d2-659c-44cb-9a1d-9d57ae623781","system_id":"levelo_inurba_marseille","lat":43.23195,"lon":5.35553,"is_reserved":false,"is_disabled":false,"rental_uris":{"android":"levelo://app?vid=dcc8f0d2-659c-44cb-9a1d-9d57ae623781","ios":"levelo://app?vid=dcc8f0d2-659c-44cb-9a1d-9d57ae623781"},"vehicle_type_id":"4","last_reported":1700849327,"current_range_meters":23600,"station_id":"ce4bhu92rcd13ifvqi70","pricing_plan_id":"free"},{"bike_id":"032441f0-e0c8-4260-9bd9-e57c93d62884","system_id":"levelo_inurba_marseille","lat":43.231919,"lon":5.355532,"is_reserved":false,"is_disabled":false,"rental_uris":{"android":"levelo://app?vid=032441f0-e0c8-4260-9bd9-e57c93d62884","ios":"levelo://app?vid=032441f0-e0c8-4260-9bd9-e57c93d62884"},"vehicle_type_id":"4","last_reported":1700849327,"current_range_meters":14400,"station_id":"ce4bhu92rcd13ifvqi70","pricing_plan_id":"free"},{"bike_id":"0a349838-8936-442e-8a55-c173dbb54834","system_id":"levelo_inurba_marseille","lat":43.231919,"lon":5.355532,"is_reserved":false,"is_disabled":false,"rental_uris":{"android":"levelo://app?vid=0a349838-8936-442e-8a55-c173dbb54834","ios":"levelo://app?vid=0a349838-8936-442e-8a55-c173dbb54834"},"vehicle_type_id":"4","last_reported":1700849327,"current_range_meters":29200,"station_id":"ce4bhu92rcd13ifvqi70","pricing_plan_id":"free"},{"bike_id":"aeb874ed-5a67-45f7-94cd-1c1e110219bc","system_id":"levelo_inurba_marseille","lat":43.231919,"lon":5.355532,"is_reserved":false,"is_disabled":false,"rental_uris":{"android":"levelo://app?vid=aeb874ed-5a67-45f7-94cd-1c1e110219bc","ios":"levelo://app?vid=aeb874ed-5a67-45f7-94cd-1c1e110219bc"},"vehicle_type_id":"4","last_reported":1700849327,"current_range_meters":31600,"station_id":"ce4bhu92rcd13ifvqi70","pricing_plan_id":"free"},{"bike_id":"edd2b3c8-67fd-4064-8af7-f698e6d9963c","system_id":"levelo_inurba_marseille","lat":43.231919,"lon":5.355532,"is_reserved":false,"is_disabled":false,"rental_uris":{"android":"levelo://app?vid=edd2b3c8-67fd-4064-8af7-f698e6d9963c","ios":"levelo://app?vid=edd2b3c8-67fd-4064-8af7-f698e6d9963c"},"vehicle_type_id":"4","last_reported":1700849327,"current_range_meters":25200,"station_id":"ce4bhu92rcd13ifvqi70","pricing_plan_id":"free"},{"bike_id":"76da77ba-a8a2-45d9-bea0-75d9631bba15","system_id":"levelo_inurba_marseille","lat":43.231923,"lon":5.355545,"is_reserved":false,"is_disabled":false,"rental_uris":{"android":"levelo://app?vid=76da77ba-a8a2-45d9-bea0-75d9631bba15","ios":"levelo://app?vid=76da77ba-a8a2-45d9-bea0-75d9631bba15"},"vehicle_type_id":"4","last_reported":1700849327,"current_range_meters":18000,"station_id":"ce4bhu92rcd13ifvqi70","pricing_plan_id":"free"},{"bike_id":"48217564-eee6-47a9-ae01-f8f1659e40db","system_id":"levelo_inurba_marseille","lat":43.231923,"lon":5.355545,"is_reserved":false,"is_disabled":false,"rental_uris":{"android":"levelo://app?vid=48217564-eee6-47a9-ae01-f8f1659e40db","ios":"levelo://app?vid=48217564-eee6-47a9-ae01-f8f1659e40db"},"vehicle_type_id":"4","last_reported":1700849327,"current_range_meters":23600,"station_id":"ce4bhu92rcd13ifvqi70","pricing_plan_id":"free"},{"bike_id":"0c6b2677-ce68-4f02-9a73-e017061e320e","system_id":"levelo_inurba_marseille","lat":43.231793,"lon":5.400044,"is_reserved":false,"is_disabled":false,"rental_uris":{"android":"levelo://app?vid=0c6b2677-ce68-4f02-9a73-e017061e320e","ios":"levelo://app?vid=0c6b2677-ce68-4f02-9a73-e017061e320e"},"vehicle_type_id":"4","last_reported":1700849327,"current_range_meters":31200,"station_id":"ce4bhn12rcd13ifvqgqg","pricing_plan_id":"free"},{"bike_id":"9780e49b-8eb6-4c96-95ee-9b6d1e553d68","system_id":"levelo_inurba_marseille","lat":43.231794,"lon":5.400052,"is_reserved":false,"is_disabled":false,"rental_uris":{"android":"levelo://app?vid=9780e49b-8eb6-4c96-95ee-9b6d1e553d68","ios":"levelo://app?vid=9780e49b-8eb6-4c96-95ee-9b6d1e553d68"},"vehicle_type_id":"4","last_reported":1700849327,"current_range_meters":26400,"station_id":"ce4bhn12rcd13ifvqgqg","pricing_plan_id":"free"},{"bike_id":"216d01e0-0894-4b88-9379-35377c1f196b","system_id":"levelo_inurba_marseille","lat":43.231794,"lon":5.400052,"is_reserved":false,"is_disabled":false,"rental_uris":{"android":"levelo://app?vid=216d01e0-0894-4b88-9379-35377c1f196b","ios":"levelo://app?vid=216d01e0-0894-4b88-9379-35377c1f196b"},"vehicle_type_id":"4","last_reported":1700849327,"current_range_meters":31600,"station_id":"ce4bhn12rcd13ifvqgqg","pricing_plan_id":"free"},{"bike_id":"4b6183ea-c306-4c26-8d63-aae6ff185ad2","system_id":"levelo_inurba_marseille","lat":43.231794,"lon":5.400052,"is_reserved":false,"is_disabled":false,"rental_uris":{"android":"levelo://app?vid=4b6183ea-c306-4c26-8d63-aae6ff185ad2","ios":"levelo://app?vid=4b6183ea-c306-4c26-8d63-aae6ff185ad2"},"vehicle_type_id":"4","last_reported":1700849327,"current_range_meters":15200,"station_id":"ce4bhn12rcd13ifvqgqg","pricing_plan_id":"free"},{"bike_id":"42b71bb2-3e67-452d-bdb5-18d18eec3243","system_id":"levelo_inurba_marseille","lat":43.231794,"lon":5.400052,"is_reserved":false,"is_disabled":false,"rental_uris":{"android":"levelo://app?vid=42b71bb2-3e67-452d-bdb5-18d18eec3243","ios":"levelo://app?vid=42b71bb2-3e67-452d-bdb5-18d18eec3243"},"vehicle_type_id":"4","last_reported":1700849327,"current_range_meters":30000,"station_id":"ce4bhn12rcd13ifvqgqg","pricing_plan_id":"free"},{"bike_id":"0d65e76d-9880-4e2c-a36d-b8425499c90e","system_id":"levelo_inurba_marseille","lat":43.231793,"lon":5.400044,"is_reserved":false,"is_disabled":false,"rental_uris":{"android":"levelo://app?vid=0d65e76d-9880-4e2c-a36d-b8425499c90e","ios":"levelo://app?vid=0d65e76d-9880-4e2c-a36d-b8425499c90e"},"vehicle_type_id":"4","last_reported":1700849327,"current_range_meters":16400,"station_id":"ce4bhn12rcd13ifvqgqg","pricing_plan_id":"free"},{"bike_id":"df7e6c4d-a3bc-48a2-a471-a72390a84d34","system_id":"levelo_inurba_marseille","lat":43.231793,"lon":5.400044,"is_reserved":false,"is_disabled":false,"rental_uris":{"android":"levelo://app?vid=df7e6c4d-a3bc-48a2-a471-a72390a84d34","ios":"levelo://app?vid=df7e6c4d-a3bc-48a2-a471-a72390a84d34"},"vehicle_type_id":"4","last_reported":1700849327,"current_range_meters":22400,"station_id":"ce4bhn12rcd13ifvqgqg","pricing_plan_id":"free"},{"bike_id":"37e6a089-bbff-4b26-a2ae-332c62d0185b","system_id":"levelo_inurba_marseille","lat":43.231793,"lon":5.400044,"is_reserved":false,"is_disabled":false,"rental_uris":{"android":"levelo://app?vid=37e6a089-bbff-4b26-a2ae-332c62d0185b","ios":"levelo://app?vid=37e6a089-bbff-4b26-a2ae-332c62d0185b"},"vehicle_type_id":"4","last_reported":1700849327,"current_range_meters":26800,"station_id":"ce4bhn12rcd13ifvqgqg","pricing_plan_id":"free"},{"bike_id":"379d09eb-92b5-4354-8d2d-37d06c982dcd","system_id":"levelo_inurba_marseille","lat":43.231793,"lon":5.400044,"is_reserved":false,"is_disabled":false,"rental_uris":{"android":"levelo://app?vid=379d09eb-92b5-4354-8d2d-37d06c982dcd","ios":"levelo://app?vid=379d09eb-92b5-4354-8d2d-37d06c982dcd"},"vehicle_type_id":"4","last_reported":1700849327,"current_range_meters":18000,"station_id":"ce4bhn12rcd13ifvqgqg","pricing_plan_id":"free"},{"bike_id":"15bec849-9a6b-4ebb-b158-b7d77ffd4e94","system_id":"levelo_inurba_marseille","lat":43.231793,"lon":5.400044,"is_reserved":false,"is_disabled":false,"rental_uris":{"android":"levelo://app?vid=15bec849-9a6b-4ebb-b158-b7d77ffd4e94","ios":"levelo://app?vid=15bec849-9a6b-4ebb-b158-b7d77ffd4e94"},"vehicle_type_id":"4","last_reported":1700849327,"current_range_meters":21600,"station_id":"ce4bhn12rcd13ifvqgqg","pricing_plan_id":"free"},{"bike_id":"0945036d-9858-4086-b41b-ec6e60edb8ad","system_id":"levelo_inurba_marseille","lat":43.231794,"lon":5.400052,"is_reserved":false,"is_disabled":false,"rental_uris":{"android":"levelo://app?vid=0945036d-9858-4086-b41b-ec6e60edb8ad","ios":"levelo://app?vid=0945036d-9858-4086-b41b-ec6e60edb8ad"},"vehicle_type_id":"4","last_reported":1700849327,"current_range_meters":29600,"station_id":"ce4bhn12rcd13ifvqgqg","pricing_plan_id":"free"},{"bike_id":"9c2bf53e-bbf1-4349-bc38-b78a298e6986","system_id":"levelo_inurba_marseille","lat":43.231793,"lon":5.400044,"is_reserved":false,"is_disabled":false,"rental_uris":{"android":"levelo://app?vid=9c2bf53e-bbf1-4349-bc38-b78a298e6986","ios":"levelo://app?vid=9c2bf53e-bbf1-4349-bc38-b78a298e6986"},