{"last_updated":1707041238,"ttl":30,"version":"2.2","data":{"bikes":[{"bike_id":"ada5539d-6794-418d-b97c-031b8a571630","system_id":"levelo_inurba_marseille","lat":43.312239,"lon":5.368562,"is_reserved":false,"is_disabled":false,"rental_uris":{"android":"levelo://app?vid=ada5539d-6794-418d-b97c-031b8a571630","ios":"levelo://app?vid=ada5539d-6794-418d-b97c-031b8a571630"},"vehicle_type_id":"4","last_reported":1707041238,"current_range_meters":22400,"station_id":"ce4bgl92rcd13ifvqbq0","pricing_plan_id":"free"},{"bike_id":"e74cf70e-ab07-459f-98c7-cc9254f1bdda","system_id":"levelo_inurba_marseille","lat":43.312239,"lon":5.368562,"is_reserved":false,"is_disabled":false,"rental_uris":{"android":"levelo://app?vid=e74cf70e-ab07-459f-98c7-cc9254f1bdda","ios":"levelo://app?vid=e74cf70e-ab07-459f-98c7-cc9254f1bdda"},"vehicle_type_id":"4","last_reported":1707041238,"current_range_meters":5200,"station_id":"ce4bgl92rcd13ifvqbq0","pricing_plan_id":"free"},{"bike_id":"d95e2387-434c-4b69-8908-9707087feaf0","system_id":"levelo_inurba_marseille","lat":43.312239,"lon":5.368562,"is_reserved":false,"is_disabled":false,"rental_uris":{"android":"levelo://app?vid=d95e2387-434c-4b69-8908-9707087feaf0","ios":"levelo://app?vid=d95e2387-434c-4b69-8908-9707087feaf0"},"vehicle_type_id":"4","last_reported":1707041238,"current_range_meters":0,"station_id":"ce4bgl92rcd13ifvqbq0","pricing_plan_id":"free"},{"bike_id":"49fa1745-1914-4c0c-955a-77a76486110a","system_id":"levelo_inurba_marseille","lat":43.309076,"lon":5.368465,"is_reserved":false,"is_disabled":false,"rental_uris":{"android":"levelo://app?vid=49fa1745-1914-4c0c-955a-77a76486110a","ios":"levelo://app?vid=49fa1745-1914-4c0c-955a-77a76486110a"},"vehicle_type_id":"4","last_reported":1707041238,"current_range_meters":29600,"station_id":"ce4bgn92rcd13ifvqbvg","pricing_plan_id":"free"},{"bike_id":"a02fa4d4-439f-400e-965a-eaeec7da82cd","system_id":"levelo_inurba_marseille","lat":43.314811,"lon":5.373104,"is_reserved":false,"is_disabled":false,"rental_uris":{"android":"levelo://app?vid=a02fa4d4-439f-400e-965a-eaeec7da82cd","ios":"levelo://app?vid=a02fa4d4-439f-400e-965a-eaeec7da82cd"},"vehicle_type_id":"4","last_reported":1707041238,"current_range_meters":31200,"station_id":"ce4bgt12rcd13ifvqcd0","pricing_plan_id":"free"},{"bike_id":"d2be7cfc-cbe4-40df-b202-480ca2ed1165","system_id":"levelo_inurba_marseille","lat":43.314811,"lon":5.373103,"is_reserved":false,"is_disabled":false,"rental_uris":{"android":"levelo://app?vid=d2be7cfc-cbe4-40df-b202-480ca2ed1165","ios":"levelo://app?vid=d2be7cfc-cbe4-40df-b202-480ca2ed1165"},"vehicle_type_id":"4","last_reported":1707041238,"current_range_meters":26400,"station_id":"ce4bgt12rcd13ifvqcd0","pricing_plan_id":"free"},{"bike_id":"6ecd07a2-ee5e-47c4-93be-a7d99db601d7","system_id":"levelo_inurba_marseille","lat":43.31493,"lon":5.37305,"is_reserved":false,"is_disabled":false,"rental_uris":{"android":"levelo://app?vid=6ecd07a2-ee5e-47c4-93be-a7d99db601d7","ios":"levelo://app?vid=6ecd07a2-ee5e-47c4-93be-a7d99db601d7"},"vehicle_type_id":"4","last_reported":1707041238,"current_range_meters":0,"station_id":"ce4bgt12rcd13ifvqcd0","pricing_plan_id":"free"},{"bike_id":"a842018b-e6b2-4110-b020-f1c22f4b6091","system_id":"levelo_inurba_marseille","lat":43.314811,"lon":5.373104,"is_reserved":false,"is_disabled":false,"rental_uris":{"android":"levelo://app?vid=a842018b-e6b2-4110-b020-f1c22f4b6091","ios":"levelo://app?vid=a842018b-e6b2-4110-b020-f1c22f4b6091"},"vehicle_type_id":"4","last_reported":1707041238,"current_range_meters":26400,"station_id":"ce4bgt12rcd13ifvqcd0","pricing_plan_id":"free"},{"bike_id":"fe10b9e7-bc70-4094-b5eb-57282a9868cd","system_id":"levelo_inurba_marseille","lat":43.31495,"lon":5.3731,"is_reserved":false,"is_disabled":false,"rental_uris":{"android":"levelo://app?vid=fe10b9e7-bc70-4094-b5eb-57282a9868cd","ios":"levelo://app?vid=fe10b9e7-bc70-4094-b5eb-57282a9868cd"},"vehicle_type_id":"4","last_reported":1707041238,"current_range_meters":0,"station_id":"ce4bgt12rcd13ifvqcd0","pricing_plan_id":"free"},{"bike_id":"34d4205d-b4f7-422f-a204-16aeb3b6fd75","system_id":"levelo_inurba_marseille","lat":43.309039,"lon":5.371797,"is_reserved":false,"is_disabled":false,"rental_uris":{"android":"levelo://app?vid=34d4205d-b4f7-422f-a204-16aeb3b6fd75","ios":"levelo://app?vid=34d4205d-b4f7-422f-a204-16aeb3b6fd75"},"vehicle_type_id":"4","last_reported":1707041238,"current_range_meters":31200,"station_id":"ce4bguh2rcd13ifvqckg","pricing_plan_id":"free"},{"bike_id":"a21bac83-e71c-4265-8bb5-677dc799e343","system_id":"levelo_inurba_marseille","lat":43.309039,"lon":5.371797,"is_reserved":false,"is_disabled":false,"rental_uris":{"android":"levelo://app?vid=a21bac83-e71c-4265-8bb5-677dc799e343","ios":"levelo://app?vid=a21bac83-e71c-4265-8bb5-677dc799e343"},"vehicle_type_id":"4","last_reported":1707041238,"current_range_meters":26000,"station_id":"ce4bguh2rcd13ifvqckg","pricing_plan_id":"free"},{"bike_id":"82634a15-58d6-490e-9ad8-4261dbaa00cb","system_id":"levelo_inurba_marseille","lat":43.309039,"lon":5.371797,"is_reserved":false,"is_disabled":false,"rental_uris":{"android":"levelo://app?vid=82634a15-58d6-490e-9ad8-4261dbaa00cb","ios":"levelo://app?vid=82634a15-58d6-490e-9ad8-4261dbaa00cb"},"vehicle_type_id":"4","last_reported":1707041238,"current_range_meters":0,"station_id":"ce4bguh2rcd13ifvqckg","pricing_plan_id":"free"},{"bike_id":"60ee1509-522e-4f69-b4fc-b23f916f8d18","system_id":"levelo_inurba_marseille","lat":43.30548,"lon":5.36557,"is_reserved":false,"is_disabled":false,"rental_uris":{"android":"levelo://app?vid=60ee1509-522e-4f69-b4fc-b23f916f8d18","ios":"levelo://app?vid=60ee1509-522e-4f69-b4fc-b23f916f8d18"},"vehicle_type_id":"4","last_reported":1707041238,"current_range_meters":2000,"station_id":"ce4bgs12rcd13ifvqcag","pricing_plan_id":"free"},{"bike_id":"9f685ce1-b684-4d0f-9cfc-89b70558d519","system_id":"levelo_inurba_marseille","lat":43.305368,"lon":5.367343,"is_reserved":false,"is_disabled":false,"rental_uris":{"android":"levelo://app?vid=9f685ce1-b684-4d0f-9cfc-89b70558d519","ios":"levelo://app?vid=9f685ce1-b684-4d0f-9cfc-89b70558d519"},"vehicle_type_id":"4","last_reported":1707041238,"current_range_meters":31200,"station_id":"ce4bgrp2rcd13ifvqc9g","pricing_plan_id":"free"},{"bike_id":"4ab340f9-ab92-45b0-8a3e-7e06017bb31f","system_id":"levelo_inurba_marseille","lat":43.305368,"lon":5.367343,"is_reserved":false,"is_disabled":false,"rental_uris":{"android":"levelo://app?vid=4ab340f9-ab92-45b0-8a3e-7e06017bb31f","ios":"levelo://app?vid=4ab340f9-ab92-45b0-8a3e-7e06017bb31f"},"vehicle_type_id":"4","last_reported":1707041238,"current_range_meters":27600,"station_id":"ce4bgrp2rcd13ifvqc9g","pricing_plan_id":"free"},{"bike_id":"e206f35c-0aa7-48d2-b8b8-ed8006e2d9b0","system_id":"levelo_inurba_marseille","lat":43.305459,"lon":5.365306,"is_reserved":false,"is_disabled":false,"rental_uris":{"android":"levelo://app?vid=e206f35c-0aa7-48d2-b8b8-ed8006e2d9b0","ios":"levelo://app?vid=e206f35c-0aa7-48d2-b8b8-ed8006e2d9b0"},"vehicle_type_id":"4","last_reported":1707041238,"current_range_meters":31200,"station_id":"ce4bgs12rcd13ifvqcag","pricing_plan_id":"free"},{"bike_id":"d3571705-b99a-4bc8-921d-0fb578c5bdb1","system_id":"levelo_inurba_marseille","lat":43.305712,"lon":5.365641,"is_reserved":false,"is_disabled":false,"rental_uris":{"android":"levelo://app?vid=d3571705-b99a-4bc8-921d-0fb578c5bdb1","ios":"levelo://app?vid=d3571705-b99a-4bc8-921d-0fb578c5bdb1"},"vehicle_type_id":"4","last_reported":1707041238,"current_range_meters":1200,"station_id":"ce4bgs12rcd13ifvqcag","pricing_plan_id":"free"},{"bike_id":"2852f3c1-7779-4f2f-b513-d63e1b33d14f","system_id":"levelo_inurba_marseille","lat":43.305368,"lon":5.367343,"is_reserved":false,"is_disabled":false,"rental_uris":{"android":"levelo://app?vid=2852f3c1-7779-4f2f-b513-d63e1b33d14f","ios":"levelo://app?vid=2852f3c1-7779-4f2f-b513-d63e1b33d14f"},"vehicle_type_id":"4","last_reported":1707041238,"current_range_meters":30400,"station_id":"ce4bgrp2rcd13ifvqc9g","pricing_plan_id":"free"},{"bike_id":"98790c96-e454-4d28-abed-9a8739cf50f5","system_id":"levelo_inurba_marseille","lat":43.305706,"lon":5.365654,"is_reserved":false,"is_disabled":false,"rental_uris":{"android":"levelo://app?vid=98790c96-e454-4d28-abed-9a8739cf50f5","ios":"levelo://app?vid=98790c96-e454-4d28-abed-9a8739cf50f5"},"vehicle_type_id":"4","last_reported":1707041238,"current_range_meters":17200,"station_id":"ce4bgs12rcd13ifvqcag","pricing_plan_id":"free"},{"bike_id":"a0b2e381-9b87-4071-b665-79e9a0e2f024","system_id":"levelo_inurba_marseille","lat":43.305706,"lon":5.365654,"is_reserved":false,"is_disabled":false,"rental_uris":{"android":"levelo://app?vid=a0b2e381-9b87-4071-b665-79e9a0e2f024","ios":"levelo://app?vid=a0b2e381-9b87-4071-b665-79e9a0e2f024"},"vehicle_type_id":"4","last_reported":1707041238,"current_range_meters":24400,"station_id":"ce4bgs12rcd13ifvqcag","pricing_plan_id":"free"},{"bike_id":"0dcf5ffe-ecf8-427d-a904-ad8ac7aba93e","system_id":"levelo_inurba_marseille","lat":43.305706,"lon":5.365654,"is_reserved":false,"is_disabled":false,"rental_uris":{"android":"levelo://app?vid=0dcf5ffe-ecf8-427d-a904-ad8ac7aba93e","ios":"levelo://app?vid=0dcf5ffe-ecf8-427d-a904-ad8ac7aba93e"},"vehicle_type_id":"4","last_reported":1707041238,"current_range_meters":15600,"station_id":"ce4bgs12rcd13ifvqcag","pricing_plan_id":"free"},{"bike_id":"f3b4fff2-83ee-41f1-b34f-c67c2d981f0e","system_id":"levelo_inurba_marseille","lat":43.305989,"lon":5.37225,"is_reserved":false,"is_disabled":false,"rental_uris":{"android":"levelo://app?vid=f3b4fff2-83ee-41f1-b34f-c67c2d981f0e","ios":"levelo://app?vid=f3b4fff2-83ee-41f1-b34f-c67c2d981f0e"},"vehicle_type_id":"4","last_reported":1707041238,"current_range_meters":28800,"station_id":"ce4bgqh2rcd13ifvqc4g","pricing_plan_id":"free"},{"bike_id":"221877f9-4405-4aa3-bd6c-07c90e6e4da1","system_id":"levelo_inurba_marseille","lat":43.305989,"lon":5.37225,"is_reserved":false,"is_disabled":false,"rental_uris":{"android":"levelo://app?vid=221877f9-4405-4aa3-bd6c-07c90e6e4da1","ios":"levelo://app?vid=221877f9-4405-4aa3-bd6c-07c90e6e4da1"},"vehicle_type_id":"4","last_reported":1707041238,"current_range_meters":1600,"station_id":"ce4bgqh2rcd13ifvqc4g","pricing_plan_id":"free"},{"bike_id":"aac73440-b5e3-47f7-b508-42701f175113","system_id":"levelo_inurba_marseille","lat":43.311131,"lon":5.377651,"is_reserved":false,"is_disabled":false,"rental_uris":{"android":"levelo://app?vid=aac73440-b5e3-47f7-b508-42701f175113","ios":"levelo://app?vid=aac73440-b5e3-47f7-b508-42701f175113"},"vehicle_type_id":"4","last_reported":1707041238,"current_range_meters":18800,"station_id":"ce4bgt92rcd13ifvqcg0","pricing_plan_id":"free"},{"bike_id":"247d2648-9084-41c7-bdad-4c7d5ec6b5f5","system_id":"levelo_inurba_marseille","lat":43.311192,"lon":5.377943,"is_reserved":false,"is_disabled":false,"rental_uris":{"android":"levelo://app?vid=247d2648-9084-41c7-bdad-4c7d5ec6b5f5","ios":"levelo://app?vid=247d2648-9084-41c7-bdad-4c7d5ec6b5f5"},"vehicle_type_id":"4","last_reported":1707041238,"current_range_meters":12400,"station_id":"","pricing_plan_id":"free"},{"bike_id":"544a54c5-badf-418f-891b-250bbc823c70","system_id":"levelo_inurba_marseille","lat":43.30778,"lon":5.37648,"is_reserved":false,"is_disabled":false,"rental_uris":{"android":"levelo://app?vid=544a54c5-badf-418f-891b-250bbc823c70","ios":"levelo://app?vid=544a54c5-badf-418f-891b-250bbc823c70"},"vehicle_type_id":"4","last_reported":1707041238,"current_range_meters":11200,"station_id":"ce4bgv92rcd13ifvqcq0","pricing_plan_id":"free"},{"bike_id":"54237b33-655d-4a40-b3a7-5415caf3190c","system_id":"levelo_inurba_marseille","lat":43.3078,"lon":5.37652,"is_reserved":false,"is_disabled":false,"rental_uris":{"android":"levelo://app?vid=54237b33-655d-4a40-b3a7-5415caf3190c","ios":"levelo://app?vid=54237b33-655d-4a40-b3a7-5415caf3190c"},"vehicle_type_id":"4","last_reported":1707041238,"current_range_meters":400,"station_id":"ce4bgv92rcd13ifvqcq0","pricing_plan_id":"free"},{"bike_id":"662cde05-06f7-4ec2-8e64-e6a473293046","system_id":"levelo_inurba_marseille","lat":43.307945,"lon":5.376487,"is_reserved":false,"is_disabled":false,"rental_uris":{"android":"levelo://app?vid=662cde05-06f7-4ec2-8e64-e6a473293046","ios":"levelo://app?vid=662cde05-06f7-4ec2-8e64-e6a473293046"},"vehicle_type_id":"4","last_reported":1707041238,"current_range_meters":30000,"station_id":"ce4bgv92rcd13ifvqcq0","pricing_plan_id":"free"},{"bike_id":"e7965e6f-bd7f-495a-8399-535932249956","system_id":"levelo_inurba_marseille","lat":43.307945,"lon":5.376487,"is_reserved":false,"is_disabled":false,"rental_uris":{"android":"levelo://app?vid=e7965e6f-bd7f-495a-8399-535932249956","ios":"levelo://app?vid=e7965e6f-bd7f-495a-8399-535932249956"},"vehicle_type_id":"4","last_reported":1707041238,"current_range_meters":31200,"station_id":"ce4bgv92rcd13ifvqcq0","pricing_plan_id":"free"},{"bike_id":"8bea6ee2-bb12-4611-84ff-9527b54da0c8","system_id":"levelo_inurba_marseille","lat":43.317075,"lon":5.377367,"is_reserved":false,"is_disabled":false,"rental_uris":{"android":"levelo://app?vid=8bea6ee2-bb12-4611-84ff-9527b54da0c8","ios":"levelo://app?vid=8bea6ee2-bb12-4611-84ff-9527b54da0c8"},"vehicle_type_id":"4","last_reported":1707041238,"current_range_meters":20000,"station_id":"ce4bgth2rcd13ifvqch0","pricing_plan_id":"free"},{"bike_id":"b3fdee80-37a0-47bb-b8ca-a3c133c6ab3b","system_id":"levelo_inurba_marseille","lat":43.303132,"lon":5.3691,"is_reserved":false,"is_disabled":false,"rental_uris":{"android":"levelo://app?vid=b3fdee80-37a0-47bb-b8ca-a3c133c6ab3b","ios":"levelo://app?vid=b3fdee80-37a0-47bb-b8ca-a3c133c6ab3b"},"vehicle_type_id":"4","last_reported":1707041238,"current_range_meters":15600,"station_id":"ce4bgqh2rcd13ifvqc5g","pricing_plan_id":"free"},{"bike_id":"6bdb6ecd-edf7-4296-98bc-66a30c85b58b","system_id":"levelo_inurba_marseille","lat":43.31532,"lon":5.38035,"is_reserved":false,"is_disabled":false,"rental_uris":{"android":"levelo://app?vid=6bdb6ecd-edf7-4296-98bc-66a30c85b58b","ios":"levelo://app?vid=6bdb6ecd-edf7-4296-98bc-66a30c85b58b"},"vehicle_type_id":"4","last_reported":1707041238,"current_range_meters":29600,"station_id":"ce4bhsp2rcd13ifvqi50","pricing_plan_id":"free"},{"bike_id":"0da99d60-09fa-42fa-afa1-f36d07af102a","system_id":"levelo_inurba_marseille","lat":43.315293,"lon":5.380349,"is_reserved":false,"is_disabled":false,"rental_uris":{"android":"levelo://app?vid=0da99d60-09fa-42fa-afa1-f36d07af102a","ios":"levelo://app?vid=0da99d60-09fa-42fa-afa1-f36d07af102a"},"vehicle_type_id":"4","last_reported":1707041238,"current_range_meters":24400,"station_id":"ce4bhsp2rcd13ifvqi50","pricing_plan_id":"free"},{"bike_id":"41a829d3-c6de-40a3-b368-11161992ab69","system_id":"levelo_inurba_marseille","lat":43.301939,"lon":5.366286,"is_reserved":false,"is_disabled":false,"rental_uris":{"android":"levelo://app?vid=41a829d3-c6de-40a3-b368-11161992ab69","ios":"levelo://app?vid=41a829d3-c6de-40a3-b368-11161992ab69"},"vehicle_type_id":"4","last_reported":1707041238,"current_range_meters":31200,"station_id":"ce4bgrh2rcd13ifvqc8g","pricing_plan_id":"free"},{"bike_id":"f15bd5b3-b263-490f-bb60-dfc322b422cb","system_id":"levelo_inurba_marseille","lat":43.301939,"lon":5.366286,"is_reserved":false,"is_disabled":false,"rental_uris":{"android":"levelo://app?vid=f15bd5b3-b263-490f-bb60-dfc322b422cb","ios":"levelo://app?vid=f15bd5b3-b263-490f-bb60-dfc322b422cb"},"vehicle_type_id":"4","last_reported":1707041238,"current_range_meters":20400,"station_id":"ce4bgrh2rcd13ifvqc8g","pricing_plan_id":"free"},{"bike_id":"f1fd1c09-35ca-4b6b-a0f6-5338671796d9","system_id":"levelo_inurba_marseille","lat":43.308012,"lon":5.381511,"is_reserved":false,"is_disabled":false,"rental_uris":{"android":"levelo://app?vid=f1fd1c09-35ca-4b6b-a0f6-5338671796d9","ios":"levelo://app?vid=f1fd1c09-35ca-4b6b-a0f6-5338671796d9"},"vehicle_type_id":"4","last_reported":1707041238,"current_range_meters":26800,"station_id":"ce4bgt12rcd13ifvqce0","pricing_plan_id":"free"},{"bike_id":"8452c01c-6f80-47e4-8e65-81fe32e6421a","system_id":"levelo_inurba_marseille","lat":43.308012,"lon":5.381511,"is_reserved":false,"is_disabled":false,"rental_uris":{"android":"levelo://app?vid=8452c01c-6f80-47e4-8e65-81fe32e6421a","ios":"levelo://app?vid=8452c01c-6f80-47e4-8e65-81fe32e6421a"},"vehicle_type_id":"4","last_reported":1707041238,"current_range_meters":25200,"station_id":"ce4bgt12rcd13ifvqce0","pricing_plan_id":"free"},{"bike_id":"0b20b418-e105-41f1-b93d-84f0d873419f","system_id":"levelo_inurba_marseille","lat":43.307934,"lon":5.381471,"is_reserved":false,"is_disabled":false,"rental_uris":{"android":"levelo://app?vid=0b20b418-e105-41f1-b93d-84f0d873419f","ios":"levelo://app?vid=0b20b418-e105-41f1-b93d-84f0d873419f"},"vehicle_type_id":"4","last_reported":1707041238,"current_range_meters":27600,"station_id":"","pricing_plan_id":"free"},{"bike_id":"1ac3ac2b-060d-4273-907a-e22467b79676","system_id":"levelo_inurba_marseille","lat":43.30795,"lon":5.38157,"is_reserved":false,"is_disabled":false,"rental_uris":{"android":"levelo://app?vid=1ac3ac2b-060d-4273-907a-e22467b79676","ios":"levelo://app?vid=1ac3ac2b-060d-4273-907a-e22467b79676"},"vehicle_type_id":"4","last_reported":1707041238,"current_range_meters":27600,"station_id":"ce4bgt12rcd13ifvqce0","pricing_plan_id":"free"},{"bike_id":"72469eaa-36d7-42bf-8f86-01ca1e6cb36e","system_id":"levelo_inurba_marseille","lat":43.308012,"lon":5.381511,"is_reserved":false,"is_disabled":false,"rental_uris":{"android":"levelo://app?vid=72469eaa-36d7-42bf-8f86-01ca1e6cb36e","ios":"levelo://app?vid=72469eaa-36d7-42bf-8f86-01ca1e6cb36e"},"vehicle_type_id":"4","last_reported":1707041238,"current_range_meters":16800,"station_id":"ce4bgt12rcd13ifvqce0","pricing_plan_id":"free"},{"bike_id":"86d98dda-1dfc-4a9c-8e82-50a628e5a830","system_id":"levelo_inurba_marseille","lat":43.30469,"lon":5.378915,"is_reserved":false,"is_disabled":false,"rental_uris":{"android":"levelo://app?vid=86d98dda-1dfc-4a9c-8e82-50a628e5a830","ios":"levelo://app?vid=86d98dda-1dfc-4a9c-8e82-50a628e5a830"},"vehicle_type_id":"4","last_reported":1707041238,"current_range_meters":13200,"station_id":"ce4bgup2rcd13ifvqcn0","pricing_plan_id":"free"},{"bike_id":"ad78e184-0738-43f7-a100-98d8a310c50a","system_id":"levelo_inurba_marseille","lat":43.304606,"lon":5.379026,"is_reserved":false,"is_disabled":false,"rental_uris":{"android":"levelo://app?vid=ad78e184-0738-43f7-a100-98d8a310c50a","ios":"levelo://app?vid=ad78e184-0738-43f7-a100-98d8a310c50a"},"vehicle_type_id":"4","last_reported":1707041238,"current_range_meters":26000,"station_id":"ce4bgup2rcd13ifvqcn0","pricing_plan_id":"free"},{"bike_id":"b7bd530a-22b9-49ae-a793-92ae9808f53f","system_id":"levelo_inurba_marseille","lat":43.304679,"lon":5.378979,"is_reserved":false,"is_disabled":false,"rental_uris":{"android":"levelo://app?vid=b7bd530a-22b9-49ae-a793-92ae9808f53f","ios":"levelo://app?vid=b7bd530a-22b9-49ae-a793-92ae9808f53f"},"vehicle_type_id":"4","last_reported":1707041238,"current_range_meters":26000,"station_id":"ce4bgup2rcd13ifvqcn0","pricing_plan_id":"free"},{"bike_id":"0c1f3d5f-c59a-417d-9386-d0f0cfd276da","system_id":"levelo_inurba_marseille","lat":43.3046,"lon":5.37901,"is_reserved":false,"is_disabled":false,"rental_uris":{"android":"levelo://app?vid=0c1f3d5f-c59a-417d-9386-d0f0cfd276da","ios":"levelo://app?vid=0c1f3d5f-c59a-417d-9386-d0f0cfd276da"},"vehicle_type_id":"4","last_reported":1707041238,"current_range_meters":28000,"station_id":"ce4bgup2rcd13ifvqcn0","pricing_plan_id":"free"},{"bike_id":"008eec45-f55e-4812-bd74-a050767e5eb6","system_id":"levelo_inurba_marseille","lat":43.304606,"lon":5.379026,"is_reserved":false,"is_disabled":false,"rental_uris":{"android":"levelo://app?vid=008eec45-f55e-4812-bd74-a050767e5eb6","ios":"levelo://app?vid=008eec45-f55e-4812-bd74-a050767e5eb6"},"vehicle_type_id":"4","last_reported":1707041238,"current_range_meters":30400,"station_id":"ce4bgup2rcd13ifvqcn0","pricing_plan_id":"free"},{"bike_id":"04bddb4c-ee4e-41ad-9c78-d50d26180486","system_id":"levelo_inurba_marseille","lat":43.304606,"lon":5.379026,"is_reserved":false,"is_disabled":false,"rental_uris":{"android":"levelo://app?vid=04bddb4c-ee4e-41ad-9c78-d50d26180486","ios":"levelo://app?vid=04bddb4c-ee4e-41ad-9c78-d50d26180486"},"vehicle_type_id":"4","last_reported":1707041238,"current_range_meters":9600,"station_id":"ce4bgup2rcd13ifvqcn0","pricing_plan_id":"free"},{"bike_id":"dda80877-c865-40ce-bbdd-2867bd7c1a84","system_id":"levelo_inurba_marseille","lat":43.302862,"lon":5.376945,"is_reserved":false,"is_disabled":false,"rental_uris":{"android":"levelo://app?vid=dda80877-c865-40ce-bbdd-2867bd7c1a84","ios":"levelo://app?vid=dda80877-c865-40ce-bbdd-2867bd7c1a84"},"vehicle_type_id":"4","last_reported":1707041238,"current_range_meters":30000,"station_id":"ce4bguh2rcd13ifvqcj0","pricing_plan_id":"free"},{"bike_id":"d8c3ab32-588c-4efc-9c92-a833b74e128e","system_id":"levelo_inurba_marseille","lat":43.302803,"lon":5.376937,"is_reserved":false,"is_disabled":false,"rental_uris":{"android":"levelo://app?vid=d8c3ab32-588c-4efc-9c92-a833b74e128e","ios":"levelo://app?vid=d8c3ab32-588c-4efc-9c92-a833b74e128e"},"vehicle_type_id":"4","last_reported":1707041238,"current_range_meters":7600,"station_id":"ce4bguh2rcd13ifvqcj0","pricing_plan_id":"free"},{"bike_id":"d5752836-f393-4b21-ba9c-c2b9ba436727","system_id":"levelo_inurba_marseille","lat":43.30278,"lon":5.377,"is_reserved":false,"is_disabled":false,"rental_uris":{"android":"levelo://app?vid=d5752836-f393-4b21-ba9c-c2b9ba436727","ios":"levelo://app?vid=d5752836-f393-4b21-ba9c-c2b9ba436727"},"vehicle_type_id":"4","last_reported":1707041238,"current_range_meters":27600,"station_id":"ce4bguh2rcd13ifvqcj0","pricing_plan_id":"free"},{"bike_id":"00dbb663-9cea-41d9-8de9-fbd251a832e6","system_id":"levelo_inurba_marseille","lat":43.30276,"lon":5.37703,"is_reserved":false,"is_disabled":false,"rental_uris":{"android":"levelo://app?vid=00dbb663-9cea-41d9-8de9-fbd251a832e6","ios":"levelo://app?vid=00dbb663-9cea-41d9-8de9-fbd251a832e6"},"vehicle_type_id":"4","last_reported":1707041238,"current_range_meters":8000,"station_id":"ce4bguh2rcd13ifvqcj0","pricing_plan_id":"free"},{"bike_id":"fb9beed5-30de-4ca4-8427-e5ed09d576be","system_id":"levelo_inurba_marseille","lat":43.301429,"lon":5.37413,"is_reserved":false,"is_disabled":false,"rental_uris":{"android":"levelo://app?vid=fb9beed5-30de-4ca4-8427-e5ed09d576be","ios":"levelo://app?vid=fb9beed5-30de-4ca4-8427-e5ed09d576be"},"vehicle_type_id":"4","last_reported":1707041238,"current_range_meters":28400,"station_id":"ce4bgs92rcd13ifvqcc0","pricing_plan_id":"free"},{"bike_id":"dc821c3a-4f4d-44a9-b18f-b9e0e033b436","system_id":"levelo_inurba_marseille","lat":43.30143,"lon":5.37413,"is_reserved":false,"is_disabled":false,"rental_uris":{"android":"levelo://app?vid=dc821c3a-4f4d-44a9-b18f-b9e0e033b436","ios":"levelo://app?vid=dc821c3a-4f4d-44a9-b18f-b9e0e033b436"},"vehicle_type_id":"4","last_reported":1707041238,"current_range_meters":7200,"station_id":"ce4bgs92rcd13ifvqcc0","pricing_plan_id":"free"},{"bike_id":"88caf3f3-f37b-44ff-995f-e67c3541a1a3","system_id":"levelo_inurba_marseille","lat":43.301427,"lon":5.37422,"is_reserved":false,"is_disabled":false,"rental_uris":{"android":"levelo://app?vid=88caf3f3-f37b-44ff-995f-e67c3541a1a3","ios":"levelo://app?vid=88caf3f3-f37b-44ff-995f-e67c3541a1a3"},"vehicle_type_id":"4","last_reported":1707041238,"current_range_meters":14000,"station_id":"","pricing_plan_id":"free"},{"bike_id":"b371d464-f331-4d4b-927b-48ada72e8284","system_id":"levelo_inurba_marseille","lat":43.30143,"lon":5.37413,"is_reserved":false,"is_disabled":false,"rental_uris":{"android":"levelo://app?vid=b371d464-f331-4d4b-927b-48ada72e8284","ios":"levelo://app?vid=b371d464-f331-4d4b-927b-48ada72e8284"},"vehicle_type_id":"4","last_reported":1707041238,"current_range_meters":29600,"station_id":"ce4bgs92rcd13ifvqcc0","pricing_plan_id":"free"},{"bike_id":"a6128042-25ec-43f3-84a1-f5c0259ed022","system_id":"levelo_inurba_marseille","lat":43.319935,"lon":5.381699,"is_reserved":false,"is_disabled":false,"rental_uris":{"android":"levelo://app?vid=a6128042-25ec-43f3-84a1-f5c0259ed022","ios":"levelo://app?vid=a6128042-25ec-43f3-84a1-f5c0259ed022"},"vehicle_type_id":"4","last_reported":1707041238,"current_range_meters":0,"station_id":"ce4bhr12rcd13ifvqhpg","pricing_plan_id":"free"},{"bike_id":"f79af8d1-dfa9-4d72-85ff-14dc169811f7","system_id":"levelo_inurba_marseille","lat":43.319935,"lon":5.381699,"is_reserved":false,"is_disabled":false,"rental_uris":{"android":"levelo://app?vid=f79af8d1-dfa9-4d72-85ff-14dc169811f7","ios":"levelo://app?vid=f79af8d1-dfa9-4d72-85ff-14dc169811f7"},"vehicle_type_id":"4","last_reported":1707041238,"current_range_meters":3600,"station_id":"ce4bhr12rcd13ifvqhpg","pricing_plan_id":"free"},{"bike_id":"245843ad-bfeb-465e-a2d5-e97ffa7d3f53","system_id":"levelo_inurba_marseille","lat":43.31358,"lon":5.38482,"is_reserved":false,"is_disabled":false,"rental_uris":{"android":"levelo://app?vid=245843ad-bfeb-465e-a2d5-e97ffa7d3f53","ios":"levelo://app?vid=245843ad-bfeb-465e-a2d5-e97ffa7d3f53"},"vehicle_type_id":"4","last_reported":1707041238,"current_range_meters":25600,"station_id":"ce4bgt92rcd13ifvqcf0","pricing_plan_id":"free"},{"bike_id":"081a7fd8-af35-4c81-ab9d-b17726dce11a","system_id":"levelo_inurba_marseille","lat":43.299222,"lon":5.365554,"is_reserved":false,"is_disabled":false,"rental_uris":{"android":"levelo://app?vid=081a7fd8-af35-4c81-ab9d-b17726dce11a","ios":"levelo://app?vid=081a7fd8-af35-4c81-ab9d-b17726dce11a"},"vehicle_type_id":"4","last_reported":1707041238,"current_range_meters":28000,"station_id":"ce4bgm92rcd13ifvqbr0","pricing_plan_id":"free"},{"bike_id":"cc0e57d2-755d-47fd-80eb-361c171173b7","system_id":"levelo_inurba_marseille","lat":43.299724,"lon":5.371829,"is_reserved":false,"is_disabled":false,"rental_uris":{"android":"levelo://app?vid=cc0e57d2-755d-47fd-80eb-361c171173b7","ios":"levelo://app?vid=cc0e57d2-755d-47fd-80eb-361c171173b7"},"vehicle_type_id":"4","last_reported":1707041238,"current_range_meters":28800,"station_id":"ce4bgr92rcd13ifvqc7g","pricing_plan_id":"free"},{"bike_id":"e6012e64-1773-4e5e-8a05-1911d278cc82","system_id":"levelo_inurba_marseille","lat":43.305364,"lon":5.384119,"is_reserved":false,"is_disabled":false,"rental_uris":{"android":"levelo://app?vid=e6012e64-1773-4e5e-8a05-1911d278cc82","ios":"levelo://app?vid=e6012e64-1773-4e5e-8a05-1911d278cc82"},"vehicle_type_id":"4","last_reported":1707041238,"current_range_meters":24000,"station_id":"ce4bgg92rcd13ifvqb30","pricing_plan_id":"free"},{"bike_id":"a9cba347-4e73-457e-9eea-e335a9b43359","system_id":"levelo_inurba_marseille","lat":43.298433,"lon":5.362774,"is_reserved":false,"is_disabled":false,"rental_uris":{"android":"levelo://app?vid=a9cba347-4e73-457e-9eea-e335a9b43359","ios":"levelo://app?vid=a9cba347-4e73-457e-9eea-e335a9b43359"},"vehicle_type_id":"4","last_reported":1707041238,"current_range_meters":28000,"station_id":"ce4bgpp2rcd13ifvqc3g","pricing_plan_id":"free"},{"bike_id":"a9240393-ec67-473d-aed6-83808febf2bd","system_id":"levelo_inurba_marseille","lat":43.298433,"lon":5.362774,"is_reserved":false,"is_disabled":false,"rental_uris":{"android":"levelo://app?vid=a9240393-ec67-473d-aed6-83808febf2bd","ios":"levelo://app?vid=a9240393-ec67-473d-aed6-83808febf2bd"},"vehicle_type_id":"4","last_reported":1707041238,"current_range_meters":24000,"station_id":"ce4bgpp2rcd13ifvqc3g","pricing_plan_id":"free"},{"bike_id":"3ecf0c34-ecec-43e6-b3f9-de741ec3da5b","system_id":"levelo_inurba_marseille","lat":43.299243,"lon":5.37481,"is_reserved":false,"is_disabled":false,"rental_uris":{"android":"levelo://app?vid=3ecf0c34-ecec-43e6-b3f9-de741ec3da5b","ios":"levelo://app?vid=3ecf0c34-ecec-43e6-b3f9-de741ec3da5b"},"vehicle_type_id":"4","last_reported":1707041238,"current_range_meters":31200,"station_id":"ce4bgjh2rcd13ifvqbg0","pricing_plan_id":"free"},{"bike_id":"c56ebd81-4131-4bad-8686-b93935841a3f","system_id":"levelo_inurba_marseille","lat":43.298433,"lon":5.362774,"is_reserved":false,"is_disabled":false,"rental_uris":{"android":"levelo://app?vid=c56ebd81-4131-4bad-8686-b93935841a3f","ios":"levelo://app?vid=c56ebd81-4131-4bad-8686-b93935841a3f"},"vehicle_type_id":"4","last_reported":1707041238,"current_range_meters":28000,"station_id":"ce4bgpp2rcd13ifvqc3g","pricing_plan_id":"free"},{"bike_id":"94db33a9-c9c7-4860-ad1b-c07716597cd8","system_id":"levelo_inurba_marseille","lat":43.298433,"lon":5.362774,"is_reserved":false,"is_disabled":false,"rental_uris":{"android":"levelo://app?vid=94db33a9-c9c7-4860-ad1b-c07716597cd8","ios":"levelo://app?vid=94db33a9-c9c7-4860-ad1b-c07716597cd8"},"vehicle_type_id":"4","last_reported":1707041238,"current_range_meters":17200,"station_id":"ce4bgpp2rcd13ifvqc3g","pricing_plan_id":"free"},{"bike_id":"97a01cb6-723e-4934-91b2-650d994ecac8","system_id":"levelo_inurba_marseille","lat":43.298433,"lon":5.362774,"is_reserved":false,"is_disabled":false,"rental_uris":{"android":"levelo://app?vid=97a01cb6-723e-4934-91b2-650d994ecac8","ios":"levelo://app?vid=97a01cb6-723e-4934-91b2-650d994ecac8"},"vehicle_type_id":"4","last_reported":1707041238,"current_range_meters":27600,"station_id":"ce4bgpp2rcd13ifvqc3g","pricing_plan_id":"free"},{"bike_id":"7bfd095f-e01c-4cb8-bf6c-5662c24fb7ed","system_id":"levelo_inurba_marseille","lat":43.299243,"lon":5.374807,"is_reserved":false,"is_disabled":false,"rental_uris":{"android":"levelo://app?vid=7bfd095f-e01c-4cb8-bf6c-5662c24fb7ed","ios":"levelo://app?vid=7bfd095f-e01c-4cb8-bf6c-5662c24fb7ed"},"vehicle_type_id":"4","last_reported":1707041238,"current_range_meters":30000,"station_id":"ce4bgjh2rcd13ifvqbg0","pricing_plan_id":"free"},{"bike_id":"d3766b14-fc7e-461f-9614-8a50557d539c","system_id":"levelo_inurba_marseille","lat":43.299243,"lon":5.37481,"is_reserved":false,"is_disabled":false,"rental_uris":{"android":"levelo://app?vid=d3766b14-fc7e-461f-9614-8a50557d539c","ios":"levelo://app?vid=d3766b14-fc7e-461f-9614-8a50557d539c"},"vehicle_type_id":"4","last_reported":1707041238,"current_range_meters":24400,"station_id":"ce4bgjh2rcd13ifvqbg0","pricing_plan_id":"free"},{"bike_id":"348afb32-a764-4791-9824-3ea63bc1c3bf","system_id":"levelo_inurba_marseille","lat":43.299243,"lon":5.374807,"is_reserved":false,"is_disabled":false,"rental_uris":{"android":"levelo://app?vid=348afb32-a764-4791-9824-3ea63bc1c3bf","ios":"levelo://app?vid=348afb32-a764-4791-9824-3ea63bc1c3bf"},"vehicle_type_id":"4","last_reported":1707041238,"current_range_meters":28000,"station_id":"ce4bgjh2rcd13ifvqbg0","pricing_plan_id":"free"},{"bike_id":"e330e314-19b4-41a2-a190-ff5827c11a65","system_id":"levelo_inurba_marseille","lat":43.299243,"lon":5.37481,"is_reserved":false,"is_disabled":false,"rental_uris":{"android":"levelo://app?vid=e330e314-19b4-41a2-a190-ff5827c11a65","ios":"levelo://app?vid=e330e314-19b4-41a2-a190-ff5827c11a65"},"vehicle_type_id":"4","last_reported":1707041238,"current_range_meters":25600,"station_id":"ce4bgjh2rcd13ifvqbg0","pricing_plan_id":"free"},{"bike_id":"c8b47d89-2893-4e8c-8749-bad2369ef7ea","system_id":"levelo_inurba_marseille","lat":43.297794,"lon":5.370888,"is_reserved":false,"is_disabled":false,"rental_uris":{"android":"levelo://app?vid=c8b47d89-2893-4e8c-8749-bad2369ef7ea","ios":"levelo://app?vid=c8b47d89-2893-4e8c-8749-bad2369ef7ea"},"vehicle_type_id":"4","last_reported":1707041238,"current_range_meters":30800,"station_id":"ce4bgop2rcd13ifvqc1g","pricing_plan_id":"free"},{"bike_id":"d3067c66-e7e2-46f1-8f0d-eabc61ae0d41","system_id":"levelo_inurba_marseille","lat":43.32285,"lon":5.38271,"is_reserved":false,"is_disabled":false,"rental_uris":{"android":"levelo://app?vid=d3067c66-e7e2-46f1-8f0d-eabc61ae0d41","ios":"levelo://app?vid=d3067c66-e7e2-46f1-8f0d-eabc61ae0d41"},"vehicle_type_id":"4","last_reported":1707041238,"current_range_meters":4400,"station_id":"ce4bhr12rcd13ifvqhqg","pricing_plan_id":"free"},{"bike_id":"a28f0eb8-6ba7-4a7e-9d96-6aa8c8ab36d0","system_id":"levelo_inurba_marseille","lat":43.322872,"lon":5.382756,"is_reserved":false,"is_disabled":false,"rental_uris":{"android":"levelo://app?vid=a28f0eb8-6ba7-4a7e-9d96-6aa8c8ab36d0","ios":"levelo://app?vid=a28f0eb8-6ba7-4a7e-9d96-6aa8c8ab36d0"},"vehicle_type_id":"4","last_reported":1707041238,"current_range_meters":30400,"station_id":"ce4bhr12rcd13ifvqhqg","pricing_plan_id":"free"},{"bike_id":"a6ad11c6-ec79-44b1-9eb4-e30fd4223469","system_id":"levelo_inurba_marseille","lat":43.32289,"lon":5.38277,"is_reserved":false,"is_disabled":false,"rental_uris":{"android":"levelo://app?vid=a6ad11c6-ec79-44b1-9eb4-e30fd4223469","ios":"levelo://app?vid=a6ad11c6-ec79-44b1-9eb4-e30fd4223469"},"vehicle_type_id":"4","last_reported":1707041238,"current_range_meters":6800,"station_id":"ce4bhr12rcd13ifvqhqg","pricing_plan_id":"free"},{"bike_id":"8b023912-5267-4e1c-a403-4d70b425cebe","system_id":"levelo_inurba_marseille","lat":43.322874,"lon":5.38281,"is_reserved":false,"is_disabled":false,"rental_uris":{"android":"levelo://app?vid=8b023912-5267-4e1c-a403-4d70b425cebe","ios":"levelo://app?vid=8b023912-5267-4e1c-a403-4d70b425cebe"},"vehicle_type_id":"4","last_reported":1707041238,"current_range_meters":29600,"station_id":"ce4bhr12rcd13ifvqhqg","pricing_plan_id":"free"},{"bike_id":"1900e2ea-9239-49b1-933e-57903fa99707","system_id":"levelo_inurba_marseille","lat":43.32826,"lon":5.36695,"is_reserved":false,"is_disabled":false,"rental_uris":{"android":"levelo://app?vid=1900e2ea-9239-49b1-933e-57903fa99707","ios":"levelo://app?vid=1900e2ea-9239-49b1-933e-57903fa99707"},"vehicle_type_id":"4","last_reported":1707041238,"current_range_meters":11600,"station_id":"ce4bhs92rcd13ifvqi0g","pricing_plan_id":"free"},{"bike_id":"938dbba0-48ba-42f4-a620-bfe19f147801","system_id":"levelo_inurba_marseille","lat":43.297163,"lon":5.365866,"is_reserved":false,"is_disabled":false,"rental_uris":{"android":"levelo://app?vid=938dbba0-48ba-42f4-a620-bfe19f147801","ios":"levelo://app?vid=938dbba0-48ba-42f4-a620-bfe19f147801"},"vehicle_type_id":"4","last_reported":1707041238,"current_range_meters":27600,"station_id":"ce4bgn12rcd13ifvqbt0","pricing_plan_id":"free"},{"bike_id":"585fcdd8-18a2-4341-9871-629e239f10dc","system_id":"levelo_inurba_marseille","lat":43.297163,"lon":5.365866,"is_reserved":false,"is_disabled":false,"rental_uris":{"android":"levelo://app?vid=585fcdd8-18a2-4341-9871-629e239f10dc","ios":"levelo://app?vid=585fcdd8-18a2-4341-9871-629e239f10dc"},"vehicle_type_id":"4","last_reported":1707041238,"current_range_meters":12800,"station_id":"ce4bgn12rcd13ifvqbt0","pricing_plan_id":"free"},{"bike_id":"9323bd85-c423-4295-95c3-667ba93cdfa9","system_id":"levelo_inurba_marseille","lat":43.2968,"lon":5.37291,"is_reserved":false,"is_disabled":false,"rental_uris":{"android":"levelo://app?vid=9323bd85-c423-4295-95c3-667ba93cdfa9","ios":"levelo://app?vid=9323bd85-c423-4295-95c3-667ba93cdfa9"},"vehicle_type_id":"4","last_reported":1707041238,"current_range_meters":27200,"station_id":"ce4bgk12rcd13ifvqbj0","pricing_plan_id":"free"},{"bike_id":"74733a03-48f0-4177-9bbb-9f0dce4460d0","system_id":"levelo_inurba_marseille","lat":43.296131,"lon":5.370791,"is_reserved":false,"is_disabled":false,"rental_uris":{"android":"levelo://app?vid=74733a03-48f0-4177-9bbb-9f0dce4460d0","ios":"levelo://app?vid=74733a03-48f0-4177-9bbb-9f0dce4460d0"},"vehicle_type_id":"4","last_reported":1707041238,"current_range_meters":30800,"station_id":"ce4bgnh2rcd13ifvqc0g","pricing_plan_id":"free"},{"bike_id":"ff1ae06a-ec49-4ca9-baef-0defc699b295","system_id":"levelo_inurba_marseille","lat":43.29573,"lon":5.367355,"is_reserved":false,"is_disabled":false,"rental_uris":{"android":"levelo://app?vid=ff1ae06a-ec49-4ca9-baef-0defc699b295","ios":"levelo://app?vid=ff1ae06a-ec49-4ca9-baef-0defc699b295"},"vehicle_type_id":"4","last_reported":1707041238,"current_range_meters":26400,"station_id":"ce4bgph2rcd13ifvqc2g","pricing_plan_id":"free"},{"bike_id":"b063e9cd-9366-460b-a66f-617b96cdd162","system_id":"levelo_inurba_marseille","lat":43.29573,"lon":5.367355,"is_reserved":false,"is_disabled":false,"rental_uris":{"android":"levelo://app?vid=b063e9cd-9366-460b-a66f-617b96cdd162","ios":"levelo://app?vid=b063e9cd-9366-460b-a66f-617b96cdd162"},"vehicle_type_id":"4","last_reported":1707041238,"current_range_meters":2800,"station_id":"ce4bgph2rcd13ifvqc2g","pricing_plan_id":"free"},{"bike_id":"953be6df-c951-40a9-9e33-d564cc315870","system_id":"levelo_inurba_marseille","lat":43.29573,"lon":5.367355,"is_reserved":false,"is_disabled":false,"rental_uris":{"android":"levelo://app?vid=953be6df-c951-40a9-9e33-d564cc315870","ios":"levelo://app?vid=953be6df-c951-40a9-9e33-d564cc315870"},"vehicle_type_id":"4","last_reported":1707041238,"current_range_meters":30000,"station_id":"ce4bgph2rcd13ifvqc2g","pricing_plan_id":"free"},{"bike_id":"e71dbeb2-bdcd-41a9-9e92-b0477debf34d","system_id":"levelo_inurba_marseille","lat":43.296512,"lon":5.374463,"is_reserved":false,"is_disabled":false,"rental_uris":{"android":"levelo://app?vid=e71dbeb2-bdcd-41a9-9e92-b0477debf34d","ios":"levelo://app?vid=e71dbeb2-bdcd-41a9-9e92-b0477debf34d"},"vehicle_type_id":"4","last_reported":1707041238,"current_range_meters":13200,"station_id":"","pricing_plan_id":"free"},{"bike_id":"521eab06-9f05-4981-8840-197fa8924680","system_id":"levelo_inurba_marseille","lat":43.299028,"lon":5.381509,"is_reserved":false,"is_disabled":false,"rental_uris":{"android":"levelo://app?vid=521eab06-9f05-4981-8840-197fa8924680","ios":"levelo://app?vid=521eab06-9f05-4981-8840-197fa8924680"},"vehicle_type_id":"4","last_reported":1707041238,"current_range_meters":19600,"station_id":"ce4bgj12rcd13ifvqbc0","pricing_plan_id":"free"},{"bike_id":"9d6dc357-9025-4183-a1a3-215c66254f27","system_id":"levelo_inurba_marseille","lat":43.299028,"lon":5.381509,"is_reserved":false,"is_disabled":false,"rental_uris":{"android":"levelo://app?vid=9d6dc357-9025-4183-a1a3-215c66254f27","ios":"levelo://app?vid=9d6dc357-9025-4183-a1a3-215c66254f27"},"vehicle_type_id":"4","last_reported":1707041238,"current_range_meters":6000,"station_id":"ce4bgj12rcd13ifvqbc0","pricing_plan_id":"free"},{"bike_id":"70fbf395-cd7a-4255-a601-840249551b83","system_id":"levelo_inurba_marseille","lat":43.299028,"lon":5.381509,"is_reserved":false,"is_disabled":false,"rental_uris":{"android":"levelo://app?vid=70fbf395-cd7a-4255-a601-840249551b83","ios":"levelo://app?vid=70fbf395-cd7a-4255-a601-840249551b83"},"vehicle_type_id":"4","last_reported":1707041238,"current_range_meters":16800,"station_id":"ce4bgj12rcd13ifvqbc0","pricing_plan_id":"free"},{"bike_id":"53eb5b4d-7063-457e-b4b3-96045e66a654","system_id":"levelo_inurba_marseille","lat":43.309589,"lon":5.390258,"is_reserved":false,"is_disabled":false,"rental_uris":{"android":"levelo://app?vid=53eb5b4d-7063-457e-b4b3-96045e66a654","ios":"levelo://app?vid=53eb5b4d-7063-457e-b4b3-96045e66a654"},"vehicle_type_id":"4","last_reported":1707041238,"current_range_meters":27600,"station_id":"ce4bgup2rcd13ifvqco0","pricing_plan_id":"free"},{"bike_id":"86eba5ee-3f3e-465e-879d-a26eca611b6f","system_id":"levelo_inurba_marseille","lat":43.31827,"lon":5.39025,"is_reserved":false,"is_disabled":false,"rental_uris":{"android":"levelo://app?vid=86eba5ee-3f3e-465e-879d-a26eca611b6f","ios":"levelo://app?vid=86eba5ee-3f3e-465e-879d-a26eca611b6f"},"vehicle_type_id":"4","last_reported":1707041238,"current_range_meters":17600,"station_id":"","pricing_plan_id":"free"},{"bike_id":"9e3e8a49-c694-461d-a7ef-2aff6011a13b","system_id":"levelo_inurba_marseille","lat":43.29801,"lon":5.3809,"is_reserved":false,"is_disabled":false,"rental_uris":{"android":"levelo://app?vid=9e3e8a49-c694-461d-a7ef-2aff6011a13b","ios":"levelo://app?vid=9e3e8a49-c694-461d-a7ef-2aff6011a13b"},"vehicle_type_id":"4","last_reported":1707041238,"current_range_meters":15200,"station_id":"ce4bgip2rcd13ifvqbb0","pricing_plan_id":"free"},{"bike_id":"a7aa0637-73f7-4bee-9cc9-124d30461125","system_id":"levelo_inurba_marseille","lat":43.295748,"lon":5.37522,"is_reserved":false,"is_disabled":false,"rental_uris":{"android":"levelo://app?vid=a7aa0637-73f7-4bee-9cc9-124d30461125","ios":"levelo://app?vid=a7aa0637-73f7-4bee-9cc9-124d30461125"},"vehicle_type_id":"4","last_reported":1707041238,"current_range_meters":28000,"station_id":"ce4bgh92rcd13ifvqb50","pricing_plan_id":"free"},{"bike_id":"d3f312f8-aaf1-45e6-b1d2-2c288fd56720","system_id":"levelo_inurba_marseille","lat":43.295748,"lon":5.37522,"is_reserved":false,"is_disabled":false,"rental_uris":{"android":"levelo://app?vid=d3f312f8-aaf1-45e6-b1d2-2c288fd56720","ios":"levelo://app?vid=d3f312f8-aaf1-45e6-b1d2-2c288fd56720"},"vehicle_type_id":"4","last_reported":1707041238,"current_range_meters":7200,"station_id":"ce4bgh92rcd13ifvqb50","pricing_plan_id":"free"},{"bike_id":"2522107c-fc83-4258-9d34-27490763786f","system_id":"levelo_inurba_marseille","lat":43.296277,"lon":5.377108,"is_reserved":false,"is_disabled":false,"rental_uris":{"android":"levelo://app?vid=2522107c-fc83-4258-9d34-27490763786f","ios":"levelo://app?vid=2522107c-fc83-4258-9d34-27490763786f"},"vehicle_type_id":"4","last_reported":1707041238,"current_range_meters":0,"station_id":"ce4bgi92rcd13ifvqb90","pricing_plan_id":"free"},{"bike_id":"6b036af6-bc8f-4714-b683-e575203de320","system_id":"levelo_inurba_marseille","lat":43.296277,"lon":5.377108,"is_reserved":false,"is_disabled":false,"rental_uris":{"android":"levelo://app?vid=6b036af6-bc8f-4714-b683-e575203de320","ios":"levelo://app?vid=6b036af6-bc8f-4714-b683-e575203de320"},"vehicle_type_id":"4","last_reported":1707041238,"current_range_meters":10800,"station_id":"ce4bgi92rcd13ifvqb90","pricing_plan_id":"free"},{"bike_id":"30cd309c-2cb6-4ce9-b1d7-2a1a7c7bce77","system_id":"levelo_inurba_marseille","lat":43.296263,"lon":5.377094,"is_reserved":false,"is_disabled":false,"rental_uris":{"android":"levelo://app?vid=30cd309c-2cb6-4ce9-b1d7-2a1a7c7bce77","ios":"levelo://app?vid=30cd309c-2cb6-4ce9-b1d7-2a1a7c7bce77"},"vehicle_type_id":"4","last_reported":1707041238,"current_range_meters":6000,"station_id":"ce4bgi92rcd13ifvqb90","pricing_plan_id":"free"},{"bike_id":"2345f9b7-f010-4140-8d4a-2cd557dc21b9","system_id":"levelo_inurba_marseille","lat":43.296263,"lon":5.377094,"is_reserved":false,"is_disabled":false,"rental_uris":{"android":"levelo://app?vid=2345f9b7-f010-4140-8d4a-2cd557dc21b9","ios":"levelo://app?vid=2345f9b7-f010-4140-8d4a-2cd557dc21b9"},"vehicle_type_id":"4","last_reported":1707041238,"current_range_meters":20800,"station_id":"ce4bgi92rcd13ifvqb90","pricing_plan_id":"free"},{"bike_id":"88b58360-8d81-41e7-99fa-04ecb7294cd1","system_id":"levelo_inurba_marseille","lat":43.29535,"lon":5.37501,"is_reserved":false,"is_disabled":false,"rental_uris":{"android":"levelo://app?vid=88b58360-8d81-41e7-99fa-04ecb7294cd1","ios":"levelo://app?vid=88b58360-8d81-41e7-99fa-04ecb7294cd1"},"vehicle_type_id":"4","last_reported":1707041238,"current_range_meters":30000,"station_id":"ce4bgkp2rcd13ifvqbmg","pricing_plan_id":"free"},{"bike_id":"09889e91-2384-4710-824b-59b3583b6c33","system_id":"levelo_inurba_marseille","lat":43.295279,"lon":5.375048,"is_reserved":false,"is_disabled":false,"rental_uris":{"android":"levelo://app?vid=09889e91-2384-4710-824b-59b3583b6c33","ios":"levelo://app?vid=09889e91-2384-4710-824b-59b3583b6c33"},"vehicle_type_id":"4","last_reported":1707041238,"current_range_meters":31200,"station_id":"ce4bgkp2rcd13ifvqbmg","pricing_plan_id":"free"},{"bike_id":"1fdd25e8-d50c-438e-9069-174de30d9720","system_id":"levelo_inurba_marseille","lat":43.29525,"lon":5.37505,"is_reserved":false,"is_disabled":false,"rental_uris":{"android":"levelo://app?vid=1fdd25e8-d50c-438e-9069-174de30d9720","ios":"levelo://app?vid=1fdd25e8-d50c-438e-9069-174de30d9720"},"vehicle_type_id":"4","last_reported":1707041238,"current_range_meters":27200,"station_id":"ce4bgkp2rcd13ifvqbmg","pricing_plan_id":"free"},{"bike_id":"5880b457-cfc9-479f-9ff7-c1595118015d","system_id":"levelo_inurba_marseille","lat":43.295279,"lon":5.375048,"is_reserved":false,"is_disabled":false,"rental_uris":{"android":"levelo://app?vid=5880b457-cfc9-479f-9ff7-c1595118015d","ios":"levelo://app?vid=5880b457-cfc9-479f-9ff7-c1595118015d"},"vehicle_type_id":"4","last_reported":1707041238,"current_range_meters":25600,"station_id":"ce4bgkp2rcd13ifvqbmg","pricing_plan_id":"free"},{"bike_id":"02e5c3ba-d57f-45cd-83a5-34e8a95ace48","system_id":"levelo_inurba_marseille","lat":43.32367,"lon":5.388836,"is_reserved":false,"is_disabled":false,"rental_uris":{"android":"levelo://app?vid=02e5c3ba-d57f-45cd-83a5-34e8a95ace48","ios":"levelo://app?vid=02e5c3ba-d57f-45cd-83a5-34e8a95ace48"},"vehicle_type_id":"4","last_reported":1707041238,"current_range_meters":11600,"station_id":"ce4bhqp2rcd13ifvqhog","pricing_plan_id":"free"},{"bike_id":"7cf3b8af-b8d6-432c-b58a-109610b9908d","system_id":"levelo_inurba_marseille","lat":43.32367,"lon":5.388836,"is_reserved":false,"is_disabled":false,"rental_uris":{"android":"levelo://app?vid=7cf3b8af-b8d6-432c-b58a-109610b9908d","ios":"levelo://app?vid=7cf3b8af-b8d6-432c-b58a-109610b9908d"},"vehicle_type_id":"4","last_reported":1707041238,"current_range_meters":23600,"station_id":"ce4bhqp2rcd13ifvqhog","pricing_plan_id":"free"},{"bike_id":"6546d732-35dc-4d39-bdea-98269a1dd008","system_id":"levelo_inurba_marseille","lat":43.32367,"lon":5.388836,"is_reserved":false,"is_disabled":false,"rental_uris":{"android":"levelo://app?vid=6546d732-35dc-4d39-bdea-98269a1dd008","ios":"levelo://app?vid=6546d732-35dc-4d39-bdea-98269a1dd008"},"vehicle_type_id":"4","last_reported":1707041238,"current_range_meters":5200,"station_id":"ce4bhqp2rcd13ifvqhog","pricing_plan_id":"free"},{"bike_id":"75ed1df4-b7df-4e88-9e9a-696a19f1762a","system_id":"levelo_inurba_marseille","lat":43.32367,"lon":5.38881,"is_reserved":false,"is_disabled":false,"rental_uris":{"android":"levelo://app?vid=75ed1df4-b7df-4e88-9e9a-696a19f1762a","ios":"levelo://app?vid=75ed1df4-b7df-4e88-9e9a-696a19f1762a"},"vehicle_type_id":"4","last_reported":1707041238,"current_range_meters":6400,"station_id":"ce4bhqp2rcd13ifvqhog","pricing_plan_id":"free"},{"bike_id":"c6478534-8a92-48aa-87e2-bf565bc04fb6","system_id":"levelo_inurba_marseille","lat":43.32367,"lon":5.388836,"is_reserved":false,"is_disabled":false,"rental_uris":{"android":"levelo://app?vid=c6478534-8a92-48aa-87e2-bf565bc04fb6","ios":"levelo://app?vid=c6478534-8a92-48aa-87e2-bf565bc04fb6"},"vehicle_type_id":"4","last_reported":1707041238,"current_range_meters":3200,"station_id":"ce4bhqp2rcd13ifvqhog","pricing_plan_id":"free"},{"bike_id":"9b081c91-637e-47ff-a6d8-ba13bb5f1be4","system_id":"levelo_inurba_marseille","lat":43.32367,"lon":5.388836,"is_reserved":false,"is_disabled":false,"rental_uris":{"android":"levelo://app?vid=9b081c91-637e-47ff-a6d8-ba13bb5f1be4","ios":"levelo://app?vid=9b081c91-637e-47ff-a6d8-ba13bb5f1be4"},"vehicle_type_id":"4","last_reported":1707041238,"current_range_meters":28000,"station_id":"ce4bhqp2rcd13ifvqhog","pricing_plan_id":"free"},{"bike_id":"3740d3e5-15eb-49ed-91a0-b10a5155b016","system_id":"levelo_inurba_marseille","lat":43.29602,"lon":5.381084,"is_reserved":false,"is_disabled":false,"rental_uris":{"android":"levelo://app?vid=3740d3e5-15eb-49ed-91a0-b10a5155b016","ios":"levelo://app?vid=3740d3e5-15eb-49ed-91a0-b10a5155b016"},"vehicle_type_id":"4","last_reported":1707041238,"current_range_meters":20800,"station_id":"ce4bgl12rcd13ifvqbo0","pricing_plan_id":"free"},{"bike_id":"6e14ae2e-1e1c-4f20-afa5-8352088850ac","system_id":"levelo_inurba_marseille","lat":43.296169,"lon":5.381288,"is_reserved":false,"is_disabled":false,"rental_uris":{"android":"levelo://app?vid=6e14ae2e-1e1c-4f20-afa5-8352088850ac","ios":"levelo://app?vid=6e14ae2e-1e1c-4f20-afa5-8352088850ac"},"vehicle_type_id":"4","last_reported":1707041238,"current_range_meters":30000,"station_id":"ce4bgl12rcd13ifvqbo0","pricing_plan_id":"free"},{"bike_id":"15144fb0-4d84-4d9c-a91f-0456b8a288e8","system_id":"levelo_inurba_marseille","lat":43.29601,"lon":5.381084,"is_reserved":false,"is_disabled":false,"rental_uris":{"android":"levelo://app?vid=15144fb0-4d84-4d9c-a91f-0456b8a288e8","ios":"levelo://app?vid=15144fb0-4d84-4d9c-a91f-0456b8a288e8"},"vehicle_type_id":"4","last_reported":1707041238,"current_range_meters":24000,"station_id":"ce4bgl12rcd13ifvqbo0","pricing_plan_id":"free"},{"bike_id":"2fd25843-f4ca-43b5-8abf-58b764215523","system_id":"levelo_inurba_marseille","lat":43.29309,"lon":5.37169,"is_reserved":false,"is_disabled":false,"rental_uris":{"android":"levelo://app?vid=2fd25843-f4ca-43b5-8abf-58b764215523","ios":"levelo://app?vid=2fd25843-f4ca-43b5-8abf-58b764215523"},"vehicle_type_id":"4","last_reported":1707041238,"current_range_meters":31200,"station_id":"ce4bgh92rcd13ifvqb40","pricing_plan_id":"free"},{"bike_id":"5ce0ef9a-4ba4-4528-ac56-92362f11d84f","system_id":"levelo_inurba_marseille","lat":43.293009,"lon":5.374584,"is_reserved":false,"is_disabled":false,"rental_uris":{"android":"levelo://app?vid=5ce0ef9a-4ba4-4528-ac56-92362f11d84f","ios":"levelo://app?vid=5ce0ef9a-4ba4-4528-ac56-92362f11d84f"},"vehicle_type_id":"4","last_reported":1707041238,"current_range_meters":22400,"station_id":"ce4bgi12rcd13ifvqb70","pricing_plan_id":"free"},{"bike_id":"3f4e8a64-646b-4a90-92eb-90d18aad266b","system_id":"levelo_inurba_marseille","lat":43.293009,"lon":5.374584,"is_reserved":false,"is_disabled":false,"rental_uris":{"android":"levelo://app?vid=3f4e8a64-646b-4a90-92eb-90d18aad266b","ios":"levelo://app?vid=3f4e8a64-646b-4a90-92eb-90d18aad266b"},"vehicle_type_id":"4","last_reported":1707041238,"current_range_meters":28000,"station_id":"ce4bgi12rcd13ifvqb70","pricing_plan_id":"free"},{"bike_id":"a0e0aeab-125d-4a0f-99fd-e26d7fd53230","system_id":"levelo_inurba_marseille","lat":43.29295,"lon":5.37463,"is_reserved":false,"is_disabled":false,"rental_uris":{"android":"levelo://app?vid=a0e0aeab-125d-4a0f-99fd-e26d7fd53230","ios":"levelo://app?vid=a0e0aeab-125d-4a0f-99fd-e26d7fd53230"},"vehicle_type_id":"4","last_reported":1707041238,"current_range_meters":25200,"station_id":"ce4bgi12rcd13ifvqb70","pricing_plan_id":"free"},{"bike_id":"55029992-17cd-46d8-b10d-97806884d424","system_id":"levelo_inurba_marseille","lat":43.29233,"lon":5.36062,"is_reserved":false,"is_disabled":false,"rental_uris":{"android":"levelo://app?vid=55029992-17cd-46d8-b10d-97806884d424","ios":"levelo://app?vid=55029992-17cd-46d8-b10d-97806884d424"},"vehicle_type_id":"4","last_reported":1707041238,"current_range_meters":18000,"station_id":"ce4bhbh2rcd13ifvqeqg","pricing_plan_id":"free"},{"bike_id":"11001c0a-2464-4d4f-a0d8-ebcf3dd30d9f","system_id":"levelo_inurba_marseille","lat":43.2923,"lon":5.360591,"is_reserved":false,"is_disabled":false,"rental_uris":{"android":"levelo://app?vid=11001c0a-2464-4d4f-a0d8-ebcf3dd30d9f","ios":"levelo://app?vid=11001c0a-2464-4d4f-a0d8-ebcf3dd30d9f"},"vehicle_type_id":"4","last_reported":1707041238,"current_range_meters":6400,"station_id":"ce4bhbh2rcd13ifvqeqg","pricing_plan_id":"free"},{"bike_id":"b1409150-205c-4839-a43b-7decc022f0a7","system_id":"levelo_inurba_marseille","lat":43.29227,"lon":5.36066,"is_reserved":false,"is_disabled":false,"rental_uris":{"android":"levelo://app?vid=b1409150-205c-4839-a43b-7decc022f0a7","ios":"levelo://app?vid=b1409150-205c-4839-a43b-7decc022f0a7"},"vehicle_type_id":"4","last_reported":1707041238,"current_range_meters":18000,"station_id":"ce4bhbh2rcd13ifvqeqg","pricing_plan_id":"free"},{"bike_id":"66d5bdf3-b6f8-445c-8e4d-8188318844fb","system_id":"levelo_inurba_marseille","lat":43.30085,"lon":5.390856,"is_reserved":false,"is_disabled":false,"rental_uris":{"android":"levelo://app?vid=66d5bdf3-b6f8-445c-8e4d-8188318844fb","ios":"levelo://app?vid=66d5bdf3-b6f8-445c-8e4d-8188318844fb"},"vehicle_type_id":"4","last_reported":1707041238,"current_range_meters":0,"station_id":"ce4bh192rcd13ifvqdb0","pricing_plan_id":"free"},{"bike_id":"f20ebac8-851c-4e23-93e7-e3113c7f799a","system_id":"levelo_inurba_marseille","lat":43.293009,"lon":5.374584,"is_reserved":false,"is_disabled":false,"rental_uris":{"android":"levelo://app?vid=f20ebac8-851c-4e23-93e7-e3113c7f799a","ios":"levelo://app?vid=f20ebac8-851c-4e23-93e7-e3113c7f799a"},"vehicle_type_id":"4","last_reported":1707041238,"current_range_meters":8800,"station_id":"ce4bgi12rcd13ifvqb70","pricing_plan_id":"free"},{"bike_id":"89302285-f62a-46e1-b80e-911c555e50d4","system_id":"levelo_inurba_marseille","lat":43.291671,"lon":5.371575,"is_reserved":false,"is_disabled":false,"rental_uris":{"android":"levelo://app?vid=89302285-f62a-46e1-b80e-911c555e50d4","ios":"levelo://app?vid=89302285-f62a-46e1-b80e-911c555e50d4"},"vehicle_type_id":"4","last_reported":1707041238,"current_range_meters":19200,"station_id":"ce4bha92rcd13ifvqeh0","pricing_plan_id":"free"},{"bike_id":"124b69bf-42e7-4d37-9cff-2887656ee817","system_id":"levelo_inurba_marseille","lat":43.291994,"lon":5.357886,"is_reserved":false,"is_disabled":false,"rental_uris":{"android":"levelo://app?vid=124b69bf-42e7-4d37-9cff-2887656ee817","ios":"levelo://app?vid=124b69bf-42e7-4d37-9cff-2887656ee817"},"vehicle_type_id":"4","last_reported":1707041238,"current_range_meters":9200,"station_id":"ce4bhb12rcd13ifvqel0","pricing_plan_id":"free"},{"bike_id":"45411c9c-df60-4ad5-ae2b-9d258e385b28","system_id":"levelo_inurba_marseille","lat":43.291994,"lon":5.357886,"is_reserved":false,"is_disabled":false,"rental_uris":{"android":"levelo://app?vid=45411c9c-df60-4ad5-ae2b-9d258e385b28","ios":"levelo://app?vid=45411c9c-df60-4ad5-ae2b-9d258e385b28"},"vehicle_type_id":"4","last_reported":1707041238,"current_range_meters":19600,"station_id":"ce4bhb12rcd13ifvqel0","pricing_plan_id":"free"},{"bike_id":"d4ba593a-6b35-4748-9648-3fb71b1d6ea8","system_id":"levelo_inurba_marseille","lat":43.291941,"lon":5.35796,"is_reserved":false,"is_disabled":false,"rental_uris":{"android":"levelo://app?vid=d4ba593a-6b35-4748-9648-3fb71b1d6ea8","ios":"levelo://app?vid=d4ba593a-6b35-4748-9648-3fb71b1d6ea8"},"vehicle_type_id":"4","last_reported":1707041238,"current_range_meters":0,"station_id":"ce4bhb12rcd13ifvqel0","pricing_plan_id":"free"},{"bike_id":"3e221da4-209e-4fcb-9809-2a6f3960c272","system_id":"levelo_inurba_marseille","lat":43.313291,"lon":5.396838,"is_reserved":false,"is_disabled":false,"rental_uris":{"android":"levelo://app?vid=3e221da4-209e-4fcb-9809-2a6f3960c272","ios":"levelo://app?vid=3e221da4-209e-4fcb-9809-2a6f3960c272"},"vehicle_type_id":"4","last_reported":1707041238,"current_range_meters":5200,"station_id":"ce4bgvp2rcd13ifvqcu0","pricing_plan_id":"free"},{"bike_id":"c6daa204-4f4a-44c4-8fd3-0dabf60cd5d8","system_id":"levelo_inurba_marseille","lat":43.313291,"lon":5.396838,"is_reserved":false,"is_disabled":false,"rental_uris":{"android":"levelo://app?vid=c6daa204-4f4a-44c4-8fd3-0dabf60cd5d8","ios":"levelo://app?vid=c6daa204-4f4a-44c4-8fd3-0dabf60cd5d8"},"vehicle_type_id":"4","last_reported":1707041238,"current_range_meters":5600,"station_id":"ce4bgvp2rcd13ifvqcu0","pricing_plan_id":"free"},{"bike_id":"b62de982-61e2-4d2b-a4ea-43aa513da9ea","system_id":"levelo_inurba_marseille","lat":43.31332,"lon":5.39692,"is_reserved":false,"is_disabled":false,"rental_uris":{"android":"levelo://app?vid=b62de982-61e2-4d2b-a4ea-43aa513da9ea","ios":"levelo://app?vid=b62de982-61e2-4d2b-a4ea-43aa513da9ea"},"vehicle_type_id":"4","last_reported":1707041238,"current_range_meters":0,"station_id":"ce4bgvp2rcd13ifvqcu0","pricing_plan_id":"free"},{"bike_id":"d7b864d9-0f4e-483f-a3aa-3de53903d219","system_id":"levelo_inurba_marseille","lat":43.313291,"lon":5.396838,"is_reserved":false,"is_disabled":false,"rental_uris":{"android":"levelo://app?vid=d7b864d9-0f4e-483f-a3aa-3de53903d219","ios":"levelo://app?vid=d7b864d9-0f4e-483f-a3aa-3de53903d219"},"vehicle_type_id":"4","last_reported":1707041238,"current_range_meters":28400,"station_id":"ce4bgvp2rcd13ifvqcu0","pricing_plan_id":"free"},{"bike_id":"6ed332da-0789-4936-b02e-ea957c7ba7f2","system_id":"levelo_inurba_marseille","lat":43.29529,"lon":5.385581,"is_reserved":false,"is_disabled":false,"rental_uris":{"android":"levelo://app?vid=6ed332da-0789-4936-b02e-ea957c7ba7f2","ios":"levelo://app?vid=6ed332da-0789-4936-b02e-ea957c7ba7f2"},"vehicle_type_id":"4","last_reported":1707041238,"current_range_meters":30400,"station_id":"ce4bgih2rcd13ifvqba0","pricing_plan_id":"free"},{"bike_id":"4419a724-5255-4916-9ab6-08c2c5ae2fc3","system_id":"levelo_inurba_marseille","lat":43.316313,"lon":5.396737,"is_reserved":false,"is_disabled":false,"rental_uris":{"android":"levelo://app?vid=4419a724-5255-4916-9ab6-08c2c5ae2fc3","ios":"levelo://app?vid=4419a724-5255-4916-9ab6-08c2c5ae2fc3"},"vehicle_type_id":"4","last_reported":1707041238,"current_range_meters":29200,"station_id":"","pricing_plan_id":"free"},{"bike_id":"4421a82e-4263-4c94-92b5-a03af7fed243","system_id":"levelo_inurba_marseille","lat":43.29529,"lon":5.385581,"is_reserved":false,"is_disabled":false,"rental_uris":{"android":"levelo://app?vid=4421a82e-4263-4c94-92b5-a03af7fed243","ios":"levelo://app?vid=4421a82e-4263-4c94-92b5-a03af7fed243"},"vehicle_type_id":"4","last_reported":1707041238,"current_range_meters":14800,"station_id":"ce4bgih2rcd13ifvqba0","pricing_plan_id":"free"},{"bike_id":"9ac86452-5a32-435e-8419-dcad2a7fd700","system_id":"levelo_inurba_marseille","lat":43.289885,"lon":5.368006,"is_reserved":false,"is_disabled":false,"rental_uris":{"android":"levelo://app?vid=9ac86452-5a32-435e-8419-dcad2a7fd700","ios":"levelo://app?vid=9ac86452-5a32-435e-8419-dcad2a7fd700"},"vehicle_type_id":"4","last_reported":1707041238,"current_range_meters":18400,"station_id":"","pricing_plan_id":"free"},{"bike_id":"7c755874-04f4-49a7-881c-3dccfea2f0df","system_id":"levelo_inurba_marseille","lat":43.290441,"lon":5.359123,"is_reserved":false,"is_disabled":false,"rental_uris":{"android":"levelo://app?vid=7c755874-04f4-49a7-881c-3dccfea2f0df","ios":"levelo://app?vid=7c755874-04f4-49a7-881c-3dccfea2f0df"},"vehicle_type_id":"4","last_reported":1707041238,"current_range_meters":0,"station_id":"","pricing_plan_id":"free"},{"bike_id":"91d2ebdd-420e-4452-b4e3-f21638601c3e","system_id":"levelo_inurba_marseille","lat":43.290407,"lon":5.359154,"is_reserved":false,"is_disabled":false,"rental_uris":{"android":"levelo://app?vid=91d2ebdd-420e-4452-b4e3-f21638601c3e","ios":"levelo://app?vid=91d2ebdd-420e-4452-b4e3-f21638601c3e"},"vehicle_type_id":"4","last_reported":1707041238,"current_range_meters":2800,"station_id":"ce4bha92rcd13ifvqeg0","pricing_plan_id":"free"},{"bike_id":"c8f0ae1e-e3d3-4a3c-9511-2394479e319b","system_id":"levelo_inurba_marseille","lat":43.294153,"lon":5.386305,"is_reserved":false,"is_disabled":false,"rental_uris":{"android":"levelo://app?vid=c8f0ae1e-e3d3-4a3c-9511-2394479e319b","ios":"levelo://app?vid=c8f0ae1e-e3d3-4a3c-9511-2394479e319b"},"vehicle_type_id":"4","last_reported":1707041238,"current_range_meters":10400,"station_id":"ce4bh2h2rcd13ifvqdh0","pricing_plan_id":"free"},{"bike_id":"5f7b0bdf-ec18-4f51-9138-6e2d8f366be5","system_id":"levelo_inurba_marseille","lat":43.289466,"lon":5.364021,"is_reserved":false,"is_disabled":false,"rental_uris":{"android":"levelo://app?vid=5f7b0bdf-ec18-4f51-9138-6e2d8f366be5","ios":"levelo://app?vid=5f7b0bdf-ec18-4f51-9138-6e2d8f366be5"},"vehicle_type_id":"4","last_reported":1707041238,"current_range_meters":0,"station_id":"ce4bhc92rcd13ifvqetg","pricing_plan_id":"free"},{"bike_id":"13000742-9bc2-4eac-ae70-83e46c1e18aa","system_id":"levelo_inurba_marseille","lat":43.289184,"lon":5.366408,"is_reserved":false,"is_disabled":false,"rental_uris":{"android":"levelo://app?vid=13000742-9bc2-4eac-ae70-83e46c1e18aa","ios":"levelo://app?vid=13000742-9bc2-4eac-ae70-83e46c1e18aa"},"vehicle_type_id":"4","last_reported":1707041238,"current_range_meters":7600,"station_id":"ce4bhap2rcd13ifvqek0","pricing_plan_id":"free"},{"bike_id":"3f9e0132-aad5-4291-a651-3e138d5c94db","system_id":"levelo_inurba_marseille","lat":43.289468,"lon":5.363719,"is_reserved":false,"is_disabled":false,"rental_uris":{"android":"levelo://app?vid=3f9e0132-aad5-4291-a651-3e138d5c94db","ios":"levelo://app?vid=3f9e0132-aad5-4291-a651-3e138d5c94db"},"vehicle_type_id":"4","last_reported":1707041238,"current_range_meters":29600,"station_id":"ce4bhc92rcd13ifvqetg","pricing_plan_id":"free"},{"bike_id":"9fa71c84-a3f9-4a5c-a312-74c6c540be98","system_id":"levelo_inurba_marseille","lat":43.304274,"lon":5.397513,"is_reserved":false,"is_disabled":false,"rental_uris":{"android":"levelo://app?vid=9fa71c84-a3f9-4a5c-a312-74c6c540be98","ios":"levelo://app?vid=9fa71c84-a3f9-4a5c-a312-74c6c540be98"},"vehicle_type_id":"4","last_reported":1707041238,"current_range_meters":28400,"station_id":"ce4bh092rcd13ifvqd20","pricing_plan_id":"free"},{"bike_id":"623a4c48-daaf-41bf-8c87-d46491bdd267","system_id":"levelo_inurba_marseille","lat":43.290103,"lon":5.356114,"is_reserved":false,"is_disabled":false,"rental_uris":{"android":"levelo://app?vid=623a4c48-daaf-41bf-8c87-d46491bdd267","ios":"levelo://app?vid=623a4c48-daaf-41bf-8c87-d46491bdd267"},"vehicle_type_id":"4","last_reported":1707041238,"current_range_meters":16800,"station_id":"ce4bhb92rcd13ifvqen0","pricing_plan_id":"free"},{"bike_id":"9ff15480-32be-4b6f-957d-f706d4155e17","system_id":"levelo_inurba_marseille","lat":43.290995,"lon":5.381361,"is_reserved":false,"is_disabled":false,"rental_uris":{"android":"levelo://app?vid=9ff15480-32be-4b6f-957d-f706d4155e17","ios":"levelo://app?vid=9ff15480-32be-4b6f-957d-f706d4155e17"},"vehicle_type_id":"4","last_reported":1707041238,"current_range_meters":8400,"station_id":"ce4bh512rcd13ifvqe2g","pricing_plan_id":"free"},{"bike_id":"716bc777-24c0-49b4-bbdd-34a004e99eb0","system_id":"levelo_inurba_marseille","lat":43.330442,"lon":5.389148,"is_reserved":false,"is_disabled":false,"rental_uris":{"android":"levelo://app?vid=716bc777-24c0-49b4-bbdd-34a004e99eb0","ios":"levelo://app?vid=716bc777-24c0-49b4-bbdd-34a004e99eb0"},"vehicle_type_id":"4","last_reported":1707041238,"current_range_meters":7200,"station_id":"ce4bhr92rcd13ifvqhrg","pricing_plan_id":"free"},{"bike_id":"0a9bfce5-f889-443b-a848-9888cf4483af","system_id":"levelo_inurba_marseille","lat":43.330442,"lon":5.389148,"is_reserved":false,"is_disabled":false,"rental_uris":{"android":"levelo://app?vid=0a9bfce5-f889-443b-a848-9888cf4483af","ios":"levelo://app?vid=0a9bfce5-f889-443b-a848-9888cf4483af"},"vehicle_type_id":"4","last_reported":1707041238,"current_range_meters":13600,"station_id":"ce4bhr92rcd13ifvqhrg","pricing_plan_id":"free"},{"bike_id":"84ac4dc3-c2f9-4ae0-bf58-9c14e10a514e","system_id":"levelo_inurba_marseille","lat":43.330442,"lon":5.389148,"is_reserved":false,"is_disabled":false,"rental_uris":{"android":"levelo://app?vid=84ac4dc3-c2f9-4ae0-bf58-9c14e10a514e","ios":"levelo://app?vid=84ac4dc3-c2f9-4ae0-bf58-9c14e10a514e"},"vehicle_type_id":"4","last_reported":1707041238,"current_range_meters":0,"station_id":"ce4bhr92rcd13ifvqhrg","pricing_plan_id":"free"},{"bike_id":"4e7d6062-9b94-4daf-b733-69eb5f269a36","system_id":"levelo_inurba_marseille","lat":43.312609,"lon":5.401662,"is_reserved":false,"is_disabled":false,"rental_uris":{"android":"levelo://app?vid=4e7d6062-9b94-4daf-b733-69eb5f269a36","ios":"levelo://app?vid=4e7d6062-9b94-4daf-b733-69eb5f269a36"},"vehicle_type_id":"4","last_reported":1707041238,"current_range_meters":25600,"station_id":"ce4bh092rcd13ifvqd30","pricing_plan_id":"free"},{"bike_id":"c6776248-4950-445f-9307-ae6dd6fb03af","system_id":"levelo_inurba_marseille","lat":43.33738,"lon":5.37457,"is_reserved":false,"is_disabled":false,"rental_uris":{"android":"levelo://app?vid=c6776248-4950-445f-9307-ae6dd6fb03af","ios":"levelo://app?vid=c6776248-4950-445f-9307-ae6dd6fb03af"},"vehicle_type_id":"4","last_reported":1707041238,"current_range_meters":25600,"station_id":"","pricing_plan_id":"free"},{"bike_id":"94bb8a61-ba09-4432-b2f9-1507b0e2be2a","system_id":"levelo_inurba_marseille","lat":43.312609,"lon":5.401662,"is_reserved":false,"is_disabled":false,"rental_uris":{"android":"levelo://app?vid=94bb8a61-ba09-4432-b2f9-1507b0e2be2a","ios":"levelo://app?vid=94bb8a61-ba09-4432-b2f9-1507b0e2be2a"},"vehicle_type_id":"4","last_reported":1707041238,"current_range_meters":22000,"station_id":"ce4bh092rcd13ifvqd30","pricing_plan_id":"free"},{"bike_id":"dfc7469b-798d-4f4c-bbc6-bb123be9b83f","system_id":"levelo_inurba_marseille","lat":43.309371,"lon":5.401449,"is_reserved":false,"is_disabled":false,"rental_uris":{"android":"levelo://app?vid=dfc7469b-798d-4f4c-bbc6-bb123be9b83f","ios":"levelo://app?vid=dfc7469b-798d-4f4c-bbc6-bb123be9b83f"},"vehicle_type_id":"4","last_reported":1707041238,"current_range_meters":8800,"station_id":"ce4bgvp2rcd13ifvqct0","pricing_plan_id":"free"},{"bike_id":"c88b544a-7d5f-44cd-9e90-26ffcf31651a","system_id":"levelo_inurba_marseille","lat":43.32686,"lon":5.39586,"is_reserved":false,"is_disabled":false,"rental_uris":{"android":"levelo://app?vid=c88b544a-7d5f-44cd-9e90-26ffcf31651a","ios":"levelo://app?vid=c88b544a-7d5f-44cd-9e90-26ffcf31651a"},"vehicle_type_id":"4","last_reported":1707041238,"current_range_meters":14000,"station_id":"","pricing_plan_id":"free"},{"bike_id":"fb6ea352-71ea-4213-a2a9-ecb108f04b25","system_id":"levelo_inurba_marseille","lat":43.309371,"lon":5.401449,"is_reserved":false,"is_disabled":false,"rental_uris":{"android":"levelo://app?vid=fb6ea352-71ea-4213-a2a9-ecb108f04b25","ios":"levelo://app?vid=fb6ea352-71ea-4213-a2a9-ecb108f04b25"},"vehicle_type_id":"4","last_reported":1707041238,"current_range_meters":2400,"station_id":"ce4bgvp2rcd13ifvqct0","pricing_plan_id":"free"},{"bike_id":"72bb7a29-1025-4bae-b611-78ee177d5f5b","system_id":"levelo_inurba_marseille","lat":43.309371,"lon":5.401449,"is_reserved":false,"is_disabled":false,"rental_uris":{"android":"levelo://app?vid=72bb7a29-1025-4bae-b611-78ee177d5f5b","ios":"levelo://app?vid=72bb7a29-1025-4bae-b611-78ee177d5f5b"},"vehicle_type_id":"4","last_reported":1707041238,"current_range_meters":20000,"station_id":"ce4bgvp2rcd13ifvqct0","pricing_plan_id":"free"},{"bike_id":"430ab2e4-1e99-4a72-9d1b-35e0ee263cd5","system_id":"levelo_inurba_marseille","lat":43.309371,"lon":5.401449,"is_reserved":false,"is_disabled":false,"rental_uris":{"android":"levelo://app?vid=430ab2e4-1e99-4a72-9d1b-35e0ee263cd5","ios":"levelo://app?vid=430ab2e4-1e99-4a72-9d1b-35e0ee263cd5"},"vehicle_type_id":"4","last_reported":1707041238,"current_range_meters":30000,"station_id":"ce4bgvp2rcd13ifvqct0","pricing_plan_id":"free"},{"bike_id":"2d98a11f-af32-4c0c-8df9-bf6faf1ee1b6","system_id":"levelo_inurba_marseille","lat":43.309371,"lon":5.401449,"is_reserved":false,"is_disabled":false,"rental_uris":{"android":"levelo://app?vid=2d98a11f-af32-4c0c-8df9-bf6faf1ee1b6","ios":"levelo://app?vid=2d98a11f-af32-4c0c-8df9-bf6faf1ee1b6"},"vehicle_type_id":"4","last_reported":1707041238,"current_range_meters":9600,"station_id":"ce4bgvp2rcd13ifvqct0","pricing_plan_id":"free"},{"bike_id":"cdec1636-1e5d-4303-8640-98a087b1e37e","system_id":"levelo_inurba_marseille","lat":43.30642,"lon":5.401031,"is_reserved":false,"is_disabled":false,"rental_uris":{"android":"levelo://app?vid=cdec1636-1e5d-4303-8640-98a087b1e37e","ios":"levelo://app?vid=cdec1636-1e5d-4303-8640-98a087b1e37e"},"vehicle_type_id":"4","last_reported":1707041238,"current_range_meters":4000,"station_id":"ce4bh112rcd13ifvqda0","pricing_plan_id":"free"},{"bike_id":"b5c8cd35-34dd-45ee-b3e7-3050ef3cbe6a","system_id":"levelo_inurba_marseille","lat":43.337673,"lon":5.374918,"is_reserved":false,"is_disabled":false,"rental_uris":{"android":"levelo://app?vid=b5c8cd35-34dd-45ee-b3e7-3050ef3cbe6a","ios":"levelo://app?vid=b5c8cd35-34dd-45ee-b3e7-3050ef3cbe6a"},"vehicle_type_id":"4","last_reported":1707041238,"current_range_meters":12800,"station_id":"","pricing_plan_id":"free"},{"bike_id":"913294c0-a254-4883-aab2-31ac5a4eea65","system_id":"levelo_inurba_marseille","lat":43.301117,"lon":5.398795,"is_reserved":false,"is_disabled":false,"rental_uris":{"android":"levelo://app?vid=913294c0-a254-4883-aab2-31ac5a4eea65","ios":"levelo://app?vid=913294c0-a254-4883-aab2-31ac5a4eea65"},"vehicle_type_id":"4","last_reported":1707041238,"current_range_meters":17600,"station_id":"ce4bh0h2rcd13ifvqd40","pricing_plan_id":"free"},{"bike_id":"dce8a364-f273-47fe-8f41-960e39f40b8a","system_id":"levelo_inurba_marseille","lat":43.298681,"lon":5.397225,"is_reserved":false,"is_disabled":false,"rental_uris":{"android":"levelo://app?vid=dce8a364-f273-47fe-8f41-960e39f40b8a","ios":"levelo://app?vid=dce8a364-f273-47fe-8f41-960e39f40b8a"},"vehicle_type_id":"4","last_reported":1707041238,"current_range_meters":14000,"station_id":"ce4bh0h2rcd13ifvqd50","pricing_plan_id":"free"},{"bike_id":"1ba28070-9f62-403f-9e8a-f0a22264e635","system_id":"levelo_inurba_marseille","lat":43.298681,"lon":5.397225,"is_reserved":false,"is_disabled":false,"rental_uris":{"android":"levelo://app?vid=1ba28070-9f62-403f-9e8a-f0a22264e635","ios":"levelo://app?vid=1ba28070-9f62-403f-9e8a-f0a22264e635"},"vehicle_type_id":"4","last_reported":1707041238,"current_range_meters":31200,"station_id":"ce4bh0h2rcd13ifvqd50","pricing_plan_id":"free"},{"bike_id":"f4fde084-2823-4121-9468-c1eebc974afc","system_id":"levelo_inurba_marseille","lat":43.298681,"lon":5.397225,"is_reserved":false,"is_disabled":false,"rental_uris":{"android":"levelo://app?vid=f4fde084-2823-4121-9468-c1eebc974afc","ios":"levelo://app?vid=f4fde084-2823-4121-9468-c1eebc974afc"},"vehicle_type_id":"4","last_reported":1707041238,"current_range_meters":28400,"station_id":"ce4bh0h2rcd13ifvqd50","pricing_plan_id":"free"},{"bike_id":"f60ed253-43a9-4104-8152-442dc0f0c74a","system_id":"levelo_inurba_marseille","lat":43.286961,"lon":5.373785,"is_reserved":false,"is_disabled":false,"rental_uris":{"android":"levelo://app?vid=f60ed253-43a9-4104-8152-442dc0f0c74a","ios":"levelo://app?vid=f60ed253-43a9-4104-8152-442dc0f0c74a"},"vehicle_type_id":"4","last_reported":1707041238,"current_range_meters":28800,"station_id":"ce4bh3p2rcd13ifvqdq0","pricing_plan_id":"free"},{"bike_id":"186a1ff7-c7a2-44c7-93ee-62de18f1f265","system_id":"levelo_inurba_marseille","lat":43.289307,"lon":5.38406,"is_reserved":false,"is_disabled":false,"rental_uris":{"android":"levelo://app?vid=186a1ff7-c7a2-44c7-93ee-62de18f1f265","ios":"levelo://app?vid=186a1ff7-c7a2-44c7-93ee-62de18f1f265"},"vehicle_type_id":"4","last_reported":1707041238,"current_range_meters":28400,"station_id":"ce4bh612rcd13ifvqe6g","pricing_plan_id":"free"},{"bike_id":"571d83e4-c554-4679-874e-a0ed8f279ff6","system_id":"levelo_inurba_marseille","lat":43.286039,"lon":5.370679,"is_reserved":false,"is_disabled":false,"rental_uris":{"android":"levelo://app?vid=571d83e4-c554-4679-874e-a0ed8f279ff6","ios":"levelo://app?vid=571d83e4-c554-4679-874e-a0ed8f279ff6"},"vehicle_type_id":"4","last_reported":1707041238,"current_range_meters":27600,"station_id":"ce4bht12rcd13ifvqi60","pricing_plan_id":"free"},{"bike_id":"917b5558-be01-44b8-91dd-f4cf8759ee0a","system_id":"levelo_inurba_marseille","lat":43.286039,"lon":5.370679,"is_reserved":false,"is_disabled":false,"rental_uris":{"android":"levelo://app?vid=917b5558-be01-44b8-91dd-f4cf8759ee0a","ios":"levelo://app?vid=917b5558-be01-44b8-91dd-f4cf8759ee0a"},"vehicle_type_id":"4","last_reported":1707041238,"current_range_meters":15600,"station_id":"ce4bht12rcd13ifvqi60","pricing_plan_id":"free"},{"bike_id":"7ed32c65-1122-4585-bec2-28b4f0307fc6","system_id":"levelo_inurba_marseille","lat":43.286125,"lon":5.36172,"is_reserved":false,"is_disabled":false,"rental_uris":{"android":"levelo://app?vid=7ed32c65-1122-4585-bec2-28b4f0307fc6","ios":"levelo://app?vid=7ed32c65-1122-4585-bec2-28b4f0307fc6"},"vehicle_type_id":"4","last_reported":1707041238,"current_range_meters":0,"station_id":"","pricing_plan_id":"free"},{"bike_id":"959ddf3a-b927-4500-9bac-6857bd30b5d5","system_id":"levelo_inurba_marseille","lat":43.286594,"lon":5.383336,"is_reserved":false,"is_disabled":false,"rental_uris":{"android":"levelo://app?vid=959ddf3a-b927-4500-9bac-6857bd30b5d5","ios":"levelo://app?vid=959ddf3a-b927-4500-9bac-6857bd30b5d5"},"vehicle_type_id":"4","last_reported":1707041238,"current_range_meters":12400,"station_id":"","pricing_plan_id":"free"},{"bike_id":"85d53341-cd8b-4769-b59b-cc087085ab96","system_id":"levelo_inurba_marseille","lat":43.28617,"lon":5.3511,"is_reserved":false,"is_disabled":false,"rental_uris":{"android":"levelo://app?vid=85d53341-cd8b-4769-b59b-cc087085ab96","ios":"levelo://app?vid=85d53341-cd8b-4769-b59b-cc087085ab96"},"vehicle_type_id":"4","last_reported":1707041238,"current_range_meters":30000,"station_id":"ce4bhch2rcd13ifvqeug","pricing_plan_id":"free"},{"bike_id":"aa65758a-aec3-4830-b13b-6cf537127a7c","system_id":"levelo_inurba_marseille","lat":43.28614,"lon":5.3511,"is_reserved":false,"is_disabled":false,"rental_uris":{"android":"levelo://app?vid=aa65758a-aec3-4830-b13b-6cf537127a7c","ios":"levelo://app?vid=aa65758a-aec3-4830-b13b-6cf537127a7c"},"vehicle_type_id":"4","last_reported":1707041238,"current_range_meters":18800,"station_id":"ce4bhch2rcd13ifvqeug","pricing_plan_id":"free"},{"bike_id":"4c0ed16e-01fe-4a91-9aff-4f37200b5ae8","system_id":"levelo_inurba_marseille","lat":43.28616,"lon":5.35103,"is_reserved":false,"is_disabled":false,"rental_uris":{"android":"levelo://app?vid=4c0ed16e-01fe-4a91-9aff-4f37200b5ae8","ios":"levelo://app?vid=4c0ed16e-01fe-4a91-9aff-4f37200b5ae8"},"vehicle_type_id":"4","last_reported":1707041238,"current_range_meters":26400,"station_id":"ce4bhch2rcd13ifvqeug","pricing_plan_id":"free"},{"bike_id":"d1158b00-3f5a-47ee-b223-cedcc204c0bb","system_id":"levelo_inurba_marseille","lat":43.28615,"lon":5.35105,"is_reserved":false,"is_disabled":false,"rental_uris":{"android":"levelo://app?vid=d1158b00-3f5a-47ee-b223-cedcc204c0bb","ios":"levelo://app?vid=d1158b00-3f5a-47ee-b223-cedcc204c0bb"},"vehicle_type_id":"4","last_reported":1707041238,"current_range_meters":3600,"station_id":"ce4bhch2rcd13ifvqeug","pricing_plan_id":"free"},{"bike_id":"131bd446-741a-4cee-99d3-76286d5d445c","system_id":"levelo_inurba_marseille","lat":43.28612,"lon":5.35113,"is_reserved":false,"is_disabled":false,"rental_uris":{"android":"levelo://app?vid=131bd446-741a-4cee-99d3-76286d5d445c","ios":"levelo://app?vid=131bd446-741a-4cee-99d3-76286d5d445c"},"vehicle_type_id":"4","last_reported":1707041238,"current_range_meters":6400,"station_id":"ce4bhch2rcd13ifvqeug","pricing_plan_id":"free"},{"bike_id":"b3de4a9f-af7f-4127-bc94-2ef676892ce4","system_id":"levelo_inurba_marseille","lat":43.28615,"lon":5.35103,"is_reserved":false,"is_disabled":false,"rental_uris":{"android":"levelo://app?vid=b3de4a9f-af7f-4127-bc94-2ef676892ce4","ios":"levelo://app?vid=b3de4a9f-af7f-4127-bc94-2ef676892ce4"},"vehicle_type_id":"4","last_reported":1707041238,"current_range_meters":21600,"station_id":"ce4bhch2rcd13ifvqeug","pricing_plan_id":"free"},{"bike_id":"9ec0be46-b4cf-4a12-aa2a-cacf23a9b83b","system_id":"levelo_inurba_marseille","lat":43.28615,"lon":5.35102,"is_reserved":false,"is_disabled":false,"rental_uris":{"android":"levelo://app?vid=9ec0be46-b4cf-4a12-aa2a-cacf23a9b83b","ios":"levelo://app?vid=9ec0be46-b4cf-4a12-aa2a-cacf23a9b83b"},"vehicle_type_id":"4","last_reported":1707041238,"current_range_meters":8400,"station_id":"ce4bhch2rcd13ifvqeug","pricing_plan_id":"free"},{"bike_id":"2d8b010b-fda2-4fc1-9e94-340f8bfae2f3","system_id":"levelo_inurba_marseille","lat":43.28614,"lon":5.35104,"is_reserved":false,"is_disabled":false,"rental_uris":{"android":"levelo://app?vid=2d8b010b-fda2-4fc1-9e94-340f8bfae2f3","ios":"levelo://app?vid=2d8b010b-fda2-4fc1-9e94-340f8bfae2f3"},"vehicle_type_id":"4","last_reported":1707041238,"current_range_meters":15600,"station_id":"ce4bhch2rcd13ifvqeug","pricing_plan_id":"free"},{"bike_id":"4e9523d1-fc2e-4559-97ce-e6a0c042857a","system_id":"levelo_inurba_marseille","lat":43.28615,"lon":5.351,"is_reserved":false,"is_disabled":false,"rental_uris":{"android":"levelo://app?vid=4e9523d1-fc2e-4559-97ce-e6a0c042857a","ios":"levelo://app?vid=4e9523d1-fc2e-4559-97ce-e6a0c042857a"},"vehicle_type_id":"4","last_reported":1707041238,"current_range_meters":20800,"station_id":"ce4bhch2rcd13ifvqeug","pricing_plan_id":"free"},{"bike_id":"a95e0b64-f32e-4726-9d06-205a144d4a76","system_id":"levelo_inurba_marseille","lat":43.28612,"lon":5.35103,"is_reserved":false,"is_disabled":false,"rental_uris":{"android":"levelo://app?vid=a95e0b64-f32e-4726-9d06-205a144d4a76","ios":"levelo://app?vid=a95e0b64-f32e-4726-9d06-205a144d4a76"},"vehicle_type_id":"4","last_reported":1707041238,"current_range_meters":26800,"station_id":"ce4bhch2rcd13ifvqeug","pricing_plan_id":"free"},{"bike_id":"d259ad5b-9d32-4cd7-b4ae-ba04cefead0c","system_id":"levelo_inurba_marseille","lat":43.286103,"lon":5.35105,"is_reserved":false,"is_disabled":false,"rental_uris":{"android":"levelo://app?vid=d259ad5b-9d32-4cd7-b4ae-ba04cefead0c","ios":"levelo://app?vid=d259ad5b-9d32-4cd7-b4ae-ba04cefead0c"},"vehicle_type_id":"4","last_reported":1707041238,"current_range_meters":1600,"station_id":"ce4bhch2rcd13ifvqeug","pricing_plan_id":"free"},{"bike_id":"854a7c59-e4e4-41d5-946f-ac22b09a8a79","system_id":"levelo_inurba_marseille","lat":43.295654,"lon":5.399725,"is_reserved":false,"is_disabled":false,"rental_uris":{"android":"levelo://app?vid=854a7c59-e4e4-41d5-946f-ac22b09a8a79","ios":"levelo://app?vid=854a7c59-e4e4-41d5-946f-ac22b09a8a79"},"vehicle_type_id":"4","last_reported":1707041238,"current_range_meters":0,"station_id":"ce4bh312rcd13ifvqdj0","pricing_plan_id":"free"},{"bike_id":"31440c07-f634-40c5-ad03-6f24b273ea02","system_id":"levelo_inurba_marseille","lat":43.28659,"lon":5.38544,"is_reserved":false,"is_disabled":false,"rental_uris":{"android":"levelo://app?vid=31440c07-f634-40c5-ad03-6f24b273ea02","ios":"levelo://app?vid=31440c07-f634-40c5-ad03-6f24b273ea02"},"vehicle_type_id":"4","last_reported":1707041238,"current_range_meters":0,"station_id":"","pricing_plan_id":"free"},{"bike_id":"f6d75ced-e8a6-4f2c-825d-c1a758761ee9","system_id":"levelo_inurba_marseille","lat":43.286595,"lon":5.386795,"is_reserved":false,"is_disabled":false,"rental_uris":{"android":"levelo://app?vid=f6d75ced-e8a6-4f2c-825d-c1a758761ee9","ios":"levelo://app?vid=f6d75ced-e8a6-4f2c-825d-c1a758761ee9"},"vehicle_type_id":"4","last_reported":1707041238,"current_range_meters":7600,"station_id":"ce4bh492rcd13ifvqdug","pricing_plan_id":"free"},{"bike_id":"6e70160c-1154-4d6d-808f-0172e98bf132","system_id":"levelo_inurba_marseille","lat":43.319179,"lon":5.407725,"is_reserved":false,"is_disabled":false,"rental_uris":{"android":"levelo://app?vid=6e70160c-1154-4d6d-808f-0172e98bf132","ios":"levelo://app?vid=6e70160c-1154-4d6d-808f-0172e98bf132"},"vehicle_type_id":"4","last_reported":1707041238,"current_range_meters":28000,"station_id":"ce4bhq12rcd13ifvqhig","pricing_plan_id":"free"},{"bike_id":"ed55e961-e33d-4e96-863a-a02568b59b0a","system_id":"levelo_inurba_marseille","lat":43.337168,"lon":5.391825,"is_reserved":false,"is_disabled":false,"rental_uris":{"android":"levelo://app?vid=ed55e961-e33d-4e96-863a-a02568b59b0a","ios":"levelo://app?vid=ed55e961-e33d-4e96-863a-a02568b59b0a"},"vehicle_type_id":"4","last_reported":1707041238,"current_range_meters":6800,"station_id":"ce4bhr92rcd13ifvqhsg","pricing_plan_id":"free"},{"bike_id":"0dfdf9e3-2510-4f67-b50d-c67f94231c81","system_id":"levelo_inurba_marseille","lat":43.33725,"lon":5.39177,"is_reserved":false,"is_disabled":false,"rental_uris":{"android":"levelo://app?vid=0dfdf9e3-2510-4f67-b50d-c67f94231c81","ios":"levelo://app?vid=0dfdf9e3-2510-4f67-b50d-c67f94231c81"},"vehicle_type_id":"4","last_reported":1707041238,"current_range_meters":27200,"station_id":"ce4bhr92rcd13ifvqhsg","pricing_plan_id":"free"},{"bike_id":"3c58f18d-b5bf-40f3-bd04-17a6bdfcc283","system_id":"levelo_inurba_marseille","lat":43.32285,"lon":5.40649,"is_reserved":false,"is_disabled":false,"rental_uris":{"android":"levelo://app?vid=3c58f18d-b5bf-40f3-bd04-17a6bdfcc283","ios":"levelo://app?vid=3c58f18d-b5bf-40f3-bd04-17a6bdfcc283"},"vehicle_type_id":"4","last_reported":1707041238,"current_range_meters":2000,"station_id":"","pricing_plan_id":"free"},{"bike_id":"8ac320bc-b6f4-4fbe-942b-2d3649e75f33","system_id":"levelo_inurba_marseille","lat":43.32341,"lon":5.40624,"is_reserved":false,"is_disabled":false,"rental_uris":{"android":"levelo://app?vid=8ac320bc-b6f4-4fbe-942b-2d3649e75f33","ios":"levelo://app?vid=8ac320bc-b6f4-4fbe-942b-2d3649e75f33"},"vehicle_type_id":"4","last_reported":1707041238,"current_range_meters":12800,"station_id":"ce4bhq92rcd13ifvqhjg","pricing_plan_id":"free"},{"bike_id":"8f658ab6-8fed-4977-8e88-a981133a25a8","system_id":"levelo_inurba_marseille","lat":43.33323,"lon":5.39807,"is_reserved":false,"is_disabled":false,"rental_uris":{"android":"levelo://app?vid=8f658ab6-8fed-4977-8e88-a981133a25a8","ios":"levelo://app?vid=8f658ab6-8fed-4977-8e88-a981133a25a8"},"vehicle_type_id":"4","last_reported":1707041238,"current_range_meters":0,"station_id":"","pricing_plan_id":"free"},{"bike_id":"1f9bc9f5-0d91-4fbf-a88a-c840b360cb43","system_id":"levelo_inurba_marseille","lat":43.284793,"lon":5.384119,"is_reserved":false,"is_disabled":false,"rental_uris":{"android":"levelo://app?vid=1f9bc9f5-0d91-4fbf-a88a-c840b360cb43","ios":"levelo://app?vid=1f9bc9f5-0d91-4fbf-a88a-c840b360cb43"},"vehicle_type_id":"4","last_reported":1707041238,"current_range_meters":24800,"station_id":"ce4bh512rcd13ifvqe3g","pricing_plan_id":"free"},{"bike_id":"5971609f-3b55-42ee-bc34-5111d92c368f","system_id":"levelo_inurba_marseille","lat":43.32256,"lon":5.40682,"is_reserved":false,"is_disabled":false,"rental_uris":{"android":"levelo://app?vid=5971609f-3b55-42ee-bc34-5111d92c368f","ios":"levelo://app?vid=5971609f-3b55-42ee-bc34-5111d92c368f"},"vehicle_type_id":"4","last_reported":1707041238,"current_range_meters":8800,"station_id":"","pricing_plan_id":"free"},{"bike_id":"0bd4991f-4577-4356-821f-6627725d485e","system_id":"levelo_inurba_marseille","lat":43.297946,"lon":5.404063,"is_reserved":false,"is_disabled":false,"rental_uris":{"android":"levelo://app?vid=0bd4991f-4577-4356-821f-6627725d485e","ios":"levelo://app?vid=0bd4991f-4577-4356-821f-6627725d485e"},"vehicle_type_id":"4","last_reported":1707041238,"current_range_meters":26800,"station_id":"ce4bh112rcd13ifvqd90","pricing_plan_id":"free"},{"bike_id":"ea5f262a-015f-489a-8e4d-1d46c500d8f4","system_id":"levelo_inurba_marseille","lat":43.288497,"lon":5.393089,"is_reserved":false,"is_disabled":false,"rental_uris":{"android":"levelo://app?vid=ea5f262a-015f-489a-8e4d-1d46c500d8f4","ios":"levelo://app?vid=ea5f262a-015f-489a-8e4d-1d46c500d8f4"},"vehicle_type_id":"4","last_reported":1707041238,"current_range_meters":19600,"station_id":"ce4bh2p2rcd13ifvqdi0","pricing_plan_id":"free"},{"bike_id":"7326a9ec-edfb-4f74-8b69-809384223155","system_id":"levelo_inurba_marseille","lat":43.297946,"lon":5.404063,"is_reserved":false,"is_disabled":false,"rental_uris":{"android":"levelo://app?vid=7326a9ec-edfb-4f74-8b69-809384223155","ios":"levelo://app?vid=7326a9ec-edfb-4f74-8b69-809384223155"},"vehicle_type_id":"4","last_reported":1707041238,"current_range_meters":29200,"station_id":"ce4bh112rcd13ifvqd90","pricing_plan_id":"free"},{"bike_id":"e6a36003-f25c-4784-9dc4-951547bacbae","system_id":"levelo_inurba_marseille","lat":43.297946,"lon":5.404063,"is_reserved":false,"is_disabled":false,"rental_uris":{"android":"levelo://app?vid=e6a36003-f25c-4784-9dc4-951547bacbae","ios":"levelo://app?vid=e6a36003-f25c-4784-9dc4-951547bacbae"},"vehicle_type_id":"4","last_reported":1707041238,"current_range_meters":14800,"station_id":"ce4bh112rcd13ifvqd90","pricing_plan_id":"free"},{"bike_id":"a94315ef-c9ff-4bc3-b6eb-e07146a5770e","system_id":"levelo_inurba_marseille","lat":43.297946,"lon":5.404063,"is_reserved":false,"is_disabled":false,"rental_uris":{"android":"levelo://app?vid=a94315ef-c9ff-4bc3-b6eb-e07146a5770e","ios":"levelo://app?vid=a94315ef-c9ff-4bc3-b6eb-e07146a5770e"},"vehicle_type_id":"4","last_reported":1707041238,"current_range_meters":31200,"station_id":"ce4bh112rcd13ifvqd90","pricing_plan_id":"free"},{"bike_id":"63bb7329-4475-4aac-ba8e-13fa86f9a308","system_id":"levelo_inurba_marseille","lat":43.283494,"lon":5.380945,"is_reserved":false,"is_disabled":false,"rental_uris":{"android":"levelo://app?vid=63bb7329-4475-4aac-ba8e-13fa86f9a308","ios":"levelo://app?vid=63bb7329-4475-4aac-ba8e-13fa86f9a308"},"vehicle_type_id":"4","last_reported":1707041238,"current_range_meters":26800,"station_id":"ce4bh412rcd13ifvqdr0","pricing_plan_id":"free"},{"bike_id":"626192c1-ccdd-4639-be32-8f3b8ba74627","system_id":"levelo_inurba_marseille","lat":43.284217,"lon":5.349697,"is_reserved":false,"is_disabled":false,"rental_uris":{"android":"levelo://app?vid=626192c1-ccdd-4639-be32-8f3b8ba74627","ios":"levelo://app?vid=626192c1-ccdd-4639-be32-8f3b8ba74627"},"vehicle_type_id":"4","last_reported":1707041238,"current_range_meters":12400,"station_id":"ce4bhbh2rcd13ifvqepg","pricing_plan_id":"free"},{"bike_id":"203ebfe2-5a6f-4332-a31a-7bfeae25c44b","system_id":"levelo_inurba_marseille","lat":43.284217,"lon":5.349697,"is_reserved":false,"is_disabled":false,"rental_uris":{"android":"levelo://app?vid=203ebfe2-5a6f-4332-a31a-7bfeae25c44b","ios":"levelo://app?vid=203ebfe2-5a6f-4332-a31a-7bfeae25c44b"},"vehicle_type_id":"4","last_reported":1707041238,"current_range_meters":25200,"station_id":"ce4bhbh2rcd13ifvqepg","pricing_plan_id":"free"},{"bike_id":"6877e658-5f15-4c0c-9769-7b50292ac08b","system_id":"levelo_inurba_marseille","lat":43.289363,"lon":5.396322,"is_reserved":false,"is_disabled":false,"rental_uris":{"android":"levelo://app?vid=6877e658-5f15-4c0c-9769-7b50292ac08b","ios":"levelo://app?vid=6877e658-5f15-4c0c-9769-7b50292ac08b"},"vehicle_type_id":"4","last_reported":1707041238,"current_range_meters":13200,"station_id":"ce4bh3h2rcd13ifvqdn0","pricing_plan_id":"free"},{"bike_id":"13b4bd47-9cc5-4c82-8c50-3e466ab7ff25","system_id":"levelo_inurba_marseille","lat":43.289363,"lon":5.396322,"is_reserved":false,"is_disabled":false,"rental_uris":{"android":"levelo://app?vid=13b4bd47-9cc5-4c82-8c50-3e466ab7ff25","ios":"levelo://app?vid=13b4bd47-9cc5-4c82-8c50-3e466ab7ff25"},"vehicle_type_id":"4","last_reported":1707041238,"current_range_meters":16000,"station_id":"ce4bh3h2rcd13ifvqdn0","pricing_plan_id":"free"},{"bike_id":"3e343545-c58b-418c-94fb-76fa9c73d7db","system_id":"levelo_inurba_marseille","lat":43.254945,"lon":5.376454,"is_reserved":false,"is_disabled":false,"rental_uris":{"android":"levelo://app?vid=3e343545-c58b-418c-94fb-76fa9c73d7db","ios":"levelo://app?vid=3e343545-c58b-418c-94fb-76fa9c73d7db"},"vehicle_type_id":"4","last_reported":1707041238,"current_range_meters":29600,"station_id":"ce4bhh12rcd13ifvqff0","pricing_plan_id":"free"},{"bike_id":"e8b71ddb-4227-49f5-b73e-6a9f3386d4c9","system_id":"levelo_inurba_marseille","lat":43.29282,"lon":5.40122,"is_reserved":false,"is_disabled":false,"rental_uris":{"android":"levelo://app?vid=e8b71ddb-4227-49f5-b73e-6a9f3386d4c9","ios":"levelo://app?vid=e8b71ddb-4227-49f5-b73e-6a9f3386d4c9"},"vehicle_type_id":"4","last_reported":1707041238,"current_range_meters":5200,"station_id":"ce4bh312rcd13ifvqdk0","pricing_plan_id":"free"},{"bike_id":"3a4f291e-09a1-49b3-ae50-905c8505e838","system_id":"levelo_inurba_marseille","lat":43.292724,"lon":5.401131,"is_reserved":false,"is_disabled":false,"rental_uris":{"android":"levelo://app?vid=3a4f291e-09a1-49b3-ae50-905c8505e838","ios":"levelo://app?vid=3a4f291e-09a1-49b3-ae50-905c8505e838"},"vehicle_type_id":"4","last_reported":1707041238,"current_range_meters":23200,"station_id":"ce4bh312rcd13ifvqdk0","pricing_plan_id":"free"},{"bike_id":"bc7c96b7-9e65-4ae8-ad4b-8d265f10af6d","system_id":"levelo_inurba_marseille","lat":43.28271,"lon":5.35088,"is_reserved":false,"is_disabled":false,"rental_uris":{"android":"levelo://app?vid=bc7c96b7-9e65-4ae8-ad4b-8d265f10af6d","ios":"levelo://app?vid=bc7c96b7-9e65-4ae8-ad4b-8d265f10af6d"},"vehicle_type_id":"4","last_reported":1707041238,"current_range_meters":15600,"station_id":"ce4bhbp2rcd13ifvqerg","pricing_plan_id":"free"},{"bike_id":"00ec931d-6aee-47f3-ba00-cddb5cbe4fca","system_id":"levelo_inurba_marseille","lat":43.282741,"lon":5.350671,"is_reserved":false,"is_disabled":false,"rental_uris":{"android":"levelo://app?vid=00ec931d-6aee-47f3-ba00-cddb5cbe4fca","ios":"levelo://app?vid=00ec931d-6aee-47f3-ba00-cddb5cbe4fca"},"vehicle_type_id":"4","last_reported":1707041238,"current_range_meters":28000,"station_id":"ce4bhbp2rcd13ifvqerg","pricing_plan_id":"free"},{"bike_id":"1d9878ca-76e9-4ba9-95ff-37f2054c5c1d","system_id":"levelo_inurba_marseille","lat":43.282711,"lon":5.350773,"is_reserved":false,"is_disabled":false,"rental_uris":{"android":"levelo://app?vid=1d9878ca-76e9-4ba9-95ff-37f2054c5c1d","ios":"levelo://app?vid=1d9878ca-76e9-4ba9-95ff-37f2054c5c1d"},"vehicle_type_id":"4","last_reported":1707041238,"current_range_meters":10400,"station_id":"ce4bhbp2rcd13ifvqerg","pricing_plan_id":"free"},{"bike_id":"ee999d41-d401-4a32-ad96-d405b0eb8d25","system_id":"levelo_inurba_marseille","lat":43.28266,"lon":5.35086,"is_reserved":false,"is_disabled":false,"rental_uris":{"android":"levelo://app?vid=ee999d41-d401-4a32-ad96-d405b0eb8d25","ios":"levelo://app?vid=ee999d41-d401-4a32-ad96-d405b0eb8d25"},"vehicle_type_id":"4","last_reported":1707041238,"current_range_meters":18800,"station_id":"ce4bhbp2rcd13ifvqerg","pricing_plan_id":"free"},{"bike_id":"949914db-877a-4e91-9479-3997cd8c3591","system_id":"levelo_inurba_marseille","lat":43.282682,"lon":5.350754,"is_reserved":false,"is_disabled":false,"rental_uris":{"android":"levelo://app?vid=949914db-877a-4e91-9479-3997cd8c3591","ios":"levelo://app?vid=949914db-877a-4e91-9479-3997cd8c3591"},"vehicle_type_id":"4","last_reported":1707041238,"current_range_meters":0,"station_id":"ce4bhbp2rcd13ifvqerg","pricing_plan_id":"free"},{"bike_id":"5d95e1ad-ac58-4d5d-83da-795a6557d2d9","system_id":"levelo_inurba_marseille","lat":43.282663,"lon":5.350793,"is_reserved":false,"is_disabled":false,"rental_uris":{"android":"levelo://app?vid=5d95e1ad-ac58-4d5d-83da-795a6557d2d9","ios":"levelo://app?vid=5d95e1ad-ac58-4d5d-83da-795a6557d2d9"},"vehicle_type_id":"4","last_reported":1707041238,"current_range_meters":800,"station_id":"ce4bhbp2rcd13ifvqerg","pricing_plan_id":"free"},{"bike_id":"2010c46b-5842-4552-835a-7a4ce722be1e","system_id":"levelo_inurba_marseille","lat":43.282683,"lon":5.350711,"is_reserved":false,"is_disabled":false,"rental_uris":{"android":"levelo://app?vid=2010c46b-5842-4552-835a-7a4ce722be1e","ios":"levelo://app?vid=2010c46b-5842-4552-835a-7a4ce722be1e"},"vehicle_type_id":"4","last_reported":1707041238,"current_range_meters":28400,"station_id":"ce4bhbp2rcd13ifvqerg","pricing_plan_id":"free"},{"bike_id":"ab907cdf-e79b-45b7-86f3-3846308a752b","system_id":"levelo_inurba_marseille","lat":43.282663,"lon":5.350732,"is_reserved":false,"is_disabled":false,"rental_uris":{"android":"levelo://app?vid=ab907cdf-e79b-45b7-86f3-3846308a752b","ios":"levelo://app?vid=ab907cdf-e79b-45b7-86f3-3846308a752b"},"vehicle_type_id":"4","last_reported":1707041238,"current_range_meters":30000,"station_id":"ce4bhbp2rcd13ifvqerg","pricing_plan_id":"free"},{"bike_id":"f0f545de-36af-41fa-a183-f54f2cb21c88","system_id":"levelo_inurba_marseille","lat":43.283502,"lon":5.386471,"is_reserved":false,"is_disabled":false,"rental_uris":{"android":"levelo://app?vid=f0f545de-36af-41fa-a183-f54f2cb21c88","ios":"levelo://app?vid=f0f545de-36af-41fa-a183-f54f2cb21c88"},"vehicle_type_id":"4","last_reported":1707041238,"current_range_meters":30400,"station_id":"ce4bh492rcd13ifvqdvg","pricing_plan_id":"free"},{"bike_id":"3d160421-0885-4eb7-85e1-0b9766059e48","system_id":"levelo_inurba_marseille","lat":43.28263,"lon":5.350754,"is_reserved":false,"is_disabled":false,"rental_uris":{"android":"levelo://app?vid=3d160421-0885-4eb7-85e1-0b9766059e48","ios":"levelo://app?vid=3d160421-0885-4eb7-85e1-0b9766059e48"},"vehicle_type_id":"4","last_reported":1707041238,"current_range_meters":22000,"station_id":"ce4bhbp2rcd13ifvqerg","pricing_plan_id":"free"},{"bike_id":"ea3868ac-9c8b-4f89-8e5b-f5d0ea832418","system_id":"levelo_inurba_marseille","lat":43.282646,"lon":5.350689,"is_reserved":false,"is_disabled":false,"rental_uris":{"android":"levelo://app?vid=ea3868ac-9c8b-4f89-8e5b-f5d0ea832418","ios":"levelo://app?vid=ea3868ac-9c8b-4f89-8e5b-f5d0ea832418"},"vehicle_type_id":"4","last_reported":1707041238,"current_range_meters":28400,"station_id":"ce4bhbp2rcd13ifvqerg","pricing_plan_id":"free"},{"bike_id":"5d2b90ce-4df5-4d4b-bc40-eeacb01596e5","system_id":"levelo_inurba_marseille","lat":43.282605,"lon":5.350783,"is_reserved":false,"is_disabled":false,"rental_uris":{"android":"levelo://app?vid=5d2b90ce-4df5-4d4b-bc40-eeacb01596e5","ios":"levelo://app?vid=5d2b90ce-4df5-4d4b-bc40-eeacb01596e5"},"vehicle_type_id":"4","last_reported":1707041238,"current_range_meters":1600,"station_id":"ce4bhbp2rcd13ifvqerg","pricing_plan_id":"free"},{"bike_id":"757c7455-9fb0-401f-98ee-0fbd217ec3a6","system_id":"levelo_inurba_marseille","lat":43.28263,"lon":5.35064,"is_reserved":false,"is_disabled":false,"rental_uris":{"android":"levelo://app?vid=757c7455-9fb0-401f-98ee-0fbd217ec3a6","ios":"levelo://app?vid=757c7455-9fb0-401f-98ee-0fbd217ec3a6"},"vehicle_type_id":"4","last_reported":1707041238,"current_range_meters":21200,"station_id":"ce4bhbp2rcd13ifvqerg","pricing_plan_id":"free"},{"bike_id":"7f7041d2-a79f-4c1b-a6bd-676a6a3397db","system_id":"levelo_inurba_marseille","lat":43.282651,"lon":5.350552,"is_reserved":false,"is_disabled":false,"rental_uris":{"android":"levelo://app?vid=7f7041d2-a79f-4c1b-a6bd-676a6a3397db","ios":"levelo://app?vid=7f7041d2-a79f-4c1b-a6bd-676a6a3397db"},"vehicle_type_id":"4","last_reported":1707041238,"current_range_meters":2800,"station_id":"ce4bhbp2rcd13ifvqerg","pricing_plan_id":"free"},{"bike_id":"71d58b92-edec-48ac-a338-0c7404e39a67","system_id":"levelo_inurba_marseille","lat":43.282571,"lon":5.349982,"is_reserved":false,"is_disabled":false,"rental_uris":{"android":"levelo://app?vid=71d58b92-edec-48ac-a338-0c7404e39a67","ios":"levelo://app?vid=71d58b92-edec-48ac-a338-0c7404e39a67"},"vehicle_type_id":"4","last_reported":1707041238,"current_range_meters":2800,"station_id":"ce4bhbp2rcd13ifvqerg","pricing_plan_id":"free"},{"bike_id":"0f0d6743-c1e8-429c-b31b-75456bf0a170","system_id":"levelo_inurba_marseille","lat":43.281044,"lon":5.378308,"is_reserved":false,"is_disabled":false,"rental_uris":{"android":"levelo://app?vid=0f0d6743-c1e8-429c-b31b-75456bf0a170","ios":"levelo://app?vid=0f0d6743-c1e8-429c-b31b-75456bf0a170"},"vehicle_type_id":"4","last_reported":1707041238,"current_range_meters":26800,"station_id":"ce4bha12rcd13ifvqee0","pricing_plan_id":"free"},{"bike_id":"2abc9367-6062-44d9-9f74-12bbb36cce11","system_id":"levelo_inurba_marseille","lat":43.281044,"lon":5.378308,"is_reserved":false,"is_disabled":false,"rental_uris":{"android":"levelo://app?vid=2abc9367-6062-44d9-9f74-12bbb36cce11","ios":"levelo://app?vid=2abc9367-6062-44d9-9f74-12bbb36cce11"},"vehicle_type_id":"4","last_reported":1707041238,"current_range_meters":20000,"station_id":"ce4bha12rcd13ifvqee0","pricing_plan_id":"free"},{"bike_id":"f3f06567-1212-49e8-b5cd-51e830fb0e5e","system_id":"levelo_inurba_marseille","lat":43.281044,"lon":5.378308,"is_reserved":false,"is_disabled":false,"rental_uris":{"android":"levelo://app?vid=f3f06567-1212-49e8-b5cd-51e830fb0e5e","ios":"levelo://app?vid=f3f06567-1212-49e8-b5cd-51e830fb0e5e"},"vehicle_type_id":"4","last_reported":1707041238,"current_range_meters":8000,"station_id":"ce4bha12rcd13ifvqee0","pricing_plan_id":"free"},{"bike_id":"70684b83-c018-4217-b95b-18942b02bcd4","system_id":"levelo_inurba_marseille","lat":43.296263,"lon":5.40601,"is_reserved":false,"is_disabled":false,"rental_uris":{"android":"levelo://app?vid=70684b83-c018-4217-b95b-18942b02bcd4","ios":"levelo://app?vid=70684b83-c018-4217-b95b-18942b02bcd4"},"vehicle_type_id":"4","last_reported":1707041238,"current_range_meters":21600,"station_id":"ce4bh0h2rcd13ifvqd60","pricing_plan_id":"free"},{"bike_id":"523c8b62-a394-427c-83ac-1e8f246890d3","system_id":"levelo_inurba_marseille","lat":43.281837,"lon":5.383013,"is_reserved":false,"is_disabled":false,"rental_uris":{"android":"levelo://app?vid=523c8b62-a394-427c-83ac-1e8f246890d3","ios":"levelo://app?vid=523c8b62-a394-427c-83ac-1e8f246890d3"},"vehicle_type_id":"4","last_reported":1707041238,"current_range_meters":3600,"station_id":"","pricing_plan_id":"free"},{"bike_id":"2f90c4e5-1c14-4384-9305-b86fb2156665","system_id":"levelo_inurba_marseille","lat":43.284462,"lon":5.392121,"is_reserved":false,"is_disabled":false,"rental_uris":{"android":"levelo://app?vid=2f90c4e5-1c14-4384-9305-b86fb2156665","ios":"levelo://app?vid=2f90c4e5-1c14-4384-9305-b86fb2156665"},"vehicle_type_id":"4","last_reported":1707041238,"current_range_meters":30000,"station_id":"ce4bhoh2rcd13ifvqh5g","pricing_plan_id":"free"},{"bike_id":"1eef07ab-9752-4562-9ceb-b68c787f135b","system_id":"levelo_inurba_marseille","lat":43.284462,"lon":5.392121,"is_reserved":false,"is_disabled":false,"rental_uris":{"android":"levelo://app?vid=1eef07ab-9752-4562-9ceb-b68c787f135b","ios":"levelo://app?vid=1eef07ab-9752-4562-9ceb-b68c787f135b"},"vehicle_type_id":"4","last_reported":1707041238,"current_range_meters":31200,"station_id":"ce4bhoh2rcd13ifvqh5g","pricing_plan_id":"free"},{"bike_id":"dab78a84-8845-4270-ae07-26abccccae6b","system_id":"levelo_inurba_marseille","lat":43.284462,"lon":5.392121,"is_reserved":false,"is_disabled":false,"rental_uris":{"android":"levelo://app?vid=dab78a84-8845-4270-ae07-26abccccae6b","ios":"levelo://app?vid=dab78a84-8845-4270-ae07-26abccccae6b"},"vehicle_type_id":"4","last_reported":1707041238,"current_range_meters":27200,"station_id":"ce4bhoh2rcd13ifvqh5g","pricing_plan_id":"free"},{"bike_id":"a6b96c41-1783-4cf5-b769-c45d5d96dd98","system_id":"levelo_inurba_marseille","lat":43.28573,"lon":5.394992,"is_reserved":false,"is_disabled":false,"rental_uris":{"android":"levelo://app?vid=a6b96c41-1783-4cf5-b769-c45d5d96dd98","ios":"levelo://app?vid=a6b96c41-1783-4cf5-b769-c45d5d96dd98"},"vehicle_type_id":"4","last_reported":1707041238,"current_range_meters":9600,"station_id":"ce4bh292rcd13ifvqdg0","pricing_plan_id":"free"},{"bike_id":"e475dd6c-3165-494b-8b73-4d3c4b85ef51","system_id":"levelo_inurba_marseille","lat":43.285742,"lon":5.395004,"is_reserved":false,"is_disabled":false,"rental_uris":{"android":"levelo://app?vid=e475dd6c-3165-494b-8b73-4d3c4b85ef51","ios":"levelo://app?vid=e475dd6c-3165-494b-8b73-4d3c4b85ef51"},"vehicle_type_id":"4","last_reported":1707041238,"current_range_meters":25600,"station_id":"ce4bh292rcd13ifvqdg0","pricing_plan_id":"free"},{"bike_id":"a60c4e6a-9642-4d40-9d5e-f862fef9160e","system_id":"levelo_inurba_marseille","lat":43.28573,"lon":5.394992,"is_reserved":false,"is_disabled":false,"rental_uris":{"android":"levelo://app?vid=a60c4e6a-9642-4d40-9d5e-f862fef9160e","ios":"levelo://app?vid=a60c4e6a-9642-4d40-9d5e-f862fef9160e"},"vehicle_type_id":"4","last_reported":1707041238,"current_range_meters":31200,"station_id":"ce4bh292rcd13ifvqdg0","pricing_plan_id":"free"},{"bike_id":"69c984bf-c10b-44e6-84a6-edf2da4e6824","system_id":"levelo_inurba_marseille","lat":43.304188,"lon":5.412904,"is_reserved":false,"is_disabled":false,"rental_uris":{"android":"levelo://app?vid=69c984bf-c10b-44e6-84a6-edf2da4e6824","ios":"levelo://app?vid=69c984bf-c10b-44e6-84a6-edf2da4e6824"},"vehicle_type_id":"4","last_reported":1707041238,"current_range_meters":24400,"station_id":"ce4bhop2rcd13ifvqh8g","pricing_plan_id":"free"},{"bike_id":"21aa9a0e-5cda-405a-8c59-8d1d62fb85d2","system_id":"levelo_inurba_marseille","lat":43.304188,"lon":5.412904,"is_reserved":false,"is_disabled":false,"rental_uris":{"android":"levelo://app?vid=21aa9a0e-5cda-405a-8c59-8d1d62fb85d2","ios":"levelo://app?vid=21aa9a0e-5cda-405a-8c59-8d1d62fb85d2"},"vehicle_type_id":"4","last_reported":1707041238,"current_range_meters":24400,"station_id":"ce4bhop2rcd13ifvqh8g","pricing_plan_id":"free"},{"bike_id":"0406fa3a-1e61-45e4-a0a0-3de5e801fd93","system_id":"levelo_inurba_marseille","lat":43.287125,"lon":5.399775,"is_reserved":false,"is_disabled":false,"rental_uris":{"android":"levelo://app?vid=0406fa3a-1e61-45e4-a0a0-3de5e801fd93","ios":"levelo://app?vid=0406fa3a-1e61-45e4-a0a0-3de5e801fd93"},