{"last_updated":1702465579,"ttl":30,"version":"2.2","data":{"bikes":[{"bike_id":"e2695bd0-ce67-4f77-90a9-96930a84434f","system_id":"levelo_inurba_marseille","lat":43.309076,"lon":5.368465,"is_reserved":false,"is_disabled":false,"rental_uris":{"android":"levelo://app?vid=e2695bd0-ce67-4f77-90a9-96930a84434f","ios":"levelo://app?vid=e2695bd0-ce67-4f77-90a9-96930a84434f"},"vehicle_type_id":"4","last_reported":1702465579,"current_range_meters":14000,"station_id":"ce4bgn92rcd13ifvqbvg","pricing_plan_id":"free"},{"bike_id":"4501ce18-90db-4343-a1c3-d12aa3448585","system_id":"levelo_inurba_marseille","lat":43.314811,"lon":5.373103,"is_reserved":false,"is_disabled":false,"rental_uris":{"android":"levelo://app?vid=4501ce18-90db-4343-a1c3-d12aa3448585","ios":"levelo://app?vid=4501ce18-90db-4343-a1c3-d12aa3448585"},"vehicle_type_id":"4","last_reported":1702465579,"current_range_meters":25600,"station_id":"ce4bgt12rcd13ifvqcd0","pricing_plan_id":"free"},{"bike_id":"3f8b821f-e430-4a35-bf14-f8b6e777ea11","system_id":"levelo_inurba_marseille","lat":43.313939,"lon":5.375306,"is_reserved":false,"is_disabled":false,"rental_uris":{"android":"levelo://app?vid=3f8b821f-e430-4a35-bf14-f8b6e777ea11","ios":"levelo://app?vid=3f8b821f-e430-4a35-bf14-f8b6e777ea11"},"vehicle_type_id":"4","last_reported":1702465579,"current_range_meters":8000,"station_id":"","pricing_plan_id":"free"},{"bike_id":"955e4ab2-16e5-44e8-a986-a2f50ff96c06","system_id":"levelo_inurba_marseille","lat":43.305382,"lon":5.365389,"is_reserved":false,"is_disabled":false,"rental_uris":{"android":"levelo://app?vid=955e4ab2-16e5-44e8-a986-a2f50ff96c06","ios":"levelo://app?vid=955e4ab2-16e5-44e8-a986-a2f50ff96c06"},"vehicle_type_id":"4","last_reported":1702465579,"current_range_meters":27200,"station_id":"","pricing_plan_id":"free"},{"bike_id":"2ec9d84b-8c40-4136-9a2c-4810de47b09c","system_id":"levelo_inurba_marseille","lat":43.305714,"lon":5.365633,"is_reserved":false,"is_disabled":false,"rental_uris":{"android":"levelo://app?vid=2ec9d84b-8c40-4136-9a2c-4810de47b09c","ios":"levelo://app?vid=2ec9d84b-8c40-4136-9a2c-4810de47b09c"},"vehicle_type_id":"4","last_reported":1702465579,"current_range_meters":2800,"station_id":"ce4bgs12rcd13ifvqcag","pricing_plan_id":"free"},{"bike_id":"5068c8cc-dfdf-49ae-a09e-68aac06cdd58","system_id":"levelo_inurba_marseille","lat":43.305714,"lon":5.365633,"is_reserved":false,"is_disabled":false,"rental_uris":{"android":"levelo://app?vid=5068c8cc-dfdf-49ae-a09e-68aac06cdd58","ios":"levelo://app?vid=5068c8cc-dfdf-49ae-a09e-68aac06cdd58"},"vehicle_type_id":"4","last_reported":1702465579,"current_range_meters":28800,"station_id":"ce4bgs12rcd13ifvqcag","pricing_plan_id":"free"},{"bike_id":"31d73def-4038-4a71-bb25-805788dde480","system_id":"levelo_inurba_marseille","lat":43.305706,"lon":5.365654,"is_reserved":false,"is_disabled":false,"rental_uris":{"android":"levelo://app?vid=31d73def-4038-4a71-bb25-805788dde480","ios":"levelo://app?vid=31d73def-4038-4a71-bb25-805788dde480"},"vehicle_type_id":"4","last_reported":1702465579,"current_range_meters":31200,"station_id":"ce4bgs12rcd13ifvqcag","pricing_plan_id":"free"},{"bike_id":"dc68debd-6203-4696-b9a5-55eea857c5a0","system_id":"levelo_inurba_marseille","lat":43.317185,"lon":5.376799,"is_reserved":false,"is_disabled":false,"rental_uris":{"android":"levelo://app?vid=dc68debd-6203-4696-b9a5-55eea857c5a0","ios":"levelo://app?vid=dc68debd-6203-4696-b9a5-55eea857c5a0"},"vehicle_type_id":"4","last_reported":1702465579,"current_range_meters":24000,"station_id":"ce4bgth2rcd13ifvqch0","pricing_plan_id":"free"},{"bike_id":"f0547b77-6f20-423d-98ca-ff544c3c1d23","system_id":"levelo_inurba_marseille","lat":43.317,"lon":5.37827,"is_reserved":false,"is_disabled":false,"rental_uris":{"android":"levelo://app?vid=f0547b77-6f20-423d-98ca-ff544c3c1d23","ios":"levelo://app?vid=f0547b77-6f20-423d-98ca-ff544c3c1d23"},"vehicle_type_id":"4","last_reported":1702465579,"current_range_meters":21200,"station_id":"","pricing_plan_id":"free"},{"bike_id":"fc1dd8c5-c75f-4b38-bf33-2ce27b09b80d","system_id":"levelo_inurba_marseille","lat":43.3153,"lon":5.38032,"is_reserved":false,"is_disabled":false,"rental_uris":{"android":"levelo://app?vid=fc1dd8c5-c75f-4b38-bf33-2ce27b09b80d","ios":"levelo://app?vid=fc1dd8c5-c75f-4b38-bf33-2ce27b09b80d"},"vehicle_type_id":"4","last_reported":1702465579,"current_range_meters":22800,"station_id":"ce4bhsp2rcd13ifvqi50","pricing_plan_id":"free"},{"bike_id":"3ecccf1f-40d8-41f5-9602-6cc522a72bd5","system_id":"levelo_inurba_marseille","lat":43.30466,"lon":5.37902,"is_reserved":false,"is_disabled":false,"rental_uris":{"android":"levelo://app?vid=3ecccf1f-40d8-41f5-9602-6cc522a72bd5","ios":"levelo://app?vid=3ecccf1f-40d8-41f5-9602-6cc522a72bd5"},"vehicle_type_id":"4","last_reported":1702465579,"current_range_meters":0,"station_id":"ce4bgup2rcd13ifvqcn0","pricing_plan_id":"free"},{"bike_id":"d2cec638-a6a3-44d3-acd3-d8b3825558e3","system_id":"levelo_inurba_marseille","lat":43.30467,"lon":5.37906,"is_reserved":false,"is_disabled":false,"rental_uris":{"android":"levelo://app?vid=d2cec638-a6a3-44d3-acd3-d8b3825558e3","ios":"levelo://app?vid=d2cec638-a6a3-44d3-acd3-d8b3825558e3"},"vehicle_type_id":"4","last_reported":1702465579,"current_range_meters":20800,"station_id":"ce4bgup2rcd13ifvqcn0","pricing_plan_id":"free"},{"bike_id":"eba7efd9-7888-4540-8713-9c5ac6fdf9b4","system_id":"levelo_inurba_marseille","lat":43.3046,"lon":5.37899,"is_reserved":false,"is_disabled":false,"rental_uris":{"android":"levelo://app?vid=eba7efd9-7888-4540-8713-9c5ac6fdf9b4","ios":"levelo://app?vid=eba7efd9-7888-4540-8713-9c5ac6fdf9b4"},"vehicle_type_id":"4","last_reported":1702465579,"current_range_meters":16400,"station_id":"ce4bgup2rcd13ifvqcn0","pricing_plan_id":"free"},{"bike_id":"786a39c6-14d6-4dd9-912f-4bdfae06e5a6","system_id":"levelo_inurba_marseille","lat":43.304606,"lon":5.379026,"is_reserved":false,"is_disabled":false,"rental_uris":{"android":"levelo://app?vid=786a39c6-14d6-4dd9-912f-4bdfae06e5a6","ios":"levelo://app?vid=786a39c6-14d6-4dd9-912f-4bdfae06e5a6"},"vehicle_type_id":"4","last_reported":1702465579,"current_range_meters":14000,"station_id":"ce4bgup2rcd13ifvqcn0","pricing_plan_id":"free"},{"bike_id":"806d1095-eba4-4b4e-a978-6519c4d6aea4","system_id":"levelo_inurba_marseille","lat":43.304606,"lon":5.379026,"is_reserved":false,"is_disabled":false,"rental_uris":{"android":"levelo://app?vid=806d1095-eba4-4b4e-a978-6519c4d6aea4","ios":"levelo://app?vid=806d1095-eba4-4b4e-a978-6519c4d6aea4"},"vehicle_type_id":"4","last_reported":1702465579,"current_range_meters":0,"station_id":"ce4bgup2rcd13ifvqcn0","pricing_plan_id":"free"},{"bike_id":"443495d3-5c95-4ec2-bf2b-82b8d38de0b4","system_id":"levelo_inurba_marseille","lat":43.324771,"lon":5.36557,"is_reserved":false,"is_disabled":false,"rental_uris":{"android":"levelo://app?vid=443495d3-5c95-4ec2-bf2b-82b8d38de0b4","ios":"levelo://app?vid=443495d3-5c95-4ec2-bf2b-82b8d38de0b4"},"vehicle_type_id":"4","last_reported":1702465579,"current_range_meters":21600,"station_id":"ce4bhs12rcd13ifvqhvg","pricing_plan_id":"free"},{"bike_id":"52aa6ea4-0821-40ea-878b-8773a1b09047","system_id":"levelo_inurba_marseille","lat":43.324815,"lon":5.365585,"is_reserved":false,"is_disabled":false,"rental_uris":{"android":"levelo://app?vid=52aa6ea4-0821-40ea-878b-8773a1b09047","ios":"levelo://app?vid=52aa6ea4-0821-40ea-878b-8773a1b09047"},"vehicle_type_id":"4","last_reported":1702465579,"current_range_meters":15200,"station_id":"ce4bhs12rcd13ifvqhvg","pricing_plan_id":"free"},{"bike_id":"aa3cdc10-a2b4-4348-a58d-ea513d683fe2","system_id":"levelo_inurba_marseille","lat":43.324771,"lon":5.36557,"is_reserved":false,"is_disabled":false,"rental_uris":{"android":"levelo://app?vid=aa3cdc10-a2b4-4348-a58d-ea513d683fe2","ios":"levelo://app?vid=aa3cdc10-a2b4-4348-a58d-ea513d683fe2"},"vehicle_type_id":"4","last_reported":1702465579,"current_range_meters":23200,"station_id":"ce4bhs12rcd13ifvqhvg","pricing_plan_id":"free"},{"bike_id":"f88038bb-2c3b-4f27-9fba-5829d8c6a59b","system_id":"levelo_inurba_marseille","lat":43.301429,"lon":5.37413,"is_reserved":false,"is_disabled":false,"rental_uris":{"android":"levelo://app?vid=f88038bb-2c3b-4f27-9fba-5829d8c6a59b","ios":"levelo://app?vid=f88038bb-2c3b-4f27-9fba-5829d8c6a59b"},"vehicle_type_id":"4","last_reported":1702465579,"current_range_meters":30000,"station_id":"ce4bgs92rcd13ifvqcc0","pricing_plan_id":"free"},{"bike_id":"dd69a791-365a-48c8-9f49-e35e058a075f","system_id":"levelo_inurba_marseille","lat":43.30143,"lon":5.37413,"is_reserved":false,"is_disabled":false,"rental_uris":{"android":"levelo://app?vid=dd69a791-365a-48c8-9f49-e35e058a075f","ios":"levelo://app?vid=dd69a791-365a-48c8-9f49-e35e058a075f"},"vehicle_type_id":"4","last_reported":1702465579,"current_range_meters":22400,"station_id":"ce4bgs92rcd13ifvqcc0","pricing_plan_id":"free"},{"bike_id":"d6151139-d67f-40a0-aa82-5ef2edcff6c0","system_id":"levelo_inurba_marseille","lat":43.299372,"lon":5.365504,"is_reserved":false,"is_disabled":false,"rental_uris":{"android":"levelo://app?vid=d6151139-d67f-40a0-aa82-5ef2edcff6c0","ios":"levelo://app?vid=d6151139-d67f-40a0-aa82-5ef2edcff6c0"},"vehicle_type_id":"4","last_reported":1702465579,"current_range_meters":18400,"station_id":"ce4bgm92rcd13ifvqbr0","pricing_plan_id":"free"},{"bike_id":"2c2b3f82-6c5d-4f0f-8d24-54dd1bcebd06","system_id":"levelo_inurba_marseille","lat":43.298433,"lon":5.362774,"is_reserved":false,"is_disabled":false,"rental_uris":{"android":"levelo://app?vid=2c2b3f82-6c5d-4f0f-8d24-54dd1bcebd06","ios":"levelo://app?vid=2c2b3f82-6c5d-4f0f-8d24-54dd1bcebd06"},"vehicle_type_id":"4","last_reported":1702465579,"current_range_meters":31200,"station_id":"ce4bgpp2rcd13ifvqc3g","pricing_plan_id":"free"},{"bike_id":"c3c042f3-5c14-40b6-bc32-21ec2071e696","system_id":"levelo_inurba_marseille","lat":43.298433,"lon":5.362774,"is_reserved":false,"is_disabled":false,"rental_uris":{"android":"levelo://app?vid=c3c042f3-5c14-40b6-bc32-21ec2071e696","ios":"levelo://app?vid=c3c042f3-5c14-40b6-bc32-21ec2071e696"},"vehicle_type_id":"4","last_reported":1702465579,"current_range_meters":30400,"station_id":"ce4bgpp2rcd13ifvqc3g","pricing_plan_id":"free"},{"bike_id":"77a6c46d-d898-4e4f-8846-efa91689c7f0","system_id":"levelo_inurba_marseille","lat":43.302006,"lon":5.38065,"is_reserved":false,"is_disabled":false,"rental_uris":{"android":"levelo://app?vid=77a6c46d-d898-4e4f-8846-efa91689c7f0","ios":"levelo://app?vid=77a6c46d-d898-4e4f-8846-efa91689c7f0"},"vehicle_type_id":"4","last_reported":1702465579,"current_range_meters":0,"station_id":"","pricing_plan_id":"free"},{"bike_id":"e9dc218a-f9f8-4894-afbe-6c44c55ea5de","system_id":"levelo_inurba_marseille","lat":43.298433,"lon":5.362774,"is_reserved":false,"is_disabled":false,"rental_uris":{"android":"levelo://app?vid=e9dc218a-f9f8-4894-afbe-6c44c55ea5de","ios":"levelo://app?vid=e9dc218a-f9f8-4894-afbe-6c44c55ea5de"},"vehicle_type_id":"4","last_reported":1702465579,"current_range_meters":20800,"station_id":"ce4bgpp2rcd13ifvqc3g","pricing_plan_id":"free"},{"bike_id":"4d2318cd-cd53-4ba3-829b-6e068a540e13","system_id":"levelo_inurba_marseille","lat":43.311722,"lon":5.387247,"is_reserved":false,"is_disabled":false,"rental_uris":{"android":"levelo://app?vid=4d2318cd-cd53-4ba3-829b-6e068a540e13","ios":"levelo://app?vid=4d2318cd-cd53-4ba3-829b-6e068a540e13"},"vehicle_type_id":"4","last_reported":1702465579,"current_range_meters":21600,"station_id":"ce4bgv12rcd13ifvqcp0","pricing_plan_id":"free"},{"bike_id":"ef62d099-880c-48b4-a857-30e56a94bd16","system_id":"levelo_inurba_marseille","lat":43.322872,"lon":5.382756,"is_reserved":false,"is_disabled":false,"rental_uris":{"android":"levelo://app?vid=ef62d099-880c-48b4-a857-30e56a94bd16","ios":"levelo://app?vid=ef62d099-880c-48b4-a857-30e56a94bd16"},"vehicle_type_id":"4","last_reported":1702465579,"current_range_meters":30400,"station_id":"ce4bhr12rcd13ifvqhqg","pricing_plan_id":"free"},{"bike_id":"6c669406-1cfe-4ddb-8af7-8b5f741d8a58","system_id":"levelo_inurba_marseille","lat":43.297794,"lon":5.370888,"is_reserved":false,"is_disabled":false,"rental_uris":{"android":"levelo://app?vid=6c669406-1cfe-4ddb-8af7-8b5f741d8a58","ios":"levelo://app?vid=6c669406-1cfe-4ddb-8af7-8b5f741d8a58"},"vehicle_type_id":"4","last_reported":1702465579,"current_range_meters":10400,"station_id":"ce4bgop2rcd13ifvqc1g","pricing_plan_id":"free"},{"bike_id":"5ead3877-b16e-4074-842a-e9a2395685eb","system_id":"levelo_inurba_marseille","lat":43.328371,"lon":5.366909,"is_reserved":false,"is_disabled":false,"rental_uris":{"android":"levelo://app?vid=5ead3877-b16e-4074-842a-e9a2395685eb","ios":"levelo://app?vid=5ead3877-b16e-4074-842a-e9a2395685eb"},"vehicle_type_id":"4","last_reported":1702465579,"current_range_meters":18000,"station_id":"ce4bhs92rcd13ifvqi0g","pricing_plan_id":"free"},{"bike_id":"3fef25d8-9a48-422c-909c-37d2e61fc072","system_id":"levelo_inurba_marseille","lat":43.328371,"lon":5.366909,"is_reserved":false,"is_disabled":false,"rental_uris":{"android":"levelo://app?vid=3fef25d8-9a48-422c-909c-37d2e61fc072","ios":"levelo://app?vid=3fef25d8-9a48-422c-909c-37d2e61fc072"},"vehicle_type_id":"4","last_reported":1702465579,"current_range_meters":26000,"station_id":"ce4bhs92rcd13ifvqi0g","pricing_plan_id":"free"},{"bike_id":"a85482da-10ee-490f-835a-c16db41f2d37","system_id":"levelo_inurba_marseille","lat":43.297163,"lon":5.365866,"is_reserved":false,"is_disabled":false,"rental_uris":{"android":"levelo://app?vid=a85482da-10ee-490f-835a-c16db41f2d37","ios":"levelo://app?vid=a85482da-10ee-490f-835a-c16db41f2d37"},"vehicle_type_id":"4","last_reported":1702465579,"current_range_meters":24800,"station_id":"ce4bgn12rcd13ifvqbt0","pricing_plan_id":"free"},{"bike_id":"7a878ee5-6910-45dd-b3bd-722059d35da7","system_id":"levelo_inurba_marseille","lat":43.29787,"lon":5.37679,"is_reserved":false,"is_disabled":false,"rental_uris":{"android":"levelo://app?vid=7a878ee5-6910-45dd-b3bd-722059d35da7","ios":"levelo://app?vid=7a878ee5-6910-45dd-b3bd-722059d35da7"},"vehicle_type_id":"4","last_reported":1702465579,"current_range_meters":8800,"station_id":"","pricing_plan_id":"free"},{"bike_id":"9d6ad7e6-1ee2-4730-9192-b2d961fa05bc","system_id":"levelo_inurba_marseille","lat":43.29725,"lon":5.3769,"is_reserved":false,"is_disabled":false,"rental_uris":{"android":"levelo://app?vid=9d6ad7e6-1ee2-4730-9192-b2d961fa05bc","ios":"levelo://app?vid=9d6ad7e6-1ee2-4730-9192-b2d961fa05bc"},"vehicle_type_id":"4","last_reported":1702465579,"current_range_meters":5200,"station_id":"ce4bgkh2rcd13ifvqbl0","pricing_plan_id":"free"},{"bike_id":"8560c580-8e77-4273-8f77-ab5357f1700a","system_id":"levelo_inurba_marseille","lat":43.296921,"lon":5.376579,"is_reserved":false,"is_disabled":false,"rental_uris":{"android":"levelo://app?vid=8560c580-8e77-4273-8f77-ab5357f1700a","ios":"levelo://app?vid=8560c580-8e77-4273-8f77-ab5357f1700a"},"vehicle_type_id":"4","last_reported":1702465579,"current_range_meters":18000,"station_id":"ce4bgkh2rcd13ifvqbl0","pricing_plan_id":"free"},{"bike_id":"1a65c6e9-bac9-46f1-9dea-e655fb95c1d2","system_id":"levelo_inurba_marseille","lat":43.309589,"lon":5.390258,"is_reserved":false,"is_disabled":false,"rental_uris":{"android":"levelo://app?vid=1a65c6e9-bac9-46f1-9dea-e655fb95c1d2","ios":"levelo://app?vid=1a65c6e9-bac9-46f1-9dea-e655fb95c1d2"},"vehicle_type_id":"4","last_reported":1702465579,"current_range_meters":24400,"station_id":"ce4bgup2rcd13ifvqco0","pricing_plan_id":"free"},{"bike_id":"edf042f5-9355-4ea6-a29b-4e106ba8ba2b","system_id":"levelo_inurba_marseille","lat":43.309589,"lon":5.390258,"is_reserved":false,"is_disabled":false,"rental_uris":{"android":"levelo://app?vid=edf042f5-9355-4ea6-a29b-4e106ba8ba2b","ios":"levelo://app?vid=edf042f5-9355-4ea6-a29b-4e106ba8ba2b"},"vehicle_type_id":"4","last_reported":1702465579,"current_range_meters":22000,"station_id":"ce4bgup2rcd13ifvqco0","pricing_plan_id":"free"},{"bike_id":"d6729052-cb51-4dd0-9bd1-b03f4642bf86","system_id":"levelo_inurba_marseille","lat":43.317557,"lon":5.390173,"is_reserved":false,"is_disabled":false,"rental_uris":{"android":"levelo://app?vid=d6729052-cb51-4dd0-9bd1-b03f4642bf86","ios":"levelo://app?vid=d6729052-cb51-4dd0-9bd1-b03f4642bf86"},"vehicle_type_id":"4","last_reported":1702465579,"current_range_meters":23200,"station_id":"ce4bhqp2rcd13ifvqhng","pricing_plan_id":"free"},{"bike_id":"23bbe805-c94b-4a71-b6b3-02557ecd6b8b","system_id":"levelo_inurba_marseille","lat":43.31761,"lon":5.39018,"is_reserved":false,"is_disabled":false,"rental_uris":{"android":"levelo://app?vid=23bbe805-c94b-4a71-b6b3-02557ecd6b8b","ios":"levelo://app?vid=23bbe805-c94b-4a71-b6b3-02557ecd6b8b"},"vehicle_type_id":"4","last_reported":1702465579,"current_range_meters":25600,"station_id":"ce4bhqp2rcd13ifvqhng","pricing_plan_id":"free"},{"bike_id":"bb884139-19d9-48ba-82a2-1463c64b1698","system_id":"levelo_inurba_marseille","lat":43.295748,"lon":5.37522,"is_reserved":false,"is_disabled":false,"rental_uris":{"android":"levelo://app?vid=bb884139-19d9-48ba-82a2-1463c64b1698","ios":"levelo://app?vid=bb884139-19d9-48ba-82a2-1463c64b1698"},"vehicle_type_id":"4","last_reported":1702465579,"current_range_meters":24400,"station_id":"ce4bgh92rcd13ifvqb50","pricing_plan_id":"free"},{"bike_id":"11bf3b7b-8357-4ab5-9091-699173dca28d","system_id":"levelo_inurba_marseille","lat":43.32366,"lon":5.3889,"is_reserved":false,"is_disabled":false,"rental_uris":{"android":"levelo://app?vid=11bf3b7b-8357-4ab5-9091-699173dca28d","ios":"levelo://app?vid=11bf3b7b-8357-4ab5-9091-699173dca28d"},"vehicle_type_id":"4","last_reported":1702465579,"current_range_meters":4800,"station_id":"ce4bhqp2rcd13ifvqhog","pricing_plan_id":"free"},{"bike_id":"bd52fe22-8249-4bad-9bc0-30cb8873d958","system_id":"levelo_inurba_marseille","lat":43.293259,"lon":5.371586,"is_reserved":false,"is_disabled":false,"rental_uris":{"android":"levelo://app?vid=bd52fe22-8249-4bad-9bc0-30cb8873d958","ios":"levelo://app?vid=bd52fe22-8249-4bad-9bc0-30cb8873d958"},"vehicle_type_id":"4","last_reported":1702465579,"current_range_meters":11200,"station_id":"ce4bgh92rcd13ifvqb40","pricing_plan_id":"free"},{"bike_id":"c46bf50f-5691-4bd4-88e1-f08bdf62b715","system_id":"levelo_inurba_marseille","lat":43.292311,"lon":5.360731,"is_reserved":false,"is_disabled":false,"rental_uris":{"android":"levelo://app?vid=c46bf50f-5691-4bd4-88e1-f08bdf62b715","ios":"levelo://app?vid=c46bf50f-5691-4bd4-88e1-f08bdf62b715"},"vehicle_type_id":"4","last_reported":1702465579,"current_range_meters":19600,"station_id":"ce4bhbh2rcd13ifvqeqg","pricing_plan_id":"free"},{"bike_id":"86d21ac9-d137-4b07-b90e-faf59237f15b","system_id":"levelo_inurba_marseille","lat":43.292311,"lon":5.360731,"is_reserved":false,"is_disabled":false,"rental_uris":{"android":"levelo://app?vid=86d21ac9-d137-4b07-b90e-faf59237f15b","ios":"levelo://app?vid=86d21ac9-d137-4b07-b90e-faf59237f15b"},"vehicle_type_id":"4","last_reported":1702465579,"current_range_meters":30000,"station_id":"ce4bhbh2rcd13ifvqeqg","pricing_plan_id":"free"},{"bike_id":"af03e5aa-ccfc-4a17-a10d-76025824d200","system_id":"levelo_inurba_marseille","lat":43.292311,"lon":5.360731,"is_reserved":false,"is_disabled":false,"rental_uris":{"android":"levelo://app?vid=af03e5aa-ccfc-4a17-a10d-76025824d200","ios":"levelo://app?vid=af03e5aa-ccfc-4a17-a10d-76025824d200"},"vehicle_type_id":"4","last_reported":1702465579,"current_range_meters":30800,"station_id":"ce4bhbh2rcd13ifvqeqg","pricing_plan_id":"free"},{"bike_id":"73395b9c-2eb2-40b1-a978-1d8a9f6ac8c5","system_id":"levelo_inurba_marseille","lat":43.292311,"lon":5.360731,"is_reserved":false,"is_disabled":false,"rental_uris":{"android":"levelo://app?vid=73395b9c-2eb2-40b1-a978-1d8a9f6ac8c5","ios":"levelo://app?vid=73395b9c-2eb2-40b1-a978-1d8a9f6ac8c5"},"vehicle_type_id":"4","last_reported":1702465579,"current_range_meters":4400,"station_id":"ce4bhbh2rcd13ifvqeqg","pricing_plan_id":"free"},{"bike_id":"3de0a65c-53d2-4a0c-872c-be09660834c1","system_id":"levelo_inurba_marseille","lat":43.291994,"lon":5.357886,"is_reserved":false,"is_disabled":false,"rental_uris":{"android":"levelo://app?vid=3de0a65c-53d2-4a0c-872c-be09660834c1","ios":"levelo://app?vid=3de0a65c-53d2-4a0c-872c-be09660834c1"},"vehicle_type_id":"4","last_reported":1702465579,"current_range_meters":15600,"station_id":"ce4bhb12rcd13ifvqel0","pricing_plan_id":"free"},{"bike_id":"9d530315-5190-49a6-8d1f-88db84a233a1","system_id":"levelo_inurba_marseille","lat":43.313291,"lon":5.396838,"is_reserved":false,"is_disabled":false,"rental_uris":{"android":"levelo://app?vid=9d530315-5190-49a6-8d1f-88db84a233a1","ios":"levelo://app?vid=9d530315-5190-49a6-8d1f-88db84a233a1"},"vehicle_type_id":"4","last_reported":1702465579,"current_range_meters":11200,"station_id":"ce4bgvp2rcd13ifvqcu0","pricing_plan_id":"free"},{"bike_id":"d144f246-f76d-41a8-9245-37e4d9ef292e","system_id":"levelo_inurba_marseille","lat":43.313291,"lon":5.396838,"is_reserved":false,"is_disabled":false,"rental_uris":{"android":"levelo://app?vid=d144f246-f76d-41a8-9245-37e4d9ef292e","ios":"levelo://app?vid=d144f246-f76d-41a8-9245-37e4d9ef292e"},"vehicle_type_id":"4","last_reported":1702465579,"current_range_meters":800,"station_id":"ce4bgvp2rcd13ifvqcu0","pricing_plan_id":"free"},{"bike_id":"5b25297c-02a4-4eb1-8fde-7f60f8a4a862","system_id":"levelo_inurba_marseille","lat":43.29044,"lon":5.37588,"is_reserved":false,"is_disabled":false,"rental_uris":{"android":"levelo://app?vid=5b25297c-02a4-4eb1-8fde-7f60f8a4a862","ios":"levelo://app?vid=5b25297c-02a4-4eb1-8fde-7f60f8a4a862"},"vehicle_type_id":"4","last_reported":1702465579,"current_range_meters":22800,"station_id":"","pricing_plan_id":"free"},{"bike_id":"d5f77856-2b19-454f-ae59-85a0ccc80b9e","system_id":"levelo_inurba_marseille","lat":43.290327,"lon":5.375711,"is_reserved":false,"is_disabled":false,"rental_uris":{"android":"levelo://app?vid=d5f77856-2b19-454f-ae59-85a0ccc80b9e","ios":"levelo://app?vid=d5f77856-2b19-454f-ae59-85a0ccc80b9e"},"vehicle_type_id":"4","last_reported":1702465579,"current_range_meters":12000,"station_id":"ce4bh692rcd13ifvqe90","pricing_plan_id":"free"},{"bike_id":"f8f0686e-72b5-4342-8af6-2000be4c3eec","system_id":"levelo_inurba_marseille","lat":43.290161,"lon":5.375651,"is_reserved":false,"is_disabled":false,"rental_uris":{"android":"levelo://app?vid=f8f0686e-72b5-4342-8af6-2000be4c3eec","ios":"levelo://app?vid=f8f0686e-72b5-4342-8af6-2000be4c3eec"},"vehicle_type_id":"4","last_reported":1702465579,"current_range_meters":0,"station_id":"","pricing_plan_id":"free"},{"bike_id":"3e3086f8-86c8-4930-8351-9d239517f02b","system_id":"levelo_inurba_marseille","lat":43.292644,"lon":5.384257,"is_reserved":false,"is_disabled":false,"rental_uris":{"android":"levelo://app?vid=3e3086f8-86c8-4930-8351-9d239517f02b","ios":"levelo://app?vid=3e3086f8-86c8-4930-8351-9d239517f02b"},"vehicle_type_id":"4","last_reported":1702465579,"current_range_meters":16000,"station_id":"ce4bh692rcd13ifvqea0","pricing_plan_id":"free"},{"bike_id":"3e1b6273-4fe6-43d5-ae14-77e8a65adb58","system_id":"levelo_inurba_marseille","lat":43.292644,"lon":5.384257,"is_reserved":false,"is_disabled":false,"rental_uris":{"android":"levelo://app?vid=3e1b6273-4fe6-43d5-ae14-77e8a65adb58","ios":"levelo://app?vid=3e1b6273-4fe6-43d5-ae14-77e8a65adb58"},"vehicle_type_id":"4","last_reported":1702465579,"current_range_meters":20000,"station_id":"ce4bh692rcd13ifvqea0","pricing_plan_id":"free"},{"bike_id":"1f495ed7-e56d-41ad-a4b5-eb7e65f9d9bc","system_id":"levelo_inurba_marseille","lat":43.290995,"lon":5.381361,"is_reserved":false,"is_disabled":false,"rental_uris":{"android":"levelo://app?vid=1f495ed7-e56d-41ad-a4b5-eb7e65f9d9bc","ios":"levelo://app?vid=1f495ed7-e56d-41ad-a4b5-eb7e65f9d9bc"},"vehicle_type_id":"4","last_reported":1702465579,"current_range_meters":25200,"station_id":"ce4bh512rcd13ifvqe2g","pricing_plan_id":"free"},{"bike_id":"bb876249-9da6-4087-9db3-2c051e6575da","system_id":"levelo_inurba_marseille","lat":43.289743,"lon":5.378304,"is_reserved":false,"is_disabled":false,"rental_uris":{"android":"levelo://app?vid=bb876249-9da6-4087-9db3-2c051e6575da","ios":"levelo://app?vid=bb876249-9da6-4087-9db3-2c051e6575da"},"vehicle_type_id":"4","last_reported":1702465579,"current_range_meters":30000,"station_id":"ce4bh9p2rcd13ifvqed0","pricing_plan_id":"free"},{"bike_id":"125ee211-dfcc-44a0-929a-9adab940b410","system_id":"levelo_inurba_marseille","lat":43.28845,"lon":5.3587,"is_reserved":false,"is_disabled":false,"rental_uris":{"android":"levelo://app?vid=125ee211-dfcc-44a0-929a-9adab940b410","ios":"levelo://app?vid=125ee211-dfcc-44a0-929a-9adab940b410"},"vehicle_type_id":"4","last_reported":1702465579,"current_range_meters":24400,"station_id":"ce4bhb12rcd13ifvqem0","pricing_plan_id":"free"},{"bike_id":"27dad930-9777-4c26-aac7-adcfac675657","system_id":"levelo_inurba_marseille","lat":43.312609,"lon":5.401662,"is_reserved":false,"is_disabled":false,"rental_uris":{"android":"levelo://app?vid=27dad930-9777-4c26-aac7-adcfac675657","ios":"levelo://app?vid=27dad930-9777-4c26-aac7-adcfac675657"},"vehicle_type_id":"4","last_reported":1702465579,"current_range_meters":23200,"station_id":"ce4bh092rcd13ifvqd30","pricing_plan_id":"free"},{"bike_id":"b794d39e-86a8-411f-89d6-fdc40f22293d","system_id":"levelo_inurba_marseille","lat":43.312609,"lon":5.401662,"is_reserved":false,"is_disabled":false,"rental_uris":{"android":"levelo://app?vid=b794d39e-86a8-411f-89d6-fdc40f22293d","ios":"levelo://app?vid=b794d39e-86a8-411f-89d6-fdc40f22293d"},"vehicle_type_id":"4","last_reported":1702465579,"current_range_meters":11600,"station_id":"ce4bh092rcd13ifvqd30","pricing_plan_id":"free"},{"bike_id":"67a71298-f781-4402-8d03-cdb5dd11acae","system_id":"levelo_inurba_marseille","lat":43.337451,"lon":5.37463,"is_reserved":false,"is_disabled":false,"rental_uris":{"android":"levelo://app?vid=67a71298-f781-4402-8d03-cdb5dd11acae","ios":"levelo://app?vid=67a71298-f781-4402-8d03-cdb5dd11acae"},"vehicle_type_id":"4","last_reported":1702465579,"current_range_meters":28000,"station_id":"","pricing_plan_id":"free"},{"bike_id":"3cbcbb37-a92d-4f78-b689-2f73f286e701","system_id":"levelo_inurba_marseille","lat":43.33751,"lon":5.37452,"is_reserved":false,"is_disabled":false,"rental_uris":{"android":"levelo://app?vid=3cbcbb37-a92d-4f78-b689-2f73f286e701","ios":"levelo://app?vid=3cbcbb37-a92d-4f78-b689-2f73f286e701"},"vehicle_type_id":"4","last_reported":1702465579,"current_range_meters":28800,"station_id":"","pricing_plan_id":"free"},{"bike_id":"6d0c592f-9564-4532-a262-d8d9a0b38ec4","system_id":"levelo_inurba_marseille","lat":43.33757,"lon":5.37468,"is_reserved":false,"is_disabled":false,"rental_uris":{"android":"levelo://app?vid=6d0c592f-9564-4532-a262-d8d9a0b38ec4","ios":"levelo://app?vid=6d0c592f-9564-4532-a262-d8d9a0b38ec4"},"vehicle_type_id":"4","last_reported":1702465579,"current_range_meters":30000,"station_id":"","pricing_plan_id":"free"},{"bike_id":"709bebcd-7a96-4a30-894a-152bbb656aa7","system_id":"levelo_inurba_marseille","lat":43.33761,"lon":5.37472,"is_reserved":false,"is_disabled":false,"rental_uris":{"android":"levelo://app?vid=709bebcd-7a96-4a30-894a-152bbb656aa7","ios":"levelo://app?vid=709bebcd-7a96-4a30-894a-152bbb656aa7"},"vehicle_type_id":"4","last_reported":1702465579,"current_range_meters":16000,"station_id":"","pricing_plan_id":"free"},{"bike_id":"d267a553-0eb0-4a1a-a706-ab1a1f40781b","system_id":"levelo_inurba_marseille","lat":43.301117,"lon":5.398795,"is_reserved":false,"is_disabled":false,"rental_uris":{"android":"levelo://app?vid=d267a553-0eb0-4a1a-a706-ab1a1f40781b","ios":"levelo://app?vid=d267a553-0eb0-4a1a-a706-ab1a1f40781b"},"vehicle_type_id":"4","last_reported":1702465579,"current_range_meters":11200,"station_id":"ce4bh0h2rcd13ifvqd40","pricing_plan_id":"free"},{"bike_id":"247e10d8-25bb-4af2-a6c9-f65f0fb6436a","system_id":"levelo_inurba_marseille","lat":43.28727,"lon":5.36078,"is_reserved":false,"is_disabled":false,"rental_uris":{"android":"levelo://app?vid=247e10d8-25bb-4af2-a6c9-f65f0fb6436a","ios":"levelo://app?vid=247e10d8-25bb-4af2-a6c9-f65f0fb6436a"},"vehicle_type_id":"4","last_reported":1702465579,"current_range_meters":28000,"station_id":"cki0cbj6b192h4jlfktg","pricing_plan_id":"free"},{"bike_id":"87eb3525-404e-409d-a593-4d0a29d24ab7","system_id":"levelo_inurba_marseille","lat":43.286961,"lon":5.373785,"is_reserved":false,"is_disabled":false,"rental_uris":{"android":"levelo://app?vid=87eb3525-404e-409d-a593-4d0a29d24ab7","ios":"levelo://app?vid=87eb3525-404e-409d-a593-4d0a29d24ab7"},"vehicle_type_id":"4","last_reported":1702465579,"current_range_meters":14400,"station_id":"ce4bh3p2rcd13ifvqdq0","pricing_plan_id":"free"},{"bike_id":"c6f51b3a-e34b-4807-900d-ce4e1dc52ae1","system_id":"levelo_inurba_marseille","lat":43.257079,"lon":5.411051,"is_reserved":false,"is_disabled":false,"rental_uris":{"android":"levelo://app?vid=c6f51b3a-e34b-4807-900d-ce4e1dc52ae1","ios":"levelo://app?vid=c6f51b3a-e34b-4807-900d-ce4e1dc52ae1"},"vehicle_type_id":"4","last_reported":1702465579,"current_range_meters":11200,"station_id":"ce4bhkp2rcd13ifvqgd0","pricing_plan_id":"free"},{"bike_id":"c91cae94-441c-4192-a9cc-392bdddf9da2","system_id":"levelo_inurba_marseille","lat":43.286591,"lon":5.363346,"is_reserved":false,"is_disabled":false,"rental_uris":{"android":"levelo://app?vid=c91cae94-441c-4192-a9cc-392bdddf9da2","ios":"levelo://app?vid=c91cae94-441c-4192-a9cc-392bdddf9da2"},"vehicle_type_id":"4","last_reported":1702465579,"current_range_meters":12800,"station_id":"ce4bhah2rcd13ifvqej0","pricing_plan_id":"free"},{"bike_id":"10b99011-98ce-4cb6-ac43-ac986c3a262d","system_id":"levelo_inurba_marseille","lat":43.286593,"lon":5.363346,"is_reserved":false,"is_disabled":false,"rental_uris":{"android":"levelo://app?vid=10b99011-98ce-4cb6-ac43-ac986c3a262d","ios":"levelo://app?vid=10b99011-98ce-4cb6-ac43-ac986c3a262d"},"vehicle_type_id":"4","last_reported":1702465579,"current_range_meters":30000,"station_id":"ce4bhah2rcd13ifvqej0","pricing_plan_id":"free"},{"bike_id":"b8b81bbb-f724-4166-bc46-6327f919c650","system_id":"levelo_inurba_marseille","lat":43.295196,"lon":5.39397,"is_reserved":false,"is_disabled":false,"rental_uris":{"android":"levelo://app?vid=b8b81bbb-f724-4166-bc46-6327f919c650","ios":"levelo://app?vid=b8b81bbb-f724-4166-bc46-6327f919c650"},"vehicle_type_id":"4","last_reported":1702465579,"current_range_meters":21200,"station_id":"ce4bh292rcd13ifvqdf0","pricing_plan_id":"free"},{"bike_id":"302a48de-139a-4a79-a939-3b469ec87209","system_id":"levelo_inurba_marseille","lat":43.29021,"lon":5.386393,"is_reserved":false,"is_disabled":false,"rental_uris":{"android":"levelo://app?vid=302a48de-139a-4a79-a939-3b469ec87209","ios":"levelo://app?vid=302a48de-139a-4a79-a939-3b469ec87209"},"vehicle_type_id":"4","last_reported":1702465579,"current_range_meters":0,"station_id":"ce4bh4p2rcd13ifvqe0g","pricing_plan_id":"free"},{"bike_id":"08f16088-71e6-4a15-bf5b-a33dc2e8074a","system_id":"levelo_inurba_marseille","lat":43.291994,"lon":5.392907,"is_reserved":false,"is_disabled":false,"rental_uris":{"android":"levelo://app?vid=08f16088-71e6-4a15-bf5b-a33dc2e8074a","ios":"levelo://app?vid=08f16088-71e6-4a15-bf5b-a33dc2e8074a"},"vehicle_type_id":"4","last_reported":1702465579,"current_range_meters":27600,"station_id":"ce4bh192rcd13ifvqdd0","pricing_plan_id":"free"},{"bike_id":"cef93f3b-5c0e-4c9b-b2a0-a7928a1e3cf7","system_id":"levelo_inurba_marseille","lat":43.284538,"lon":5.358657,"is_reserved":false,"is_disabled":false,"rental_uris":{"android":"levelo://app?vid=cef93f3b-5c0e-4c9b-b2a0-a7928a1e3cf7","ios":"levelo://app?vid=cef93f3b-5c0e-4c9b-b2a0-a7928a1e3cf7"},"vehicle_type_id":"4","last_reported":1702465579,"current_range_meters":15200,"station_id":"ce4bhah2rcd13ifvqei0","pricing_plan_id":"free"},{"bike_id":"181b4310-2d24-4c85-83cc-1c4c60c0d738","system_id":"levelo_inurba_marseille","lat":43.284538,"lon":5.358657,"is_reserved":false,"is_disabled":false,"rental_uris":{"android":"levelo://app?vid=181b4310-2d24-4c85-83cc-1c4c60c0d738","ios":"levelo://app?vid=181b4310-2d24-4c85-83cc-1c4c60c0d738"},"vehicle_type_id":"4","last_reported":1702465579,"current_range_meters":22400,"station_id":"ce4bhah2rcd13ifvqei0","pricing_plan_id":"free"},{"bike_id":"86ef32f6-1691-4555-bbb1-160b6ebbab5b","system_id":"levelo_inurba_marseille","lat":43.28461,"lon":5.358811,"is_reserved":false,"is_disabled":false,"rental_uris":{"android":"levelo://app?vid=86ef32f6-1691-4555-bbb1-160b6ebbab5b","ios":"levelo://app?vid=86ef32f6-1691-4555-bbb1-160b6ebbab5b"},"vehicle_type_id":"4","last_reported":1702465579,"current_range_meters":10000,"station_id":"","pricing_plan_id":"free"},{"bike_id":"6d00bc23-3901-45a7-bd2a-e231703de38d","system_id":"levelo_inurba_marseille","lat":43.284538,"lon":5.358657,"is_reserved":false,"is_disabled":false,"rental_uris":{"android":"levelo://app?vid=6d00bc23-3901-45a7-bd2a-e231703de38d","ios":"levelo://app?vid=6d00bc23-3901-45a7-bd2a-e231703de38d"},"vehicle_type_id":"4","last_reported":1702465579,"current_range_meters":21200,"station_id":"ce4bhah2rcd13ifvqei0","pricing_plan_id":"free"},{"bike_id":"95b9793a-83d7-4b80-99bc-d6181b68f44f","system_id":"levelo_inurba_marseille","lat":43.28617,"lon":5.351,"is_reserved":false,"is_disabled":false,"rental_uris":{"android":"levelo://app?vid=95b9793a-83d7-4b80-99bc-d6181b68f44f","ios":"levelo://app?vid=95b9793a-83d7-4b80-99bc-d6181b68f44f"},"vehicle_type_id":"4","last_reported":1702465579,"current_range_meters":23200,"station_id":"ce4bhch2rcd13ifvqeug","pricing_plan_id":"free"},{"bike_id":"9429080f-333a-430a-a476-ce75edfe71f2","system_id":"levelo_inurba_marseille","lat":43.283998,"lon":5.375062,"is_reserved":false,"is_disabled":false,"rental_uris":{"android":"levelo://app?vid=9429080f-333a-430a-a476-ce75edfe71f2","ios":"levelo://app?vid=9429080f-333a-430a-a476-ce75edfe71f2"},"vehicle_type_id":"4","last_reported":1702465579,"current_range_meters":22400,"station_id":"ce4bh412rcd13ifvqds0","pricing_plan_id":"free"},{"bike_id":"b1378e90-4919-4496-a86a-6036eb619aef","system_id":"levelo_inurba_marseille","lat":43.32337,"lon":5.40623,"is_reserved":false,"is_disabled":false,"rental_uris":{"android":"levelo://app?vid=b1378e90-4919-4496-a86a-6036eb619aef","ios":"levelo://app?vid=b1378e90-4919-4496-a86a-6036eb619aef"},"vehicle_type_id":"4","last_reported":1702465579,"current_range_meters":0,"station_id":"ce4bhq92rcd13ifvqhjg","pricing_plan_id":"free"},{"bike_id":"6ff79b63-c3bd-423d-a010-be4c84116a33","system_id":"levelo_inurba_marseille","lat":43.284793,"lon":5.384113,"is_reserved":false,"is_disabled":false,"rental_uris":{"android":"levelo://app?vid=6ff79b63-c3bd-423d-a010-be4c84116a33","ios":"levelo://app?vid=6ff79b63-c3bd-423d-a010-be4c84116a33"},"vehicle_type_id":"4","last_reported":1702465579,"current_range_meters":4400,"station_id":"ce4bh512rcd13ifvqe3g","pricing_plan_id":"free"},{"bike_id":"45366f3f-8c9b-42dc-b92d-59b1f0248e10","system_id":"levelo_inurba_marseille","lat":43.284219,"lon":5.3497,"is_reserved":false,"is_disabled":false,"rental_uris":{"android":"levelo://app?vid=45366f3f-8c9b-42dc-b92d-59b1f0248e10","ios":"levelo://app?vid=45366f3f-8c9b-42dc-b92d-59b1f0248e10"},"vehicle_type_id":"4","last_reported":1702465579,"current_range_meters":26000,"station_id":"ce4bhbh2rcd13ifvqepg","pricing_plan_id":"free"},{"bike_id":"dbe27ce4-a536-4d80-a935-b8c82b56784c","system_id":"levelo_inurba_marseille","lat":43.289363,"lon":5.396322,"is_reserved":false,"is_disabled":false,"rental_uris":{"android":"levelo://app?vid=dbe27ce4-a536-4d80-a935-b8c82b56784c","ios":"levelo://app?vid=dbe27ce4-a536-4d80-a935-b8c82b56784c"},"vehicle_type_id":"4","last_reported":1702465579,"current_range_meters":10000,"station_id":"ce4bh3h2rcd13ifvqdn0","pricing_plan_id":"free"},{"bike_id":"d0745363-d4f1-4bd7-9320-546758b8fc47","system_id":"levelo_inurba_marseille","lat":43.282754,"lon":5.350519,"is_reserved":false,"is_disabled":false,"rental_uris":{"android":"levelo://app?vid=d0745363-d4f1-4bd7-9320-546758b8fc47","ios":"levelo://app?vid=d0745363-d4f1-4bd7-9320-546758b8fc47"},"vehicle_type_id":"4","last_reported":1702465579,"current_range_meters":26400,"station_id":"ce4bhbp2rcd13ifvqerg","pricing_plan_id":"free"},{"bike_id":"689eeca0-0fe6-4145-93ef-1c8b60fd3ae8","system_id":"levelo_inurba_marseille","lat":43.282744,"lon":5.350533,"is_reserved":false,"is_disabled":false,"rental_uris":{"android":"levelo://app?vid=689eeca0-0fe6-4145-93ef-1c8b60fd3ae8","ios":"levelo://app?vid=689eeca0-0fe6-4145-93ef-1c8b60fd3ae8"},"vehicle_type_id":"4","last_reported":1702465579,"current_range_meters":22000,"station_id":"ce4bhbp2rcd13ifvqerg","pricing_plan_id":"free"},{"bike_id":"09ab8ed6-0940-4874-98fe-3048ecfbee7c","system_id":"levelo_inurba_marseille","lat":43.283502,"lon":5.386471,"is_reserved":false,"is_disabled":false,"rental_uris":{"android":"levelo://app?vid=09ab8ed6-0940-4874-98fe-3048ecfbee7c","ios":"levelo://app?vid=09ab8ed6-0940-4874-98fe-3048ecfbee7c"},"vehicle_type_id":"4","last_reported":1702465579,"current_range_meters":9200,"station_id":"ce4bh492rcd13ifvqdvg","pricing_plan_id":"free"},{"bike_id":"23df6c9a-5942-4676-a40b-d566eab0de29","system_id":"levelo_inurba_marseille","lat":43.284462,"lon":5.392121,"is_reserved":false,"is_disabled":false,"rental_uris":{"android":"levelo://app?vid=23df6c9a-5942-4676-a40b-d566eab0de29","ios":"levelo://app?vid=23df6c9a-5942-4676-a40b-d566eab0de29"},"vehicle_type_id":"4","last_reported":1702465579,"current_range_meters":22800,"station_id":"ce4bhoh2rcd13ifvqh5g","pricing_plan_id":"free"},{"bike_id":"a9707593-8b18-42c9-a58c-d0c6dcf296c7","system_id":"levelo_inurba_marseille","lat":43.284462,"lon":5.392121,"is_reserved":false,"is_disabled":false,"rental_uris":{"android":"levelo://app?vid=a9707593-8b18-42c9-a58c-d0c6dcf296c7","ios":"levelo://app?vid=a9707593-8b18-42c9-a58c-d0c6dcf296c7"},"vehicle_type_id":"4","last_reported":1702465579,"current_range_meters":4000,"station_id":"ce4bhoh2rcd13ifvqh5g","pricing_plan_id":"free"},{"bike_id":"e7133296-0a82-4196-a274-c2aa25d2a808","system_id":"levelo_inurba_marseille","lat":43.284462,"lon":5.392121,"is_reserved":false,"is_disabled":false,"rental_uris":{"android":"levelo://app?vid=e7133296-0a82-4196-a274-c2aa25d2a808","ios":"levelo://app?vid=e7133296-0a82-4196-a274-c2aa25d2a808"},"vehicle_type_id":"4","last_reported":1702465579,"current_range_meters":27200,"station_id":"ce4bhoh2rcd13ifvqh5g","pricing_plan_id":"free"},{"bike_id":"3a4d2c9d-3dd0-44b2-bd24-6f65c04f3652","system_id":"levelo_inurba_marseille","lat":43.32644,"lon":5.40994,"is_reserved":false,"is_disabled":false,"rental_uris":{"android":"levelo://app?vid=3a4d2c9d-3dd0-44b2-bd24-6f65c04f3652","ios":"levelo://app?vid=3a4d2c9d-3dd0-44b2-bd24-6f65c04f3652"},"vehicle_type_id":"4","last_reported":1702465579,"current_range_meters":28000,"station_id":"ce4bhpp2rcd13ifvqhgg","pricing_plan_id":"free"},{"bike_id":"b11ce8a9-df29-4b56-8952-cd6508677a85","system_id":"levelo_inurba_marseille","lat":43.287154,"lon":5.399979,"is_reserved":false,"is_disabled":false,"rental_uris":{"android":"levelo://app?vid=b11ce8a9-df29-4b56-8952-cd6508677a85","ios":"levelo://app?vid=b11ce8a9-df29-4b56-8952-cd6508677a85"},"vehicle_type_id":"4","last_reported":1702465579,"current_range_meters":6000,"station_id":"ce4bho92rcd13ifvqh3g","pricing_plan_id":"free"},{"bike_id":"4f9077e6-8330-404b-9708-862e13be6aff","system_id":"levelo_inurba_marseille","lat":43.325233,"lon":5.414318,"is_reserved":false,"is_disabled":false,"rental_uris":{"android":"levelo://app?vid=4f9077e6-8330-404b-9708-862e13be6aff","ios":"levelo://app?vid=4f9077e6-8330-404b-9708-862e13be6aff"},"vehicle_type_id":"4","last_reported":1702465579,"current_range_meters":13600,"station_id":"ce4bhq12rcd13ifvqhhg","pricing_plan_id":"free"},{"bike_id":"13ed7864-5e28-4879-bef0-43ec97cea419","system_id":"levelo_inurba_marseille","lat":43.325243,"lon":5.414326,"is_reserved":false,"is_disabled":false,"rental_uris":{"android":"levelo://app?vid=13ed7864-5e28-4879-bef0-43ec97cea419","ios":"levelo://app?vid=13ed7864-5e28-4879-bef0-43ec97cea419"},"vehicle_type_id":"4","last_reported":1702465579,"current_range_meters":20000,"station_id":"ce4bhq12rcd13ifvqhhg","pricing_plan_id":"free"},{"bike_id":"8e814ecb-5dbf-4da1-91b3-8823fe935348","system_id":"levelo_inurba_marseille","lat":43.325233,"lon":5.414318,"is_reserved":false,"is_disabled":false,"rental_uris":{"android":"levelo://app?vid=8e814ecb-5dbf-4da1-91b3-8823fe935348","ios":"levelo://app?vid=8e814ecb-5dbf-4da1-91b3-8823fe935348"},"vehicle_type_id":"4","last_reported":1702465579,"current_range_meters":29600,"station_id":"ce4bhq12rcd13ifvqhhg","pricing_plan_id":"free"},{"bike_id":"cdad76ba-aaf3-43f5-bf77-e53b8e256e12","system_id":"levelo_inurba_marseille","lat":43.325233,"lon":5.414318,"is_reserved":false,"is_disabled":false,"rental_uris":{"android":"levelo://app?vid=cdad76ba-aaf3-43f5-bf77-e53b8e256e12","ios":"levelo://app?vid=cdad76ba-aaf3-43f5-bf77-e53b8e256e12"},"vehicle_type_id":"4","last_reported":1702465579,"current_range_meters":31600,"station_id":"ce4bhq12rcd13ifvqhhg","pricing_plan_id":"free"},{"bike_id":"bca5a27f-c25f-433b-ad08-f15021e37e7e","system_id":"levelo_inurba_marseille","lat":43.325243,"lon":5.414326,"is_reserved":false,"is_disabled":false,"rental_uris":{"android":"levelo://app?vid=bca5a27f-c25f-433b-ad08-f15021e37e7e","ios":"levelo://app?vid=bca5a27f-c25f-433b-ad08-f15021e37e7e"},"vehicle_type_id":"4","last_reported":1702465579,"current_range_meters":31200,"station_id":"ce4bhq12rcd13ifvqhhg","pricing_plan_id":"free"},{"bike_id":"7fef914d-05f6-48cb-9574-76e6499d4dc4","system_id":"levelo_inurba_marseille","lat":43.325243,"lon":5.414326,"is_reserved":false,"is_disabled":false,"rental_uris":{"android":"levelo://app?vid=7fef914d-05f6-48cb-9574-76e6499d4dc4","ios":"levelo://app?vid=7fef914d-05f6-48cb-9574-76e6499d4dc4"},"vehicle_type_id":"4","last_reported":1702465579,"current_range_meters":22800,"station_id":"ce4bhq12rcd13ifvqhhg","pricing_plan_id":"free"},{"bike_id":"c6aca481-1eb7-4e97-91b4-8a13adfac883","system_id":"levelo_inurba_marseille","lat":43.325233,"lon":5.414318,"is_reserved":false,"is_disabled":false,"rental_uris":{"android":"levelo://app?vid=c6aca481-1eb7-4e97-91b4-8a13adfac883","ios":"levelo://app?vid=c6aca481-1eb7-4e97-91b4-8a13adfac883"},"vehicle_type_id":"4","last_reported":1702465579,"current_range_meters":31200,"station_id":"ce4bhq12rcd13ifvqhhg","pricing_plan_id":"free"},{"bike_id":"5a319608-2a65-44d6-96d2-2486de31f026","system_id":"levelo_inurba_marseille","lat":43.2808,"lon":5.39654,"is_reserved":false,"is_disabled":false,"rental_uris":{"android":"levelo://app?vid=5a319608-2a65-44d6-96d2-2486de31f026","ios":"levelo://app?vid=5a319608-2a65-44d6-96d2-2486de31f026"},"vehicle_type_id":"4","last_reported":1702465579,"current_range_meters":0,"station_id":"ce4bho12rcd13ifvqh2g","pricing_plan_id":"free"},{"bike_id":"a2193a31-972a-4444-af9b-13db93a15aa4","system_id":"levelo_inurba_marseille","lat":43.278399,"lon":5.392139,"is_reserved":false,"is_disabled":false,"rental_uris":{"android":"levelo://app?vid=a2193a31-972a-4444-af9b-13db93a15aa4","ios":"levelo://app?vid=a2193a31-972a-4444-af9b-13db93a15aa4"},"vehicle_type_id":"4","last_reported":1702465579,"current_range_meters":31200,"station_id":"ce4bhjp2rcd13ifvqga0","pricing_plan_id":"free"},{"bike_id":"e26c46ff-47c3-4a7b-b086-b4ea7e7463dd","system_id":"levelo_inurba_marseille","lat":43.275625,"lon":5.384392,"is_reserved":false,"is_disabled":false,"rental_uris":{"android":"levelo://app?vid=e26c46ff-47c3-4a7b-b086-b4ea7e7463dd","ios":"levelo://app?vid=e26c46ff-47c3-4a7b-b086-b4ea7e7463dd"},"vehicle_type_id":"4","last_reported":1702465579,"current_range_meters":8800,"station_id":"ce4bhh92rcd13ifvqfi0","pricing_plan_id":"free"},{"bike_id":"2ebed63a-d06c-4bf2-8fe7-0a8769e4a4fb","system_id":"levelo_inurba_marseille","lat":43.33607,"lon":5.41025,"is_reserved":false,"is_disabled":false,"rental_uris":{"android":"levelo://app?vid=2ebed63a-d06c-4bf2-8fe7-0a8769e4a4fb","ios":"levelo://app?vid=2ebed63a-d06c-4bf2-8fe7-0a8769e4a4fb"},"vehicle_type_id":"4","last_reported":1702465579,"current_range_meters":18000,"station_id":"ce4bhqh2rcd13ifvqhmg","pricing_plan_id":"free"},{"bike_id":"9a3fe78b-0a72-4ac5-ba6a-5017d86f408b","system_id":"levelo_inurba_marseille","lat":43.33608,"lon":5.41028,"is_reserved":false,"is_disabled":false,"rental_uris":{"android":"levelo://app?vid=9a3fe78b-0a72-4ac5-ba6a-5017d86f408b","ios":"levelo://app?vid=9a3fe78b-0a72-4ac5-ba6a-5017d86f408b"},"vehicle_type_id":"4","last_reported":1702465579,"current_range_meters":19200,"station_id":"ce4bhqh2rcd13ifvqhmg","pricing_plan_id":"free"},{"bike_id":"615d6c0f-be02-4cf9-b9de-3f3c234ab430","system_id":"levelo_inurba_marseille","lat":43.3361,"lon":5.41032,"is_reserved":false,"is_disabled":false,"rental_uris":{"android":"levelo://app?vid=615d6c0f-be02-4cf9-b9de-3f3c234ab430","ios":"levelo://app?vid=615d6c0f-be02-4cf9-b9de-3f3c234ab430"},"vehicle_type_id":"4","last_reported":1702465579,"current_range_meters":18400,"station_id":"ce4bhqh2rcd13ifvqhmg","pricing_plan_id":"free"},{"bike_id":"9f4aac77-b9fd-4e02-8da1-4b39cb263313","system_id":"levelo_inurba_marseille","lat":43.336148,"lon":5.410349,"is_reserved":false,"is_disabled":false,"rental_uris":{"android":"levelo://app?vid=9f4aac77-b9fd-4e02-8da1-4b39cb263313","ios":"levelo://app?vid=9f4aac77-b9fd-4e02-8da1-4b39cb263313"},"vehicle_type_id":"4","last_reported":1702465579,"current_range_meters":20400,"station_id":"ce4bhqh2rcd13ifvqhmg","pricing_plan_id":"free"},{"bike_id":"8a47dd4a-ec45-4d30-9ea7-bdb4d0475726","system_id":"levelo_inurba_marseille","lat":43.276771,"lon":5.388799,"is_reserved":false,"is_disabled":false,"rental_uris":{"android":"levelo://app?vid=8a47dd4a-ec45-4d30-9ea7-bdb4d0475726","ios":"levelo://app?vid=8a47dd4a-ec45-4d30-9ea7-bdb4d0475726"},"vehicle_type_id":"4","last_reported":1702465579,"current_range_meters":18400,"station_id":"ce4bhi12rcd13ifvqfo0","pricing_plan_id":"free"},{"bike_id":"fe0a789f-e57a-472a-b8c8-b3b0f92ab63e","system_id":"levelo_inurba_marseille","lat":43.317121,"lon":5.423936,"is_reserved":false,"is_disabled":false,"rental_uris":{"android":"levelo://app?vid=fe0a789f-e57a-472a-b8c8-b3b0f92ab63e","ios":"levelo://app?vid=fe0a789f-e57a-472a-b8c8-b3b0f92ab63e"},"vehicle_type_id":"4","last_reported":1702465579,"current_range_meters":29200,"station_id":"ce4bhp92rcd13ifvqhbg","pricing_plan_id":"free"},{"bike_id":"e15fcb76-150b-4e94-ba14-1765fbabad44","system_id":"levelo_inurba_marseille","lat":43.310785,"lon":5.424305,"is_reserved":false,"is_disabled":false,"rental_uris":{"android":"levelo://app?vid=e15fcb76-150b-4e94-ba14-1765fbabad44","ios":"levelo://app?vid=e15fcb76-150b-4e94-ba14-1765fbabad44"},"vehicle_type_id":"4","last_reported":1702465579,"current_range_meters":31200,"station_id":"ce4bhp92rcd13ifvqhag","pricing_plan_id":"free"},{"bike_id":"b1c028eb-0fe1-4afa-b35c-b9783a0e9537","system_id":"levelo_inurba_marseille","lat":43.31723,"lon":5.42405,"is_reserved":false,"is_disabled":false,"rental_uris":{"android":"levelo://app?vid=b1c028eb-0fe1-4afa-b35c-b9783a0e9537","ios":"levelo://app?vid=b1c028eb-0fe1-4afa-b35c-b9783a0e9537"},"vehicle_type_id":"4","last_reported":1702465579,"current_range_meters":2000,"station_id":"ce4bhp92rcd13ifvqhbg","pricing_plan_id":"free"},{"bike_id":"3f2ff6f7-f4b7-4970-a83f-c76ac30a4fae","system_id":"levelo_inurba_marseille","lat":43.31077,"lon":5.424351,"is_reserved":false,"is_disabled":false,"rental_uris":{"android":"levelo://app?vid=3f2ff6f7-f4b7-4970-a83f-c76ac30a4fae","ios":"levelo://app?vid=3f2ff6f7-f4b7-4970-a83f-c76ac30a4fae"},"vehicle_type_id":"4","last_reported":1702465579,"current_range_meters":12000,"station_id":"","pricing_plan_id":"free"},{"bike_id":"3ca2c2d2-99b0-4aa6-a05d-e30f02e6a7fb","system_id":"levelo_inurba_marseille","lat":43.27588,"lon":5.39495,"is_reserved":false,"is_disabled":false,"rental_uris":{"android":"levelo://app?vid=3ca2c2d2-99b0-4aa6-a05d-e30f02e6a7fb","ios":"levelo://app?vid=3ca2c2d2-99b0-4aa6-a05d-e30f02e6a7fb"},"vehicle_type_id":"4","last_reported":1702465579,"current_range_meters":16800,"station_id":"","pricing_plan_id":"free"},{"bike_id":"cff5afb0-a942-485c-bc73-3835331f0a8e","system_id":"levelo_inurba_marseille","lat":43.274099,"lon":5.394019,"is_reserved":false,"is_disabled":false,"rental_uris":{"android":"levelo://app?vid=cff5afb0-a942-485c-bc73-3835331f0a8e","ios":"levelo://app?vid=cff5afb0-a942-485c-bc73-3835331f0a8e"},"vehicle_type_id":"4","last_reported":1702465579,"current_range_meters":28000,"station_id":"ce4bhdp2rcd13ifvqf20","pricing_plan_id":"free"},{"bike_id":"46cb8d1c-7110-45f9-809a-42d8e5622199","system_id":"levelo_inurba_marseille","lat":43.274103,"lon":5.394016,"is_reserved":false,"is_disabled":false,"rental_uris":{"android":"levelo://app?vid=46cb8d1c-7110-45f9-809a-42d8e5622199","ios":"levelo://app?vid=46cb8d1c-7110-45f9-809a-42d8e5622199"},"vehicle_type_id":"4","last_reported":1702465579,"current_range_meters":15600,"station_id":"ce4bhdp2rcd13ifvqf20","pricing_plan_id":"free"},{"bike_id":"d7a6c85d-a811-4fa8-800a-8c7d7fbad1e5","system_id":"levelo_inurba_marseille","lat":43.286401,"lon":5.416401,"is_reserved":false,"is_disabled":false,"rental_uris":{"android":"levelo://app?vid=d7a6c85d-a811-4fa8-800a-8c7d7fbad1e5","ios":"levelo://app?vid=d7a6c85d-a811-4fa8-800a-8c7d7fbad1e5"},"vehicle_type_id":"4","last_reported":1702465579,"current_range_meters":0,"station_id":"","pricing_plan_id":"free"},{"bike_id":"9917382d-d253-4524-834b-5171fe0b9392","system_id":"levelo_inurba_marseille","lat":43.278128,"lon":5.407195,"is_reserved":false,"is_disabled":false,"rental_uris":{"android":"levelo://app?vid=9917382d-d253-4524-834b-5171fe0b9392","ios":"levelo://app?vid=9917382d-d253-4524-834b-5171fe0b9392"},"vehicle_type_id":"4","last_reported":1702465579,"current_range_meters":26400,"station_id":"ce4bhnh2rcd13ifvqgtg","pricing_plan_id":"free"},{"bike_id":"9a232b25-e5b8-4e15-bc54-fc8a39bb0c9c","system_id":"levelo_inurba_marseille","lat":43.27946,"lon":5.41046,"is_reserved":false,"is_disabled":false,"rental_uris":{"android":"levelo://app?vid=9a232b25-e5b8-4e15-bc54-fc8a39bb0c9c","ios":"levelo://app?vid=9a232b25-e5b8-4e15-bc54-fc8a39bb0c9c"},"vehicle_type_id":"4","last_reported":1702465579,"current_range_meters":22400,"station_id":"ce4bhnp2rcd13ifvqh0g","pricing_plan_id":"free"},{"bike_id":"5f9ff04e-3474-4f93-bf8e-d7d9ee565e72","system_id":"levelo_inurba_marseille","lat":43.27992,"lon":5.41635,"is_reserved":false,"is_disabled":false,"rental_uris":{"android":"levelo://app?vid=5f9ff04e-3474-4f93-bf8e-d7d9ee565e72","ios":"levelo://app?vid=5f9ff04e-3474-4f93-bf8e-d7d9ee565e72"},"vehicle_type_id":"4","last_reported":1702465579,"current_range_meters":18800,"station_id":"ce4bho12rcd13ifvqh1g","pricing_plan_id":"free"},{"bike_id":"5d60a7e5-63fb-45f1-af30-66bd1f0b3b81","system_id":"levelo_inurba_marseille","lat":43.26563,"lon":5.39015,"is_reserved":false,"is_disabled":false,"rental_uris":{"android":"levelo://app?vid=5d60a7e5-63fb-45f1-af30-66bd1f0b3b81","ios":"levelo://app?vid=5d60a7e5-63fb-45f1-af30-66bd1f0b3b81"},"vehicle_type_id":"4","last_reported":1702465579,"current_range_meters":25200,"station_id":"ce4bhe12rcd13ifvqf30","pricing_plan_id":"free"},{"bike_id":"275c692c-4e8c-4cea-872d-9023693f571c","system_id":"levelo_inurba_marseille","lat":43.26202,"lon":5.379299,"is_reserved":false,"is_disabled":false,"rental_uris":{"android":"levelo://app?vid=275c692c-4e8c-4cea-872d-9023693f571c","ios":"levelo://app?vid=275c692c-4e8c-4cea-872d-9023693f571c"},"vehicle_type_id":"4","last_reported":1702465579,"current_range_meters":27600,"station_id":"ce4bhjp2rcd13ifvqg90","pricing_plan_id":"free"},{"bike_id":"b817a5a9-a7c0-45af-a6a2-2048cf2896e3","system_id":"levelo_inurba_marseille","lat":43.271368,"lon":5.40928,"is_reserved":false,"is_disabled":false,"rental_uris":{"android":"levelo://app?vid=b817a5a9-a7c0-45af-a6a2-2048cf2896e3","ios":"levelo://app?vid=b817a5a9-a7c0-45af-a6a2-2048cf2896e3"},"vehicle_type_id":"4","last_reported":1702465579,"current_range_meters":21600,"station_id":"ce4bhl12rcd13ifvqgf0","pricing_plan_id":"free"},{"bike_id":"71409cac-8b94-4454-9797-6109569bfa9e","system_id":"levelo_inurba_marseille","lat":43.26202,"lon":5.379299,"is_reserved":false,"is_disabled":false,"rental_uris":{"android":"levelo://app?vid=71409cac-8b94-4454-9797-6109569bfa9e","ios":"levelo://app?vid=71409cac-8b94-4454-9797-6109569bfa9e"},"vehicle_type_id":"4","last_reported":1702465579,"current_range_meters":8000,"station_id":"ce4bhjp2rcd13ifvqg90","pricing_plan_id":"free"},{"bike_id":"79588488-9f3a-4d10-af96-084a21295070","system_id":"levelo_inurba_marseille","lat":43.260219,"lon":5.37546,"is_reserved":false,"is_disabled":false,"rental_uris":{"android":"levelo://app?vid=79588488-9f3a-4d10-af96-084a21295070","ios":"levelo://app?vid=79588488-9f3a-4d10-af96-084a21295070"},"vehicle_type_id":"4","last_reported":1702465579,"current_range_meters":26400,"station_id":"ce4bhgh2rcd13ifvqfa0","pricing_plan_id":"free"},{"bike_id":"383e139c-3bb6-4daf-a45c-7a9d4e30f140","system_id":"levelo_inurba_marseille","lat":43.281548,"lon":5.42643,"is_reserved":false,"is_disabled":false,"rental_uris":{"android":"levelo://app?vid=383e139c-3bb6-4daf-a45c-7a9d4e30f140","ios":"levelo://app?vid=383e139c-3bb6-4daf-a45c-7a9d4e30f140"},"vehicle_type_id":"4","last_reported":1702465579,"current_range_meters":27600,"station_id":"ce4bhnh2rcd13ifvqgug","pricing_plan_id":"free"},{"bike_id":"c5775d31-366d-40e4-aa53-9b6bee3b57d2","system_id":"levelo_inurba_marseille","lat":43.281548,"lon":5.42643,"is_reserved":false,"is_disabled":false,"rental_uris":{"android":"levelo://app?vid=c5775d31-366d-40e4-aa53-9b6bee3b57d2","ios":"levelo://app?vid=c5775d31-366d-40e4-aa53-9b6bee3b57d2"},"vehicle_type_id":"4","last_reported":1702465579,"current_range_meters":13600,"station_id":"ce4bhnh2rcd13ifvqgug","pricing_plan_id":"free"},{"bike_id":"d2d9cc18-b77f-472a-8eb9-793db3b5b3f4","system_id":"levelo_inurba_marseille","lat":43.281548,"lon":5.42643,"is_reserved":false,"is_disabled":false,"rental_uris":{"android":"levelo://app?vid=d2d9cc18-b77f-472a-8eb9-793db3b5b3f4","ios":"levelo://app?vid=d2d9cc18-b77f-472a-8eb9-793db3b5b3f4"},"vehicle_type_id":"4","last_reported":1702465579,"current_range_meters":31200,"station_id":"ce4bhnh2rcd13ifvqgug","pricing_plan_id":"free"},{"bike_id":"22629fef-dcbc-451f-99d9-ae21da47c622","system_id":"levelo_inurba_marseille","lat":43.281548,"lon":5.42643,"is_reserved":false,"is_disabled":false,"rental_uris":{"android":"levelo://app?vid=22629fef-dcbc-451f-99d9-ae21da47c622","ios":"levelo://app?vid=22629fef-dcbc-451f-99d9-ae21da47c622"},"vehicle_type_id":"4","last_reported":1702465579,"current_range_meters":15600,"station_id":"ce4bhnh2rcd13ifvqgug","pricing_plan_id":"free"},{"bike_id":"99c47b68-61f2-43f4-b6b0-ce370381fde4","system_id":"levelo_inurba_marseille","lat":43.2607,"lon":5.393983,"is_reserved":false,"is_disabled":false,"rental_uris":{"android":"levelo://app?vid=99c47b68-61f2-43f4-b6b0-ce370381fde4","ios":"levelo://app?vid=99c47b68-61f2-43f4-b6b0-ce370381fde4"},"vehicle_type_id":"4","last_reported":1702465579,"current_range_meters":18000,"station_id":"ce4bhh92rcd13ifvqfj0","pricing_plan_id":"free"},{"bike_id":"145ba03e-f3d6-4f34-83d2-a2ba7062a026","system_id":"levelo_inurba_marseille","lat":43.27492,"lon":5.42464,"is_reserved":false,"is_disabled":false,"rental_uris":{"android":"levelo://app?vid=145ba03e-f3d6-4f34-83d2-a2ba7062a026","ios":"levelo://app?vid=145ba03e-f3d6-4f34-83d2-a2ba7062a026"},"vehicle_type_id":"4","last_reported":1702465579,"current_range_meters":21200,"station_id":"ce4bhn92rcd13ifvqgrg","pricing_plan_id":"free"},{"bike_id":"0da07983-ce47-4e11-98a6-569e02d04136","system_id":"levelo_inurba_marseille","lat":43.258224,"lon":5.394369,"is_reserved":false,"is_disabled":false,"rental_uris":{"android":"levelo://app?vid=0da07983-ce47-4e11-98a6-569e02d04136","ios":"levelo://app?vid=0da07983-ce47-4e11-98a6-569e02d04136"},"vehicle_type_id":"4","last_reported":1702465579,"current_range_meters":16400,"station_id":"ce4bhip2rcd13ifvqft0","pricing_plan_id":"free"},{"bike_id":"8f82f722-baf6-4a17-b4d5-1d388e742d98","system_id":"levelo_inurba_marseille","lat":43.255756,"lon":5.382303,"is_reserved":false,"is_disabled":false,"rental_uris":{"android":"levelo://app?vid=8f82f722-baf6-4a17-b4d5-1d388e742d98","ios":"levelo://app?vid=8f82f722-baf6-4a17-b4d5-1d388e742d98"},"vehicle_type_id":"4","last_reported":1702465579,"current_range_meters":13600,"station_id":"ce4bhih2rcd13ifvqfs0","pricing_plan_id":"free"},{"bike_id":"b4ca9359-4fc8-4f31-a46c-70645d2374fb","system_id":"levelo_inurba_marseille","lat":43.25573,"lon":5.38237,"is_reserved":false,"is_disabled":false,"rental_uris":{"android":"levelo://app?vid=b4ca9359-4fc8-4f31-a46c-70645d2374fb","ios":"levelo://app?vid=b4ca9359-4fc8-4f31-a46c-70645d2374fb"},"vehicle_type_id":"4","last_reported":1702465579,"current_range_meters":20000,"station_id":"ce4bhih2rcd13ifvqfs0","pricing_plan_id":"free"},{"bike_id":"345a9d90-c089-4141-8cf6-0867ef195521","system_id":"levelo_inurba_marseille","lat":43.254947,"lon":5.376454,"is_reserved":false,"is_disabled":false,"rental_uris":{"android":"levelo://app?vid=345a9d90-c089-4141-8cf6-0867ef195521","ios":"levelo://app?vid=345a9d90-c089-4141-8cf6-0867ef195521"},"vehicle_type_id":"4","last_reported":1702465579,"current_range_meters":28400,"station_id":"ce4bhh12rcd13ifvqff0","pricing_plan_id":"free"},{"bike_id":"1a5c1e7c-d801-4057-b823-96326f04ca18","system_id":"levelo_inurba_marseille","lat":43.254947,"lon":5.376454,"is_reserved":false,"is_disabled":false,"rental_uris":{"android":"levelo://app?vid=1a5c1e7c-d801-4057-b823-96326f04ca18","ios":"levelo://app?vid=1a5c1e7c-d801-4057-b823-96326f04ca18"},"vehicle_type_id":"4","last_reported":1702465579,"current_range_meters":31200,"station_id":"ce4bhh12rcd13ifvqff0","pricing_plan_id":"free"},{"bike_id":"e0f77563-599c-4415-b37f-7f8cce35e671","system_id":"levelo_inurba_marseille","lat":43.27067,"lon":5.42274,"is_reserved":false,"is_disabled":false,"rental_uris":{"android":"levelo://app?vid=e0f77563-599c-4415-b37f-7f8cce35e671","ios":"levelo://app?vid=e0f77563-599c-4415-b37f-7f8cce35e671"},"vehicle_type_id":"4","last_reported":1702465579,"current_range_meters":29200,"station_id":"ce4bhk92rcd13ifvqgb0","pricing_plan_id":"free"},{"bike_id":"36bd41df-2131-4843-a83a-2b2a305d4601","system_id":"levelo_inurba_marseille","lat":43.27069,"lon":5.42278,"is_reserved":false,"is_disabled":false,"rental_uris":{"android":"levelo://app?vid=36bd41df-2131-4843-a83a-2b2a305d4601","ios":"levelo://app?vid=36bd41df-2131-4843-a83a-2b2a305d4601"},"vehicle_type_id":"4","last_reported":1702465579,"current_range_meters":24800,"station_id":"ce4bhk92rcd13ifvqgb0","pricing_plan_id":"free"},{"bike_id":"d288f623-bd14-457f-9347-f6fa4ee183f6","system_id":"levelo_inurba_marseille","lat":43.258658,"lon":5.398935,"is_reserved":false,"is_disabled":false,"rental_uris":{"android":"levelo://app?vid=d288f623-bd14-457f-9347-f6fa4ee183f6","ios":"levelo://app?vid=d288f623-bd14-457f-9347-f6fa4ee183f6"},"vehicle_type_id":"4","last_reported":1702465579,"current_range_meters":15200,"station_id":"ce4bhl92rcd13ifvqghg","pricing_plan_id":"free"},{"bike_id":"f6225d43-7fd2-473d-ac6d-94ea8205fe30","system_id":"levelo_inurba_marseille","lat":43.259013,"lon":5.409301,"is_reserved":false,"is_disabled":false,"rental_uris":{"android":"levelo://app?vid=f6225d43-7fd2-473d-ac6d-94ea8205fe30","ios":"levelo://app?vid=f6225d43-7fd2-473d-ac6d-94ea8205fe30"},"vehicle_type_id":"4","last_reported":1702465579,"current_range_meters":11600,"station_id":"ce4bhm92rcd13ifvqglg","pricing_plan_id":"free"},{"bike_id":"a3021670-21f8-4ec0-bb57-96aa3dbcd2bd","system_id":"levelo_inurba_marseille","lat":43.259013,"lon":5.409301,"is_reserved":false,"is_disabled":false,"rental_uris":{"android":"levelo://app?vid=a3021670-21f8-4ec0-bb57-96aa3dbcd2bd","ios":"levelo://app?vid=a3021670-21f8-4ec0-bb57-96aa3dbcd2bd"},"vehicle_type_id":"4","last_reported":1702465579,"current_range_meters":19600,"station_id":"ce4bhm92rcd13ifvqglg","pricing_plan_id":"free"},{"bike_id":"19e4093a-ac82-432d-8bbc-43176b7dbed3","system_id":"levelo_inurba_marseille","lat":43.259009,"lon":5.40929,"is_reserved":false,"is_disabled":false,"rental_uris":{"android":"levelo://app?vid=19e4093a-ac82-432d-8bbc-43176b7dbed3","ios":"levelo://app?vid=19e4093a-ac82-432d-8bbc-43176b7dbed3"},"vehicle_type_id":"4","last_reported":1702465579,"current_range_meters":0,"station_id":"ce4bhm92rcd13ifvqglg","pricing_plan_id":"free"},{"bike_id":"24bd5834-b673-4cb0-a1e8-d6c03ecdae8d","system_id":"levelo_inurba_marseille","lat":43.259009,"lon":5.40929,"is_reserved":false,"is_disabled":false,"rental_uris":{"android":"levelo://app?vid=24bd5834-b673-4cb0-a1e8-d6c03ecdae8d","ios":"levelo://app?vid=24bd5834-b673-4cb0-a1e8-d6c03ecdae8d"},"vehicle_type_id":"4","last_reported":1702465579,"current_range_meters":2400,"station_id":"ce4bhm92rcd13ifvqglg","pricing_plan_id":"free"},{"bike_id":"95aceb84-4e62-4a22-a3ba-b7c2cf268896","system_id":"levelo_inurba_marseille","lat":43.259009,"lon":5.40929,"is_reserved":false,"is_disabled":false,"rental_uris":{"android":"levelo://app?vid=95aceb84-4e62-4a22-a3ba-b7c2cf268896","ios":"levelo://app?vid=95aceb84-4e62-4a22-a3ba-b7c2cf268896"},"vehicle_type_id":"4","last_reported":1702465579,"current_range_meters":18800,"station_id":"ce4bhm92rcd13ifvqglg","pricing_plan_id":"free"},{"bike_id":"1fe35241-90af-400e-bfa5-b9dcb4673da0","system_id":"levelo_inurba_marseille","lat":43.25929,"lon":5.40905,"is_reserved":false,"is_disabled":false,"rental_uris":{"android":"levelo://app?vid=1fe35241-90af-400e-bfa5-b9dcb4673da0","ios":"levelo://app?vid=1fe35241-90af-400e-bfa5-b9dcb4673da0"},"vehicle_type_id":"4","last_reported":1702465579,"current_range_meters":20800,"station_id":"ce4bhm92rcd13ifvqglg","pricing_plan_id":"free"},{"bike_id":"373fec99-6f3a-4cfd-83ea-ddc5df00f324","system_id":"levelo_inurba_marseille","lat":43.250009,"lon":5.389195,"is_reserved":false,"is_disabled":false,"rental_uris":{"android":"levelo://app?vid=373fec99-6f3a-4cfd-83ea-ddc5df00f324","ios":"levelo://app?vid=373fec99-6f3a-4cfd-83ea-ddc5df00f324"},"vehicle_type_id":"4","last_reported":1702465579,"current_range_meters":30400,"station_id":"ce4bhgp2rcd13ifvqfd0","pricing_plan_id":"free"},{"bike_id":"7fbebc14-d304-4888-9d24-10ddc75c6c7d","system_id":"levelo_inurba_marseille","lat":43.24693,"lon":5.382096,"is_reserved":false,"is_disabled":false,"rental_uris":{"android":"levelo://app?vid=7fbebc14-d304-4888-9d24-10ddc75c6c7d","ios":"levelo://app?vid=7fbebc14-d304-4888-9d24-10ddc75c6c7d"},"vehicle_type_id":"4","last_reported":1702465579,"current_range_meters":18400,"station_id":"ce4bhih2rcd13ifvqfr0","pricing_plan_id":"free"},{"bike_id":"cfe1433f-7563-446a-b995-b929feae579e","system_id":"levelo_inurba_marseille","lat":43.24661,"lon":5.38161,"is_reserved":false,"is_disabled":false,"rental_uris":{"android":"levelo://app?vid=cfe1433f-7563-446a-b995-b929feae579e","ios":"levelo://app?vid=cfe1433f-7563-446a-b995-b929feae579e"},"vehicle_type_id":"4","last_reported":1702465579,"current_range_meters":4400,"station_id":"ce4bhih2rcd13ifvqfr0","pricing_plan_id":"free"},{"bike_id":"2dee0431-172c-49a5-bacc-dc8014c3b82a","system_id":"levelo_inurba_marseille","lat":43.24693,"lon":5.382096,"is_reserved":false,"is_disabled":false,"rental_uris":{"android":"levelo://app?vid=2dee0431-172c-49a5-bacc-dc8014c3b82a","ios":"levelo://app?vid=2dee0431-172c-49a5-bacc-dc8014c3b82a"},"vehicle_type_id":"4","last_reported":1702465579,"current_range_meters":27600,"station_id":"ce4bhih2rcd13ifvqfr0","pricing_plan_id":"free"},{"bike_id":"ee1f7ea6-fe6c-4b1a-868a-a43fecdc47f5","system_id":"levelo_inurba_marseille","lat":43.25102,"lon":5.403214,"is_reserved":false,"is_disabled":false,"rental_uris":{"android":"levelo://app?vid=ee1f7ea6-fe6c-4b1a-868a-a43fecdc47f5","ios":"levelo://app?vid=ee1f7ea6-fe6c-4b1a-868a-a43fecdc47f5"},"vehicle_type_id":"4","last_reported":1702465579,"current_range_meters":16800,"station_id":"ce4bhlh2rcd13ifvqgig","pricing_plan_id":"free"},{"bike_id":"4a892c67-04e1-4333-8865-6605ac9fe77f","system_id":"levelo_inurba_marseille","lat":43.2465,"lon":5.38156,"is_reserved":false,"is_disabled":false,"rental_uris":{"android":"levelo://app?vid=4a892c67-04e1-4333-8865-6605ac9fe77f","ios":"levelo://app?vid=4a892c67-04e1-4333-8865-6605ac9fe77f"},"vehicle_type_id":"4","last_reported":1702465579,"current_range_meters":14400,"station_id":"ce4bhih2rcd13ifvqfr0","pricing_plan_id":"free"},{"bike_id":"fbaa55d9-f378-4b6e-b8f8-cdacabf13355","system_id":"levelo_inurba_marseille","lat":43.246461,"lon":5.389014,"is_reserved":false,"is_disabled":false,"rental_uris":{"android":"levelo://app?vid=fbaa55d9-f378-4b6e-b8f8-cdacabf13355","ios":"levelo://app?vid=fbaa55d9-f378-4b6e-b8f8-cdacabf13355"},"vehicle_type_id":"4","last_reported":1702465579,"current_range_meters":30000,"station_id":"ce4bhg12rcd13ifvqf60","pricing_plan_id":"free"},{"bike_id":"2c6c121d-387d-4b31-8c32-d51f656332d0","system_id":"levelo_inurba_marseille","lat":43.246461,"lon":5.389014,"is_reserved":false,"is_disabled":false,"rental_uris":{"android":"levelo://app?vid=2c6c121d-387d-4b31-8c32-d51f656332d0","ios":"levelo://app?vid=2c6c121d-387d-4b31-8c32-d51f656332d0"},"vehicle_type_id":"4","last_reported":1702465579,"current_range_meters":20000,"station_id":"ce4bhg12rcd13ifvqf60","pricing_plan_id":"free"},{"bike_id":"26b6305b-3325-4309-aa3e-1d458d7a672e","system_id":"levelo_inurba_marseille","lat":43.246461,"lon":5.389014,"is_reserved":false,"is_disabled":false,"rental_uris":{"android":"levelo://app?vid=26b6305b-3325-4309-aa3e-1d458d7a672e","ios":"levelo://app?vid=26b6305b-3325-4309-aa3e-1d458d7a672e"},"vehicle_type_id":"4","last_reported":1702465579,"current_range_meters":16000,"station_id":"ce4bhg12rcd13ifvqf60","pricing_plan_id":"free"},{"bike_id":"79ff15de-4d4c-4e0e-8061-666c8b0d69a6","system_id":"levelo_inurba_marseille","lat":43.243884,"lon":5.370736,"is_reserved":false,"is_disabled":false,"rental_uris":{"android":"levelo://app?vid=79ff15de-4d4c-4e0e-8061-666c8b0d69a6","ios":"levelo://app?vid=79ff15de-4d4c-4e0e-8061-666c8b0d69a6"},"vehicle_type_id":"4","last_reported":1702465579,"current_range_meters":0,"station_id":"ce4bhhh2rcd13ifvqfk0","pricing_plan_id":"free"},{"bike_id":"a6faa434-4394-4a64-bc87-2fe1ea55e27a","system_id":"levelo_inurba_marseille","lat":43.243884,"lon":5.370737,"is_reserved":false,"is_disabled":false,"rental_uris":{"android":"levelo://app?vid=a6faa434-4394-4a64-bc87-2fe1ea55e27a","ios":"levelo://app?vid=a6faa434-4394-4a64-bc87-2fe1ea55e27a"},"vehicle_type_id":"4","last_reported":1702465579,"current_range_meters":25600,"station_id":"ce4bhhh2rcd13ifvqfk0","pricing_plan_id":"free"},{"bike_id":"045720db-19db-465c-8429-c03704b24fad","system_id":"levelo_inurba_marseille","lat":43.239588,"lon":5.366238,"is_reserved":false,"is_disabled":false,"rental_uris":{"android":"levelo://app?vid=045720db-19db-465c-8429-c03704b24fad","ios":"levelo://app?vid=045720db-19db-465c-8429-c03704b24fad"},"vehicle_type_id":"4","last_reported":1702465579,"current_range_meters":26000,"station_id":"ce4bhi12rcd13ifvqfp0","pricing_plan_id":"free"},{"bike_id":"1a3bb768-1a1b-401a-8701-dc0e26c9f399","system_id":"levelo_inurba_marseille","lat":43.239588,"lon":5.366238,"is_reserved":false,"is_disabled":false,"rental_uris":{"android":"levelo://app?vid=1a3bb768-1a1b-401a-8701-dc0e26c9f399","ios":"levelo://app?vid=1a3bb768-1a1b-401a-8701-dc0e26c9f399"},"vehicle_type_id":"4","last_reported":1702465579,"current_range_meters":26800,"station_id":"ce4bhi12rcd13ifvqfp0","pricing_plan_id":"free"},{"bike_id":"6fb06ddb-97a9-4e82-97f4-85f411863478","system_id":"levelo_inurba_marseille","lat":43.231919,"lon":5.355532,"is_reserved":false,"is_disabled":false,"rental_uris":{"android":"levelo://app?vid=6fb06ddb-97a9-4e82-97f4-85f411863478","ios":"levelo://app?vid=6fb06ddb-97a9-4e82-97f4-85f411863478"},"vehicle_type_id":"4","last_reported":1702465579,"current_range_meters":27600,"station_id":"ce4bhu92rcd13ifvqi70","pricing_plan_id":"free"},{"bike_id":"5be5a0a3-3e0d-4c7b-bf08-de33b00a76d2","system_id":"levelo_inurba_marseille","lat":43.23195,"lon":5.35552,"is_reserved":false,"is_disabled":false,"rental_uris":{"android":"levelo://app?vid=5be5a0a3-3e0d-4c7b-bf08-de33b00a76d2","ios":"levelo://app?vid=5be5a0a3-3e0d-4c7b-bf08-de33b00a76d2"},"vehicle_type_id":"4","last_reported":1702465579,"current_range_meters":18400,"station_id":"ce4bhu92rcd13ifvqi70","pricing_plan_id":"free"},{"bike_id":"a24e9a7d-aca6-4a9e-803e-e0faeb33511b","system_id":"levelo_inurba_marseille","lat":43.23192,"lon":5.35551,"is_reserved":false,"is_disabled":false,"rental_uris":{"android":"levelo://app?vid=a24e9a7d-aca6-4a9e-803e-e0faeb33511b","ios":"levelo://app?vid=a24e9a7d-aca6-4a9e-803e-e0faeb33511b"},"vehicle_type_id":"4","last_reported":1702465579,"current_range_meters":0,"station_id":"ce4bhu92rcd13ifvqi70","pricing_plan_id":"free"},{"bike_id":"46e85755-7f44-4770-9e69-88e3e5d2d0d4","system_id":"levelo_inurba_marseille","lat":43.231794,"lon":5.400052,"is_reserved":false,"is_disabled":false,"rental_uris":{"android":"levelo://app?vid=46e85755-7f44-4770-9e69-88e3e5d2d0d4","ios":"levelo://app?vid=46e85755-7f44-4770-9e69-88e3e5d2d0d4"},"vehicle_type_id":"4","last_reported":1702465579,"current_range_meters":22400,"station_id":"ce4bhn12rcd13ifvqgqg","pricing_plan_id":"free"},{"bike_id":"5d66a1e1-407e-43b7-8a1f-b43437a90341","system_id":"levelo_inurba_marseille","lat":43.231794,"lon":5.400052,"is_reserved":false,"is_disabled":false,"rental_uris":{"android":"levelo://app?vid=5d66a1e1-407e-43b7-8a1f-b43437a90341","ios":"levelo://app?vid=5d66a1e1-407e-43b7-8a1f-b43437a90341"},"vehicle_type_id":"4","last_reported":1702465579,"current_range_meters":6000,"station_id":"ce4bhn12rcd13ifvqgqg","pricing_plan_id":"free"},{"bike_id":"c83f8c95-e38d-45b0-8420-069ec0428772","system_id":"levelo_inurba_marseille","lat":43.231562,"lon":5.436933,"is_reserved":false,"is_disabled":false,"rental_uris":{"android":"levelo://app?vid=c83f8c95-e38d-45b0-8420-069ec0428772","ios":"levelo://app?vid=c83f8c95-e38d-45b0-8420-069ec0428772"},"vehicle_type_id":"4","last_reported":1702465579,"current_range_meters":26800,"station_id":"ce4bhmp2rcd13ifvqgog","pricing_plan_id":"free"},{"bike_id":"ebb80fa1-e0b5-4738-af00-71e836845110","system_id":"levelo_inurba_marseille","lat":43.231562,"lon":5.436933,"is_reserved":false,"is_disabled":false,"rental_uris":{"android":"levelo://app?vid=ebb80fa1-e0b5-4738-af00-71e836845110","ios":"levelo://app?vid=ebb80fa1-e0b5-4738-af00-71e836845110"},"vehicle_type_id":"4","last_reported":1702465579,"current_range_meters":30000,"station_id":"ce4bhmp2rcd13ifvqgog","pricing_plan_id":"free"},{"bike_id":"58ad7b1b-1e96-4241-8f3b-6d49dc932f71","system_id":"levelo_inurba_marseille","lat":43.23149,"lon":5.43719,"is_reserved":false,"is_disabled":false,"rental_uris":{"android":"levelo://app?vid=58ad7b1b-1e96-4241-8f3b-6d49dc932f71","ios":"levelo://app?vid=58ad7b1b-1e96-4241-8f3b-6d49dc932f71"},"vehicle_type_id":"4","last_reported":1702465579,"current_range_meters":11200,"station_id":"ce4bhmp2rcd13ifvqgog","pricing_plan_id":"free"},{"bike_id":"99e7b301-f409-462c-880f-dbea562217ca","system_id":"levelo_inurba_marseille","lat":43.23151,"lon":5.43726,"is_reserved":false,"is_disabled":false,"rental_uris":{"android":"levelo://app?vid=99e7b301-f409-462c-880f-dbea562217ca","ios":"levelo://app?vid=99e7b301-f409-462c-880f-dbea562217ca"},"vehicle_type_id":"4","last_reported":1702465579,"current_range_meters":3600,"station_id":"ce4bhmp2rcd13ifvqgog","pricing_plan_id":"free"},{"bike_id":"f4aec10b-8a5f-47fd-994a-96c79c18a718","system_id":"levelo_inurba_marseille","lat":43.2315,"lon":5.43725,"is_reserved":false,"is_disabled":false,"rental_uris":{"android":"levelo://app?vid=f4aec10b-8a5f-47fd-994a-96c79c18a718","ios":"levelo://app?vid=f4aec10b-8a5f-47fd-994a-96c79c18a718"},"vehicle_type_id":"4","last_reported":1702465579,"current_range_meters":6800,"station_id":"ce4bhmp2rcd13ifvqgog","pricing_plan_id":"free"},{"bike_id":"f7b60400-fc08-4a89-bfab-a480add7ef96","system_id":"levelo_inurba_marseille","lat":43.2315,"lon":5.43725,"is_reserved":false,"is_disabled":false,"rental_uris":{"android":"levelo://app?vid=f7b60400-fc08-4a89-bfab-a480add7ef96","ios":"levelo://app?vid=f7b60400-fc08-4a89-bfab-a480add7ef96"},"vehicle_type_id":"4","last_reported":1702465579,"current_range_meters":31200,"station_id":"ce4bhmp2rcd13ifvqgog","pricing_plan_id":"free"}]}}