{"last_updated":1729181532,"ttl":60,"version":"2.2","data":{"bikes":[{"bike_id":"ad3740dd-d1ed-4d39-a629-64e6b998150a","system_id":"levelo_inurba_marseille","lat":43.25106,"lon":5.40321,"is_reserved":false,"is_disabled":false,"rental_uris":{"android":"levelo://app?vid=ad3740dd-d1ed-4d39-a629-64e6b998150a","ios":"levelo://app?vid=ad3740dd-d1ed-4d39-a629-64e6b998150a"},"vehicle_type_id":"4","last_reported":1729181532,"current_range_meters":20400,"station_id":"ce4bhlh2rcd13ifvqgig","pricing_plan_id":"cebpf4jnsgd1na2vs0mg"},{"bike_id":"5483b4ac-b5a7-4f5b-93fe-c3a8ab04747d","system_id":"levelo_inurba_marseille","lat":43.29713,"lon":5.37685,"is_reserved":false,"is_disabled":false,"rental_uris":{"android":"levelo://app?vid=5483b4ac-b5a7-4f5b-93fe-c3a8ab04747d","ios":"levelo://app?vid=5483b4ac-b5a7-4f5b-93fe-c3a8ab04747d"},"vehicle_type_id":"4","last_reported":1729181532,"current_range_meters":38800,"station_id":"ce4bgkh2rcd13ifvqbl0","pricing_plan_id":"cebpf4jnsgd1na2vs0mg"},{"bike_id":"78b7cb3b-80c9-48b4-a04e-17032e221c41","system_id":"levelo_inurba_marseille","lat":43.31757,"lon":5.39018,"is_reserved":false,"is_disabled":false,"rental_uris":{"android":"levelo://app?vid=78b7cb3b-80c9-48b4-a04e-17032e221c41","ios":"levelo://app?vid=78b7cb3b-80c9-48b4-a04e-17032e221c41"},"vehicle_type_id":"4","last_reported":1729181532,"current_range_meters":34800,"station_id":"ce4bhqp2rcd13ifvqhng","pricing_plan_id":"cebpf4jnsgd1na2vs0mg"},{"bike_id":"676ec6c4-6b42-43e0-81fe-327782965da5","system_id":"levelo_inurba_marseille","lat":43.337444,"lon":5.374475,"is_reserved":false,"is_disabled":false,"rental_uris":{"android":"levelo://app?vid=676ec6c4-6b42-43e0-81fe-327782965da5","ios":"levelo://app?vid=676ec6c4-6b42-43e0-81fe-327782965da5"},"vehicle_type_id":"4","last_reported":1729181532,"current_range_meters":16000,"station_id":"","pricing_plan_id":"cebpf4jnsgd1na2vs0mg"},{"bike_id":"ec8207e4-d205-496d-824a-5674da1061fe","system_id":"levelo_inurba_marseille","lat":43.29787,"lon":5.39343,"is_reserved":false,"is_disabled":false,"rental_uris":{"android":"levelo://app?vid=ec8207e4-d205-496d-824a-5674da1061fe","ios":"levelo://app?vid=ec8207e4-d205-496d-824a-5674da1061fe"},"vehicle_type_id":"4","last_reported":1729181532,"current_range_meters":38000,"station_id":"chh1huq6cuj3fo74tm60","pricing_plan_id":"cebpf4jnsgd1na2vs0mg"},{"bike_id":"4ba71227-9099-4711-9c3e-94a771ebe85b","system_id":"levelo_inurba_marseille","lat":43.294647,"lon":5.381946,"is_reserved":false,"is_disabled":false,"rental_uris":{"android":"levelo://app?vid=4ba71227-9099-4711-9c3e-94a771ebe85b","ios":"levelo://app?vid=4ba71227-9099-4711-9c3e-94a771ebe85b"},"vehicle_type_id":"4","last_reported":1729181532,"current_range_meters":29600,"station_id":"","pricing_plan_id":"cebpf4jnsgd1na2vs0mg"},{"bike_id":"766acff6-9cd4-46ea-8cc9-37ffd618cb90","system_id":"levelo_inurba_marseille","lat":43.27924,"lon":5.39584,"is_reserved":false,"is_disabled":false,"rental_uris":{"android":"levelo://app?vid=766acff6-9cd4-46ea-8cc9-37ffd618cb90","ios":"levelo://app?vid=766acff6-9cd4-46ea-8cc9-37ffd618cb90"},"vehicle_type_id":"4","last_reported":1729181532,"current_range_meters":12800,"station_id":"ce4bhf92rcd13ifvqf40","pricing_plan_id":"cebpf4jnsgd1na2vs0mg"},{"bike_id":"90980213-7ada-4ce3-9e74-ac791cb54c2d","system_id":"levelo_inurba_marseille","lat":43.28453,"lon":5.35889,"is_reserved":false,"is_disabled":false,"rental_uris":{"android":"levelo://app?vid=90980213-7ada-4ce3-9e74-ac791cb54c2d","ios":"levelo://app?vid=90980213-7ada-4ce3-9e74-ac791cb54c2d"},"vehicle_type_id":"4","last_reported":1729181532,"current_range_meters":5600,"station_id":"ce4bhah2rcd13ifvqei0","pricing_plan_id":"cebpf4jnsgd1na2vs0mg"},{"bike_id":"3f66dd1c-9be6-4b94-886c-d04770b03feb","system_id":"levelo_inurba_marseille","lat":43.33024,"lon":5.39039,"is_reserved":false,"is_disabled":false,"rental_uris":{"android":"levelo://app?vid=3f66dd1c-9be6-4b94-886c-d04770b03feb","ios":"levelo://app?vid=3f66dd1c-9be6-4b94-886c-d04770b03feb"},"vehicle_type_id":"4","last_reported":1729181532,"current_range_meters":6400,"station_id":"ce4bhr92rcd13ifvqhrg","pricing_plan_id":"cebpf4jnsgd1na2vs0mg"},{"bike_id":"f007d8fd-5fb4-4dc0-b2f7-a68b1d39079e","system_id":"levelo_inurba_marseille","lat":43.27376,"lon":5.36257,"is_reserved":false,"is_disabled":false,"rental_uris":{"android":"levelo://app?vid=f007d8fd-5fb4-4dc0-b2f7-a68b1d39079e","ios":"levelo://app?vid=f007d8fd-5fb4-4dc0-b2f7-a68b1d39079e"},"vehicle_type_id":"4","last_reported":1729181532,"current_range_meters":38800,"station_id":"ce4bhbh2rcd13ifvqeo0","pricing_plan_id":"cebpf4jnsgd1na2vs0mg"},{"bike_id":"29689e71-334c-4200-aca7-1d7023ddf226","system_id":"levelo_inurba_marseille","lat":43.32287,"lon":5.3828,"is_reserved":false,"is_disabled":false,"rental_uris":{"android":"levelo://app?vid=29689e71-334c-4200-aca7-1d7023ddf226","ios":"levelo://app?vid=29689e71-334c-4200-aca7-1d7023ddf226"},"vehicle_type_id":"4","last_reported":1729181532,"current_range_meters":30400,"station_id":"ce4bhr12rcd13ifvqhqg","pricing_plan_id":"cebpf4jnsgd1na2vs0mg"},{"bike_id":"0e9ad9af-e89b-412e-a7df-344fe8f113f7","system_id":"levelo_inurba_marseille","lat":43.24997,"lon":5.38927,"is_reserved":false,"is_disabled":false,"rental_uris":{"android":"levelo://app?vid=0e9ad9af-e89b-412e-a7df-344fe8f113f7","ios":"levelo://app?vid=0e9ad9af-e89b-412e-a7df-344fe8f113f7"},"vehicle_type_id":"4","last_reported":1729181532,"current_range_meters":25600,"station_id":"ce4bhgp2rcd13ifvqfd0","pricing_plan_id":"cebpf4jnsgd1na2vs0mg"},{"bike_id":"9c659fe7-9009-4eb7-b85a-009107b57f45","system_id":"levelo_inurba_marseille","lat":43.26934,"lon":5.40262,"is_reserved":false,"is_disabled":false,"rental_uris":{"android":"levelo://app?vid=9c659fe7-9009-4eb7-b85a-009107b57f45","ios":"levelo://app?vid=9c659fe7-9009-4eb7-b85a-009107b57f45"},"vehicle_type_id":"4","last_reported":1729181532,"current_range_meters":9200,"station_id":"cjm6bp8fraef2m0cb0m0","pricing_plan_id":"cebpf4jnsgd1na2vs0mg"},{"bike_id":"7e6f0a57-2228-4c5f-a8b5-87eb26aa6917","system_id":"levelo_inurba_marseille","lat":43.29707,"lon":5.36611,"is_reserved":false,"is_disabled":false,"rental_uris":{"android":"levelo://app?vid=7e6f0a57-2228-4c5f-a8b5-87eb26aa6917","ios":"levelo://app?vid=7e6f0a57-2228-4c5f-a8b5-87eb26aa6917"},"vehicle_type_id":"4","last_reported":1729181532,"current_range_meters":30000,"station_id":"ce4bgn12rcd13ifvqbt0","pricing_plan_id":"cebpf4jnsgd1na2vs0mg"},{"bike_id":"1eb2a08f-56af-4cc2-b21b-23198bf2c2ed","system_id":"levelo_inurba_marseille","lat":43.26556,"lon":5.37286,"is_reserved":false,"is_disabled":false,"rental_uris":{"android":"levelo://app?vid=1eb2a08f-56af-4cc2-b21b-23198bf2c2ed","ios":"levelo://app?vid=1eb2a08f-56af-4cc2-b21b-23198bf2c2ed"},"vehicle_type_id":"4","last_reported":1729181532,"current_range_meters":2800,"station_id":"ce4bhg12rcd13ifvqf70","pricing_plan_id":"cebpf4jnsgd1na2vs0mg"},{"bike_id":"4ae2c184-8c50-452d-87fb-8f7bf4f540f3","system_id":"levelo_inurba_marseille","lat":43.24656,"lon":5.38897,"is_reserved":false,"is_disabled":false,"rental_uris":{"android":"levelo://app?vid=4ae2c184-8c50-452d-87fb-8f7bf4f540f3","ios":"levelo://app?vid=4ae2c184-8c50-452d-87fb-8f7bf4f540f3"},"vehicle_type_id":"4","last_reported":1729181532,"current_range_meters":38800,"station_id":"ce4bhg12rcd13ifvqf60","pricing_plan_id":"cebpf4jnsgd1na2vs0mg"},{"bike_id":"791641b8-dabe-4982-982b-c8e7fc7abd5d","system_id":"levelo_inurba_marseille","lat":43.25116,"lon":5.40329,"is_reserved":false,"is_disabled":false,"rental_uris":{"android":"levelo://app?vid=791641b8-dabe-4982-982b-c8e7fc7abd5d","ios":"levelo://app?vid=791641b8-dabe-4982-982b-c8e7fc7abd5d"},"vehicle_type_id":"4","last_reported":1729181532,"current_range_meters":15200,"station_id":"ce4bhlh2rcd13ifvqgig","pricing_plan_id":"cebpf4jnsgd1na2vs0mg"},{"bike_id":"1a934f0c-9473-4346-9671-65f0e0bafe0f","system_id":"levelo_inurba_marseille","lat":43.28462,"lon":5.35891,"is_reserved":false,"is_disabled":false,"rental_uris":{"android":"levelo://app?vid=1a934f0c-9473-4346-9671-65f0e0bafe0f","ios":"levelo://app?vid=1a934f0c-9473-4346-9671-65f0e0bafe0f"},"vehicle_type_id":"4","last_reported":1729181532,"current_range_meters":32800,"station_id":"ce4bhah2rcd13ifvqei0","pricing_plan_id":"cebpf4jnsgd1na2vs0mg"},{"bike_id":"5a4320fd-668e-47a8-9a0f-748e783877c2","system_id":"levelo_inurba_marseille","lat":43.31709,"lon":5.43715,"is_reserved":false,"is_disabled":false,"rental_uris":{"android":"levelo://app?vid=5a4320fd-668e-47a8-9a0f-748e783877c2","ios":"levelo://app?vid=5a4320fd-668e-47a8-9a0f-748e783877c2"},"vehicle_type_id":"4","last_reported":1729181532,"current_range_meters":20800,"station_id":"ce4bhp92rcd13ifvqhcg","pricing_plan_id":"cebpf4jnsgd1na2vs0mg"},{"bike_id":"a4302bd0-1f13-47eb-af26-71c8f5c0f5f1","system_id":"levelo_inurba_marseille","lat":43.29093,"lon":5.38141,"is_reserved":false,"is_disabled":false,"rental_uris":{"android":"levelo://app?vid=a4302bd0-1f13-47eb-af26-71c8f5c0f5f1","ios":"levelo://app?vid=a4302bd0-1f13-47eb-af26-71c8f5c0f5f1"},"vehicle_type_id":"4","last_reported":1729181532,"current_range_meters":33600,"station_id":"","pricing_plan_id":"cebpf4jnsgd1na2vs0mg"},{"bike_id":"ba385696-1c00-4366-b0a7-b17da0e20789","system_id":"levelo_inurba_marseille","lat":43.31753,"lon":5.3902,"is_reserved":false,"is_disabled":false,"rental_uris":{"android":"levelo://app?vid=ba385696-1c00-4366-b0a7-b17da0e20789","ios":"levelo://app?vid=ba385696-1c00-4366-b0a7-b17da0e20789"},"vehicle_type_id":"4","last_reported":1729181532,"current_range_meters":12000,"station_id":"ce4bhqp2rcd13ifvqhng","pricing_plan_id":"cebpf4jnsgd1na2vs0mg"},{"bike_id":"052b3563-392a-4857-8174-027696f961ab","system_id":"levelo_inurba_marseille","lat":43.24646,"lon":5.38906,"is_reserved":false,"is_disabled":false,"rental_uris":{"android":"levelo://app?vid=052b3563-392a-4857-8174-027696f961ab","ios":"levelo://app?vid=052b3563-392a-4857-8174-027696f961ab"},"vehicle_type_id":"4","last_reported":1729181532,"current_range_meters":23200,"station_id":"ce4bhg12rcd13ifvqf60","pricing_plan_id":"cebpf4jnsgd1na2vs0mg"},{"bike_id":"9373f069-8b2b-4182-971f-b65229ad60e9","system_id":"levelo_inurba_marseille","lat":43.34139,"lon":5.40904,"is_reserved":false,"is_disabled":false,"rental_uris":{"android":"levelo://app?vid=9373f069-8b2b-4182-971f-b65229ad60e9","ios":"levelo://app?vid=9373f069-8b2b-4182-971f-b65229ad60e9"},"vehicle_type_id":"4","last_reported":1729181532,"current_range_meters":9600,"station_id":"ce4bhqh2rcd13ifvqhlg","pricing_plan_id":"cebpf4jnsgd1na2vs0mg"},{"bike_id":"937a3f13-9596-43de-8817-cbbac6a7dc35","system_id":"levelo_inurba_marseille","lat":43.3176,"lon":5.39018,"is_reserved":false,"is_disabled":false,"rental_uris":{"android":"levelo://app?vid=937a3f13-9596-43de-8817-cbbac6a7dc35","ios":"levelo://app?vid=937a3f13-9596-43de-8817-cbbac6a7dc35"},"vehicle_type_id":"4","last_reported":1729181532,"current_range_meters":24400,"station_id":"ce4bhqp2rcd13ifvqhng","pricing_plan_id":"cebpf4jnsgd1na2vs0mg"},{"bike_id":"ad92c83d-8f78-4b6b-a714-4dcef9cf9934","system_id":"levelo_inurba_marseille","lat":43.23176,"lon":5.39989,"is_reserved":false,"is_disabled":false,"rental_uris":{"android":"levelo://app?vid=ad92c83d-8f78-4b6b-a714-4dcef9cf9934","ios":"levelo://app?vid=ad92c83d-8f78-4b6b-a714-4dcef9cf9934"},"vehicle_type_id":"4","last_reported":1729181532,"current_range_meters":16000,"station_id":"ce4bhn12rcd13ifvqgqg","pricing_plan_id":"cebpf4jnsgd1na2vs0mg"},{"bike_id":"620b9688-7a6f-4731-b8eb-36b757d9b20d","system_id":"levelo_inurba_marseille","lat":43.28077,"lon":5.39652,"is_reserved":false,"is_disabled":false,"rental_uris":{"android":"levelo://app?vid=620b9688-7a6f-4731-b8eb-36b757d9b20d","ios":"levelo://app?vid=620b9688-7a6f-4731-b8eb-36b757d9b20d"},"vehicle_type_id":"4","last_reported":1729181532,"current_range_meters":12800,"station_id":"ce4bho12rcd13ifvqh2g","pricing_plan_id":"cebpf4jnsgd1na2vs0mg"},{"bike_id":"58c69b12-7467-4279-b980-9aa21ca6358f","system_id":"levelo_inurba_marseille","lat":43.23962,"lon":5.36634,"is_reserved":false,"is_disabled":false,"rental_uris":{"android":"levelo://app?vid=58c69b12-7467-4279-b980-9aa21ca6358f","ios":"levelo://app?vid=58c69b12-7467-4279-b980-9aa21ca6358f"},"vehicle_type_id":"4","last_reported":1729181532,"current_range_meters":28800,"station_id":"ce4bhi12rcd13ifvqfp0","pricing_plan_id":"cebpf4jnsgd1na2vs0mg"},{"bike_id":"edc9f569-bd73-4fe7-9c51-eb296bf2e653","system_id":"levelo_inurba_marseille","lat":43.30932,"lon":5.40157,"is_reserved":false,"is_disabled":false,"rental_uris":{"android":"levelo://app?vid=edc9f569-bd73-4fe7-9c51-eb296bf2e653","ios":"levelo://app?vid=edc9f569-bd73-4fe7-9c51-eb296bf2e653"},"vehicle_type_id":"4","last_reported":1729181532,"current_range_meters":25600,"station_id":"ce4bgvp2rcd13ifvqct0","pricing_plan_id":"cebpf4jnsgd1na2vs0mg"},{"bike_id":"32a6c07c-2efc-4c39-83b2-ad20df521685","system_id":"levelo_inurba_marseille","lat":43.28266,"lon":5.35071,"is_reserved":false,"is_disabled":false,"rental_uris":{"android":"levelo://app?vid=32a6c07c-2efc-4c39-83b2-ad20df521685","ios":"levelo://app?vid=32a6c07c-2efc-4c39-83b2-ad20df521685"},"vehicle_type_id":"4","last_reported":1729181532,"current_range_meters":6800,"station_id":"ce4bhbp2rcd13ifvqerg","pricing_plan_id":"cebpf4jnsgd1na2vs0mg"},{"bike_id":"9280a40f-c366-4a2d-bfbd-33c5b509b662","system_id":"levelo_inurba_marseille","lat":43.248,"lon":5.37459,"is_reserved":false,"is_disabled":false,"rental_uris":{"android":"levelo://app?vid=9280a40f-c366-4a2d-bfbd-33c5b509b662","ios":"levelo://app?vid=9280a40f-c366-4a2d-bfbd-33c5b509b662"},"vehicle_type_id":"4","last_reported":1729181532,"current_range_meters":26000,"station_id":"ce4bhgh2rcd13ifvqfb0","pricing_plan_id":"cebpf4jnsgd1na2vs0mg"},{"bike_id":"e20fafca-079a-403c-b57c-f7aca789639e","system_id":"levelo_inurba_marseille","lat":43.24812,"lon":5.37459,"is_reserved":false,"is_disabled":false,"rental_uris":{"android":"levelo://app?vid=e20fafca-079a-403c-b57c-f7aca789639e","ios":"levelo://app?vid=e20fafca-079a-403c-b57c-f7aca789639e"},"vehicle_type_id":"4","last_reported":1729181532,"current_range_meters":38000,"station_id":"ce4bhgh2rcd13ifvqfb0","pricing_plan_id":"cebpf4jnsgd1na2vs0mg"},{"bike_id":"ed55d960-e651-42a6-9e1d-f60cea8fde91","system_id":"levelo_inurba_marseille","lat":43.3189,"lon":5.40748,"is_reserved":false,"is_disabled":false,"rental_uris":{"android":"levelo://app?vid=ed55d960-e651-42a6-9e1d-f60cea8fde91","ios":"levelo://app?vid=ed55d960-e651-42a6-9e1d-f60cea8fde91"},"vehicle_type_id":"4","last_reported":1729181532,"current_range_meters":27600,"station_id":"ce4bhq12rcd13ifvqhig","pricing_plan_id":"cebpf4jnsgd1na2vs0mg"},{"bike_id":"062617d6-e9e6-4de3-b4d5-6835a408f459","system_id":"levelo_inurba_marseille","lat":43.28999,"lon":5.35616,"is_reserved":false,"is_disabled":false,"rental_uris":{"android":"levelo://app?vid=062617d6-e9e6-4de3-b4d5-6835a408f459","ios":"levelo://app?vid=062617d6-e9e6-4de3-b4d5-6835a408f459"},"vehicle_type_id":"4","last_reported":1729181532,"current_range_meters":22800,"station_id":"ce4bhb92rcd13ifvqen0","pricing_plan_id":"cebpf4jnsgd1na2vs0mg"},{"bike_id":"094a9ef1-fcd9-4de4-b974-440897a04333","system_id":"levelo_inurba_marseille","lat":43.32114,"lon":5.36781,"is_reserved":false,"is_disabled":false,"rental_uris":{"android":"levelo://app?vid=094a9ef1-fcd9-4de4-b974-440897a04333","ios":"levelo://app?vid=094a9ef1-fcd9-4de4-b974-440897a04333"},"vehicle_type_id":"4","last_reported":1729181532,"current_range_meters":34000,"station_id":"ce4bhrh2rcd13ifvqhug","pricing_plan_id":"cebpf4jnsgd1na2vs0mg"},{"bike_id":"5760685f-484b-402e-b128-c4bdc876b98c","system_id":"levelo_inurba_marseille","lat":43.25118,"lon":5.4032,"is_reserved":false,"is_disabled":false,"rental_uris":{"android":"levelo://app?vid=5760685f-484b-402e-b128-c4bdc876b98c","ios":"levelo://app?vid=5760685f-484b-402e-b128-c4bdc876b98c"},"vehicle_type_id":"4","last_reported":1729181532,"current_range_meters":4000,"station_id":"ce4bhlh2rcd13ifvqgig","pricing_plan_id":"cebpf4jnsgd1na2vs0mg"},{"bike_id":"d4020f73-14b4-47a0-9aab-96552179c209","system_id":"levelo_inurba_marseille","lat":43.26556,"lon":5.37285,"is_reserved":false,"is_disabled":false,"rental_uris":{"android":"levelo://app?vid=d4020f73-14b4-47a0-9aab-96552179c209","ios":"levelo://app?vid=d4020f73-14b4-47a0-9aab-96552179c209"},"vehicle_type_id":"4","last_reported":1729181532,"current_range_meters":8400,"station_id":"ce4bhg12rcd13ifvqf70","pricing_plan_id":"cebpf4jnsgd1na2vs0mg"},{"bike_id":"c0aea6bf-9822-4eef-a7c6-ea0b29185a8d","system_id":"levelo_inurba_marseille","lat":43.27926,"lon":5.41039,"is_reserved":false,"is_disabled":false,"rental_uris":{"android":"levelo://app?vid=c0aea6bf-9822-4eef-a7c6-ea0b29185a8d","ios":"levelo://app?vid=c0aea6bf-9822-4eef-a7c6-ea0b29185a8d"},"vehicle_type_id":"4","last_reported":1729181532,"current_range_meters":27600,"station_id":"ce4bhnp2rcd13ifvqh0g","pricing_plan_id":"cebpf4jnsgd1na2vs0mg"},{"bike_id":"433ed0a4-8b1b-4827-8631-3eb1e5675c23","system_id":"levelo_inurba_marseille","lat":43.29028,"lon":5.38658,"is_reserved":false,"is_disabled":false,"rental_uris":{"android":"levelo://app?vid=433ed0a4-8b1b-4827-8631-3eb1e5675c23","ios":"levelo://app?vid=433ed0a4-8b1b-4827-8631-3eb1e5675c23"},"vehicle_type_id":"4","last_reported":1729181532,"current_range_meters":12000,"station_id":"ce4bh4p2rcd13ifvqe0g","pricing_plan_id":"cebpf4jnsgd1na2vs0mg"},{"bike_id":"90b7df2b-2805-4913-a745-07d80216980c","system_id":"levelo_inurba_marseille","lat":43.30797,"lon":5.43531,"is_reserved":false,"is_disabled":false,"rental_uris":{"android":"levelo://app?vid=90b7df2b-2805-4913-a745-07d80216980c","ios":"levelo://app?vid=90b7df2b-2805-4913-a745-07d80216980c"},"vehicle_type_id":"4","last_reported":1729181532,"current_range_meters":17600,"station_id":"ce4bhph2rcd13ifvqheg","pricing_plan_id":"cebpf4jnsgd1na2vs0mg"},{"bike_id":"32ce68a3-3fc7-4257-974f-ab657619c295","system_id":"levelo_inurba_marseille","lat":43.33749,"lon":5.37448,"is_reserved":false,"is_disabled":false,"rental_uris":{"android":"levelo://app?vid=32ce68a3-3fc7-4257-974f-ab657619c295","ios":"levelo://app?vid=32ce68a3-3fc7-4257-974f-ab657619c295"},"vehicle_type_id":"4","last_reported":1729181532,"current_range_meters":36000,"station_id":"","pricing_plan_id":"cebpf4jnsgd1na2vs0mg"},{"bike_id":"06ed564a-09dd-4727-98da-5e1c5907fb6e","system_id":"levelo_inurba_marseille","lat":43.27562,"lon":5.38432,"is_reserved":false,"is_disabled":false,"rental_uris":{"android":"levelo://app?vid=06ed564a-09dd-4727-98da-5e1c5907fb6e","ios":"levelo://app?vid=06ed564a-09dd-4727-98da-5e1c5907fb6e"},"vehicle_type_id":"4","last_reported":1729181532,"current_range_meters":38800,"station_id":"ce4bhh92rcd13ifvqfi0","pricing_plan_id":"cebpf4jnsgd1na2vs0mg"},{"bike_id":"fa7bbdc9-afbe-404d-8676-647037cc76a9","system_id":"levelo_inurba_marseille","lat":43.23185,"lon":5.35549,"is_reserved":false,"is_disabled":false,"rental_uris":{"android":"levelo://app?vid=fa7bbdc9-afbe-404d-8676-647037cc76a9","ios":"levelo://app?vid=fa7bbdc9-afbe-404d-8676-647037cc76a9"},"vehicle_type_id":"4","last_reported":1729181532,"current_range_meters":33200,"station_id":"ce4bhu92rcd13ifvqi70","pricing_plan_id":"cebpf4jnsgd1na2vs0mg"},{"bike_id":"2ff86198-c4d5-4d96-aa47-9e8bd2c4cbda","system_id":"levelo_inurba_marseille","lat":43.2955,"lon":5.42291,"is_reserved":false,"is_disabled":false,"rental_uris":{"android":"levelo://app?vid=2ff86198-c4d5-4d96-aa47-9e8bd2c4cbda","ios":"levelo://app?vid=2ff86198-c4d5-4d96-aa47-9e8bd2c4cbda"},"vehicle_type_id":"4","last_reported":1729181532,"current_range_meters":38800,"station_id":"ce4bhph2rcd13ifvqhdg","pricing_plan_id":"cebpf4jnsgd1na2vs0mg"},{"bike_id":"752671c2-9054-492c-9263-fc5cb1c19d98","system_id":"levelo_inurba_marseille","lat":43.33023,"lon":5.39039,"is_reserved":false,"is_disabled":false,"rental_uris":{"android":"levelo://app?vid=752671c2-9054-492c-9263-fc5cb1c19d98","ios":"levelo://app?vid=752671c2-9054-492c-9263-fc5cb1c19d98"},"vehicle_type_id":"4","last_reported":1729181532,"current_range_meters":9200,"station_id":"ce4bhr92rcd13ifvqhrg","pricing_plan_id":"cebpf4jnsgd1na2vs0mg"},{"bike_id":"ff726813-2517-4302-b4b8-60455484d8f6","system_id":"levelo_inurba_marseille","lat":43.33023,"lon":5.39047,"is_reserved":false,"is_disabled":false,"rental_uris":{"android":"levelo://app?vid=ff726813-2517-4302-b4b8-60455484d8f6","ios":"levelo://app?vid=ff726813-2517-4302-b4b8-60455484d8f6"},"vehicle_type_id":"4","last_reported":1729181532,"current_range_meters":9600,"station_id":"ce4bhr92rcd13ifvqhrg","pricing_plan_id":"cebpf4jnsgd1na2vs0mg"},{"bike_id":"1b286d88-38de-4654-af64-51914b19b962","system_id":"levelo_inurba_marseille","lat":43.24645,"lon":5.38895,"is_reserved":false,"is_disabled":false,"rental_uris":{"android":"levelo://app?vid=1b286d88-38de-4654-af64-51914b19b962","ios":"levelo://app?vid=1b286d88-38de-4654-af64-51914b19b962"},"vehicle_type_id":"4","last_reported":1729181532,"current_range_meters":3200,"station_id":"ce4bhg12rcd13ifvqf60","pricing_plan_id":"cebpf4jnsgd1na2vs0mg"},{"bike_id":"9313a787-13e9-4747-aa6d-776c45943b9d","system_id":"levelo_inurba_marseille","lat":43.28074,"lon":5.39653,"is_reserved":false,"is_disabled":false,"rental_uris":{"android":"levelo://app?vid=9313a787-13e9-4747-aa6d-776c45943b9d","ios":"levelo://app?vid=9313a787-13e9-4747-aa6d-776c45943b9d"},"vehicle_type_id":"4","last_reported":1729181532,"current_range_meters":12400,"station_id":"ce4bho12rcd13ifvqh2g","pricing_plan_id":"cebpf4jnsgd1na2vs0mg"},{"bike_id":"4e82a983-4406-4fc1-9c7d-45090c1e4862","system_id":"levelo_inurba_marseille","lat":43.24536,"lon":5.39527,"is_reserved":false,"is_disabled":false,"rental_uris":{"android":"levelo://app?vid=4e82a983-4406-4fc1-9c7d-45090c1e4862","ios":"levelo://app?vid=4e82a983-4406-4fc1-9c7d-45090c1e4862"},"vehicle_type_id":"4","last_reported":1729181532,"current_range_meters":5600,"station_id":"ce4bhlp2rcd13ifvqgjg","pricing_plan_id":"cebpf4jnsgd1na2vs0mg"},{"bike_id":"8c1ec6cb-2291-4814-837b-be8625c706f3","system_id":"levelo_inurba_marseille","lat":43.23188,"lon":5.35542,"is_reserved":false,"is_disabled":false,"rental_uris":{"android":"levelo://app?vid=8c1ec6cb-2291-4814-837b-be8625c706f3","ios":"levelo://app?vid=8c1ec6cb-2291-4814-837b-be8625c706f3"},"vehicle_type_id":"4","last_reported":1729181532,"current_range_meters":37600,"station_id":"ce4bhu92rcd13ifvqi70","pricing_plan_id":"cebpf4jnsgd1na2vs0mg"},{"bike_id":"4ba0d524-228c-47ba-9ee4-e7ec9003220e","system_id":"levelo_inurba_marseille","lat":43.2481,"lon":5.37461,"is_reserved":false,"is_disabled":false,"rental_uris":{"android":"levelo://app?vid=4ba0d524-228c-47ba-9ee4-e7ec9003220e","ios":"levelo://app?vid=4ba0d524-228c-47ba-9ee4-e7ec9003220e"},"vehicle_type_id":"4","last_reported":1729181532,"current_range_meters":38800,"station_id":"ce4bhgh2rcd13ifvqfb0","pricing_plan_id":"cebpf4jnsgd1na2vs0mg"},{"bike_id":"7750c53d-6dc7-4fd8-8365-b874827419a3","system_id":"levelo_inurba_marseille","lat":43.24651,"lon":5.38895,"is_reserved":false,"is_disabled":false,"rental_uris":{"android":"levelo://app?vid=7750c53d-6dc7-4fd8-8365-b874827419a3","ios":"levelo://app?vid=7750c53d-6dc7-4fd8-8365-b874827419a3"},"vehicle_type_id":"4","last_reported":1729181532,"current_range_meters":13600,"station_id":"ce4bhg12rcd13ifvqf60","pricing_plan_id":"cebpf4jnsgd1na2vs0mg"},{"bike_id":"7cc12ecd-65a2-448c-8ed1-ba0ca7e2c9a7","system_id":"levelo_inurba_marseille","lat":43.32037,"lon":5.41556,"is_reserved":false,"is_disabled":false,"rental_uris":{"android":"levelo://app?vid=7cc12ecd-65a2-448c-8ed1-ba0ca7e2c9a7","ios":"levelo://app?vid=7cc12ecd-65a2-448c-8ed1-ba0ca7e2c9a7"},"vehicle_type_id":"4","last_reported":1729181532,"current_range_meters":29600,"station_id":"ce4bhq92rcd13ifvqhkg","pricing_plan_id":"cebpf4jnsgd1na2vs0mg"},{"bike_id":"c89c2319-61a9-47ef-9229-e31c9eaab143","system_id":"levelo_inurba_marseille","lat":43.23195,"lon":5.3555,"is_reserved":false,"is_disabled":false,"rental_uris":{"android":"levelo://app?vid=c89c2319-61a9-47ef-9229-e31c9eaab143","ios":"levelo://app?vid=c89c2319-61a9-47ef-9229-e31c9eaab143"},"vehicle_type_id":"4","last_reported":1729181532,"current_range_meters":38800,"station_id":"ce4bhu92rcd13ifvqi70","pricing_plan_id":"cebpf4jnsgd1na2vs0mg"},{"bike_id":"045c47a9-1a9b-4035-84ca-f822b51c6b72","system_id":"levelo_inurba_marseille","lat":43.29779,"lon":5.39334,"is_reserved":false,"is_disabled":false,"rental_uris":{"android":"levelo://app?vid=045c47a9-1a9b-4035-84ca-f822b51c6b72","ios":"levelo://app?vid=045c47a9-1a9b-4035-84ca-f822b51c6b72"},"vehicle_type_id":"4","last_reported":1729181532,"current_range_meters":4000,"station_id":"chh1huq6cuj3fo74tm60","pricing_plan_id":"cebpf4jnsgd1na2vs0mg"},{"bike_id":"c1b4d58c-7d67-4800-b5de-bf664ea422e8","system_id":"levelo_inurba_marseille","lat":43.246538,"lon":5.38882,"is_reserved":false,"is_disabled":false,"rental_uris":{"android":"levelo://app?vid=c1b4d58c-7d67-4800-b5de-bf664ea422e8","ios":"levelo://app?vid=c1b4d58c-7d67-4800-b5de-bf664ea422e8"},"vehicle_type_id":"4","last_reported":1729181532,"current_range_meters":10000,"station_id":"ce4bhg12rcd13ifvqf60","pricing_plan_id":"cebpf4jnsgd1na2vs0mg"},{"bike_id":"1f83888a-b6f2-480c-87e7-6b07142c1dd0","system_id":"levelo_inurba_marseille","lat":43.29896,"lon":5.43664,"is_reserved":false,"is_disabled":false,"rental_uris":{"android":"levelo://app?vid=1f83888a-b6f2-480c-87e7-6b07142c1dd0","ios":"levelo://app?vid=1f83888a-b6f2-480c-87e7-6b07142c1dd0"},"vehicle_type_id":"4","last_reported":1729181532,"current_range_meters":30000,"station_id":"ce4bhpp2rcd13ifvqhfg","pricing_plan_id":"cebpf4jnsgd1na2vs0mg"},{"bike_id":"794acdc8-c17c-4149-b903-ed4baea396b4","system_id":"levelo_inurba_marseille","lat":43.23187,"lon":5.39982,"is_reserved":false,"is_disabled":false,"rental_uris":{"android":"levelo://app?vid=794acdc8-c17c-4149-b903-ed4baea396b4","ios":"levelo://app?vid=794acdc8-c17c-4149-b903-ed4baea396b4"},"vehicle_type_id":"4","last_reported":1729181532,"current_range_meters":16400,"station_id":"ce4bhn12rcd13ifvqgqg","pricing_plan_id":"cebpf4jnsgd1na2vs0mg"},{"bike_id":"a638a42f-2c86-4a47-9fce-e8d77bee8966","system_id":"levelo_inurba_marseille","lat":43.30799,"lon":5.43526,"is_reserved":false,"is_disabled":false,"rental_uris":{"android":"levelo://app?vid=a638a42f-2c86-4a47-9fce-e8d77bee8966","ios":"levelo://app?vid=a638a42f-2c86-4a47-9fce-e8d77bee8966"},"vehicle_type_id":"4","last_reported":1729181532,"current_range_meters":32400,"station_id":"ce4bhph2rcd13ifvqheg","pricing_plan_id":"cebpf4jnsgd1na2vs0mg"},{"bike_id":"5c062082-2b59-4f06-a3fc-15d4af91616b","system_id":"levelo_inurba_marseille","lat":43.29796,"lon":5.40398,"is_reserved":false,"is_disabled":false,"rental_uris":{"android":"levelo://app?vid=5c062082-2b59-4f06-a3fc-15d4af91616b","ios":"levelo://app?vid=5c062082-2b59-4f06-a3fc-15d4af91616b"},"vehicle_type_id":"4","last_reported":1729181532,"current_range_meters":3200,"station_id":"ce4bh112rcd13ifvqd90","pricing_plan_id":"cebpf4jnsgd1na2vs0mg"},{"bike_id":"874494de-7452-4f47-9fec-c5ec79478035","system_id":"levelo_inurba_marseille","lat":43.23965,"lon":5.36636,"is_reserved":false,"is_disabled":false,"rental_uris":{"android":"levelo://app?vid=874494de-7452-4f47-9fec-c5ec79478035","ios":"levelo://app?vid=874494de-7452-4f47-9fec-c5ec79478035"},"vehicle_type_id":"4","last_reported":1729181532,"current_range_meters":27600,"station_id":"ce4bhi12rcd13ifvqfp0","pricing_plan_id":"cebpf4jnsgd1na2vs0mg"},{"bike_id":"8b33911e-5d42-46bd-b00d-c1d5ce72f577","system_id":"levelo_inurba_marseille","lat":43.304685,"lon":5.378892,"is_reserved":false,"is_disabled":false,"rental_uris":{"android":"levelo://app?vid=8b33911e-5d42-46bd-b00d-c1d5ce72f577","ios":"levelo://app?vid=8b33911e-5d42-46bd-b00d-c1d5ce72f577"},"vehicle_type_id":"4","last_reported":1729181532,"current_range_meters":16000,"station_id":"ce4bhn12rcd13ifvqgqg","pricing_plan_id":"cebpf4jnsgd1na2vs0mg"},{"bike_id":"0994d7f0-fa2e-480f-b967-2b1e1b476b78","system_id":"levelo_inurba_marseille","lat":43.23187,"lon":5.35559,"is_reserved":false,"is_disabled":false,"rental_uris":{"android":"levelo://app?vid=0994d7f0-fa2e-480f-b967-2b1e1b476b78","ios":"levelo://app?vid=0994d7f0-fa2e-480f-b967-2b1e1b476b78"},"vehicle_type_id":"4","last_reported":1729181532,"current_range_meters":13600,"station_id":"ce4bhu92rcd13ifvqi70","pricing_plan_id":"cebpf4jnsgd1na2vs0mg"},{"bike_id":"cafacf31-3dc4-4662-b543-8a143108fe4d","system_id":"levelo_inurba_marseille","lat":43.23187,"lon":5.39984,"is_reserved":false,"is_disabled":false,"rental_uris":{"android":"levelo://app?vid=cafacf31-3dc4-4662-b543-8a143108fe4d","ios":"levelo://app?vid=cafacf31-3dc4-4662-b543-8a143108fe4d"},"vehicle_type_id":"4","last_reported":1729181532,"current_range_meters":24400,"station_id":"ce4bhn12rcd13ifvqgqg","pricing_plan_id":"cebpf4jnsgd1na2vs0mg"},{"bike_id":"86e22d90-048a-40f4-b500-32d71728c2fc","system_id":"levelo_inurba_marseille","lat":43.32111,"lon":5.36781,"is_reserved":false,"is_disabled":false,"rental_uris":{"android":"levelo://app?vid=86e22d90-048a-40f4-b500-32d71728c2fc","ios":"levelo://app?vid=86e22d90-048a-40f4-b500-32d71728c2fc"},"vehicle_type_id":"4","last_reported":1729181532,"current_range_meters":38800,"station_id":"ce4bhrh2rcd13ifvqhug","pricing_plan_id":"cebpf4jnsgd1na2vs0mg"},{"bike_id":"66ccc46d-618e-4760-b09c-27382152bdab","system_id":"levelo_inurba_marseille","lat":43.23192,"lon":5.35547,"is_reserved":false,"is_disabled":false,"rental_uris":{"android":"levelo://app?vid=66ccc46d-618e-4760-b09c-27382152bdab","ios":"levelo://app?vid=66ccc46d-618e-4760-b09c-27382152bdab"},"vehicle_type_id":"4","last_reported":1729181532,"current_range_meters":32400,"station_id":"ce4bhu92rcd13ifvqi70","pricing_plan_id":"cebpf4jnsgd1na2vs0mg"},{"bike_id":"1a8c0c9d-2dee-4664-9657-70b06fd40d22","system_id":"levelo_inurba_marseille","lat":43.31081,"lon":5.42432,"is_reserved":false,"is_disabled":false,"rental_uris":{"android":"levelo://app?vid=1a8c0c9d-2dee-4664-9657-70b06fd40d22","ios":"levelo://app?vid=1a8c0c9d-2dee-4664-9657-70b06fd40d22"},"vehicle_type_id":"4","last_reported":1729181532,"current_range_meters":12400,"station_id":"ce4bhp92rcd13ifvqhag","pricing_plan_id":"cebpf4jnsgd1na2vs0mg"},{"bike_id":"0f585bec-97d8-4f38-a27f-4adc4140d891","system_id":"levelo_inurba_marseille","lat":43.27173,"lon":5.41,"is_reserved":false,"is_disabled":false,"rental_uris":{"android":"levelo://app?vid=0f585bec-97d8-4f38-a27f-4adc4140d891","ios":"levelo://app?vid=0f585bec-97d8-4f38-a27f-4adc4140d891"},"vehicle_type_id":"4","last_reported":1729181532,"current_range_meters":24400,"station_id":"ce4bhl12rcd13ifvqgf0","pricing_plan_id":"cebpf4jnsgd1na2vs0mg"},{"bike_id":"e5d48285-0e86-4b64-8b73-a08d44c4b6ce","system_id":"levelo_inurba_marseille","lat":43.28076,"lon":5.39657,"is_reserved":false,"is_disabled":false,"rental_uris":{"android":"levelo://app?vid=e5d48285-0e86-4b64-8b73-a08d44c4b6ce","ios":"levelo://app?vid=e5d48285-0e86-4b64-8b73-a08d44c4b6ce"},"vehicle_type_id":"4","last_reported":1729181532,"current_range_meters":38000,"station_id":"ce4bho12rcd13ifvqh2g","pricing_plan_id":"cebpf4jnsgd1na2vs0mg"},{"bike_id":"6300df2c-b9fe-4275-916d-dd75e59140c9","system_id":"levelo_inurba_marseille","lat":43.23196,"lon":5.35547,"is_reserved":false,"is_disabled":false,"rental_uris":{"android":"levelo://app?vid=6300df2c-b9fe-4275-916d-dd75e59140c9","ios":"levelo://app?vid=6300df2c-b9fe-4275-916d-dd75e59140c9"},"vehicle_type_id":"4","last_reported":1729181532,"current_range_meters":32800,"station_id":"ce4bhu92rcd13ifvqi70","pricing_plan_id":"cebpf4jnsgd1na2vs0mg"},{"bike_id":"59238a0c-de64-46a6-a64a-5a5563ed932a","system_id":"levelo_inurba_marseille","lat":43.2293,"lon":5.35385,"is_reserved":false,"is_disabled":false,"rental_uris":{"android":"levelo://app?vid=59238a0c-de64-46a6-a64a-5a5563ed932a","ios":"levelo://app?vid=59238a0c-de64-46a6-a64a-5a5563ed932a"},"vehicle_type_id":"4","last_reported":1729181532,"current_range_meters":30000,"station_id":"cpo3532slgdg3j2ikp40","pricing_plan_id":"cebpf4jnsgd1na2vs0mg"},{"bike_id":"ad798bee-534d-4966-acf3-98f2710ffd36","system_id":"levelo_inurba_marseille","lat":43.31071,"lon":5.38357,"is_reserved":false,"is_disabled":false,"rental_uris":{"android":"levelo://app?vid=ad798bee-534d-4966-acf3-98f2710ffd36","ios":"levelo://app?vid=ad798bee-534d-4966-acf3-98f2710ffd36"},"vehicle_type_id":"4","last_reported":1729181532,"current_range_meters":28400,"station_id":"ce4bgv92rcd13ifvqcr0","pricing_plan_id":"cebpf4jnsgd1na2vs0mg"},{"bike_id":"c23ad615-74bf-451f-a10e-90acbbe74911","system_id":"levelo_inurba_marseille","lat":43.27815,"lon":5.40709,"is_reserved":false,"is_disabled":false,"rental_uris":{"android":"levelo://app?vid=c23ad615-74bf-451f-a10e-90acbbe74911","ios":"levelo://app?vid=c23ad615-74bf-451f-a10e-90acbbe74911"},"vehicle_type_id":"4","last_reported":1729181532,"current_range_meters":38800,"station_id":"ce4bhnh2rcd13ifvqgtg","pricing_plan_id":"cebpf4jnsgd1na2vs0mg"},{"bike_id":"b6d87129-fb4d-4c55-bee6-cb05ba3cdb6c","system_id":"levelo_inurba_marseille","lat":43.24651,"lon":5.38891,"is_reserved":false,"is_disabled":false,"rental_uris":{"android":"levelo://app?vid=b6d87129-fb4d-4c55-bee6-cb05ba3cdb6c","ios":"levelo://app?vid=b6d87129-fb4d-4c55-bee6-cb05ba3cdb6c"},"vehicle_type_id":"4","last_reported":1729181532,"current_range_meters":6800,"station_id":"ce4bhg12rcd13ifvqf60","pricing_plan_id":"cebpf4jnsgd1na2vs0mg"},{"bike_id":"94dad7f8-6585-4b37-b691-74420d23ef13","system_id":"levelo_inurba_marseille","lat":43.30802,"lon":5.43517,"is_reserved":false,"is_disabled":false,"rental_uris":{"android":"levelo://app?vid=94dad7f8-6585-4b37-b691-74420d23ef13","ios":"levelo://app?vid=94dad7f8-6585-4b37-b691-74420d23ef13"},"vehicle_type_id":"4","last_reported":1729181532,"current_range_meters":38800,"station_id":"ce4bhph2rcd13ifvqheg","pricing_plan_id":"cebpf4jnsgd1na2vs0mg"},{"bike_id":"4562e9bb-7c1e-4e0e-95e1-858d0f8d86d1","system_id":"levelo_inurba_marseille","lat":43.23191,"lon":5.35562,"is_reserved":false,"is_disabled":false,"rental_uris":{"android":"levelo://app?vid=4562e9bb-7c1e-4e0e-95e1-858d0f8d86d1","ios":"levelo://app?vid=4562e9bb-7c1e-4e0e-95e1-858d0f8d86d1"},"vehicle_type_id":"4","last_reported":1729181532,"current_range_meters":38800,"station_id":"ce4bhu92rcd13ifvqi70","pricing_plan_id":"cebpf4jnsgd1na2vs0mg"},{"bike_id":"73a0b0c8-ca58-4b30-b677-75b3b0dbf515","system_id":"levelo_inurba_marseille","lat":43.30416,"lon":5.41282,"is_reserved":false,"is_disabled":false,"rental_uris":{"android":"levelo://app?vid=73a0b0c8-ca58-4b30-b677-75b3b0dbf515","ios":"levelo://app?vid=73a0b0c8-ca58-4b30-b677-75b3b0dbf515"},"vehicle_type_id":"4","last_reported":1729181532,"current_range_meters":19600,"station_id":"ce4bhop2rcd13ifvqh8g","pricing_plan_id":"cebpf4jnsgd1na2vs0mg"},{"bike_id":"6837ac97-30a8-4145-8047-b6d6df61ac48","system_id":"levelo_inurba_marseille","lat":43.2318,"lon":5.39991,"is_reserved":false,"is_disabled":false,"rental_uris":{"android":"levelo://app?vid=6837ac97-30a8-4145-8047-b6d6df61ac48","ios":"levelo://app?vid=6837ac97-30a8-4145-8047-b6d6df61ac48"},"vehicle_type_id":"4","last_reported":1729181532,"current_range_meters":7200,"station_id":"ce4bhn12rcd13ifvqgqg","pricing_plan_id":"cebpf4jnsgd1na2vs0mg"},{"bike_id":"2140b6a3-5118-4150-823e-9225aeb56201","system_id":"levelo_inurba_marseille","lat":43.23197,"lon":5.3555,"is_reserved":false,"is_disabled":false,"rental_uris":{"android":"levelo://app?vid=2140b6a3-5118-4150-823e-9225aeb56201","ios":"levelo://app?vid=2140b6a3-5118-4150-823e-9225aeb56201"},"vehicle_type_id":"4","last_reported":1729181532,"current_range_meters":36000,"station_id":"ce4bhu92rcd13ifvqi70","pricing_plan_id":"cebpf4jnsgd1na2vs0mg"},{"bike_id":"01292175-350e-4474-b0ac-424571952054","system_id":"levelo_inurba_marseille","lat":43.23187,"lon":5.39985,"is_reserved":false,"is_disabled":false,"rental_uris":{"android":"levelo://app?vid=01292175-350e-4474-b0ac-424571952054","ios":"levelo://app?vid=01292175-350e-4474-b0ac-424571952054"},"vehicle_type_id":"4","last_reported":1729181532,"current_range_meters":18800,"station_id":"ce4bhn12rcd13ifvqgqg","pricing_plan_id":"cebpf4jnsgd1na2vs0mg"},{"bike_id":"375aba81-68ac-47d6-a3f1-cc6de7755cb9","system_id":"levelo_inurba_marseille","lat":43.25577,"lon":5.38222,"is_reserved":false,"is_disabled":false,"rental_uris":{"android":"levelo://app?vid=375aba81-68ac-47d6-a3f1-cc6de7755cb9","ios":"levelo://app?vid=375aba81-68ac-47d6-a3f1-cc6de7755cb9"},"vehicle_type_id":"4","last_reported":1729181532,"current_range_meters":31200,"station_id":"ce4bhih2rcd13ifvqfs0","pricing_plan_id":"cebpf4jnsgd1na2vs0mg"},{"bike_id":"55dcab7d-0676-4644-af26-5612a2ee6dec","system_id":"levelo_inurba_marseille","lat":43.24804,"lon":5.37457,"is_reserved":false,"is_disabled":false,"rental_uris":{"android":"levelo://app?vid=55dcab7d-0676-4644-af26-5612a2ee6dec","ios":"levelo://app?vid=55dcab7d-0676-4644-af26-5612a2ee6dec"},"vehicle_type_id":"4","last_reported":1729181532,"current_range_meters":39200,"station_id":"ce4bhgh2rcd13ifvqfb0","pricing_plan_id":"cebpf4jnsgd1na2vs0mg"},{"bike_id":"e12492d7-f365-43b6-bf6e-36f789da6bcb","system_id":"levelo_inurba_marseille","lat":43.28659,"lon":5.36355,"is_reserved":false,"is_disabled":false,"rental_uris":{"android":"levelo://app?vid=e12492d7-f365-43b6-bf6e-36f789da6bcb","ios":"levelo://app?vid=e12492d7-f365-43b6-bf6e-36f789da6bcb"},"vehicle_type_id":"4","last_reported":1729181532,"current_range_meters":15200,"station_id":"ce4bhah2rcd13ifvqej0","pricing_plan_id":"cebpf4jnsgd1na2vs0mg"},{"bike_id":"974e9931-6d20-4545-9e5e-b40e518c0577","system_id":"levelo_inurba_marseille","lat":43.27816,"lon":5.40712,"is_reserved":false,"is_disabled":false,"rental_uris":{"android":"levelo://app?vid=974e9931-6d20-4545-9e5e-b40e518c0577","ios":"levelo://app?vid=974e9931-6d20-4545-9e5e-b40e518c0577"},"vehicle_type_id":"4","last_reported":1729181532,"current_range_meters":30800,"station_id":"ce4bhnh2rcd13ifvqgtg","pricing_plan_id":"cebpf4jnsgd1na2vs0mg"},{"bike_id":"83bcafb6-7740-4133-8b56-4bf302222f17","system_id":"levelo_inurba_marseille","lat":43.23966,"lon":5.36645,"is_reserved":false,"is_disabled":false,"rental_uris":{"android":"levelo://app?vid=83bcafb6-7740-4133-8b56-4bf302222f17","ios":"levelo://app?vid=83bcafb6-7740-4133-8b56-4bf302222f17"},"vehicle_type_id":"4","last_reported":1729181532,"current_range_meters":3200,"station_id":"ce4bhi12rcd13ifvqfp0","pricing_plan_id":"cebpf4jnsgd1na2vs0mg"},{"bike_id":"4ae184d9-36eb-4ec2-abc3-34749798da4c","system_id":"levelo_inurba_marseille","lat":43.331818,"lon":5.399466,"is_reserved":false,"is_disabled":false,"rental_uris":{"android":"levelo://app?vid=4ae184d9-36eb-4ec2-abc3-34749798da4c","ios":"levelo://app?vid=4ae184d9-36eb-4ec2-abc3-34749798da4c"},"vehicle_type_id":"4","last_reported":1729181532,"current_range_meters":14800,"station_id":"ce4bhr92rcd13ifvqhrg","pricing_plan_id":"cebpf4jnsgd1na2vs0mg"},{"bike_id":"7772d39f-5e28-445c-af91-069b0cf63793","system_id":"levelo_inurba_marseille","lat":43.33747,"lon":5.37433,"is_reserved":false,"is_disabled":false,"rental_uris":{"android":"levelo://app?vid=7772d39f-5e28-445c-af91-069b0cf63793","ios":"levelo://app?vid=7772d39f-5e28-445c-af91-069b0cf63793"},"vehicle_type_id":"4","last_reported":1729181532,"current_range_meters":16000,"station_id":"","pricing_plan_id":"cebpf4jnsgd1na2vs0mg"},{"bike_id":"15ba6c09-c7f4-4384-bb75-b77a33eb6249","system_id":"levelo_inurba_marseille","lat":43.33023,"lon":5.39041,"is_reserved":false,"is_disabled":false,"rental_uris":{"android":"levelo://app?vid=15ba6c09-c7f4-4384-bb75-b77a33eb6249","ios":"levelo://app?vid=15ba6c09-c7f4-4384-bb75-b77a33eb6249"},"vehicle_type_id":"4","last_reported":1729181532,"current_range_meters":17600,"station_id":"ce4bhr92rcd13ifvqhrg","pricing_plan_id":"cebpf4jnsgd1na2vs0mg"},{"bike_id":"502b98b1-93bd-42a2-9898-cd152ad01f3f","system_id":"levelo_inurba_marseille","lat":43.28693,"lon":5.39987,"is_reserved":false,"is_disabled":false,"rental_uris":{"android":"levelo://app?vid=502b98b1-93bd-42a2-9898-cd152ad01f3f","ios":"levelo://app?vid=502b98b1-93bd-42a2-9898-cd152ad01f3f"},"vehicle_type_id":"4","last_reported":1729181532,"current_range_meters":10000,"station_id":"ce4bho92rcd13ifvqh3g","pricing_plan_id":"cebpf4jnsgd1na2vs0mg"},{"bike_id":"3213665e-989c-4d22-9f5a-31c8522597dd","system_id":"levelo_inurba_marseille","lat":43.296,"lon":5.36142,"is_reserved":false,"is_disabled":false,"rental_uris":{"android":"levelo://app?vid=3213665e-989c-4d22-9f5a-31c8522597dd","ios":"levelo://app?vid=3213665e-989c-4d22-9f5a-31c8522597dd"},"vehicle_type_id":"4","last_reported":1729181532,"current_range_meters":28000,"station_id":"","pricing_plan_id":"cebpf4jnsgd1na2vs0mg"},{"bike_id":"cddb2538-acdb-46a5-bc95-6e0a8d74ef0c","system_id":"levelo_inurba_marseille","lat":43.30795,"lon":5.43525,"is_reserved":false,"is_disabled":false,"rental_uris":{"android":"levelo://app?vid=cddb2538-acdb-46a5-bc95-6e0a8d74ef0c","ios":"levelo://app?vid=cddb2538-acdb-46a5-bc95-6e0a8d74ef0c"},"vehicle_type_id":"4","last_reported":1729181532,"current_range_meters":36400,"station_id":"ce4bhph2rcd13ifvqheg","pricing_plan_id":"cebpf4jnsgd1na2vs0mg"},{"bike_id":"27e458d8-c932-4954-b627-1c9d5c6824dc","system_id":"levelo_inurba_marseille","lat":43.31757,"lon":5.39029,"is_reserved":false,"is_disabled":false,"rental_uris":{"android":"levelo://app?vid=27e458d8-c932-4954-b627-1c9d5c6824dc","ios":"levelo://app?vid=27e458d8-c932-4954-b627-1c9d5c6824dc"},"vehicle_type_id":"4","last_reported":1729181532,"current_range_meters":30800,"station_id":"ce4bhqp2rcd13ifvqhng","pricing_plan_id":"cebpf4jnsgd1na2vs0mg"},{"bike_id":"f0c7c24f-7d5f-4581-b88c-95d2d5894395","system_id":"levelo_inurba_marseille","lat":43.28355,"lon":5.38621,"is_reserved":false,"is_disabled":false,"rental_uris":{"android":"levelo://app?vid=f0c7c24f-7d5f-4581-b88c-95d2d5894395","ios":"levelo://app?vid=f0c7c24f-7d5f-4581-b88c-95d2d5894395"},"vehicle_type_id":"4","last_reported":1729181532,"current_range_meters":16800,"station_id":"ce4bh492rcd13ifvqdvg","pricing_plan_id":"cebpf4jnsgd1na2vs0mg"},{"bike_id":"15e319b1-637b-4e82-90e8-5e7ee80a529b","system_id":"levelo_inurba_marseille","lat":43.24807,"lon":5.37458,"is_reserved":false,"is_disabled":false,"rental_uris":{"android":"levelo://app?vid=15e319b1-637b-4e82-90e8-5e7ee80a529b","ios":"levelo://app?vid=15e319b1-637b-4e82-90e8-5e7ee80a529b"},"vehicle_type_id":"4","last_reported":1729181532,"current_range_meters":38800,"station_id":"ce4bhgh2rcd13ifvqfb0","pricing_plan_id":"cebpf4jnsgd1na2vs0mg"},{"bike_id":"1641b826-604a-4181-8231-dca386f637a6","system_id":"levelo_inurba_marseille","lat":43.23195,"lon":5.35551,"is_reserved":false,"is_disabled":false,"rental_uris":{"android":"levelo://app?vid=1641b826-604a-4181-8231-dca386f637a6","ios":"levelo://app?vid=1641b826-604a-4181-8231-dca386f637a6"},"vehicle_type_id":"4","last_reported":1729181532,"current_range_meters":33200,"station_id":"ce4bhu92rcd13ifvqi70","pricing_plan_id":"cebpf4jnsgd1na2vs0mg"},{"bike_id":"89211ee2-076f-4df3-92bd-cd8885f2e76d","system_id":"levelo_inurba_marseille","lat":43.23195,"lon":5.35551,"is_reserved":false,"is_disabled":false,"rental_uris":{"android":"levelo://app?vid=89211ee2-076f-4df3-92bd-cd8885f2e76d","ios":"levelo://app?vid=89211ee2-076f-4df3-92bd-cd8885f2e76d"},"vehicle_type_id":"4","last_reported":1729181532,"current_range_meters":32800,"station_id":"ce4bhu92rcd13ifvqi70","pricing_plan_id":"cebpf4jnsgd1na2vs0mg"},{"bike_id":"f7e3b032-5997-4b93-8b65-ce3ddcc2dc63","system_id":"levelo_inurba_marseille","lat":43.24381,"lon":5.3706,"is_reserved":false,"is_disabled":false,"rental_uris":{"android":"levelo://app?vid=f7e3b032-5997-4b93-8b65-ce3ddcc2dc63","ios":"levelo://app?vid=f7e3b032-5997-4b93-8b65-ce3ddcc2dc63"},"vehicle_type_id":"4","last_reported":1729181532,"current_range_meters":13600,"station_id":"ce4bhhh2rcd13ifvqfk0","pricing_plan_id":"cebpf4jnsgd1na2vs0mg"},{"bike_id":"1a3c02e4-a9b0-4fbb-a11b-100fa7f01716","system_id":"levelo_inurba_marseille","lat":43.3009,"lon":5.39098,"is_reserved":false,"is_disabled":false,"rental_uris":{"android":"levelo://app?vid=1a3c02e4-a9b0-4fbb-a11b-100fa7f01716","ios":"levelo://app?vid=1a3c02e4-a9b0-4fbb-a11b-100fa7f01716"},"vehicle_type_id":"4","last_reported":1729181532,"current_range_meters":18800,"station_id":"ce4bh192rcd13ifvqdb0","pricing_plan_id":"cebpf4jnsgd1na2vs0mg"},{"bike_id":"9615f0e1-9392-44df-883c-8f9aaa5196a2","system_id":"levelo_inurba_marseille","lat":43.27371,"lon":5.36253,"is_reserved":false,"is_disabled":false,"rental_uris":{"android":"levelo://app?vid=9615f0e1-9392-44df-883c-8f9aaa5196a2","ios":"levelo://app?vid=9615f0e1-9392-44df-883c-8f9aaa5196a2"},"vehicle_type_id":"4","last_reported":1729181532,"current_range_meters":32000,"station_id":"ce4bhbh2rcd13ifvqeo0","pricing_plan_id":"cebpf4jnsgd1na2vs0mg"},{"bike_id":"f88c7e01-bc8c-4735-8a37-e29425c30c87","system_id":"levelo_inurba_marseille","lat":43.23191,"lon":5.39988,"is_reserved":false,"is_disabled":false,"rental_uris":{"android":"levelo://app?vid=f88c7e01-bc8c-4735-8a37-e29425c30c87","ios":"levelo://app?vid=f88c7e01-bc8c-4735-8a37-e29425c30c87"},"vehicle_type_id":"4","last_reported":1729181532,"current_range_meters":11600,"station_id":"ce4bhn12rcd13ifvqgqg","pricing_plan_id":"cebpf4jnsgd1na2vs0mg"},{"bike_id":"ecb34647-7182-4824-bb3f-dc0c6b523c79","system_id":"levelo_inurba_marseille","lat":43.33746,"lon":5.37454,"is_reserved":false,"is_disabled":false,"rental_uris":{"android":"levelo://app?vid=ecb34647-7182-4824-bb3f-dc0c6b523c79","ios":"levelo://app?vid=ecb34647-7182-4824-bb3f-dc0c6b523c79"},"vehicle_type_id":"4","last_reported":1729181532,"current_range_meters":28000,"station_id":"","pricing_plan_id":"cebpf4jnsgd1na2vs0mg"},{"bike_id":"14deb1b1-b495-4b35-97c2-895a5ef7ad23","system_id":"levelo_inurba_marseille","lat":43.32334,"lon":5.40621,"is_reserved":false,"is_disabled":false,"rental_uris":{"android":"levelo://app?vid=14deb1b1-b495-4b35-97c2-895a5ef7ad23","ios":"levelo://app?vid=14deb1b1-b495-4b35-97c2-895a5ef7ad23"},"vehicle_type_id":"4","last_reported":1729181532,"current_range_meters":38800,"station_id":"ce4bhq92rcd13ifvqhjg","pricing_plan_id":"cebpf4jnsgd1na2vs0mg"},{"bike_id":"7a94fd88-e79f-4628-babc-3624aff13560","system_id":"levelo_inurba_marseille","lat":43.28854,"lon":5.39322,"is_reserved":false,"is_disabled":false,"rental_uris":{"android":"levelo://app?vid=7a94fd88-e79f-4628-babc-3624aff13560","ios":"levelo://app?vid=7a94fd88-e79f-4628-babc-3624aff13560"},"vehicle_type_id":"4","last_reported":1729181532,"current_range_meters":30400,"station_id":"ce4bh2p2rcd13ifvqdi0","pricing_plan_id":"cebpf4jnsgd1na2vs0mg"},{"bike_id":"87440bd7-4730-412f-b52f-03b263c3d6ba","system_id":"levelo_inurba_marseille","lat":43.2319,"lon":5.35562,"is_reserved":false,"is_disabled":false,"rental_uris":{"android":"levelo://app?vid=87440bd7-4730-412f-b52f-03b263c3d6ba","ios":"levelo://app?vid=87440bd7-4730-412f-b52f-03b263c3d6ba"},"vehicle_type_id":"4","last_reported":1729181532,"current_range_meters":18000,"station_id":"ce4bhu92rcd13ifvqi70","pricing_plan_id":"cebpf4jnsgd1na2vs0mg"},{"bike_id":"a76f2a01-609c-4fa7-bd5c-e42e933bfb84","system_id":"levelo_inurba_marseille","lat":43.32112,"lon":5.36778,"is_reserved":false,"is_disabled":false,"rental_uris":{"android":"levelo://app?vid=a76f2a01-609c-4fa7-bd5c-e42e933bfb84","ios":"levelo://app?vid=a76f2a01-609c-4fa7-bd5c-e42e933bfb84"},"vehicle_type_id":"4","last_reported":1729181532,"current_range_meters":38800,"station_id":"ce4bhrh2rcd13ifvqhug","pricing_plan_id":"cebpf4jnsgd1na2vs0mg"},{"bike_id":"4ea25b35-4824-4a64-805d-d442f784584f","system_id":"levelo_inurba_marseille","lat":43.29621,"lon":5.37171,"is_reserved":false,"is_disabled":false,"rental_uris":{"android":"levelo://app?vid=4ea25b35-4824-4a64-805d-d442f784584f","ios":"levelo://app?vid=4ea25b35-4824-4a64-805d-d442f784584f"},"vehicle_type_id":"4","last_reported":1729181532,"current_range_meters":39200,"station_id":"ce4bgnh2rcd13ifvqc0g","pricing_plan_id":"cebpf4jnsgd1na2vs0mg"},{"bike_id":"8b52cae9-7e47-4af1-ba65-5f35a0a09f7f","system_id":"levelo_inurba_marseille","lat":43.28447,"lon":5.3589,"is_reserved":false,"is_disabled":false,"rental_uris":{"android":"levelo://app?vid=8b52cae9-7e47-4af1-ba65-5f35a0a09f7f","ios":"levelo://app?vid=8b52cae9-7e47-4af1-ba65-5f35a0a09f7f"},"vehicle_type_id":"4","last_reported":1729181532,"current_range_meters":28000,"station_id":"ce4bhah2rcd13ifvqei0","pricing_plan_id":"cebpf4jnsgd1na2vs0mg"},{"bike_id":"384fc17d-da3f-4ef9-9eef-55479fb56c35","system_id":"levelo_inurba_marseille","lat":43.33025,"lon":5.39041,"is_reserved":false,"is_disabled":false,"rental_uris":{"android":"levelo://app?vid=384fc17d-da3f-4ef9-9eef-55479fb56c35","ios":"levelo://app?vid=384fc17d-da3f-4ef9-9eef-55479fb56c35"},"vehicle_type_id":"4","last_reported":1729181532,"current_range_meters":8000,"station_id":"ce4bhr92rcd13ifvqhrg","pricing_plan_id":"cebpf4jnsgd1na2vs0mg"},{"bike_id":"4e1c928c-5bd7-4eca-91d1-278937859a66","system_id":"levelo_inurba_marseille","lat":43.2846,"lon":5.35889,"is_reserved":false,"is_disabled":false,"rental_uris":{"android":"levelo://app?vid=4e1c928c-5bd7-4eca-91d1-278937859a66","ios":"levelo://app?vid=4e1c928c-5bd7-4eca-91d1-278937859a66"},"vehicle_type_id":"4","last_reported":1729181532,"current_range_meters":7200,"station_id":"ce4bhah2rcd13ifvqei0","pricing_plan_id":"cebpf4jnsgd1na2vs0mg"},{"bike_id":"b35fdb6c-1266-47a1-8e12-3417e7233c4c","system_id":"levelo_inurba_marseille","lat":43.27623,"lon":5.36112,"is_reserved":false,"is_disabled":false,"rental_uris":{"android":"levelo://app?vid=b35fdb6c-1266-47a1-8e12-3417e7233c4c","ios":"levelo://app?vid=b35fdb6c-1266-47a1-8e12-3417e7233c4c"},"vehicle_type_id":"4","last_reported":1729181532,"current_range_meters":24400,"station_id":"ce4bgj92rcd13ifvqbe0","pricing_plan_id":"cebpf4jnsgd1na2vs0mg"},{"bike_id":"6d8e8378-40d2-4508-a23a-8383e51dc468","system_id":"levelo_inurba_marseille","lat":43.31711,"lon":5.43709,"is_reserved":false,"is_disabled":false,"rental_uris":{"android":"levelo://app?vid=6d8e8378-40d2-4508-a23a-8383e51dc468","ios":"levelo://app?vid=6d8e8378-40d2-4508-a23a-8383e51dc468"},"vehicle_type_id":"4","last_reported":1729181532,"current_range_meters":16400,"station_id":"ce4bhp92rcd13ifvqhcg","pricing_plan_id":"cebpf4jnsgd1na2vs0mg"},{"bike_id":"a6805eb0-381a-49f8-a0bb-82973950d74b","system_id":"levelo_inurba_marseille","lat":43.28079,"lon":5.39662,"is_reserved":false,"is_disabled":false,"rental_uris":{"android":"levelo://app?vid=a6805eb0-381a-49f8-a0bb-82973950d74b","ios":"levelo://app?vid=a6805eb0-381a-49f8-a0bb-82973950d74b"},"vehicle_type_id":"4","last_reported":1729181532,"current_range_meters":28800,"station_id":"ce4bho12rcd13ifvqh2g","pricing_plan_id":"cebpf4jnsgd1na2vs0mg"},{"bike_id":"d68e061f-096f-4f93-a4b1-cf0460fb6b20","system_id":"levelo_inurba_marseille","lat":43.29618,"lon":5.37173,"is_reserved":false,"is_disabled":false,"rental_uris":{"android":"levelo://app?vid=d68e061f-096f-4f93-a4b1-cf0460fb6b20","ios":"levelo://app?vid=d68e061f-096f-4f93-a4b1-cf0460fb6b20"},"vehicle_type_id":"4","last_reported":1729181532,"current_range_meters":36400,"station_id":"ce4bgnh2rcd13ifvqc0g","pricing_plan_id":"cebpf4jnsgd1na2vs0mg"},{"bike_id":"2901ff37-0119-4f7b-91fb-d7fdf0736260","system_id":"levelo_inurba_marseille","lat":43.2293,"lon":5.35374,"is_reserved":false,"is_disabled":false,"rental_uris":{"android":"levelo://app?vid=2901ff37-0119-4f7b-91fb-d7fdf0736260","ios":"levelo://app?vid=2901ff37-0119-4f7b-91fb-d7fdf0736260"},"vehicle_type_id":"4","last_reported":1729181532,"current_range_meters":30800,"station_id":"cpo3532slgdg3j2ikp40","pricing_plan_id":"cebpf4jnsgd1na2vs0mg"},{"bike_id":"2e18af21-aa81-4deb-ab52-dd0fbcacdd2e","system_id":"levelo_inurba_marseille","lat":43.322723,"lon":5.41265,"is_reserved":false,"is_disabled":false,"rental_uris":{"android":"levelo://app?vid=2e18af21-aa81-4deb-ab52-dd0fbcacdd2e","ios":"levelo://app?vid=2e18af21-aa81-4deb-ab52-dd0fbcacdd2e"},"vehicle_type_id":"4","last_reported":1729181532,"current_range_meters":25200,"station_id":"ce4bhnh2rcd13ifvqgug","pricing_plan_id":"cebpf4jnsgd1na2vs0mg"},{"bike_id":"292b9425-1372-40d4-bf0a-fe57aa779a41","system_id":"levelo_inurba_marseille","lat":43.23065,"lon":5.35492,"is_reserved":false,"is_disabled":false,"rental_uris":{"android":"levelo://app?vid=292b9425-1372-40d4-bf0a-fe57aa779a41","ios":"levelo://app?vid=292b9425-1372-40d4-bf0a-fe57aa779a41"},"vehicle_type_id":"4","last_reported":1729181532,"current_range_meters":24000,"station_id":"cpo3342slgdg3j2ifvpg","pricing_plan_id":"cebpf4jnsgd1na2vs0mg"},{"bike_id":"efeaea61-8512-4b75-bae8-c43941554118","system_id":"levelo_inurba_marseille","lat":43.29587,"lon":5.36739,"is_reserved":false,"is_disabled":false,"rental_uris":{"android":"levelo://app?vid=efeaea61-8512-4b75-bae8-c43941554118","ios":"levelo://app?vid=efeaea61-8512-4b75-bae8-c43941554118"},"vehicle_type_id":"4","last_reported":1729181532,"current_range_meters":27600,"station_id":"ce4bgph2rcd13ifvqc2g","pricing_plan_id":"cebpf4jnsgd1na2vs0mg"},{"bike_id":"674a4297-6572-430a-ada7-f426cc464c5d","system_id":"levelo_inurba_marseille","lat":43.28718,"lon":5.36088,"is_reserved":false,"is_disabled":false,"rental_uris":{"android":"levelo://app?vid=674a4297-6572-430a-ada7-f426cc464c5d","ios":"levelo://app?vid=674a4297-6572-430a-ada7-f426cc464c5d"},"vehicle_type_id":"4","last_reported":1729181532,"current_range_meters":30400,"station_id":"cki0cbj6b192h4jlfktg","pricing_plan_id":"cebpf4jnsgd1na2vs0mg"},{"bike_id":"afe9ff89-1b31-492e-9dea-f8a33b0bd764","system_id":"levelo_inurba_marseille","lat":43.27808,"lon":5.40725,"is_reserved":false,"is_disabled":false,"rental_uris":{"android":"levelo://app?vid=afe9ff89-1b31-492e-9dea-f8a33b0bd764","ios":"levelo://app?vid=afe9ff89-1b31-492e-9dea-f8a33b0bd764"},"vehicle_type_id":"4","last_reported":1729181532,"current_range_meters":12800,"station_id":"ce4bhnh2rcd13ifvqgtg","pricing_plan_id":"cebpf4jnsgd1na2vs0mg"},{"bike_id":"9b6c6312-9484-4ca6-8d6e-80a3a1f073da","system_id":"levelo_inurba_marseille","lat":43.24662,"lon":5.38172,"is_reserved":false,"is_disabled":false,"rental_uris":{"android":"levelo://app?vid=9b6c6312-9484-4ca6-8d6e-80a3a1f073da","ios":"levelo://app?vid=9b6c6312-9484-4ca6-8d6e-80a3a1f073da"},"vehicle_type_id":"4","last_reported":1729181532,"current_range_meters":28400,"station_id":"ce4bhih2rcd13ifvqfr0","pricing_plan_id":"cebpf4jnsgd1na2vs0mg"},{"bike_id":"2024a2d3-765d-4291-b7e4-0ab2ab7e6bce","system_id":"levelo_inurba_marseille","lat":43.31884,"lon":5.40738,"is_reserved":false,"is_disabled":false,"rental_uris":{"android":"levelo://app?vid=2024a2d3-765d-4291-b7e4-0ab2ab7e6bce","ios":"levelo://app?vid=2024a2d3-765d-4291-b7e4-0ab2ab7e6bce"},"vehicle_type_id":"4","last_reported":1729181532,"current_range_meters":6000,"station_id":"ce4bhq12rcd13ifvqhig","pricing_plan_id":"cebpf4jnsgd1na2vs0mg"},{"bike_id":"a29b33ca-bbcc-4c35-8329-6b1bf93ec154","system_id":"levelo_inurba_marseille","lat":43.296356,"lon":5.406027,"is_reserved":false,"is_disabled":false,"rental_uris":{"android":"levelo://app?vid=a29b33ca-bbcc-4c35-8329-6b1bf93ec154","ios":"levelo://app?vid=a29b33ca-bbcc-4c35-8329-6b1bf93ec154"},"vehicle_type_id":"4","last_reported":1729181532,"current_range_meters":7200,"station_id":"ce4bh0h2rcd13ifvqd60","pricing_plan_id":"cebpf4jnsgd1na2vs0mg"},{"bike_id":"2afa8fda-2883-4617-b237-2dde30b6dd2d","system_id":"levelo_inurba_marseille","lat":43.2781,"lon":5.40718,"is_reserved":false,"is_disabled":false,"rental_uris":{"android":"levelo://app?vid=2afa8fda-2883-4617-b237-2dde30b6dd2d","ios":"levelo://app?vid=2afa8fda-2883-4617-b237-2dde30b6dd2d"},"vehicle_type_id":"4","last_reported":1729181532,"current_range_meters":16400,"station_id":"ce4bhnh2rcd13ifvqgtg","pricing_plan_id":"cebpf4jnsgd1na2vs0mg"},{"bike_id":"6de614f0-022f-4355-966a-52308b08cfa9","system_id":"levelo_inurba_marseille","lat":43.27383,"lon":5.3626,"is_reserved":false,"is_disabled":false,"rental_uris":{"android":"levelo://app?vid=6de614f0-022f-4355-966a-52308b08cfa9","ios":"levelo://app?vid=6de614f0-022f-4355-966a-52308b08cfa9"},"vehicle_type_id":"4","last_reported":1729181532,"current_range_meters":2000,"station_id":"ce4bhbh2rcd13ifvqeo0","pricing_plan_id":"cebpf4jnsgd1na2vs0mg"},{"bike_id":"1252460c-ca50-4e18-8480-3fda15320c8d","system_id":"levelo_inurba_marseille","lat":43.24387,"lon":5.3706,"is_reserved":false,"is_disabled":false,"rental_uris":{"android":"levelo://app?vid=1252460c-ca50-4e18-8480-3fda15320c8d","ios":"levelo://app?vid=1252460c-ca50-4e18-8480-3fda15320c8d"},"vehicle_type_id":"4","last_reported":1729181532,"current_range_meters":20800,"station_id":"ce4bhhh2rcd13ifvqfk0","pricing_plan_id":"cebpf4jnsgd1na2vs0mg"},{"bike_id":"e3ca7803-aaa7-4ddf-8937-86afb5d1cee8","system_id":"levelo_inurba_marseille","lat":43.292816,"lon":5.379867,"is_reserved":false,"is_disabled":false,"rental_uris":{"android":"levelo://app?vid=e3ca7803-aaa7-4ddf-8937-86afb5d1cee8","ios":"levelo://app?vid=e3ca7803-aaa7-4ddf-8937-86afb5d1cee8"},"vehicle_type_id":"4","last_reported":1729181532,"current_range_meters":23200,"station_id":"ce4bhp92rcd13ifvqhcg","pricing_plan_id":"cebpf4jnsgd1na2vs0mg"},{"bike_id":"d8da4323-1978-489d-accb-b2a2e78b9360","system_id":"levelo_inurba_marseille","lat":43.29546,"lon":5.42285,"is_reserved":false,"is_disabled":false,"rental_uris":{"android":"levelo://app?vid=d8da4323-1978-489d-accb-b2a2e78b9360","ios":"levelo://app?vid=d8da4323-1978-489d-accb-b2a2e78b9360"},"vehicle_type_id":"4","last_reported":1729181532,"current_range_meters":35600,"station_id":"ce4bhph2rcd13ifvqhdg","pricing_plan_id":"cebpf4jnsgd1na2vs0mg"},{"bike_id":"568ad7c3-61ab-4891-8036-e9ee4ec77a40","system_id":"levelo_inurba_marseille","lat":43.23189,"lon":5.39982,"is_reserved":false,"is_disabled":false,"rental_uris":{"android":"levelo://app?vid=568ad7c3-61ab-4891-8036-e9ee4ec77a40","ios":"levelo://app?vid=568ad7c3-61ab-4891-8036-e9ee4ec77a40"},"vehicle_type_id":"4","last_reported":1729181532,"current_range_meters":3600,"station_id":"ce4bhn12rcd13ifvqgqg","pricing_plan_id":"cebpf4jnsgd1na2vs0mg"},{"bike_id":"5c685c9e-8d7d-46fa-b135-9235a0d30ae9","system_id":"levelo_inurba_marseille","lat":43.30945,"lon":5.390207,"is_reserved":false,"is_disabled":false,"rental_uris":{"android":"levelo://app?vid=5c685c9e-8d7d-46fa-b135-9235a0d30ae9","ios":"levelo://app?vid=5c685c9e-8d7d-46fa-b135-9235a0d30ae9"},"vehicle_type_id":"4","last_reported":1729181532,"current_range_meters":34800,"station_id":"ce4bgup2rcd13ifvqco0","pricing_plan_id":"cebpf4jnsgd1na2vs0mg"},{"bike_id":"3664398f-378f-46f2-bd12-30042ad8db9d","system_id":"levelo_inurba_marseille","lat":43.23184,"lon":5.39982,"is_reserved":false,"is_disabled":false,"rental_uris":{"android":"levelo://app?vid=3664398f-378f-46f2-bd12-30042ad8db9d","ios":"levelo://app?vid=3664398f-378f-46f2-bd12-30042ad8db9d"},"vehicle_type_id":"4","last_reported":1729181532,"current_range_meters":34000,"station_id":"ce4bhn12rcd13ifvqgqg","pricing_plan_id":"cebpf4jnsgd1na2vs0mg"},{"bike_id":"f17779a9-5022-42b5-beb5-0ab99a26452b","system_id":"levelo_inurba_marseille","lat":43.2781,"lon":5.40722,"is_reserved":false,"is_disabled":false,"rental_uris":{"android":"levelo://app?vid=f17779a9-5022-42b5-beb5-0ab99a26452b","ios":"levelo://app?vid=f17779a9-5022-42b5-beb5-0ab99a26452b"},"vehicle_type_id":"4","last_reported":1729181532,"current_range_meters":32000,"station_id":"ce4bhnh2rcd13ifvqgtg","pricing_plan_id":"cebpf4jnsgd1na2vs0mg"},{"bike_id":"a9d80141-cb04-4f88-bcc5-9763572e3517","system_id":"levelo_inurba_marseille","lat":43.23194,"lon":5.3555,"is_reserved":false,"is_disabled":false,"rental_uris":{"android":"levelo://app?vid=a9d80141-cb04-4f88-bcc5-9763572e3517","ios":"levelo://app?vid=a9d80141-cb04-4f88-bcc5-9763572e3517"},"vehicle_type_id":"4","last_reported":1729181532,"current_range_meters":32400,"station_id":"ce4bhu92rcd13ifvqi70","pricing_plan_id":"cebpf4jnsgd1na2vs0mg"},{"bike_id":"35a22db4-7e9d-4709-be91-f373b0a75e57","system_id":"levelo_inurba_marseille","lat":43.33756,"lon":5.37449,"is_reserved":false,"is_disabled":false,"rental_uris":{"android":"levelo://app?vid=35a22db4-7e9d-4709-be91-f373b0a75e57","ios":"levelo://app?vid=35a22db4-7e9d-4709-be91-f373b0a75e57"},"vehicle_type_id":"4","last_reported":1729181532,"current_range_meters":14000,"station_id":"","pricing_plan_id":"cebpf4jnsgd1na2vs0mg"},{"bike_id":"73c81c60-6324-48ed-a11c-a3be0f4dfdd1","system_id":"levelo_inurba_marseille","lat":43.27366,"lon":5.36253,"is_reserved":false,"is_disabled":false,"rental_uris":{"android":"levelo://app?vid=73c81c60-6324-48ed-a11c-a3be0f4dfdd1","ios":"levelo://app?vid=73c81c60-6324-48ed-a11c-a3be0f4dfdd1"},"vehicle_type_id":"4","last_reported":1729181532,"current_range_meters":27600,"station_id":"ce4bhbh2rcd13ifvqeo0","pricing_plan_id":"cebpf4jnsgd1na2vs0mg"},{"bike_id":"ae27da21-edc1-4411-9df2-176868d653d4","system_id":"levelo_inurba_marseille","lat":43.293,"lon":5.37454,"is_reserved":false,"is_disabled":false,"rental_uris":{"android":"levelo://app?vid=ae27da21-edc1-4411-9df2-176868d653d4","ios":"levelo://app?vid=ae27da21-edc1-4411-9df2-176868d653d4"},"vehicle_type_id":"4","last_reported":1729181532,"current_range_meters":19600,"station_id":"ce4bgi12rcd13ifvqb70","pricing_plan_id":"cebpf4jnsgd1na2vs0mg"},{"bike_id":"94c346cf-7d4b-4e5e-b4e7-424d0e67d5f5","system_id":"levelo_inurba_marseille","lat":43.30882,"lon":5.39654,"is_reserved":false,"is_disabled":false,"rental_uris":{"android":"levelo://app?vid=94c346cf-7d4b-4e5e-b4e7-424d0e67d5f5","ios":"levelo://app?vid=94c346cf-7d4b-4e5e-b4e7-424d0e67d5f5"},"vehicle_type_id":"4","last_reported":1729181532,"current_range_meters":3200,"station_id":"ce4bh012rcd13ifvqcv0","pricing_plan_id":"cebpf4jnsgd1na2vs0mg"},{"bike_id":"4ce6a8a4-f543-406e-9b3b-bf69a485e2ff","system_id":"levelo_inurba_marseille","lat":43.2465,"lon":5.38893,"is_reserved":false,"is_disabled":false,"rental_uris":{"android":"levelo://app?vid=4ce6a8a4-f543-406e-9b3b-bf69a485e2ff","ios":"levelo://app?vid=4ce6a8a4-f543-406e-9b3b-bf69a485e2ff"},"vehicle_type_id":"4","last_reported":1729181532,"current_range_meters":32000,"station_id":"ce4bhg12rcd13ifvqf60","pricing_plan_id":"cebpf4jnsgd1na2vs0mg"},{"bike_id":"03f44198-afda-48b4-a593-7868f3341fcb","system_id":"levelo_inurba_marseille","lat":43.27535,"lon":5.40935,"is_reserved":false,"is_disabled":false,"rental_uris":{"android":"levelo://app?vid=03f44198-afda-48b4-a593-7868f3341fcb","ios":"levelo://app?vid=03f44198-afda-48b4-a593-7868f3341fcb"},"vehicle_type_id":"4","last_reported":1729181532,"current_range_meters":21600,"station_id":"ce4bhl12rcd13ifvqgf0","pricing_plan_id":"cebpf4jnsgd1na2vs0mg"},{"bike_id":"0d40200e-35a9-49ca-8d0d-e1411e6b3e85","system_id":"levelo_inurba_marseille","lat":43.3029,"lon":5.41312,"is_reserved":false,"is_disabled":false,"rental_uris":{"android":"levelo://app?vid=0d40200e-35a9-49ca-8d0d-e1411e6b3e85","ios":"levelo://app?vid=0d40200e-35a9-49ca-8d0d-e1411e6b3e85"},"vehicle_type_id":"4","last_reported":1729181532,"current_range_meters":38400,"station_id":"ce4bhp12rcd13ifvqh9g","pricing_plan_id":"cebpf4jnsgd1na2vs0mg"},{"bike_id":"654e42f9-cb67-48ce-843b-ab3a86b30d47","system_id":"levelo_inurba_marseille","lat":43.28072,"lon":5.39653,"is_reserved":false,"is_disabled":false,"rental_uris":{"android":"levelo://app?vid=654e42f9-cb67-48ce-843b-ab3a86b30d47","ios":"levelo://app?vid=654e42f9-cb67-48ce-843b-ab3a86b30d47"},"vehicle_type_id":"4","last_reported":1729181532,"current_range_meters":4000,"station_id":"ce4bho12rcd13ifvqh2g","pricing_plan_id":"cebpf4jnsgd1na2vs0mg"},{"bike_id":"d41309ab-1a1f-4395-acaa-455483c3f8e1","system_id":"levelo_inurba_marseille","lat":43.23194,"lon":5.35559,"is_reserved":false,"is_disabled":false,"rental_uris":{"android":"levelo://app?vid=d41309ab-1a1f-4395-acaa-455483c3f8e1","ios":"levelo://app?vid=d41309ab-1a1f-4395-acaa-455483c3f8e1"},"vehicle_type_id":"4","last_reported":1729181532,"current_range_meters":36000,"station_id":"ce4bhu92rcd13ifvqi70","pricing_plan_id":"cebpf4jnsgd1na2vs0mg"},{"bike_id":"57531592-4821-4c94-8102-616c85624668","system_id":"levelo_inurba_marseille","lat":43.27821,"lon":5.40713,"is_reserved":false,"is_disabled":false,"rental_uris":{"android":"levelo://app?vid=57531592-4821-4c94-8102-616c85624668","ios":"levelo://app?vid=57531592-4821-4c94-8102-616c85624668"},"vehicle_type_id":"4","last_reported":1729181532,"current_range_meters":38800,"station_id":"ce4bhnh2rcd13ifvqgtg","pricing_plan_id":"cebpf4jnsgd1na2vs0mg"},{"bike_id":"7c596c38-75be-4341-9635-cf20b6df1390","system_id":"levelo_inurba_marseille","lat":43.30636,"lon":5.40088,"is_reserved":false,"is_disabled":false,"rental_uris":{"android":"levelo://app?vid=7c596c38-75be-4341-9635-cf20b6df1390","ios":"levelo://app?vid=7c596c38-75be-4341-9635-cf20b6df1390"},"vehicle_type_id":"4","last_reported":1729181532,"current_range_meters":26800,"station_id":"ce4bh112rcd13ifvqda0","pricing_plan_id":"cebpf4jnsgd1na2vs0mg"},{"bike_id":"0e558ccd-d2dc-4d9e-b042-9817a9b3766f","system_id":"levelo_inurba_marseille","lat":43.31119,"lon":5.37767,"is_reserved":false,"is_disabled":false,"rental_uris":{"android":"levelo://app?vid=0e558ccd-d2dc-4d9e-b042-9817a9b3766f","ios":"levelo://app?vid=0e558ccd-d2dc-4d9e-b042-9817a9b3766f"},"vehicle_type_id":"4","last_reported":1729181532,"current_range_meters":10000,"station_id":"ce4bgt92rcd13ifvqcg0","pricing_plan_id":"cebpf4jnsgd1na2vs0mg"},{"bike_id":"d7549997-4341-483a-8fd9-86b42a4b9e0d","system_id":"levelo_inurba_marseille","lat":43.31714,"lon":5.43707,"is_reserved":false,"is_disabled":false,"rental_uris":{"android":"levelo://app?vid=d7549997-4341-483a-8fd9-86b42a4b9e0d","ios":"levelo://app?vid=d7549997-4341-483a-8fd9-86b42a4b9e0d"},"vehicle_type_id":"4","last_reported":1729181532,"current_range_meters":40000,"station_id":"ce4bhp92rcd13ifvqhcg","pricing_plan_id":"cebpf4jnsgd1na2vs0mg"},{"bike_id":"0b319da6-684e-4798-a59c-1ed85a0372ba","system_id":"levelo_inurba_marseille","lat":43.25083,"lon":5.39513,"is_reserved":false,"is_disabled":false,"rental_uris":{"android":"levelo://app?vid=0b319da6-684e-4798-a59c-1ed85a0372ba","ios":"levelo://app?vid=0b319da6-684e-4798-a59c-1ed85a0372ba"},"vehicle_type_id":"4","last_reported":1729181532,"current_range_meters":12000,"station_id":"ce4bhm12rcd13ifvqgkg","pricing_plan_id":"cebpf4jnsgd1na2vs0mg"},{"bike_id":"693bc56f-e432-48f1-9c59-a6d5d9a6e662","system_id":"levelo_inurba_marseille","lat":43.24182,"lon":5.39734,"is_reserved":false,"is_disabled":false,"rental_uris":{"android":"levelo://app?vid=693bc56f-e432-48f1-9c59-a6d5d9a6e662","ios":"levelo://app?vid=693bc56f-e432-48f1-9c59-a6d5d9a6e662"},"vehicle_type_id":"4","last_reported":1729181532,"current_range_meters":27600,"station_id":"ce4bhn12rcd13ifvqgpg","pricing_plan_id":"cebpf4jnsgd1na2vs0mg"},{"bike_id":"a8daef43-5a21-4776-8b76-60c76a8caefc","system_id":"levelo_inurba_marseille","lat":43.2781,"lon":5.40707,"is_reserved":false,"is_disabled":false,"rental_uris":{"android":"levelo://app?vid=a8daef43-5a21-4776-8b76-60c76a8caefc","ios":"levelo://app?vid=a8daef43-5a21-4776-8b76-60c76a8caefc"},"vehicle_type_id":"4","last_reported":1729181532,"current_range_meters":5600,"station_id":"ce4bhnh2rcd13ifvqgtg","pricing_plan_id":"cebpf4jnsgd1na2vs0mg"},{"bike_id":"586dfdd7-6bd0-49f2-a04c-04af06f2fa17","system_id":"levelo_inurba_marseille","lat":43.28357,"lon":5.38628,"is_reserved":false,"is_disabled":false,"rental_uris":{"android":"levelo://app?vid=586dfdd7-6bd0-49f2-a04c-04af06f2fa17","ios":"levelo://app?vid=586dfdd7-6bd0-49f2-a04c-04af06f2fa17"},"vehicle_type_id":"4","last_reported":1729181532,"current_range_meters":6800,"station_id":"ce4bh492rcd13ifvqdvg","pricing_plan_id":"cebpf4jnsgd1na2vs0mg"},{"bike_id":"5c4f887c-3ead-4411-a90d-05e47d2e3b75","system_id":"levelo_inurba_marseille","lat":43.24388,"lon":5.37067,"is_reserved":false,"is_disabled":false,"rental_uris":{"android":"levelo://app?vid=5c4f887c-3ead-4411-a90d-05e47d2e3b75","ios":"levelo://app?vid=5c4f887c-3ead-4411-a90d-05e47d2e3b75"},"vehicle_type_id":"4","last_reported":1729181532,"current_range_meters":38800,"station_id":"ce4bhhh2rcd13ifvqfk0","pricing_plan_id":"cebpf4jnsgd1na2vs0mg"},{"bike_id":"033a7f68-f273-426e-84a9-8a3b2c56f6f5","system_id":"levelo_inurba_marseille","lat":43.35127,"lon":5.36808,"is_reserved":false,"is_disabled":false,"rental_uris":{"android":"levelo://app?vid=033a7f68-f273-426e-84a9-8a3b2c56f6f5","ios":"levelo://app?vid=033a7f68-f273-426e-84a9-8a3b2c56f6f5"},"vehicle_type_id":"4","last_reported":1729181532,"current_range_meters":12000,"station_id":"","pricing_plan_id":"cebpf4jnsgd1na2vs0mg"},{"bike_id":"a8d80a4a-1f55-4771-a42d-7a299877c692","system_id":"levelo_inurba_marseille","lat":43.31708,"lon":5.37745,"is_reserved":false,"is_disabled":false,"rental_uris":{"android":"levelo://app?vid=a8d80a4a-1f55-4771-a42d-7a299877c692","ios":"levelo://app?vid=a8d80a4a-1f55-4771-a42d-7a299877c692"},"vehicle_type_id":"4","last_reported":1729181532,"current_range_meters":38000,"station_id":"ce4bgth2rcd13ifvqch0","pricing_plan_id":"cebpf4jnsgd1na2vs0mg"},{"bike_id":"a0a459c5-42f2-40d0-a582-6984b168abad","system_id":"levelo_inurba_marseille","lat":43.25583,"lon":5.38235,"is_reserved":false,"is_disabled":false,"rental_uris":{"android":"levelo://app?vid=a0a459c5-42f2-40d0-a582-6984b168abad","ios":"levelo://app?vid=a0a459c5-42f2-40d0-a582-6984b168abad"},"vehicle_type_id":"4","last_reported":1729181532,"current_range_meters":27600,"station_id":"ce4bhih2rcd13ifvqfs0","pricing_plan_id":"cebpf4jnsgd1na2vs0mg"},{"bike_id":"e1940437-4cc0-4aac-adf2-4643bc03625f","system_id":"levelo_inurba_marseille","lat":43.29435,"lon":5.39758,"is_reserved":false,"is_disabled":false,"rental_uris":{"android":"levelo://app?vid=e1940437-4cc0-4aac-adf2-4643bc03625f","ios":"levelo://app?vid=e1940437-4cc0-4aac-adf2-4643bc03625f"},"vehicle_type_id":"4","last_reported":1729181532,"current_range_meters":16400,"station_id":"ce4bh3h2rcd13ifvqdo0","pricing_plan_id":"cebpf4jnsgd1na2vs0mg"},{"bike_id":"895463c7-46e9-40f9-a79e-ba8d0a3a9d8e","system_id":"levelo_inurba_marseille","lat":43.33024,"lon":5.39038,"is_reserved":false,"is_disabled":false,"rental_uris":{"android":"levelo://app?vid=895463c7-46e9-40f9-a79e-ba8d0a3a9d8e","ios":"levelo://app?vid=895463c7-46e9-40f9-a79e-ba8d0a3a9d8e"},"vehicle_type_id":"4","last_reported":1729181532,"current_range_meters":23200,"station_id":"ce4bhr92rcd13ifvqhrg","pricing_plan_id":"cebpf4jnsgd1na2vs0mg"},{"bike_id":"6c752c55-2526-455b-9ad8-79330a177e42","system_id":"levelo_inurba_marseille","lat":43.31721,"lon":5.42406,"is_reserved":false,"is_disabled":false,"rental_uris":{"android":"levelo://app?vid=6c752c55-2526-455b-9ad8-79330a177e42","ios":"levelo://app?vid=6c752c55-2526-455b-9ad8-79330a177e42"},"vehicle_type_id":"4","last_reported":1729181532,"current_range_meters":4000,"station_id":"ce4bhp92rcd13ifvqhbg","pricing_plan_id":"cebpf4jnsgd1na2vs0mg"},{"bike_id":"13d8ced7-d701-45d2-8bcb-d30ee474e598","system_id":"levelo_inurba_marseille","lat":43.30432,"lon":5.38889,"is_reserved":false,"is_disabled":false,"rental_uris":{"android":"levelo://app?vid=13d8ced7-d701-45d2-8bcb-d30ee474e598","ios":"levelo://app?vid=13d8ced7-d701-45d2-8bcb-d30ee474e598"},"vehicle_type_id":"4","last_reported":1729181532,"current_range_meters":36400,"station_id":"ce4bgk12rcd13ifvqbi0","pricing_plan_id":"cebpf4jnsgd1na2vs0mg"},{"bike_id":"f93454e1-a669-4c63-a4ca-b572042c7971","system_id":"levelo_inurba_marseille","lat":43.23198,"lon":5.35553,"is_reserved":false,"is_disabled":false,"rental_uris":{"android":"levelo://app?vid=f93454e1-a669-4c63-a4ca-b572042c7971","ios":"levelo://app?vid=f93454e1-a669-4c63-a4ca-b572042c7971"},"vehicle_type_id":"4","last_reported":1729181532,"current_range_meters":12800,"station_id":"ce4bhu92rcd13ifvqi70","pricing_plan_id":"cebpf4jnsgd1na2vs0mg"},{"bike_id":"9feebf6a-cf06-4283-9475-cface9a88761","system_id":"levelo_inurba_marseille","lat":43.30801,"lon":5.43525,"is_reserved":false,"is_disabled":false,"rental_uris":{"android":"levelo://app?vid=9feebf6a-cf06-4283-9475-cface9a88761","ios":"levelo://app?vid=9feebf6a-cf06-4283-9475-cface9a88761"},"vehicle_type_id":"4","last_reported":1729181532,"current_range_meters":38400,"station_id":"ce4bhph2rcd13ifvqheg","pricing_plan_id":"cebpf4jnsgd1na2vs0mg"},{"bike_id":"0921a89c-cdec-4d57-a0b5-b7927cde144c","system_id":"levelo_inurba_marseille","lat":43.29546,"lon":5.42282,"is_reserved":false,"is_disabled":false,"rental_uris":{"android":"levelo://app?vid=0921a89c-cdec-4d57-a0b5-b7927cde144c","ios":"levelo://app?vid=0921a89c-cdec-4d57-a0b5-b7927cde144c"},"vehicle_type_id":"4","last_reported":1729181532,"current_range_meters":38800,"station_id":"ce4bhph2rcd13ifvqhdg","pricing_plan_id":"cebpf4jnsgd1na2vs0mg"},{"bike_id":"afbfddd9-a78e-453f-ab04-a18577d99d52","system_id":"levelo_inurba_marseille","lat":43.26684,"lon":5.38265,"is_reserved":false,"is_disabled":false,"rental_uris":{"android":"levelo://app?vid=afbfddd9-a78e-453f-ab04-a18577d99d52","ios":"levelo://app?vid=afbfddd9-a78e-453f-ab04-a18577d99d52"},"vehicle_type_id":"4","last_reported":1729181532,"current_range_meters":24800,"station_id":"ce4bhg92rcd13ifvqf90","pricing_plan_id":"cebpf4jnsgd1na2vs0mg"},{"bike_id":"d8dd69fd-c849-40a5-be2b-06f2ea028bcc","system_id":"levelo_inurba_marseille","lat":43.28464,"lon":5.38425,"is_reserved":false,"is_disabled":false,"rental_uris":{"android":"levelo://app?vid=d8dd69fd-c849-40a5-be2b-06f2ea028bcc","ios":"levelo://app?vid=d8dd69fd-c849-40a5-be2b-06f2ea028bcc"},"vehicle_type_id":"4","last_reported":1729181532,"current_range_meters":19600,"station_id":"ce4bh512rcd13ifvqe3g","pricing_plan_id":"cebpf4jnsgd1na2vs0mg"},{"bike_id":"1adcd5e2-93c7-4b8f-b936-d3a1ad4e3fae","system_id":"levelo_inurba_marseille","lat":43.25576,"lon":5.382417,"is_reserved":false,"is_disabled":false,"rental_uris":{"android":"levelo://app?vid=1adcd5e2-93c7-4b8f-b936-d3a1ad4e3fae","ios":"levelo://app?vid=1adcd5e2-93c7-4b8f-b936-d3a1ad4e3fae"},"vehicle_type_id":"4","last_reported":1729181532,"current_range_meters":19200,"station_id":"ce4bhih2rcd13ifvqfs0","pricing_plan_id":"cebpf4jnsgd1na2vs0mg"},{"bike_id":"fd0b893d-b515-46c1-9432-9fc5b8b574de","system_id":"levelo_inurba_marseille","lat":43.26931,"lon":5.38919,"is_reserved":false,"is_disabled":false,"rental_uris":{"android":"levelo://app?vid=fd0b893d-b515-46c1-9432-9fc5b8b574de","ios":"levelo://app?vid=fd0b893d-b515-46c1-9432-9fc5b8b574de"},"vehicle_type_id":"4","last_reported":1729181532,"current_range_meters":25600,"station_id":"ce4bhhh2rcd13ifvqfl0","pricing_plan_id":"cebpf4jnsgd1na2vs0mg"},{"bike_id":"68a4c269-6c3e-499d-8a0a-e772e072c2c4","system_id":"levelo_inurba_marseille","lat":43.312683,"lon":5.40171,"is_reserved":false,"is_disabled":false,"rental_uris":{"android":"levelo://app?vid=68a4c269-6c3e-499d-8a0a-e772e072c2c4","ios":"levelo://app?vid=68a4c269-6c3e-499d-8a0a-e772e072c2c4"},"vehicle_type_id":"4","last_reported":1729181532,"current_range_meters":4000,"station_id":"ce4bh092rcd13ifvqd30","pricing_plan_id":"cebpf4jnsgd1na2vs0mg"},{"bike_id":"ffc8ebd1-7e19-4572-bfae-944ca9c54106","system_id":"levelo_inurba_marseille","lat":43.25107,"lon":5.40328,"is_reserved":false,"is_disabled":false,"rental_uris":{"android":"levelo://app?vid=ffc8ebd1-7e19-4572-bfae-944ca9c54106","ios":"levelo://app?vid=ffc8ebd1-7e19-4572-bfae-944ca9c54106"},"vehicle_type_id":"4","last_reported":1729181532,"current_range_meters":18000,"station_id":"ce4bhlh2rcd13ifvqgig","pricing_plan_id":"cebpf4jnsgd1na2vs0mg"},{"bike_id":"d21ea1fa-6c57-476b-b3ef-308eabb270d7","system_id":"levelo_inurba_marseille","lat":43.30302,"lon":5.36886,"is_reserved":false,"is_disabled":false,"rental_uris":{"android":"levelo://app?vid=d21ea1fa-6c57-476b-b3ef-308eabb270d7","ios":"levelo://app?vid=d21ea1fa-6c57-476b-b3ef-308eabb270d7"},"vehicle_type_id":"4","last_reported":1729181532,"current_range_meters":16800,"station_id":"ce4bgqh2rcd13ifvqc5g","pricing_plan_id":"cebpf4jnsgd1na2vs0mg"},{"bike_id":"b204a99b-db82-4441-95d1-4836b2587259","system_id":"levelo_inurba_marseille","lat":43.33023,"lon":5.39046,"is_reserved":false,"is_disabled":false,"rental_uris":{"android":"levelo://app?vid=b204a99b-db82-4441-95d1-4836b2587259","ios":"levelo://app?vid=b204a99b-db82-4441-95d1-4836b2587259"},"vehicle_type_id":"4","last_reported":1729181532,"current_range_meters":15200,"station_id":"ce4bhr92rcd13ifvqhrg","pricing_plan_id":"cebpf4jnsgd1na2vs0mg"},{"bike_id":"bb605478-55e3-4a45-ab06-0787b26529c4","system_id":"levelo_inurba_marseille","lat":43.310638,"lon":5.39848,"is_reserved":false,"is_disabled":false,"rental_uris":{"android":"levelo://app?vid=bb605478-55e3-4a45-ab06-0787b26529c4","ios":"levelo://app?vid=bb605478-55e3-4a45-ab06-0787b26529c4"},"vehicle_type_id":"4","last_reported":1729181532,"current_range_meters":32400,"station_id":"ce4bgvp2rcd13ifvqcu0","pricing_plan_id":"cebpf4jnsgd1na2vs0mg"},{"bike_id":"b1adf960-f9dd-4196-8622-77ce6a324d36","system_id":"levelo_inurba_marseille","lat":43.30142,"lon":5.37422,"is_reserved":false,"is_disabled":false,"rental_uris":{"android":"levelo://app?vid=b1adf960-f9dd-4196-8622-77ce6a324d36","ios":"levelo://app?vid=b1adf960-f9dd-4196-8622-77ce6a324d36"},"vehicle_type_id":"4","last_reported":1729181532,"current_range_meters":38000,"station_id":"ce4bgs92rcd13ifvqcc0","pricing_plan_id":"cebpf4jnsgd1na2vs0mg"},{"bike_id":"8caf0c00-cd3e-443e-8465-701b06294cc6","system_id":"levelo_inurba_marseille","lat":43.32332,"lon":5.40623,"is_reserved":false,"is_disabled":false,"rental_uris":{"android":"levelo://app?vid=8caf0c00-cd3e-443e-8465-701b06294cc6","ios":"levelo://app?vid=8caf0c00-cd3e-443e-8465-701b06294cc6"},"vehicle_type_id":"4","last_reported":1729181532,"current_range_meters":34000,"station_id":"ce4bhq92rcd13ifvqhjg","pricing_plan_id":"cebpf4jnsgd1na2vs0mg"},{"bike_id":"c9fd938f-37d4-4c5e-b9ca-b748ca8dded7","system_id":"levelo_inurba_marseille","lat":43.27951,"lon":5.41067,"is_reserved":false,"is_disabled":false,"rental_uris":{"android":"levelo://app?vid=c9fd938f-37d4-4c5e-b9ca-b748ca8dded7","ios":"levelo://app?vid=c9fd938f-37d4-4c5e-b9ca-b748ca8dded7"},"vehicle_type_id":"4","last_reported":1729181532,"current_range_meters":28800,"station_id":"ce4bhnp2rcd13ifvqh0g","pricing_plan_id":"cebpf4jnsgd1na2vs0mg"},{"bike_id":"62e05b8f-35d5-4b1a-bb37-f84e0f2709f2","system_id":"levelo_inurba_marseille","lat":43.2781,"lon":5.40713,"is_reserved":false,"is_disabled":false,"rental_uris":{"android":"levelo://app?vid=62e05b8f-35d5-4b1a-bb37-f84e0f2709f2","ios":"levelo://app?vid=62e05b8f-35d5-4b1a-bb37-f84e0f2709f2"},"vehicle_type_id":"4","last_reported":1729181532,"current_range_meters":33600,"station_id":"ce4bhnh2rcd13ifvqgtg","pricing_plan_id":"cebpf4jnsgd1na2vs0mg"},{"bike_id":"c10183b6-3d28-4448-988b-9f0c30e9b29d","system_id":"levelo_inurba_marseille","lat":43.284717,"lon":5.384201,"is_reserved":false,"is_disabled":false,"rental_uris":{"android":"levelo://app?vid=c10183b6-3d28-4448-988b-9f0c30e9b29d","ios":"levelo://app?vid=c10183b6-3d28-4448-988b-9f0c30e9b29d"},"vehicle_type_id":"4","last_reported":1729181532,"current_range_meters":39200,"station_id":"ce4bh512rcd13ifvqe3g","pricing_plan_id":"cebpf4jnsgd1na2vs0mg"},{"bike_id":"032ed433-937b-449c-97d3-c00a7da40fec","system_id":"levelo_inurba_marseille","lat":43.24811,"lon":5.37463,"is_reserved":false,"is_disabled":false,"rental_uris":{"android":"levelo://app?vid=032ed433-937b-449c-97d3-c00a7da40fec","ios":"levelo://app?vid=032ed433-937b-449c-97d3-c00a7da40fec"},"vehicle_type_id":"4","last_reported":1729181532,"current_range_meters":38800,"station_id":"ce4bhgh2rcd13ifvqfb0","pricing_plan_id":"cebpf4jnsgd1na2vs0mg"},{"bike_id":"2641fd58-398c-4d79-ab8d-8b41306d29f1","system_id":"levelo_inurba_marseille","lat":43.28942,"lon":5.36388,"is_reserved":false,"is_disabled":false,"rental_uris":{"android":"levelo://app?vid=2641fd58-398c-4d79-ab8d-8b41306d29f1","ios":"levelo://app?vid=2641fd58-398c-4d79-ab8d-8b41306d29f1"},"vehicle_type_id":"4","last_reported":1729181532,"current_range_meters":38000,"station_id":"ce4bhc92rcd13ifvqetg","pricing_plan_id":"cebpf4jnsgd1na2vs0mg"},{"bike_id":"2b32faec-986b-4380-a382-cfba48259ac3","system_id":"levelo_inurba_marseille","lat":43.2942,"lon":5.38621,"is_reserved":false,"is_disabled":false,"rental_uris":{"android":"levelo://app?vid=2b32faec-986b-4380-a382-cfba48259ac3","ios":"levelo://app?vid=2b32faec-986b-4380-a382-cfba48259ac3"},"vehicle_type_id":"4","last_reported":1729181532,"current_range_meters":8000,"station_id":"ce4bh2h2rcd13ifvqdh0","pricing_plan_id":"cebpf4jnsgd1na2vs0mg"},{"bike_id":"ad056fbc-b830-4e69-8971-67419454bfcc","system_id":"levelo_inurba_marseille","lat":43.280775,"lon":5.396638,"is_reserved":false,"is_disabled":false,"rental_uris":{"android":"levelo://app?vid=ad056fbc-b830-4e69-8971-67419454bfcc","ios":"levelo://app?vid=ad056fbc-b830-4e69-8971-67419454bfcc"},"vehicle_type_id":"4","last_reported":1729181532,"current_range_meters":28800,"station_id":"ce4bho12rcd13ifvqh2g","pricing_plan_id":"cebpf4jnsgd1na2vs0mg"},{"bike_id":"3f2b9bed-901d-422d-8df5-6a250ca754c6","system_id":"levelo_inurba_marseille","lat":43.28719,"lon":5.3609,"is_reserved":false,"is_disabled":false,"rental_uris":{"android":"levelo://app?vid=3f2b9bed-901d-422d-8df5-6a250ca754c6","ios":"levelo://app?vid=3f2b9bed-901d-422d-8df5-6a250ca754c6"},"vehicle_type_id":"4","last_reported":1729181532,"current_range_meters":16000,"station_id":"cki0cbj6b192h4jlfktg","pricing_plan_id":"cebpf4jnsgd1na2vs0mg"},{"bike_id":"d3bc15b8-6fa9-43ba-99ed-b89e1ad3727f","system_id":"levelo_inurba_marseille","lat":43.29526,"lon":5.37512,"is_reserved":false,"is_disabled":false,"rental_uris":{"android":"levelo://app?vid=d3bc15b8-6fa9-43ba-99ed-b89e1ad3727f","ios":"levelo://app?vid=d3bc15b8-6fa9-43ba-99ed-b89e1ad3727f"},"vehicle_type_id":"4","last_reported":1729181532,"current_range_meters":38800,"station_id":"ce4bgkp2rcd13ifvqbmg","pricing_plan_id":"cebpf4jnsgd1na2vs0mg"},{"bike_id":"0eb83f79-e60a-4ec3-9a1a-05b1749df71d","system_id":"levelo_inurba_marseille","lat":43.2558,"lon":5.38234,"is_reserved":false,"is_disabled":false,"rental_uris":{"android":"levelo://app?vid=0eb83f79-e60a-4ec3-9a1a-05b1749df71d","ios":"levelo://app?vid=0eb83f79-e60a-4ec3-9a1a-05b1749df71d"},"vehicle_type_id":"4","last_reported":1729181532,"current_range_meters":4000,"station_id":"ce4bhih2rcd13ifvqfs0","pricing_plan_id":"cebpf4jnsgd1na2vs0mg"},{"bike_id":"f269126c-1b0b-4a1a-a1d6-f8c3716f5336","system_id":"levelo_inurba_marseille","lat":43.23194,"lon":5.35553,"is_reserved":false,"is_disabled":false,"rental_uris":{"android":"levelo://app?vid=f269126c-1b0b-4a1a-a1d6-f8c3716f5336","ios":"levelo://app?vid=f269126c-1b0b-4a1a-a1d6-f8c3716f5336"},"vehicle_type_id":"4","last_reported":1729181532,"current_range_meters":22800,"station_id":"ce4bhu92rcd13ifvqi70","pricing_plan_id":"cebpf4jnsgd1na2vs0mg"},{"bike_id":"9944e73c-e933-470c-aed2-1810b26e7552","system_id":"levelo_inurba_marseille","lat":43.29301,"lon":5.37463,"is_reserved":false,"is_disabled":false,"rental_uris":{"android":"levelo://app?vid=9944e73c-e933-470c-aed2-1810b26e7552","ios":"levelo://app?vid=9944e73c-e933-470c-aed2-1810b26e7552"},"vehicle_type_id":"4","last_reported":1729181532,"current_range_meters":28000,"station_id":"ce4bgi12rcd13ifvqb70","pricing_plan_id":"cebpf4jnsgd1na2vs0mg"},{"bike_id":"233dc7b2-167c-47d9-9210-8117e91c19a1","system_id":"levelo_inurba_marseille","lat":43.23963,"lon":5.36631,"is_reserved":false,"is_disabled":false,"rental_uris":{"android":"levelo://app?vid=233dc7b2-167c-47d9-9210-8117e91c19a1","ios":"levelo://app?vid=233dc7b2-167c-47d9-9210-8117e91c19a1"},"vehicle_type_id":"4","last_reported":1729181532,"current_range_meters":38000,"station_id":"ce4bhi12rcd13ifvqfp0","pricing_plan_id":"cebpf4jnsgd1na2vs0mg"},{"bike_id":"2c40d1a8-6ac9-4708-930c-b0afebd78a23","system_id":"levelo_inurba_marseille","lat":43.30328,"lon":5.40428,"is_reserved":false,"is_disabled":false,"rental_uris":{"android":"levelo://app?vid=2c40d1a8-6ac9-4708-930c-b0afebd78a23","ios":"levelo://app?vid=2c40d1a8-6ac9-4708-930c-b0afebd78a23"},"vehicle_type_id":"4","last_reported":1729181532,"current_range_meters":5600,"station_id":"ce4bh012rcd13ifvqd10","pricing_plan_id":"cebpf4jnsgd1na2vs0mg"},{"bike_id":"57487ce4-6bc1-4a4b-8046-0983c6fda537","system_id":"levelo_inurba_marseille","lat":43.3372,"lon":5.39184,"is_reserved":false,"is_disabled":false,"rental_uris":{"android":"levelo://app?vid=57487ce4-6bc1-4a4b-8046-0983c6fda537","ios":"levelo://app?vid=57487ce4-6bc1-4a4b-8046-0983c6fda537"},"vehicle_type_id":"4","last_reported":1729181532,"current_range_meters":20800,"station_id":"ce4bhr92rcd13ifvqhsg","pricing_plan_id":"cebpf4jnsgd1na2vs0mg"},{"bike_id":"94d48054-be54-488d-a425-2deb433f452c","system_id":"levelo_inurba_marseille","lat":43.29841,"lon":5.36449,"is_reserved":false,"is_disabled":false,"rental_uris":{"android":"levelo://app?vid=94d48054-be54-488d-a425-2deb433f452c","ios":"levelo://app?vid=94d48054-be54-488d-a425-2deb433f452c"},"vehicle_type_id":"4","last_reported":1729181532,"current_range_meters":11600,"station_id":"ce4bgnh2rcd13ifvqc0g","pricing_plan_id":"cebpf4jnsgd1na2vs0mg"},{"bike_id":"1f2a092f-7ffa-44a4-af63-16102be373de","system_id":"levelo_inurba_marseille","lat":43.25085,"lon":5.39508,"is_reserved":false,"is_disabled":false,"rental_uris":{"android":"levelo://app?vid=1f2a092f-7ffa-44a4-af63-16102be373de","ios":"levelo://app?vid=1f2a092f-7ffa-44a4-af63-16102be373de"},"vehicle_type_id":"4","last_reported":1729181532,"current_range_meters":30800,"station_id":"ce4bhm12rcd13ifvqgkg","pricing_plan_id":"cebpf4jnsgd1na2vs0mg"},{"bike_id":"2b88e565-4f1c-4506-b2f4-3991e853c6cc","system_id":"levelo_inurba_marseille","lat":43.260674,"lon":5.393954,"is_reserved":false,"is_disabled":false,"rental_uris":{"android":"levelo://app?vid=2b88e565-4f1c-4506-b2f4-3991e853c6cc","ios":"levelo://app?vid=2b88e565-4f1c-4506-b2f4-3991e853c6cc"},"vehicle_type_id":"4","last_reported":1729181532,"current_range_meters":38400,"station_id":"ce4bhh92rcd13ifvqfj0","pricing_plan_id":"cebpf4jnsgd1na2vs0mg"},{"bike_id":"242f8392-a65c-44d0-bf93-ff09d3a5e044","system_id":"levelo_inurba_marseille","lat":43.30458,"lon":5.37898,"is_reserved":false,"is_disabled":false,"rental_uris":{"android":"levelo://app?vid=242f8392-a65c-44d0-bf93-ff09d3a5e044","ios":"levelo://app?vid=242f8392-a65c-44d0-bf93-ff09d3a5e044"},"vehicle_type_id":"4","last_reported":1729181532,"current_range_meters":24800,"station_id":"ce4bgup2rcd13ifvqcn0","pricing_plan_id":"cebpf4jnsgd1na2vs0mg"},{"bike_id":"d838e217-c45f-4c0a-b0bf-0348cc62bdc2","system_id":"levelo_inurba_marseille","lat":43.25116,"lon":5.40325,"is_reserved":false,"is_disabled":false,"rental_uris":{"android":"levelo://app?vid=d838e217-c45f-4c0a-b0bf-0348cc62bdc2","ios":"levelo://app?vid=d838e217-c45f-4c0a-b0bf-0348cc62bdc2"},"vehicle_type_id":"4","last_reported":1729181532,"current_range_meters":38000,"station_id":"ce4bhlh2rcd13ifvqgig","pricing_plan_id":"cebpf4jnsgd1na2vs0mg"},{"bike_id":"37e3ff7f-73ac-4ef4-a2a9-5337205e9091","system_id":"levelo_inurba_marseille","lat":43.31079,"lon":5.38352,"is_reserved":false,"is_disabled":false,"rental_uris":{"android":"levelo://app?vid=37e3ff7f-73ac-4ef4-a2a9-5337205e9091","ios":"levelo://app?vid=37e3ff7f-73ac-4ef4-a2a9-5337205e9091"},"vehicle_type_id":"4","last_reported":1729181532,"current_range_meters":22400,"station_id":"ce4bgv92rcd13ifvqcr0","pricing_plan_id":"cebpf4jnsgd1na2vs0mg"},{"bike_id":"07113130-0bfd-4d58-a72c-a3849afd7cf9","system_id":"levelo_inurba_marseille","lat":43.290192,"lon":5.38144,"is_reserved":false,"is_disabled":false,"rental_uris":{"android":"levelo://app?vid=07113130-0bfd-4d58-a72c-a3849afd7cf9","ios":"levelo://app?vid=07113130-0bfd-4d58-a72c-a3849afd7cf9"},"vehicle_type_id":"4","last_reported":1729181532,"current_range_meters":19600,"station_id":"ce4bh4p2rcd13ifvqe1g","pricing_plan_id":"cebpf4jnsgd1na2vs0mg"},{"bike_id":"81507848-bab6-426e-aede-1dda021eec97","system_id":"levelo_inurba_marseille","lat":43.31756,"lon":5.39015,"is_reserved":false,"is_disabled":false,"rental_uris":{"android":"levelo://app?vid=81507848-bab6-426e-aede-1dda021eec97","ios":"levelo://app?vid=81507848-bab6-426e-aede-1dda021eec97"},"vehicle_type_id":"4","last_reported":1729181532,"current_range_meters":38000,"station_id":"ce4bhqp2rcd13ifvqhng","pricing_plan_id":"cebpf4jnsgd1na2vs0mg"},{"bike_id":"530e74bd-7566-4a8e-afaa-064d78432ca2","system_id":"levelo_inurba_marseille","lat":43.33717,"lon":5.3918,"is_reserved":false,"is_disabled":false,"rental_uris":{"android":"levelo://app?vid=530e74bd-7566-4a8e-afaa-064d78432ca2","ios":"levelo://app?vid=530e74bd-7566-4a8e-afaa-064d78432ca2"},"vehicle_type_id":"4","last_reported":1729181532,"current_range_meters":35200,"station_id":"ce4bhr92rcd13ifvqhsg","pricing_plan_id":"cebpf4jnsgd1na2vs0mg"},{"bike_id":"8d3f8737-4a93-4716-b5ae-c625fac30c78","system_id":"levelo_inurba_marseille","lat":43.2902,"lon":5.3865,"is_reserved":false,"is_disabled":false,"rental_uris":{"android":"levelo://app?vid=8d3f8737-4a93-4716-b5ae-c625fac30c78","ios":"levelo://app?vid=8d3f8737-4a93-4716-b5ae-c625fac30c78"},"vehicle_type_id":"4","last_reported":1729181532,"current_range_meters":37600,"station_id":"ce4bh4p2rcd13ifvqe0g","pricing_plan_id":"cebpf4jnsgd1na2vs0mg"},{"bike_id":"d4c623fc-5b32-404d-8f77-48dd30930c36","system_id":"levelo_inurba_marseille","lat":43.29571,"lon":5.39991,"is_reserved":false,"is_disabled":false,"rental_uris":{"android":"levelo://app?vid=d4c623fc-5b32-404d-8f77-48dd30930c36","ios":"levelo://app?vid=d4c623fc-5b32-404d-8f77-48dd30930c36"},"vehicle_type_id":"4","last_reported":1729181532,"current_range_meters":13600,"station_id":"ce4bh312rcd13ifvqdj0","pricing_plan_id":"cebpf4jnsgd1na2vs0mg"},{"bike_id":"09c2763a-3a86-4f3a-8f89-c8c563a76106","system_id":"levelo_inurba_marseille","lat":43.2782,"lon":5.40722,"is_reserved":false,"is_disabled":false,"rental_uris":{"android":"levelo://app?vid=09c2763a-3a86-4f3a-8f89-c8c563a76106","ios":"levelo://app?vid=09c2763a-3a86-4f3a-8f89-c8c563a76106"},"vehicle_type_id":"4","last_reported":1729181532,"current_range_meters":38800,"station_id":"ce4bhnh2rcd13ifvqgtg","pricing_plan_id":"cebpf4jnsgd1na2vs0mg"},{"bike_id":"86c5b247-4309-45c5-b5c8-f672aae46a15","system_id":"levelo_inurba_marseille","lat":43.29035,"lon":5.35913,"is_reserved":false,"is_disabled":false,"rental_uris":{"android":"levelo://app?vid=86c5b247-4309-45c5-b5c8-f672aae46a15","ios":"levelo://app?vid=86c5b247-4309-45c5-b5c8-f672aae46a15"},"vehicle_type_id":"4","last_reported":1729181532,"current_range_meters":24400,"station_id":"ce4bha92rcd13ifvqeg0","pricing_plan_id":"cebpf4jnsgd1na2vs0mg"},{"bike_id":"85050c92-510f-4284-a2f2-117d23a5c84b","system_id":"levelo_inurba_marseille","lat":43.26062,"lon":5.39408,"is_reserved":false,"is_disabled":false,"rental_uris":{"android":"levelo://app?vid=85050c92-510f-4284-a2f2-117d23a5c84b","ios":"levelo://app?vid=85050c92-510f-4284-a2f2-117d23a5c84b"},"vehicle_type_id":"4","last_reported":1729181532,"current_range_meters":23200,"station_id":"ce4bhh92rcd13ifvqfj0","pricing_plan_id":"cebpf4jnsgd1na2vs0mg"},{"bike_id":"514d5927-5db6-4bda-8306-1f6cf146d55d","system_id":"levelo_inurba_marseille","lat":43.26565,"lon":5.39007,"is_reserved":false,"is_disabled":false,"rental_uris":{"android":"levelo://app?vid=514d5927-5db6-4bda-8306-1f6cf146d55d","ios":"levelo://app?vid=514d5927-5db6-4bda-8306-1f6cf146d55d"},"vehicle_type_id":"4","last_reported":1729181532,"current_range_meters":34000,"station_id":"ce4bhe12rcd13ifvqf30","pricing_plan_id":"cebpf4jnsgd1na2vs0mg"},{"bike_id":"c2a0082c-7c3f-4487-a5d5-ef501d747093","system_id":"levelo_inurba_marseille","lat":43.30479,"lon":5.36761,"is_reserved":false,"is_disabled":false,"rental_uris":{"android":"levelo://app?vid=c2a0082c-7c3f-4487-a5d5-ef501d747093","ios":"levelo://app?vid=c2a0082c-7c3f-4487-a5d5-ef501d747093"},"vehicle_type_id":"4","last_reported":1729181532,"current_range_meters":9200,"station_id":"ce4bgrp2rcd13ifvqc9g","pricing_plan_id":"cebpf4jnsgd1na2vs0mg"},{"bike_id":"52fb301f-6dce-415a-bc73-0edfcbdaa6ba","system_id":"levelo_inurba_marseille","lat":43.32338,"lon":5.40627,"is_reserved":false,"is_disabled":false,"rental_uris":{"android":"levelo://app?vid=52fb301f-6dce-415a-bc73-0edfcbdaa6ba","ios":"levelo://app?vid=52fb301f-6dce-415a-bc73-0edfcbdaa6ba"},"vehicle_type_id":"4","last_reported":1729181532,"current_range_meters":16800,"station_id":"ce4bhq92rcd13ifvqhjg","pricing_plan_id":"cebpf4jnsgd1na2vs0mg"},{"bike_id":"aef584ff-2448-4565-9c37-6d940c9e4728","system_id":"levelo_inurba_marseille","lat":43.26495,"lon":5.39541,"is_reserved":false,"is_disabled":false,"rental_uris":{"android":"levelo://app?vid=aef584ff-2448-4565-9c37-6d940c9e4728","ios":"levelo://app?vid=aef584ff-2448-4565-9c37-6d940c9e4728"},"vehicle_type_id":"4","last_reported":1729181532,"current_range_meters":24800,"station_id":"ce4bhi12rcd13ifvqfq0","pricing_plan_id":"cebpf4jnsgd1na2vs0mg"},{"bike_id":"d0eabf1b-d48b-4558-88a4-09b0d9454e30","system_id":"levelo_inurba_marseille","lat":43.2558,"lon":5.38239,"is_reserved":false,"is_disabled":false,"rental_uris":{"android":"levelo://app?vid=d0eabf1b-d48b-4558-88a4-09b0d9454e30","ios":"levelo://app?vid=d0eabf1b-d48b-4558-88a4-09b0d9454e30"},"vehicle_type_id":"4","last_reported":1729181532,"current_range_meters":9600,"station_id":"ce4bhih2rcd13ifvqfs0","pricing_plan_id":"cebpf4jnsgd1na2vs0mg"},{"bike_id":"8ea5e316-aaf2-4d67-8f6a-f16fa18a4d5f","system_id":"levelo_inurba_marseille","lat":43.274198,"lon":5.394149,"is_reserved":false,"is_disabled":false,"rental_uris":{"android":"levelo://app?vid=8ea5e316-aaf2-4d67-8f6a-f16fa18a4d5f","ios":"levelo://app?vid=8ea5e316-aaf2-4d67-8f6a-f16fa18a4d5f"},"vehicle_type_id":"4","last_reported":1729181532,"current_range_meters":2800,"station_id":"ce4bhh92rcd13ifvqfj0","pricing_plan_id":"cebpf4jnsgd1na2vs0mg"},{"bike_id":"5368dd47-f108-4c46-9b51-f8909dd18f1f","system_id":"levelo_inurba_marseille","lat":43.30136,"lon":5.38779,"is_reserved":false,"is_disabled":false,"rental_uris":{"android":"levelo://app?vid=5368dd47-f108-4c46-9b51-f8909dd18f1f","ios":"levelo://app?vid=5368dd47-f108-4c46-9b51-f8909dd18f1f"},"vehicle_type_id":"4","last_reported":1729181532,"current_range_meters":16800,"station_id":"ce4bghh2rcd13ifvqb60","pricing_plan_id":"cebpf4jnsgd1na2vs0mg"},{"bike_id":"d40622e5-aabe-4764-a690-60003e338850","system_id":"levelo_inurba_marseille","lat":43.29535,"lon":5.38539,"is_reserved":false,"is_disabled":false,"rental_uris":{"android":"levelo://app?vid=d40622e5-aabe-4764-a690-60003e338850","ios":"levelo://app?vid=d40622e5-aabe-4764-a690-60003e338850"},"vehicle_type_id":"4","last_reported":1729181532,"current_range_meters":25600,"station_id":"ce4bgih2rcd13ifvqba0","pricing_plan_id":"cebpf4jnsgd1na2vs0mg"},{"bike_id":"0d48b653-aa84-4f6f-9ace-f099cbf60359","system_id":"levelo_inurba_marseille","lat":43.23054,"lon":5.35489,"is_reserved":false,"is_disabled":false,"rental_uris":{"android":"levelo://app?vid=0d48b653-aa84-4f6f-9ace-f099cbf60359","ios":"levelo://app?vid=0d48b653-aa84-4f6f-9ace-f099cbf60359"},"vehicle_type_id":"4","last_reported":1729181532,"current_range_meters":38800,"station_id":"cpo3342slgdg3j2ifvpg","pricing_plan_id":"cebpf4jnsgd1na2vs0mg"},{"bike_id":"96f7887c-c909-4de9-9231-43e03374c60c","system_id":"levelo_inurba_marseille","lat":43.29581,"lon":5.36742,"is_reserved":false,"is_disabled":false,"rental_uris":{"android":"levelo://app?vid=96f7887c-c909-4de9-9231-43e03374c60c","ios":"levelo://app?vid=96f7887c-c909-4de9-9231-43e03374c60c"},"vehicle_type_id":"4","last_reported":1729181532,"current_range_meters":38800,"station_id":"ce4bgph2rcd13ifvqc2g","pricing_plan_id":"cebpf4jnsgd1na2vs0mg"},{"bike_id":"aa14a281-d2a6-4d87-8787-ff01a70aba04","system_id":"levelo_inurba_marseille","lat":43.29625,"lon":5.40597,"is_reserved":false,"is_disabled":false,"rental_uris":{"android":"levelo://app?vid=aa14a281-d2a6-4d87-8787-ff01a70aba04","ios":"levelo://app?vid=aa14a281-d2a6-4d87-8787-ff01a70aba04"},"vehicle_type_id":"4","last_reported":1729181532,"current_range_meters":16000,"station_id":"ce4bh0h2rcd13ifvqd60","pricing_plan_id":"cebpf4jnsgd1na2vs0mg"},{"bike_id":"7d1163aa-3886-4c37-b453-78bc863a3be4","system_id":"levelo_inurba_marseille","lat":43.30796,"lon":5.43527,"is_reserved":false,"is_disabled":false,"rental_uris":{"android":"levelo://app?vid=7d1163aa-3886-4c37-b453-78bc863a3be4","ios":"levelo://app?vid=7d1163aa-3886-4c37-b453-78bc863a3be4"},"vehicle_type_id":"4","last_reported":1729181532,"current_range_meters":36800,"station_id":"ce4bhph2rcd13ifvqheg","pricing_plan_id":"cebpf4jnsgd1na2vs0mg"},{"bike_id":"a1e0278e-920e-4eea-a381-891331e8e403","system_id":"levelo_inurba_marseille","lat":43.23197,"lon":5.35547,"is_reserved":false,"is_disabled":false,"rental_uris":{"android":"levelo://app?vid=a1e0278e-920e-4eea-a381-891331e8e403","ios":"levelo://app?vid=a1e0278e-920e-4eea-a381-891331e8e403"},"vehicle_type_id":"4","last_reported":1729181532,"current_range_meters":30800,"station_id":"ce4bhu92rcd13ifvqi70","pricing_plan_id":"cebpf4jnsgd1na2vs0mg"},{"bike_id":"30913296-9ae6-48aa-ab8e-f51fc9cd15bd","system_id":"levelo_inurba_marseille","lat":43.33024,"lon":5.39045,"is_reserved":false,"is_disabled":false,"rental_uris":{"android":"levelo://app?vid=30913296-9ae6-48aa-ab8e-f51fc9cd15bd","ios":"levelo://app?vid=30913296-9ae6-48aa-ab8e-f51fc9cd15bd"},"vehicle_type_id":"4","last_reported":1729181532,"current_range_meters":17600,"station_id":"ce4bhr92rcd13ifvqhrg","pricing_plan_id":"cebpf4jnsgd1na2vs0mg"},{"bike_id":"92fadee8-3c9f-45f9-9f0d-71698dae5252","system_id":"levelo_inurba_marseille","lat":43.32379,"lon":5.3892,"is_reserved":false,"is_disabled":false,"rental_uris":{"android":"levelo://app?vid=92fadee8-3c9f-45f9-9f0d-71698dae5252","ios":"levelo://app?vid=92fadee8-3c9f-45f9-9f0d-71698dae5252"},"vehicle_type_id":"4","last_reported":1729181532,"current_range_meters":39200,"station_id":"ce4bhqp2rcd13ifvqhog","pricing_plan_id":"cebpf4jnsgd1na2vs0mg"},{"bike_id":"453cbb41-cce5-415c-8a07-e5478d389f58","system_id":"levelo_inurba_marseille","lat":43.27994,"lon":5.40023,"is_reserved":false,"is_disabled":false,"rental_uris":{"android":"levelo://app?vid=453cbb41-cce5-415c-8a07-e5478d389f58","ios":"levelo://app?vid=453cbb41-cce5-415c-8a07-e5478d389f58"},"vehicle_type_id":"4","last_reported":1729181532,"current_range_meters":30800,"station_id":"ce4bho92rcd13ifvqh4g","pricing_plan_id":"cebpf4jnsgd1na2vs0mg"},{"bike_id":"1c5dd24f-54da-424b-b619-4620ec52658f","system_id":"levelo_inurba_marseille","lat":43.29553,"lon":5.42296,"is_reserved":false,"is_disabled":false,"rental_uris":{"android":"levelo://app?vid=1c5dd24f-54da-424b-b619-4620ec52658f","ios":"levelo://app?vid=1c5dd24f-54da-424b-b619-4620ec52658f"},"vehicle_type_id":"4","last_reported":1729181532,"current_range_meters":10800,"station_id":"ce4bhph2rcd13ifvqhdg","pricing_plan_id":"cebpf4jnsgd1na2vs0mg"},{"bike_id":"aa93ae9d-e68b-4a05-b7e2-daeabc87ed1e","system_id":"levelo_inurba_marseille","lat":43.23195,"lon":5.35559,"is_reserved":false,"is_disabled":false,"rental_uris":{"android":"levelo://app?vid=aa93ae9d-e68b-4a05-b7e2-daeabc87ed1e","ios":"levelo://app?vid=aa93ae9d-e68b-4a05-b7e2-daeabc87ed1e"},"vehicle_type_id":"4","last_reported":1729181532,"current_range_meters":28400,"station_id":"ce4bhu92rcd13ifvqi70","pricing_plan_id":"cebpf4jnsgd1na2vs0mg"},{"bike_id":"62cbb2ee-3d9a-4dce-8cb8-24eac8b11874","system_id":"levelo_inurba_marseille","lat":43.24652,"lon":5.38896,"is_reserved":false,"is_disabled":false,"rental_uris":{"android":"levelo://app?vid=62cbb2ee-3d9a-4dce-8cb8-24eac8b11874","ios":"levelo://app?vid=62cbb2ee-3d9a-4dce-8cb8-24eac8b11874"},"vehicle_type_id":"4","last_reported":1729181532,"current_range_meters":11200,"station_id":"ce4bhg12rcd13ifvqf60","pricing_plan_id":"cebpf4jnsgd1na2vs0mg"},{"bike_id":"c2a6600e-451e-473e-9897-e40c10987710","system_id":"levelo_inurba_marseille","lat":43.26217,"lon":5.37449,"is_reserved":false,"is_disabled":false,"rental_uris":{"android":"levelo://app?vid=c2a6600e-451e-473e-9897-e40c10987710","ios":"levelo://app?vid=c2a6600e-451e-473e-9897-e40c10987710"},"vehicle_type_id":"4","last_reported":1729181532,"current_range_meters":38800,"station_id":"ce4bhgp2rcd13ifvqfc0","pricing_plan_id":"cebpf4jnsgd1na2vs0mg"},