{"last_updated":1731673087,"ttl":60,"version":"2.2","data":{"bikes":[{"bike_id":"8b22dc00-a330-4daa-bc27-122b639ff9bd","system_id":"levelo_inurba_marseille","lat":43.29978,"lon":5.38492,"is_reserved":false,"is_disabled":false,"rental_uris":{"android":"levelo://app?vid=8b22dc00-a330-4daa-bc27-122b639ff9bd","ios":"levelo://app?vid=8b22dc00-a330-4daa-bc27-122b639ff9bd"},"vehicle_type_id":"4","last_reported":1731673087,"current_range_meters":38000,"station_id":"ce4bgj92rcd13ifvqbd0","pricing_plan_id":"cebpf4jnsgd1na2vs0mg"},{"bike_id":"9af31f59-0071-41cd-883a-a94e4269c1bb","system_id":"levelo_inurba_marseille","lat":43.28361,"lon":5.38625,"is_reserved":false,"is_disabled":false,"rental_uris":{"android":"levelo://app?vid=9af31f59-0071-41cd-883a-a94e4269c1bb","ios":"levelo://app?vid=9af31f59-0071-41cd-883a-a94e4269c1bb"},"vehicle_type_id":"4","last_reported":1731673087,"current_range_meters":40000,"station_id":"ce4bh492rcd13ifvqdvg","pricing_plan_id":"cebpf4jnsgd1na2vs0mg"},{"bike_id":"c31906ff-16b8-463f-ba85-cc9c1aef5d15","system_id":"levelo_inurba_marseille","lat":43.25581,"lon":5.38236,"is_reserved":false,"is_disabled":false,"rental_uris":{"android":"levelo://app?vid=c31906ff-16b8-463f-ba85-cc9c1aef5d15","ios":"levelo://app?vid=c31906ff-16b8-463f-ba85-cc9c1aef5d15"},"vehicle_type_id":"4","last_reported":1731673087,"current_range_meters":39200,"station_id":"ce4bhih2rcd13ifvqfs0","pricing_plan_id":"cebpf4jnsgd1na2vs0mg"},{"bike_id":"aa1a5ada-34e5-4ee8-8d26-1c510285f33e","system_id":"levelo_inurba_marseille","lat":43.26211,"lon":5.37441,"is_reserved":false,"is_disabled":false,"rental_uris":{"android":"levelo://app?vid=aa1a5ada-34e5-4ee8-8d26-1c510285f33e","ios":"levelo://app?vid=aa1a5ada-34e5-4ee8-8d26-1c510285f33e"},"vehicle_type_id":"4","last_reported":1731673087,"current_range_meters":34800,"station_id":"ce4bhgp2rcd13ifvqfc0","pricing_plan_id":"cebpf4jnsgd1na2vs0mg"},{"bike_id":"dc420096-821f-4292-8c8c-8515bcb5b754","system_id":"levelo_inurba_marseille","lat":43.3046,"lon":5.37873,"is_reserved":false,"is_disabled":false,"rental_uris":{"android":"levelo://app?vid=dc420096-821f-4292-8c8c-8515bcb5b754","ios":"levelo://app?vid=dc420096-821f-4292-8c8c-8515bcb5b754"},"vehicle_type_id":"4","last_reported":1731673087,"current_range_meters":39200,"station_id":"ce4bgup2rcd13ifvqcn0","pricing_plan_id":"cebpf4jnsgd1na2vs0mg"},{"bike_id":"bba30ccd-2b4f-42d8-b68d-f3f8cfd6f6dd","system_id":"levelo_inurba_marseille","lat":43.31224,"lon":5.3687,"is_reserved":false,"is_disabled":false,"rental_uris":{"android":"levelo://app?vid=bba30ccd-2b4f-42d8-b68d-f3f8cfd6f6dd","ios":"levelo://app?vid=bba30ccd-2b4f-42d8-b68d-f3f8cfd6f6dd"},"vehicle_type_id":"4","last_reported":1731673087,"current_range_meters":36000,"station_id":"ce4bgl92rcd13ifvqbq0","pricing_plan_id":"cebpf4jnsgd1na2vs0mg"},{"bike_id":"d9847e7e-8407-4b3b-8aa7-64d3afcb8734","system_id":"levelo_inurba_marseille","lat":43.26034,"lon":5.37547,"is_reserved":false,"is_disabled":false,"rental_uris":{"android":"levelo://app?vid=d9847e7e-8407-4b3b-8aa7-64d3afcb8734","ios":"levelo://app?vid=d9847e7e-8407-4b3b-8aa7-64d3afcb8734"},"vehicle_type_id":"4","last_reported":1731673087,"current_range_meters":37600,"station_id":"ce4bhgh2rcd13ifvqfa0","pricing_plan_id":"cebpf4jnsgd1na2vs0mg"},{"bike_id":"3103e701-325d-46a8-8da6-9d3f06286418","system_id":"levelo_inurba_marseille","lat":43.28994,"lon":5.35625,"is_reserved":false,"is_disabled":false,"rental_uris":{"android":"levelo://app?vid=3103e701-325d-46a8-8da6-9d3f06286418","ios":"levelo://app?vid=3103e701-325d-46a8-8da6-9d3f06286418"},"vehicle_type_id":"4","last_reported":1731673087,"current_range_meters":12000,"station_id":"ce4bhb92rcd13ifvqen0","pricing_plan_id":"cebpf4jnsgd1na2vs0mg"},{"bike_id":"793dc9c6-46ff-4af5-8049-03a548391932","system_id":"levelo_inurba_marseille","lat":43.28473,"lon":5.3842,"is_reserved":false,"is_disabled":false,"rental_uris":{"android":"levelo://app?vid=793dc9c6-46ff-4af5-8049-03a548391932","ios":"levelo://app?vid=793dc9c6-46ff-4af5-8049-03a548391932"},"vehicle_type_id":"4","last_reported":1731673087,"current_range_meters":17200,"station_id":"ce4bh512rcd13ifvqe3g","pricing_plan_id":"cebpf4jnsgd1na2vs0mg"},{"bike_id":"87038e14-e189-4cb4-87ed-f9876bde32cf","system_id":"levelo_inurba_marseille","lat":43.27803,"lon":5.40723,"is_reserved":false,"is_disabled":false,"rental_uris":{"android":"levelo://app?vid=87038e14-e189-4cb4-87ed-f9876bde32cf","ios":"levelo://app?vid=87038e14-e189-4cb4-87ed-f9876bde32cf"},"vehicle_type_id":"4","last_reported":1731673087,"current_range_meters":32000,"station_id":"ce4bhnh2rcd13ifvqgtg","pricing_plan_id":"cebpf4jnsgd1na2vs0mg"},{"bike_id":"8cd76b24-7fae-446d-8a39-6079713fb9ef","system_id":"levelo_inurba_marseille","lat":43.289471,"lon":5.366428,"is_reserved":false,"is_disabled":false,"rental_uris":{"android":"levelo://app?vid=8cd76b24-7fae-446d-8a39-6079713fb9ef","ios":"levelo://app?vid=8cd76b24-7fae-446d-8a39-6079713fb9ef"},"vehicle_type_id":"4","last_reported":1731673087,"current_range_meters":6800,"station_id":"ce4bhap2rcd13ifvqek0","pricing_plan_id":"cebpf4jnsgd1na2vs0mg"},{"bike_id":"a9192c52-ff4a-4e6f-9ac1-b00a4393a59e","system_id":"levelo_inurba_marseille","lat":43.27633,"lon":5.36087,"is_reserved":false,"is_disabled":false,"rental_uris":{"android":"levelo://app?vid=a9192c52-ff4a-4e6f-9ac1-b00a4393a59e","ios":"levelo://app?vid=a9192c52-ff4a-4e6f-9ac1-b00a4393a59e"},"vehicle_type_id":"4","last_reported":1731673087,"current_range_meters":38000,"station_id":"ce4bgj92rcd13ifvqbe0","pricing_plan_id":"cebpf4jnsgd1na2vs0mg"},{"bike_id":"0d464bfc-172e-48ac-834e-501767c8714d","system_id":"levelo_inurba_marseille","lat":43.24389,"lon":5.37061,"is_reserved":false,"is_disabled":false,"rental_uris":{"android":"levelo://app?vid=0d464bfc-172e-48ac-834e-501767c8714d","ios":"levelo://app?vid=0d464bfc-172e-48ac-834e-501767c8714d"},"vehicle_type_id":"4","last_reported":1731673087,"current_range_meters":30800,"station_id":"ce4bhhh2rcd13ifvqfk0","pricing_plan_id":"cebpf4jnsgd1na2vs0mg"},{"bike_id":"d5c0eb45-ec99-41ff-88b9-28d3baf4fda4","system_id":"levelo_inurba_marseille","lat":43.2318,"lon":5.3999,"is_reserved":false,"is_disabled":false,"rental_uris":{"android":"levelo://app?vid=d5c0eb45-ec99-41ff-88b9-28d3baf4fda4","ios":"levelo://app?vid=d5c0eb45-ec99-41ff-88b9-28d3baf4fda4"},"vehicle_type_id":"4","last_reported":1731673087,"current_range_meters":25200,"station_id":"ce4bhn12rcd13ifvqgqg","pricing_plan_id":"cebpf4jnsgd1na2vs0mg"},{"bike_id":"9ef76943-592f-4d3b-a0f1-da70d440e9b4","system_id":"levelo_inurba_marseille","lat":43.29896,"lon":5.43668,"is_reserved":false,"is_disabled":false,"rental_uris":{"android":"levelo://app?vid=9ef76943-592f-4d3b-a0f1-da70d440e9b4","ios":"levelo://app?vid=9ef76943-592f-4d3b-a0f1-da70d440e9b4"},"vehicle_type_id":"4","last_reported":1731673087,"current_range_meters":24000,"station_id":"ce4bhpp2rcd13ifvqhfg","pricing_plan_id":"cebpf4jnsgd1na2vs0mg"},{"bike_id":"ee419530-8ef9-442a-a32d-6d07cac1abf6","system_id":"levelo_inurba_marseille","lat":43.27806,"lon":5.40707,"is_reserved":false,"is_disabled":false,"rental_uris":{"android":"levelo://app?vid=ee419530-8ef9-442a-a32d-6d07cac1abf6","ios":"levelo://app?vid=ee419530-8ef9-442a-a32d-6d07cac1abf6"},"vehicle_type_id":"4","last_reported":1731673087,"current_range_meters":13600,"station_id":"ce4bhnh2rcd13ifvqgtg","pricing_plan_id":"cebpf4jnsgd1na2vs0mg"},{"bike_id":"1bbf0b1c-1a52-49fc-b8f8-3d2ec410c0a2","system_id":"levelo_inurba_marseille","lat":43.27173,"lon":5.40993,"is_reserved":false,"is_disabled":false,"rental_uris":{"android":"levelo://app?vid=1bbf0b1c-1a52-49fc-b8f8-3d2ec410c0a2","ios":"levelo://app?vid=1bbf0b1c-1a52-49fc-b8f8-3d2ec410c0a2"},"vehicle_type_id":"4","last_reported":1731673087,"current_range_meters":30000,"station_id":"ce4bhl12rcd13ifvqgf0","pricing_plan_id":"cebpf4jnsgd1na2vs0mg"},{"bike_id":"84927b9a-2333-4c99-89e5-992fa2086a58","system_id":"levelo_inurba_marseille","lat":43.27174,"lon":5.40989,"is_reserved":false,"is_disabled":false,"rental_uris":{"android":"levelo://app?vid=84927b9a-2333-4c99-89e5-992fa2086a58","ios":"levelo://app?vid=84927b9a-2333-4c99-89e5-992fa2086a58"},"vehicle_type_id":"4","last_reported":1731673087,"current_range_meters":39200,"station_id":"ce4bhl12rcd13ifvqgf0","pricing_plan_id":"cebpf4jnsgd1na2vs0mg"},{"bike_id":"63e8fc0a-c102-4d53-a0f6-391d803413b0","system_id":"levelo_inurba_marseille","lat":43.29863,"lon":5.38907,"is_reserved":false,"is_disabled":false,"rental_uris":{"android":"levelo://app?vid=63e8fc0a-c102-4d53-a0f6-391d803413b0","ios":"levelo://app?vid=63e8fc0a-c102-4d53-a0f6-391d803413b0"},"vehicle_type_id":"4","last_reported":1731673087,"current_range_meters":37600,"station_id":"ce4bh392rcd13ifvqdl0","pricing_plan_id":"cebpf4jnsgd1na2vs0mg"},{"bike_id":"248efcef-cf22-4022-8d08-ec6a773c5dcd","system_id":"levelo_inurba_marseille","lat":43.27815,"lon":5.40715,"is_reserved":false,"is_disabled":false,"rental_uris":{"android":"levelo://app?vid=248efcef-cf22-4022-8d08-ec6a773c5dcd","ios":"levelo://app?vid=248efcef-cf22-4022-8d08-ec6a773c5dcd"},"vehicle_type_id":"4","last_reported":1731673087,"current_range_meters":25200,"station_id":"ce4bhnh2rcd13ifvqgtg","pricing_plan_id":"cebpf4jnsgd1na2vs0mg"},{"bike_id":"6ae7bea2-e357-4478-a0f9-74c3626f2f01","system_id":"levelo_inurba_marseille","lat":43.30177,"lon":5.36619,"is_reserved":false,"is_disabled":false,"rental_uris":{"android":"levelo://app?vid=6ae7bea2-e357-4478-a0f9-74c3626f2f01","ios":"levelo://app?vid=6ae7bea2-e357-4478-a0f9-74c3626f2f01"},"vehicle_type_id":"4","last_reported":1731673087,"current_range_meters":16400,"station_id":"ce4bgrh2rcd13ifvqc8g","pricing_plan_id":"cebpf4jnsgd1na2vs0mg"},{"bike_id":"0a57fa9f-2e55-46e8-867f-1fda3c624d9e","system_id":"levelo_inurba_marseille","lat":43.29617,"lon":5.37147,"is_reserved":false,"is_disabled":false,"rental_uris":{"android":"levelo://app?vid=0a57fa9f-2e55-46e8-867f-1fda3c624d9e","ios":"levelo://app?vid=0a57fa9f-2e55-46e8-867f-1fda3c624d9e"},"vehicle_type_id":"4","last_reported":1731673087,"current_range_meters":5600,"station_id":"ce4bgnh2rcd13ifvqc0g","pricing_plan_id":"cebpf4jnsgd1na2vs0mg"},{"bike_id":"4a74f469-1d99-48ee-a8ca-9199898c00a4","system_id":"levelo_inurba_marseille","lat":43.23197,"lon":5.35547,"is_reserved":false,"is_disabled":false,"rental_uris":{"android":"levelo://app?vid=4a74f469-1d99-48ee-a8ca-9199898c00a4","ios":"levelo://app?vid=4a74f469-1d99-48ee-a8ca-9199898c00a4"},"vehicle_type_id":"4","last_reported":1731673087,"current_range_meters":16000,"station_id":"ce4bhu92rcd13ifvqi70","pricing_plan_id":"cebpf4jnsgd1na2vs0mg"},{"bike_id":"936e0717-ace6-4069-a95c-7a587656a73f","system_id":"levelo_inurba_marseille","lat":43.30599,"lon":5.3936,"is_reserved":false,"is_disabled":false,"rental_uris":{"android":"levelo://app?vid=936e0717-ace6-4069-a95c-7a587656a73f","ios":"levelo://app?vid=936e0717-ace6-4069-a95c-7a587656a73f"},"vehicle_type_id":"4","last_reported":1731673087,"current_range_meters":37600,"station_id":"ce4bh0p2rcd13ifvqd80","pricing_plan_id":"cebpf4jnsgd1na2vs0mg"},{"bike_id":"20126e28-88db-4ba5-a199-1a1be2973dd8","system_id":"levelo_inurba_marseille","lat":43.292511,"lon":5.383951,"is_reserved":false,"is_disabled":false,"rental_uris":{"android":"levelo://app?vid=20126e28-88db-4ba5-a199-1a1be2973dd8","ios":"levelo://app?vid=20126e28-88db-4ba5-a199-1a1be2973dd8"},"vehicle_type_id":"4","last_reported":1731673087,"current_range_meters":30800,"station_id":"ce4bh692rcd13ifvqea0","pricing_plan_id":"cebpf4jnsgd1na2vs0mg"},{"bike_id":"ad90e739-0a27-4799-866e-18492760e810","system_id":"levelo_inurba_marseille","lat":43.24388,"lon":5.3706,"is_reserved":false,"is_disabled":false,"rental_uris":{"android":"levelo://app?vid=ad90e739-0a27-4799-866e-18492760e810","ios":"levelo://app?vid=ad90e739-0a27-4799-866e-18492760e810"},"vehicle_type_id":"4","last_reported":1731673087,"current_range_meters":25600,"station_id":"ce4bhhh2rcd13ifvqfk0","pricing_plan_id":"cebpf4jnsgd1na2vs0mg"},{"bike_id":"8885d62c-9dfa-4505-84b8-7c71fe2b4650","system_id":"levelo_inurba_marseille","lat":43.29845,"lon":5.36283,"is_reserved":false,"is_disabled":false,"rental_uris":{"android":"levelo://app?vid=8885d62c-9dfa-4505-84b8-7c71fe2b4650","ios":"levelo://app?vid=8885d62c-9dfa-4505-84b8-7c71fe2b4650"},"vehicle_type_id":"4","last_reported":1731673087,"current_range_meters":13600,"station_id":"ce4bgpp2rcd13ifvqc3g","pricing_plan_id":"cebpf4jnsgd1na2vs0mg"},{"bike_id":"e297c16a-5b5b-42b0-a5e7-4340b3af961d","system_id":"levelo_inurba_marseille","lat":43.248,"lon":5.37454,"is_reserved":false,"is_disabled":false,"rental_uris":{"android":"levelo://app?vid=e297c16a-5b5b-42b0-a5e7-4340b3af961d","ios":"levelo://app?vid=e297c16a-5b5b-42b0-a5e7-4340b3af961d"},"vehicle_type_id":"4","last_reported":1731673087,"current_range_meters":34000,"station_id":"ce4bhgh2rcd13ifvqfb0","pricing_plan_id":"cebpf4jnsgd1na2vs0mg"},{"bike_id":"714a9d2c-0399-450d-ae79-ecac2f4eb4b4","system_id":"levelo_inurba_marseille","lat":43.30136,"lon":5.38779,"is_reserved":false,"is_disabled":false,"rental_uris":{"android":"levelo://app?vid=714a9d2c-0399-450d-ae79-ecac2f4eb4b4","ios":"levelo://app?vid=714a9d2c-0399-450d-ae79-ecac2f4eb4b4"},"vehicle_type_id":"4","last_reported":1731673087,"current_range_meters":39200,"station_id":"ce4bghh2rcd13ifvqb60","pricing_plan_id":"cebpf4jnsgd1na2vs0mg"},{"bike_id":"fdd66fdb-8848-40c8-a31d-5dc225534af9","system_id":"levelo_inurba_marseille","lat":43.30462,"lon":5.37911,"is_reserved":false,"is_disabled":false,"rental_uris":{"android":"levelo://app?vid=fdd66fdb-8848-40c8-a31d-5dc225534af9","ios":"levelo://app?vid=fdd66fdb-8848-40c8-a31d-5dc225534af9"},"vehicle_type_id":"4","last_reported":1731673087,"current_range_meters":36400,"station_id":"ce4bgup2rcd13ifvqcn0","pricing_plan_id":"cebpf4jnsgd1na2vs0mg"},{"bike_id":"34894f31-0d58-4b99-bedf-fbccfa834d04","system_id":"levelo_inurba_marseille","lat":43.24083,"lon":5.37731,"is_reserved":false,"is_disabled":false,"rental_uris":{"android":"levelo://app?vid=34894f31-0d58-4b99-bedf-fbccfa834d04","ios":"levelo://app?vid=34894f31-0d58-4b99-bedf-fbccfa834d04"},"vehicle_type_id":"4","last_reported":1731673087,"current_range_meters":35600,"station_id":"ce4bhnp2rcd13ifvqgvg","pricing_plan_id":"cebpf4jnsgd1na2vs0mg"},{"bike_id":"a8644247-e2af-4432-907e-f49e7c5af695","system_id":"levelo_inurba_marseille","lat":43.30587,"lon":5.39353,"is_reserved":false,"is_disabled":false,"rental_uris":{"android":"levelo://app?vid=a8644247-e2af-4432-907e-f49e7c5af695","ios":"levelo://app?vid=a8644247-e2af-4432-907e-f49e7c5af695"},"vehicle_type_id":"4","last_reported":1731673087,"current_range_meters":38800,"station_id":"ce4bh0p2rcd13ifvqd80","pricing_plan_id":"cebpf4jnsgd1na2vs0mg"},{"bike_id":"95e1cf81-73c8-437b-9db6-f5a0ac8688c0","system_id":"levelo_inurba_marseille","lat":43.27165,"lon":5.40994,"is_reserved":false,"is_disabled":false,"rental_uris":{"android":"levelo://app?vid=95e1cf81-73c8-437b-9db6-f5a0ac8688c0","ios":"levelo://app?vid=95e1cf81-73c8-437b-9db6-f5a0ac8688c0"},"vehicle_type_id":"4","last_reported":1731673087,"current_range_meters":18000,"station_id":"ce4bhl12rcd13ifvqgf0","pricing_plan_id":"cebpf4jnsgd1na2vs0mg"},{"bike_id":"7ec75aee-5f83-49ca-b236-8c344fe9f9d5","system_id":"levelo_inurba_marseille","lat":43.3414,"lon":5.40902,"is_reserved":false,"is_disabled":false,"rental_uris":{"android":"levelo://app?vid=7ec75aee-5f83-49ca-b236-8c344fe9f9d5","ios":"levelo://app?vid=7ec75aee-5f83-49ca-b236-8c344fe9f9d5"},"vehicle_type_id":"4","last_reported":1731673087,"current_range_meters":24800,"station_id":"ce4bhqh2rcd13ifvqhlg","pricing_plan_id":"cebpf4jnsgd1na2vs0mg"},{"bike_id":"0dd5c336-8bf7-409f-a046-4f44d557e694","system_id":"levelo_inurba_marseille","lat":43.33715,"lon":5.39179,"is_reserved":false,"is_disabled":false,"rental_uris":{"android":"levelo://app?vid=0dd5c336-8bf7-409f-a046-4f44d557e694","ios":"levelo://app?vid=0dd5c336-8bf7-409f-a046-4f44d557e694"},"vehicle_type_id":"4","last_reported":1731673087,"current_range_meters":39200,"station_id":"ce4bhr92rcd13ifvqhsg","pricing_plan_id":"cebpf4jnsgd1na2vs0mg"},{"bike_id":"e31bbb8e-c85d-41f4-b6b3-10d1aa98a957","system_id":"levelo_inurba_marseille","lat":43.28267,"lon":5.35069,"is_reserved":false,"is_disabled":false,"rental_uris":{"android":"levelo://app?vid=e31bbb8e-c85d-41f4-b6b3-10d1aa98a957","ios":"levelo://app?vid=e31bbb8e-c85d-41f4-b6b3-10d1aa98a957"},"vehicle_type_id":"4","last_reported":1731673087,"current_range_meters":34800,"station_id":"ce4bhbp2rcd13ifvqerg","pricing_plan_id":"cebpf4jnsgd1na2vs0mg"},{"bike_id":"4d28ebeb-b071-40be-83ae-a72c38016b9c","system_id":"levelo_inurba_marseille","lat":43.24651,"lon":5.38903,"is_reserved":false,"is_disabled":false,"rental_uris":{"android":"levelo://app?vid=4d28ebeb-b071-40be-83ae-a72c38016b9c","ios":"levelo://app?vid=4d28ebeb-b071-40be-83ae-a72c38016b9c"},"vehicle_type_id":"4","last_reported":1731673087,"current_range_meters":38800,"station_id":"ce4bhg12rcd13ifvqf60","pricing_plan_id":"cebpf4jnsgd1na2vs0mg"},{"bike_id":"631284bc-ca79-4566-a19e-c81968ea3fef","system_id":"levelo_inurba_marseille","lat":43.26682,"lon":5.38273,"is_reserved":false,"is_disabled":false,"rental_uris":{"android":"levelo://app?vid=631284bc-ca79-4566-a19e-c81968ea3fef","ios":"levelo://app?vid=631284bc-ca79-4566-a19e-c81968ea3fef"},"vehicle_type_id":"4","last_reported":1731673087,"current_range_meters":30000,"station_id":"ce4bhg92rcd13ifvqf90","pricing_plan_id":"cebpf4jnsgd1na2vs0mg"},{"bike_id":"7857af21-8d4b-431a-a0af-a6cbd0cfd56f","system_id":"levelo_inurba_marseille","lat":43.31222,"lon":5.36859,"is_reserved":false,"is_disabled":false,"rental_uris":{"android":"levelo://app?vid=7857af21-8d4b-431a-a0af-a6cbd0cfd56f","ios":"levelo://app?vid=7857af21-8d4b-431a-a0af-a6cbd0cfd56f"},"vehicle_type_id":"4","last_reported":1731673087,"current_range_meters":38400,"station_id":"ce4bgl92rcd13ifvqbq0","pricing_plan_id":"cebpf4jnsgd1na2vs0mg"},{"bike_id":"913a4160-2863-4466-8491-0f2d64cb513c","system_id":"levelo_inurba_marseille","lat":43.28152,"lon":5.42638,"is_reserved":false,"is_disabled":false,"rental_uris":{"android":"levelo://app?vid=913a4160-2863-4466-8491-0f2d64cb513c","ios":"levelo://app?vid=913a4160-2863-4466-8491-0f2d64cb513c"},"vehicle_type_id":"4","last_reported":1731673087,"current_range_meters":36800,"station_id":"ce4bhnh2rcd13ifvqgug","pricing_plan_id":"cebpf4jnsgd1na2vs0mg"},{"bike_id":"110d9b4f-0fe2-4924-8f83-23c58cd908c5","system_id":"levelo_inurba_marseille","lat":43.31492,"lon":5.37308,"is_reserved":false,"is_disabled":false,"rental_uris":{"android":"levelo://app?vid=110d9b4f-0fe2-4924-8f83-23c58cd908c5","ios":"levelo://app?vid=110d9b4f-0fe2-4924-8f83-23c58cd908c5"},"vehicle_type_id":"4","last_reported":1731673087,"current_range_meters":4400,"station_id":"ce4bgt12rcd13ifvqcd0","pricing_plan_id":"cebpf4jnsgd1na2vs0mg"},{"bike_id":"9f87ff3e-d2be-4ec8-96e1-0661ed74dd03","system_id":"levelo_inurba_marseille","lat":43.29189,"lon":5.35801,"is_reserved":false,"is_disabled":false,"rental_uris":{"android":"levelo://app?vid=9f87ff3e-d2be-4ec8-96e1-0661ed74dd03","ios":"levelo://app?vid=9f87ff3e-d2be-4ec8-96e1-0661ed74dd03"},"vehicle_type_id":"4","last_reported":1731673087,"current_range_meters":16800,"station_id":"ce4bhb12rcd13ifvqel0","pricing_plan_id":"cebpf4jnsgd1na2vs0mg"},{"bike_id":"239b9a8c-221e-4921-b0cd-84f850ec8210","system_id":"levelo_inurba_marseille","lat":43.24076,"lon":5.37756,"is_reserved":false,"is_disabled":false,"rental_uris":{"android":"levelo://app?vid=239b9a8c-221e-4921-b0cd-84f850ec8210","ios":"levelo://app?vid=239b9a8c-221e-4921-b0cd-84f850ec8210"},"vehicle_type_id":"4","last_reported":1731673087,"current_range_meters":19200,"station_id":"ce4bhnp2rcd13ifvqgvg","pricing_plan_id":"cebpf4jnsgd1na2vs0mg"},{"bike_id":"8c5a1ea1-aabe-4daf-8645-b48b0e9ea4b5","system_id":"levelo_inurba_marseille","lat":43.28415,"lon":5.34978,"is_reserved":false,"is_disabled":false,"rental_uris":{"android":"levelo://app?vid=8c5a1ea1-aabe-4daf-8645-b48b0e9ea4b5","ios":"levelo://app?vid=8c5a1ea1-aabe-4daf-8645-b48b0e9ea4b5"},"vehicle_type_id":"4","last_reported":1731673087,"current_range_meters":29600,"station_id":"ce4bhbh2rcd13ifvqepg","pricing_plan_id":"cebpf4jnsgd1na2vs0mg"},{"bike_id":"ca9f702c-9986-42c3-b854-004fdec5eed9","system_id":"levelo_inurba_marseille","lat":43.24182,"lon":5.39723,"is_reserved":false,"is_disabled":false,"rental_uris":{"android":"levelo://app?vid=ca9f702c-9986-42c3-b854-004fdec5eed9","ios":"levelo://app?vid=ca9f702c-9986-42c3-b854-004fdec5eed9"},"vehicle_type_id":"4","last_reported":1731673087,"current_range_meters":36800,"station_id":"ce4bhn12rcd13ifvqgpg","pricing_plan_id":"cebpf4jnsgd1na2vs0mg"},{"bike_id":"2c760110-662f-4535-a828-a1c8767902a0","system_id":"levelo_inurba_marseille","lat":43.25579,"lon":5.38231,"is_reserved":false,"is_disabled":false,"rental_uris":{"android":"levelo://app?vid=2c760110-662f-4535-a828-a1c8767902a0","ios":"levelo://app?vid=2c760110-662f-4535-a828-a1c8767902a0"},"vehicle_type_id":"4","last_reported":1731673087,"current_range_meters":24000,"station_id":"ce4bhih2rcd13ifvqfs0","pricing_plan_id":"cebpf4jnsgd1na2vs0mg"},{"bike_id":"10e31298-7ef0-4047-a905-d4452af3264e","system_id":"levelo_inurba_marseille","lat":43.24994,"lon":5.38935,"is_reserved":false,"is_disabled":false,"rental_uris":{"android":"levelo://app?vid=10e31298-7ef0-4047-a905-d4452af3264e","ios":"levelo://app?vid=10e31298-7ef0-4047-a905-d4452af3264e"},"vehicle_type_id":"4","last_reported":1731673087,"current_range_meters":32800,"station_id":"ce4bhgp2rcd13ifvqfd0","pricing_plan_id":"cebpf4jnsgd1na2vs0mg"},{"bike_id":"6b8eba9e-251e-401f-9b82-4a96d08ef40f","system_id":"levelo_inurba_marseille","lat":43.33023,"lon":5.39039,"is_reserved":false,"is_disabled":false,"rental_uris":{"android":"levelo://app?vid=6b8eba9e-251e-401f-9b82-4a96d08ef40f","ios":"levelo://app?vid=6b8eba9e-251e-401f-9b82-4a96d08ef40f"},"vehicle_type_id":"4","last_reported":1731673087,"current_range_meters":24000,"station_id":"ce4bhr92rcd13ifvqhrg","pricing_plan_id":"cebpf4jnsgd1na2vs0mg"},{"bike_id":"3a89ec44-1c0c-4589-9cdf-fedc997f57ba","system_id":"levelo_inurba_marseille","lat":43.26937,"lon":5.38634,"is_reserved":false,"is_disabled":false,"rental_uris":{"android":"levelo://app?vid=3a89ec44-1c0c-4589-9cdf-fedc997f57ba","ios":"levelo://app?vid=3a89ec44-1c0c-4589-9cdf-fedc997f57ba"},"vehicle_type_id":"4","last_reported":1731673087,"current_range_meters":19600,"station_id":"ce4bhh92rcd13ifvqfh0","pricing_plan_id":"cebpf4jnsgd1na2vs0mg"},{"bike_id":"f86a601e-26e3-440e-a7e5-894f75bad9f4","system_id":"levelo_inurba_marseille","lat":43.337444,"lon":5.374475,"is_reserved":false,"is_disabled":false,"rental_uris":{"android":"levelo://app?vid=f86a601e-26e3-440e-a7e5-894f75bad9f4","ios":"levelo://app?vid=f86a601e-26e3-440e-a7e5-894f75bad9f4"},"vehicle_type_id":"4","last_reported":1731673087,"current_range_meters":23200,"station_id":"","pricing_plan_id":"cebpf4jnsgd1na2vs0mg"},{"bike_id":"57b0b602-e340-41f0-bfc3-de042711c920","system_id":"levelo_inurba_marseille","lat":43.29791,"lon":5.38104,"is_reserved":false,"is_disabled":false,"rental_uris":{"android":"levelo://app?vid=57b0b602-e340-41f0-bfc3-de042711c920","ios":"levelo://app?vid=57b0b602-e340-41f0-bfc3-de042711c920"},"vehicle_type_id":"4","last_reported":1731673087,"current_range_meters":30000,"station_id":"ce4bgip2rcd13ifvqbb0","pricing_plan_id":"cebpf4jnsgd1na2vs0mg"},{"bike_id":"ad320854-5fda-483f-b0db-06df4495806e","system_id":"levelo_inurba_marseille","lat":43.30921,"lon":5.40151,"is_reserved":false,"is_disabled":false,"rental_uris":{"android":"levelo://app?vid=ad320854-5fda-483f-b0db-06df4495806e","ios":"levelo://app?vid=ad320854-5fda-483f-b0db-06df4495806e"},"vehicle_type_id":"4","last_reported":1731673087,"current_range_meters":38800,"station_id":"ce4bgvp2rcd13ifvqct0","pricing_plan_id":"cebpf4jnsgd1na2vs0mg"},{"bike_id":"89286550-47fc-4fda-a7df-527680815ae7","system_id":"levelo_inurba_marseille","lat":43.24073,"lon":5.37761,"is_reserved":false,"is_disabled":false,"rental_uris":{"android":"levelo://app?vid=89286550-47fc-4fda-a7df-527680815ae7","ios":"levelo://app?vid=89286550-47fc-4fda-a7df-527680815ae7"},"vehicle_type_id":"4","last_reported":1731673087,"current_range_meters":13600,"station_id":"ce4bhnp2rcd13ifvqgvg","pricing_plan_id":"cebpf4jnsgd1na2vs0mg"},{"bike_id":"8287dfcd-8b3a-41c8-b8dd-26ff349f495c","system_id":"levelo_inurba_marseille","lat":43.29092,"lon":5.38148,"is_reserved":false,"is_disabled":false,"rental_uris":{"android":"levelo://app?vid=8287dfcd-8b3a-41c8-b8dd-26ff349f495c","ios":"levelo://app?vid=8287dfcd-8b3a-41c8-b8dd-26ff349f495c"},"vehicle_type_id":"4","last_reported":1731673087,"current_range_meters":3200,"station_id":"ce4bh512rcd13ifvqe2g","pricing_plan_id":"cebpf4jnsgd1na2vs0mg"},{"bike_id":"d0f6f75c-4490-4a54-be6f-c8cc30a85fb2","system_id":"levelo_inurba_marseille","lat":43.33745,"lon":5.37442,"is_reserved":false,"is_disabled":false,"rental_uris":{"android":"levelo://app?vid=d0f6f75c-4490-4a54-be6f-c8cc30a85fb2","ios":"levelo://app?vid=d0f6f75c-4490-4a54-be6f-c8cc30a85fb2"},"vehicle_type_id":"4","last_reported":1731673087,"current_range_meters":33200,"station_id":"","pricing_plan_id":"cebpf4jnsgd1na2vs0mg"},{"bike_id":"29cd711e-d31b-4021-887a-3ac318844a37","system_id":"levelo_inurba_marseille","lat":43.31495,"lon":5.37309,"is_reserved":false,"is_disabled":false,"rental_uris":{"android":"levelo://app?vid=29cd711e-d31b-4021-887a-3ac318844a37","ios":"levelo://app?vid=29cd711e-d31b-4021-887a-3ac318844a37"},"vehicle_type_id":"4","last_reported":1731673087,"current_range_meters":30800,"station_id":"ce4bgt12rcd13ifvqcd0","pricing_plan_id":"cebpf4jnsgd1na2vs0mg"},{"bike_id":"8128a15f-06f1-418b-9409-8569c9f9d99d","system_id":"levelo_inurba_marseille","lat":43.25076,"lon":5.39507,"is_reserved":false,"is_disabled":false,"rental_uris":{"android":"levelo://app?vid=8128a15f-06f1-418b-9409-8569c9f9d99d","ios":"levelo://app?vid=8128a15f-06f1-418b-9409-8569c9f9d99d"},"vehicle_type_id":"4","last_reported":1731673087,"current_range_meters":23200,"station_id":"ce4bhm12rcd13ifvqgkg","pricing_plan_id":"cebpf4jnsgd1na2vs0mg"},{"bike_id":"1fb2fc96-b341-4673-a8a9-e6db2f933915","system_id":"levelo_inurba_marseille","lat":43.3092,"lon":5.40143,"is_reserved":false,"is_disabled":false,"rental_uris":{"android":"levelo://app?vid=1fb2fc96-b341-4673-a8a9-e6db2f933915","ios":"levelo://app?vid=1fb2fc96-b341-4673-a8a9-e6db2f933915"},"vehicle_type_id":"4","last_reported":1731673087,"current_range_meters":38800,"station_id":"ce4bgvp2rcd13ifvqct0","pricing_plan_id":"cebpf4jnsgd1na2vs0mg"},{"bike_id":"e398be40-7fc3-449a-a4e4-e5a1a6f5fd55","system_id":"levelo_inurba_marseille","lat":43.30899,"lon":5.3719,"is_reserved":false,"is_disabled":false,"rental_uris":{"android":"levelo://app?vid=e398be40-7fc3-449a-a4e4-e5a1a6f5fd55","ios":"levelo://app?vid=e398be40-7fc3-449a-a4e4-e5a1a6f5fd55"},"vehicle_type_id":"4","last_reported":1731673087,"current_range_meters":36800,"station_id":"ce4bguh2rcd13ifvqckg","pricing_plan_id":"cebpf4jnsgd1na2vs0mg"},{"bike_id":"ab2dcc12-25db-46d4-a3a0-d74b64284f46","system_id":"levelo_inurba_marseille","lat":43.289421,"lon":5.366284,"is_reserved":false,"is_disabled":false,"rental_uris":{"android":"levelo://app?vid=ab2dcc12-25db-46d4-a3a0-d74b64284f46","ios":"levelo://app?vid=ab2dcc12-25db-46d4-a3a0-d74b64284f46"},"vehicle_type_id":"4","last_reported":1731673087,"current_range_meters":22000,"station_id":"","pricing_plan_id":"cebpf4jnsgd1na2vs0mg"},{"bike_id":"35bf5b8c-b02e-48d0-b37e-ca442ff453bc","system_id":"levelo_inurba_marseille","lat":43.31358,"lon":5.38492,"is_reserved":false,"is_disabled":false,"rental_uris":{"android":"levelo://app?vid=35bf5b8c-b02e-48d0-b37e-ca442ff453bc","ios":"levelo://app?vid=35bf5b8c-b02e-48d0-b37e-ca442ff453bc"},"vehicle_type_id":"4","last_reported":1731673087,"current_range_meters":17200,"station_id":"ce4bgt92rcd13ifvqcf0","pricing_plan_id":"cebpf4jnsgd1na2vs0mg"},{"bike_id":"a5f67423-1c0d-4f7d-b72b-eb0084d8161c","system_id":"levelo_inurba_marseille","lat":43.33021,"lon":5.39041,"is_reserved":false,"is_disabled":false,"rental_uris":{"android":"levelo://app?vid=a5f67423-1c0d-4f7d-b72b-eb0084d8161c","ios":"levelo://app?vid=a5f67423-1c0d-4f7d-b72b-eb0084d8161c"},"vehicle_type_id":"4","last_reported":1731673087,"current_range_meters":25600,"station_id":"ce4bhr92rcd13ifvqhrg","pricing_plan_id":"cebpf4jnsgd1na2vs0mg"},{"bike_id":"edb0828f-6657-46bf-b880-771737fdbf49","system_id":"levelo_inurba_marseille","lat":43.30186,"lon":5.36609,"is_reserved":false,"is_disabled":false,"rental_uris":{"android":"levelo://app?vid=edb0828f-6657-46bf-b880-771737fdbf49","ios":"levelo://app?vid=edb0828f-6657-46bf-b880-771737fdbf49"},"vehicle_type_id":"4","last_reported":1731673087,"current_range_meters":32400,"station_id":"ce4bgrh2rcd13ifvqc8g","pricing_plan_id":"cebpf4jnsgd1na2vs0mg"},{"bike_id":"a94a72ad-d279-4bee-85f1-6c8142969e68","system_id":"levelo_inurba_marseille","lat":43.26214,"lon":5.37441,"is_reserved":false,"is_disabled":false,"rental_uris":{"android":"levelo://app?vid=a94a72ad-d279-4bee-85f1-6c8142969e68","ios":"levelo://app?vid=a94a72ad-d279-4bee-85f1-6c8142969e68"},"vehicle_type_id":"4","last_reported":1731673087,"current_range_meters":11600,"station_id":"ce4bhgp2rcd13ifvqfc0","pricing_plan_id":"cebpf4jnsgd1na2vs0mg"},{"bike_id":"f8e5f5a7-dc6c-47f1-811e-3e7471623367","system_id":"levelo_inurba_marseille","lat":43.24805,"lon":5.37456,"is_reserved":false,"is_disabled":false,"rental_uris":{"android":"levelo://app?vid=f8e5f5a7-dc6c-47f1-811e-3e7471623367","ios":"levelo://app?vid=f8e5f5a7-dc6c-47f1-811e-3e7471623367"},"vehicle_type_id":"4","last_reported":1731673087,"current_range_meters":37600,"station_id":"ce4bhgh2rcd13ifvqfb0","pricing_plan_id":"cebpf4jnsgd1na2vs0mg"},{"bike_id":"37a416a7-43d5-4957-92d6-f5f64f47d942","system_id":"levelo_inurba_marseille","lat":43.24542,"lon":5.39516,"is_reserved":false,"is_disabled":false,"rental_uris":{"android":"levelo://app?vid=37a416a7-43d5-4957-92d6-f5f64f47d942","ios":"levelo://app?vid=37a416a7-43d5-4957-92d6-f5f64f47d942"},"vehicle_type_id":"4","last_reported":1731673087,"current_range_meters":37600,"station_id":"ce4bhlp2rcd13ifvqgjg","pricing_plan_id":"cebpf4jnsgd1na2vs0mg"},{"bike_id":"19450450-d545-4d4f-86be-55978fc095ac","system_id":"levelo_inurba_marseille","lat":43.249473,"lon":5.388835,"is_reserved":false,"is_disabled":false,"rental_uris":{"android":"levelo://app?vid=19450450-d545-4d4f-86be-55978fc095ac","ios":"levelo://app?vid=19450450-d545-4d4f-86be-55978fc095ac"},"vehicle_type_id":"4","last_reported":1731673087,"current_range_meters":7200,"station_id":"ce4bhgp2rcd13ifvqfd0","pricing_plan_id":"cebpf4jnsgd1na2vs0mg"},{"bike_id":"1e8cec2f-8e3b-41d0-b74f-a9e52ce4804f","system_id":"levelo_inurba_marseille","lat":43.30597,"lon":5.39361,"is_reserved":false,"is_disabled":false,"rental_uris":{"android":"levelo://app?vid=1e8cec2f-8e3b-41d0-b74f-a9e52ce4804f","ios":"levelo://app?vid=1e8cec2f-8e3b-41d0-b74f-a9e52ce4804f"},"vehicle_type_id":"4","last_reported":1731673087,"current_range_meters":28800,"station_id":"ce4bh0p2rcd13ifvqd80","pricing_plan_id":"cebpf4jnsgd1na2vs0mg"},{"bike_id":"61f128b0-0ea7-4b89-a7a4-ce1085bcbb52","system_id":"levelo_inurba_marseille","lat":43.2952,"lon":5.39403,"is_reserved":false,"is_disabled":false,"rental_uris":{"android":"levelo://app?vid=61f128b0-0ea7-4b89-a7a4-ce1085bcbb52","ios":"levelo://app?vid=61f128b0-0ea7-4b89-a7a4-ce1085bcbb52"},"vehicle_type_id":"4","last_reported":1731673087,"current_range_meters":18800,"station_id":"ce4bh292rcd13ifvqdf0","pricing_plan_id":"cebpf4jnsgd1na2vs0mg"},{"bike_id":"98d248a2-65e9-45e6-a0e5-ded316c191c1","system_id":"levelo_inurba_marseille","lat":43.24385,"lon":5.37061,"is_reserved":false,"is_disabled":false,"rental_uris":{"android":"levelo://app?vid=98d248a2-65e9-45e6-a0e5-ded316c191c1","ios":"levelo://app?vid=98d248a2-65e9-45e6-a0e5-ded316c191c1"},"vehicle_type_id":"4","last_reported":1731673087,"current_range_meters":36400,"station_id":"ce4bhhh2rcd13ifvqfk0","pricing_plan_id":"cebpf4jnsgd1na2vs0mg"},{"bike_id":"81125fd5-1be7-4f3a-902e-6f5e354a7b9b","system_id":"levelo_inurba_marseille","lat":43.27939,"lon":5.41051,"is_reserved":false,"is_disabled":false,"rental_uris":{"android":"levelo://app?vid=81125fd5-1be7-4f3a-902e-6f5e354a7b9b","ios":"levelo://app?vid=81125fd5-1be7-4f3a-902e-6f5e354a7b9b"},"vehicle_type_id":"4","last_reported":1731673087,"current_range_meters":19600,"station_id":"ce4bhnp2rcd13ifvqh0g","pricing_plan_id":"cebpf4jnsgd1na2vs0mg"},{"bike_id":"92e3ad17-17c9-4714-a148-ef9436ad6113","system_id":"levelo_inurba_marseille","lat":43.22934,"lon":5.35388,"is_reserved":false,"is_disabled":false,"rental_uris":{"android":"levelo://app?vid=92e3ad17-17c9-4714-a148-ef9436ad6113","ios":"levelo://app?vid=92e3ad17-17c9-4714-a148-ef9436ad6113"},"vehicle_type_id":"4","last_reported":1731673087,"current_range_meters":38800,"station_id":"cpo3532slgdg3j2ikp40","pricing_plan_id":"cebpf4jnsgd1na2vs0mg"},{"bike_id":"5326c5f8-bba7-40e6-bfc7-8e986a3bddf3","system_id":"levelo_inurba_marseille","lat":43.31033,"lon":5.37458,"is_reserved":false,"is_disabled":false,"rental_uris":{"android":"levelo://app?vid=5326c5f8-bba7-40e6-bfc7-8e986a3bddf3","ios":"levelo://app?vid=5326c5f8-bba7-40e6-bfc7-8e986a3bddf3"},"vehicle_type_id":"4","last_reported":1731673087,"current_range_meters":22800,"station_id":"ce4bgt12rcd13ifvqcd0","pricing_plan_id":"cebpf4jnsgd1na2vs0mg"},{"bike_id":"381f26fb-769b-4e6f-b659-d6d4b82d0a96","system_id":"levelo_inurba_marseille","lat":43.2894,"lon":5.36641,"is_reserved":false,"is_disabled":false,"rental_uris":{"android":"levelo://app?vid=381f26fb-769b-4e6f-b659-d6d4b82d0a96","ios":"levelo://app?vid=381f26fb-769b-4e6f-b659-d6d4b82d0a96"},"vehicle_type_id":"4","last_reported":1731673087,"current_range_meters":38800,"station_id":"ce4bhap2rcd13ifvqek0","pricing_plan_id":"cebpf4jnsgd1na2vs0mg"},{"bike_id":"b88dbf3e-2a92-40b3-9f51-0b5b9036c021","system_id":"levelo_inurba_marseille","lat":43.28268,"lon":5.35065,"is_reserved":false,"is_disabled":false,"rental_uris":{"android":"levelo://app?vid=b88dbf3e-2a92-40b3-9f51-0b5b9036c021","ios":"levelo://app?vid=b88dbf3e-2a92-40b3-9f51-0b5b9036c021"},"vehicle_type_id":"4","last_reported":1731673087,"current_range_meters":26000,"station_id":"ce4bhbp2rcd13ifvqerg","pricing_plan_id":"cebpf4jnsgd1na2vs0mg"},{"bike_id":"ba0f8a3a-206a-4321-a10c-9f857fbbf60f","system_id":"levelo_inurba_marseille","lat":43.2315,"lon":5.4371,"is_reserved":false,"is_disabled":false,"rental_uris":{"android":"levelo://app?vid=ba0f8a3a-206a-4321-a10c-9f857fbbf60f","ios":"levelo://app?vid=ba0f8a3a-206a-4321-a10c-9f857fbbf60f"},"vehicle_type_id":"4","last_reported":1731673087,"current_range_meters":38800,"station_id":"ce4bhmp2rcd13ifvqgog","pricing_plan_id":"cebpf4jnsgd1na2vs0mg"},{"bike_id":"53d7bcd3-9b91-45ae-a329-82890c3251d9","system_id":"levelo_inurba_marseille","lat":43.26678,"lon":5.38267,"is_reserved":false,"is_disabled":false,"rental_uris":{"android":"levelo://app?vid=53d7bcd3-9b91-45ae-a329-82890c3251d9","ios":"levelo://app?vid=53d7bcd3-9b91-45ae-a329-82890c3251d9"},"vehicle_type_id":"4","last_reported":1731673087,"current_range_meters":9200,"station_id":"ce4bhg92rcd13ifvqf90","pricing_plan_id":"cebpf4jnsgd1na2vs0mg"},{"bike_id":"69112009-8bab-4479-bfeb-d5b69fa249fd","system_id":"levelo_inurba_marseille","lat":43.28697,"lon":5.39978,"is_reserved":false,"is_disabled":false,"rental_uris":{"android":"levelo://app?vid=69112009-8bab-4479-bfeb-d5b69fa249fd","ios":"levelo://app?vid=69112009-8bab-4479-bfeb-d5b69fa249fd"},"vehicle_type_id":"4","last_reported":1731673087,"current_range_meters":22800,"station_id":"ce4bho92rcd13ifvqh3g","pricing_plan_id":"cebpf4jnsgd1na2vs0mg"},{"bike_id":"881eacb7-0ffc-4171-9405-9084fa6720be","system_id":"levelo_inurba_marseille","lat":43.30547,"lon":5.3652,"is_reserved":false,"is_disabled":false,"rental_uris":{"android":"levelo://app?vid=881eacb7-0ffc-4171-9405-9084fa6720be","ios":"levelo://app?vid=881eacb7-0ffc-4171-9405-9084fa6720be"},"vehicle_type_id":"4","last_reported":1731673087,"current_range_meters":30400,"station_id":"ce4bgs12rcd13ifvqcag","pricing_plan_id":"cebpf4jnsgd1na2vs0mg"},{"bike_id":"25214e48-23a2-4eb5-8575-8d26325e272e","system_id":"levelo_inurba_marseille","lat":43.31172,"lon":5.38691,"is_reserved":false,"is_disabled":false,"rental_uris":{"android":"levelo://app?vid=25214e48-23a2-4eb5-8575-8d26325e272e","ios":"levelo://app?vid=25214e48-23a2-4eb5-8575-8d26325e272e"},"vehicle_type_id":"4","last_reported":1731673087,"current_range_meters":38800,"station_id":"ce4bgv12rcd13ifvqcp0","pricing_plan_id":"cebpf4jnsgd1na2vs0mg"},{"bike_id":"05e476e1-bdc8-44d3-b421-c577440b5692","system_id":"levelo_inurba_marseille","lat":43.28848,"lon":5.3585,"is_reserved":false,"is_disabled":false,"rental_uris":{"android":"levelo://app?vid=05e476e1-bdc8-44d3-b421-c577440b5692","ios":"levelo://app?vid=05e476e1-bdc8-44d3-b421-c577440b5692"},"vehicle_type_id":"4","last_reported":1731673087,"current_range_meters":24000,"station_id":"ce4bhb12rcd13ifvqem0","pricing_plan_id":"cebpf4jnsgd1na2vs0mg"},{"bike_id":"f958f471-cf92-436a-bc8d-8e57613d3090","system_id":"levelo_inurba_marseille","lat":43.28429,"lon":5.34986,"is_reserved":false,"is_disabled":false,"rental_uris":{"android":"levelo://app?vid=f958f471-cf92-436a-bc8d-8e57613d3090","ios":"levelo://app?vid=f958f471-cf92-436a-bc8d-8e57613d3090"},"vehicle_type_id":"4","last_reported":1731673087,"current_range_meters":38800,"station_id":"ce4bhbh2rcd13ifvqepg","pricing_plan_id":"cebpf4jnsgd1na2vs0mg"},{"bike_id":"dbea3ea8-80f2-4926-b3f7-81abc2615771","system_id":"levelo_inurba_marseille","lat":43.28269,"lon":5.35073,"is_reserved":false,"is_disabled":false,"rental_uris":{"android":"levelo://app?vid=dbea3ea8-80f2-4926-b3f7-81abc2615771","ios":"levelo://app?vid=dbea3ea8-80f2-4926-b3f7-81abc2615771"},"vehicle_type_id":"4","last_reported":1731673087,"current_range_meters":14000,"station_id":"ce4bhbp2rcd13ifvqerg","pricing_plan_id":"cebpf4jnsgd1na2vs0mg"},{"bike_id":"05e58d7a-1af7-444d-89e4-ce50125837e8","system_id":"levelo_inurba_marseille","lat":43.26063,"lon":5.39397,"is_reserved":false,"is_disabled":false,"rental_uris":{"android":"levelo://app?vid=05e58d7a-1af7-444d-89e4-ce50125837e8","ios":"levelo://app?vid=05e58d7a-1af7-444d-89e4-ce50125837e8"},"vehicle_type_id":"4","last_reported":1731673087,"current_range_meters":5600,"station_id":"ce4bhh92rcd13ifvqfj0","pricing_plan_id":"cebpf4jnsgd1na2vs0mg"},{"bike_id":"76ac9db4-d820-4be7-b39b-aabe620330be","system_id":"levelo_inurba_marseille","lat":43.29372,"lon":5.37846,"is_reserved":false,"is_disabled":false,"rental_uris":{"android":"levelo://app?vid=76ac9db4-d820-4be7-b39b-aabe620330be","ios":"levelo://app?vid=76ac9db4-d820-4be7-b39b-aabe620330be"},"vehicle_type_id":"4","last_reported":1731673087,"current_range_meters":20800,"station_id":"ce4bgjh2rcd13ifvqbf0","pricing_plan_id":"cebpf4jnsgd1na2vs0mg"},{"bike_id":"d4357b6e-382d-42fb-a863-ff7fd5649955","system_id":"levelo_inurba_marseille","lat":43.25005,"lon":5.38927,"is_reserved":false,"is_disabled":false,"rental_uris":{"android":"levelo://app?vid=d4357b6e-382d-42fb-a863-ff7fd5649955","ios":"levelo://app?vid=d4357b6e-382d-42fb-a863-ff7fd5649955"},"vehicle_type_id":"4","last_reported":1731673087,"current_range_meters":38000,"station_id":"ce4bhgp2rcd13ifvqfd0","pricing_plan_id":"cebpf4jnsgd1na2vs0mg"},{"bike_id":"8db07b76-9054-465a-89b4-68d17707961b","system_id":"levelo_inurba_marseille","lat":43.2842,"lon":5.34987,"is_reserved":false,"is_disabled":false,"rental_uris":{"android":"levelo://app?vid=8db07b76-9054-465a-89b4-68d17707961b","ios":"levelo://app?vid=8db07b76-9054-465a-89b4-68d17707961b"},"vehicle_type_id":"4","last_reported":1731673087,"current_range_meters":30800,"station_id":"ce4bhbh2rcd13ifvqepg","pricing_plan_id":"cebpf4jnsgd1na2vs0mg"},{"bike_id":"5e1bd7d8-af07-4262-8b35-79026d118e9e","system_id":"levelo_inurba_marseille","lat":43.29839,"lon":5.36267,"is_reserved":false,"is_disabled":false,"rental_uris":{"android":"levelo://app?vid=5e1bd7d8-af07-4262-8b35-79026d118e9e","ios":"levelo://app?vid=5e1bd7d8-af07-4262-8b35-79026d118e9e"},"vehicle_type_id":"4","last_reported":1731673087,"current_range_meters":19200,"station_id":"ce4bgpp2rcd13ifvqc3g","pricing_plan_id":"cebpf4jnsgd1na2vs0mg"},{"bike_id":"b2d66f69-e21b-4ae1-8b07-122e1d9190ea","system_id":"levelo_inurba_marseille","lat":43.302642,"lon":5.400823,"is_reserved":false,"is_disabled":false,"rental_uris":{"android":"levelo://app?vid=b2d66f69-e21b-4ae1-8b07-122e1d9190ea","ios":"levelo://app?vid=b2d66f69-e21b-4ae1-8b07-122e1d9190ea"},"vehicle_type_id":"4","last_reported":1731673087,"current_range_meters":19200,"station_id":"ce4bgvh2rcd13ifvqcs0","pricing_plan_id":"cebpf4jnsgd1na2vs0mg"},{"bike_id":"1d841003-2bba-4968-b422-8ad3538bb326","system_id":"levelo_inurba_marseille","lat":43.28481,"lon":5.38421,"is_reserved":false,"is_disabled":false,"rental_uris":{"android":"levelo://app?vid=1d841003-2bba-4968-b422-8ad3538bb326","ios":"levelo://app?vid=1d841003-2bba-4968-b422-8ad3538bb326"},"vehicle_type_id":"4","last_reported":1731673087,"current_range_meters":27600,"station_id":"ce4bh512rcd13ifvqe3g","pricing_plan_id":"cebpf4jnsgd1na2vs0mg"},{"bike_id":"99078041-fb9b-4dc5-b992-825def9ee1b6","system_id":"levelo_inurba_marseille","lat":43.31326,"lon":5.39694,"is_reserved":false,"is_disabled":false,"rental_uris":{"android":"levelo://app?vid=99078041-fb9b-4dc5-b992-825def9ee1b6","ios":"levelo://app?vid=99078041-fb9b-4dc5-b992-825def9ee1b6"},"vehicle_type_id":"4","last_reported":1731673087,"current_range_meters":38400,"station_id":"ce4bgvp2rcd13ifvqct0","pricing_plan_id":"cebpf4jnsgd1na2vs0mg"},{"bike_id":"3954dd37-8389-4e48-b138-27e1c188a614","system_id":"levelo_inurba_marseille","lat":43.31225,"lon":5.36865,"is_reserved":false,"is_disabled":false,"rental_uris":{"android":"levelo://app?vid=3954dd37-8389-4e48-b138-27e1c188a614","ios":"levelo://app?vid=3954dd37-8389-4e48-b138-27e1c188a614"},"vehicle_type_id":"4","last_reported":1731673087,"current_range_meters":35600,"station_id":"ce4bgl92rcd13ifvqbq0","pricing_plan_id":"cebpf4jnsgd1na2vs0mg"},{"bike_id":"7e028637-71d1-48d0-ac00-8492356fd09b","system_id":"levelo_inurba_marseille","lat":43.29903,"lon":5.38141,"is_reserved":false,"is_disabled":false,"rental_uris":{"android":"levelo://app?vid=7e028637-71d1-48d0-ac00-8492356fd09b","ios":"levelo://app?vid=7e028637-71d1-48d0-ac00-8492356fd09b"},"vehicle_type_id":"4","last_reported":1731673087,"current_range_meters":38400,"station_id":"ce4bgj12rcd13ifvqbc0","pricing_plan_id":"cebpf4jnsgd1na2vs0mg"},{"bike_id":"08cd1eed-c527-4599-8163-28710983e737","system_id":"levelo_inurba_marseille","lat":43.3047,"lon":5.37922,"is_reserved":false,"is_disabled":false,"rental_uris":{"android":"levelo://app?vid=08cd1eed-c527-4599-8163-28710983e737","ios":"levelo://app?vid=08cd1eed-c527-4599-8163-28710983e737"},"vehicle_type_id":"4","last_reported":1731673087,"current_range_meters":38800,"station_id":"ce4bgup2rcd13ifvqcn0","pricing_plan_id":"cebpf4jnsgd1na2vs0mg"},{"bike_id":"9c09a538-ab29-4eb3-a90f-53fedb4fde44","system_id":"levelo_inurba_marseille","lat":43.27946,"lon":5.41042,"is_reserved":false,"is_disabled":false,"rental_uris":{"android":"levelo://app?vid=9c09a538-ab29-4eb3-a90f-53fedb4fde44","ios":"levelo://app?vid=9c09a538-ab29-4eb3-a90f-53fedb4fde44"},"vehicle_type_id":"4","last_reported":1731673087,"current_range_meters":30800,"station_id":"ce4bhnp2rcd13ifvqh0g","pricing_plan_id":"cebpf4jnsgd1na2vs0mg"},{"bike_id":"0d376041-6662-4c89-bfdd-9f418c411515","system_id":"levelo_inurba_marseille","lat":43.2872,"lon":5.37941,"is_reserved":false,"is_disabled":false,"rental_uris":{"android":"levelo://app?vid=0d376041-6662-4c89-bfdd-9f418c411515","ios":"levelo://app?vid=0d376041-6662-4c89-bfdd-9f418c411515"},"vehicle_type_id":"4","last_reported":1731673087,"current_range_meters":20800,"station_id":"ce4bh9p2rcd13ifvqec0","pricing_plan_id":"cebpf4jnsgd1na2vs0mg"},{"bike_id":"b47cb991-57c8-4ef2-ba6f-88a50e1a1219","system_id":"levelo_inurba_marseille","lat":43.22935,"lon":5.35378,"is_reserved":false,"is_disabled":false,"rental_uris":{"android":"levelo://app?vid=b47cb991-57c8-4ef2-ba6f-88a50e1a1219","ios":"levelo://app?vid=b47cb991-57c8-4ef2-ba6f-88a50e1a1219"},"vehicle_type_id":"4","last_reported":1731673087,"current_range_meters":37600,"station_id":"cpo3532slgdg3j2ikp40","pricing_plan_id":"cebpf4jnsgd1na2vs0mg"},{"bike_id":"1503ca15-7d59-4f33-b480-52ec30140f56","system_id":"levelo_inurba_marseille","lat":43.30593,"lon":5.39363,"is_reserved":false,"is_disabled":false,"rental_uris":{"android":"levelo://app?vid=1503ca15-7d59-4f33-b480-52ec30140f56","ios":"levelo://app?vid=1503ca15-7d59-4f33-b480-52ec30140f56"},"vehicle_type_id":"4","last_reported":1731673087,"current_range_meters":11200,"station_id":"ce4bh0p2rcd13ifvqd80","pricing_plan_id":"cebpf4jnsgd1na2vs0mg"},{"bike_id":"f83756cb-9bcf-41e7-adda-ef1a37c459e2","system_id":"levelo_inurba_marseille","lat":43.26556,"lon":5.37284,"is_reserved":false,"is_disabled":false,"rental_uris":{"android":"levelo://app?vid=f83756cb-9bcf-41e7-adda-ef1a37c459e2","ios":"levelo://app?vid=f83756cb-9bcf-41e7-adda-ef1a37c459e2"},"vehicle_type_id":"4","last_reported":1731673087,"current_range_meters":24400,"station_id":"ce4bhg12rcd13ifvqf70","pricing_plan_id":"cebpf4jnsgd1na2vs0mg"},{"bike_id":"2a54e76e-cd76-4a10-940f-30917d8bcf09","system_id":"levelo_inurba_marseille","lat":43.22938,"lon":5.35374,"is_reserved":false,"is_disabled":false,"rental_uris":{"android":"levelo://app?vid=2a54e76e-cd76-4a10-940f-30917d8bcf09","ios":"levelo://app?vid=2a54e76e-cd76-4a10-940f-30917d8bcf09"},"vehicle_type_id":"4","last_reported":1731673087,"current_range_meters":9600,"station_id":"cpo3532slgdg3j2ikp40","pricing_plan_id":"cebpf4jnsgd1na2vs0mg"},{"bike_id":"69ce68cd-96e3-4273-ba50-f0d82f81944a","system_id":"levelo_inurba_marseille","lat":43.3198,"lon":5.38135,"is_reserved":false,"is_disabled":false,"rental_uris":{"android":"levelo://app?vid=69ce68cd-96e3-4273-ba50-f0d82f81944a","ios":"levelo://app?vid=69ce68cd-96e3-4273-ba50-f0d82f81944a"},"vehicle_type_id":"4","last_reported":1731673087,"current_range_meters":24400,"station_id":"ce4bhr12rcd13ifvqhpg","pricing_plan_id":"cebpf4jnsgd1na2vs0mg"},{"bike_id":"e0bd8e96-3528-49b2-a988-8e523387becf","system_id":"levelo_inurba_marseille","lat":43.284241,"lon":5.34981,"is_reserved":false,"is_disabled":false,"rental_uris":{"android":"levelo://app?vid=e0bd8e96-3528-49b2-a988-8e523387becf","ios":"levelo://app?vid=e0bd8e96-3528-49b2-a988-8e523387becf"},"vehicle_type_id":"4","last_reported":1731673087,"current_range_meters":36400,"station_id":"ce4bhbh2rcd13ifvqepg","pricing_plan_id":"cebpf4jnsgd1na2vs0mg"},{"bike_id":"76fda271-4bcd-4529-8397-8074a1eff7fe","system_id":"levelo_inurba_marseille","lat":43.337444,"lon":5.374475,"is_reserved":false,"is_disabled":false,"rental_uris":{"android":"levelo://app?vid=76fda271-4bcd-4529-8397-8074a1eff7fe","ios":"levelo://app?vid=76fda271-4bcd-4529-8397-8074a1eff7fe"},"vehicle_type_id":"4","last_reported":1731673087,"current_range_meters":38000,"station_id":"","pricing_plan_id":"cebpf4jnsgd1na2vs0mg"},{"bike_id":"bef7ca68-0ccd-456c-a245-4471193ed987","system_id":"levelo_inurba_marseille","lat":43.26059,"lon":5.39393,"is_reserved":false,"is_disabled":false,"rental_uris":{"android":"levelo://app?vid=bef7ca68-0ccd-456c-a245-4471193ed987","ios":"levelo://app?vid=bef7ca68-0ccd-456c-a245-4471193ed987"},"vehicle_type_id":"4","last_reported":1731673087,"current_range_meters":38800,"station_id":"ce4bhh92rcd13ifvqfj0","pricing_plan_id":"cebpf4jnsgd1na2vs0mg"},{"bike_id":"7125cda5-6cac-4f0d-b24c-2d801b2955b5","system_id":"levelo_inurba_marseille","lat":43.23183,"lon":5.39977,"is_reserved":false,"is_disabled":false,"rental_uris":{"android":"levelo://app?vid=7125cda5-6cac-4f0d-b24c-2d801b2955b5","ios":"levelo://app?vid=7125cda5-6cac-4f0d-b24c-2d801b2955b5"},"vehicle_type_id":"4","last_reported":1731673087,"current_range_meters":38800,"station_id":"ce4bhn12rcd13ifvqgqg","pricing_plan_id":"cebpf4jnsgd1na2vs0mg"},{"bike_id":"dfb1c155-9c33-41ea-bd2e-001b74ed945c","system_id":"levelo_inurba_marseille","lat":43.2925,"lon":5.40901,"is_reserved":false,"is_disabled":false,"rental_uris":{"android":"levelo://app?vid=dfb1c155-9c33-41ea-bd2e-001b74ed945c","ios":"levelo://app?vid=dfb1c155-9c33-41ea-bd2e-001b74ed945c"},"vehicle_type_id":"4","last_reported":1731673087,"current_range_meters":3200,"station_id":"ce4bh192rcd13ifvqdc0","pricing_plan_id":"cebpf4jnsgd1na2vs0mg"},{"bike_id":"3d3be252-d33c-4f2e-906d-8e4d2ce79c7e","system_id":"levelo_inurba_marseille","lat":43.29774,"lon":5.37087,"is_reserved":false,"is_disabled":false,"rental_uris":{"android":"levelo://app?vid=3d3be252-d33c-4f2e-906d-8e4d2ce79c7e","ios":"levelo://app?vid=3d3be252-d33c-4f2e-906d-8e4d2ce79c7e"},"vehicle_type_id":"4","last_reported":1731673087,"current_range_meters":32400,"station_id":"ce4bgop2rcd13ifvqc1g","pricing_plan_id":"cebpf4jnsgd1na2vs0mg"},{"bike_id":"6e76a9e0-8652-4b62-9f6b-196c3ab5806d","system_id":"levelo_inurba_marseille","lat":43.28368,"lon":5.38629,"is_reserved":false,"is_disabled":false,"rental_uris":{"android":"levelo://app?vid=6e76a9e0-8652-4b62-9f6b-196c3ab5806d","ios":"levelo://app?vid=6e76a9e0-8652-4b62-9f6b-196c3ab5806d"},"vehicle_type_id":"4","last_reported":1731673087,"current_range_meters":12000,"station_id":"ce4bh492rcd13ifvqdvg","pricing_plan_id":"cebpf4jnsgd1na2vs0mg"},{"bike_id":"f710546f-2098-4f83-8e7a-6cc06384a317","system_id":"levelo_inurba_marseille","lat":43.23149,"lon":5.4372,"is_reserved":false,"is_disabled":false,"rental_uris":{"android":"levelo://app?vid=f710546f-2098-4f83-8e7a-6cc06384a317","ios":"levelo://app?vid=f710546f-2098-4f83-8e7a-6cc06384a317"},"vehicle_type_id":"4","last_reported":1731673087,"current_range_meters":33600,"station_id":"ce4bhmp2rcd13ifvqgog","pricing_plan_id":"cebpf4jnsgd1na2vs0mg"},{"bike_id":"5ca29e12-fde3-4165-9e45-c09a66b01cec","system_id":"levelo_inurba_marseille","lat":43.26968,"lon":5.38698,"is_reserved":false,"is_disabled":false,"rental_uris":{"android":"levelo://app?vid=5ca29e12-fde3-4165-9e45-c09a66b01cec","ios":"levelo://app?vid=5ca29e12-fde3-4165-9e45-c09a66b01cec"},"vehicle_type_id":"4","last_reported":1731673087,"current_range_meters":24000,"station_id":"ce4bhlh2rcd13ifvqgig","pricing_plan_id":"cebpf4jnsgd1na2vs0mg"},{"bike_id":"6d757fef-4f26-43f9-ac2c-ffab39bf7dae","system_id":"levelo_inurba_marseille","lat":43.32249,"lon":5.36901,"is_reserved":false,"is_disabled":false,"rental_uris":{"android":"levelo://app?vid=6d757fef-4f26-43f9-ac2c-ffab39bf7dae","ios":"levelo://app?vid=6d757fef-4f26-43f9-ac2c-ffab39bf7dae"},"vehicle_type_id":"4","last_reported":1731673087,"current_range_meters":24400,"station_id":"","pricing_plan_id":"cebpf4jnsgd1na2vs0mg"},{"bike_id":"e7874830-1f8a-433d-bc9a-f6304f31a0bd","system_id":"levelo_inurba_marseille","lat":43.2837,"lon":5.38637,"is_reserved":false,"is_disabled":false,"rental_uris":{"android":"levelo://app?vid=e7874830-1f8a-433d-bc9a-f6304f31a0bd","ios":"levelo://app?vid=e7874830-1f8a-433d-bc9a-f6304f31a0bd"},"vehicle_type_id":"4","last_reported":1731673087,"current_range_meters":36800,"station_id":"ce4bh492rcd13ifvqdvg","pricing_plan_id":"cebpf4jnsgd1na2vs0mg"},{"bike_id":"367ebc1a-3a60-4487-b9c7-b0d4196f051d","system_id":"levelo_inurba_marseille","lat":43.26214,"lon":5.37441,"is_reserved":false,"is_disabled":false,"rental_uris":{"android":"levelo://app?vid=367ebc1a-3a60-4487-b9c7-b0d4196f051d","ios":"levelo://app?vid=367ebc1a-3a60-4487-b9c7-b0d4196f051d"},"vehicle_type_id":"4","last_reported":1731673087,"current_range_meters":34000,"station_id":"ce4bhgp2rcd13ifvqfc0","pricing_plan_id":"cebpf4jnsgd1na2vs0mg"},{"bike_id":"2ebc919b-91fa-451d-aa51-bfed6b644219","system_id":"levelo_inurba_marseille","lat":43.23151,"lon":5.43724,"is_reserved":false,"is_disabled":false,"rental_uris":{"android":"levelo://app?vid=2ebc919b-91fa-451d-aa51-bfed6b644219","ios":"levelo://app?vid=2ebc919b-91fa-451d-aa51-bfed6b644219"},"vehicle_type_id":"4","last_reported":1731673087,"current_range_meters":39200,"station_id":"ce4bhmp2rcd13ifvqgog","pricing_plan_id":"cebpf4jnsgd1na2vs0mg"},{"bike_id":"7c4936c2-6d33-4024-b439-8b85fc0714c7","system_id":"levelo_inurba_marseille","lat":43.24992,"lon":5.3893,"is_reserved":false,"is_disabled":false,"rental_uris":{"android":"levelo://app?vid=7c4936c2-6d33-4024-b439-8b85fc0714c7","ios":"levelo://app?vid=7c4936c2-6d33-4024-b439-8b85fc0714c7"},"vehicle_type_id":"4","last_reported":1731673087,"current_range_meters":32000,"station_id":"ce4bhgp2rcd13ifvqfd0","pricing_plan_id":"cebpf4jnsgd1na2vs0mg"},{"bike_id":"96558a29-717f-4bbb-b58e-8cdcb4a8ffbb","system_id":"levelo_inurba_marseille","lat":43.23181,"lon":5.39991,"is_reserved":false,"is_disabled":false,"rental_uris":{"android":"levelo://app?vid=96558a29-717f-4bbb-b58e-8cdcb4a8ffbb","ios":"levelo://app?vid=96558a29-717f-4bbb-b58e-8cdcb4a8ffbb"},"vehicle_type_id":"4","last_reported":1731673087,"current_range_meters":6400,"station_id":"ce4bhn12rcd13ifvqgqg","pricing_plan_id":"cebpf4jnsgd1na2vs0mg"},{"bike_id":"fc44437a-578f-4295-9e33-783bdd2626bd","system_id":"levelo_inurba_marseille","lat":43.32364,"lon":5.38881,"is_reserved":false,"is_disabled":false,"rental_uris":{"android":"levelo://app?vid=fc44437a-578f-4295-9e33-783bdd2626bd","ios":"levelo://app?vid=fc44437a-578f-4295-9e33-783bdd2626bd"},"vehicle_type_id":"4","last_reported":1731673087,"current_range_meters":33200,"station_id":"ce4bhqp2rcd13ifvqhog","pricing_plan_id":"cebpf4jnsgd1na2vs0mg"},{"bike_id":"858c964c-9286-411e-b21e-219d3e432e38","system_id":"levelo_inurba_marseille","lat":43.30902,"lon":5.36858,"is_reserved":false,"is_disabled":false,"rental_uris":{"android":"levelo://app?vid=858c964c-9286-411e-b21e-219d3e432e38","ios":"levelo://app?vid=858c964c-9286-411e-b21e-219d3e432e38"},"vehicle_type_id":"4","last_reported":1731673087,"current_range_meters":38800,"station_id":"ce4bgn92rcd13ifvqbvg","pricing_plan_id":"cebpf4jnsgd1na2vs0mg"},{"bike_id":"026259a1-dff4-4245-8deb-aeb3d2e2979d","system_id":"levelo_inurba_marseille","lat":43.24809,"lon":5.37454,"is_reserved":false,"is_disabled":false,"rental_uris":{"android":"levelo://app?vid=026259a1-dff4-4245-8deb-aeb3d2e2979d","ios":"levelo://app?vid=026259a1-dff4-4245-8deb-aeb3d2e2979d"},"vehicle_type_id":"4","last_reported":1731673087,"current_range_meters":25200,"station_id":"ce4bhgh2rcd13ifvqfb0","pricing_plan_id":"cebpf4jnsgd1na2vs0mg"},{"bike_id":"17184015-f85f-47b3-ad9f-f432321f37cd","system_id":"levelo_inurba_marseille","lat":43.300553,"lon":5.389885,"is_reserved":false,"is_disabled":false,"rental_uris":{"android":"levelo://app?vid=17184015-f85f-47b3-ad9f-f432321f37cd","ios":"levelo://app?vid=17184015-f85f-47b3-ad9f-f432321f37cd"},"vehicle_type_id":"4","last_reported":1731673087,"current_range_meters":28400,"station_id":"ce4bh192rcd13ifvqdb0","pricing_plan_id":"cebpf4jnsgd1na2vs0mg"},{"bike_id":"c7b7aa2f-9caa-44af-9de1-b9b18dff6b06","system_id":"levelo_inurba_marseille","lat":43.27174,"lon":5.40991,"is_reserved":false,"is_disabled":false,"rental_uris":{"android":"levelo://app?vid=c7b7aa2f-9caa-44af-9de1-b9b18dff6b06","ios":"levelo://app?vid=c7b7aa2f-9caa-44af-9de1-b9b18dff6b06"},"vehicle_type_id":"4","last_reported":1731673087,"current_range_meters":20800,"station_id":"ce4bhl12rcd13ifvqgf0","pricing_plan_id":"cebpf4jnsgd1na2vs0mg"},{"bike_id":"37a22fc0-d25c-4606-a88d-953e5d774d37","system_id":"levelo_inurba_marseille","lat":43.24406,"lon":5.37072,"is_reserved":false,"is_disabled":false,"rental_uris":{"android":"levelo://app?vid=37a22fc0-d25c-4606-a88d-953e5d774d37","ios":"levelo://app?vid=37a22fc0-d25c-4606-a88d-953e5d774d37"},"vehicle_type_id":"4","last_reported":1731673087,"current_range_meters":15200,"station_id":"ce4bhhh2rcd13ifvqfk0","pricing_plan_id":"cebpf4jnsgd1na2vs0mg"},{"bike_id":"a0418095-5f0d-48f9-8494-e3e5e255a509","system_id":"levelo_inurba_marseille","lat":43.28474,"lon":5.38415,"is_reserved":false,"is_disabled":false,"rental_uris":{"android":"levelo://app?vid=a0418095-5f0d-48f9-8494-e3e5e255a509","ios":"levelo://app?vid=a0418095-5f0d-48f9-8494-e3e5e255a509"},"vehicle_type_id":"4","last_reported":1731673087,"current_range_meters":10000,"station_id":"ce4bh512rcd13ifvqe3g","pricing_plan_id":"cebpf4jnsgd1na2vs0mg"},{"bike_id":"65cb16e2-a473-46d4-aca7-b87538c2057b","system_id":"levelo_inurba_marseille","lat":43.23185,"lon":5.39975,"is_reserved":false,"is_disabled":false,"rental_uris":{"android":"levelo://app?vid=65cb16e2-a473-46d4-aca7-b87538c2057b","ios":"levelo://app?vid=65cb16e2-a473-46d4-aca7-b87538c2057b"},"vehicle_type_id":"4","last_reported":1731673087,"current_range_meters":35200,"station_id":"ce4bhn12rcd13ifvqgqg","pricing_plan_id":"cebpf4jnsgd1na2vs0mg"},{"bike_id":"91be124d-db83-4972-9374-5bf0560fff33","system_id":"levelo_inurba_marseille","lat":43.31488,"lon":5.37308,"is_reserved":false,"is_disabled":false,"rental_uris":{"android":"levelo://app?vid=91be124d-db83-4972-9374-5bf0560fff33","ios":"levelo://app?vid=91be124d-db83-4972-9374-5bf0560fff33"},"vehicle_type_id":"4","last_reported":1731673087,"current_range_meters":6400,"station_id":"ce4bgt12rcd13ifvqcd0","pricing_plan_id":"cebpf4jnsgd1na2vs0mg"},{"bike_id":"a4bf00d0-4ab8-43a7-b1bb-147d36a69d8e","system_id":"levelo_inurba_marseille","lat":43.27809,"lon":5.40712,"is_reserved":false,"is_disabled":false,"rental_uris":{"android":"levelo://app?vid=a4bf00d0-4ab8-43a7-b1bb-147d36a69d8e","ios":"levelo://app?vid=a4bf00d0-4ab8-43a7-b1bb-147d36a69d8e"},"vehicle_type_id":"4","last_reported":1731673087,"current_range_meters":20000,"station_id":"ce4bhnh2rcd13ifvqgtg","pricing_plan_id":"cebpf4jnsgd1na2vs0mg"},{"bike_id":"a42726e4-eba9-4d57-bcac-64b157fda479","system_id":"levelo_inurba_marseille","lat":43.30184,"lon":5.36596,"is_reserved":false,"is_disabled":false,"rental_uris":{"android":"levelo://app?vid=a42726e4-eba9-4d57-bcac-64b157fda479","ios":"levelo://app?vid=a42726e4-eba9-4d57-bcac-64b157fda479"},"vehicle_type_id":"4","last_reported":1731673087,"current_range_meters":33200,"station_id":"ce4bgrh2rcd13ifvqc8g","pricing_plan_id":"cebpf4jnsgd1na2vs0mg"},{"bike_id":"66ca0cf7-6602-4656-9120-8df6cf493841","system_id":"levelo_inurba_marseille","lat":43.29515,"lon":5.37497,"is_reserved":false,"is_disabled":false,"rental_uris":{"android":"levelo://app?vid=66ca0cf7-6602-4656-9120-8df6cf493841","ios":"levelo://app?vid=66ca0cf7-6602-4656-9120-8df6cf493841"},"vehicle_type_id":"4","last_reported":1731673087,"current_range_meters":34000,"station_id":"ce4bgkp2rcd13ifvqbmg","pricing_plan_id":"cebpf4jnsgd1na2vs0mg"},{"bike_id":"9da3edd0-7141-41ba-8b0a-9c841aa9c219","system_id":"levelo_inurba_marseille","lat":43.2781,"lon":5.40711,"is_reserved":false,"is_disabled":false,"rental_uris":{"android":"levelo://app?vid=9da3edd0-7141-41ba-8b0a-9c841aa9c219","ios":"levelo://app?vid=9da3edd0-7141-41ba-8b0a-9c841aa9c219"},"vehicle_type_id":"4","last_reported":1731673087,"current_range_meters":5600,"station_id":"ce4bhnh2rcd13ifvqgtg","pricing_plan_id":"cebpf4jnsgd1na2vs0mg"},{"bike_id":"edf8054c-3829-4830-9d16-6a740ac01ff9","system_id":"levelo_inurba_marseille","lat":43.25583,"lon":5.3823,"is_reserved":false,"is_disabled":false,"rental_uris":{"android":"levelo://app?vid=edf8054c-3829-4830-9d16-6a740ac01ff9","ios":"levelo://app?vid=edf8054c-3829-4830-9d16-6a740ac01ff9"},"vehicle_type_id":"4","last_reported":1731673087,"current_range_meters":36800,"station_id":"ce4bhih2rcd13ifvqfs0","pricing_plan_id":"cebpf4jnsgd1na2vs0mg"},{"bike_id":"459b8552-5e78-43c6-b760-b92ab7af7411","system_id":"levelo_inurba_marseille","lat":43.27808,"lon":5.40713,"is_reserved":false,"is_disabled":false,"rental_uris":{"android":"levelo://app?vid=459b8552-5e78-43c6-b760-b92ab7af7411","ios":"levelo://app?vid=459b8552-5e78-43c6-b760-b92ab7af7411"},"vehicle_type_id":"4","last_reported":1731673087,"current_range_meters":22000,"station_id":"ce4bhnh2rcd13ifvqgtg","pricing_plan_id":"cebpf4jnsgd1na2vs0mg"},{"bike_id":"9d2441c2-7db1-400b-b022-55476ae61a84","system_id":"levelo_inurba_marseille","lat":43.29167,"lon":5.37157,"is_reserved":false,"is_disabled":false,"rental_uris":{"android":"levelo://app?vid=9d2441c2-7db1-400b-b022-55476ae61a84","ios":"levelo://app?vid=9d2441c2-7db1-400b-b022-55476ae61a84"},"vehicle_type_id":"4","last_reported":1731673087,"current_range_meters":28800,"station_id":"ce4bha92rcd13ifvqeh0","pricing_plan_id":"cebpf4jnsgd1na2vs0mg"},{"bike_id":"e14339e0-1837-4fa9-a858-86dc78e5d1a5","system_id":"levelo_inurba_marseille","lat":43.2804,"lon":5.36943,"is_reserved":false,"is_disabled":false,"rental_uris":{"android":"levelo://app?vid=e14339e0-1837-4fa9-a858-86dc78e5d1a5","ios":"levelo://app?vid=e14339e0-1837-4fa9-a858-86dc78e5d1a5"},"vehicle_type_id":"4","last_reported":1731673087,"current_range_meters":16800,"station_id":"ce4bha12rcd13ifvqef0","pricing_plan_id":"cebpf4jnsgd1na2vs0mg"},{"bike_id":"9d4cef57-7d20-4919-9aa2-8bcc0a098260","system_id":"levelo_inurba_marseille","lat":43.28448,"lon":5.39208,"is_reserved":false,"is_disabled":false,"rental_uris":{"android":"levelo://app?vid=9d4cef57-7d20-4919-9aa2-8bcc0a098260","ios":"levelo://app?vid=9d4cef57-7d20-4919-9aa2-8bcc0a098260"},"vehicle_type_id":"4","last_reported":1731673087,"current_range_meters":34000,"station_id":"ce4bhoh2rcd13ifvqh5g","pricing_plan_id":"cebpf4jnsgd1na2vs0mg"},{"bike_id":"01fadea7-ad0c-496f-9054-e70eccc3acbb","system_id":"levelo_inurba_marseille","lat":43.288468,"lon":5.358276,"is_reserved":false,"is_disabled":false,"rental_uris":{"android":"levelo://app?vid=01fadea7-ad0c-496f-9054-e70eccc3acbb","ios":"levelo://app?vid=01fadea7-ad0c-496f-9054-e70eccc3acbb"},"vehicle_type_id":"4","last_reported":1731673087,"current_range_meters":32400,"station_id":"ce4bhb12rcd13ifvqem0","pricing_plan_id":"cebpf4jnsgd1na2vs0mg"},{"bike_id":"4c5d3f4e-b227-428f-aefc-20ac8b67d2b5","system_id":"levelo_inurba_marseille","lat":43.27899,"lon":5.38015,"is_reserved":false,"is_disabled":false,"rental_uris":{"android":"levelo://app?vid=4c5d3f4e-b227-428f-aefc-20ac8b67d2b5","ios":"levelo://app?vid=4c5d3f4e-b227-428f-aefc-20ac8b67d2b5"},"vehicle_type_id":"4","last_reported":1731673087,"current_range_meters":31200,"station_id":"ce4bhf92rcd13ifvqf50","pricing_plan_id":"cebpf4jnsgd1na2vs0mg"},{"bike_id":"b54f4471-f146-477a-ade3-58e1dea1b85e","system_id":"levelo_inurba_marseille","lat":43.337444,"lon":5.374475,"is_reserved":false,"is_disabled":false,"rental_uris":{"android":"levelo://app?vid=b54f4471-f146-477a-ade3-58e1dea1b85e","ios":"levelo://app?vid=b54f4471-f146-477a-ade3-58e1dea1b85e"},"vehicle_type_id":"4","last_reported":1731673087,"current_range_meters":37600,"station_id":"","pricing_plan_id":"cebpf4jnsgd1na2vs0mg"},{"bike_id":"f9e0adcc-30e8-437c-a54e-34217473db9b","system_id":"levelo_inurba_marseille","lat":43.23962,"lon":5.36625,"is_reserved":false,"is_disabled":false,"rental_uris":{"android":"levelo://app?vid=f9e0adcc-30e8-437c-a54e-34217473db9b","ios":"levelo://app?vid=f9e0adcc-30e8-437c-a54e-34217473db9b"},"vehicle_type_id":"4","last_reported":1731673087,"current_range_meters":11200,"station_id":"ce4bhi12rcd13ifvqfp0","pricing_plan_id":"cebpf4jnsgd1na2vs0mg"},{"bike_id":"7a818b82-8547-4633-8347-c514c94c2eed","system_id":"levelo_inurba_marseille","lat":43.26561,"lon":5.39007,"is_reserved":false,"is_disabled":false,"rental_uris":{"android":"levelo://app?vid=7a818b82-8547-4633-8347-c514c94c2eed","ios":"levelo://app?vid=7a818b82-8547-4633-8347-c514c94c2eed"},"vehicle_type_id":"4","last_reported":1731673087,"current_range_meters":36800,"station_id":"ce4bhe12rcd13ifvqf30","pricing_plan_id":"cebpf4jnsgd1na2vs0mg"},{"bike_id":"3801d79e-aba9-453c-9e83-33f3550a7c41","system_id":"levelo_inurba_marseille","lat":43.24389,"lon":5.37053,"is_reserved":false,"is_disabled":false,"rental_uris":{"android":"levelo://app?vid=3801d79e-aba9-453c-9e83-33f3550a7c41","ios":"levelo://app?vid=3801d79e-aba9-453c-9e83-33f3550a7c41"},"vehicle_type_id":"4","last_reported":1731673087,"current_range_meters":38000,"station_id":"ce4bhhh2rcd13ifvqfk0","pricing_plan_id":"cebpf4jnsgd1na2vs0mg"},{"bike_id":"792531a3-4da6-4082-bd0a-16451cbb2558","system_id":"levelo_inurba_marseille","lat":43.26026,"lon":5.3755,"is_reserved":false,"is_disabled":false,"rental_uris":{"android":"levelo://app?vid=792531a3-4da6-4082-bd0a-16451cbb2558","ios":"levelo://app?vid=792531a3-4da6-4082-bd0a-16451cbb2558"},"vehicle_type_id":"4","last_reported":1731673087,"current_range_meters":22400,"station_id":"ce4bhgh2rcd13ifvqfa0","pricing_plan_id":"cebpf4jnsgd1na2vs0mg"},{"bike_id":"805cfe6b-be44-4949-bab5-57b1ce8478a4","system_id":"levelo_inurba_marseille","lat":43.33752,"lon":5.37459,"is_reserved":false,"is_disabled":false,"rental_uris":{"android":"levelo://app?vid=805cfe6b-be44-4949-bab5-57b1ce8478a4","ios":"levelo://app?vid=805cfe6b-be44-4949-bab5-57b1ce8478a4"},"vehicle_type_id":"4","last_reported":1731673087,"current_range_meters":33600,"station_id":"","pricing_plan_id":"cebpf4jnsgd1na2vs0mg"},{"bike_id":"f87cf030-2c24-4f87-b7a5-9e7172254a78","system_id":"levelo_inurba_marseille","lat":43.28419,"lon":5.34983,"is_reserved":false,"is_disabled":false,"rental_uris":{"android":"levelo://app?vid=f87cf030-2c24-4f87-b7a5-9e7172254a78","ios":"levelo://app?vid=f87cf030-2c24-4f87-b7a5-9e7172254a78"},"vehicle_type_id":"4","last_reported":1731673087,"current_range_meters":38000,"station_id":"ce4bhbh2rcd13ifvqepg","pricing_plan_id":"cebpf4jnsgd1na2vs0mg"},{"bike_id":"890223dc-06cb-4218-ae2a-faf71b202d17","system_id":"levelo_inurba_marseille","lat":43.254923,"lon":5.376483,"is_reserved":false,"is_disabled":false,"rental_uris":{"android":"levelo://app?vid=890223dc-06cb-4218-ae2a-faf71b202d17","ios":"levelo://app?vid=890223dc-06cb-4218-ae2a-faf71b202d17"},"vehicle_type_id":"4","last_reported":1731673087,"current_range_meters":11200,"station_id":"ce4bhh12rcd13ifvqff0","pricing_plan_id":"cebpf4jnsgd1na2vs0mg"},{"bike_id":"748c6f07-fa3a-4ce6-9fcc-ceefd197ab4d","system_id":"levelo_inurba_marseille","lat":43.28423,"lon":5.34991,"is_reserved":false,"is_disabled":false,"rental_uris":{"android":"levelo://app?vid=748c6f07-fa3a-4ce6-9fcc-ceefd197ab4d","ios":"levelo://app?vid=748c6f07-fa3a-4ce6-9fcc-ceefd197ab4d"},"vehicle_type_id":"4","last_reported":1731673087,"current_range_meters":34000,"station_id":"ce4bhbh2rcd13ifvqepg","pricing_plan_id":"cebpf4jnsgd1na2vs0mg"},{"bike_id":"e2f659f6-ae08-48da-9528-4e51fa62876d","system_id":"levelo_inurba_marseille","lat":43.30592,"lon":5.39356,"is_reserved":false,"is_disabled":false,"rental_uris":{"android":"levelo://app?vid=e2f659f6-ae08-48da-9528-4e51fa62876d","ios":"levelo://app?vid=e2f659f6-ae08-48da-9528-4e51fa62876d"},"vehicle_type_id":"4","last_reported":1731673087,"current_range_meters":36000,"station_id":"ce4bh0p2rcd13ifvqd80","pricing_plan_id":"cebpf4jnsgd1na2vs0mg"},{"bike_id":"df6b8948-3991-4a13-a3c7-bac9bb6ea7bf","system_id":"levelo_inurba_marseille","lat":43.31603,"lon":5.38179,"is_reserved":false,"is_disabled":false,"rental_uris":{"android":"levelo://app?vid=df6b8948-3991-4a13-a3c7-bac9bb6ea7bf","ios":"levelo://app?vid=df6b8948-3991-4a13-a3c7-bac9bb6ea7bf"},"vehicle_type_id":"4","last_reported":1731673087,"current_range_meters":25200,"station_id":"","pricing_plan_id":"cebpf4jnsgd1na2vs0mg"},{"bike_id":"3e4e5ae0-9e83-417b-8fda-6f6310be1964","system_id":"levelo_inurba_marseille","lat":43.29896,"lon":5.43667,"is_reserved":false,"is_disabled":false,"rental_uris":{"android":"levelo://app?vid=3e4e5ae0-9e83-417b-8fda-6f6310be1964","ios":"levelo://app?vid=3e4e5ae0-9e83-417b-8fda-6f6310be1964"},"vehicle_type_id":"4","last_reported":1731673087,"current_range_meters":28800,"station_id":"ce4bhpp2rcd13ifvqhfg","pricing_plan_id":"cebpf4jnsgd1na2vs0mg"},{"bike_id":"ca655f3b-8380-4045-b3f8-8acaa0e83ede","system_id":"levelo_inurba_marseille","lat":43.3373,"lon":5.37445,"is_reserved":false,"is_disabled":false,"rental_uris":{"android":"levelo://app?vid=ca655f3b-8380-4045-b3f8-8acaa0e83ede","ios":"levelo://app?vid=ca655f3b-8380-4045-b3f8-8acaa0e83ede"},"vehicle_type_id":"4","last_reported":1731673087,"current_range_meters":36000,"station_id":"","pricing_plan_id":"cebpf4jnsgd1na2vs0mg"},{"bike_id":"20359f26-dcf7-429d-9bc3-462ee61536c6","system_id":"levelo_inurba_marseille","lat":43.28107,"lon":5.40633,"is_reserved":false,"is_disabled":false,"rental_uris":{"android":"levelo://app?vid=20359f26-dcf7-429d-9bc3-462ee61536c6","ios":"levelo://app?vid=20359f26-dcf7-429d-9bc3-462ee61536c6"},"vehicle_type_id":"4","last_reported":1731673087,"current_range_meters":16400,"station_id":"","pricing_plan_id":"cebpf4jnsgd1na2vs0mg"},{"bike_id":"a6b8c285-acc9-4039-9531-1aae39136a33","system_id":"levelo_inurba_marseille","lat":43.312042,"lon":5.367348,"is_reserved":false,"is_disabled":false,"rental_uris":{"android":"levelo://app?vid=a6b8c285-acc9-4039-9531-1aae39136a33","ios":"levelo://app?vid=a6b8c285-acc9-4039-9531-1aae39136a33"},"vehicle_type_id":"4","last_reported":1731673087,"current_range_meters":19600,"station_id":"","pricing_plan_id":"cebpf4jnsgd1na2vs0mg"},{"bike_id":"43a74946-80ad-4604-b753-c4e098de4814","system_id":"levelo_inurba_marseille","lat":43.33712,"lon":5.39186,"is_reserved":false,"is_disabled":false,"rental_uris":{"android":"levelo://app?vid=43a74946-80ad-4604-b753-c4e098de4814","ios":"levelo://app?vid=43a74946-80ad-4604-b753-c4e098de4814"},"vehicle_type_id":"4","last_reported":1731673087,"current_range_meters":23200,"station_id":"ce4bhr92rcd13ifvqhsg","pricing_plan_id":"cebpf4jnsgd1na2vs0mg"},{"bike_id":"5705ab0e-5ffe-4491-a221-d2f72e251e7f","system_id":"levelo_inurba_marseille","lat":43.302765,"lon":5.377247,"is_reserved":false,"is_disabled":false,"rental_uris":{"android":"levelo://app?vid=5705ab0e-5ffe-4491-a221-d2f72e251e7f","ios":"levelo://app?vid=5705ab0e-5ffe-4491-a221-d2f72e251e7f"},"vehicle_type_id":"4","last_reported":1731673087,"current_range_meters":30800,"station_id":"ce4bguh2rcd13ifvqcj0","pricing_plan_id":"cebpf4jnsgd1na2vs0mg"},{"bike_id":"15462ef7-c093-4c55-89a2-6a72e5084dc1","system_id":"levelo_inurba_marseille","lat":43.337444,"lon":5.374475,"is_reserved":false,"is_disabled":false,"rental_uris":{"android":"levelo://app?vid=15462ef7-c093-4c55-89a2-6a72e5084dc1","ios":"levelo://app?vid=15462ef7-c093-4c55-89a2-6a72e5084dc1"},"vehicle_type_id":"4","last_reported":1731673087,"current_range_meters":21600,"station_id":"","pricing_plan_id":"cebpf4jnsgd1na2vs0mg"},{"bike_id":"9a6f4f9d-1c72-4430-8020-ba5bbc826984","system_id":"levelo_inurba_marseille","lat":43.29588,"lon":5.36746,"is_reserved":false,"is_disabled":false,"rental_uris":{"android":"levelo://app?vid=9a6f4f9d-1c72-4430-8020-ba5bbc826984","ios":"levelo://app?vid=9a6f4f9d-1c72-4430-8020-ba5bbc826984"},"vehicle_type_id":"4","last_reported":1731673087,"current_range_meters":38800,"station_id":"ce4bgph2rcd13ifvqc2g","pricing_plan_id":"cebpf4jnsgd1na2vs0mg"},{"bike_id":"90e1c5e8-04eb-4da4-9cd3-1a465fdbe86d","system_id":"levelo_inurba_marseille","lat":43.301849,"lon":5.366211,"is_reserved":false,"is_disabled":false,"rental_uris":{"android":"levelo://app?vid=90e1c5e8-04eb-4da4-9cd3-1a465fdbe86d","ios":"levelo://app?vid=90e1c5e8-04eb-4da4-9cd3-1a465fdbe86d"},"vehicle_type_id":"4","last_reported":1731673087,"current_range_meters":20800,"station_id":"ce4bgrh2rcd13ifvqc8g","pricing_plan_id":"cebpf4jnsgd1na2vs0mg"},{"bike_id":"fb99fb82-1c03-4526-b862-280bcf8ac70c","system_id":"levelo_inurba_marseille","lat":43.23966,"lon":5.36636,"is_reserved":false,"is_disabled":false,"rental_uris":{"android":"levelo://app?vid=fb99fb82-1c03-4526-b862-280bcf8ac70c","ios":"levelo://app?vid=fb99fb82-1c03-4526-b862-280bcf8ac70c"},"vehicle_type_id":"4","last_reported":1731673087,"current_range_meters":28800,"station_id":"ce4bhi12rcd13ifvqfp0","pricing_plan_id":"cebpf4jnsgd1na2vs0mg"},{"bike_id":"251aebea-9ebd-49fe-964c-1ec2b40aee70","system_id":"levelo_inurba_marseille","lat":43.32477,"lon":5.36569,"is_reserved":false,"is_disabled":false,"rental_uris":{"android":"levelo://app?vid=251aebea-9ebd-49fe-964c-1ec2b40aee70","ios":"levelo://app?vid=251aebea-9ebd-49fe-964c-1ec2b40aee70"},"vehicle_type_id":"4","last_reported":1731673087,"current_range_meters":24000,"station_id":"ce4bhs12rcd13ifvqhvg","pricing_plan_id":"cebpf4jnsgd1na2vs0mg"},{"bike_id":"1ae8fe75-00ad-479b-a755-74d45d76bfbe","system_id":"levelo_inurba_marseille","lat":43.24169,"lon":5.36404,"is_reserved":false,"is_disabled":false,"rental_uris":{"android":"levelo://app?vid=1ae8fe75-00ad-479b-a755-74d45d76bfbe","ios":"levelo://app?vid=1ae8fe75-00ad-479b-a755-74d45d76bfbe"},"vehicle_type_id":"4","last_reported":1731673087,"current_range_meters":11600,"station_id":"cpo36qri1sfpv3e86is0","pricing_plan_id":"cebpf4jnsgd1na2vs0mg"},{"bike_id":"92ac4858-87d6-4ceb-8f6e-004635a816a8","system_id":"levelo_inurba_marseille","lat":43.2779,"lon":5.40727,"is_reserved":false,"is_disabled":false,"rental_uris":{"android":"levelo://app?vid=92ac4858-87d6-4ceb-8f6e-004635a816a8","ios":"levelo://app?vid=92ac4858-87d6-4ceb-8f6e-004635a816a8"},"vehicle_type_id":"4","last_reported":1731673087,"current_range_meters":36800,"station_id":"ce4bhnh2rcd13ifvqgtg","pricing_plan_id":"cebpf4jnsgd1na2vs0mg"},{"bike_id":"16c431de-b128-4380-a727-8a0a0eba5b1b","system_id":"levelo_inurba_marseille","lat":43.24385,"lon":5.37059,"is_reserved":false,"is_disabled":false,"rental_uris":{"android":"levelo://app?vid=16c431de-b128-4380-a727-8a0a0eba5b1b","ios":"levelo://app?vid=16c431de-b128-4380-a727-8a0a0eba5b1b"},"vehicle_type_id":"4","last_reported":1731673087,"current_range_meters":39200,"station_id":"ce4bhhh2rcd13ifvqfk0","pricing_plan_id":"cebpf4jnsgd1na2vs0mg"},{"bike_id":"d37a5777-a5f5-4b7f-b7f5-a1dae307da91","system_id":"levelo_inurba_marseille","lat":43.23192,"lon":5.35554,"is_reserved":false,"is_disabled":false,"rental_uris":{"android":"levelo://app?vid=d37a5777-a5f5-4b7f-b7f5-a1dae307da91","ios":"levelo://app?vid=d37a5777-a5f5-4b7f-b7f5-a1dae307da91"},"vehicle_type_id":"4","last_reported":1731673087,"current_range_meters":36800,"station_id":"ce4bhu92rcd13ifvqi70","pricing_plan_id":"cebpf4jnsgd1na2vs0mg"},{"bike_id":"afe39dff-5b73-499b-9313-dcf4019f3d34","system_id":"levelo_inurba_marseille","lat":43.29268,"lon":5.38447,"is_reserved":false,"is_disabled":false,"rental_uris":{"android":"levelo://app?vid=afe39dff-5b73-499b-9313-dcf4019f3d34","ios":"levelo://app?vid=afe39dff-5b73-499b-9313-dcf4019f3d34"},"vehicle_type_id":"4","last_reported":1731673087,"current_range_meters":20000,"station_id":"ce4bh692rcd13ifvqea0","pricing_plan_id":"cebpf4jnsgd1na2vs0mg"},{"bike_id":"9469e701-2829-4e46-90b0-6fa86d889cfb","system_id":"levelo_inurba_marseille","lat":43.31363,"lon":5.38488,"is_reserved":false,"is_disabled":false,"rental_uris":{"android":"levelo://app?vid=9469e701-2829-4e46-90b0-6fa86d889cfb","ios":"levelo://app?vid=9469e701-2829-4e46-90b0-6fa86d889cfb"},"vehicle_type_id":"4","last_reported":1731673087,"current_range_meters":37600,"station_id":"ce4bgt92rcd13ifvqcf0","pricing_plan_id":"cebpf4jnsgd1na2vs0mg"},{"bike_id":"5c1ff42d-ad33-46b0-8965-939efb823124","system_id":"levelo_inurba_marseille","lat":43.28151,"lon":5.42639,"is_reserved":false,"is_disabled":false,"rental_uris":{"android":"levelo://app?vid=5c1ff42d-ad33-46b0-8965-939efb823124","ios":"levelo://app?vid=5c1ff42d-ad33-46b0-8965-939efb823124"},"vehicle_type_id":"4","last_reported":1731673087,"current_range_meters":5600,"station_id":"ce4bhnh2rcd13ifvqgug","pricing_plan_id":"cebpf4jnsgd1na2vs0mg"},{"bike_id":"674b0e8f-8c9e-4c11-a204-160fb5dcf762","system_id":"levelo_inurba_marseille","lat":43.24388,"lon":5.37054,"is_reserved":false,"is_disabled":false,"rental_uris":{"android":"levelo://app?vid=674b0e8f-8c9e-4c11-a204-160fb5dcf762","ios":"levelo://app?vid=674b0e8f-8c9e-4c11-a204-160fb5dcf762"},"vehicle_type_id":"4","last_reported":1731673087,"current_range_meters":39200,"station_id":"ce4bhhh2rcd13ifvqfk0","pricing_plan_id":"cebpf4jnsgd1na2vs0mg"},{"bike_id":"0f3d6f99-8607-492c-852d-b2e134515661","system_id":"levelo_inurba_marseille","lat":43.29535,"lon":5.39396,"is_reserved":false,"is_disabled":false,"rental_uris":{"android":"levelo://app?vid=0f3d6f99-8607-492c-852d-b2e134515661","ios":"levelo://app?vid=0f3d6f99-8607-492c-852d-b2e134515661"},"vehicle_type_id":"4","last_reported":1731673087,"current_range_meters":26000,"station_id":"ce4bh292rcd13ifvqdf0","pricing_plan_id":"cebpf4jnsgd1na2vs0mg"},{"bike_id":"139d00fc-e67b-449a-9fd4-0db893561dc2","system_id":"levelo_inurba_marseille","lat":43.33756,"lon":5.37418,"is_reserved":false,"is_disabled":false,"rental_uris":{"android":"levelo://app?vid=139d00fc-e67b-449a-9fd4-0db893561dc2","ios":"levelo://app?vid=139d00fc-e67b-449a-9fd4-0db893561dc2"},"vehicle_type_id":"4","last_reported":1731673087,"current_range_meters":9600,"station_id":"","pricing_plan_id":"cebpf4jnsgd1na2vs0mg"},{"bike_id":"bdda4347-118f-4304-b506-09b4b5e15b39","system_id":"levelo_inurba_marseille","lat":43.33734,"lon":5.39186,"is_reserved":false,"is_disabled":false,"rental_uris":{"android":"levelo://app?vid=bdda4347-118f-4304-b506-09b4b5e15b39","ios":"levelo://app?vid=bdda4347-118f-4304-b506-09b4b5e15b39"},"vehicle_type_id":"4","last_reported":1731673087,"current_range_meters":20000,"station_id":"ce4bhr92rcd13ifvqhsg","pricing_plan_id":"cebpf4jnsgd1na2vs0mg"},{"bike_id":"a66d05de-e11b-4e57-ad94-055ad5422b4c","system_id":"levelo_inurba_marseille","lat":43.2962,"lon":5.37161,"is_reserved":false,"is_disabled":false,"rental_uris":{"android":"levelo://app?vid=a66d05de-e11b-4e57-ad94-055ad5422b4c","ios":"levelo://app?vid=a66d05de-e11b-4e57-ad94-055ad5422b4c"},"vehicle_type_id":"4","last_reported":1731673087,"current_range_meters":4800,"station_id":"ce4bgnh2rcd13ifvqc0g","pricing_plan_id":"cebpf4jnsgd1na2vs0mg"},{"bike_id":"e45f0bd7-08b7-493e-ba8c-5982f3e96046","system_id":"levelo_inurba_marseille","lat":43.29034,"lon":5.39966,"is_reserved":false,"is_disabled":false,"rental_uris":{"android":"levelo://app?vid=e45f0bd7-08b7-493e-ba8c-5982f3e96046","ios":"levelo://app?vid=e45f0bd7-08b7-493e-ba8c-5982f3e96046"},"vehicle_type_id":"4","last_reported":1731673087,"current_range_meters":26000,"station_id":"ce4bh392rcd13ifvqdm0","pricing_plan_id":"cebpf4jnsgd1na2vs0mg"},{"bike_id":"417d8a87-cc14-447c-b9af-05a12c4ee7f6","system_id":"levelo_inurba_marseille","lat":43.27812,"lon":5.40705,"is_reserved":false,"is_disabled":false,"rental_uris":{"android":"levelo://app?vid=417d8a87-cc14-447c-b9af-05a12c4ee7f6","ios":"levelo://app?vid=417d8a87-cc14-447c-b9af-05a12c4ee7f6"},"vehicle_type_id":"4","last_reported":1731673087,"current_range_meters":6400,"station_id":"ce4bhnh2rcd13ifvqgtg","pricing_plan_id":"cebpf4jnsgd1na2vs0mg"},{"bike_id":"3aed1cdd-ab76-409d-b9f9-44e521b0db1b","system_id":"levelo_inurba_marseille","lat":43.279495,"lon":5.410419,"is_reserved":false,"is_disabled":false,"rental_uris":{"android":"levelo://app?vid=3aed1cdd-ab76-409d-b9f9-44e521b0db1b","ios":"levelo://app?vid=3aed1cdd-ab76-409d-b9f9-44e521b0db1b"},"vehicle_type_id":"4","last_reported":1731673087,"current_range_meters":36800,"station_id":"ce4bhnp2rcd13ifvqh0g","pricing_plan_id":"cebpf4jnsgd1na2vs0mg"},{"bike_id":"98121d5f-01e5-45e8-a04a-1b8c07d4a29c","system_id":"levelo_inurba_marseille","lat":43.23962,"lon":5.36629,"is_reserved":false,"is_disabled":false,"rental_uris":{"android":"levelo://app?vid=98121d5f-01e5-45e8-a04a-1b8c07d4a29c","ios":"levelo://app?vid=98121d5f-01e5-45e8-a04a-1b8c07d4a29c"},"vehicle_type_id":"4","last_reported":1731673087,"current_range_meters":14000,"station_id":"ce4bhi12rcd13ifvqfp0","pricing_plan_id":"cebpf4jnsgd1na2vs0mg"},{"bike_id":"a2093831-6093-4959-a0f7-dab6a243ed02","system_id":"levelo_inurba_marseille","lat":43.312239,"lon":5.368533,"is_reserved":false,"is_disabled":false,"rental_uris":{"android":"levelo://app?vid=a2093831-6093-4959-a0f7-dab6a243ed02","ios":"levelo://app?vid=a2093831-6093-4959-a0f7-dab6a243ed02"},"vehicle_type_id":"4","last_reported":1731673087,"current_range_meters":39200,"station_id":"ce4bgl92rcd13ifvqbq0","pricing_plan_id":"cebpf4jnsgd1na2vs0mg"},{"bike_id":"00454d9f-5a3a-4ea3-b88d-1771023d67dd","system_id":"levelo_inurba_marseille","lat":43.28718,"lon":5.36098,"is_reserved":false,"is_disabled":false,"rental_uris":{"android":"levelo://app?vid=00454d9f-5a3a-4ea3-b88d-1771023d67dd","ios":"levelo://app?vid=00454d9f-5a3a-4ea3-b88d-1771023d67dd"},"vehicle_type_id":"4","last_reported":1731673087,"current_range_meters":26800,"station_id":"cki0cbj6b192h4jlfktg","pricing_plan_id":"cebpf4jnsgd1na2vs0mg"},{"bike_id":"1251cdec-4e0b-4865-8190-36fd90191faa","system_id":"levelo_inurba_marseille","lat":43.3089,"lon":5.37189,"is_reserved":false,"is_disabled":false,"rental_uris":{"android":"levelo://app?vid=1251cdec-4e0b-4865-8190-36fd90191faa","ios":"levelo://app?vid=1251cdec-4e0b-4865-8190-36fd90191faa"},"vehicle_type_id":"4","last_reported":1731673087,"current_range_meters":31200,"station_id":"ce4bguh2rcd13ifvqckg","pricing_plan_id":"cebpf4jnsgd1na2vs0mg"},{"bike_id":"c81068e1-3b5b-42d0-865a-c47236356633","system_id":"levelo_inurba_marseille","lat":43.31167,"lon":5.38725,"is_reserved":false,"is_disabled":false,"rental_uris":{"android":"levelo://app?vid=c81068e1-3b5b-42d0-865a-c47236356633","ios":"levelo://app?vid=c81068e1-3b5b-42d0-865a-c47236356633"},"vehicle_type_id":"4","last_reported":1731673087,"current_range_meters":36000,"station_id":"ce4bgv12rcd13ifvqcp0","pricing_plan_id":"cebpf4jnsgd1na2vs0mg"},{"bike_id":"2f1efe36-41b2-4a6f-aa98-b326b5712fe6","system_id":"levelo_inurba_marseille","lat":43.299,"lon":5.4366,"is_reserved":false,"is_disabled":false,"rental_uris":{"android":"levelo://app?vid=2f1efe36-41b2-4a6f-aa98-b326b5712fe6","ios":"levelo://app?vid=2f1efe36-41b2-4a6f-aa98-b326b5712fe6"},"vehicle_type_id":"4","last_reported":1731673087,"current_range_meters":24800,"station_id":"ce4bhpp2rcd13ifvqhfg","pricing_plan_id":"cebpf4jnsgd1na2vs0mg"},{"bike_id":"f765df4a-0462-477c-989d-67c0bff36300","system_id":"levelo_inurba_marseille","lat":43.26685,"lon":5.38267,"is_reserved":false,"is_disabled":false,"rental_uris":{"android":"levelo://app?vid=f765df4a-0462-477c-989d-67c0bff36300","ios":"levelo://app?vid=f765df4a-0462-477c-989d-67c0bff36300"},"vehicle_type_id":"4","last_reported":1731673087,"current_range_meters":38800,"station_id":"ce4bhg92rcd13ifvqf90","pricing_plan_id":"cebpf4jnsgd1na2vs0mg"},{"bike_id":"7829dd5f-a55d-480e-ba35-549512e39582","system_id":"levelo_inurba_marseille","lat":43.30597,"lon":5.39358,"is_reserved":false,"is_disabled":false,"rental_uris":{"android":"levelo://app?vid=7829dd5f-a55d-480e-ba35-549512e39582","ios":"levelo://app?vid=7829dd5f-a55d-480e-ba35-549512e39582"},"vehicle_type_id":"4","last_reported":1731673087,"current_range_meters":38800,"station_id":"ce4bh0p2rcd13ifvqd80","pricing_plan_id":"cebpf4jnsgd1na2vs0mg"},{"bike_id":"4af956a5-31d2-4098-9c43-756e35b16f3b","system_id":"levelo_inurba_marseille","lat":43.32108,"lon":5.3678,"is_reserved":false,"is_disabled":false,"rental_uris":{"android":"levelo://app?vid=4af956a5-31d2-4098-9c43-756e35b16f3b","ios":"levelo://app?vid=4af956a5-31d2-4098-9c43-756e35b16f3b"},"vehicle_type_id":"4","last_reported":1731673087,"current_range_meters":28000,"station_id":"ce4bhrh2rcd13ifvqhug","pricing_plan_id":"cebpf4jnsgd1na2vs0mg"},{"bike_id":"6d6992bf-ade3-4a22-a168-306dafdc4544","system_id":"levelo_inurba_marseille","lat":43.2417,"lon":5.364,"is_reserved":false,"is_disabled":false,"rental_uris":{"android":"levelo://app?vid=6d6992bf-ade3-4a22-a168-306dafdc4544","ios":"levelo://app?vid=6d6992bf-ade3-4a22-a168-306dafdc4544"},"vehicle_type_id":"4","last_reported":1731673087,"current_range_meters":38000,"station_id":"cpo36qri1sfpv3e86is0","pricing_plan_id":"cebpf4jnsgd1na2vs0mg"},{"bike_id":"e341d37a-d65b-41b9-bc7c-dad275f8c00f","system_id":"levelo_inurba_marseille","lat":43.34149,"lon":5.40898,"is_reserved":false,"is_disabled":false,"rental_uris":{"android":"levelo://app?vid=e341d37a-d65b-41b9-bc7c-dad275f8c00f","ios":"levelo://app?vid=e341d37a-d65b-41b9-bc7c-dad275f8c00f"},"vehicle_type_id":"4","last_reported":1731673087,"current_range_meters":38000,"station_id":"ce4bhqh2rcd13ifvqhlg","pricing_plan_id":"cebpf4jnsgd1na2vs0mg"},{"bike_id":"5f8fa7c2-d42a-4189-a414-cc472e39165c","system_id":"levelo_inurba_marseille","lat":43.26202,"lon":5.37925,"is_reserved":false,"is_disabled":false,"rental_uris":{"android":"levelo://app?vid=5f8fa7c2-d42a-4189-a414-cc472e39165c","ios":"levelo://app?vid=5f8fa7c2-d42a-4189-a414-cc472e39165c"},"vehicle_type_id":"4","last_reported":1731673087,"current_range_meters":37600,"station_id":"ce4bhjp2rcd13ifvqg90","pricing_plan_id":"cebpf4jnsgd1na2vs0mg"},{"bike_id":"1707cb1e-404f-449a-8ec1-810d24d3f970","system_id":"levelo_inurba_marseille","lat":43.23188,"lon":5.3996,"is_reserved":false,"is_disabled":false,"rental_uris":{"android":"levelo://app?vid=1707cb1e-404f-449a-8ec1-810d24d3f970","ios":"levelo://app?vid=1707cb1e-404f-449a-8ec1-810d24d3f970"},"vehicle_type_id":"4","last_reported":1731673087,"current_range_meters":30400,"station_id":"ce4bhn12rcd13ifvqgqg","pricing_plan_id":"cebpf4jnsgd1na2vs0mg"},{"bike_id":"b5018252-9a31-4103-8ef9-7a0d549ed8b7","system_id":"levelo_inurba_marseille","lat":43.26063,"lon":5.39395,"is_reserved":false,"is_disabled":false,"rental_uris":{"android":"levelo://app?vid=b5018252-9a31-4103-8ef9-7a0d549ed8b7","ios":"levelo://app?vid=b5018252-9a31-4103-8ef9-7a0d549ed8b7"},"vehicle_type_id":"4","last_reported":1731673087,"current_range_meters":28000,"station_id":"ce4bhh92rcd13ifvqfj0","pricing_plan_id":"cebpf4jnsgd1na2vs0mg"},{"bike_id":"dad3974f-14af-4e33-9e80-59ffa92b5037","system_id":"levelo_inurba_marseille","lat":43.30589,"lon":5.39354,"is_reserved":false,"is_disabled":false,"rental_uris":{"android":"levelo://app?vid=dad3974f-14af-4e33-9e80-59ffa92b5037","ios":"levelo://app?vid=dad3974f-14af-4e33-9e80-59ffa92b5037"},"vehicle_type_id":"4","last_reported":1731673087,"current_range_meters":31200,"station_id":"ce4bh0p2rcd13ifvqd80","pricing_plan_id":"cebpf4jnsgd1na2vs0mg"},{"bike_id":"ff273380-c91d-4de0-97f4-4e62bfd1e6c1","system_id":"levelo_inurba_marseille","lat":43.29649,"lon":5.37648,"is_reserved":false,"is_disabled":false,"rental_uris":{"android":"levelo://app?vid=ff273380-c91d-4de0-97f4-4e62bfd1e6c1","ios":"levelo://app?vid=ff273380-c91d-4de0-97f4-4e62bfd1e6c1"},"vehicle_type_id":"4","last_reported":1731673087,"current_range_meters":17200,"station_id":"","pricing_plan_id":"cebpf4jnsgd1na2vs0mg"},{"bike_id":"c8bc15b3-8aba-4035-868b-7393f03f5316","system_id":"levelo_inurba_marseille","lat":43.31357,"lon":5.38492,"is_reserved":false,"is_disabled":false,"rental_uris":{"android":"levelo://app?vid=c8bc15b3-8aba-4035-868b-7393f03f5316","ios":"levelo://app?vid=c8bc15b3-8aba-4035-868b-7393f03f5316"},"vehicle_type_id":"4","last_reported":1731673087,"current_range_meters":11200,"station_id":"ce4bgt92rcd13ifvqcf0","pricing_plan_id":"cebpf4jnsgd1na2vs0mg"},{"bike_id":"cb3095ed-188a-40f9-9a74-e608f1334364","system_id":"levelo_inurba_marseille","lat":43.30554,"lon":5.36522,"is_reserved":false,"is_disabled":false,"rental_uris":{"android":"levelo://app?vid=cb3095ed-188a-40f9-9a74-e608f1334364","ios":"levelo://app?vid=cb3095ed-188a-40f9-9a74-e608f1334364"},"vehicle_type_id":"4","last_reported":1731673087,"current_range_meters":11600,"station_id":"ce4bgs12rcd13ifvqcag","pricing_plan_id":"cebpf4jnsgd1na2vs0mg"},{"bike_id":"c4c51bbd-689e-45a9-83d2-4a07bbd575ac","system_id":"levelo_inurba_marseille","lat":43.28723,"lon":5.3609,"is_reserved":false,"is_disabled":false,"rental_uris":{"android":"levelo://app?vid=c4c51bbd-689e-45a9-83d2-4a07bbd575ac","ios":"levelo://app?vid=c4c51bbd-689e-45a9-83d2-4a07bbd575ac"},"vehicle_type_id":"4","last_reported":1731673087,"current_range_meters":33200,"station_id":"cki0cbj6b192h4jlfktg","pricing_plan_id":"cebpf4jnsgd1na2vs0mg"},{"bike_id":"e4581128-6e9b-4591-a22e-905875dadf14","system_id":"levelo_inurba_marseille","lat":43.25574,"lon":5.38229,"is_reserved":false,"is_disabled":false,"rental_uris":{"android":"levelo://app?vid=e4581128-6e9b-4591-a22e-905875dadf14","ios":"levelo://app?vid=e4581128-6e9b-4591-a22e-905875dadf14"},"vehicle_type_id":"4","last_reported":1731673087,"current_range_meters":6800,"station_id":"ce4bhih2rcd13ifvqfs0","pricing_plan_id":"cebpf4jnsgd1na2vs0mg"},{"bike_id":"d6080da8-5905-41fa-9997-291873cad87a","system_id":"levelo_inurba_marseille","lat":43.2926,"lon":5.38444,"is_reserved":false,"is_disabled":false,"rental_uris":{"android":"levelo://app?vid=d6080da8-5905-41fa-9997-291873cad87a","ios":"levelo://app?vid=d6080da8-5905-41fa-9997-291873cad87a"},"vehicle_type_id":"4","last_reported":1731673087,"current_range_meters":9200,"station_id":"ce4bh692rcd13ifvqea0","pricing_plan_id":"cebpf4jnsgd1na2vs0mg"},{"bike_id":"910bc62b-2d33-4155-a251-5a487fe48b4c","system_id":"levelo_inurba_marseille","lat":43.30596,"lon":5.39361,"is_reserved":false,"is_disabled":false,"rental_uris":{"android":"levelo://app?vid=910bc62b-2d33-4155-a251-5a487fe48b4c","ios":"levelo://app?vid=910bc62b-2d33-4155-a251-5a487fe48b4c"},"vehicle_type_id":"4","last_reported":1731673087,"current_range_meters":18000,"station_id":"ce4bh0p2rcd13ifvqd80","pricing_plan_id":"cebpf4jnsgd1na2vs0mg"},{"bike_id":"95faf24b-eb94-4656-b7ce-ccdc4506744f","system_id":"levelo_inurba_marseille","lat":43.266602,"lon":5.381748,"is_reserved":false,"is_disabled":false,"rental_uris":{"android":"levelo://app?vid=95faf24b-eb94-4656-b7ce-ccdc4506744f","ios":"levelo://app?vid=95faf24b-eb94-4656-b7ce-ccdc4506744f"},"vehicle_type_id":"4","last_reported":1731673087,"current_range_meters":27600,"station_id":"ce4bhjp2rcd13ifvqg90","pricing_plan_id":"cebpf4jnsgd1na2vs0mg"},{"bike_id":"12a648f3-c744-43a3-adbc-fd539275d2b2","system_id":"levelo_inurba_marseille","lat":43.2795,"lon":5.41037,"is_reserved":false,"is_disabled":false,"rental_uris":{"android":"levelo://app?vid=12a648f3-c744-43a3-adbc-fd539275d2b2","ios":"levelo://app?vid=12a648f3-c744-43a3-adbc-fd539275d2b2"},"vehicle_type_id":"4","last_reported":1731673087,"current_range_meters":36000,"station_id":"ce4bhnp2rcd13ifvqh0g","pricing_plan_id":"cebpf4jnsgd1na2vs0mg"},{"bike_id":"736e3b52-47e2-4805-a06c-1a07d38b3a8e","system_id":"levelo_inurba_marseille","lat":43.30952,"lon":5.39023,"is_reserved":false,"is_disabled":false,"rental_uris":{"android":"levelo://app?vid=736e3b52-47e2-4805-a06c-1a07d38b3a8e","ios":"levelo://app?vid=736e3b52-47e2-4805-a06c-1a07d38b3a8e"},"vehicle_type_id":"4","last_reported":1731673087,"current_range_meters":22400,"station_id":"ce4bgup2rcd13ifvqco0","pricing_plan_id":"cebpf4jnsgd1na2vs0mg"},{"bike_id":"2661875a-ca5f-4f57-b884-7699d4bb3259","system_id":"levelo_inurba_marseille","lat":43.27831,"lon":5.39206,"is_reserved":false,"is_disabled":false,"rental_uris":{"android":"levelo://app?vid=2661875a-ca5f-4f57-b884-7699d4bb3259","ios":"levelo://app?vid=2661875a-ca5f-4f57-b884-7699d4bb3259"},"vehicle_type_id":"4","last_reported":1731673087,"current_range_meters":26000,"station_id":"ce4bhjp2rcd13ifvqga0","pricing_plan_id":"cebpf4jnsgd1na2vs0mg"},{"bike_id":"9e60ec82-0d97-4ce9-b22e-751432ab4967","system_id":"levelo_inurba_marseille","lat":43.24386,"lon":5.37054,"is_reserved":false,"is_disabled":false,"rental_uris":{"android":"levelo://app?vid=9e60ec82-0d97-4ce9-b22e-751432ab4967","ios":"levelo://app?vid=9e60ec82-0d97-4ce9-b22e-751432ab4967"},"vehicle_type_id":"4","last_reported":1731673087,"current_range_meters":23200,"station_id":"ce4bhhh2rcd13ifvqfk0","pricing_plan_id":"cebpf4jnsgd1na2vs0mg"},{"bike_id":"7037a7a9-89be-4835-99e0-d202607efc23","system_id":"levelo_inurba_marseille","lat":43.28431,"lon":5.34987,"is_reserved":false,"is_disabled":false,"rental_uris":{"android":"levelo://app?vid=7037a7a9-89be-4835-99e0-d202607efc23","ios":"levelo://app?vid=7037a7a9-89be-4835-99e0-d202607efc23"},"vehicle_type_id":"4","last_reported":1731673087,"current_range_meters":39200,"station_id":"ce4bhbh2rcd13ifvqepg","pricing_plan_id":"cebpf4jnsgd1na2vs0mg"},{"bike_id":"6ada6d82-fcc4-424e-9b2f-d70018115e73","system_id":"levelo_inurba_marseille","lat":43.25865,"lon":5.39902,"is_reserved":false,"is_disabled":false,"rental_uris":{"android":"levelo://app?vid=6ada6d82-fcc4-424e-9b2f-d70018115e73","ios":"levelo://app?vid=6ada6d82-fcc4-424e-9b2f-d70018115e73"},"vehicle_type_id":"4","last_reported":1731673087,"current_range_meters":24000,"station_id":"ce4bhl92rcd13ifvqghg","pricing_plan_id":"cebpf4jnsgd1na2vs0mg"},{"bike_id":"9282d376-547f-4b03-8726-c9f1bf80191e","system_id":"levelo_inurba_marseille","lat":43.30587,"lon":5.39355,"is_reserved":false,"is_disabled":false,"rental_uris":{"android":"levelo://app?vid=9282d376-547f-4b03-8726-c9f1bf80191e","ios":"levelo://app?vid=9282d376-547f-4b03-8726-c9f1bf80191e"},"vehicle_type_id":"4","last_reported":1731673087,"current_range_meters":21600,"station_id":"ce4bh0p2rcd13ifvqd80","pricing_plan_id":"cebpf4jnsgd1na2vs0mg"},{"bike_id":"010b1c10-a66b-4a24-afda-39ab7e5891f4","system_id":"levelo_inurba_marseille","lat":43.24386,"lon":5.37065,"is_reserved":false,"is_disabled":false,"rental_uris":{"android":"levelo://app?vid=010b1c10-a66b-4a24-afda-39ab7e5891f4","ios":"levelo://app?vid=010b1c10-a66b-4a24-afda-39ab7e5891f4"},"vehicle_type_id":"4","last_reported":1731673087,"current_range_meters":10800,"station_id":"ce4bhhh2rcd13ifvqfk0","pricing_plan_id":"cebpf4jnsgd1na2vs0mg"},{"bike_id":"c40af1f8-34de-4b7e-803f-5336f6d66925","system_id":"levelo_inurba_marseille","lat":43.26061,"lon":5.39396,"is_reserved":false,"is_disabled":false,"rental_uris":{"android":"levelo://app?vid=c40af1f8-34de-4b7e-803f-5336f6d66925","ios":"levelo://app?vid=c40af1f8-34de-4b7e-803f-5336f6d66925"},"vehicle_type_id":"4","last_reported":1731673087,"current_range_meters":32000,"station_id":"ce4bhh92rcd13ifvqfj0","pricing_plan_id":"cebpf4jnsgd1na2vs0mg"},{"bike_id":"f2af9365-fdc2-4b99-9391-e30a9e3e43b3","system_id":"levelo_inurba_marseille","lat":43.32362,"lon":5.36761,"is_reserved":false,"is_disabled":false,"rental_uris":{"android":"levelo://app?vid=f2af9365-fdc2-4b99-9391-e30a9e3e43b3","ios":"levelo://app?vid=f2af9365-fdc2-4b99-9391-e30a9e3e43b3"},"vehicle_type_id":"4","last_reported":1731673087,"current_range_meters":26800,"station_id":"ce4bhsh2rcd13ifvqi2g","pricing_plan_id":"cebpf4jnsgd1na2vs0mg"},{"bike_id":"bb522734-48ce-4de6-8330-a5f77169e2f2","system_id":"levelo_inurba_marseille","lat":43.29895,"lon":5.43653,"is_reserved":false,"is_disabled":false,"rental_uris":{"android":"levelo://app?vid=bb522734-48ce-4de6-8330-a5f77169e2f2","ios":"levelo://app?vid=bb522734-48ce-4de6-8330-a5f77169e2f2"},"vehicle_type_id":"4","last_reported":1731673087,"current_range_meters":11200,"station_id":"ce4bhpp2rcd13ifvqhfg","pricing_plan_id":"cebpf4jnsgd1na2vs0mg"},{"bike_id":"62280381-5699-4ab7-9ab6-a573e49f987e","system_id":"levelo_inurba_marseille","lat":43.266782,"lon":5.382643,"is_reserved":false,"is_disabled":false,"rental_uris":{"android":"levelo://app?vid=62280381-5699-4ab7-9ab6-a573e49f987e","ios":"levelo://app?vid=62280381-5699-4ab7-9ab6-a573e49f987e"},"vehicle_type_id":"4","last_reported":1731673087,"current_range_meters":39200,"station_id":"ce4bhg92rcd13ifvqf90","pricing_plan_id":"cebpf4jnsgd1na2vs0mg"},{"bike_id":"103c7d82-0530-4de1-96f2-74a0a9e7cbc1","system_id":"levelo_inurba_marseille","lat":43.26681,"lon":5.38269,"is_reserved":false,"is_disabled":false,"rental_uris":{"android":"levelo://app?vid=103c7d82-0530-4de1-96f2-74a0a9e7cbc1","ios":"levelo://app?vid=103c7d82-0530-4de1-96f2-74a0a9e7cbc1"},"vehicle_type_id":"4","last_reported":1731673087,"current_range_meters":17600,"station_id":"ce4bhg92rcd13ifvqf90","pricing_plan_id":"cebpf4jnsgd1na2vs0mg"},{"bike_id":"71666bb6-8a1d-4bed-878f-58d8ef360640","system_id":"levelo_inurba_marseille","lat":43.2655,"lon":5.37282,"is_reserved":false,"is_disabled":false,"rental_uris":{"android":"levelo://app?vid=71666bb6-8a1d-4bed-878f-58d8ef360640","ios":"levelo://app?vid=71666bb6-8a1d-4bed-878f-58d8ef360640"},"vehicle_type_id":"4","last_reported":1731673087,"current_range_meters":8000,"station_id":"ce4bhg12rcd13ifvqf70","pricing_plan_id":"cebpf4jnsgd1na2vs0mg"},{"bike_id":"e0ff9a80-fdc9-4589-94fb-3a76abac459f","system_id":"levelo_inurba_marseille","lat":43.31984,"lon":5.38132,"is_reserved":false,"is_disabled":false,"rental_uris":{"android":"levelo://app?vid=e0ff9a80-fdc9-4589-94fb-3a76abac459f","ios":"levelo://app?vid=e0ff9a80-fdc9-4589-94fb-3a76abac459f"},"vehicle_type_id":"4","last_reported":1731673087,"current_range_meters":34800,"station_id":"ce4bhr12rcd13ifvqhpg","pricing_plan_id":"cebpf4jnsgd1na2vs0mg"},{"bike_id":"b5cfc0df-c176-449e-879e-c859f11f57be","system_id":"levelo_inurba_marseille","lat":43.26682,"lon":5.38274,"is_reserved":false,"is_disabled":false,"rental_uris":{"android":"levelo://app?vid=b5cfc0df-c176-449e-879e-c859f11f57be","ios":"levelo://app?vid=b5cfc0df-c176-449e-879e-c859f11f57be"},"vehicle_type_id":"4","last_reported":1731673087,"current_range_meters":11600,"station_id":"ce4bhg92rcd13ifvqf90","pricing_plan_id":"cebpf4jnsgd1na2vs0mg"},{"bike_id":"1824703e-cb72-427a-b412-41a4c384be44","system_id":"levelo_inurba_marseille","lat":43.30192,"lon":5.36623,"is_reserved":false,"is_disabled":false,"rental_uris":{"android":"levelo://app?vid=1824703e-cb72-427a-b412-41a4c384be44","ios":"levelo://app?vid=1824703e-cb72-427a-b412-41a4c384be44"},"vehicle_type_id":"4","last_reported":1731673087,"current_range_meters":15200,"station_id":"ce4bgrh2rcd13ifvqc8g","pricing_plan_id":"cebpf4jnsgd1na2vs0mg"},{"bike_id":"d8710358-b06a-462b-9fcd-b6ab686a9599","system_id":"levelo_inurba_marseille","lat":43.30517,"lon":5.36712,"is_reserved":false,"is_disabled":false,"rental_uris":{"android":"levelo://app?vid=d8710358-b06a-462b-9fcd-b6ab686a9599","ios":"levelo://app?vid=d8710358-b06a-462b-9fcd-b6ab686a9599"},"vehicle_type_id":"4","last_reported":1731673087,"current_range_meters":32400,"station_id":"ce4bgrp2rcd13ifvqc9g","pricing_plan_id":"cebpf4jnsgd1na2vs0mg"},{"bike_id":"d80d6183-9f6a-4f51-9137-706a42c73277","system_id":"levelo_inurba_marseille","lat":43.2762,"lon":5.36107,"is_reserved":false,"is_disabled":false,"rental_uris":{"android":"levelo://app?vid=d80d6183-9f6a-4f51-9137-706a42c73277","ios":"levelo://app?vid=d80d6183-9f6a-4f51-9137-706a42c73277"},"vehicle_type_id":"4","last_reported":1731673087,"current_range_meters":38800,"station_id":"ce4bgj92rcd13ifvqbe0","pricing_plan_id":"cebpf4jnsgd1na2vs0mg"},{"bike_id":"fe34e79d-89a4-4c9d-9e26-e258e0391b41","system_id":"levelo_inurba_marseille","lat":43.23186,"lon":5.39986,"is_reserved":false,"is_disabled":false,"rental_uris":{"android":"levelo://app?vid=fe34e79d-89a4-4c9d-9e26-e258e0391b41","ios":"levelo://app?vid=fe34e79d-89a4-4c9d-9e26-e258e0391b41"},"vehicle_type_id":"4","last_reported":1731673087,"current_range_meters":38400,"station_id":"ce4bhn12rcd13ifvqgqg","pricing_plan_id":"cebpf4jnsgd1na2vs0mg"},{"bike_id":"e2c5e9d7-fcb5-47eb-8dd0-0885cd8f4d1c","system_id":"levelo_inurba_marseille","lat":43.32372,"lon":5.38882,"is_reserved":false,"is_disabled":false,"rental_uris":{"android":"levelo://app?vid=e2c5e9d7-fcb5-47eb-8dd0-0885cd8f4d1c","ios":"levelo://app?vid=e2c5e9d7-fcb5-47eb-8dd0-0885cd8f4d1c"},"vehicle_type_id":"4","last_reported":1731673087,"current_range_meters":31200,"station_id":"ce4bhqp2rcd13ifvqhog","pricing_plan_id":"cebpf4jnsgd1na2vs0mg"},{"bike_id":"5965e54a-3b5b-42fc-8cec-bfb738b1f576","system_id":"levelo_inurba_marseille","lat":43.26558,"lon":5.37284,"is_reserved":false,"is_disabled":false,"rental_uris":{"android":"levelo://app?vid=5965e54a-3b5b-42fc-8cec-bfb738b1f576","ios":"levelo://app?vid=5965e54a-3b5b-42fc-8cec-bfb738b1f576"},"vehicle_type_id":"4","last_reported":1731673087,"current_range_meters":36400,"station_id":"ce4bhg12rcd13ifvqf70","pricing_plan_id":"cebpf4jnsgd1na2vs0mg"},{"bike_id":"7b28b288-dfbd-4b03-831b-bdce26ca0014","system_id":"levelo_inurba_marseille","lat":43.24177,"lon":5.3973,"is_reserved":false,"is_disabled":false,"rental_uris":{"android":"levelo://app?vid=7b28b288-dfbd-4b03-831b-bdce26ca0014","ios":"levelo://app?vid=7b28b288-dfbd-4b03-831b-bdce26ca0014"},"vehicle_type_id":"4","last_reported":1731673087,"current_range_meters":8000,"station_id":"ce4bhn12rcd13ifvqgpg","pricing_plan_id":"cebpf4jnsgd1na2vs0mg"},