{"last_updated":1749536139,"ttl":60,"version":"2.2","data":{"bikes":[{"bike_id":"314691a7-4bc5-48b3-abac-a337987437ec","system_id":"levelo_inurba_marseille","lat":43.30148,"lon":5.3808,"is_reserved":false,"is_disabled":false,"rental_uris":{"android":"levelo://app?vid=314691a7-4bc5-48b3-abac-a337987437ec","ios":"levelo://app?vid=314691a7-4bc5-48b3-abac-a337987437ec"},"vehicle_type_id":"4","last_reported":1749536139,"current_range_meters":2800,"station_id":"ce4bgjp2rcd13ifvqbh0","pricing_plan_id":"cebpf4jnsgd1na2vs0mg"},{"bike_id":"336a8532-ef99-485d-be29-cdcddc5a6bdb","system_id":"levelo_inurba_marseille","lat":43.24178,"lon":5.39733,"is_reserved":false,"is_disabled":false,"rental_uris":{"android":"levelo://app?vid=336a8532-ef99-485d-be29-cdcddc5a6bdb","ios":"levelo://app?vid=336a8532-ef99-485d-be29-cdcddc5a6bdb"},"vehicle_type_id":"4","last_reported":1749536139,"current_range_meters":2800,"station_id":"ce4bhn12rcd13ifvqgpg","pricing_plan_id":"cebpf4jnsgd1na2vs0mg"},{"bike_id":"370471c9-7bbf-4440-9450-01fa0a6bf389","system_id":"levelo_inurba_marseille","lat":43.337586,"lon":5.374805,"is_reserved":false,"is_disabled":true,"rental_uris":{"android":"levelo://app?vid=370471c9-7bbf-4440-9450-01fa0a6bf389","ios":"levelo://app?vid=370471c9-7bbf-4440-9450-01fa0a6bf389"},"vehicle_type_id":"4","last_reported":1749536140,"current_range_meters":2800,"station_id":"","pricing_plan_id":"cebpf4jnsgd1na2vs0mg"},{"bike_id":"994fbbd1-7b7a-4973-8b72-780a5cbeda75","system_id":"levelo_inurba_marseille","lat":43.289754,"lon":5.378454,"is_reserved":false,"is_disabled":true,"rental_uris":{"android":"levelo://app?vid=994fbbd1-7b7a-4973-8b72-780a5cbeda75","ios":"levelo://app?vid=994fbbd1-7b7a-4973-8b72-780a5cbeda75"},"vehicle_type_id":"4","last_reported":1749536140,"current_range_meters":3200,"station_id":"ce4bh9p2rcd13ifvqed0","pricing_plan_id":"cebpf4jnsgd1na2vs0mg"},{"bike_id":"8bb410a7-d576-4e05-a813-009d4f293e71","system_id":"levelo_inurba_marseille","lat":43.30911,"lon":5.36839,"is_reserved":false,"is_disabled":false,"rental_uris":{"android":"levelo://app?vid=8bb410a7-d576-4e05-a813-009d4f293e71","ios":"levelo://app?vid=8bb410a7-d576-4e05-a813-009d4f293e71"},"vehicle_type_id":"4","last_reported":1749536140,"current_range_meters":3200,"station_id":"ce4bgn92rcd13ifvqbvg","pricing_plan_id":"cebpf4jnsgd1na2vs0mg"},{"bike_id":"a61242dd-8369-4520-9963-a504224e1a30","system_id":"levelo_inurba_marseille","lat":43.23137,"lon":5.40798,"is_reserved":false,"is_disabled":true,"rental_uris":{"android":"levelo://app?vid=a61242dd-8369-4520-9963-a504224e1a30","ios":"levelo://app?vid=a61242dd-8369-4520-9963-a504224e1a30"},"vehicle_type_id":"4","last_reported":1749536140,"current_range_meters":3200,"station_id":"","pricing_plan_id":"cebpf4jnsgd1na2vs0mg"},{"bike_id":"5878f80c-b2bb-4352-99ea-67e3a7136bd9","system_id":"levelo_inurba_marseille","lat":43.33025,"lon":5.39024,"is_reserved":false,"is_disabled":false,"rental_uris":{"android":"levelo://app?vid=5878f80c-b2bb-4352-99ea-67e3a7136bd9","ios":"levelo://app?vid=5878f80c-b2bb-4352-99ea-67e3a7136bd9"},"vehicle_type_id":"4","last_reported":1749536140,"current_range_meters":3200,"station_id":"ce4bhr92rcd13ifvqhrg","pricing_plan_id":"cebpf4jnsgd1na2vs0mg"},{"bike_id":"a98c821e-0660-4ba3-86cc-55c06f1a4162","system_id":"levelo_inurba_marseille","lat":43.24078,"lon":5.37759,"is_reserved":false,"is_disabled":false,"rental_uris":{"android":"levelo://app?vid=a98c821e-0660-4ba3-86cc-55c06f1a4162","ios":"levelo://app?vid=a98c821e-0660-4ba3-86cc-55c06f1a4162"},"vehicle_type_id":"4","last_reported":1749536140,"current_range_meters":4000,"station_id":"ce4bhnp2rcd13ifvqgvg","pricing_plan_id":"cebpf4jnsgd1na2vs0mg"},{"bike_id":"8c03ec80-dc19-4c9d-b151-e0210828c13a","system_id":"levelo_inurba_marseille","lat":43.29672,"lon":5.39412,"is_reserved":false,"is_disabled":false,"rental_uris":{"android":"levelo://app?vid=8c03ec80-dc19-4c9d-b151-e0210828c13a","ios":"levelo://app?vid=8c03ec80-dc19-4c9d-b151-e0210828c13a"},"vehicle_type_id":"4","last_reported":1749536140,"current_range_meters":4000,"station_id":"","pricing_plan_id":"cebpf4jnsgd1na2vs0mg"},{"bike_id":"46ad0958-a2d7-473e-8aeb-a02bfd147679","system_id":"levelo_inurba_marseille","lat":43.23964,"lon":5.36623,"is_reserved":false,"is_disabled":true,"rental_uris":{"android":"levelo://app?vid=46ad0958-a2d7-473e-8aeb-a02bfd147679","ios":"levelo://app?vid=46ad0958-a2d7-473e-8aeb-a02bfd147679"},"vehicle_type_id":"4","last_reported":1749536140,"current_range_meters":4000,"station_id":"ce4bhi12rcd13ifvqfp0","pricing_plan_id":"cebpf4jnsgd1na2vs0mg"},{"bike_id":"6d691a1f-e8cc-404e-aa28-71e3fdb381f1","system_id":"levelo_inurba_marseille","lat":43.33719,"lon":5.35607,"is_reserved":false,"is_disabled":false,"rental_uris":{"android":"levelo://app?vid=6d691a1f-e8cc-404e-aa28-71e3fdb381f1","ios":"levelo://app?vid=6d691a1f-e8cc-404e-aa28-71e3fdb381f1"},"vehicle_type_id":"4","last_reported":1749536140,"current_range_meters":4400,"station_id":"","pricing_plan_id":"cebpf4jnsgd1na2vs0mg"},{"bike_id":"f595d01f-c09c-4e53-8139-992b3d8404ce","system_id":"levelo_inurba_marseille","lat":43.30477,"lon":5.37905,"is_reserved":false,"is_disabled":false,"rental_uris":{"android":"levelo://app?vid=f595d01f-c09c-4e53-8139-992b3d8404ce","ios":"levelo://app?vid=f595d01f-c09c-4e53-8139-992b3d8404ce"},"vehicle_type_id":"4","last_reported":1749536140,"current_range_meters":4400,"station_id":"ce4bgup2rcd13ifvqcn0","pricing_plan_id":"cebpf4jnsgd1na2vs0mg"},{"bike_id":"134658a8-5f5f-405e-a3fb-864ffb76fc1a","system_id":"levelo_inurba_marseille","lat":43.26186,"lon":5.37471,"is_reserved":false,"is_disabled":false,"rental_uris":{"android":"levelo://app?vid=134658a8-5f5f-405e-a3fb-864ffb76fc1a","ios":"levelo://app?vid=134658a8-5f5f-405e-a3fb-864ffb76fc1a"},"vehicle_type_id":"4","last_reported":1749536140,"current_range_meters":4400,"station_id":"ce4bhgp2rcd13ifvqfc0","pricing_plan_id":"cebpf4jnsgd1na2vs0mg"},{"bike_id":"d3860c84-0e7a-473f-a04e-1ba052379ffe","system_id":"levelo_inurba_marseille","lat":43.29574,"lon":5.39351,"is_reserved":false,"is_disabled":false,"rental_uris":{"android":"levelo://app?vid=d3860c84-0e7a-473f-a04e-1ba052379ffe","ios":"levelo://app?vid=d3860c84-0e7a-473f-a04e-1ba052379ffe"},"vehicle_type_id":"4","last_reported":1749536140,"current_range_meters":5600,"station_id":"","pricing_plan_id":"cebpf4jnsgd1na2vs0mg"},{"bike_id":"5ff7c847-94f1-4642-94ea-e9dc6811d073","system_id":"levelo_inurba_marseille","lat":43.26011,"lon":5.37407,"is_reserved":false,"is_disabled":true,"rental_uris":{"android":"levelo://app?vid=5ff7c847-94f1-4642-94ea-e9dc6811d073","ios":"levelo://app?vid=5ff7c847-94f1-4642-94ea-e9dc6811d073"},"vehicle_type_id":"4","last_reported":1749536140,"current_range_meters":5600,"station_id":"","pricing_plan_id":"cebpf4jnsgd1na2vs0mg"},{"bike_id":"91f3b7e1-f851-4680-a9ee-917456aaa73f","system_id":"levelo_inurba_marseille","lat":43.28432,"lon":5.39214,"is_reserved":false,"is_disabled":false,"rental_uris":{"android":"levelo://app?vid=91f3b7e1-f851-4680-a9ee-917456aaa73f","ios":"levelo://app?vid=91f3b7e1-f851-4680-a9ee-917456aaa73f"},"vehicle_type_id":"4","last_reported":1749536140,"current_range_meters":6000,"station_id":"ce4bhoh2rcd13ifvqh5g","pricing_plan_id":"cebpf4jnsgd1na2vs0mg"},{"bike_id":"d8dc32cf-a23e-466f-9b7c-e6499c978656","system_id":"levelo_inurba_marseille","lat":43.30303,"lon":5.39207,"is_reserved":false,"is_disabled":false,"rental_uris":{"android":"levelo://app?vid=d8dc32cf-a23e-466f-9b7c-e6499c978656","ios":"levelo://app?vid=d8dc32cf-a23e-466f-9b7c-e6499c978656"},"vehicle_type_id":"4","last_reported":1749536140,"current_range_meters":6000,"station_id":"ce4bgkh2rcd13ifvqbk0","pricing_plan_id":"cebpf4jnsgd1na2vs0mg"},{"bike_id":"9cd7e3b6-3a6c-4599-87c4-09cad6e5304c","system_id":"levelo_inurba_marseille","lat":43.323594,"lon":5.38887,"is_reserved":false,"is_disabled":false,"rental_uris":{"android":"levelo://app?vid=9cd7e3b6-3a6c-4599-87c4-09cad6e5304c","ios":"levelo://app?vid=9cd7e3b6-3a6c-4599-87c4-09cad6e5304c"},"vehicle_type_id":"4","last_reported":1749536140,"current_range_meters":6000,"station_id":"ce4bhqp2rcd13ifvqhog","pricing_plan_id":"cebpf4jnsgd1na2vs0mg"},{"bike_id":"1022cd5f-2520-4520-b841-53be7c299c99","system_id":"levelo_inurba_marseille","lat":43.30218,"lon":5.39459,"is_reserved":false,"is_disabled":false,"rental_uris":{"android":"levelo://app?vid=1022cd5f-2520-4520-b841-53be7c299c99","ios":"levelo://app?vid=1022cd5f-2520-4520-b841-53be7c299c99"},"vehicle_type_id":"4","last_reported":1749536140,"current_range_meters":6000,"station_id":"ce4bh0p2rcd13ifvqd70","pricing_plan_id":"cebpf4jnsgd1na2vs0mg"},{"bike_id":"89e61be4-479c-4cec-a748-e4051ae578a2","system_id":"levelo_inurba_marseille","lat":43.323599,"lon":5.388891,"is_reserved":false,"is_disabled":false,"rental_uris":{"android":"levelo://app?vid=89e61be4-479c-4cec-a748-e4051ae578a2","ios":"levelo://app?vid=89e61be4-479c-4cec-a748-e4051ae578a2"},"vehicle_type_id":"4","last_reported":1749536140,"current_range_meters":6000,"station_id":"ce4bhqp2rcd13ifvqhog","pricing_plan_id":"cebpf4jnsgd1na2vs0mg"},{"bike_id":"39cdf7ed-89dc-4de2-aafe-6c9905ce3698","system_id":"levelo_inurba_marseille","lat":43.29789,"lon":5.36773,"is_reserved":false,"is_disabled":false,"rental_uris":{"android":"levelo://app?vid=39cdf7ed-89dc-4de2-aafe-6c9905ce3698","ios":"levelo://app?vid=39cdf7ed-89dc-4de2-aafe-6c9905ce3698"},"vehicle_type_id":"4","last_reported":1749536140,"current_range_meters":6400,"station_id":"","pricing_plan_id":"cebpf4jnsgd1na2vs0mg"},{"bike_id":"11d99533-1239-4522-b0b5-f8a3bff696e7","system_id":"levelo_inurba_marseille","lat":43.30145,"lon":5.42442,"is_reserved":false,"is_disabled":false,"rental_uris":{"android":"levelo://app?vid=11d99533-1239-4522-b0b5-f8a3bff696e7","ios":"levelo://app?vid=11d99533-1239-4522-b0b5-f8a3bff696e7"},"vehicle_type_id":"4","last_reported":1749536140,"current_range_meters":6400,"station_id":"","pricing_plan_id":"cebpf4jnsgd1na2vs0mg"},{"bike_id":"9ab5dcb2-22af-49e2-b2c1-32117ad578dc","system_id":"levelo_inurba_marseille","lat":43.2953,"lon":5.4258,"is_reserved":false,"is_disabled":false,"rental_uris":{"android":"levelo://app?vid=9ab5dcb2-22af-49e2-b2c1-32117ad578dc","ios":"levelo://app?vid=9ab5dcb2-22af-49e2-b2c1-32117ad578dc"},"vehicle_type_id":"4","last_reported":1749536140,"current_range_meters":6400,"station_id":"","pricing_plan_id":"cebpf4jnsgd1na2vs0mg"},{"bike_id":"8b4caff4-6ee7-47a5-a64f-5ccaa83c132f","system_id":"levelo_inurba_marseille","lat":43.29512,"lon":5.42518,"is_reserved":false,"is_disabled":false,"rental_uris":{"android":"levelo://app?vid=8b4caff4-6ee7-47a5-a64f-5ccaa83c132f","ios":"levelo://app?vid=8b4caff4-6ee7-47a5-a64f-5ccaa83c132f"},"vehicle_type_id":"4","last_reported":1749536140,"current_range_meters":6400,"station_id":"","pricing_plan_id":"cebpf4jnsgd1na2vs0mg"},{"bike_id":"5cab8021-47c8-4131-a2c2-7572304f54a4","system_id":"levelo_inurba_marseille","lat":43.28277,"lon":5.350701,"is_reserved":false,"is_disabled":true,"rental_uris":{"android":"levelo://app?vid=5cab8021-47c8-4131-a2c2-7572304f54a4","ios":"levelo://app?vid=5cab8021-47c8-4131-a2c2-7572304f54a4"},"vehicle_type_id":"4","last_reported":1749536140,"current_range_meters":6400,"station_id":"ce4bhbp2rcd13ifvqerg","pricing_plan_id":"cebpf4jnsgd1na2vs0mg"},{"bike_id":"a34aa760-19cf-4750-9133-b676aeeef362","system_id":"levelo_inurba_marseille","lat":43.29542,"lon":5.37486,"is_reserved":false,"is_disabled":true,"rental_uris":{"android":"levelo://app?vid=a34aa760-19cf-4750-9133-b676aeeef362","ios":"levelo://app?vid=a34aa760-19cf-4750-9133-b676aeeef362"},"vehicle_type_id":"4","last_reported":1749536140,"current_range_meters":6800,"station_id":"ce4bgkp2rcd13ifvqbmg","pricing_plan_id":"cebpf4jnsgd1na2vs0mg"},{"bike_id":"face3f4f-ed5e-448e-97cb-093774dcb28c","system_id":"levelo_inurba_marseille","lat":43.315,"lon":5.37283,"is_reserved":false,"is_disabled":false,"rental_uris":{"android":"levelo://app?vid=face3f4f-ed5e-448e-97cb-093774dcb28c","ios":"levelo://app?vid=face3f4f-ed5e-448e-97cb-093774dcb28c"},"vehicle_type_id":"4","last_reported":1749536140,"current_range_meters":6800,"station_id":"ce4bgt12rcd13ifvqcd0","pricing_plan_id":"cebpf4jnsgd1na2vs0mg"},{"bike_id":"3bb87db6-8022-418f-a4aa-7c455834f81e","system_id":"levelo_inurba_marseille","lat":43.235869,"lon":5.379146,"is_reserved":false,"is_disabled":true,"rental_uris":{"android":"levelo://app?vid=3bb87db6-8022-418f-a4aa-7c455834f81e","ios":"levelo://app?vid=3bb87db6-8022-418f-a4aa-7c455834f81e"},"vehicle_type_id":"4","last_reported":1749536140,"current_range_meters":7200,"station_id":"","pricing_plan_id":"cebpf4jnsgd1na2vs0mg"},{"bike_id":"dd67f108-95bf-4a1e-b619-4bb77e009c5b","system_id":"levelo_inurba_marseille","lat":43.29069,"lon":5.42754,"is_reserved":false,"is_disabled":false,"rental_uris":{"android":"levelo://app?vid=dd67f108-95bf-4a1e-b619-4bb77e009c5b","ios":"levelo://app?vid=dd67f108-95bf-4a1e-b619-4bb77e009c5b"},"vehicle_type_id":"4","last_reported":1749536140,"current_range_meters":7200,"station_id":"","pricing_plan_id":"cebpf4jnsgd1na2vs0mg"},{"bike_id":"41230260-2359-4710-ab51-c6e7d2660e1d","system_id":"levelo_inurba_marseille","lat":43.26783,"lon":5.39414,"is_reserved":false,"is_disabled":true,"rental_uris":{"android":"levelo://app?vid=41230260-2359-4710-ab51-c6e7d2660e1d","ios":"levelo://app?vid=41230260-2359-4710-ab51-c6e7d2660e1d"},"vehicle_type_id":"4","last_reported":1749536140,"current_range_meters":7200,"station_id":"ce4bhh12rcd13ifvqfg0","pricing_plan_id":"cebpf4jnsgd1na2vs0mg"},{"bike_id":"b627a4bc-ec3d-4a3d-b098-2cb9e5bfa8f1","system_id":"levelo_inurba_marseille","lat":43.289599,"lon":5.479222,"is_reserved":false,"is_disabled":true,"rental_uris":{"android":"levelo://app?vid=b627a4bc-ec3d-4a3d-b098-2cb9e5bfa8f1","ios":"levelo://app?vid=b627a4bc-ec3d-4a3d-b098-2cb9e5bfa8f1"},"vehicle_type_id":"4","last_reported":1749536140,"current_range_meters":7200,"station_id":"","pricing_plan_id":"cebpf4jnsgd1na2vs0mg"},{"bike_id":"ee7a2e6a-3e65-41f6-b8b3-501fb42682dc","system_id":"levelo_inurba_marseille","lat":43.27571,"lon":5.38412,"is_reserved":false,"is_disabled":true,"rental_uris":{"android":"levelo://app?vid=ee7a2e6a-3e65-41f6-b8b3-501fb42682dc","ios":"levelo://app?vid=ee7a2e6a-3e65-41f6-b8b3-501fb42682dc"},"vehicle_type_id":"4","last_reported":1749536140,"current_range_meters":7200,"station_id":"ce4bhh92rcd13ifvqfi0","pricing_plan_id":"cebpf4jnsgd1na2vs0mg"},{"bike_id":"2e5b7a2e-ae80-4b63-807c-0d74d0713d36","system_id":"levelo_inurba_marseille","lat":43.284257,"lon":5.349864,"is_reserved":false,"is_disabled":true,"rental_uris":{"android":"levelo://app?vid=2e5b7a2e-ae80-4b63-807c-0d74d0713d36","ios":"levelo://app?vid=2e5b7a2e-ae80-4b63-807c-0d74d0713d36"},"vehicle_type_id":"4","last_reported":1749536140,"current_range_meters":8000,"station_id":"ce4bhbh2rcd13ifvqepg","pricing_plan_id":"cebpf4jnsgd1na2vs0mg"},{"bike_id":"7a286b17-17df-491a-a381-1330c2f7a715","system_id":"levelo_inurba_marseille","lat":43.29897,"lon":5.43673,"is_reserved":false,"is_disabled":false,"rental_uris":{"android":"levelo://app?vid=7a286b17-17df-491a-a381-1330c2f7a715","ios":"levelo://app?vid=7a286b17-17df-491a-a381-1330c2f7a715"},"vehicle_type_id":"4","last_reported":1749536140,"current_range_meters":8000,"station_id":"ce4bhpp2rcd13ifvqhfg","pricing_plan_id":"cebpf4jnsgd1na2vs0mg"},{"bike_id":"be6bb629-859a-42f4-938c-1ae89a5723e7","system_id":"levelo_inurba_marseille","lat":43.25002,"lon":5.38924,"is_reserved":false,"is_disabled":false,"rental_uris":{"android":"levelo://app?vid=be6bb629-859a-42f4-938c-1ae89a5723e7","ios":"levelo://app?vid=be6bb629-859a-42f4-938c-1ae89a5723e7"},"vehicle_type_id":"4","last_reported":1749536140,"current_range_meters":8000,"station_id":"ce4bhgp2rcd13ifvqfd0","pricing_plan_id":"cebpf4jnsgd1na2vs0mg"},{"bike_id":"7101e620-cc76-4028-b91a-a52aa997ec1d","system_id":"levelo_inurba_marseille","lat":43.30644,"lon":5.37364,"is_reserved":false,"is_disabled":false,"rental_uris":{"android":"levelo://app?vid=7101e620-cc76-4028-b91a-a52aa997ec1d","ios":"levelo://app?vid=7101e620-cc76-4028-b91a-a52aa997ec1d"},"vehicle_type_id":"4","last_reported":1749536140,"current_range_meters":8000,"station_id":"","pricing_plan_id":"cebpf4jnsgd1na2vs0mg"},{"bike_id":"1e81a32b-a654-4850-aaa5-a9d684742657","system_id":"levelo_inurba_marseille","lat":43.31596,"lon":5.38318,"is_reserved":false,"is_disabled":false,"rental_uris":{"android":"levelo://app?vid=1e81a32b-a654-4850-aaa5-a9d684742657","ios":"levelo://app?vid=1e81a32b-a654-4850-aaa5-a9d684742657"},"vehicle_type_id":"4","last_reported":1749536140,"current_range_meters":8400,"station_id":"","pricing_plan_id":"cebpf4jnsgd1na2vs0mg"},{"bike_id":"d2f4a071-9ee4-4136-bba7-682038a82cc5","system_id":"levelo_inurba_marseille","lat":43.3188,"lon":5.40738,"is_reserved":false,"is_disabled":false,"rental_uris":{"android":"levelo://app?vid=d2f4a071-9ee4-4136-bba7-682038a82cc5","ios":"levelo://app?vid=d2f4a071-9ee4-4136-bba7-682038a82cc5"},"vehicle_type_id":"4","last_reported":1749536140,"current_range_meters":8400,"station_id":"ce4bhq12rcd13ifvqhig","pricing_plan_id":"cebpf4jnsgd1na2vs0mg"},{"bike_id":"cf365ce7-86fe-4725-a7d1-358b9c225f96","system_id":"levelo_inurba_marseille","lat":43.30886,"lon":5.37199,"is_reserved":false,"is_disabled":false,"rental_uris":{"android":"levelo://app?vid=cf365ce7-86fe-4725-a7d1-358b9c225f96","ios":"levelo://app?vid=cf365ce7-86fe-4725-a7d1-358b9c225f96"},"vehicle_type_id":"4","last_reported":1749536140,"current_range_meters":8000,"station_id":"ce4bguh2rcd13ifvqckg","pricing_plan_id":"cebpf4jnsgd1na2vs0mg"},{"bike_id":"a6cfb09f-939c-4d75-b27a-4f2831d19bd7","system_id":"levelo_inurba_marseille","lat":43.29276,"lon":5.40172,"is_reserved":false,"is_disabled":false,"rental_uris":{"android":"levelo://app?vid=a6cfb09f-939c-4d75-b27a-4f2831d19bd7","ios":"levelo://app?vid=a6cfb09f-939c-4d75-b27a-4f2831d19bd7"},"vehicle_type_id":"4","last_reported":1749536140,"current_range_meters":8400,"station_id":"ce4bh312rcd13ifvqdk0","pricing_plan_id":"cebpf4jnsgd1na2vs0mg"},{"bike_id":"254287fe-ca2d-4834-a5ea-6bba3d67020d","system_id":"levelo_inurba_marseille","lat":43.30894,"lon":5.37194,"is_reserved":false,"is_disabled":false,"rental_uris":{"android":"levelo://app?vid=254287fe-ca2d-4834-a5ea-6bba3d67020d","ios":"levelo://app?vid=254287fe-ca2d-4834-a5ea-6bba3d67020d"},"vehicle_type_id":"4","last_reported":1749536140,"current_range_meters":8400,"station_id":"ce4bguh2rcd13ifvqckg","pricing_plan_id":"cebpf4jnsgd1na2vs0mg"},{"bike_id":"269c3ad1-219f-4f66-afed-c62bc34ad4b1","system_id":"levelo_inurba_marseille","lat":43.29451,"lon":5.39737,"is_reserved":false,"is_disabled":false,"rental_uris":{"android":"levelo://app?vid=269c3ad1-219f-4f66-afed-c62bc34ad4b1","ios":"levelo://app?vid=269c3ad1-219f-4f66-afed-c62bc34ad4b1"},"vehicle_type_id":"4","last_reported":1749536140,"current_range_meters":8400,"station_id":"ce4bh3h2rcd13ifvqdo0","pricing_plan_id":"cebpf4jnsgd1na2vs0mg"},{"bike_id":"d9b97b38-3c66-4fc9-9c84-79e8ce72266a","system_id":"levelo_inurba_marseille","lat":43.25002,"lon":5.38929,"is_reserved":false,"is_disabled":false,"rental_uris":{"android":"levelo://app?vid=d9b97b38-3c66-4fc9-9c84-79e8ce72266a","ios":"levelo://app?vid=d9b97b38-3c66-4fc9-9c84-79e8ce72266a"},"vehicle_type_id":"4","last_reported":1749536140,"current_range_meters":8400,"station_id":"ce4bhgp2rcd13ifvqfd0","pricing_plan_id":"cebpf4jnsgd1na2vs0mg"},{"bike_id":"b2be2598-457e-490f-9d7d-15b50a487e94","system_id":"levelo_inurba_marseille","lat":43.29967,"lon":5.38494,"is_reserved":false,"is_disabled":false,"rental_uris":{"android":"levelo://app?vid=b2be2598-457e-490f-9d7d-15b50a487e94","ios":"levelo://app?vid=b2be2598-457e-490f-9d7d-15b50a487e94"},"vehicle_type_id":"4","last_reported":1749536140,"current_range_meters":8400,"station_id":"ce4bgj92rcd13ifvqbd0","pricing_plan_id":"cebpf4jnsgd1na2vs0mg"},{"bike_id":"6fd4cd93-a409-4da9-ad4b-b6025023458d","system_id":"levelo_inurba_marseille","lat":43.3011,"lon":5.37088,"is_reserved":false,"is_disabled":false,"rental_uris":{"android":"levelo://app?vid=6fd4cd93-a409-4da9-ad4b-b6025023458d","ios":"levelo://app?vid=6fd4cd93-a409-4da9-ad4b-b6025023458d"},"vehicle_type_id":"4","last_reported":1749536140,"current_range_meters":8800,"station_id":"","pricing_plan_id":"cebpf4jnsgd1na2vs0mg"},{"bike_id":"20b8c987-7a41-4f7d-b942-070942ae3ccd","system_id":"levelo_inurba_marseille","lat":43.2928,"lon":5.40122,"is_reserved":false,"is_disabled":false,"rental_uris":{"android":"levelo://app?vid=20b8c987-7a41-4f7d-b942-070942ae3ccd","ios":"levelo://app?vid=20b8c987-7a41-4f7d-b942-070942ae3ccd"},"vehicle_type_id":"4","last_reported":1749536140,"current_range_meters":8800,"station_id":"ce4bh312rcd13ifvqdk0","pricing_plan_id":"cebpf4jnsgd1na2vs0mg"},{"bike_id":"e74b1d7d-bf9f-433e-abdc-22c21907f883","system_id":"levelo_inurba_marseille","lat":43.25923,"lon":5.40893,"is_reserved":false,"is_disabled":false,"rental_uris":{"android":"levelo://app?vid=e74b1d7d-bf9f-433e-abdc-22c21907f883","ios":"levelo://app?vid=e74b1d7d-bf9f-433e-abdc-22c21907f883"},"vehicle_type_id":"4","last_reported":1749536140,"current_range_meters":8800,"station_id":"ce4bhm92rcd13ifvqglg","pricing_plan_id":"cebpf4jnsgd1na2vs0mg"},{"bike_id":"a8fcb642-c8d4-48b7-bc7d-d92da8830f3d","system_id":"levelo_inurba_marseille","lat":43.299856,"lon":5.371741,"is_reserved":false,"is_disabled":true,"rental_uris":{"android":"levelo://app?vid=a8fcb642-c8d4-48b7-bc7d-d92da8830f3d","ios":"levelo://app?vid=a8fcb642-c8d4-48b7-bc7d-d92da8830f3d"},"vehicle_type_id":"4","last_reported":1749536140,"current_range_meters":8800,"station_id":"ce4bgr92rcd13ifvqc7g","pricing_plan_id":"cebpf4jnsgd1na2vs0mg"},{"bike_id":"35055393-59aa-400c-82f3-1df464532a80","system_id":"levelo_inurba_marseille","lat":43.31359,"lon":5.38493,"is_reserved":false,"is_disabled":false,"rental_uris":{"android":"levelo://app?vid=35055393-59aa-400c-82f3-1df464532a80","ios":"levelo://app?vid=35055393-59aa-400c-82f3-1df464532a80"},"vehicle_type_id":"4","last_reported":1749536140,"current_range_meters":8800,"station_id":"ce4bgt92rcd13ifvqcf0","pricing_plan_id":"cebpf4jnsgd1na2vs0mg"},{"bike_id":"4497bc7b-bd64-47d5-92de-a3021c6fff2f","system_id":"levelo_inurba_marseille","lat":43.32485,"lon":5.36551,"is_reserved":false,"is_disabled":false,"rental_uris":{"android":"levelo://app?vid=4497bc7b-bd64-47d5-92de-a3021c6fff2f","ios":"levelo://app?vid=4497bc7b-bd64-47d5-92de-a3021c6fff2f"},"vehicle_type_id":"4","last_reported":1749536140,"current_range_meters":8800,"station_id":"ce4bhs12rcd13ifvqhvg","pricing_plan_id":"cebpf4jnsgd1na2vs0mg"},{"bike_id":"60574b4d-5b84-4c23-9869-7030add2bd57","system_id":"levelo_inurba_marseille","lat":43.31759,"lon":5.39013,"is_reserved":false,"is_disabled":false,"rental_uris":{"android":"levelo://app?vid=60574b4d-5b84-4c23-9869-7030add2bd57","ios":"levelo://app?vid=60574b4d-5b84-4c23-9869-7030add2bd57"},"vehicle_type_id":"4","last_reported":1749536140,"current_range_meters":8800,"station_id":"ce4bhqp2rcd13ifvqhng","pricing_plan_id":"cebpf4jnsgd1na2vs0mg"},{"bike_id":"f71b771e-f6e0-4663-a989-109872f9949d","system_id":"levelo_inurba_marseille","lat":43.30534,"lon":5.36701,"is_reserved":false,"is_disabled":false,"rental_uris":{"android":"levelo://app?vid=f71b771e-f6e0-4663-a989-109872f9949d","ios":"levelo://app?vid=f71b771e-f6e0-4663-a989-109872f9949d"},"vehicle_type_id":"4","last_reported":1749536140,"current_range_meters":8800,"station_id":"ce4bgrp2rcd13ifvqc9g","pricing_plan_id":"cebpf4jnsgd1na2vs0mg"},{"bike_id":"62bea32f-b147-4070-b162-523f879a2a9c","system_id":"levelo_inurba_marseille","lat":43.253168,"lon":5.393634,"is_reserved":false,"is_disabled":true,"rental_uris":{"android":"levelo://app?vid=62bea32f-b147-4070-b162-523f879a2a9c","ios":"levelo://app?vid=62bea32f-b147-4070-b162-523f879a2a9c"},"vehicle_type_id":"4","last_reported":1749536140,"current_range_meters":8800,"station_id":"","pricing_plan_id":"cebpf4jnsgd1na2vs0mg"},{"bike_id":"c09b1c1e-6d5b-4a72-8f97-eccd430a9e54","system_id":"levelo_inurba_marseille","lat":43.26677,"lon":5.38264,"is_reserved":false,"is_disabled":true,"rental_uris":{"android":"levelo://app?vid=c09b1c1e-6d5b-4a72-8f97-eccd430a9e54","ios":"levelo://app?vid=c09b1c1e-6d5b-4a72-8f97-eccd430a9e54"},"vehicle_type_id":"4","last_reported":1749536140,"current_range_meters":8800,"station_id":"ce4bhgp2rcd13ifvqfc0","pricing_plan_id":"cebpf4jnsgd1na2vs0mg"},{"bike_id":"891bbe9c-bdee-4496-9b81-374f60075b8d","system_id":"levelo_inurba_marseille","lat":43.308039,"lon":5.381655,"is_reserved":false,"is_disabled":false,"rental_uris":{"android":"levelo://app?vid=891bbe9c-bdee-4496-9b81-374f60075b8d","ios":"levelo://app?vid=891bbe9c-bdee-4496-9b81-374f60075b8d"},"vehicle_type_id":"4","last_reported":1749536140,"current_range_meters":9200,"station_id":"ce4bgt12rcd13ifvqce0","pricing_plan_id":"cebpf4jnsgd1na2vs0mg"},{"bike_id":"d7030190-8990-4e1e-9de1-604a08fb39e2","system_id":"levelo_inurba_marseille","lat":43.30433,"lon":5.39129,"is_reserved":false,"is_disabled":false,"rental_uris":{"android":"levelo://app?vid=d7030190-8990-4e1e-9de1-604a08fb39e2","ios":"levelo://app?vid=d7030190-8990-4e1e-9de1-604a08fb39e2"},"vehicle_type_id":"4","last_reported":1749536140,"current_range_meters":9200,"station_id":"","pricing_plan_id":"cebpf4jnsgd1na2vs0mg"},{"bike_id":"2f32b755-3ca4-4102-8e33-37fff5e1ff8d","system_id":"levelo_inurba_marseille","lat":43.27139,"lon":5.40177,"is_reserved":false,"is_disabled":false,"rental_uris":{"android":"levelo://app?vid=2f32b755-3ca4-4102-8e33-37fff5e1ff8d","ios":"levelo://app?vid=2f32b755-3ca4-4102-8e33-37fff5e1ff8d"},"vehicle_type_id":"4","last_reported":1749536140,"current_range_meters":9200,"station_id":"","pricing_plan_id":"cebpf4jnsgd1na2vs0mg"},{"bike_id":"88285205-2359-4354-a3ec-a6776c6e646e","system_id":"levelo_inurba_marseille","lat":43.29758,"lon":5.39774,"is_reserved":false,"is_disabled":false,"rental_uris":{"android":"levelo://app?vid=88285205-2359-4354-a3ec-a6776c6e646e","ios":"levelo://app?vid=88285205-2359-4354-a3ec-a6776c6e646e"},"vehicle_type_id":"4","last_reported":1749536140,"current_range_meters":9200,"station_id":"","pricing_plan_id":"cebpf4jnsgd1na2vs0mg"},{"bike_id":"eca942b4-34e9-4d21-b68a-0dfee2c9821f","system_id":"levelo_inurba_marseille","lat":43.30141,"lon":5.38775,"is_reserved":false,"is_disabled":false,"rental_uris":{"android":"levelo://app?vid=eca942b4-34e9-4d21-b68a-0dfee2c9821f","ios":"levelo://app?vid=eca942b4-34e9-4d21-b68a-0dfee2c9821f"},"vehicle_type_id":"4","last_reported":1749536140,"current_range_meters":9200,"station_id":"ce4bghh2rcd13ifvqb60","pricing_plan_id":"cebpf4jnsgd1na2vs0mg"},{"bike_id":"af33041f-9893-40e6-9888-f07adb2ea325","system_id":"levelo_inurba_marseille","lat":43.28703,"lon":5.39978,"is_reserved":false,"is_disabled":false,"rental_uris":{"android":"levelo://app?vid=af33041f-9893-40e6-9888-f07adb2ea325","ios":"levelo://app?vid=af33041f-9893-40e6-9888-f07adb2ea325"},"vehicle_type_id":"4","last_reported":1749536140,"current_range_meters":9200,"station_id":"ce4bho92rcd13ifvqh3g","pricing_plan_id":"cebpf4jnsgd1na2vs0mg"},{"bike_id":"b917c716-764c-4d37-a337-bb31d5ca52b8","system_id":"levelo_inurba_marseille","lat":43.21191,"lon":5.3507,"is_reserved":false,"is_disabled":false,"rental_uris":{"android":"levelo://app?vid=b917c716-764c-4d37-a337-bb31d5ca52b8","ios":"levelo://app?vid=b917c716-764c-4d37-a337-bb31d5ca52b8"},"vehicle_type_id":"4","last_reported":1749536140,"current_range_meters":9200,"station_id":"st_cvj6sg6p6f1abm77japg","pricing_plan_id":"cebpf4jnsgd1na2vs0mg"},{"bike_id":"da14da1f-7442-42b5-98f6-365f4fbd4c56","system_id":"levelo_inurba_marseille","lat":43.32429,"lon":5.41184,"is_reserved":false,"is_disabled":false,"rental_uris":{"android":"levelo://app?vid=da14da1f-7442-42b5-98f6-365f4fbd4c56","ios":"levelo://app?vid=da14da1f-7442-42b5-98f6-365f4fbd4c56"},"vehicle_type_id":"4","last_reported":1749536140,"current_range_meters":9200,"station_id":"","pricing_plan_id":"cebpf4jnsgd1na2vs0mg"},{"bike_id":"2af4af64-0065-45b8-93fc-e286f53a888e","system_id":"levelo_inurba_marseille","lat":43.23386,"lon":5.36522,"is_reserved":false,"is_disabled":false,"rental_uris":{"android":"levelo://app?vid=2af4af64-0065-45b8-93fc-e286f53a888e","ios":"levelo://app?vid=2af4af64-0065-45b8-93fc-e286f53a888e"},"vehicle_type_id":"4","last_reported":1749536140,"current_range_meters":9200,"station_id":"","pricing_plan_id":"cebpf4jnsgd1na2vs0mg"},{"bike_id":"41b05a5c-3976-4894-82d0-3dd8ff457770","system_id":"levelo_inurba_marseille","lat":43.30935,"lon":5.40136,"is_reserved":false,"is_disabled":false,"rental_uris":{"android":"levelo://app?vid=41b05a5c-3976-4894-82d0-3dd8ff457770","ios":"levelo://app?vid=41b05a5c-3976-4894-82d0-3dd8ff457770"},"vehicle_type_id":"4","last_reported":1749536140,"current_range_meters":9600,"station_id":"ce4bgvp2rcd13ifvqct0","pricing_plan_id":"cebpf4jnsgd1na2vs0mg"},{"bike_id":"411dff5f-a39a-4284-9db2-c186a0e0416d","system_id":"levelo_inurba_marseille","lat":43.2767,"lon":5.38865,"is_reserved":false,"is_disabled":false,"rental_uris":{"android":"levelo://app?vid=411dff5f-a39a-4284-9db2-c186a0e0416d","ios":"levelo://app?vid=411dff5f-a39a-4284-9db2-c186a0e0416d"},"vehicle_type_id":"4","last_reported":1749536140,"current_range_meters":9600,"station_id":"ce4bhi12rcd13ifvqfo0","pricing_plan_id":"cebpf4jnsgd1na2vs0mg"},{"bike_id":"4b9eb7f0-61d0-4628-a7e2-d737cbbeb8ac","system_id":"levelo_inurba_marseille","lat":43.25499,"lon":5.4202,"is_reserved":false,"is_disabled":false,"rental_uris":{"android":"levelo://app?vid=4b9eb7f0-61d0-4628-a7e2-d737cbbeb8ac","ios":"levelo://app?vid=4b9eb7f0-61d0-4628-a7e2-d737cbbeb8ac"},"vehicle_type_id":"4","last_reported":1749536140,"current_range_meters":9600,"station_id":"","pricing_plan_id":"cebpf4jnsgd1na2vs0mg"},{"bike_id":"2649ef45-0b6a-4349-a65a-a2f74f74f74f","system_id":"levelo_inurba_marseille","lat":43.26481,"lon":5.39251,"is_reserved":false,"is_disabled":false,"rental_uris":{"android":"levelo://app?vid=2649ef45-0b6a-4349-a65a-a2f74f74f74f","ios":"levelo://app?vid=2649ef45-0b6a-4349-a65a-a2f74f74f74f"},"vehicle_type_id":"4","last_reported":1749536140,"current_range_meters":9600,"station_id":"","pricing_plan_id":"cebpf4jnsgd1na2vs0mg"},{"bike_id":"5aee6e98-5d72-4a58-8068-559ee9f9703d","system_id":"levelo_inurba_marseille","lat":43.21192,"lon":5.3507,"is_reserved":false,"is_disabled":false,"rental_uris":{"android":"levelo://app?vid=5aee6e98-5d72-4a58-8068-559ee9f9703d","ios":"levelo://app?vid=5aee6e98-5d72-4a58-8068-559ee9f9703d"},"vehicle_type_id":"4","last_reported":1749536140,"current_range_meters":9600,"station_id":"st_cvj6sg6p6f1abm77japg","pricing_plan_id":"cebpf4jnsgd1na2vs0mg"},{"bike_id":"c8c4af1d-070c-484a-a3f7-babd17d99646","system_id":"levelo_inurba_marseille","lat":43.33677,"lon":5.39237,"is_reserved":false,"is_disabled":false,"rental_uris":{"android":"levelo://app?vid=c8c4af1d-070c-484a-a3f7-babd17d99646","ios":"levelo://app?vid=c8c4af1d-070c-484a-a3f7-babd17d99646"},"vehicle_type_id":"4","last_reported":1749536140,"current_range_meters":9600,"station_id":"","pricing_plan_id":"cebpf4jnsgd1na2vs0mg"},{"bike_id":"b85be41e-2140-41ca-9627-a0ca198e2d51","system_id":"levelo_inurba_marseille","lat":43.31475,"lon":5.37253,"is_reserved":false,"is_disabled":false,"rental_uris":{"android":"levelo://app?vid=b85be41e-2140-41ca-9627-a0ca198e2d51","ios":"levelo://app?vid=b85be41e-2140-41ca-9627-a0ca198e2d51"},"vehicle_type_id":"4","last_reported":1749536140,"current_range_meters":10000,"station_id":"ce4bgt12rcd13ifvqcd0","pricing_plan_id":"cebpf4jnsgd1na2vs0mg"},{"bike_id":"38732871-8503-466e-a980-ace2b8f5936b","system_id":"levelo_inurba_marseille","lat":43.27059,"lon":5.42248,"is_reserved":false,"is_disabled":false,"rental_uris":{"android":"levelo://app?vid=38732871-8503-466e-a980-ace2b8f5936b","ios":"levelo://app?vid=38732871-8503-466e-a980-ace2b8f5936b"},"vehicle_type_id":"4","last_reported":1749536140,"current_range_meters":10000,"station_id":"ce4bhk92rcd13ifvqgb0","pricing_plan_id":"cebpf4jnsgd1na2vs0mg"},{"bike_id":"1aa16519-d685-4976-8de7-f71f9cc62b8f","system_id":"levelo_inurba_marseille","lat":43.27767,"lon":5.42152,"is_reserved":false,"is_disabled":true,"rental_uris":{"android":"levelo://app?vid=1aa16519-d685-4976-8de7-f71f9cc62b8f","ios":"levelo://app?vid=1aa16519-d685-4976-8de7-f71f9cc62b8f"},"vehicle_type_id":"4","last_reported":1749536140,"current_range_meters":10000,"station_id":"","pricing_plan_id":"cebpf4jnsgd1na2vs0mg"},{"bike_id":"4eada35f-a65e-4d4e-b60d-b88e9a624416","system_id":"levelo_inurba_marseille","lat":43.2437,"lon":5.37078,"is_reserved":false,"is_disabled":true,"rental_uris":{"android":"levelo://app?vid=4eada35f-a65e-4d4e-b60d-b88e9a624416","ios":"levelo://app?vid=4eada35f-a65e-4d4e-b60d-b88e9a624416"},"vehicle_type_id":"4","last_reported":1749536140,"current_range_meters":10000,"station_id":"ce4bhhh2rcd13ifvqfk0","pricing_plan_id":"cebpf4jnsgd1na2vs0mg"},{"bike_id":"463c3dc9-e6d5-4599-981c-ee322f38485f","system_id":"levelo_inurba_marseille","lat":43.313634,"lon":5.385048,"is_reserved":false,"is_disabled":false,"rental_uris":{"android":"levelo://app?vid=463c3dc9-e6d5-4599-981c-ee322f38485f","ios":"levelo://app?vid=463c3dc9-e6d5-4599-981c-ee322f38485f"},"vehicle_type_id":"4","last_reported":1749536140,"current_range_meters":10000,"station_id":"ce4bgt92rcd13ifvqcf0","pricing_plan_id":"cebpf4jnsgd1na2vs0mg"},{"bike_id":"88113087-f0bb-4133-ab2a-bbfce1f3d99a","system_id":"levelo_inurba_marseille","lat":43.3171,"lon":5.4046,"is_reserved":false,"is_disabled":true,"rental_uris":{"android":"levelo://app?vid=88113087-f0bb-4133-ab2a-bbfce1f3d99a","ios":"levelo://app?vid=88113087-f0bb-4133-ab2a-bbfce1f3d99a"},"vehicle_type_id":"4","last_reported":1749536140,"current_range_meters":10000,"station_id":"ce4bh012rcd13ifvqd00","pricing_plan_id":"cebpf4jnsgd1na2vs0mg"},{"bike_id":"f156dd16-bfc6-4d9c-8774-e71864afe86d","system_id":"levelo_inurba_marseille","lat":43.27991,"lon":5.41661,"is_reserved":false,"is_disabled":true,"rental_uris":{"android":"levelo://app?vid=f156dd16-bfc6-4d9c-8774-e71864afe86d","ios":"levelo://app?vid=f156dd16-bfc6-4d9c-8774-e71864afe86d"},"vehicle_type_id":"4","last_reported":1749536140,"current_range_meters":10000,"station_id":"ce4bho12rcd13ifvqh1g","pricing_plan_id":"cebpf4jnsgd1na2vs0mg"},{"bike_id":"a000ef0f-b849-476f-81b5-5ea290e4f069","system_id":"levelo_inurba_marseille","lat":43.304921,"lon":5.400927,"is_reserved":false,"is_disabled":false,"rental_uris":{"android":"levelo://app?vid=a000ef0f-b849-476f-81b5-5ea290e4f069","ios":"levelo://app?vid=a000ef0f-b849-476f-81b5-5ea290e4f069"},"vehicle_type_id":"4","last_reported":1749536140,"current_range_meters":10000,"station_id":"ce4bh012rcd13ifvqd00","pricing_plan_id":"cebpf4jnsgd1na2vs0mg"},{"bike_id":"75732e00-b360-4046-be85-52c0df7b13a5","system_id":"levelo_inurba_marseille","lat":43.29047,"lon":5.39952,"is_reserved":false,"is_disabled":false,"rental_uris":{"android":"levelo://app?vid=75732e00-b360-4046-be85-52c0df7b13a5","ios":"levelo://app?vid=75732e00-b360-4046-be85-52c0df7b13a5"},"vehicle_type_id":"4","last_reported":1749536140,"current_range_meters":10000,"station_id":"ce4bh392rcd13ifvqdm0","pricing_plan_id":"cebpf4jnsgd1na2vs0mg"},{"bike_id":"abcd2dc9-4396-440f-85b3-9d9064401860","system_id":"levelo_inurba_marseille","lat":43.31341,"lon":5.36729,"is_reserved":false,"is_disabled":false,"rental_uris":{"android":"levelo://app?vid=abcd2dc9-4396-440f-85b3-9d9064401860","ios":"levelo://app?vid=abcd2dc9-4396-440f-85b3-9d9064401860"},"vehicle_type_id":"4","last_reported":1749536140,"current_range_meters":10000,"station_id":"ce4bgr92rcd13ifvqc6g","pricing_plan_id":"cebpf4jnsgd1na2vs0mg"},{"bike_id":"53b99797-5dbc-40df-9d32-0c6019aa16e4","system_id":"levelo_inurba_marseille","lat":43.29038,"lon":5.39975,"is_reserved":false,"is_disabled":false,"rental_uris":{"android":"levelo://app?vid=53b99797-5dbc-40df-9d32-0c6019aa16e4","ios":"levelo://app?vid=53b99797-5dbc-40df-9d32-0c6019aa16e4"},"vehicle_type_id":"4","last_reported":1749536140,"current_range_meters":10800,"station_id":"ce4bh392rcd13ifvqdm0","pricing_plan_id":"cebpf4jnsgd1na2vs0mg"},{"bike_id":"acf56c95-903d-4e41-b227-6ed213a46e8f","system_id":"levelo_inurba_marseille","lat":43.31364,"lon":5.38485,"is_reserved":false,"is_disabled":false,"rental_uris":{"android":"levelo://app?vid=acf56c95-903d-4e41-b227-6ed213a46e8f","ios":"levelo://app?vid=acf56c95-903d-4e41-b227-6ed213a46e8f"},"vehicle_type_id":"4","last_reported":1749536140,"current_range_meters":10800,"station_id":"ce4bgt92rcd13ifvqcf0","pricing_plan_id":"cebpf4jnsgd1na2vs0mg"},{"bike_id":"b6285f6b-e9e7-470d-9b6d-1afe99ab71bf","system_id":"levelo_inurba_marseille","lat":43.261928,"lon":5.420709,"is_reserved":false,"is_disabled":false,"rental_uris":{"android":"levelo://app?vid=b6285f6b-e9e7-470d-9b6d-1afe99ab71bf","ios":"levelo://app?vid=b6285f6b-e9e7-470d-9b6d-1afe99ab71bf"},"vehicle_type_id":"4","last_reported":1749536140,"current_range_meters":10800,"station_id":"","pricing_plan_id":"cebpf4jnsgd1na2vs0mg"},{"bike_id":"660219bc-9f09-49e5-8bb8-0a89276755ae","system_id":"levelo_inurba_marseille","lat":43.299791,"lon":5.371866,"is_reserved":false,"is_disabled":true,"rental_uris":{"android":"levelo://app?vid=660219bc-9f09-49e5-8bb8-0a89276755ae","ios":"levelo://app?vid=660219bc-9f09-49e5-8bb8-0a89276755ae"},"vehicle_type_id":"4","last_reported":1749536140,"current_range_meters":10800,"station_id":"ce4bgr92rcd13ifvqc7g","pricing_plan_id":"cebpf4jnsgd1na2vs0mg"},{"bike_id":"054b1db0-9e2c-467a-bf13-0a6d85d24808","system_id":"levelo_inurba_marseille","lat":43.25816,"lon":5.39435,"is_reserved":false,"is_disabled":false,"rental_uris":{"android":"levelo://app?vid=054b1db0-9e2c-467a-bf13-0a6d85d24808","ios":"levelo://app?vid=054b1db0-9e2c-467a-bf13-0a6d85d24808"},"vehicle_type_id":"4","last_reported":1749536140,"current_range_meters":10800,"station_id":"ce4bhip2rcd13ifvqft0","pricing_plan_id":"cebpf4jnsgd1na2vs0mg"},{"bike_id":"8e317286-d121-41fb-88b8-5b957116b9fe","system_id":"levelo_inurba_marseille","lat":43.21191,"lon":5.35064,"is_reserved":false,"is_disabled":false,"rental_uris":{"android":"levelo://app?vid=8e317286-d121-41fb-88b8-5b957116b9fe","ios":"levelo://app?vid=8e317286-d121-41fb-88b8-5b957116b9fe"},"vehicle_type_id":"4","last_reported":1749536140,"current_range_meters":10800,"station_id":"st_cvj6sg6p6f1abm77japg","pricing_plan_id":"cebpf4jnsgd1na2vs0mg"},{"bike_id":"40d277a1-8cc5-4f77-807e-87b9f07c6ca5","system_id":"levelo_inurba_marseille","lat":43.286099,"lon":5.351076,"is_reserved":false,"is_disabled":true,"rental_uris":{"android":"levelo://app?vid=40d277a1-8cc5-4f77-807e-87b9f07c6ca5","ios":"levelo://app?vid=40d277a1-8cc5-4f77-807e-87b9f07c6ca5"},"vehicle_type_id":"4","last_reported":1749536140,"current_range_meters":10800,"station_id":"ce4bhch2rcd13ifvqeug","pricing_plan_id":"cebpf4jnsgd1na2vs0mg"},{"bike_id":"7facd0d3-e088-4a5a-a896-d77e8e818ab6","system_id":"levelo_inurba_marseille","lat":43.29205,"lon":5.36017,"is_reserved":false,"is_disabled":true,"rental_uris":{"android":"levelo://app?vid=7facd0d3-e088-4a5a-a896-d77e8e818ab6","ios":"levelo://app?vid=7facd0d3-e088-4a5a-a896-d77e8e818ab6"},"vehicle_type_id":"4","last_reported":1749536140,"current_range_meters":10800,"station_id":"","pricing_plan_id":"cebpf4jnsgd1na2vs0mg"},{"bike_id":"7d5ccd28-7319-4653-bc63-298797eec14b","system_id":"levelo_inurba_marseille","lat":43.30144,"lon":5.38104,"is_reserved":false,"is_disabled":false,"rental_uris":{"android":"levelo://app?vid=7d5ccd28-7319-4653-bc63-298797eec14b","ios":"levelo://app?vid=7d5ccd28-7319-4653-bc63-298797eec14b"},"vehicle_type_id":"4","last_reported":1749536140,"current_range_meters":10800,"station_id":"ce4bgjp2rcd13ifvqbh0","pricing_plan_id":"cebpf4jnsgd1na2vs0mg"},{"bike_id":"fea03510-d732-494e-a818-113e6eebaa67","system_id":"levelo_inurba_marseille","lat":43.22908,"lon":5.35369,"is_reserved":false,"is_disabled":true,"rental_uris":{"android":"levelo://app?vid=fea03510-d732-494e-a818-113e6eebaa67","ios":"levelo://app?vid=fea03510-d732-494e-a818-113e6eebaa67"},"vehicle_type_id":"4","last_reported":1749536140,"current_range_meters":10800,"station_id":"cpo3532slgdg3j2ikp40","pricing_plan_id":"cebpf4jnsgd1na2vs0mg"},{"bike_id":"bc6fc902-3c91-4208-80a6-cebe896f2457","system_id":"levelo_inurba_marseille","lat":43.30293,"lon":5.38998,"is_reserved":false,"is_disabled":false,"rental_uris":{"android":"levelo://app?vid=bc6fc902-3c91-4208-80a6-cebe896f2457","ios":"levelo://app?vid=bc6fc902-3c91-4208-80a6-cebe896f2457"},"vehicle_type_id":"4","last_reported":1749536140,"current_range_meters":10800,"station_id":"","pricing_plan_id":"cebpf4jnsgd1na2vs0mg"},{"bike_id":"6fc54af2-68f2-455a-a83f-004e9d098345","system_id":"levelo_inurba_marseille","lat":43.295765,"lon":5.398478,"is_reserved":false,"is_disabled":false,"rental_uris":{"android":"levelo://app?vid=6fc54af2-68f2-455a-a83f-004e9d098345","ios":"levelo://app?vid=6fc54af2-68f2-455a-a83f-004e9d098345"},"vehicle_type_id":"4","last_reported":1749536140,"current_range_meters":11200,"station_id":"","pricing_plan_id":"cebpf4jnsgd1na2vs0mg"},{"bike_id":"a02636a5-fd47-40bd-b91b-d753c2836257","system_id":"levelo_inurba_marseille","lat":43.3046,"lon":5.37906,"is_reserved":false,"is_disabled":false,"rental_uris":{"android":"levelo://app?vid=a02636a5-fd47-40bd-b91b-d753c2836257","ios":"levelo://app?vid=a02636a5-fd47-40bd-b91b-d753c2836257"},"vehicle_type_id":"4","last_reported":1749536140,"current_range_meters":11200,"station_id":"ce4bgup2rcd13ifvqcn0","pricing_plan_id":"cebpf4jnsgd1na2vs0mg"},{"bike_id":"2ffb5d6d-efc6-4007-9177-680a2afd86cf","system_id":"levelo_inurba_marseille","lat":43.31102,"lon":5.37772,"is_reserved":false,"is_disabled":false,"rental_uris":{"android":"levelo://app?vid=2ffb5d6d-efc6-4007-9177-680a2afd86cf","ios":"levelo://app?vid=2ffb5d6d-efc6-4007-9177-680a2afd86cf"},"vehicle_type_id":"4","last_reported":1749536140,"current_range_meters":11200,"station_id":"ce4bgt92rcd13ifvqcg0","pricing_plan_id":"cebpf4jnsgd1na2vs0mg"},{"bike_id":"ec02e175-aaa4-4066-abe1-304d2d5f3fc5","system_id":"levelo_inurba_marseille","lat":43.24175,"lon":5.39725,"is_reserved":false,"is_disabled":true,"rental_uris":{"android":"levelo://app?vid=ec02e175-aaa4-4066-abe1-304d2d5f3fc5","ios":"levelo://app?vid=ec02e175-aaa4-4066-abe1-304d2d5f3fc5"},"vehicle_type_id":"4","last_reported":1749536140,"current_range_meters":11600,"station_id":"ce4bhn12rcd13ifvqgpg","pricing_plan_id":"cebpf4jnsgd1na2vs0mg"},{"bike_id":"0ca5c1a0-e310-4625-a32d-0a021a84cc09","system_id":"levelo_inurba_marseille","lat":43.30555,"lon":5.37564,"is_reserved":false,"is_disabled":false,"rental_uris":{"android":"levelo://app?vid=0ca5c1a0-e310-4625-a32d-0a021a84cc09","ios":"levelo://app?vid=0ca5c1a0-e310-4625-a32d-0a021a84cc09"},"vehicle_type_id":"4","last_reported":1749536140,"current_range_meters":11600,"station_id":"","pricing_plan_id":"cebpf4jnsgd1na2vs0mg"},{"bike_id":"0053f0bd-3481-4f8f-a19e-7dd7a6624507","system_id":"levelo_inurba_marseille","lat":43.29882,"lon":5.43665,"is_reserved":false,"is_disabled":false,"rental_uris":{"android":"levelo://app?vid=0053f0bd-3481-4f8f-a19e-7dd7a6624507","ios":"levelo://app?vid=0053f0bd-3481-4f8f-a19e-7dd7a6624507"},"vehicle_type_id":"4","last_reported":1749536140,"current_range_meters":11600,"station_id":"ce4bhpp2rcd13ifvqhfg","pricing_plan_id":"cebpf4jnsgd1na2vs0mg"},{"bike_id":"0dbbf1a7-7b2b-4906-9be6-42ea3e66e751","system_id":"levelo_inurba_marseille","lat":43.270594,"lon":5.402629,"is_reserved":false,"is_disabled":false,"rental_uris":{"android":"levelo://app?vid=0dbbf1a7-7b2b-4906-9be6-42ea3e66e751","ios":"levelo://app?vid=0dbbf1a7-7b2b-4906-9be6-42ea3e66e751"},"vehicle_type_id":"4","last_reported":1749536140,"current_range_meters":11600,"station_id":"ce4bhk92rcd13ifvqgc0","pricing_plan_id":"cebpf4jnsgd1na2vs0mg"},{"bike_id":"1aea7cfc-afca-4737-8f8d-ae60132524de","system_id":"levelo_inurba_marseille","lat":43.28787,"lon":5.39864,"is_reserved":false,"is_disabled":false,"rental_uris":{"android":"levelo://app?vid=1aea7cfc-afca-4737-8f8d-ae60132524de","ios":"levelo://app?vid=1aea7cfc-afca-4737-8f8d-ae60132524de"},"vehicle_type_id":"4","last_reported":1749536140,"current_range_meters":11600,"station_id":"","pricing_plan_id":"cebpf4jnsgd1na2vs0mg"},{"bike_id":"39d32260-51d5-455a-ba53-6471389bd255","system_id":"levelo_inurba_marseille","lat":43.319982,"lon":5.376164,"is_reserved":false,"is_disabled":false,"rental_uris":{"android":"levelo://app?vid=39d32260-51d5-455a-ba53-6471389bd255","ios":"levelo://app?vid=39d32260-51d5-455a-ba53-6471389bd255"},"vehicle_type_id":"4","last_reported":1749536140,"current_range_meters":11600,"station_id":"","pricing_plan_id":"cebpf4jnsgd1na2vs0mg"},{"bike_id":"c6056b5c-18ab-4596-a052-b852d805ce59","system_id":"levelo_inurba_marseille","lat":43.30203,"lon":5.3946,"is_reserved":false,"is_disabled":false,"rental_uris":{"android":"levelo://app?vid=c6056b5c-18ab-4596-a052-b852d805ce59","ios":"levelo://app?vid=c6056b5c-18ab-4596-a052-b852d805ce59"},"vehicle_type_id":"4","last_reported":1749536140,"current_range_meters":11600,"station_id":"ce4bh0p2rcd13ifvqd70","pricing_plan_id":"cebpf4jnsgd1na2vs0mg"},{"bike_id":"0b602b86-9c91-4b76-89a4-a3531e2c7f0e","system_id":"levelo_inurba_marseille","lat":43.323662,"lon":5.388836,"is_reserved":false,"is_disabled":false,"rental_uris":{"android":"levelo://app?vid=0b602b86-9c91-4b76-89a4-a3531e2c7f0e","ios":"levelo://app?vid=0b602b86-9c91-4b76-89a4-a3531e2c7f0e"},"vehicle_type_id":"4","last_reported":1749536140,"current_range_meters":11600,"station_id":"ce4bhqp2rcd13ifvqhog","pricing_plan_id":"cebpf4jnsgd1na2vs0mg"},{"bike_id":"bab1f009-6631-42f8-9f12-ceae5d6c5ccd","system_id":"levelo_inurba_marseille","lat":43.28104,"lon":5.37836,"is_reserved":false,"is_disabled":false,"rental_uris":{"android":"levelo://app?vid=bab1f009-6631-42f8-9f12-ceae5d6c5ccd","ios":"levelo://app?vid=bab1f009-6631-42f8-9f12-ceae5d6c5ccd"},"vehicle_type_id":"4","last_reported":1749536140,"current_range_meters":11600,"station_id":"ce4bha12rcd13ifvqee0","pricing_plan_id":"cebpf4jnsgd1na2vs0mg"},{"bike_id":"c7432800-1b14-4854-84d5-dd3690953cae","system_id":"levelo_inurba_marseille","lat":43.26197,"lon":5.3745,"is_reserved":false,"is_disabled":false,"rental_uris":{"android":"levelo://app?vid=c7432800-1b14-4854-84d5-dd3690953cae","ios":"levelo://app?vid=c7432800-1b14-4854-84d5-dd3690953cae"},"vehicle_type_id":"4","last_reported":1749536140,"current_range_meters":12000,"station_id":"ce4bhgp2rcd13ifvqfc0","pricing_plan_id":"cebpf4jnsgd1na2vs0mg"},{"bike_id":"65ea561a-2be8-4848-b6da-b760b05269f7","system_id":"levelo_inurba_marseille","lat":43.312704,"lon":5.401761,"is_reserved":false,"is_disabled":false,"rental_uris":{"android":"levelo://app?vid=65ea561a-2be8-4848-b6da-b760b05269f7","ios":"levelo://app?vid=65ea561a-2be8-4848-b6da-b760b05269f7"},"vehicle_type_id":"4","last_reported":1749536140,"current_range_meters":12000,"station_id":"ce4bh092rcd13ifvqd30","pricing_plan_id":"cebpf4jnsgd1na2vs0mg"},{"bike_id":"21c61708-859e-473b-9205-e91d3c72fe9d","system_id":"levelo_inurba_marseille","lat":43.29265,"lon":5.37641,"is_reserved":false,"is_disabled":false,"rental_uris":{"android":"levelo://app?vid=21c61708-859e-473b-9205-e91d3c72fe9d","ios":"levelo://app?vid=21c61708-859e-473b-9205-e91d3c72fe9d"},"vehicle_type_id":"4","last_reported":1749536140,"current_range_meters":12000,"station_id":"ce4bgi12rcd13ifvqb80","pricing_plan_id":"cebpf4jnsgd1na2vs0mg"},{"bike_id":"60a8540b-0b97-4e6a-b532-b4cdb1bca662","system_id":"levelo_inurba_marseille","lat":43.25973,"lon":5.38742,"is_reserved":false,"is_disabled":false,"rental_uris":{"android":"levelo://app?vid=60a8540b-0b97-4e6a-b532-b4cdb1bca662","ios":"levelo://app?vid=60a8540b-0b97-4e6a-b532-b4cdb1bca662"},"vehicle_type_id":"4","last_reported":1749536140,"current_range_meters":12000,"station_id":"","pricing_plan_id":"cebpf4jnsgd1na2vs0mg"},{"bike_id":"6d064464-dec5-46b8-98bd-56bde5fb4740","system_id":"levelo_inurba_marseille","lat":43.29002,"lon":5.35593,"is_reserved":false,"is_disabled":true,"rental_uris":{"android":"levelo://app?vid=6d064464-dec5-46b8-98bd-56bde5fb4740","ios":"levelo://app?vid=6d064464-dec5-46b8-98bd-56bde5fb4740"},"vehicle_type_id":"4","last_reported":1749536140,"current_range_meters":12000,"station_id":"ce4bhb92rcd13ifvqen0","pricing_plan_id":"cebpf4jnsgd1na2vs0mg"},{"bike_id":"f6a11773-7cd6-4e3e-a6dd-dd7efa94805e","system_id":"levelo_inurba_marseille","lat":43.29847,"lon":5.36271,"is_reserved":false,"is_disabled":false,"rental_uris":{"android":"levelo://app?vid=f6a11773-7cd6-4e3e-a6dd-dd7efa94805e","ios":"levelo://app?vid=f6a11773-7cd6-4e3e-a6dd-dd7efa94805e"},"vehicle_type_id":"4","last_reported":1749536140,"current_range_meters":11600,"station_id":"ce4bgpp2rcd13ifvqc3g","pricing_plan_id":"cebpf4jnsgd1na2vs0mg"},{"bike_id":"4d26fb08-98cd-4156-8858-cdf0c4e8c3e8","system_id":"levelo_inurba_marseille","lat":43.25107,"lon":5.40327,"is_reserved":false,"is_disabled":false,"rental_uris":{"android":"levelo://app?vid=4d26fb08-98cd-4156-8858-cdf0c4e8c3e8","ios":"levelo://app?vid=4d26fb08-98cd-4156-8858-cdf0c4e8c3e8"},"vehicle_type_id":"4","last_reported":1749536140,"current_range_meters":12000,"station_id":"ce4bhlh2rcd13ifvqgig","pricing_plan_id":"cebpf4jnsgd1na2vs0mg"},{"bike_id":"bb1aac62-a9c4-46b3-8b56-8df212fc5ec7","system_id":"levelo_inurba_marseille","lat":43.29277,"lon":5.40117,"is_reserved":false,"is_disabled":false,"rental_uris":{"android":"levelo://app?vid=bb1aac62-a9c4-46b3-8b56-8df212fc5ec7","ios":"levelo://app?vid=bb1aac62-a9c4-46b3-8b56-8df212fc5ec7"},"vehicle_type_id":"4","last_reported":1749536140,"current_range_meters":12000,"station_id":"ce4bh312rcd13ifvqdk0","pricing_plan_id":"cebpf4jnsgd1na2vs0mg"},{"bike_id":"5077581b-cebb-46fc-ba69-4fa8272d4810","system_id":"levelo_inurba_marseille","lat":43.213589,"lon":5.355318,"is_reserved":false,"is_disabled":false,"rental_uris":{"android":"levelo://app?vid=5077581b-cebb-46fc-ba69-4fa8272d4810","ios":"levelo://app?vid=5077581b-cebb-46fc-ba69-4fa8272d4810"},"vehicle_type_id":"4","last_reported":1749536140,"current_range_meters":12400,"station_id":"","pricing_plan_id":"cebpf4jnsgd1na2vs0mg"},{"bike_id":"ef555bdb-3115-4b1f-9398-9c76776e1204","system_id":"levelo_inurba_marseille","lat":43.26029,"lon":5.37426,"is_reserved":false,"is_disabled":false,"rental_uris":{"android":"levelo://app?vid=ef555bdb-3115-4b1f-9398-9c76776e1204","ios":"levelo://app?vid=ef555bdb-3115-4b1f-9398-9c76776e1204"},"vehicle_type_id":"4","last_reported":1749536140,"current_range_meters":12400,"station_id":"","pricing_plan_id":"cebpf4jnsgd1na2vs0mg"},{"bike_id":"7afdb58a-d1c4-470b-8c7d-d9ea2565734d","system_id":"levelo_inurba_marseille","lat":43.2623,"lon":5.40445,"is_reserved":false,"is_disabled":false,"rental_uris":{"android":"levelo://app?vid=7afdb58a-d1c4-470b-8c7d-d9ea2565734d","ios":"levelo://app?vid=7afdb58a-d1c4-470b-8c7d-d9ea2565734d"},"vehicle_type_id":"4","last_reported":1749536140,"current_range_meters":12400,"station_id":"ce4bhmh2rcd13ifvqgmg","pricing_plan_id":"cebpf4jnsgd1na2vs0mg"},{"bike_id":"402b268f-51d8-4319-85da-3f411d4d5d91","system_id":"levelo_inurba_marseille","lat":43.211913,"lon":5.350767,"is_reserved":false,"is_disabled":false,"rental_uris":{"android":"levelo://app?vid=402b268f-51d8-4319-85da-3f411d4d5d91","ios":"levelo://app?vid=402b268f-51d8-4319-85da-3f411d4d5d91"},"vehicle_type_id":"4","last_reported":1749536140,"current_range_meters":12400,"station_id":"st_cvj6sg6p6f1abm77japg","pricing_plan_id":"cebpf4jnsgd1na2vs0mg"},{"bike_id":"4ecffb76-4d2f-4b84-ab10-402a5aa66661","system_id":"levelo_inurba_marseille","lat":43.25934,"lon":5.40908,"is_reserved":false,"is_disabled":false,"rental_uris":{"android":"levelo://app?vid=4ecffb76-4d2f-4b84-ab10-402a5aa66661","ios":"levelo://app?vid=4ecffb76-4d2f-4b84-ab10-402a5aa66661"},"vehicle_type_id":"4","last_reported":1749536140,"current_range_meters":12400,"station_id":"ce4bhm92rcd13ifvqglg","pricing_plan_id":"cebpf4jnsgd1na2vs0mg"},{"bike_id":"5a55eb0f-0567-487e-a6a7-2cfcfc5473aa","system_id":"levelo_inurba_marseille","lat":43.33778,"lon":5.37437,"is_reserved":false,"is_disabled":false,"rental_uris":{"android":"levelo://app?vid=5a55eb0f-0567-487e-a6a7-2cfcfc5473aa","ios":"levelo://app?vid=5a55eb0f-0567-487e-a6a7-2cfcfc5473aa"},"vehicle_type_id":"4","last_reported":1749536140,"current_range_meters":12800,"station_id":"","pricing_plan_id":"cebpf4jnsgd1na2vs0mg"},{"bike_id":"3bda16d8-90d9-4118-9969-3498193106e5","system_id":"levelo_inurba_marseille","lat":43.28408,"lon":5.37516,"is_reserved":false,"is_disabled":true,"rental_uris":{"android":"levelo://app?vid=3bda16d8-90d9-4118-9969-3498193106e5","ios":"levelo://app?vid=3bda16d8-90d9-4118-9969-3498193106e5"},"vehicle_type_id":"4","last_reported":1749536140,"current_range_meters":12800,"station_id":"ce4bh412rcd13ifvqds0","pricing_plan_id":"cebpf4jnsgd1na2vs0mg"},{"bike_id":"64a09ca2-e946-476b-8b71-a03c555f6713","system_id":"levelo_inurba_marseille","lat":43.3015,"lon":5.38082,"is_reserved":false,"is_disabled":false,"rental_uris":{"android":"levelo://app?vid=64a09ca2-e946-476b-8b71-a03c555f6713","ios":"levelo://app?vid=64a09ca2-e946-476b-8b71-a03c555f6713"},"vehicle_type_id":"4","last_reported":1749536140,"current_range_meters":12800,"station_id":"ce4bgjp2rcd13ifvqbh0","pricing_plan_id":"cebpf4jnsgd1na2vs0mg"},{"bike_id":"c63f4860-73c6-489f-895c-b31b8d653c8d","system_id":"levelo_inurba_marseille","lat":43.28427,"lon":5.34985,"is_reserved":false,"is_disabled":true,"rental_uris":{"android":"levelo://app?vid=c63f4860-73c6-489f-895c-b31b8d653c8d","ios":"levelo://app?vid=c63f4860-73c6-489f-895c-b31b8d653c8d"},"vehicle_type_id":"4","last_reported":1749536140,"current_range_meters":12800,"station_id":"ce4bhbh2rcd13ifvqepg","pricing_plan_id":"cebpf4jnsgd1na2vs0mg"},{"bike_id":"23e89bac-e2bf-4e89-8e08-1f432b7a4188","system_id":"levelo_inurba_marseille","lat":43.21186,"lon":5.35071,"is_reserved":false,"is_disabled":true,"rental_uris":{"android":"levelo://app?vid=23e89bac-e2bf-4e89-8e08-1f432b7a4188","ios":"levelo://app?vid=23e89bac-e2bf-4e89-8e08-1f432b7a4188"},"vehicle_type_id":"4","last_reported":1749536140,"current_range_meters":13600,"station_id":"st_cvj6sg6p6f1abm77japg","pricing_plan_id":"cebpf4jnsgd1na2vs0mg"},{"bike_id":"c46183ac-8cca-4cdf-a8a9-22b7c63cf27e","system_id":"levelo_inurba_marseille","lat":43.28844,"lon":5.35836,"is_reserved":false,"is_disabled":true,"rental_uris":{"android":"levelo://app?vid=c46183ac-8cca-4cdf-a8a9-22b7c63cf27e","ios":"levelo://app?vid=c46183ac-8cca-4cdf-a8a9-22b7c63cf27e"},"vehicle_type_id":"4","last_reported":1749536140,"current_range_meters":13600,"station_id":"ce4bhb12rcd13ifvqem0","pricing_plan_id":"cebpf4jnsgd1na2vs0mg"},{"bike_id":"8c39e882-6c54-45f7-a327-664efe6d554a","system_id":"levelo_inurba_marseille","lat":43.30151,"lon":5.38091,"is_reserved":false,"is_disabled":false,"rental_uris":{"android":"levelo://app?vid=8c39e882-6c54-45f7-a327-664efe6d554a","ios":"levelo://app?vid=8c39e882-6c54-45f7-a327-664efe6d554a"},"vehicle_type_id":"4","last_reported":1749536140,"current_range_meters":13600,"station_id":"ce4bgjp2rcd13ifvqbh0","pricing_plan_id":"cebpf4jnsgd1na2vs0mg"},{"bike_id":"b7651752-8eb3-4b67-91fc-0a6e006c8d1f","system_id":"levelo_inurba_marseille","lat":43.21196,"lon":5.3507,"is_reserved":false,"is_disabled":false,"rental_uris":{"android":"levelo://app?vid=b7651752-8eb3-4b67-91fc-0a6e006c8d1f","ios":"levelo://app?vid=b7651752-8eb3-4b67-91fc-0a6e006c8d1f"},"vehicle_type_id":"4","last_reported":1749536140,"current_range_meters":14000,"station_id":"st_cvj6sg6p6f1abm77japg","pricing_plan_id":"cebpf4jnsgd1na2vs0mg"},{"bike_id":"a26f8764-c0b8-4df6-9002-5ba3978882a6","system_id":"levelo_inurba_marseille","lat":43.28989,"lon":5.35631,"is_reserved":false,"is_disabled":true,"rental_uris":{"android":"levelo://app?vid=a26f8764-c0b8-4df6-9002-5ba3978882a6","ios":"levelo://app?vid=a26f8764-c0b8-4df6-9002-5ba3978882a6"},"vehicle_type_id":"4","last_reported":1749536140,"current_range_meters":14000,"station_id":"ce4bhb92rcd13ifvqen0","pricing_plan_id":"cebpf4jnsgd1na2vs0mg"},{"bike_id":"b517a375-3cba-4f61-83db-598bdc7e35c2","system_id":"levelo_inurba_marseille","lat":43.28065,"lon":5.39644,"is_reserved":false,"is_disabled":false,"rental_uris":{"android":"levelo://app?vid=b517a375-3cba-4f61-83db-598bdc7e35c2","ios":"levelo://app?vid=b517a375-3cba-4f61-83db-598bdc7e35c2"},"vehicle_type_id":"4","last_reported":1749536140,"current_range_meters":14000,"station_id":"ce4bho12rcd13ifvqh2g","pricing_plan_id":"cebpf4jnsgd1na2vs0mg"},{"bike_id":"ca27e12a-1f2d-4cf2-be29-12a2b9ff1547","system_id":"levelo_inurba_marseille","lat":43.31722,"lon":5.42392,"is_reserved":false,"is_disabled":false,"rental_uris":{"android":"levelo://app?vid=ca27e12a-1f2d-4cf2-be29-12a2b9ff1547","ios":"levelo://app?vid=ca27e12a-1f2d-4cf2-be29-12a2b9ff1547"},"vehicle_type_id":"4","last_reported":1749536140,"current_range_meters":14000,"station_id":"ce4bhp92rcd13ifvqhbg","pricing_plan_id":"cebpf4jnsgd1na2vs0mg"},{"bike_id":"c97276cb-ddd3-4fe2-87e0-822d30d01ef4","system_id":"levelo_inurba_marseille","lat":43.31068,"lon":5.38338,"is_reserved":false,"is_disabled":false,"rental_uris":{"android":"levelo://app?vid=c97276cb-ddd3-4fe2-87e0-822d30d01ef4","ios":"levelo://app?vid=c97276cb-ddd3-4fe2-87e0-822d30d01ef4"},"vehicle_type_id":"4","last_reported":1749536140,"current_range_meters":14000,"station_id":"ce4bgv92rcd13ifvqcr0","pricing_plan_id":"cebpf4jnsgd1na2vs0mg"},{"bike_id":"a06a5e76-7a40-4637-ae47-ceef6131d43b","system_id":"levelo_inurba_marseille","lat":43.30289,"lon":5.36972,"is_reserved":false,"is_disabled":false,"rental_uris":{"android":"levelo://app?vid=a06a5e76-7a40-4637-ae47-ceef6131d43b","ios":"levelo://app?vid=a06a5e76-7a40-4637-ae47-ceef6131d43b"},"vehicle_type_id":"4","last_reported":1749536140,"current_range_meters":14400,"station_id":"","pricing_plan_id":"cebpf4jnsgd1na2vs0mg"},{"bike_id":"eba2c017-d17a-4eca-aa92-886ad3c19570","system_id":"levelo_inurba_marseille","lat":43.33494,"lon":5.39823,"is_reserved":false,"is_disabled":false,"rental_uris":{"android":"levelo://app?vid=eba2c017-d17a-4eca-aa92-886ad3c19570","ios":"levelo://app?vid=eba2c017-d17a-4eca-aa92-886ad3c19570"},"vehicle_type_id":"4","last_reported":1749536140,"current_range_meters":14400,"station_id":"","pricing_plan_id":"cebpf4jnsgd1na2vs0mg"},{"bike_id":"456fd0fb-6b00-49e3-944b-55516afdf508","system_id":"levelo_inurba_marseille","lat":43.28274,"lon":5.35092,"is_reserved":false,"is_disabled":true,"rental_uris":{"android":"levelo://app?vid=456fd0fb-6b00-49e3-944b-55516afdf508","ios":"levelo://app?vid=456fd0fb-6b00-49e3-944b-55516afdf508"},"vehicle_type_id":"4","last_reported":1749536140,"current_range_meters":14400,"station_id":"ce4bhbp2rcd13ifvqerg","pricing_plan_id":"cebpf4jnsgd1na2vs0mg"},{"bike_id":"c224e592-2b69-407f-98e2-ed582acce3e4","system_id":"levelo_inurba_marseille","lat":43.304817,"lon":5.379137,"is_reserved":false,"is_disabled":false,"rental_uris":{"android":"levelo://app?vid=c224e592-2b69-407f-98e2-ed582acce3e4","ios":"levelo://app?vid=c224e592-2b69-407f-98e2-ed582acce3e4"},"vehicle_type_id":"4","last_reported":1749536140,"current_range_meters":14400,"station_id":"ce4bgup2rcd13ifvqcn0","pricing_plan_id":"cebpf4jnsgd1na2vs0mg"},{"bike_id":"b2a55171-9e11-4eba-beeb-f2e7c5d27df2","system_id":"levelo_inurba_marseille","lat":43.211849,"lon":5.350791,"is_reserved":false,"is_disabled":false,"rental_uris":{"android":"levelo://app?vid=b2a55171-9e11-4eba-beeb-f2e7c5d27df2","ios":"levelo://app?vid=b2a55171-9e11-4eba-beeb-f2e7c5d27df2"},"vehicle_type_id":"4","last_reported":1749536140,"current_range_meters":14400,"station_id":"st_cvj6sg6p6f1abm77japg","pricing_plan_id":"cebpf4jnsgd1na2vs0mg"},{"bike_id":"e925ed2b-babc-4cf9-b75b-bac898fd5635","system_id":"levelo_inurba_marseille","lat":43.21197,"lon":5.3506,"is_reserved":false,"is_disabled":false,"rental_uris":{"android":"levelo://app?vid=e925ed2b-babc-4cf9-b75b-bac898fd5635","ios":"levelo://app?vid=e925ed2b-babc-4cf9-b75b-bac898fd5635"},"vehicle_type_id":"4","last_reported":1749536140,"current_range_meters":14400,"station_id":"st_cvj6sg6p6f1abm77japg","pricing_plan_id":"cebpf4jnsgd1na2vs0mg"},{"bike_id":"3de2ab12-0d4c-4531-a5c2-baaa2ea1b0f6","system_id":"levelo_inurba_marseille","lat":43.29025,"lon":5.38645,"is_reserved":false,"is_disabled":false,"rental_uris":{"android":"levelo://app?vid=3de2ab12-0d4c-4531-a5c2-baaa2ea1b0f6","ios":"levelo://app?vid=3de2ab12-0d4c-4531-a5c2-baaa2ea1b0f6"},"vehicle_type_id":"4","last_reported":1749536140,"current_range_meters":14800,"station_id":"ce4bh4p2rcd13ifvqe0g","pricing_plan_id":"cebpf4jnsgd1na2vs0mg"},{"bike_id":"9d8d23dd-ffbf-4fb0-8178-8464a74326c4","system_id":"levelo_inurba_marseille","lat":43.273,"lon":5.39014,"is_reserved":false,"is_disabled":false,"rental_uris":{"android":"levelo://app?vid=9d8d23dd-ffbf-4fb0-8178-8464a74326c4","ios":"levelo://app?vid=9d8d23dd-ffbf-4fb0-8178-8464a74326c4"},"vehicle_type_id":"4","last_reported":1749536140,"current_range_meters":14400,"station_id":"ce4bhgp2rcd13ifvqfe0","pricing_plan_id":"cebpf4jnsgd1na2vs0mg"},{"bike_id":"f79292e4-f3c3-4e7a-bd5f-6ad7145387ef","system_id":"levelo_inurba_marseille","lat":43.27442,"lon":5.39407,"is_reserved":false,"is_disabled":true,"rental_uris":{"android":"levelo://app?vid=f79292e4-f3c3-4e7a-bd5f-6ad7145387ef","ios":"levelo://app?vid=f79292e4-f3c3-4e7a-bd5f-6ad7145387ef"},"vehicle_type_id":"4","last_reported":1749536140,"current_range_meters":15200,"station_id":"ce4bhdp2rcd13ifvqf20","pricing_plan_id":"cebpf4jnsgd1na2vs0mg"},{"bike_id":"7fbb8cf5-f563-4c4a-90cf-1a5ac10b01c4","system_id":"levelo_inurba_marseille","lat":43.21203,"lon":5.35082,"is_reserved":false,"is_disabled":false,"rental_uris":{"android":"levelo://app?vid=7fbb8cf5-f563-4c4a-90cf-1a5ac10b01c4","ios":"levelo://app?vid=7fbb8cf5-f563-4c4a-90cf-1a5ac10b01c4"},"vehicle_type_id":"4","last_reported":1749536140,"current_range_meters":15200,"station_id":"st_cvj6sg6p6f1abm77japg","pricing_plan_id":"cebpf4jnsgd1na2vs0mg"},{"bike_id":"ec0ad91e-4eb6-466b-8e4b-380d5be20e64","system_id":"levelo_inurba_marseille","lat":43.25715,"lon":5.41123,"is_reserved":false,"is_disabled":false,"rental_uris":{"android":"levelo://app?vid=ec0ad91e-4eb6-466b-8e4b-380d5be20e64","ios":"levelo://app?vid=ec0ad91e-4eb6-466b-8e4b-380d5be20e64"},"vehicle_type_id":"4","last_reported":1749536140,"current_range_meters":15200,"station_id":"ce4bhkp2rcd13ifvqgd0","pricing_plan_id":"cebpf4jnsgd1na2vs0mg"},{"bike_id":"29a207e6-b15a-414d-8198-522627b7f792","system_id":"levelo_inurba_marseille","lat":43.31362,"lon":5.38496,"is_reserved":false,"is_disabled":false,"rental_uris":{"android":"levelo://app?vid=29a207e6-b15a-414d-8198-522627b7f792","ios":"levelo://app?vid=29a207e6-b15a-414d-8198-522627b7f792"},"vehicle_type_id":"4","last_reported":1749536140,"current_range_meters":15200,"station_id":"ce4bgt92rcd13ifvqcf0","pricing_plan_id":"cebpf4jnsgd1na2vs0mg"},{"bike_id":"c6830c0d-e468-46fa-b9c2-96c1aec56a2d","system_id":"levelo_inurba_marseille","lat":43.27281,"lon":5.43105,"is_reserved":false,"is_disabled":false,"rental_uris":{"android":"levelo://app?vid=c6830c0d-e468-46fa-b9c2-96c1aec56a2d","ios":"levelo://app?vid=c6830c0d-e468-46fa-b9c2-96c1aec56a2d"},"vehicle_type_id":"4","last_reported":1749536140,"current_range_meters":15200,"station_id":"","pricing_plan_id":"cebpf4jnsgd1na2vs0mg"},{"bike_id":"b1e8eb07-82b7-4bcc-af1f-8461c1c89166","system_id":"levelo_inurba_marseille","lat":43.31363,"lon":5.38496,"is_reserved":false,"is_disabled":false,"rental_uris":{"android":"levelo://app?vid=b1e8eb07-82b7-4bcc-af1f-8461c1c89166","ios":"levelo://app?vid=b1e8eb07-82b7-4bcc-af1f-8461c1c89166"},"vehicle_type_id":"4","last_reported":1749536140,"current_range_meters":16000,"station_id":"ce4bgt92rcd13ifvqcf0","pricing_plan_id":"cebpf4jnsgd1na2vs0mg"},{"bike_id":"a7e979e5-7afa-4658-b3e7-2502946031d3","system_id":"levelo_inurba_marseille","lat":43.25519,"lon":5.42028,"is_reserved":false,"is_disabled":false,"rental_uris":{"android":"levelo://app?vid=a7e979e5-7afa-4658-b3e7-2502946031d3","ios":"levelo://app?vid=a7e979e5-7afa-4658-b3e7-2502946031d3"},"vehicle_type_id":"4","last_reported":1749536140,"current_range_meters":16000,"station_id":"","pricing_plan_id":"cebpf4jnsgd1na2vs0mg"},{"bike_id":"187b0a7b-e256-4c19-9794-bb250a6c5653","system_id":"levelo_inurba_marseille","lat":43.31851,"lon":5.37915,"is_reserved":false,"is_disabled":false,"rental_uris":{"android":"levelo://app?vid=187b0a7b-e256-4c19-9794-bb250a6c5653","ios":"levelo://app?vid=187b0a7b-e256-4c19-9794-bb250a6c5653"},"vehicle_type_id":"4","last_reported":1749536140,"current_range_meters":16000,"station_id":"","pricing_plan_id":"cebpf4jnsgd1na2vs0mg"},{"bike_id":"0197ce67-c2bc-4d03-bc9a-15f201693bd4","system_id":"levelo_inurba_marseille","lat":43.31764,"lon":5.39011,"is_reserved":false,"is_disabled":false,"rental_uris":{"android":"levelo://app?vid=0197ce67-c2bc-4d03-bc9a-15f201693bd4","ios":"levelo://app?vid=0197ce67-c2bc-4d03-bc9a-15f201693bd4"},"vehicle_type_id":"4","last_reported":1749536140,"current_range_meters":16400,"station_id":"ce4bhqp2rcd13ifvqhng","pricing_plan_id":"cebpf4jnsgd1na2vs0mg"},{"bike_id":"c30dbedc-c866-492b-a092-32c1ee0c1f22","system_id":"levelo_inurba_marseille","lat":43.29538,"lon":5.38554,"is_reserved":false,"is_disabled":true,"rental_uris":{"android":"levelo://app?vid=c30dbedc-c866-492b-a092-32c1ee0c1f22","ios":"levelo://app?vid=c30dbedc-c866-492b-a092-32c1ee0c1f22"},"vehicle_type_id":"4","last_reported":1749536140,"current_range_meters":16400,"station_id":"ce4bgih2rcd13ifvqba0","pricing_plan_id":"cebpf4jnsgd1na2vs0mg"},{"bike_id":"407a03d3-9a1b-41f7-922a-36dbbbdf4c88","system_id":"levelo_inurba_marseille","lat":43.31984,"lon":5.38149,"is_reserved":false,"is_disabled":false,"rental_uris":{"android":"levelo://app?vid=407a03d3-9a1b-41f7-922a-36dbbbdf4c88","ios":"levelo://app?vid=407a03d3-9a1b-41f7-922a-36dbbbdf4c88"},"vehicle_type_id":"4","last_reported":1749536140,"current_range_meters":16400,"station_id":"ce4bhr12rcd13ifvqhpg","pricing_plan_id":"cebpf4jnsgd1na2vs0mg"},{"bike_id":"1e20f032-0f6a-40b2-ad29-e4d2225496fa","system_id":"levelo_inurba_marseille","lat":43.30285,"lon":5.37074,"is_reserved":false,"is_disabled":false,"rental_uris":{"android":"levelo://app?vid=1e20f032-0f6a-40b2-ad29-e4d2225496fa","ios":"levelo://app?vid=1e20f032-0f6a-40b2-ad29-e4d2225496fa"},"vehicle_type_id":"4","last_reported":1749536140,"current_range_meters":16400,"station_id":"","pricing_plan_id":"cebpf4jnsgd1na2vs0mg"},{"bike_id":"07569b3f-c31c-4cfe-b4e4-44554ef2a881","system_id":"levelo_inurba_marseille","lat":43.292765,"lon":5.401326,"is_reserved":false,"is_disabled":false,"rental_uris":{"android":"levelo://app?vid=07569b3f-c31c-4cfe-b4e4-44554ef2a881","ios":"levelo://app?vid=07569b3f-c31c-4cfe-b4e4-44554ef2a881"},"vehicle_type_id":"4","last_reported":1749536140,"current_range_meters":16400,"station_id":"ce4bh312rcd13ifvqdk0","pricing_plan_id":"cebpf4jnsgd1na2vs0mg"},{"bike_id":"f47be119-bfcb-4a6a-b442-d0ce0aaf9e3f","system_id":"levelo_inurba_marseille","lat":43.29261,"lon":5.40906,"is_reserved":false,"is_disabled":true,"rental_uris":{"android":"levelo://app?vid=f47be119-bfcb-4a6a-b442-d0ce0aaf9e3f","ios":"levelo://app?vid=f47be119-bfcb-4a6a-b442-d0ce0aaf9e3f"},"vehicle_type_id":"4","last_reported":1749536140,"current_range_meters":16400,"station_id":"ce4bh192rcd13ifvqdc0","pricing_plan_id":"cebpf4jnsgd1na2vs0mg"},{"bike_id":"b1aeb2d5-fe0a-44ee-88db-f38cdfc215e4","system_id":"levelo_inurba_marseille","lat":43.29523,"lon":5.37495,"is_reserved":false,"is_disabled":true,"rental_uris":{"android":"levelo://app?vid=b1aeb2d5-fe0a-44ee-88db-f38cdfc215e4","ios":"levelo://app?vid=b1aeb2d5-fe0a-44ee-88db-f38cdfc215e4"},"vehicle_type_id":"4","last_reported":1749536140,"current_range_meters":16400,"station_id":"","pricing_plan_id":"cebpf4jnsgd1na2vs0mg"},{"bike_id":"3d204527-9a11-4d06-9186-965ecf19d0c0","system_id":"levelo_inurba_marseille","lat":43.241785,"lon":5.397255,"is_reserved":false,"is_disabled":false,"rental_uris":{"android":"levelo://app?vid=3d204527-9a11-4d06-9186-965ecf19d0c0","ios":"levelo://app?vid=3d204527-9a11-4d06-9186-965ecf19d0c0"},"vehicle_type_id":"4","last_reported":1749536140,"current_range_meters":16400,"station_id":"ce4bhn12rcd13ifvqgpg","pricing_plan_id":"cebpf4jnsgd1na2vs0mg"},{"bike_id":"b7b02790-9e2a-46e4-9b71-3ff9a7004329","system_id":"levelo_inurba_marseille","lat":43.30302,"lon":5.3689,"is_reserved":false,"is_disabled":false,"rental_uris":{"android":"levelo://app?vid=b7b02790-9e2a-46e4-9b71-3ff9a7004329","ios":"levelo://app?vid=b7b02790-9e2a-46e4-9b71-3ff9a7004329"},"vehicle_type_id":"4","last_reported":1749536140,"current_range_meters":16800,"station_id":"ce4bgqh2rcd13ifvqc5g","pricing_plan_id":"cebpf4jnsgd1na2vs0mg"},{"bike_id":"5478c1b4-4c7d-476f-b8e4-102490ff70cd","system_id":"levelo_inurba_marseille","lat":43.319182,"lon":5.373544,"is_reserved":false,"is_disabled":true,"rental_uris":{"android":"levelo://app?vid=5478c1b4-4c7d-476f-b8e4-102490ff70cd","ios":"levelo://app?vid=5478c1b4-4c7d-476f-b8e4-102490ff70cd"},"vehicle_type_id":"4","last_reported":1749536140,"current_range_meters":16800,"station_id":"","pricing_plan_id":"cebpf4jnsgd1na2vs0mg"},{"bike_id":"fad9b98f-1bfd-41b0-be76-c725e485d072","system_id":"levelo_inurba_marseille","lat":43.21191,"lon":5.35071,"is_reserved":false,"is_disabled":false,"rental_uris":{"android":"levelo://app?vid=fad9b98f-1bfd-41b0-be76-c725e485d072","ios":"levelo://app?vid=fad9b98f-1bfd-41b0-be76-c725e485d072"},"vehicle_type_id":"4","last_reported":1749536140,"current_range_meters":16800,"station_id":"st_cvj6sg6p6f1abm77japg","pricing_plan_id":"cebpf4jnsgd1na2vs0mg"},{"bike_id":"84f5a926-1dd6-4535-b647-2764ce0ca103","system_id":"levelo_inurba_marseille","lat":43.32078,"lon":5.36742,"is_reserved":false,"is_disabled":false,"rental_uris":{"android":"levelo://app?vid=84f5a926-1dd6-4535-b647-2764ce0ca103","ios":"levelo://app?vid=84f5a926-1dd6-4535-b647-2764ce0ca103"},"vehicle_type_id":"4","last_reported":1749536140,"current_range_meters":16800,"station_id":"ce4bhrh2rcd13ifvqhug","pricing_plan_id":"cebpf4jnsgd1na2vs0mg"},{"bike_id":"38f3574c-6050-4f7b-b824-25609fb7b634","system_id":"levelo_inurba_marseille","lat":43.2998,"lon":5.38484,"is_reserved":false,"is_disabled":true,"rental_uris":{"android":"levelo://app?vid=38f3574c-6050-4f7b-b824-25609fb7b634","ios":"levelo://app?vid=38f3574c-6050-4f7b-b824-25609fb7b634"},"vehicle_type_id":"4","last_reported":1749536140,"current_range_meters":16800,"station_id":"ce4bgj92rcd13ifvqbd0","pricing_plan_id":"cebpf4jnsgd1na2vs0mg"},{"bike_id":"5ba40ea2-ba4e-48c1-9660-7f5dd4b16682","system_id":"levelo_inurba_marseille","lat":43.31491,"lon":5.37302,"is_reserved":false,"is_disabled":false,"rental_uris":{"android":"levelo://app?vid=5ba40ea2-ba4e-48c1-9660-7f5dd4b16682","ios":"levelo://app?vid=5ba40ea2-ba4e-48c1-9660-7f5dd4b16682"},"vehicle_type_id":"4","last_reported":1749536140,"current_range_meters":17200,"station_id":"ce4bgt12rcd13ifvqcd0","pricing_plan_id":"cebpf4jnsgd1na2vs0mg"},{"bike_id":"b0f39c6b-d7da-4e83-881b-6c0b5f546bf0","system_id":"levelo_inurba_marseille","lat":43.316577,"lon":5.404466,"is_reserved":false,"is_disabled":false,"rental_uris":{"android":"levelo://app?vid=b0f39c6b-d7da-4e83-881b-6c0b5f546bf0","ios":"levelo://app?vid=b0f39c6b-d7da-4e83-881b-6c0b5f546bf0"},"vehicle_type_id":"4","last_reported":1749536140,"current_range_meters":17200,"station_id":"ce4bh012rcd13ifvqd00","pricing_plan_id":"cebpf4jnsgd1na2vs0mg"},{"bike_id":"52b5b854-3ad1-41ca-b9e5-f0208cf81dc6","system_id":"levelo_inurba_marseille","lat":43.310717,"lon":5.383601,"is_reserved":false,"is_disabled":false,"rental_uris":{"android":"levelo://app?vid=52b5b854-3ad1-41ca-b9e5-f0208cf81dc6","ios":"levelo://app?vid=52b5b854-3ad1-41ca-b9e5-f0208cf81dc6"},"vehicle_type_id":"4","last_reported":1749536140,"current_range_meters":17200,"station_id":"ce4bgv92rcd13ifvqcr0","pricing_plan_id":"cebpf4jnsgd1na2vs0mg"},{"bike_id":"aff08a3c-f634-48cc-8e17-49555c45191d","system_id":"levelo_inurba_marseille","lat":43.3042,"lon":5.39739,"is_reserved":false,"is_disabled":false,"rental_uris":{"android":"levelo://app?vid=aff08a3c-f634-48cc-8e17-49555c45191d","ios":"levelo://app?vid=aff08a3c-f634-48cc-8e17-49555c45191d"},"vehicle_type_id":"4","last_reported":1749536140,"current_range_meters":17200,"station_id":"ce4bh092rcd13ifvqd20","pricing_plan_id":"cebpf4jnsgd1na2vs0mg"},{"bike_id":"15d57023-b37a-4a68-994c-98adba79c8eb","system_id":"levelo_inurba_marseille","lat":43.293043,"lon":5.371995,"is_reserved":false,"is_disabled":true,"rental_uris":{"android":"levelo://app?vid=15d57023-b37a-4a68-994c-98adba79c8eb","ios":"levelo://app?vid=15d57023-b37a-4a68-994c-98adba79c8eb"},"vehicle_type_id":"4","last_reported":1749536140,"current_range_meters":17600,"station_id":"","pricing_plan_id":"cebpf4jnsgd1na2vs0mg"},{"bike_id":"dd811bf3-0181-407a-8576-29b1b5c691ec","system_id":"levelo_inurba_marseille","lat":43.29608,"lon":5.42713,"is_reserved":false,"is_disabled":false,"rental_uris":{"android":"levelo://app?vid=dd811bf3-0181-407a-8576-29b1b5c691ec","ios":"levelo://app?vid=dd811bf3-0181-407a-8576-29b1b5c691ec"},"vehicle_type_id":"4","last_reported":1749536140,"current_range_meters":17600,"station_id":"","pricing_plan_id":"cebpf4jnsgd1na2vs0mg"},{"bike_id":"aa47741f-2343-4a94-8c2a-bb6fba6c1286","system_id":"levelo_inurba_marseille","lat":43.23181,"lon":5.39994,"is_reserved":false,"is_disabled":false,"rental_uris":{"android":"levelo://app?vid=aa47741f-2343-4a94-8c2a-bb6fba6c1286","ios":"levelo://app?vid=aa47741f-2343-4a94-8c2a-bb6fba6c1286"},"vehicle_type_id":"4","last_reported":1749536140,"current_range_meters":17200,"station_id":"ce4bhn12rcd13ifvqgqg","pricing_plan_id":"cebpf4jnsgd1na2vs0mg"},{"bike_id":"98562cbb-ebbc-48b0-8324-87f03f7d9b6a","system_id":"levelo_inurba_marseille","lat":43.30141,"lon":5.37422,"is_reserved":false,"is_disabled":false,"rental_uris":{"android":"levelo://app?vid=98562cbb-ebbc-48b0-8324-87f03f7d9b6a","ios":"levelo://app?vid=98562cbb-ebbc-48b0-8324-87f03f7d9b6a"},"vehicle_type_id":"4","last_reported":1749536140,"current_range_meters":17600,"station_id":"ce4bgs92rcd13ifvqcc0","pricing_plan_id":"cebpf4jnsgd1na2vs0mg"},{"bike_id":"002ad4e8-6140-4bdd-b14b-f38ee707447e","system_id":"levelo_inurba_marseille","lat":43.30987,"lon":5.38578,"is_reserved":false,"is_disabled":false,"rental_uris":{"android":"levelo://app?vid=002ad4e8-6140-4bdd-b14b-f38ee707447e","ios":"levelo://app?vid=002ad4e8-6140-4bdd-b14b-f38ee707447e"},"vehicle_type_id":"4","last_reported":1749536140,"current_range_meters":17600,"station_id":"","pricing_plan_id":"cebpf4jnsgd1na2vs0mg"},{"bike_id":"371c4004-1947-4f49-8440-b49f77b56132","system_id":"levelo_inurba_marseille","lat":43.31997,"lon":5.38157,"is_reserved":false,"is_disabled":false,"rental_uris":{"android":"levelo://app?vid=371c4004-1947-4f49-8440-b49f77b56132","ios":"levelo://app?vid=371c4004-1947-4f49-8440-b49f77b56132"},"vehicle_type_id":"4","last_reported":1749536140,"current_range_meters":17600,"station_id":"ce4bhr12rcd13ifvqhpg","pricing_plan_id":"cebpf4jnsgd1na2vs0mg"},{"bike_id":"a5b3008d-4885-415a-b7a5-954036b89bda","system_id":"levelo_inurba_marseille","lat":43.27809,"lon":5.40708,"is_reserved":false,"is_disabled":false,"rental_uris":{"android":"levelo://app?vid=a5b3008d-4885-415a-b7a5-954036b89bda","ios":"levelo://app?vid=a5b3008d-4885-415a-b7a5-954036b89bda"},"vehicle_type_id":"4","last_reported":1749536140,"current_range_meters":18000,"station_id":"ce4bhnh2rcd13ifvqgtg","pricing_plan_id":"cebpf4jnsgd1na2vs0mg"},{"bike_id":"1c5e2e11-6e41-4bb7-b985-ece6311b40b6","system_id":"levelo_inurba_marseille","lat":43.2751,"lon":5.4244,"is_reserved":false,"is_disabled":false,"rental_uris":{"android":"levelo://app?vid=1c5e2e11-6e41-4bb7-b985-ece6311b40b6","ios":"levelo://app?vid=1c5e2e11-6e41-4bb7-b985-ece6311b40b6"},"vehicle_type_id":"4","last_reported":1749536140,"current_range_meters":18000,"station_id":"ce4bhn92rcd13ifvqgrg","pricing_plan_id":"cebpf4jnsgd1na2vs0mg"},{"bike_id":"0c35a2fd-4cf2-43de-8b7d-8164ab5ae5df","system_id":"levelo_inurba_marseille","lat":43.30158,"lon":5.38094,"is_reserved":false,"is_disabled":false,"rental_uris":{"android":"levelo://app?vid=0c35a2fd-4cf2-43de-8b7d-8164ab5ae5df","ios":"levelo://app?vid=0c35a2fd-4cf2-43de-8b7d-8164ab5ae5df"},"vehicle_type_id":"4","last_reported":1749536140,"current_range_meters":18000,"station_id":"ce4bgjp2rcd13ifvqbh0","pricing_plan_id":"cebpf4jnsgd1na2vs0mg"},{"bike_id":"6e5fbc37-0895-46dd-ba78-f3b55603fd08","system_id":"levelo_inurba_marseille","lat":43.23195,"lon":5.35542,"is_reserved":false,"is_disabled":true,"rental_uris":{"android":"levelo://app?vid=6e5fbc37-0895-46dd-ba78-f3b55603fd08","ios":"levelo://app?vid=6e5fbc37-0895-46dd-ba78-f3b55603fd08"},"vehicle_type_id":"4","last_reported":1749536140,"current_range_meters":18000,"station_id":"ce4bhu92rcd13ifvqi70","pricing_plan_id":"cebpf4jnsgd1na2vs0mg"},{"bike_id":"74270b3d-89a4-4e3c-976c-62373a4ee1b7","system_id":"levelo_inurba_marseille","lat":43.305498,"lon":5.365379,"is_reserved":false,"is_disabled":true,"rental_uris":{"android":"levelo://app?vid=74270b3d-89a4-4e3c-976c-62373a4ee1b7","ios":"levelo://app?vid=74270b3d-89a4-4e3c-976c-62373a4ee1b7"},"vehicle_type_id":"4","last_reported":1749536140,"current_range_meters":18800,"station_id":"ce4bgs12rcd13ifvqcag","pricing_plan_id":"cebpf4jnsgd1na2vs0mg"},{"bike_id":"27b5bd6f-f3fc-468c-b82d-ada8cd1f0c93","system_id":"levelo_inurba_marseille","lat":43.29966,"lon":5.385,"is_reserved":false,"is_disabled":false,"rental_uris":{"android":"levelo://app?vid=27b5bd6f-f3fc-468c-b82d-ada8cd1f0c93","ios":"levelo://app?vid=27b5bd6f-f3fc-468c-b82d-ada8cd1f0c93"},"vehicle_type_id":"4","last_reported":1749536140,"current_range_meters":18800,"station_id":"ce4bgj92rcd13ifvqbd0","pricing_plan_id":"cebpf4jnsgd1na2vs0mg"},{"bike_id":"9e375d07-8100-47a6-9701-00f510cde1eb","system_id":"levelo_inurba_marseille","lat":43.31134,"lon":5.37747,"is_reserved":false,"is_disabled":false,"rental_uris":{"android":"levelo://app?vid=9e375d07-8100-47a6-9701-00f510cde1eb","ios":"levelo://app?vid=9e375d07-8100-47a6-9701-00f510cde1eb"},"vehicle_type_id":"4","last_reported":1749536140,"current_range_meters":18800,"station_id":"ce4bgt92rcd13ifvqcg0","pricing_plan_id":"cebpf4jnsgd1na2vs0mg"},{"bike_id":"5d3016e0-312c-4b72-8484-4c5d7ec442ef","system_id":"levelo_inurba_marseille","lat":43.368352,"lon":5.343189,"is_reserved":false,"is_disabled":false,"rental_uris":{"android":"levelo://app?vid=5d3016e0-312c-4b72-8484-4c5d7ec442ef","ios":"levelo://app?vid=5d3016e0-312c-4b72-8484-4c5d7ec442ef"},"vehicle_type_id":"4","last_reported":1749536140,"current_range_meters":18800,"station_id":"","pricing_plan_id":"cebpf4jnsgd1na2vs0mg"},{"bike_id":"ebac909a-a93b-4b12-8ee3-451107ce9368","system_id":"levelo_inurba_marseille","lat":43.31359,"lon":5.38509,"is_reserved":false,"is_disabled":false,"rental_uris":{"android":"levelo://app?vid=ebac909a-a93b-4b12-8ee3-451107ce9368","ios":"levelo://app?vid=ebac909a-a93b-4b12-8ee3-451107ce9368"},"vehicle_type_id":"4","last_reported":1749536140,"current_range_meters":18800,"station_id":"ce4bgt92rcd13ifvqcf0","pricing_plan_id":"cebpf4jnsgd1na2vs0mg"},{"bike_id":"a418f07a-a937-4c58-ab74-70f655f77ed3","system_id":"levelo_inurba_marseille","lat":43.28573,"lon":5.39497,"is_reserved":false,"is_disabled":true,"rental_uris":{"android":"levelo://app?vid=a418f07a-a937-4c58-ab74-70f655f77ed3","ios":"levelo://app?vid=a418f07a-a937-4c58-ab74-70f655f77ed3"},"vehicle_type_id":"4","last_reported":1749536140,"current_range_meters":18800,"station_id":"ce4bh292rcd13ifvqdg0","pricing_plan_id":"cebpf4jnsgd1na2vs0mg"},{"bike_id":"1acfb620-cad7-48c0-8901-d7a5b74a5b65","system_id":"levelo_inurba_marseille","lat":43.33751,"lon":5.37456,"is_reserved":false,"is_disabled":false,"rental_uris":{"android":"levelo://app?vid=1acfb620-cad7-48c0-8901-d7a5b74a5b65","ios":"levelo://app?vid=1acfb620-cad7-48c0-8901-d7a5b74a5b65"},"vehicle_type_id":"4","last_reported":1749536140,"current_range_meters":18800,"station_id":"","pricing_plan_id":"cebpf4jnsgd1na2vs0mg"},{"bike_id":"9f7b952c-063e-4233-b94a-014877457194","system_id":"levelo_inurba_marseille","lat":43.30911,"lon":5.36844,"is_reserved":false,"is_disabled":true,"rental_uris":{"android":"levelo://app?vid=9f7b952c-063e-4233-b94a-014877457194","ios":"levelo://app?vid=9f7b952c-063e-4233-b94a-014877457194"},"vehicle_type_id":"4","last_reported":1749536140,"current_range_meters":19200,"station_id":"ce4bgn92rcd13ifvqbvg","pricing_plan_id":"cebpf4jnsgd1na2vs0mg"},{"bike_id":"ee32de37-b714-401b-9955-e177fd11bf0b","system_id":"levelo_inurba_marseille","lat":43.29009,"lon":5.3561,"is_reserved":false,"is_disabled":true,"rental_uris":{"android":"levelo://app?vid=ee32de37-b714-401b-9955-e177fd11bf0b","ios":"levelo://app?vid=ee32de37-b714-401b-9955-e177fd11bf0b"},"vehicle_type_id":"4","last_reported":1749536140,"current_range_meters":19200,"station_id":"ce4bhb92rcd13ifvqen0","pricing_plan_id":"cebpf4jnsgd1na2vs0mg"},{"bike_id":"b61f65ab-7e73-4706-bd15-5bdbfb7cbb14","system_id":"levelo_inurba_marseille","lat":43.25616,"lon":5.41235,"is_reserved":false,"is_disabled":true,"rental_uris":{"android":"levelo://app?vid=b61f65ab-7e73-4706-bd15-5bdbfb7cbb14","ios":"levelo://app?vid=b61f65ab-7e73-4706-bd15-5bdbfb7cbb14"},"vehicle_type_id":"4","last_reported":1749536140,"current_range_meters":19200,"station_id":"","pricing_plan_id":"cebpf4jnsgd1na2vs0mg"},{"bike_id":"4895aea3-cb8f-40a0-979c-448b996f13e5","system_id":"levelo_inurba_marseille","lat":43.29028,"lon":5.37624,"is_reserved":false,"is_disabled":false,"rental_uris":{"android":"levelo://app?vid=4895aea3-cb8f-40a0-979c-448b996f13e5","ios":"levelo://app?vid=4895aea3-cb8f-40a0-979c-448b996f13e5"},"vehicle_type_id":"4","last_reported":1749536140,"current_range_meters":19200,"station_id":"ce4bh692rcd13ifvqe90","pricing_plan_id":"cebpf4jnsgd1na2vs0mg"},{"bike_id":"72c1ffbe-b6ca-406d-960d-a9616882f308","system_id":"levelo_inurba_marseille","lat":43.2414,"lon":5.39771,"is_reserved":false,"is_disabled":true,"rental_uris":{"android":"levelo://app?vid=72c1ffbe-b6ca-406d-960d-a9616882f308","ios":"levelo://app?vid=72c1ffbe-b6ca-406d-960d-a9616882f308"},"vehicle_type_id":"4","last_reported":1749536140,"current_range_meters":19200,"station_id":"ce4bhn12rcd13ifvqgpg","pricing_plan_id":"cebpf4jnsgd1na2vs0mg"},{"bike_id":"b99c4419-32ef-4b59-b47a-584945630847","system_id":"levelo_inurba_marseille","lat":43.29034,"lon":5.39962,"is_reserved":false,"is_disabled":false,"rental_uris":{"android":"levelo://app?vid=b99c4419-32ef-4b59-b47a-584945630847","ios":"levelo://app?vid=b99c4419-32ef-4b59-b47a-584945630847"},"vehicle_type_id":"4","last_reported":1749536140,"current_range_meters":19200,"station_id":"ce4bh392rcd13ifvqdm0","pricing_plan_id":"cebpf4jnsgd1na2vs0mg"},{"bike_id":"cff174c6-6ba3-44b0-a9d2-aee572f9c64a","system_id":"levelo_inurba_marseille","lat":43.29719,"lon":5.3612,"is_reserved":false,"is_disabled":true,"rental_uris":{"android":"levelo://app?vid=cff174c6-6ba3-44b0-a9d2-aee572f9c64a","ios":"levelo://app?vid=cff174c6-6ba3-44b0-a9d2-aee572f9c64a"},"vehicle_type_id":"4","last_reported":1749536140,"current_range_meters":19200,"station_id":"","pricing_plan_id":"cebpf4jnsgd1na2vs0mg"},{"bike_id":"e4716a98-c92e-4c7e-a971-3a9fad8b9b52","system_id":"levelo_inurba_marseille","lat":43.29619,"lon":5.37728,"is_reserved":false,"is_disabled":false,"rental_uris":{"android":"levelo://app?vid=e4716a98-c92e-4c7e-a971-3a9fad8b9b52","ios":"levelo://app?vid=e4716a98-c92e-4c7e-a971-3a9fad8b9b52"},"vehicle_type_id":"4","last_reported":1749536140,"current_range_meters":19200,"station_id":"ce4bgi92rcd13ifvqb90","pricing_plan_id":"cebpf4jnsgd1na2vs0mg"},{"bike_id":"40191c91-1fea-4026-83a2-4b6f627a9c6b","system_id":"levelo_inurba_marseille","lat":43.24071,"lon":5.37751,"is_reserved":false,"is_disabled":false,"rental_uris":{"android":"levelo://app?vid=40191c91-1fea-4026-83a2-4b6f627a9c6b","ios":"levelo://app?vid=40191c91-1fea-4026-83a2-4b6f627a9c6b"},"vehicle_type_id":"4","last_reported":1749536140,"current_range_meters":19200,"station_id":"ce4bhnp2rcd13ifvqgvg","pricing_plan_id":"cebpf4jnsgd1na2vs0mg"},{"bike_id":"9150832f-1128-4a1f-a7e1-4b6758f62dab","system_id":"levelo_inurba_marseille","lat":43.30925,"lon":5.40149,"is_reserved":false,"is_disabled":false,"rental_uris":{"android":"levelo://app?vid=9150832f-1128-4a1f-a7e1-4b6758f62dab","ios":"levelo://app?vid=9150832f-1128-4a1f-a7e1-4b6758f62dab"},"vehicle_type_id":"4","last_reported":1749536140,"current_range_meters":19200,"station_id":"ce4bgvp2rcd13ifvqct0","pricing_plan_id":"cebpf4jnsgd1na2vs0mg"},{"bike_id":"58ec3aed-ce4e-407e-9f67-a8ebcf03f8a9","system_id":"levelo_inurba_marseille","lat":43.24175,"lon":5.397229,"is_reserved":false,"is_disabled":false,"rental_uris":{"android":"levelo://app?vid=58ec3aed-ce4e-407e-9f67-a8ebcf03f8a9","ios":"levelo://app?vid=58ec3aed-ce4e-407e-9f67-a8ebcf03f8a9"},"vehicle_type_id":"4","last_reported":1749536140,"current_range_meters":19600,"station_id":"ce4bhn12rcd13ifvqgpg","pricing_plan_id":"cebpf4jnsgd1na2vs0mg"},{"bike_id":"3105d078-bc60-4605-8779-ea2136f871f9","system_id":"levelo_inurba_marseille","lat":43.28939,"lon":5.36618,"is_reserved":false,"is_disabled":true,"rental_uris":{"android":"levelo://app?vid=3105d078-bc60-4605-8779-ea2136f871f9","ios":"levelo://app?vid=3105d078-bc60-4605-8779-ea2136f871f9"},"vehicle_type_id":"4","last_reported":1749536140,"current_range_meters":19600,"station_id":"ce4bhap2rcd13ifvqek0","pricing_plan_id":"cebpf4jnsgd1na2vs0mg"},{"bike_id":"3f4b281e-6732-4711-953c-a18c63e62a35","system_id":"levelo_inurba_marseille","lat":43.30148,"lon":5.38091,"is_reserved":false,"is_disabled":false,"rental_uris":{"android":"levelo://app?vid=3f4b281e-6732-4711-953c-a18c63e62a35","ios":"levelo://app?vid=3f4b281e-6732-4711-953c-a18c63e62a35"},"vehicle_type_id":"4","last_reported":1749536140,"current_range_meters":19600,"station_id":"ce4bgjp2rcd13ifvqbh0","pricing_plan_id":"cebpf4jnsgd1na2vs0mg"},{"bike_id":"b250ebbd-9a5e-43c9-8fa5-3d6e14c84121","system_id":"levelo_inurba_marseille","lat":43.31718,"lon":5.37726,"is_reserved":false,"is_disabled":true,"rental_uris":{"android":"levelo://app?vid=b250ebbd-9a5e-43c9-8fa5-3d6e14c84121","ios":"levelo://app?vid=b250ebbd-9a5e-43c9-8fa5-3d6e14c84121"},"vehicle_type_id":"4","last_reported":1749536140,"current_range_meters":19600,"station_id":"ce4bgth2rcd13ifvqch0","pricing_plan_id":"cebpf4jnsgd1na2vs0mg"},{"bike_id":"c24128ee-cd14-41fb-849a-bbed2f9cd4b1","system_id":"levelo_inurba_marseille","lat":43.31471,"lon":5.37322,"is_reserved":false,"is_disabled":false,"rental_uris":{"android":"levelo://app?vid=c24128ee-cd14-41fb-849a-bbed2f9cd4b1","ios":"levelo://app?vid=c24128ee-cd14-41fb-849a-bbed2f9cd4b1"},"vehicle_type_id":"4","last_reported":1749536140,"current_range_meters":19600,"station_id":"ce4bgt12rcd13ifvqcd0","pricing_plan_id":"cebpf4jnsgd1na2vs0mg"},{"bike_id":"61c3047c-933c-413d-91fb-0a1b2df9ed6e","system_id":"levelo_inurba_marseille","lat":43.29943,"lon":5.36536,"is_reserved":false,"is_disabled":true,"rental_uris":{"android":"levelo://app?vid=61c3047c-933c-413d-91fb-0a1b2df9ed6e","ios":"levelo://app?vid=61c3047c-933c-413d-91fb-0a1b2df9ed6e"},"vehicle_type_id":"4","last_reported":1749536140,"current_range_meters":19600,"station_id":"ce4bgm92rcd13ifvqbr0","pricing_plan_id":"cebpf4jnsgd1na2vs0mg"},{"bike_id":"314bac2c-e47f-46cd-afcd-53cd84a7d142","system_id":"levelo_inurba_marseille","lat":43.27617,"lon":5.36104,"is_reserved":false,"is_disabled":true,"rental_uris":{"android":"levelo://app?vid=314bac2c-e47f-46cd-afcd-53cd84a7d142","ios":"levelo://app?vid=314bac2c-e47f-46cd-afcd-53cd84a7d142"},"vehicle_type_id":"4","last_reported":1749536140,"current_range_meters":19600,"station_id":"ce4bgj92rcd13ifvqbe0","pricing_plan_id":"cebpf4jnsgd1na2vs0mg"},{"bike_id":"cc5ec338-8860-46d0-8c03-79ee6f13080b","system_id":"levelo_inurba_marseille","lat":43.30221,"lon":5.38983,"is_reserved":false,"is_disabled":false,"rental_uris":{"android":"levelo://app?vid=cc5ec338-8860-46d0-8c03-79ee6f13080b","ios":"levelo://app?vid=cc5ec338-8860-46d0-8c03-79ee6f13080b"},"vehicle_type_id":"4","last_reported":1749536140,"current_range_meters":20000,"station_id":"","pricing_plan_id":"cebpf4jnsgd1na2vs0mg"},{"bike_id":"9fed7935-0e05-4611-8412-b176c6a74123","system_id":"levelo_inurba_marseille","lat":43.31709,"lon":5.40405,"is_reserved":false,"is_disabled":false,"rental_uris":{"android":"levelo://app?vid=9fed7935-0e05-4611-8412-b176c6a74123","ios":"levelo://app?vid=9fed7935-0e05-4611-8412-b176c6a74123"},"vehicle_type_id":"4","last_reported":1749536140,"current_range_meters":20000,"station_id":"ce4bh012rcd13ifvqd00","pricing_plan_id":"cebpf4jnsgd1na2vs0mg"},{"bike_id":"3ced28f7-8cbe-45d1-b90c-c31199fa265e","system_id":"levelo_inurba_marseille","lat":43.31973,"lon":5.3814,"is_reserved":false,"is_disabled":false,"rental_uris":{"android":"levelo://app?vid=3ced28f7-8cbe-45d1-b90c-c31199fa265e","ios":"levelo://app?vid=3ced28f7-8cbe-45d1-b90c-c31199fa265e"},"vehicle_type_id":"4","last_reported":1749536140,"current_range_meters":20000,"station_id":"ce4bhr12rcd13ifvqhpg","pricing_plan_id":"cebpf4jnsgd1na2vs0mg"},{"bike_id":"0a61a83d-30f6-461d-afb3-c145799620b8","system_id":"levelo_inurba_marseille","lat":43.32494,"lon":5.36559,"is_reserved":false,"is_disabled":false,"rental_uris":{"android":"levelo://app?vid=0a61a83d-30f6-461d-afb3-c145799620b8","ios":"levelo://app?vid=0a61a83d-30f6-461d-afb3-c145799620b8"},"vehicle_type_id":"4","last_reported":1749536140,"current_range_meters":20000,"station_id":"ce4bhs12rcd13ifvqhvg","pricing_plan_id":"cebpf4jnsgd1na2vs0mg"},{"bike_id":"79c70cb0-0106-48e9-9d56-3e4c0b1b9344","system_id":"levelo_inurba_marseille","lat":43.30925,"lon":5.40137,"is_reserved":false,"is_disabled":false,"rental_uris":{"android":"levelo://app?vid=79c70cb0-0106-48e9-9d56-3e4c0b1b9344","ios":"levelo://app?vid=79c70cb0-0106-48e9-9d56-3e4c0b1b9344"},"vehicle_type_id":"4","last_reported":1749536140,"current_range_meters":20000,"station_id":"ce4bgvp2rcd13ifvqct0","pricing_plan_id":"cebpf4jnsgd1na2vs0mg"},{"bike_id":"4435654f-d70d-4ac9-b5a3-b1cefb7ce9a4","system_id":"levelo_inurba_marseille","lat":43.243925,"lon":5.370659,"is_reserved":false,"is_disabled":true,"rental_uris":{"android":"levelo://app?vid=4435654f-d70d-4ac9-b5a3-b1cefb7ce9a4","ios":"levelo://app?vid=4435654f-d70d-4ac9-b5a3-b1cefb7ce9a4"},"vehicle_type_id":"4","last_reported":1749536140,"current_range_meters":20000,"station_id":"ce4bhhh2rcd13ifvqfk0","pricing_plan_id":"cebpf4jnsgd1na2vs0mg"},{"bike_id":"954a65af-98ee-4211-a64a-a0e8b2017f3f","system_id":"levelo_inurba_marseille","lat":43.26231,"lon":5.40455,"is_reserved":false,"is_disabled":false,"rental_uris":{"android":"levelo://app?vid=954a65af-98ee-4211-a64a-a0e8b2017f3f","ios":"levelo://app?vid=954a65af-98ee-4211-a64a-a0e8b2017f3f"},"vehicle_type_id":"4","last_reported":1749536140,"current_range_meters":20000,"station_id":"ce4bhmh2rcd13ifvqgmg","pricing_plan_id":"cebpf4jnsgd1na2vs0mg"},{"bike_id":"4cb78e2c-8e63-4812-81ef-1980f9de8b37","system_id":"levelo_inurba_marseille","lat":43.32392,"lon":5.38899,"is_reserved":false,"is_disabled":false,"rental_uris":{"android":"levelo://app?vid=4cb78e2c-8e63-4812-81ef-1980f9de8b37","ios":"levelo://app?vid=4cb78e2c-8e63-4812-81ef-1980f9de8b37"},"vehicle_type_id":"4","last_reported":1749536140,"current_range_meters":20000,"station_id":"ce4bhqp2rcd13ifvqhog","pricing_plan_id":"cebpf4jnsgd1na2vs0mg"},{"bike_id":"035e1f3a-d3d4-4c3f-ba01-23ba92700bc3","system_id":"levelo_inurba_marseille","lat":43.30955,"lon":5.39074,"is_reserved":false,"is_disabled":false,"rental_uris":{"android":"levelo://app?vid=035e1f3a-d3d4-4c3f-ba01-23ba92700bc3","ios":"levelo://app?vid=035e1f3a-d3d4-4c3f-ba01-23ba92700bc3"},"vehicle_type_id":"4","last_reported":1749536140,"current_range_meters":20000,"station_id":"ce4bgup2rcd13ifvqco0","pricing_plan_id":"cebpf4jnsgd1na2vs0mg"},{"bike_id":"7b3b44ca-f576-4171-a24f-3e9efbd8383c","system_id":"levelo_inurba_marseille","lat":43.30152,"lon":5.38079,"is_reserved":false,"is_disabled":false,"rental_uris":{"android":"levelo://app?vid=7b3b44ca-f576-4171-a24f-3e9efbd8383c","ios":"levelo://app?vid=7b3b44ca-f576-4171-a24f-3e9efbd8383c"},"vehicle_type_id":"4","last_reported":1749536140,"current_range_meters":20000,"station_id":"ce4bgjp2rcd13ifvqbh0","pricing_plan_id":"cebpf4jnsgd1na2vs0mg"},{"bike_id":"e283b246-f151-4f97-8928-83313f0579c2","system_id":"levelo_inurba_marseille","lat":43.292528,"lon":5.409048,"is_reserved":false,"is_disabled":false,"rental_uris":{"android":"levelo://app?vid=e283b246-f151-4f97-8928-83313f0579c2","ios":"levelo://app?vid=e283b246-f151-4f97-8928-83313f0579c2"},"vehicle_type_id":"4","last_reported":1749536140,"current_range_meters":20000,"station_id":"ce4bh192rcd13ifvqdc0","pricing_plan_id":"cebpf4jnsgd1na2vs0mg"},{"bike_id":"6ce03540-babd-49ec-ae49-67f641008d0c","system_id":"levelo_inurba_marseille","lat":43.24381,"lon":5.37052,"is_reserved":false,"is_disabled":false,"rental_uris":{"android":"levelo://app?vid=6ce03540-babd-49ec-ae49-67f641008d0c","ios":"levelo://app?vid=6ce03540-babd-49ec-ae49-67f641008d0c"},"vehicle_type_id":"4","last_reported":1749536140,"current_range_meters":20000,"station_id":"ce4bhhh2rcd13ifvqfk0","pricing_plan_id":"cebpf4jnsgd1na2vs0mg"},{"bike_id":"e93073ab-c17c-467a-b540-f93334fc1a8a","system_id":"levelo_inurba_marseille","lat":43.21173,"lon":5.35086,"is_reserved":false,"is_disabled":true,"rental_uris":{"android":"levelo://app?vid=e93073ab-c17c-467a-b540-f93334fc1a8a","ios":"levelo://app?vid=e93073ab-c17c-467a-b540-f93334fc1a8a"},"vehicle_type_id":"4","last_reported":1749536140,"current_range_meters":20000,"station_id":"st_cvj6sg6p6f1abm77japg","pricing_plan_id":"cebpf4jnsgd1na2vs0mg"},{"bike_id":"1e1f7885-7a89-42b3-8e2d-ad30c32fe4c3","system_id":"levelo_inurba_marseille","lat":43.29423,"lon":5.38604,"is_reserved":false,"is_disabled":true,"rental_uris":{"android":"levelo://app?vid=1e1f7885-7a89-42b3-8e2d-ad30c32fe4c3","ios":"levelo://app?vid=1e1f7885-7a89-42b3-8e2d-ad30c32fe4c3"},"vehicle_type_id":"4","last_reported":1749536140,"current_range_meters":20400,"station_id":"ce4bh2h2rcd13ifvqdh0","pricing_plan_id":"cebpf4jnsgd1na2vs0mg"},{"bike_id":"ae59c922-1c9c-4cb7-bf97-a2878026227d","system_id":"levelo_inurba_marseille","lat":43.28416,"lon":5.34974,"is_reserved":false,"is_disabled":false,"rental_uris":{"android":"levelo://app?vid=ae59c922-1c9c-4cb7-bf97-a2878026227d","ios":"levelo://app?vid=ae59c922-1c9c-4cb7-bf97-a2878026227d"},"vehicle_type_id":"4","last_reported":1749536140,"current_range_meters":20400,"station_id":"ce4bhbh2rcd13ifvqepg","pricing_plan_id":"cebpf4jnsgd1na2vs0mg"},{"bike_id":"611a0eee-4f96-4990-9346-826ba369fc66","system_id":"levelo_inurba_marseille","lat":43.29259,"lon":5.40124,"is_reserved":false,"is_disabled":false,"rental_uris":{"android":"levelo://app?vid=611a0eee-4f96-4990-9346-826ba369fc66","ios":"levelo://app?vid=611a0eee-4f96-4990-9346-826ba369fc66"},"vehicle_type_id":"4","last_reported":1749536140,"current_range_meters":20400,"station_id":"ce4bh312rcd13ifvqdk0","pricing_plan_id":"cebpf4jnsgd1na2vs0mg"},{"bike_id":"2ad38b59-deb2-4d66-a5db-c4dec1de140b","system_id":"levelo_inurba_marseille","lat":43.29551,"lon":5.3995,"is_reserved":false,"is_disabled":false,"rental_uris":{"android":"levelo://app?vid=2ad38b59-deb2-4d66-a5db-c4dec1de140b","ios":"levelo://app?vid=2ad38b59-deb2-4d66-a5db-c4dec1de140b"},"vehicle_type_id":"4","last_reported":1749536140,"current_range_meters":20400,"station_id":"ce4bh312rcd13ifvqdj0","pricing_plan_id":"cebpf4jnsgd1na2vs0mg"},{"bike_id":"0509747e-8e83-44e0-a642-c1bc88d90254","system_id":"levelo_inurba_marseille","lat":43.211919,"lon":5.35076,"is_reserved":false,"is_disabled":false,"rental_uris":{"android":"levelo://app?vid=0509747e-8e83-44e0-a642-c1bc88d90254","ios":"levelo://app?vid=0509747e-8e83-44e0-a642-c1bc88d90254"},"vehicle_type_id":"4","last_reported":1749536140,"current_range_meters":20400,"station_id":"st_cvj6sg6p6f1abm77japg","pricing_plan_id":"cebpf4jnsgd1na2vs0mg"},{"bike_id":"a2421370-e442-436f-a98a-844d44299694","system_id":"levelo_inurba_marseille","lat":43.32331,"lon":5.36672,"is_reserved":false,"is_disabled":true,"rental_uris":{"android":"levelo://app?vid=a2421370-e442-436f-a98a-844d44299694","ios":"levelo://app?vid=a2421370-e442-436f-a98a-844d44299694"},"vehicle_type_id":"4","last_reported":1749536140,"current_range_meters":20800,"station_id":"","pricing_plan_id":"cebpf4jnsgd1na2vs0mg"},{"bike_id":"131a22c5-2c23-41a1-8993-48538638085c","system_id":"levelo_inurba_marseille","lat":43.32108,"lon":5.36766,"is_reserved":false,"is_disabled":false,"rental_uris":{"android":"levelo://app?vid=131a22c5-2c23-41a1-8993-48538638085c","ios":"levelo://app?vid=131a22c5-2c23-41a1-8993-48538638085c"},"vehicle_type_id":"4","last_reported":1749536140,"current_range_meters":20800,"station_id":"ce4bhrh2rcd13ifvqhug","pricing_plan_id":"cebpf4jnsgd1na2vs0mg"},{"bike_id":"16f26616-c1ae-43ce-b73e-eac91ddcf64d","system_id":"levelo_inurba_marseille","lat":43.2593,"lon":5.40904,"is_reserved":false,"is_disabled":false,"rental_uris":{"android":"levelo://app?vid=16f26616-c1ae-43ce-b73e-eac91ddcf64d","ios":"levelo://app?vid=16f26616-c1ae-43ce-b73e-eac91ddcf64d"},"vehicle_type_id":"4","last_reported":1749536140,"current_range_meters":20800,"station_id":"ce4bhm92rcd13ifvqglg","pricing_plan_id":"cebpf4jnsgd1na2vs0mg"},{"bike_id":"5ddde2d9-74cf-4073-9d4d-bfde2ca1bc03","system_id":"levelo_inurba_marseille","lat":43.32333,"lon":5.40611,"is_reserved":false,"is_disabled":false,"rental_uris":{"android":"levelo://app?vid=5ddde2d9-74cf-4073-9d4d-bfde2ca1bc03","ios":"levelo://app?vid=5ddde2d9-74cf-4073-9d4d-bfde2ca1bc03"},"vehicle_type_id":"4","last_reported":1749536140,"current_range_meters":20800,"station_id":"ce4bhq92rcd13ifvqhjg","pricing_plan_id":"cebpf4jnsgd1na2vs0mg"},{"bike_id":"08c42fbe-ddad-49e2-9525-84cd6a194b89","system_id":"levelo_inurba_marseille","lat":43.25867,"lon":5.39945,"is_reserved":false,"is_disabled":false,"rental_uris":{"android":"levelo://app?vid=08c42fbe-ddad-49e2-9525-84cd6a194b89","ios":"levelo://app?vid=08c42fbe-ddad-49e2-9525-84cd6a194b89"},"vehicle_type_id":"4","last_reported":1749536140,"current_range_meters":21600,"station_id":"ce4bhl92rcd13ifvqghg","pricing_plan_id":"cebpf4jnsgd1na2vs0mg"},{"bike_id":"c283ddf5-01cd-4fc6-aab1-07c613890517","system_id":"levelo_inurba_marseille","lat":43.28997,"lon":5.35619,"is_reserved":false,"is_disabled":false,"rental_uris":{"android":"levelo://app?vid=c283ddf5-01cd-4fc6-aab1-07c613890517","ios":"levelo://app?vid=c283ddf5-01cd-4fc6-aab1-07c613890517"},"vehicle_type_id":"4","last_reported":1749536140,"current_range_meters":21600,"station_id":"ce4bhb92rcd13ifvqen0","pricing_plan_id":"cebpf4jnsgd1na2vs0mg"},{"bike_id":"2f711349-eed9-4cbe-ba1d-b35c46a39f14","system_id":"levelo_inurba_marseille","lat":43.341391,"lon":5.409166,"is_reserved":false,"is_disabled":false,"rental_uris":{"android":"levelo://app?vid=2f711349-eed9-4cbe-ba1d-b35c46a39f14","ios":"levelo://app?vid=2f711349-eed9-4cbe-ba1d-b35c46a39f14"},"vehicle_type_id":"4","last_reported":1749536140,"current_range_meters":22000,"station_id":"ce4bhqh2rcd13ifvqhlg","pricing_plan_id":"cebpf4jnsgd1na2vs0mg"},{"bike_id":"f1a68796-63f1-4d7d-be93-e239f9c87fa9","system_id":"levelo_inurba_marseille","lat":43.2706,"lon":5.42279,"is_reserved":false,"is_disabled":false,"rental_uris":{"android":"levelo://app?vid=f1a68796-63f1-4d7d-be93-e239f9c87fa9","ios":"levelo://app?vid=f1a68796-63f1-4d7d-be93-e239f9c87fa9"},"vehicle_type_id":"4","last_reported":1749536140,"current_range_meters":22000,"station_id":"ce4bhk92rcd13ifvqgb0","pricing_plan_id":"cebpf4jnsgd1na2vs0mg"},{"bike_id":"e37705a8-2beb-4508-b196-19067966c005","system_id":"levelo_inurba_marseille","lat":43.3469,"lon":5.34523,"is_reserved":false,"is_disabled":false,"rental_uris":{"android":"levelo://app?vid=e37705a8-2beb-4508-b196-19067966c005","ios":"levelo://app?vid=e37705a8-2beb-4508-b196-19067966c005"},"vehicle_type_id":"4","last_reported":1749536140,"current_range_meters":22000,"station_id":"","pricing_plan_id":"cebpf4jnsgd1na2vs0mg"},