{"last_updated":1727694457,"ttl":60,"version":"2.2","data":{"bikes":[{"bike_id":"9d32dcbc-8ead-4d60-b9de-9a6f184651e1","system_id":"levelo_inurba_marseille","lat":43.27813,"lon":5.40707,"is_reserved":false,"is_disabled":false,"rental_uris":{"android":"levelo://app?vid=9d32dcbc-8ead-4d60-b9de-9a6f184651e1","ios":"levelo://app?vid=9d32dcbc-8ead-4d60-b9de-9a6f184651e1"},"vehicle_type_id":"4","last_reported":1727694457,"current_range_meters":6800,"station_id":"ce4bhnh2rcd13ifvqgtg","pricing_plan_id":"cebpf4jnsgd1na2vs0mg"},{"bike_id":"1c22ba36-c36b-45a8-b812-1fc4bcd3cb0c","system_id":"levelo_inurba_marseille","lat":43.29037,"lon":5.35923,"is_reserved":false,"is_disabled":false,"rental_uris":{"android":"levelo://app?vid=1c22ba36-c36b-45a8-b812-1fc4bcd3cb0c","ios":"levelo://app?vid=1c22ba36-c36b-45a8-b812-1fc4bcd3cb0c"},"vehicle_type_id":"4","last_reported":1727694457,"current_range_meters":18800,"station_id":"ce4bha92rcd13ifvqeg0","pricing_plan_id":"cebpf4jnsgd1na2vs0mg"},{"bike_id":"a64d2604-8992-49e7-bfbe-4c73da1546c0","system_id":"levelo_inurba_marseille","lat":43.30539,"lon":5.36531,"is_reserved":false,"is_disabled":false,"rental_uris":{"android":"levelo://app?vid=a64d2604-8992-49e7-bfbe-4c73da1546c0","ios":"levelo://app?vid=a64d2604-8992-49e7-bfbe-4c73da1546c0"},"vehicle_type_id":"4","last_reported":1727694457,"current_range_meters":25200,"station_id":"ce4bgs12rcd13ifvqcag","pricing_plan_id":"cebpf4jnsgd1na2vs0mg"},{"bike_id":"bcebec4b-1f3e-4aca-b29f-e4b3a13c9640","system_id":"levelo_inurba_marseille","lat":43.29601,"lon":5.38102,"is_reserved":false,"is_disabled":false,"rental_uris":{"android":"levelo://app?vid=bcebec4b-1f3e-4aca-b29f-e4b3a13c9640","ios":"levelo://app?vid=bcebec4b-1f3e-4aca-b29f-e4b3a13c9640"},"vehicle_type_id":"4","last_reported":1727694457,"current_range_meters":5600,"station_id":"ce4bgl12rcd13ifvqbo0","pricing_plan_id":"cebpf4jnsgd1na2vs0mg"},{"bike_id":"653363e3-7d15-401c-bdb9-226d1631149e","system_id":"levelo_inurba_marseille","lat":43.2811,"lon":5.37854,"is_reserved":false,"is_disabled":false,"rental_uris":{"android":"levelo://app?vid=653363e3-7d15-401c-bdb9-226d1631149e","ios":"levelo://app?vid=653363e3-7d15-401c-bdb9-226d1631149e"},"vehicle_type_id":"4","last_reported":1727694457,"current_range_meters":39200,"station_id":"ce4bha12rcd13ifvqee0","pricing_plan_id":"cebpf4jnsgd1na2vs0mg"},{"bike_id":"73d0d5df-4401-40c0-89eb-aa4e1f20a05f","system_id":"levelo_inurba_marseille","lat":43.29337,"lon":5.41177,"is_reserved":false,"is_disabled":false,"rental_uris":{"android":"levelo://app?vid=73d0d5df-4401-40c0-89eb-aa4e1f20a05f","ios":"levelo://app?vid=73d0d5df-4401-40c0-89eb-aa4e1f20a05f"},"vehicle_type_id":"4","last_reported":1727694457,"current_range_meters":27600,"station_id":"","pricing_plan_id":"cebpf4jnsgd1na2vs0mg"},{"bike_id":"6c2d3f18-3d2f-44d9-9b53-9e8cbc2abcd2","system_id":"levelo_inurba_marseille","lat":43.27813,"lon":5.4072,"is_reserved":false,"is_disabled":false,"rental_uris":{"android":"levelo://app?vid=6c2d3f18-3d2f-44d9-9b53-9e8cbc2abcd2","ios":"levelo://app?vid=6c2d3f18-3d2f-44d9-9b53-9e8cbc2abcd2"},"vehicle_type_id":"4","last_reported":1727694457,"current_range_meters":38000,"station_id":"ce4bhnh2rcd13ifvqgtg","pricing_plan_id":"cebpf4jnsgd1na2vs0mg"},{"bike_id":"43defcf7-27fa-4722-b56f-e45a1dfc2de3","system_id":"levelo_inurba_marseille","lat":43.31866,"lon":5.3869,"is_reserved":false,"is_disabled":false,"rental_uris":{"android":"levelo://app?vid=43defcf7-27fa-4722-b56f-e45a1dfc2de3","ios":"levelo://app?vid=43defcf7-27fa-4722-b56f-e45a1dfc2de3"},"vehicle_type_id":"4","last_reported":1727694457,"current_range_meters":21600,"station_id":"","pricing_plan_id":"cebpf4jnsgd1na2vs0mg"},{"bike_id":"df2b664d-5bac-465f-88e7-ae06dcb5ed98","system_id":"levelo_inurba_marseille","lat":43.24171,"lon":5.36405,"is_reserved":false,"is_disabled":false,"rental_uris":{"android":"levelo://app?vid=df2b664d-5bac-465f-88e7-ae06dcb5ed98","ios":"levelo://app?vid=df2b664d-5bac-465f-88e7-ae06dcb5ed98"},"vehicle_type_id":"4","last_reported":1727694457,"current_range_meters":20800,"station_id":"cpo36qri1sfpv3e86is0","pricing_plan_id":"cebpf4jnsgd1na2vs0mg"},{"bike_id":"b4b45ec5-28c4-4e2c-9ac2-fc598eed97ab","system_id":"levelo_inurba_marseille","lat":43.32484,"lon":5.36556,"is_reserved":false,"is_disabled":false,"rental_uris":{"android":"levelo://app?vid=b4b45ec5-28c4-4e2c-9ac2-fc598eed97ab","ios":"levelo://app?vid=b4b45ec5-28c4-4e2c-9ac2-fc598eed97ab"},"vehicle_type_id":"4","last_reported":1727694457,"current_range_meters":6000,"station_id":"ce4bhs12rcd13ifvqhvg","pricing_plan_id":"cebpf4jnsgd1na2vs0mg"},{"bike_id":"d92080cc-23cd-482e-bd6a-f8b875fa0035","system_id":"levelo_inurba_marseille","lat":43.31217,"lon":5.36875,"is_reserved":false,"is_disabled":false,"rental_uris":{"android":"levelo://app?vid=d92080cc-23cd-482e-bd6a-f8b875fa0035","ios":"levelo://app?vid=d92080cc-23cd-482e-bd6a-f8b875fa0035"},"vehicle_type_id":"4","last_reported":1727694457,"current_range_meters":26800,"station_id":"ce4bgl92rcd13ifvqbq0","pricing_plan_id":"cebpf4jnsgd1na2vs0mg"},{"bike_id":"7c7310d8-0ff7-4710-8fc2-acd5e5e9e782","system_id":"levelo_inurba_marseille","lat":43.23156,"lon":5.43714,"is_reserved":false,"is_disabled":false,"rental_uris":{"android":"levelo://app?vid=7c7310d8-0ff7-4710-8fc2-acd5e5e9e782","ios":"levelo://app?vid=7c7310d8-0ff7-4710-8fc2-acd5e5e9e782"},"vehicle_type_id":"4","last_reported":1727694457,"current_range_meters":39200,"station_id":"ce4bhmp2rcd13ifvqgog","pricing_plan_id":"cebpf4jnsgd1na2vs0mg"},{"bike_id":"3bf0a32a-7e32-422e-bdd4-82164e871c17","system_id":"levelo_inurba_marseille","lat":43.3123,"lon":5.36864,"is_reserved":false,"is_disabled":false,"rental_uris":{"android":"levelo://app?vid=3bf0a32a-7e32-422e-bdd4-82164e871c17","ios":"levelo://app?vid=3bf0a32a-7e32-422e-bdd4-82164e871c17"},"vehicle_type_id":"4","last_reported":1727694457,"current_range_meters":39200,"station_id":"ce4bgl92rcd13ifvqbq0","pricing_plan_id":"cebpf4jnsgd1na2vs0mg"},{"bike_id":"365dfba5-918f-44ac-8c71-9138dda11f13","system_id":"levelo_inurba_marseille","lat":43.28271,"lon":5.35071,"is_reserved":false,"is_disabled":false,"rental_uris":{"android":"levelo://app?vid=365dfba5-918f-44ac-8c71-9138dda11f13","ios":"levelo://app?vid=365dfba5-918f-44ac-8c71-9138dda11f13"},"vehicle_type_id":"4","last_reported":1727694457,"current_range_meters":18800,"station_id":"ce4bhbp2rcd13ifvqerg","pricing_plan_id":"cebpf4jnsgd1na2vs0mg"},{"bike_id":"4de859a6-9250-4050-9a09-013a7afcb720","system_id":"levelo_inurba_marseille","lat":43.30547,"lon":5.36537,"is_reserved":false,"is_disabled":false,"rental_uris":{"android":"levelo://app?vid=4de859a6-9250-4050-9a09-013a7afcb720","ios":"levelo://app?vid=4de859a6-9250-4050-9a09-013a7afcb720"},"vehicle_type_id":"4","last_reported":1727694457,"current_range_meters":32800,"station_id":"ce4bgs12rcd13ifvqcag","pricing_plan_id":"cebpf4jnsgd1na2vs0mg"},{"bike_id":"07333426-1e93-4e70-9877-9a42d3eef8c5","system_id":"levelo_inurba_marseille","lat":43.31693,"lon":5.40479,"is_reserved":false,"is_disabled":false,"rental_uris":{"android":"levelo://app?vid=07333426-1e93-4e70-9877-9a42d3eef8c5","ios":"levelo://app?vid=07333426-1e93-4e70-9877-9a42d3eef8c5"},"vehicle_type_id":"4","last_reported":1727694457,"current_range_meters":18800,"station_id":"ce4bh012rcd13ifvqd00","pricing_plan_id":"cebpf4jnsgd1na2vs0mg"},{"bike_id":"950f0ed1-e694-4a3a-b1c7-4108814836c9","system_id":"levelo_inurba_marseille","lat":43.26683,"lon":5.38272,"is_reserved":false,"is_disabled":false,"rental_uris":{"android":"levelo://app?vid=950f0ed1-e694-4a3a-b1c7-4108814836c9","ios":"levelo://app?vid=950f0ed1-e694-4a3a-b1c7-4108814836c9"},"vehicle_type_id":"4","last_reported":1727694457,"current_range_meters":30000,"station_id":"ce4bhg92rcd13ifvqf90","pricing_plan_id":"cebpf4jnsgd1na2vs0mg"},{"bike_id":"16a4a213-6c91-4e4c-8a1a-36d446c27633","system_id":"levelo_inurba_marseille","lat":43.25121,"lon":5.40326,"is_reserved":false,"is_disabled":false,"rental_uris":{"android":"levelo://app?vid=16a4a213-6c91-4e4c-8a1a-36d446c27633","ios":"levelo://app?vid=16a4a213-6c91-4e4c-8a1a-36d446c27633"},"vehicle_type_id":"4","last_reported":1727694457,"current_range_meters":10000,"station_id":"ce4bhlh2rcd13ifvqgig","pricing_plan_id":"cebpf4jnsgd1na2vs0mg"},{"bike_id":"d034dda5-a9b5-4448-8d8b-85e2dfe80aa7","system_id":"levelo_inurba_marseille","lat":43.26936,"lon":5.38917,"is_reserved":false,"is_disabled":false,"rental_uris":{"android":"levelo://app?vid=d034dda5-a9b5-4448-8d8b-85e2dfe80aa7","ios":"levelo://app?vid=d034dda5-a9b5-4448-8d8b-85e2dfe80aa7"},"vehicle_type_id":"4","last_reported":1727694457,"current_range_meters":26000,"station_id":"ce4bhhh2rcd13ifvqfl0","pricing_plan_id":"cebpf4jnsgd1na2vs0mg"},{"bike_id":"380892d5-0c07-4382-989e-ba79e6cba25e","system_id":"levelo_inurba_marseille","lat":43.2802,"lon":5.36096,"is_reserved":false,"is_disabled":false,"rental_uris":{"android":"levelo://app?vid=380892d5-0c07-4382-989e-ba79e6cba25e","ios":"levelo://app?vid=380892d5-0c07-4382-989e-ba79e6cba25e"},"vehicle_type_id":"4","last_reported":1727694457,"current_range_meters":18800,"station_id":"","pricing_plan_id":"cebpf4jnsgd1na2vs0mg"},{"bike_id":"0622bb0a-1d8f-4063-b5ab-98e6a936542c","system_id":"levelo_inurba_marseille","lat":43.28404,"lon":5.37523,"is_reserved":false,"is_disabled":false,"rental_uris":{"android":"levelo://app?vid=0622bb0a-1d8f-4063-b5ab-98e6a936542c","ios":"levelo://app?vid=0622bb0a-1d8f-4063-b5ab-98e6a936542c"},"vehicle_type_id":"4","last_reported":1727694457,"current_range_meters":15200,"station_id":"ce4bh412rcd13ifvqds0","pricing_plan_id":"cebpf4jnsgd1na2vs0mg"},{"bike_id":"98846a64-6c39-4e5f-b5cd-cb5585578d9d","system_id":"levelo_inurba_marseille","lat":43.2749,"lon":5.42457,"is_reserved":false,"is_disabled":false,"rental_uris":{"android":"levelo://app?vid=98846a64-6c39-4e5f-b5cd-cb5585578d9d","ios":"levelo://app?vid=98846a64-6c39-4e5f-b5cd-cb5585578d9d"},"vehicle_type_id":"4","last_reported":1727694457,"current_range_meters":32000,"station_id":"ce4bhn92rcd13ifvqgrg","pricing_plan_id":"cebpf4jnsgd1na2vs0mg"},{"bike_id":"a9582890-2b3a-43df-b476-dd6e751ed701","system_id":"levelo_inurba_marseille","lat":43.274267,"lon":5.394195,"is_reserved":false,"is_disabled":false,"rental_uris":{"android":"levelo://app?vid=a9582890-2b3a-43df-b476-dd6e751ed701","ios":"levelo://app?vid=a9582890-2b3a-43df-b476-dd6e751ed701"},"vehicle_type_id":"4","last_reported":1727694457,"current_range_meters":8000,"station_id":"ce4bhdp2rcd13ifvqf20","pricing_plan_id":"cebpf4jnsgd1na2vs0mg"},{"bike_id":"2781c9d5-86e8-43d9-a819-20df714453ba","system_id":"levelo_inurba_marseille","lat":43.25716,"lon":5.41109,"is_reserved":false,"is_disabled":false,"rental_uris":{"android":"levelo://app?vid=2781c9d5-86e8-43d9-a819-20df714453ba","ios":"levelo://app?vid=2781c9d5-86e8-43d9-a819-20df714453ba"},"vehicle_type_id":"4","last_reported":1727694457,"current_range_meters":35600,"station_id":"ce4bhkp2rcd13ifvqgd0","pricing_plan_id":"cebpf4jnsgd1na2vs0mg"},{"bike_id":"4fd32a8b-5c64-472b-a152-f61f23a6b158","system_id":"levelo_inurba_marseille","lat":43.2926,"lon":5.40908,"is_reserved":false,"is_disabled":false,"rental_uris":{"android":"levelo://app?vid=4fd32a8b-5c64-472b-a152-f61f23a6b158","ios":"levelo://app?vid=4fd32a8b-5c64-472b-a152-f61f23a6b158"},"vehicle_type_id":"4","last_reported":1727694457,"current_range_meters":10800,"station_id":"ce4bh192rcd13ifvqdc0","pricing_plan_id":"cebpf4jnsgd1na2vs0mg"},{"bike_id":"4da857fe-840f-4131-8000-1901903cf630","system_id":"levelo_inurba_marseille","lat":43.29194,"lon":5.35805,"is_reserved":false,"is_disabled":false,"rental_uris":{"android":"levelo://app?vid=4da857fe-840f-4131-8000-1901903cf630","ios":"levelo://app?vid=4da857fe-840f-4131-8000-1901903cf630"},"vehicle_type_id":"4","last_reported":1727694457,"current_range_meters":28000,"station_id":"ce4bhb12rcd13ifvqel0","pricing_plan_id":"cebpf4jnsgd1na2vs0mg"},{"bike_id":"06c365e2-ada5-4784-b552-01f94928c737","system_id":"levelo_inurba_marseille","lat":43.326975,"lon":5.375053,"is_reserved":false,"is_disabled":false,"rental_uris":{"android":"levelo://app?vid=06c365e2-ada5-4784-b552-01f94928c737","ios":"levelo://app?vid=06c365e2-ada5-4784-b552-01f94928c737"},"vehicle_type_id":"4","last_reported":1727694457,"current_range_meters":12400,"station_id":"","pricing_plan_id":"cebpf4jnsgd1na2vs0mg"},{"bike_id":"6715e321-68d7-4b26-bd8a-5c182fab2df6","system_id":"levelo_inurba_marseille","lat":43.29572,"lon":5.37503,"is_reserved":false,"is_disabled":false,"rental_uris":{"android":"levelo://app?vid=6715e321-68d7-4b26-bd8a-5c182fab2df6","ios":"levelo://app?vid=6715e321-68d7-4b26-bd8a-5c182fab2df6"},"vehicle_type_id":"4","last_reported":1727694457,"current_range_meters":28800,"station_id":"ce4bgh92rcd13ifvqb50","pricing_plan_id":"cebpf4jnsgd1na2vs0mg"},{"bike_id":"8ed4c341-6332-4ad0-8cfa-70edafc99da1","system_id":"levelo_inurba_marseille","lat":43.30558,"lon":5.36537,"is_reserved":false,"is_disabled":false,"rental_uris":{"android":"levelo://app?vid=8ed4c341-6332-4ad0-8cfa-70edafc99da1","ios":"levelo://app?vid=8ed4c341-6332-4ad0-8cfa-70edafc99da1"},"vehicle_type_id":"4","last_reported":1727694457,"current_range_meters":28000,"station_id":"ce4bgs12rcd13ifvqcag","pricing_plan_id":"cebpf4jnsgd1na2vs0mg"},{"bike_id":"7f65494c-bb0c-463b-b3a3-c11c60597589","system_id":"levelo_inurba_marseille","lat":43.24386,"lon":5.37067,"is_reserved":false,"is_disabled":false,"rental_uris":{"android":"levelo://app?vid=7f65494c-bb0c-463b-b3a3-c11c60597589","ios":"levelo://app?vid=7f65494c-bb0c-463b-b3a3-c11c60597589"},"vehicle_type_id":"4","last_reported":1727694457,"current_range_meters":38000,"station_id":"ce4bhhh2rcd13ifvqfk0","pricing_plan_id":"cebpf4jnsgd1na2vs0mg"},{"bike_id":"918a76fa-3501-4977-94c9-aac2efae816d","system_id":"levelo_inurba_marseille","lat":43.32483,"lon":5.3656,"is_reserved":false,"is_disabled":false,"rental_uris":{"android":"levelo://app?vid=918a76fa-3501-4977-94c9-aac2efae816d","ios":"levelo://app?vid=918a76fa-3501-4977-94c9-aac2efae816d"},"vehicle_type_id":"4","last_reported":1727694457,"current_range_meters":39200,"station_id":"ce4bhs12rcd13ifvqhvg","pricing_plan_id":"cebpf4jnsgd1na2vs0mg"},{"bike_id":"e6691595-8854-499f-92a4-3cd36469e6a7","system_id":"levelo_inurba_marseille","lat":43.31171,"lon":5.38716,"is_reserved":false,"is_disabled":false,"rental_uris":{"android":"levelo://app?vid=e6691595-8854-499f-92a4-3cd36469e6a7","ios":"levelo://app?vid=e6691595-8854-499f-92a4-3cd36469e6a7"},"vehicle_type_id":"4","last_reported":1727694457,"current_range_meters":8800,"station_id":"ce4bgv12rcd13ifvqcp0","pricing_plan_id":"cebpf4jnsgd1na2vs0mg"},{"bike_id":"3bb03962-028c-4505-aa2e-1ec4eb0c4539","system_id":"levelo_inurba_marseille","lat":43.28656,"lon":5.386388,"is_reserved":false,"is_disabled":false,"rental_uris":{"android":"levelo://app?vid=3bb03962-028c-4505-aa2e-1ec4eb0c4539","ios":"levelo://app?vid=3bb03962-028c-4505-aa2e-1ec4eb0c4539"},"vehicle_type_id":"4","last_reported":1727694457,"current_range_meters":9200,"station_id":"ce4bh492rcd13ifvqdug","pricing_plan_id":"cebpf4jnsgd1na2vs0mg"},{"bike_id":"d1f7801a-7cf8-43de-a077-9cf58db70d0c","system_id":"levelo_inurba_marseille","lat":43.26957,"lon":5.3863,"is_reserved":false,"is_disabled":false,"rental_uris":{"android":"levelo://app?vid=d1f7801a-7cf8-43de-a077-9cf58db70d0c","ios":"levelo://app?vid=d1f7801a-7cf8-43de-a077-9cf58db70d0c"},"vehicle_type_id":"4","last_reported":1727694457,"current_range_meters":7200,"station_id":"ce4bhh92rcd13ifvqfh0","pricing_plan_id":"cebpf4jnsgd1na2vs0mg"},{"bike_id":"895616c7-9267-4446-bd24-2d75119c2b5c","system_id":"levelo_inurba_marseille","lat":43.29263,"lon":5.40898,"is_reserved":false,"is_disabled":false,"rental_uris":{"android":"levelo://app?vid=895616c7-9267-4446-bd24-2d75119c2b5c","ios":"levelo://app?vid=895616c7-9267-4446-bd24-2d75119c2b5c"},"vehicle_type_id":"4","last_reported":1727694457,"current_range_meters":17200,"station_id":"ce4bh192rcd13ifvqdc0","pricing_plan_id":"cebpf4jnsgd1na2vs0mg"},{"bike_id":"be95ed82-72d4-43d7-b5c9-77c2041a1d2d","system_id":"levelo_inurba_marseille","lat":43.28454,"lon":5.35889,"is_reserved":false,"is_disabled":false,"rental_uris":{"android":"levelo://app?vid=be95ed82-72d4-43d7-b5c9-77c2041a1d2d","ios":"levelo://app?vid=be95ed82-72d4-43d7-b5c9-77c2041a1d2d"},"vehicle_type_id":"4","last_reported":1727694457,"current_range_meters":4000,"station_id":"ce4bhah2rcd13ifvqei0","pricing_plan_id":"cebpf4jnsgd1na2vs0mg"},{"bike_id":"680f5edc-c922-43cc-ade0-414e3a347732","system_id":"levelo_inurba_marseille","lat":43.24083,"lon":5.37753,"is_reserved":false,"is_disabled":false,"rental_uris":{"android":"levelo://app?vid=680f5edc-c922-43cc-ade0-414e3a347732","ios":"levelo://app?vid=680f5edc-c922-43cc-ade0-414e3a347732"},"vehicle_type_id":"4","last_reported":1727694457,"current_range_meters":24000,"station_id":"ce4bhnp2rcd13ifvqgvg","pricing_plan_id":"cebpf4jnsgd1na2vs0mg"},{"bike_id":"0360b43a-f75b-4d19-a366-77d0a9278b6d","system_id":"levelo_inurba_marseille","lat":43.281525,"lon":5.426479,"is_reserved":false,"is_disabled":false,"rental_uris":{"android":"levelo://app?vid=0360b43a-f75b-4d19-a366-77d0a9278b6d","ios":"levelo://app?vid=0360b43a-f75b-4d19-a366-77d0a9278b6d"},"vehicle_type_id":"4","last_reported":1727694457,"current_range_meters":24000,"station_id":"ce4bhnh2rcd13ifvqgug","pricing_plan_id":"cebpf4jnsgd1na2vs0mg"},{"bike_id":"95f864cd-3d33-4a22-9e76-46c0e49460f2","system_id":"levelo_inurba_marseille","lat":43.30537,"lon":5.36544,"is_reserved":false,"is_disabled":false,"rental_uris":{"android":"levelo://app?vid=95f864cd-3d33-4a22-9e76-46c0e49460f2","ios":"levelo://app?vid=95f864cd-3d33-4a22-9e76-46c0e49460f2"},"vehicle_type_id":"4","last_reported":1727694457,"current_range_meters":8400,"station_id":"ce4bgs12rcd13ifvqcag","pricing_plan_id":"cebpf4jnsgd1na2vs0mg"},{"bike_id":"65b81cad-d8c4-4688-a851-db55e68aac95","system_id":"levelo_inurba_marseille","lat":43.31363,"lon":5.36689,"is_reserved":false,"is_disabled":false,"rental_uris":{"android":"levelo://app?vid=65b81cad-d8c4-4688-a851-db55e68aac95","ios":"levelo://app?vid=65b81cad-d8c4-4688-a851-db55e68aac95"},"vehicle_type_id":"4","last_reported":1727694457,"current_range_meters":38400,"station_id":"ce4bgr92rcd13ifvqc6g","pricing_plan_id":"cebpf4jnsgd1na2vs0mg"},{"bike_id":"43c06965-23b9-4d30-b7e8-7a5ba49ffbec","system_id":"levelo_inurba_marseille","lat":43.32319,"lon":5.38292,"is_reserved":false,"is_disabled":false,"rental_uris":{"android":"levelo://app?vid=43c06965-23b9-4d30-b7e8-7a5ba49ffbec","ios":"levelo://app?vid=43c06965-23b9-4d30-b7e8-7a5ba49ffbec"},"vehicle_type_id":"4","last_reported":1727694457,"current_range_meters":33200,"station_id":"ce4bhr12rcd13ifvqhqg","pricing_plan_id":"cebpf4jnsgd1na2vs0mg"},{"bike_id":"92a866ed-14c9-4e8b-9913-776df30fd3c8","system_id":"levelo_inurba_marseille","lat":43.28419,"lon":5.34979,"is_reserved":false,"is_disabled":false,"rental_uris":{"android":"levelo://app?vid=92a866ed-14c9-4e8b-9913-776df30fd3c8","ios":"levelo://app?vid=92a866ed-14c9-4e8b-9913-776df30fd3c8"},"vehicle_type_id":"4","last_reported":1727694457,"current_range_meters":14400,"station_id":"ce4bhbh2rcd13ifvqepg","pricing_plan_id":"cebpf4jnsgd1na2vs0mg"},{"bike_id":"5b800d39-ba23-48e7-941c-fd0fa9bc4b89","system_id":"levelo_inurba_marseille","lat":43.31232,"lon":5.36869,"is_reserved":false,"is_disabled":false,"rental_uris":{"android":"levelo://app?vid=5b800d39-ba23-48e7-941c-fd0fa9bc4b89","ios":"levelo://app?vid=5b800d39-ba23-48e7-941c-fd0fa9bc4b89"},"vehicle_type_id":"4","last_reported":1727694457,"current_range_meters":3600,"station_id":"ce4bgl92rcd13ifvqbq0","pricing_plan_id":"cebpf4jnsgd1na2vs0mg"},{"bike_id":"096d2f41-d9e5-4c72-ab4f-f4dcf50964cb","system_id":"levelo_inurba_marseille","lat":43.28443,"lon":5.39209,"is_reserved":false,"is_disabled":false,"rental_uris":{"android":"levelo://app?vid=096d2f41-d9e5-4c72-ab4f-f4dcf50964cb","ios":"levelo://app?vid=096d2f41-d9e5-4c72-ab4f-f4dcf50964cb"},"vehicle_type_id":"4","last_reported":1727694457,"current_range_meters":30800,"station_id":"ce4bhoh2rcd13ifvqh5g","pricing_plan_id":"cebpf4jnsgd1na2vs0mg"},{"bike_id":"1b019db2-ef06-4c36-bae6-d19a82dfd8bc","system_id":"levelo_inurba_marseille","lat":43.24077,"lon":5.37746,"is_reserved":false,"is_disabled":false,"rental_uris":{"android":"levelo://app?vid=1b019db2-ef06-4c36-bae6-d19a82dfd8bc","ios":"levelo://app?vid=1b019db2-ef06-4c36-bae6-d19a82dfd8bc"},"vehicle_type_id":"4","last_reported":1727694457,"current_range_meters":11600,"station_id":"ce4bhnp2rcd13ifvqgvg","pricing_plan_id":"cebpf4jnsgd1na2vs0mg"},{"bike_id":"c71a1293-9df2-44fe-aa2c-75c6a231c35d","system_id":"levelo_inurba_marseille","lat":43.30431,"lon":5.38889,"is_reserved":false,"is_disabled":false,"rental_uris":{"android":"levelo://app?vid=c71a1293-9df2-44fe-aa2c-75c6a231c35d","ios":"levelo://app?vid=c71a1293-9df2-44fe-aa2c-75c6a231c35d"},"vehicle_type_id":"4","last_reported":1727694457,"current_range_meters":8400,"station_id":"ce4bgk12rcd13ifvqbi0","pricing_plan_id":"cebpf4jnsgd1na2vs0mg"},{"bike_id":"821bed86-69dc-4cef-b220-8b917682d31f","system_id":"levelo_inurba_marseille","lat":43.3031,"lon":5.39207,"is_reserved":false,"is_disabled":false,"rental_uris":{"android":"levelo://app?vid=821bed86-69dc-4cef-b220-8b917682d31f","ios":"levelo://app?vid=821bed86-69dc-4cef-b220-8b917682d31f"},"vehicle_type_id":"4","last_reported":1727694457,"current_range_meters":7200,"station_id":"ce4bgkh2rcd13ifvqbk0","pricing_plan_id":"cebpf4jnsgd1na2vs0mg"},{"bike_id":"6ee2de4a-ddd1-4839-a49f-27e11835bf3d","system_id":"levelo_inurba_marseille","lat":43.30209,"lon":5.36627,"is_reserved":false,"is_disabled":false,"rental_uris":{"android":"levelo://app?vid=6ee2de4a-ddd1-4839-a49f-27e11835bf3d","ios":"levelo://app?vid=6ee2de4a-ddd1-4839-a49f-27e11835bf3d"},"vehicle_type_id":"4","last_reported":1727694457,"current_range_meters":25600,"station_id":"ce4bgrh2rcd13ifvqc8g","pricing_plan_id":"cebpf4jnsgd1na2vs0mg"},{"bike_id":"2dadae6c-624e-453c-9c9e-53a1814a9c2c","system_id":"levelo_inurba_marseille","lat":43.28418,"lon":5.34998,"is_reserved":false,"is_disabled":false,"rental_uris":{"android":"levelo://app?vid=2dadae6c-624e-453c-9c9e-53a1814a9c2c","ios":"levelo://app?vid=2dadae6c-624e-453c-9c9e-53a1814a9c2c"},"vehicle_type_id":"4","last_reported":1727694457,"current_range_meters":12400,"station_id":"ce4bhbh2rcd13ifvqepg","pricing_plan_id":"cebpf4jnsgd1na2vs0mg"},{"bike_id":"af8726ce-1f41-4136-ae0b-14a0449a0611","system_id":"levelo_inurba_marseille","lat":43.2397,"lon":5.36633,"is_reserved":false,"is_disabled":false,"rental_uris":{"android":"levelo://app?vid=af8726ce-1f41-4136-ae0b-14a0449a0611","ios":"levelo://app?vid=af8726ce-1f41-4136-ae0b-14a0449a0611"},"vehicle_type_id":"4","last_reported":1727694457,"current_range_meters":28000,"station_id":"ce4bhi12rcd13ifvqfp0","pricing_plan_id":"cebpf4jnsgd1na2vs0mg"},{"bike_id":"0da0cf90-b834-4977-a430-37c3a4a2b3b6","system_id":"levelo_inurba_marseille","lat":43.279714,"lon":5.395355,"is_reserved":false,"is_disabled":false,"rental_uris":{"android":"levelo://app?vid=0da0cf90-b834-4977-a430-37c3a4a2b3b6","ios":"levelo://app?vid=0da0cf90-b834-4977-a430-37c3a4a2b3b6"},"vehicle_type_id":"4","last_reported":1727694457,"current_range_meters":35200,"station_id":"","pricing_plan_id":"cebpf4jnsgd1na2vs0mg"},{"bike_id":"d42cd528-5e38-4ecd-8a58-0232649066d4","system_id":"levelo_inurba_marseille","lat":43.29898,"lon":5.43672,"is_reserved":false,"is_disabled":false,"rental_uris":{"android":"levelo://app?vid=d42cd528-5e38-4ecd-8a58-0232649066d4","ios":"levelo://app?vid=d42cd528-5e38-4ecd-8a58-0232649066d4"},"vehicle_type_id":"4","last_reported":1727694457,"current_range_meters":39200,"station_id":"ce4bhpp2rcd13ifvqhfg","pricing_plan_id":"cebpf4jnsgd1na2vs0mg"},{"bike_id":"860dd3a5-1b22-4ebe-b7bf-881fabd604ce","system_id":"levelo_inurba_marseille","lat":43.31486,"lon":5.37306,"is_reserved":false,"is_disabled":false,"rental_uris":{"android":"levelo://app?vid=860dd3a5-1b22-4ebe-b7bf-881fabd604ce","ios":"levelo://app?vid=860dd3a5-1b22-4ebe-b7bf-881fabd604ce"},"vehicle_type_id":"4","last_reported":1727694457,"current_range_meters":18800,"station_id":"ce4bgt12rcd13ifvqcd0","pricing_plan_id":"cebpf4jnsgd1na2vs0mg"},{"bike_id":"28cf77ec-375d-4b04-a0ac-c62b4f90255c","system_id":"levelo_inurba_marseille","lat":43.290253,"lon":5.375759,"is_reserved":false,"is_disabled":false,"rental_uris":{"android":"levelo://app?vid=28cf77ec-375d-4b04-a0ac-c62b4f90255c","ios":"levelo://app?vid=28cf77ec-375d-4b04-a0ac-c62b4f90255c"},"vehicle_type_id":"4","last_reported":1727694457,"current_range_meters":22400,"station_id":"ce4bh692rcd13ifvqe90","pricing_plan_id":"cebpf4jnsgd1na2vs0mg"},{"bike_id":"4f3587cb-8b87-47c7-bfb4-4d02e0e95214","system_id":"levelo_inurba_marseille","lat":43.26954,"lon":5.38639,"is_reserved":false,"is_disabled":false,"rental_uris":{"android":"levelo://app?vid=4f3587cb-8b87-47c7-bfb4-4d02e0e95214","ios":"levelo://app?vid=4f3587cb-8b87-47c7-bfb4-4d02e0e95214"},"vehicle_type_id":"4","last_reported":1727694457,"current_range_meters":34000,"station_id":"ce4bhh92rcd13ifvqfh0","pricing_plan_id":"cebpf4jnsgd1na2vs0mg"},{"bike_id":"f9ab2f40-2aa7-4215-b746-767e881314dc","system_id":"levelo_inurba_marseille","lat":43.30909,"lon":5.36846,"is_reserved":false,"is_disabled":false,"rental_uris":{"android":"levelo://app?vid=f9ab2f40-2aa7-4215-b746-767e881314dc","ios":"levelo://app?vid=f9ab2f40-2aa7-4215-b746-767e881314dc"},"vehicle_type_id":"4","last_reported":1727694457,"current_range_meters":24000,"station_id":"ce4bgn92rcd13ifvqbvg","pricing_plan_id":"cebpf4jnsgd1na2vs0mg"},{"bike_id":"62110c18-ba6e-4a54-8b88-fbfbaf57e32e","system_id":"levelo_inurba_marseille","lat":43.32549,"lon":5.41419,"is_reserved":false,"is_disabled":false,"rental_uris":{"android":"levelo://app?vid=62110c18-ba6e-4a54-8b88-fbfbaf57e32e","ios":"levelo://app?vid=62110c18-ba6e-4a54-8b88-fbfbaf57e32e"},"vehicle_type_id":"4","last_reported":1727694457,"current_range_meters":38800,"station_id":"ce4bhq12rcd13ifvqhhg","pricing_plan_id":"cebpf4jnsgd1na2vs0mg"},{"bike_id":"1665e200-55c0-465a-8e9a-d4ddc8e3cbe5","system_id":"levelo_inurba_marseille","lat":43.27622,"lon":5.36111,"is_reserved":false,"is_disabled":false,"rental_uris":{"android":"levelo://app?vid=1665e200-55c0-465a-8e9a-d4ddc8e3cbe5","ios":"levelo://app?vid=1665e200-55c0-465a-8e9a-d4ddc8e3cbe5"},"vehicle_type_id":"4","last_reported":1727694457,"current_range_meters":31200,"station_id":"ce4bgj92rcd13ifvqbe0","pricing_plan_id":"cebpf4jnsgd1na2vs0mg"},{"bike_id":"db26dac6-2983-4536-aa72-41278f143525","system_id":"levelo_inurba_marseille","lat":43.22931,"lon":5.35379,"is_reserved":false,"is_disabled":false,"rental_uris":{"android":"levelo://app?vid=db26dac6-2983-4536-aa72-41278f143525","ios":"levelo://app?vid=db26dac6-2983-4536-aa72-41278f143525"},"vehicle_type_id":"4","last_reported":1727694457,"current_range_meters":18000,"station_id":"cpo3532slgdg3j2ikp40","pricing_plan_id":"cebpf4jnsgd1na2vs0mg"},{"bike_id":"46daab92-206c-4f58-b7b6-3fb45784ae4f","system_id":"levelo_inurba_marseille","lat":43.2512,"lon":5.40317,"is_reserved":false,"is_disabled":false,"rental_uris":{"android":"levelo://app?vid=46daab92-206c-4f58-b7b6-3fb45784ae4f","ios":"levelo://app?vid=46daab92-206c-4f58-b7b6-3fb45784ae4f"},"vehicle_type_id":"4","last_reported":1727694457,"current_range_meters":12400,"station_id":"ce4bhlh2rcd13ifvqgig","pricing_plan_id":"cebpf4jnsgd1na2vs0mg"},{"bike_id":"0a610875-4670-47b6-a7d4-93240c215743","system_id":"levelo_inurba_marseille","lat":43.29096,"lon":5.3815,"is_reserved":false,"is_disabled":false,"rental_uris":{"android":"levelo://app?vid=0a610875-4670-47b6-a7d4-93240c215743","ios":"levelo://app?vid=0a610875-4670-47b6-a7d4-93240c215743"},"vehicle_type_id":"4","last_reported":1727694457,"current_range_meters":4800,"station_id":"ce4bh512rcd13ifvqe2g","pricing_plan_id":"cebpf4jnsgd1na2vs0mg"},{"bike_id":"ccc8be49-5f58-40a6-bdd2-13b4752984b9","system_id":"levelo_inurba_marseille","lat":43.29712,"lon":5.36623,"is_reserved":false,"is_disabled":false,"rental_uris":{"android":"levelo://app?vid=ccc8be49-5f58-40a6-bdd2-13b4752984b9","ios":"levelo://app?vid=ccc8be49-5f58-40a6-bdd2-13b4752984b9"},"vehicle_type_id":"4","last_reported":1727694457,"current_range_meters":9600,"station_id":"ce4bgn12rcd13ifvqbt0","pricing_plan_id":"cebpf4jnsgd1na2vs0mg"},{"bike_id":"da7a3b56-1db9-4112-975f-6c841a498430","system_id":"levelo_inurba_marseille","lat":43.30599,"lon":5.39355,"is_reserved":false,"is_disabled":false,"rental_uris":{"android":"levelo://app?vid=da7a3b56-1db9-4112-975f-6c841a498430","ios":"levelo://app?vid=da7a3b56-1db9-4112-975f-6c841a498430"},"vehicle_type_id":"4","last_reported":1727694457,"current_range_meters":16000,"station_id":"ce4bh0p2rcd13ifvqd80","pricing_plan_id":"cebpf4jnsgd1na2vs0mg"},{"bike_id":"d081fe13-9ffc-4352-92c4-da8920728dc7","system_id":"levelo_inurba_marseille","lat":43.24018,"lon":5.37802,"is_reserved":false,"is_disabled":false,"rental_uris":{"android":"levelo://app?vid=d081fe13-9ffc-4352-92c4-da8920728dc7","ios":"levelo://app?vid=d081fe13-9ffc-4352-92c4-da8920728dc7"},"vehicle_type_id":"4","last_reported":1727694457,"current_range_meters":19600,"station_id":"ce4bhgh2rcd13ifvqfb0","pricing_plan_id":"cebpf4jnsgd1na2vs0mg"},{"bike_id":"4666c0ac-036b-4df5-8c4a-8ac5012f8e8b","system_id":"levelo_inurba_marseille","lat":43.299677,"lon":5.384782,"is_reserved":false,"is_disabled":false,"rental_uris":{"android":"levelo://app?vid=4666c0ac-036b-4df5-8c4a-8ac5012f8e8b","ios":"levelo://app?vid=4666c0ac-036b-4df5-8c4a-8ac5012f8e8b"},"vehicle_type_id":"4","last_reported":1727694457,"current_range_meters":6800,"station_id":"ce4bgt12rcd13ifvqcd0","pricing_plan_id":"cebpf4jnsgd1na2vs0mg"},{"bike_id":"44b3be37-5f9e-498a-a752-7653734d4ef1","system_id":"levelo_inurba_marseille","lat":43.24545,"lon":5.3953,"is_reserved":false,"is_disabled":false,"rental_uris":{"android":"levelo://app?vid=44b3be37-5f9e-498a-a752-7653734d4ef1","ios":"levelo://app?vid=44b3be37-5f9e-498a-a752-7653734d4ef1"},"vehicle_type_id":"4","last_reported":1727694457,"current_range_meters":24000,"station_id":"ce4bhlp2rcd13ifvqgjg","pricing_plan_id":"cebpf4jnsgd1na2vs0mg"},{"bike_id":"a1bc21e8-0918-44cf-ae4d-e4103e7fb6ee","system_id":"levelo_inurba_marseille","lat":43.27495,"lon":5.42451,"is_reserved":false,"is_disabled":false,"rental_uris":{"android":"levelo://app?vid=a1bc21e8-0918-44cf-ae4d-e4103e7fb6ee","ios":"levelo://app?vid=a1bc21e8-0918-44cf-ae4d-e4103e7fb6ee"},"vehicle_type_id":"4","last_reported":1727694457,"current_range_meters":16000,"station_id":"ce4bhn92rcd13ifvqgrg","pricing_plan_id":"cebpf4jnsgd1na2vs0mg"},{"bike_id":"d97790a5-7828-4553-a790-f0576409763c","system_id":"levelo_inurba_marseille","lat":43.2594,"lon":5.40902,"is_reserved":false,"is_disabled":false,"rental_uris":{"android":"levelo://app?vid=d97790a5-7828-4553-a790-f0576409763c","ios":"levelo://app?vid=d97790a5-7828-4553-a790-f0576409763c"},"vehicle_type_id":"4","last_reported":1727694457,"current_range_meters":19200,"station_id":"ce4bhm92rcd13ifvqglg","pricing_plan_id":"cebpf4jnsgd1na2vs0mg"},{"bike_id":"6536c0ca-8c69-4ec8-8828-5295de60b883","system_id":"levelo_inurba_marseille","lat":43.32373,"lon":5.40641,"is_reserved":false,"is_disabled":false,"rental_uris":{"android":"levelo://app?vid=6536c0ca-8c69-4ec8-8828-5295de60b883","ios":"levelo://app?vid=6536c0ca-8c69-4ec8-8828-5295de60b883"},"vehicle_type_id":"4","last_reported":1727694457,"current_range_meters":26000,"station_id":"ce4bhq92rcd13ifvqhjg","pricing_plan_id":"cebpf4jnsgd1na2vs0mg"},{"bike_id":"560eec86-d20e-4632-be2b-0f04c3e3f7f0","system_id":"levelo_inurba_marseille","lat":43.27067,"lon":5.42271,"is_reserved":false,"is_disabled":false,"rental_uris":{"android":"levelo://app?vid=560eec86-d20e-4632-be2b-0f04c3e3f7f0","ios":"levelo://app?vid=560eec86-d20e-4632-be2b-0f04c3e3f7f0"},"vehicle_type_id":"4","last_reported":1727694457,"current_range_meters":29600,"station_id":"ce4bhk92rcd13ifvqgb0","pricing_plan_id":"cebpf4jnsgd1na2vs0mg"},{"bike_id":"791778cb-b9b1-46da-80e8-ce0940cdd61d","system_id":"levelo_inurba_marseille","lat":43.23198,"lon":5.35548,"is_reserved":false,"is_disabled":false,"rental_uris":{"android":"levelo://app?vid=791778cb-b9b1-46da-80e8-ce0940cdd61d","ios":"levelo://app?vid=791778cb-b9b1-46da-80e8-ce0940cdd61d"},"vehicle_type_id":"4","last_reported":1727694457,"current_range_meters":10800,"station_id":"ce4bhu92rcd13ifvqi70","pricing_plan_id":"cebpf4jnsgd1na2vs0mg"},{"bike_id":"c91b2253-767b-4237-82bc-49763653b489","system_id":"levelo_inurba_marseille","lat":43.30417,"lon":5.41289,"is_reserved":false,"is_disabled":false,"rental_uris":{"android":"levelo://app?vid=c91b2253-767b-4237-82bc-49763653b489","ios":"levelo://app?vid=c91b2253-767b-4237-82bc-49763653b489"},"vehicle_type_id":"4","last_reported":1727694457,"current_range_meters":33600,"station_id":"ce4bhop2rcd13ifvqh8g","pricing_plan_id":"cebpf4jnsgd1na2vs0mg"},{"bike_id":"0569ffd9-5d73-439a-979a-a1c88b9a1061","system_id":"levelo_inurba_marseille","lat":43.32911,"lon":5.39058,"is_reserved":false,"is_disabled":false,"rental_uris":{"android":"levelo://app?vid=0569ffd9-5d73-439a-979a-a1c88b9a1061","ios":"levelo://app?vid=0569ffd9-5d73-439a-979a-a1c88b9a1061"},"vehicle_type_id":"4","last_reported":1727694457,"current_range_meters":33200,"station_id":"","pricing_plan_id":"cebpf4jnsgd1na2vs0mg"},{"bike_id":"69b2e18e-fd83-4b7f-ad81-9184801096a7","system_id":"levelo_inurba_marseille","lat":43.28281,"lon":5.35077,"is_reserved":false,"is_disabled":false,"rental_uris":{"android":"levelo://app?vid=69b2e18e-fd83-4b7f-ad81-9184801096a7","ios":"levelo://app?vid=69b2e18e-fd83-4b7f-ad81-9184801096a7"},"vehicle_type_id":"4","last_reported":1727694457,"current_range_meters":7200,"station_id":"ce4bhbp2rcd13ifvqerg","pricing_plan_id":"cebpf4jnsgd1na2vs0mg"},{"bike_id":"6d7ab9f9-5e8b-432d-8ae6-a22bde0fef0f","system_id":"levelo_inurba_marseille","lat":43.29038,"lon":5.39964,"is_reserved":false,"is_disabled":false,"rental_uris":{"android":"levelo://app?vid=6d7ab9f9-5e8b-432d-8ae6-a22bde0fef0f","ios":"levelo://app?vid=6d7ab9f9-5e8b-432d-8ae6-a22bde0fef0f"},"vehicle_type_id":"4","last_reported":1727694457,"current_range_meters":19200,"station_id":"ce4bh392rcd13ifvqdm0","pricing_plan_id":"cebpf4jnsgd1na2vs0mg"},{"bike_id":"29cd1976-89d1-43cb-84d2-80e4439db4b1","system_id":"levelo_inurba_marseille","lat":43.31221,"lon":5.36867,"is_reserved":false,"is_disabled":false,"rental_uris":{"android":"levelo://app?vid=29cd1976-89d1-43cb-84d2-80e4439db4b1","ios":"levelo://app?vid=29cd1976-89d1-43cb-84d2-80e4439db4b1"},"vehicle_type_id":"4","last_reported":1727694457,"current_range_meters":39200,"station_id":"ce4bgl92rcd13ifvqbq0","pricing_plan_id":"cebpf4jnsgd1na2vs0mg"},{"bike_id":"8642a6ab-ca1b-4748-aad4-e0879f8a1734","system_id":"levelo_inurba_marseille","lat":43.24074,"lon":5.37759,"is_reserved":false,"is_disabled":false,"rental_uris":{"android":"levelo://app?vid=8642a6ab-ca1b-4748-aad4-e0879f8a1734","ios":"levelo://app?vid=8642a6ab-ca1b-4748-aad4-e0879f8a1734"},"vehicle_type_id":"4","last_reported":1727694457,"current_range_meters":38000,"station_id":"ce4bhnp2rcd13ifvqgvg","pricing_plan_id":"cebpf4jnsgd1na2vs0mg"},{"bike_id":"5faf0dc4-4b3d-40cb-b82f-63e59520bfba","system_id":"levelo_inurba_marseille","lat":43.279137,"lon":5.395917,"is_reserved":false,"is_disabled":false,"rental_uris":{"android":"levelo://app?vid=5faf0dc4-4b3d-40cb-b82f-63e59520bfba","ios":"levelo://app?vid=5faf0dc4-4b3d-40cb-b82f-63e59520bfba"},"vehicle_type_id":"4","last_reported":1727694457,"current_range_meters":35600,"station_id":"ce4bhf92rcd13ifvqf40","pricing_plan_id":"cebpf4jnsgd1na2vs0mg"},{"bike_id":"bd86acbb-18ff-4457-8d99-e11793cb14a0","system_id":"levelo_inurba_marseille","lat":43.27082,"lon":5.42275,"is_reserved":false,"is_disabled":false,"rental_uris":{"android":"levelo://app?vid=bd86acbb-18ff-4457-8d99-e11793cb14a0","ios":"levelo://app?vid=bd86acbb-18ff-4457-8d99-e11793cb14a0"},"vehicle_type_id":"4","last_reported":1727694457,"current_range_meters":32000,"station_id":"ce4bhk92rcd13ifvqgb0","pricing_plan_id":"cebpf4jnsgd1na2vs0mg"},{"bike_id":"53b8b279-3e36-4185-b3b0-4688e1a414fb","system_id":"levelo_inurba_marseille","lat":43.28424,"lon":5.35,"is_reserved":false,"is_disabled":false,"rental_uris":{"android":"levelo://app?vid=53b8b279-3e36-4185-b3b0-4688e1a414fb","ios":"levelo://app?vid=53b8b279-3e36-4185-b3b0-4688e1a414fb"},"vehicle_type_id":"4","last_reported":1727694457,"current_range_meters":36800,"station_id":"ce4bhbh2rcd13ifvqepg","pricing_plan_id":"cebpf4jnsgd1na2vs0mg"},{"bike_id":"ebca3e2a-e1d1-486b-bb3c-0a675a895ced","system_id":"levelo_inurba_marseille","lat":43.29592,"lon":5.38113,"is_reserved":false,"is_disabled":false,"rental_uris":{"android":"levelo://app?vid=ebca3e2a-e1d1-486b-bb3c-0a675a895ced","ios":"levelo://app?vid=ebca3e2a-e1d1-486b-bb3c-0a675a895ced"},"vehicle_type_id":"4","last_reported":1727694457,"current_range_meters":17600,"station_id":"ce4bgl12rcd13ifvqbo0","pricing_plan_id":"cebpf4jnsgd1na2vs0mg"},{"bike_id":"3ea05e8b-dcf6-4f60-a396-3d9a74f783ed","system_id":"levelo_inurba_marseille","lat":43.2315,"lon":5.43715,"is_reserved":false,"is_disabled":false,"rental_uris":{"android":"levelo://app?vid=3ea05e8b-dcf6-4f60-a396-3d9a74f783ed","ios":"levelo://app?vid=3ea05e8b-dcf6-4f60-a396-3d9a74f783ed"},"vehicle_type_id":"4","last_reported":1727694457,"current_range_meters":24800,"station_id":"ce4bhmp2rcd13ifvqgog","pricing_plan_id":"cebpf4jnsgd1na2vs0mg"},{"bike_id":"12db6ca1-efb1-4e4c-b73a-5e6760968fa9","system_id":"levelo_inurba_marseille","lat":43.31217,"lon":5.36882,"is_reserved":false,"is_disabled":false,"rental_uris":{"android":"levelo://app?vid=12db6ca1-efb1-4e4c-b73a-5e6760968fa9","ios":"levelo://app?vid=12db6ca1-efb1-4e4c-b73a-5e6760968fa9"},"vehicle_type_id":"4","last_reported":1727694457,"current_range_meters":18800,"station_id":"ce4bgl92rcd13ifvqbq0","pricing_plan_id":"cebpf4jnsgd1na2vs0mg"},{"bike_id":"ff4ab032-b736-4dcb-aaae-7074ae538479","system_id":"levelo_inurba_marseille","lat":43.30549,"lon":5.36705,"is_reserved":false,"is_disabled":false,"rental_uris":{"android":"levelo://app?vid=ff4ab032-b736-4dcb-aaae-7074ae538479","ios":"levelo://app?vid=ff4ab032-b736-4dcb-aaae-7074ae538479"},"vehicle_type_id":"4","last_reported":1727694457,"current_range_meters":16000,"station_id":"ce4bgrp2rcd13ifvqc9g","pricing_plan_id":"cebpf4jnsgd1na2vs0mg"},{"bike_id":"be986557-1383-4bcd-adf6-c4eed6cc372c","system_id":"levelo_inurba_marseille","lat":43.26958,"lon":5.38634,"is_reserved":false,"is_disabled":false,"rental_uris":{"android":"levelo://app?vid=be986557-1383-4bcd-adf6-c4eed6cc372c","ios":"levelo://app?vid=be986557-1383-4bcd-adf6-c4eed6cc372c"},"vehicle_type_id":"4","last_reported":1727694457,"current_range_meters":24800,"station_id":"ce4bhh92rcd13ifvqfh0","pricing_plan_id":"cebpf4jnsgd1na2vs0mg"},{"bike_id":"f76b65ec-bf45-4f08-abd9-9a8c29b90eae","system_id":"levelo_inurba_marseille","lat":43.28702,"lon":5.4,"is_reserved":false,"is_disabled":false,"rental_uris":{"android":"levelo://app?vid=f76b65ec-bf45-4f08-abd9-9a8c29b90eae","ios":"levelo://app?vid=f76b65ec-bf45-4f08-abd9-9a8c29b90eae"},"vehicle_type_id":"4","last_reported":1727694457,"current_range_meters":36000,"station_id":"ce4bho92rcd13ifvqh3g","pricing_plan_id":"cebpf4jnsgd1na2vs0mg"},{"bike_id":"fc5f5cdb-6ca2-47d3-91b8-480192cd30c7","system_id":"levelo_inurba_marseille","lat":43.28272,"lon":5.35066,"is_reserved":false,"is_disabled":false,"rental_uris":{"android":"levelo://app?vid=fc5f5cdb-6ca2-47d3-91b8-480192cd30c7","ios":"levelo://app?vid=fc5f5cdb-6ca2-47d3-91b8-480192cd30c7"},"vehicle_type_id":"4","last_reported":1727694457,"current_range_meters":13600,"station_id":"ce4bhbp2rcd13ifvqerg","pricing_plan_id":"cebpf4jnsgd1na2vs0mg"},{"bike_id":"01303090-9268-4f4b-add6-753de52aafd1","system_id":"levelo_inurba_marseille","lat":43.2694,"lon":5.38921,"is_reserved":false,"is_disabled":false,"rental_uris":{"android":"levelo://app?vid=01303090-9268-4f4b-add6-753de52aafd1","ios":"levelo://app?vid=01303090-9268-4f4b-add6-753de52aafd1"},"vehicle_type_id":"4","last_reported":1727694457,"current_range_meters":23200,"station_id":"ce4bhhh2rcd13ifvqfl0","pricing_plan_id":"cebpf4jnsgd1na2vs0mg"},{"bike_id":"133fb6b7-5e38-4c3d-aafc-569467201556","system_id":"levelo_inurba_marseille","lat":43.23154,"lon":5.43709,"is_reserved":false,"is_disabled":false,"rental_uris":{"android":"levelo://app?vid=133fb6b7-5e38-4c3d-aafc-569467201556","ios":"levelo://app?vid=133fb6b7-5e38-4c3d-aafc-569467201556"},"vehicle_type_id":"4","last_reported":1727694457,"current_range_meters":17200,"station_id":"ce4bhmp2rcd13ifvqgog","pricing_plan_id":"cebpf4jnsgd1na2vs0mg"},{"bike_id":"dc996b59-8f97-4d43-a8b4-5839a0905e39","system_id":"levelo_inurba_marseille","lat":43.30468,"lon":5.3792,"is_reserved":false,"is_disabled":false,"rental_uris":{"android":"levelo://app?vid=dc996b59-8f97-4d43-a8b4-5839a0905e39","ios":"levelo://app?vid=dc996b59-8f97-4d43-a8b4-5839a0905e39"},"vehicle_type_id":"4","last_reported":1727694457,"current_range_meters":33600,"station_id":"ce4bgup2rcd13ifvqcn0","pricing_plan_id":"cebpf4jnsgd1na2vs0mg"},{"bike_id":"5890614c-8f6e-468c-b760-f9855cffa13b","system_id":"levelo_inurba_marseille","lat":43.24088,"lon":5.37749,"is_reserved":false,"is_disabled":false,"rental_uris":{"android":"levelo://app?vid=5890614c-8f6e-468c-b760-f9855cffa13b","ios":"levelo://app?vid=5890614c-8f6e-468c-b760-f9855cffa13b"},"vehicle_type_id":"4","last_reported":1727694457,"current_range_meters":19600,"station_id":"ce4bhnp2rcd13ifvqgvg","pricing_plan_id":"cebpf4jnsgd1na2vs0mg"},{"bike_id":"b460d0c7-1954-46f7-8a07-8cf6b6d9e8b6","system_id":"levelo_inurba_marseille","lat":43.30622,"lon":5.39366,"is_reserved":false,"is_disabled":false,"rental_uris":{"android":"levelo://app?vid=b460d0c7-1954-46f7-8a07-8cf6b6d9e8b6","ios":"levelo://app?vid=b460d0c7-1954-46f7-8a07-8cf6b6d9e8b6"},"vehicle_type_id":"4","last_reported":1727694457,"current_range_meters":38800,"station_id":"ce4bh0p2rcd13ifvqd80","pricing_plan_id":"cebpf4jnsgd1na2vs0mg"},{"bike_id":"e20f59d4-4a2f-45f5-8f55-b006519a7083","system_id":"levelo_inurba_marseille","lat":43.23962,"lon":5.366315,"is_reserved":false,"is_disabled":false,"rental_uris":{"android":"levelo://app?vid=e20f59d4-4a2f-45f5-8f55-b006519a7083","ios":"levelo://app?vid=e20f59d4-4a2f-45f5-8f55-b006519a7083"},"vehicle_type_id":"4","last_reported":1727694457,"current_range_meters":20400,"station_id":"ce4bhi12rcd13ifvqfp0","pricing_plan_id":"cebpf4jnsgd1na2vs0mg"},{"bike_id":"b1355ab8-c138-4f84-ab23-bd22a663946b","system_id":"levelo_inurba_marseille","lat":43.23962,"lon":5.36629,"is_reserved":false,"is_disabled":false,"rental_uris":{"android":"levelo://app?vid=b1355ab8-c138-4f84-ab23-bd22a663946b","ios":"levelo://app?vid=b1355ab8-c138-4f84-ab23-bd22a663946b"},"vehicle_type_id":"4","last_reported":1727694457,"current_range_meters":19200,"station_id":"ce4bhi12rcd13ifvqfp0","pricing_plan_id":"cebpf4jnsgd1na2vs0mg"},{"bike_id":"82938b1a-17d9-415a-a06e-2bc87d35d274","system_id":"levelo_inurba_marseille","lat":43.23152,"lon":5.43706,"is_reserved":false,"is_disabled":false,"rental_uris":{"android":"levelo://app?vid=82938b1a-17d9-415a-a06e-2bc87d35d274","ios":"levelo://app?vid=82938b1a-17d9-415a-a06e-2bc87d35d274"},"vehicle_type_id":"4","last_reported":1727694457,"current_range_meters":27600,"station_id":"ce4bhmp2rcd13ifvqgog","pricing_plan_id":"cebpf4jnsgd1na2vs0mg"},{"bike_id":"7bd89c2a-5cd9-49ed-83ed-dd2d91ea9a0e","system_id":"levelo_inurba_marseille","lat":43.31221,"lon":5.36862,"is_reserved":false,"is_disabled":false,"rental_uris":{"android":"levelo://app?vid=7bd89c2a-5cd9-49ed-83ed-dd2d91ea9a0e","ios":"levelo://app?vid=7bd89c2a-5cd9-49ed-83ed-dd2d91ea9a0e"},"vehicle_type_id":"4","last_reported":1727694457,"current_range_meters":38800,"station_id":"ce4bgl92rcd13ifvqbq0","pricing_plan_id":"cebpf4jnsgd1na2vs0mg"},{"bike_id":"fce1d7f5-5c96-4913-8c00-9ee4526fccbd","system_id":"levelo_inurba_marseille","lat":43.30136,"lon":5.38786,"is_reserved":false,"is_disabled":false,"rental_uris":{"android":"levelo://app?vid=fce1d7f5-5c96-4913-8c00-9ee4526fccbd","ios":"levelo://app?vid=fce1d7f5-5c96-4913-8c00-9ee4526fccbd"},"vehicle_type_id":"4","last_reported":1727694457,"current_range_meters":38800,"station_id":"ce4bghh2rcd13ifvqb60","pricing_plan_id":"cebpf4jnsgd1na2vs0mg"},{"bike_id":"e254f4aa-e734-49b4-b53e-66b568232443","system_id":"levelo_inurba_marseille","lat":43.29902,"lon":5.43662,"is_reserved":false,"is_disabled":false,"rental_uris":{"android":"levelo://app?vid=e254f4aa-e734-49b4-b53e-66b568232443","ios":"levelo://app?vid=e254f4aa-e734-49b4-b53e-66b568232443"},"vehicle_type_id":"4","last_reported":1727694457,"current_range_meters":19600,"station_id":"ce4bhpp2rcd13ifvqhfg","pricing_plan_id":"cebpf4jnsgd1na2vs0mg"},{"bike_id":"62ab707c-eb98-448b-a906-2f6eca4035d4","system_id":"levelo_inurba_marseille","lat":43.30462,"lon":5.37924,"is_reserved":false,"is_disabled":false,"rental_uris":{"android":"levelo://app?vid=62ab707c-eb98-448b-a906-2f6eca4035d4","ios":"levelo://app?vid=62ab707c-eb98-448b-a906-2f6eca4035d4"},"vehicle_type_id":"4","last_reported":1727694457,"current_range_meters":32400,"station_id":"ce4bgup2rcd13ifvqcn0","pricing_plan_id":"cebpf4jnsgd1na2vs0mg"},{"bike_id":"20945a55-1cab-447d-931e-6c27c629010d","system_id":"levelo_inurba_marseille","lat":43.30155,"lon":5.38086,"is_reserved":false,"is_disabled":false,"rental_uris":{"android":"levelo://app?vid=20945a55-1cab-447d-931e-6c27c629010d","ios":"levelo://app?vid=20945a55-1cab-447d-931e-6c27c629010d"},"vehicle_type_id":"4","last_reported":1727694457,"current_range_meters":32400,"station_id":"ce4bgjp2rcd13ifvqbh0","pricing_plan_id":"cebpf4jnsgd1na2vs0mg"},{"bike_id":"c9d82840-e00a-49cc-9546-679a55b12c38","system_id":"levelo_inurba_marseille","lat":43.27962,"lon":5.38715,"is_reserved":false,"is_disabled":false,"rental_uris":{"android":"levelo://app?vid=c9d82840-e00a-49cc-9546-679a55b12c38","ios":"levelo://app?vid=c9d82840-e00a-49cc-9546-679a55b12c38"},"vehicle_type_id":"4","last_reported":1727694457,"current_range_meters":30800,"station_id":"ce4bhg12rcd13ifvqf80","pricing_plan_id":"cebpf4jnsgd1na2vs0mg"},{"bike_id":"59e24958-b2d8-467b-a70f-e534d8add310","system_id":"levelo_inurba_marseille","lat":43.30308,"lon":5.36898,"is_reserved":false,"is_disabled":false,"rental_uris":{"android":"levelo://app?vid=59e24958-b2d8-467b-a70f-e534d8add310","ios":"levelo://app?vid=59e24958-b2d8-467b-a70f-e534d8add310"},"vehicle_type_id":"4","last_reported":1727694457,"current_range_meters":38800,"station_id":"ce4bgqh2rcd13ifvqc5g","pricing_plan_id":"cebpf4jnsgd1na2vs0mg"},{"bike_id":"137d478a-69d8-4b77-ad5f-e7af690c0925","system_id":"levelo_inurba_marseille","lat":43.24082,"lon":5.37744,"is_reserved":false,"is_disabled":false,"rental_uris":{"android":"levelo://app?vid=137d478a-69d8-4b77-ad5f-e7af690c0925","ios":"levelo://app?vid=137d478a-69d8-4b77-ad5f-e7af690c0925"},"vehicle_type_id":"4","last_reported":1727694457,"current_range_meters":8000,"station_id":"ce4bhnp2rcd13ifvqgvg","pricing_plan_id":"cebpf4jnsgd1na2vs0mg"},{"bike_id":"318262dc-85f7-4629-9884-6167fafac465","system_id":"levelo_inurba_marseille","lat":43.23155,"lon":5.43699,"is_reserved":false,"is_disabled":false,"rental_uris":{"android":"levelo://app?vid=318262dc-85f7-4629-9884-6167fafac465","ios":"levelo://app?vid=318262dc-85f7-4629-9884-6167fafac465"},"vehicle_type_id":"4","last_reported":1727694457,"current_range_meters":36400,"station_id":"ce4bhmp2rcd13ifvqgog","pricing_plan_id":"cebpf4jnsgd1na2vs0mg"},{"bike_id":"7977a9c9-5512-4fa7-9026-3e7c33952b44","system_id":"levelo_inurba_marseille","lat":43.26718,"lon":5.40142,"is_reserved":false,"is_disabled":false,"rental_uris":{"android":"levelo://app?vid=7977a9c9-5512-4fa7-9026-3e7c33952b44","ios":"levelo://app?vid=7977a9c9-5512-4fa7-9026-3e7c33952b44"},"vehicle_type_id":"4","last_reported":1727694457,"current_range_meters":19200,"station_id":"ce4bhm92rcd13ifvqglg","pricing_plan_id":"cebpf4jnsgd1na2vs0mg"},{"bike_id":"c720b192-556e-4e22-95b3-e32909a82b20","system_id":"levelo_inurba_marseille","lat":43.24547,"lon":5.39527,"is_reserved":false,"is_disabled":false,"rental_uris":{"android":"levelo://app?vid=c720b192-556e-4e22-95b3-e32909a82b20","ios":"levelo://app?vid=c720b192-556e-4e22-95b3-e32909a82b20"},"vehicle_type_id":"4","last_reported":1727694457,"current_range_meters":19600,"station_id":"ce4bhlp2rcd13ifvqgjg","pricing_plan_id":"cebpf4jnsgd1na2vs0mg"},{"bike_id":"f6f35b99-68f2-4599-ac97-2f88aeaf7146","system_id":"levelo_inurba_marseille","lat":43.30183,"lon":5.36626,"is_reserved":false,"is_disabled":false,"rental_uris":{"android":"levelo://app?vid=f6f35b99-68f2-4599-ac97-2f88aeaf7146","ios":"levelo://app?vid=f6f35b99-68f2-4599-ac97-2f88aeaf7146"},"vehicle_type_id":"4","last_reported":1727694457,"current_range_meters":16000,"station_id":"ce4bgrh2rcd13ifvqc8g","pricing_plan_id":"cebpf4jnsgd1na2vs0mg"},{"bike_id":"a46feec0-773b-42c7-a261-509ccbf7a879","system_id":"levelo_inurba_marseille","lat":43.25857,"lon":5.39906,"is_reserved":false,"is_disabled":false,"rental_uris":{"android":"levelo://app?vid=a46feec0-773b-42c7-a261-509ccbf7a879","ios":"levelo://app?vid=a46feec0-773b-42c7-a261-509ccbf7a879"},"vehicle_type_id":"4","last_reported":1727694457,"current_range_meters":27600,"station_id":"ce4bhl92rcd13ifvqghg","pricing_plan_id":"cebpf4jnsgd1na2vs0mg"},{"bike_id":"dfc3cfff-0696-404f-b629-73bb107798f7","system_id":"levelo_inurba_marseille","lat":43.29416,"lon":5.38627,"is_reserved":false,"is_disabled":false,"rental_uris":{"android":"levelo://app?vid=dfc3cfff-0696-404f-b629-73bb107798f7","ios":"levelo://app?vid=dfc3cfff-0696-404f-b629-73bb107798f7"},"vehicle_type_id":"4","last_reported":1727694457,"current_range_meters":10800,"station_id":"ce4bh2h2rcd13ifvqdh0","pricing_plan_id":"cebpf4jnsgd1na2vs0mg"},{"bike_id":"fa8aaf85-ced5-4aab-973d-9b3563405e9b","system_id":"levelo_inurba_marseille","lat":43.29167,"lon":5.37165,"is_reserved":false,"is_disabled":false,"rental_uris":{"android":"levelo://app?vid=fa8aaf85-ced5-4aab-973d-9b3563405e9b","ios":"levelo://app?vid=fa8aaf85-ced5-4aab-973d-9b3563405e9b"},"vehicle_type_id":"4","last_reported":1727694457,"current_range_meters":24800,"station_id":"ce4bha92rcd13ifvqeh0","pricing_plan_id":"cebpf4jnsgd1na2vs0mg"},{"bike_id":"908021a4-c1b6-4d63-8e7a-87eb8947eb54","system_id":"levelo_inurba_marseille","lat":43.24083,"lon":5.37749,"is_reserved":false,"is_disabled":false,"rental_uris":{"android":"levelo://app?vid=908021a4-c1b6-4d63-8e7a-87eb8947eb54","ios":"levelo://app?vid=908021a4-c1b6-4d63-8e7a-87eb8947eb54"},"vehicle_type_id":"4","last_reported":1727694457,"current_range_meters":5600,"station_id":"ce4bhnp2rcd13ifvqgvg","pricing_plan_id":"cebpf4jnsgd1na2vs0mg"},{"bike_id":"dcf749c2-585d-45dd-852f-698637f49e5b","system_id":"levelo_inurba_marseille","lat":43.24662,"lon":5.38162,"is_reserved":false,"is_disabled":false,"rental_uris":{"android":"levelo://app?vid=dcf749c2-585d-45dd-852f-698637f49e5b","ios":"levelo://app?vid=dcf749c2-585d-45dd-852f-698637f49e5b"},"vehicle_type_id":"4","last_reported":1727694457,"current_range_meters":8800,"station_id":"ce4bhih2rcd13ifvqfr0","pricing_plan_id":"cebpf4jnsgd1na2vs0mg"},{"bike_id":"198c6525-69f6-4d89-bcbd-1175e992d462","system_id":"levelo_inurba_marseille","lat":43.33751,"lon":5.37454,"is_reserved":false,"is_disabled":false,"rental_uris":{"android":"levelo://app?vid=198c6525-69f6-4d89-bcbd-1175e992d462","ios":"levelo://app?vid=198c6525-69f6-4d89-bcbd-1175e992d462"},"vehicle_type_id":"4","last_reported":1727694457,"current_range_meters":38400,"station_id":"","pricing_plan_id":"cebpf4jnsgd1na2vs0mg"},{"bike_id":"22fd6bba-209e-479b-b47a-f3c3fd2f89a8","system_id":"levelo_inurba_marseille","lat":43.28446,"lon":5.39207,"is_reserved":false,"is_disabled":false,"rental_uris":{"android":"levelo://app?vid=22fd6bba-209e-479b-b47a-f3c3fd2f89a8","ios":"levelo://app?vid=22fd6bba-209e-479b-b47a-f3c3fd2f89a8"},"vehicle_type_id":"4","last_reported":1727694457,"current_range_meters":28000,"station_id":"ce4bhoh2rcd13ifvqh5g","pricing_plan_id":"cebpf4jnsgd1na2vs0mg"},{"bike_id":"0079a2ab-35ac-44a9-a3fb-2b221435dedf","system_id":"levelo_inurba_marseille","lat":43.2407,"lon":5.37768,"is_reserved":false,"is_disabled":false,"rental_uris":{"android":"levelo://app?vid=0079a2ab-35ac-44a9-a3fb-2b221435dedf","ios":"levelo://app?vid=0079a2ab-35ac-44a9-a3fb-2b221435dedf"},"vehicle_type_id":"4","last_reported":1727694457,"current_range_meters":20400,"station_id":"ce4bhnp2rcd13ifvqgvg","pricing_plan_id":"cebpf4jnsgd1na2vs0mg"},{"bike_id":"262dce9c-526e-4cbf-8f3f-11ce97542212","system_id":"levelo_inurba_marseille","lat":43.30541,"lon":5.36533,"is_reserved":false,"is_disabled":false,"rental_uris":{"android":"levelo://app?vid=262dce9c-526e-4cbf-8f3f-11ce97542212","ios":"levelo://app?vid=262dce9c-526e-4cbf-8f3f-11ce97542212"},"vehicle_type_id":"4","last_reported":1727694457,"current_range_meters":28400,"station_id":"ce4bgs12rcd13ifvqcag","pricing_plan_id":"cebpf4jnsgd1na2vs0mg"},{"bike_id":"2a4f744d-4171-42a9-b0cb-dfb324aae8c3","system_id":"levelo_inurba_marseille","lat":43.23148,"lon":5.43725,"is_reserved":false,"is_disabled":false,"rental_uris":{"android":"levelo://app?vid=2a4f744d-4171-42a9-b0cb-dfb324aae8c3","ios":"levelo://app?vid=2a4f744d-4171-42a9-b0cb-dfb324aae8c3"},"vehicle_type_id":"4","last_reported":1727694457,"current_range_meters":26000,"station_id":"ce4bhmp2rcd13ifvqgog","pricing_plan_id":"cebpf4jnsgd1na2vs0mg"},{"bike_id":"908f7f69-cdfb-4e17-8d14-2368d3709128","system_id":"levelo_inurba_marseille","lat":43.32287,"lon":5.38265,"is_reserved":false,"is_disabled":false,"rental_uris":{"android":"levelo://app?vid=908f7f69-cdfb-4e17-8d14-2368d3709128","ios":"levelo://app?vid=908f7f69-cdfb-4e17-8d14-2368d3709128"},"vehicle_type_id":"4","last_reported":1727694457,"current_range_meters":38800,"station_id":"ce4bhr12rcd13ifvqhqg","pricing_plan_id":"cebpf4jnsgd1na2vs0mg"},{"bike_id":"f0c19493-deb5-4d75-a04c-4b6d3c361f64","system_id":"levelo_inurba_marseille","lat":43.23963,"lon":5.3663,"is_reserved":false,"is_disabled":false,"rental_uris":{"android":"levelo://app?vid=f0c19493-deb5-4d75-a04c-4b6d3c361f64","ios":"levelo://app?vid=f0c19493-deb5-4d75-a04c-4b6d3c361f64"},"vehicle_type_id":"4","last_reported":1727694457,"current_range_meters":24400,"station_id":"ce4bhi12rcd13ifvqfp0","pricing_plan_id":"cebpf4jnsgd1na2vs0mg"},{"bike_id":"e87a1725-8344-4e98-bd8e-0e9915d5fdea","system_id":"levelo_inurba_marseille","lat":43.24072,"lon":5.37761,"is_reserved":false,"is_disabled":false,"rental_uris":{"android":"levelo://app?vid=e87a1725-8344-4e98-bd8e-0e9915d5fdea","ios":"levelo://app?vid=e87a1725-8344-4e98-bd8e-0e9915d5fdea"},"vehicle_type_id":"4","last_reported":1727694457,"current_range_meters":34800,"station_id":"ce4bhnp2rcd13ifvqgvg","pricing_plan_id":"cebpf4jnsgd1na2vs0mg"},{"bike_id":"3ccef2c3-34ca-4350-8733-bdef0b66f68d","system_id":"levelo_inurba_marseille","lat":43.26685,"lon":5.38274,"is_reserved":false,"is_disabled":false,"rental_uris":{"android":"levelo://app?vid=3ccef2c3-34ca-4350-8733-bdef0b66f68d","ios":"levelo://app?vid=3ccef2c3-34ca-4350-8733-bdef0b66f68d"},"vehicle_type_id":"4","last_reported":1727694457,"current_range_meters":34800,"station_id":"ce4bhg92rcd13ifvqf90","pricing_plan_id":"cebpf4jnsgd1na2vs0mg"},{"bike_id":"757306db-bc8b-4147-85a6-62da2b338c0f","system_id":"levelo_inurba_marseille","lat":43.25725,"lon":5.41111,"is_reserved":false,"is_disabled":false,"rental_uris":{"android":"levelo://app?vid=757306db-bc8b-4147-85a6-62da2b338c0f","ios":"levelo://app?vid=757306db-bc8b-4147-85a6-62da2b338c0f"},"vehicle_type_id":"4","last_reported":1727694457,"current_range_meters":24800,"station_id":"ce4bhkp2rcd13ifvqgd0","pricing_plan_id":"cebpf4jnsgd1na2vs0mg"},{"bike_id":"ad7cd05b-06ba-4d59-bb3d-62adde31edb3","system_id":"levelo_inurba_marseille","lat":43.278484,"lon":5.406633,"is_reserved":false,"is_disabled":false,"rental_uris":{"android":"levelo://app?vid=ad7cd05b-06ba-4d59-bb3d-62adde31edb3","ios":"levelo://app?vid=ad7cd05b-06ba-4d59-bb3d-62adde31edb3"},"vehicle_type_id":"4","last_reported":1727694457,"current_range_meters":25200,"station_id":"ce4bhnh2rcd13ifvqgtg","pricing_plan_id":"cebpf4jnsgd1na2vs0mg"},{"bike_id":"4bc24f2e-2a74-4642-8c73-3d254e495f59","system_id":"levelo_inurba_marseille","lat":43.30252,"lon":5.40061,"is_reserved":false,"is_disabled":false,"rental_uris":{"android":"levelo://app?vid=4bc24f2e-2a74-4642-8c73-3d254e495f59","ios":"levelo://app?vid=4bc24f2e-2a74-4642-8c73-3d254e495f59"},"vehicle_type_id":"4","last_reported":1727694457,"current_range_meters":10000,"station_id":"ce4bgvh2rcd13ifvqcs0","pricing_plan_id":"cebpf4jnsgd1na2vs0mg"},{"bike_id":"02bf64e9-adc3-4e4f-91df-22c557ecb158","system_id":"levelo_inurba_marseille","lat":43.26198,"lon":5.37451,"is_reserved":false,"is_disabled":false,"rental_uris":{"android":"levelo://app?vid=02bf64e9-adc3-4e4f-91df-22c557ecb158","ios":"levelo://app?vid=02bf64e9-adc3-4e4f-91df-22c557ecb158"},"vehicle_type_id":"4","last_reported":1727694457,"current_range_meters":21600,"station_id":"ce4bhgp2rcd13ifvqfc0","pricing_plan_id":"cebpf4jnsgd1na2vs0mg"},{"bike_id":"d35014a8-6d8c-4cac-83b4-bdc23f9c8db1","system_id":"levelo_inurba_marseille","lat":43.34142,"lon":5.40906,"is_reserved":false,"is_disabled":false,"rental_uris":{"android":"levelo://app?vid=d35014a8-6d8c-4cac-83b4-bdc23f9c8db1","ios":"levelo://app?vid=d35014a8-6d8c-4cac-83b4-bdc23f9c8db1"},"vehicle_type_id":"4","last_reported":1727694457,"current_range_meters":37600,"station_id":"ce4bhqh2rcd13ifvqhlg","pricing_plan_id":"cebpf4jnsgd1na2vs0mg"},{"bike_id":"04c574aa-144c-414a-9314-3a6d905312f0","system_id":"levelo_inurba_marseille","lat":43.29965,"lon":5.41315,"is_reserved":false,"is_disabled":false,"rental_uris":{"android":"levelo://app?vid=04c574aa-144c-414a-9314-3a6d905312f0","ios":"levelo://app?vid=04c574aa-144c-414a-9314-3a6d905312f0"},"vehicle_type_id":"4","last_reported":1727694457,"current_range_meters":38800,"station_id":"ce4bhp12rcd13ifvqh9g","pricing_plan_id":"cebpf4jnsgd1na2vs0mg"},{"bike_id":"cf33b555-cac1-43f8-89f7-e84b64897cfd","system_id":"levelo_inurba_marseille","lat":43.28381,"lon":5.3729,"is_reserved":false,"is_disabled":false,"rental_uris":{"android":"levelo://app?vid=cf33b555-cac1-43f8-89f7-e84b64897cfd","ios":"levelo://app?vid=cf33b555-cac1-43f8-89f7-e84b64897cfd"},"vehicle_type_id":"4","last_reported":1727694457,"current_range_meters":5600,"station_id":"","pricing_plan_id":"cebpf4jnsgd1na2vs0mg"},{"bike_id":"775b821b-1e28-4064-a50b-b93c8b7ffd3b","system_id":"levelo_inurba_marseille","lat":43.24087,"lon":5.37746,"is_reserved":false,"is_disabled":false,"rental_uris":{"android":"levelo://app?vid=775b821b-1e28-4064-a50b-b93c8b7ffd3b","ios":"levelo://app?vid=775b821b-1e28-4064-a50b-b93c8b7ffd3b"},"vehicle_type_id":"4","last_reported":1727694457,"current_range_meters":38800,"station_id":"ce4bhnp2rcd13ifvqgvg","pricing_plan_id":"cebpf4jnsgd1na2vs0mg"},{"bike_id":"57ef25ef-c4c8-49fc-9cb9-dcf163f81726","system_id":"levelo_inurba_marseille","lat":43.31756,"lon":5.3902,"is_reserved":false,"is_disabled":false,"rental_uris":{"android":"levelo://app?vid=57ef25ef-c4c8-49fc-9cb9-dcf163f81726","ios":"levelo://app?vid=57ef25ef-c4c8-49fc-9cb9-dcf163f81726"},"vehicle_type_id":"4","last_reported":1727694457,"current_range_meters":38800,"station_id":"ce4bhqp2rcd13ifvqhng","pricing_plan_id":"cebpf4jnsgd1na2vs0mg"},{"bike_id":"c7ba849a-000d-4fb6-a978-ada1862d964f","system_id":"levelo_inurba_marseille","lat":43.31356,"lon":5.38497,"is_reserved":false,"is_disabled":false,"rental_uris":{"android":"levelo://app?vid=c7ba849a-000d-4fb6-a978-ada1862d964f","ios":"levelo://app?vid=c7ba849a-000d-4fb6-a978-ada1862d964f"},"vehicle_type_id":"4","last_reported":1727694457,"current_range_meters":38000,"station_id":"ce4bgt92rcd13ifvqcf0","pricing_plan_id":"cebpf4jnsgd1na2vs0mg"},{"bike_id":"f41e6ac7-d39b-432c-a205-b5e52984b1b4","system_id":"levelo_inurba_marseille","lat":43.33034,"lon":5.39379,"is_reserved":false,"is_disabled":false,"rental_uris":{"android":"levelo://app?vid=f41e6ac7-d39b-432c-a205-b5e52984b1b4","ios":"levelo://app?vid=f41e6ac7-d39b-432c-a205-b5e52984b1b4"},"vehicle_type_id":"4","last_reported":1727694457,"current_range_meters":36400,"station_id":"","pricing_plan_id":"cebpf4jnsgd1na2vs0mg"},{"bike_id":"bd4818fc-c3a3-49ae-88f0-5543b2bac4d1","system_id":"levelo_inurba_marseille","lat":43.2396,"lon":5.36633,"is_reserved":false,"is_disabled":false,"rental_uris":{"android":"levelo://app?vid=bd4818fc-c3a3-49ae-88f0-5543b2bac4d1","ios":"levelo://app?vid=bd4818fc-c3a3-49ae-88f0-5543b2bac4d1"},"vehicle_type_id":"4","last_reported":1727694457,"current_range_meters":39200,"station_id":"ce4bhi12rcd13ifvqfp0","pricing_plan_id":"cebpf4jnsgd1na2vs0mg"},{"bike_id":"269ac999-dad6-460a-aa43-d5c4c71dd1a3","system_id":"levelo_inurba_marseille","lat":43.23139,"lon":5.43716,"is_reserved":false,"is_disabled":false,"rental_uris":{"android":"levelo://app?vid=269ac999-dad6-460a-aa43-d5c4c71dd1a3","ios":"levelo://app?vid=269ac999-dad6-460a-aa43-d5c4c71dd1a3"},"vehicle_type_id":"4","last_reported":1727694457,"current_range_meters":16800,"station_id":"ce4bhmp2rcd13ifvqgog","pricing_plan_id":"cebpf4jnsgd1na2vs0mg"},{"bike_id":"e2d96cbd-5057-4d2f-9436-03670229e573","system_id":"levelo_inurba_marseille","lat":43.23153,"lon":5.43711,"is_reserved":false,"is_disabled":false,"rental_uris":{"android":"levelo://app?vid=e2d96cbd-5057-4d2f-9436-03670229e573","ios":"levelo://app?vid=e2d96cbd-5057-4d2f-9436-03670229e573"},"vehicle_type_id":"4","last_reported":1727694457,"current_range_meters":15200,"station_id":"ce4bhmp2rcd13ifvqgog","pricing_plan_id":"cebpf4jnsgd1na2vs0mg"},{"bike_id":"4434a4af-cd2a-49db-9678-c06f224e920e","system_id":"levelo_inurba_marseille","lat":43.29886,"lon":5.3891,"is_reserved":false,"is_disabled":false,"rental_uris":{"android":"levelo://app?vid=4434a4af-cd2a-49db-9678-c06f224e920e","ios":"levelo://app?vid=4434a4af-cd2a-49db-9678-c06f224e920e"},"vehicle_type_id":"4","last_reported":1727694457,"current_range_meters":39200,"station_id":"ce4bh392rcd13ifvqdl0","pricing_plan_id":"cebpf4jnsgd1na2vs0mg"},{"bike_id":"6b8929d5-ad92-409d-a69a-a9e49ae36445","system_id":"levelo_inurba_marseille","lat":43.24168,"lon":5.36395,"is_reserved":false,"is_disabled":false,"rental_uris":{"android":"levelo://app?vid=6b8929d5-ad92-409d-a69a-a9e49ae36445","ios":"levelo://app?vid=6b8929d5-ad92-409d-a69a-a9e49ae36445"},"vehicle_type_id":"4","last_reported":1727694457,"current_range_meters":8800,"station_id":"cpo36qri1sfpv3e86is0","pricing_plan_id":"cebpf4jnsgd1na2vs0mg"},{"bike_id":"d6dfd7d6-6a33-453b-a236-2fc9845dc842","system_id":"levelo_inurba_marseille","lat":43.28,"lon":5.40011,"is_reserved":false,"is_disabled":false,"rental_uris":{"android":"levelo://app?vid=d6dfd7d6-6a33-453b-a236-2fc9845dc842","ios":"levelo://app?vid=d6dfd7d6-6a33-453b-a236-2fc9845dc842"},"vehicle_type_id":"4","last_reported":1727694457,"current_range_meters":39200,"station_id":"ce4bho92rcd13ifvqh4g","pricing_plan_id":"cebpf4jnsgd1na2vs0mg"},{"bike_id":"15eda207-0a01-479d-a2c7-73f7e615ddd7","system_id":"levelo_inurba_marseille","lat":43.30555,"lon":5.36546,"is_reserved":false,"is_disabled":false,"rental_uris":{"android":"levelo://app?vid=15eda207-0a01-479d-a2c7-73f7e615ddd7","ios":"levelo://app?vid=15eda207-0a01-479d-a2c7-73f7e615ddd7"},"vehicle_type_id":"4","last_reported":1727694457,"current_range_meters":24800,"station_id":"ce4bgs12rcd13ifvqcag","pricing_plan_id":"cebpf4jnsgd1na2vs0mg"},{"bike_id":"d1a4e3ee-6415-46fb-989a-8ab06e589b76","system_id":"levelo_inurba_marseille","lat":43.30915,"lon":5.36857,"is_reserved":false,"is_disabled":false,"rental_uris":{"android":"levelo://app?vid=d1a4e3ee-6415-46fb-989a-8ab06e589b76","ios":"levelo://app?vid=d1a4e3ee-6415-46fb-989a-8ab06e589b76"},"vehicle_type_id":"4","last_reported":1727694457,"current_range_meters":39200,"station_id":"ce4bgn92rcd13ifvqbvg","pricing_plan_id":"cebpf4jnsgd1na2vs0mg"},{"bike_id":"70339401-6bbc-4d43-ae7f-2039ce2b48dd","system_id":"levelo_inurba_marseille","lat":43.23194,"lon":5.35555,"is_reserved":false,"is_disabled":false,"rental_uris":{"android":"levelo://app?vid=70339401-6bbc-4d43-ae7f-2039ce2b48dd","ios":"levelo://app?vid=70339401-6bbc-4d43-ae7f-2039ce2b48dd"},"vehicle_type_id":"4","last_reported":1727694457,"current_range_meters":2000,"station_id":"ce4bhu92rcd13ifvqi70","pricing_plan_id":"cebpf4jnsgd1na2vs0mg"},{"bike_id":"368eef9e-723c-4e6b-9adc-0edb8115cf53","system_id":"levelo_inurba_marseille","lat":43.24074,"lon":5.37757,"is_reserved":false,"is_disabled":false,"rental_uris":{"android":"levelo://app?vid=368eef9e-723c-4e6b-9adc-0edb8115cf53","ios":"levelo://app?vid=368eef9e-723c-4e6b-9adc-0edb8115cf53"},"vehicle_type_id":"4","last_reported":1727694457,"current_range_meters":9200,"station_id":"ce4bhnp2rcd13ifvqgvg","pricing_plan_id":"cebpf4jnsgd1na2vs0mg"},{"bike_id":"b668d458-c0f3-408a-ab34-c33d5b2703af","system_id":"levelo_inurba_marseille","lat":43.31682,"lon":5.37728,"is_reserved":false,"is_disabled":false,"rental_uris":{"android":"levelo://app?vid=b668d458-c0f3-408a-ab34-c33d5b2703af","ios":"levelo://app?vid=b668d458-c0f3-408a-ab34-c33d5b2703af"},"vehicle_type_id":"4","last_reported":1727694457,"current_range_meters":3600,"station_id":"ce4bgth2rcd13ifvqch0","pricing_plan_id":"cebpf4jnsgd1na2vs0mg"},{"bike_id":"f71b7f63-17f8-4803-ba81-e0aaab220a33","system_id":"levelo_inurba_marseille","lat":43.30545,"lon":5.36537,"is_reserved":false,"is_disabled":false,"rental_uris":{"android":"levelo://app?vid=f71b7f63-17f8-4803-ba81-e0aaab220a33","ios":"levelo://app?vid=f71b7f63-17f8-4803-ba81-e0aaab220a33"},"vehicle_type_id":"4","last_reported":1727694457,"current_range_meters":39200,"station_id":"ce4bgs12rcd13ifvqcag","pricing_plan_id":"cebpf4jnsgd1na2vs0mg"},{"bike_id":"9bd3559d-075b-45ea-8808-41bdc2102bfa","system_id":"levelo_inurba_marseille","lat":43.29281,"lon":5.3685,"is_reserved":false,"is_disabled":false,"rental_uris":{"android":"levelo://app?vid=9bd3559d-075b-45ea-8808-41bdc2102bfa","ios":"levelo://app?vid=9bd3559d-075b-45ea-8808-41bdc2102bfa"},"vehicle_type_id":"4","last_reported":1727694457,"current_range_meters":38800,"station_id":"ce4bhbp2rcd13ifvqesg","pricing_plan_id":"cebpf4jnsgd1na2vs0mg"},{"bike_id":"ef59aed0-0171-46ae-b151-56d2849f6fdb","system_id":"levelo_inurba_marseille","lat":43.32368,"lon":5.38884,"is_reserved":false,"is_disabled":false,"rental_uris":{"android":"levelo://app?vid=ef59aed0-0171-46ae-b151-56d2849f6fdb","ios":"levelo://app?vid=ef59aed0-0171-46ae-b151-56d2849f6fdb"},"vehicle_type_id":"4","last_reported":1727694457,"current_range_meters":33200,"station_id":"ce4bhqp2rcd13ifvqhog","pricing_plan_id":"cebpf4jnsgd1na2vs0mg"},{"bike_id":"719c6a6f-cbd6-457d-a24d-25c4e302c876","system_id":"levelo_inurba_marseille","lat":43.30909,"lon":5.36847,"is_reserved":false,"is_disabled":false,"rental_uris":{"android":"levelo://app?vid=719c6a6f-cbd6-457d-a24d-25c4e302c876","ios":"levelo://app?vid=719c6a6f-cbd6-457d-a24d-25c4e302c876"},"vehicle_type_id":"4","last_reported":1727694457,"current_range_meters":24800,"station_id":"ce4bgn92rcd13ifvqbvg","pricing_plan_id":"cebpf4jnsgd1na2vs0mg"},{"bike_id":"92a377c1-c83e-4ce0-8033-a37f64060b32","system_id":"levelo_inurba_marseille","lat":43.29897,"lon":5.43666,"is_reserved":false,"is_disabled":false,"rental_uris":{"android":"levelo://app?vid=92a377c1-c83e-4ce0-8033-a37f64060b32","ios":"levelo://app?vid=92a377c1-c83e-4ce0-8033-a37f64060b32"},"vehicle_type_id":"4","last_reported":1727694457,"current_range_meters":24000,"station_id":"ce4bhpp2rcd13ifvqhfg","pricing_plan_id":"cebpf4jnsgd1na2vs0mg"},{"bike_id":"c66a3f33-7240-4492-a313-abaa772f6d85","system_id":"levelo_inurba_marseille","lat":43.26938,"lon":5.40254,"is_reserved":false,"is_disabled":false,"rental_uris":{"android":"levelo://app?vid=c66a3f33-7240-4492-a313-abaa772f6d85","ios":"levelo://app?vid=c66a3f33-7240-4492-a313-abaa772f6d85"},"vehicle_type_id":"4","last_reported":1727694457,"current_range_meters":32400,"station_id":"cjm6bp8fraef2m0cb0m0","pricing_plan_id":"cebpf4jnsgd1na2vs0mg"},{"bike_id":"66c626da-c5b2-4c5c-abb5-549a9ee9c938","system_id":"levelo_inurba_marseille","lat":43.27492,"lon":5.42453,"is_reserved":false,"is_disabled":false,"rental_uris":{"android":"levelo://app?vid=66c626da-c5b2-4c5c-abb5-549a9ee9c938","ios":"levelo://app?vid=66c626da-c5b2-4c5c-abb5-549a9ee9c938"},"vehicle_type_id":"4","last_reported":1727694457,"current_range_meters":22800,"station_id":"ce4bhn92rcd13ifvqgrg","pricing_plan_id":"cebpf4jnsgd1na2vs0mg"},{"bike_id":"89bd3178-31e4-49ea-8b5e-bd0ca4efcce5","system_id":"levelo_inurba_marseille","lat":43.31996,"lon":5.38155,"is_reserved":false,"is_disabled":false,"rental_uris":{"android":"levelo://app?vid=89bd3178-31e4-49ea-8b5e-bd0ca4efcce5","ios":"levelo://app?vid=89bd3178-31e4-49ea-8b5e-bd0ca4efcce5"},"vehicle_type_id":"4","last_reported":1727694457,"current_range_meters":36000,"station_id":"ce4bhr12rcd13ifvqhpg","pricing_plan_id":"cebpf4jnsgd1na2vs0mg"},{"bike_id":"a3c774c4-fd72-4b56-9ae2-8a187c6aa284","system_id":"levelo_inurba_marseille","lat":43.32286,"lon":5.38279,"is_reserved":false,"is_disabled":false,"rental_uris":{"android":"levelo://app?vid=a3c774c4-fd72-4b56-9ae2-8a187c6aa284","ios":"levelo://app?vid=a3c774c4-fd72-4b56-9ae2-8a187c6aa284"},"vehicle_type_id":"4","last_reported":1727694457,"current_range_meters":38800,"station_id":"ce4bhr12rcd13ifvqhqg","pricing_plan_id":"cebpf4jnsgd1na2vs0mg"},{"bike_id":"6dc7b44d-9d0d-42f9-bc6f-4dff416c688a","system_id":"levelo_inurba_marseille","lat":43.31365,"lon":5.36703,"is_reserved":false,"is_disabled":false,"rental_uris":{"android":"levelo://app?vid=6dc7b44d-9d0d-42f9-bc6f-4dff416c688a","ios":"levelo://app?vid=6dc7b44d-9d0d-42f9-bc6f-4dff416c688a"},"vehicle_type_id":"4","last_reported":1727694457,"current_range_meters":18000,"station_id":"ce4bgr92rcd13ifvqc6g","pricing_plan_id":"cebpf4jnsgd1na2vs0mg"},{"bike_id":"a3aaac64-fffa-4c76-8ee4-bfceec847ce6","system_id":"levelo_inurba_marseille","lat":43.23153,"lon":5.43711,"is_reserved":false,"is_disabled":false,"rental_uris":{"android":"levelo://app?vid=a3aaac64-fffa-4c76-8ee4-bfceec847ce6","ios":"levelo://app?vid=a3aaac64-fffa-4c76-8ee4-bfceec847ce6"},"vehicle_type_id":"4","last_reported":1727694457,"current_range_meters":20400,"station_id":"ce4bhmp2rcd13ifvqgog","pricing_plan_id":"cebpf4jnsgd1na2vs0mg"},{"bike_id":"ffd943e1-34a4-4045-828b-845f6ee468d1","system_id":"levelo_inurba_marseille","lat":43.30461,"lon":5.37905,"is_reserved":false,"is_disabled":false,"rental_uris":{"android":"levelo://app?vid=ffd943e1-34a4-4045-828b-845f6ee468d1","ios":"levelo://app?vid=ffd943e1-34a4-4045-828b-845f6ee468d1"},"vehicle_type_id":"4","last_reported":1727694457,"current_range_meters":22800,"station_id":"ce4bgup2rcd13ifvqcn0","pricing_plan_id":"cebpf4jnsgd1na2vs0mg"},{"bike_id":"b8c1057b-e57a-4298-8601-bf88fb614427","system_id":"levelo_inurba_marseille","lat":43.31365,"lon":5.38488,"is_reserved":false,"is_disabled":false,"rental_uris":{"android":"levelo://app?vid=b8c1057b-e57a-4298-8601-bf88fb614427","ios":"levelo://app?vid=b8c1057b-e57a-4298-8601-bf88fb614427"},"vehicle_type_id":"4","last_reported":1727694457,"current_range_meters":34000,"station_id":"ce4bgt92rcd13ifvqcf0","pricing_plan_id":"cebpf4jnsgd1na2vs0mg"},{"bike_id":"fe875b08-7bdb-47a5-a96d-d38c7513f927","system_id":"levelo_inurba_marseille","lat":43.31493,"lon":5.37305,"is_reserved":false,"is_disabled":false,"rental_uris":{"android":"levelo://app?vid=fe875b08-7bdb-47a5-a96d-d38c7513f927","ios":"levelo://app?vid=fe875b08-7bdb-47a5-a96d-d38c7513f927"},"vehicle_type_id":"4","last_reported":1727694457,"current_range_meters":15200,"station_id":"ce4bgt12rcd13ifvqcd0","pricing_plan_id":"cebpf4jnsgd1na2vs0mg"},{"bike_id":"215fa715-b251-4f32-8b5d-939499fdb334","system_id":"levelo_inurba_marseille","lat":43.29285,"lon":5.40121,"is_reserved":false,"is_disabled":false,"rental_uris":{"android":"levelo://app?vid=215fa715-b251-4f32-8b5d-939499fdb334","ios":"levelo://app?vid=215fa715-b251-4f32-8b5d-939499fdb334"},"vehicle_type_id":"4","last_reported":1727694457,"current_range_meters":39200,"station_id":"ce4bh312rcd13ifvqdk0","pricing_plan_id":"cebpf4jnsgd1na2vs0mg"},{"bike_id":"8fb67863-1696-4887-9cac-a36c614d3a72","system_id":"levelo_inurba_marseille","lat":43.27809,"lon":5.40713,"is_reserved":false,"is_disabled":false,"rental_uris":{"android":"levelo://app?vid=8fb67863-1696-4887-9cac-a36c614d3a72","ios":"levelo://app?vid=8fb67863-1696-4887-9cac-a36c614d3a72"},"vehicle_type_id":"4","last_reported":1727694457,"current_range_meters":26800,"station_id":"ce4bhnh2rcd13ifvqgtg","pricing_plan_id":"cebpf4jnsgd1na2vs0mg"},{"bike_id":"8899af5b-9f62-4731-b7cd-121df8ac8752","system_id":"levelo_inurba_marseille","lat":43.30909,"lon":5.36861,"is_reserved":false,"is_disabled":false,"rental_uris":{"android":"levelo://app?vid=8899af5b-9f62-4731-b7cd-121df8ac8752","ios":"levelo://app?vid=8899af5b-9f62-4731-b7cd-121df8ac8752"},"vehicle_type_id":"4","last_reported":1727694457,"current_range_meters":36400,"station_id":"ce4bgn92rcd13ifvqbvg","pricing_plan_id":"cebpf4jnsgd1na2vs0mg"},{"bike_id":"bbfa4e14-7fa4-4aa7-91bf-e112b9082e51","system_id":"levelo_inurba_marseille","lat":43.23155,"lon":5.43711,"is_reserved":false,"is_disabled":false,"rental_uris":{"android":"levelo://app?vid=bbfa4e14-7fa4-4aa7-91bf-e112b9082e51","ios":"levelo://app?vid=bbfa4e14-7fa4-4aa7-91bf-e112b9082e51"},"vehicle_type_id":"4","last_reported":1727694457,"current_range_meters":24800,"station_id":"ce4bhmp2rcd13ifvqgog","pricing_plan_id":"cebpf4jnsgd1na2vs0mg"},{"bike_id":"24ea7477-325b-4c31-aa8e-d1fb51a6b842","system_id":"levelo_inurba_marseille","lat":43.24081,"lon":5.37758,"is_reserved":false,"is_disabled":false,"rental_uris":{"android":"levelo://app?vid=24ea7477-325b-4c31-aa8e-d1fb51a6b842","ios":"levelo://app?vid=24ea7477-325b-4c31-aa8e-d1fb51a6b842"},"vehicle_type_id":"4","last_reported":1727694457,"current_range_meters":19600,"station_id":"ce4bhnp2rcd13ifvqgvg","pricing_plan_id":"cebpf4jnsgd1na2vs0mg"},{"bike_id":"aca0beba-c795-4e34-8d5f-e0915de9e9c4","system_id":"levelo_inurba_marseille","lat":43.30464,"lon":5.37914,"is_reserved":false,"is_disabled":false,"rental_uris":{"android":"levelo://app?vid=aca0beba-c795-4e34-8d5f-e0915de9e9c4","ios":"levelo://app?vid=aca0beba-c795-4e34-8d5f-e0915de9e9c4"},"vehicle_type_id":"4","last_reported":1727694457,"current_range_meters":27600,"station_id":"ce4bgup2rcd13ifvqcn0","pricing_plan_id":"cebpf4jnsgd1na2vs0mg"},{"bike_id":"8490e44e-0aff-4d7e-8a96-481d57cd3987","system_id":"levelo_inurba_marseille","lat":43.28507,"lon":5.39139,"is_reserved":false,"is_disabled":false,"rental_uris":{"android":"levelo://app?vid=8490e44e-0aff-4d7e-8a96-481d57cd3987","ios":"levelo://app?vid=8490e44e-0aff-4d7e-8a96-481d57cd3987"},"vehicle_type_id":"4","last_reported":1727694457,"current_range_meters":24000,"station_id":"ce4bh3p2rcd13ifvqdp0","pricing_plan_id":"cebpf4jnsgd1na2vs0mg"},{"bike_id":"4140df62-3846-489d-9b7e-7a75e0439627","system_id":"levelo_inurba_marseille","lat":43.273163,"lon":5.390785,"is_reserved":false,"is_disabled":false,"rental_uris":{"android":"levelo://app?vid=4140df62-3846-489d-9b7e-7a75e0439627","ios":"levelo://app?vid=4140df62-3846-489d-9b7e-7a75e0439627"},"vehicle_type_id":"4","last_reported":1727694457,"current_range_meters":10800,"station_id":"ce4bhgp2rcd13ifvqfe0","pricing_plan_id":"cebpf4jnsgd1na2vs0mg"},{"bike_id":"81766707-7478-4563-b73b-833a28b5fc00","system_id":"levelo_inurba_marseille","lat":43.28697,"lon":5.37388,"is_reserved":false,"is_disabled":false,"rental_uris":{"android":"levelo://app?vid=81766707-7478-4563-b73b-833a28b5fc00","ios":"levelo://app?vid=81766707-7478-4563-b73b-833a28b5fc00"},"vehicle_type_id":"4","last_reported":1727694457,"current_range_meters":39200,"station_id":"ce4bh3p2rcd13ifvqdq0","pricing_plan_id":"cebpf4jnsgd1na2vs0mg"},{"bike_id":"eab1ace0-0ac0-4dd4-97bf-b1cc88f5a75e","system_id":"levelo_inurba_marseille","lat":43.24388,"lon":5.37068,"is_reserved":false,"is_disabled":false,"rental_uris":{"android":"levelo://app?vid=eab1ace0-0ac0-4dd4-97bf-b1cc88f5a75e","ios":"levelo://app?vid=eab1ace0-0ac0-4dd4-97bf-b1cc88f5a75e"},"vehicle_type_id":"4","last_reported":1727694457,"current_range_meters":4400,"station_id":"ce4bhhh2rcd13ifvqfk0","pricing_plan_id":"cebpf4jnsgd1na2vs0mg"},{"bike_id":"4dea90ec-0002-4137-8d89-689c8a272342","system_id":"levelo_inurba_marseille","lat":43.28852,"lon":5.39317,"is_reserved":false,"is_disabled":false,"rental_uris":{"android":"levelo://app?vid=4dea90ec-0002-4137-8d89-689c8a272342","ios":"levelo://app?vid=4dea90ec-0002-4137-8d89-689c8a272342"},"vehicle_type_id":"4","last_reported":1727694457,"current_range_meters":37600,"station_id":"ce4bh2p2rcd13ifvqdi0","pricing_plan_id":"cebpf4jnsgd1na2vs0mg"},{"bike_id":"befc53fc-443e-4036-9276-4ea041c16422","system_id":"levelo_inurba_marseille","lat":43.29413,"lon":5.3863,"is_reserved":false,"is_disabled":false,"rental_uris":{"android":"levelo://app?vid=befc53fc-443e-4036-9276-4ea041c16422","ios":"levelo://app?vid=befc53fc-443e-4036-9276-4ea041c16422"},"vehicle_type_id":"4","last_reported":1727694457,"current_range_meters":25600,"station_id":"ce4bh2h2rcd13ifvqdh0","pricing_plan_id":"cebpf4jnsgd1na2vs0mg"},{"bike_id":"4b2049e4-6660-4826-95a1-9ee705924c44","system_id":"levelo_inurba_marseille","lat":43.31217,"lon":5.36877,"is_reserved":false,"is_disabled":false,"rental_uris":{"android":"levelo://app?vid=4b2049e4-6660-4826-95a1-9ee705924c44","ios":"levelo://app?vid=4b2049e4-6660-4826-95a1-9ee705924c44"},"vehicle_type_id":"4","last_reported":1727694457,"current_range_meters":25600,"station_id":"ce4bgl92rcd13ifvqbq0","pricing_plan_id":"cebpf4jnsgd1na2vs0mg"},{"bike_id":"e3c8b956-3904-4fc3-9eb6-77533a8f0703","system_id":"levelo_inurba_marseille","lat":43.30598,"lon":5.39371,"is_reserved":false,"is_disabled":false,"rental_uris":{"android":"levelo://app?vid=e3c8b956-3904-4fc3-9eb6-77533a8f0703","ios":"levelo://app?vid=e3c8b956-3904-4fc3-9eb6-77533a8f0703"},"vehicle_type_id":"4","last_reported":1727694457,"current_range_meters":20800,"station_id":"ce4bh0p2rcd13ifvqd80","pricing_plan_id":"cebpf4jnsgd1na2vs0mg"},{"bike_id":"e931ce09-dddd-4b83-8e18-2291395225bf","system_id":"levelo_inurba_marseille","lat":43.31226,"lon":5.36852,"is_reserved":false,"is_disabled":false,"rental_uris":{"android":"levelo://app?vid=e931ce09-dddd-4b83-8e18-2291395225bf","ios":"levelo://app?vid=e931ce09-dddd-4b83-8e18-2291395225bf"},"vehicle_type_id":"4","last_reported":1727694457,"current_range_meters":9600,"station_id":"ce4bgl92rcd13ifvqbq0","pricing_plan_id":"cebpf4jnsgd1na2vs0mg"},{"bike_id":"efe910ee-caf8-4121-9528-1b5b4d0ae123","system_id":"levelo_inurba_marseille","lat":43.33024,"lon":5.39044,"is_reserved":false,"is_disabled":false,"rental_uris":{"android":"levelo://app?vid=efe910ee-caf8-4121-9528-1b5b4d0ae123","ios":"levelo://app?vid=efe910ee-caf8-4121-9528-1b5b4d0ae123"},"vehicle_type_id":"4","last_reported":1727694457,"current_range_meters":33600,"station_id":"ce4bhr92rcd13ifvqhrg","pricing_plan_id":"cebpf4jnsgd1na2vs0mg"},{"bike_id":"f54334eb-2195-4db5-889a-3481da52f9df","system_id":"levelo_inurba_marseille","lat":43.3229,"lon":5.3827,"is_reserved":false,"is_disabled":false,"rental_uris":{"android":"levelo://app?vid=f54334eb-2195-4db5-889a-3481da52f9df","ios":"levelo://app?vid=f54334eb-2195-4db5-889a-3481da52f9df"},"vehicle_type_id":"4","last_reported":1727694457,"current_range_meters":38800,"station_id":"ce4bhr12rcd13ifvqhqg","pricing_plan_id":"cebpf4jnsgd1na2vs0mg"},{"bike_id":"5b8f26ab-6b51-4c9d-ac3e-b872a6071183","system_id":"levelo_inurba_marseille","lat":43.31219,"lon":5.36865,"is_reserved":false,"is_disabled":false,"rental_uris":{"android":"levelo://app?vid=5b8f26ab-6b51-4c9d-ac3e-b872a6071183","ios":"levelo://app?vid=5b8f26ab-6b51-4c9d-ac3e-b872a6071183"},"vehicle_type_id":"4","last_reported":1727694457,"current_range_meters":23200,"station_id":"ce4bgl92rcd13ifvqbq0","pricing_plan_id":"cebpf4jnsgd1na2vs0mg"},{"bike_id":"4a0ff530-475e-4a0f-8202-b4672c96f2ee","system_id":"levelo_inurba_marseille","lat":43.2718,"lon":5.40988,"is_reserved":false,"is_disabled":false,"rental_uris":{"android":"levelo://app?vid=4a0ff530-475e-4a0f-8202-b4672c96f2ee","ios":"levelo://app?vid=4a0ff530-475e-4a0f-8202-b4672c96f2ee"},"vehicle_type_id":"4","last_reported":1727694457,"current_range_meters":13600,"station_id":"ce4bhl12rcd13ifvqgf0","pricing_plan_id":"cebpf4jnsgd1na2vs0mg"},{"bike_id":"7d8fe9ad-13b0-4f8e-9dad-c9a88148393c","system_id":"levelo_inurba_marseille","lat":43.26204,"lon":5.37925,"is_reserved":false,"is_disabled":false,"rental_uris":{"android":"levelo://app?vid=7d8fe9ad-13b0-4f8e-9dad-c9a88148393c","ios":"levelo://app?vid=7d8fe9ad-13b0-4f8e-9dad-c9a88148393c"},"vehicle_type_id":"4","last_reported":1727694457,"current_range_meters":29600,"station_id":"ce4bhjp2rcd13ifvqg90","pricing_plan_id":"cebpf4jnsgd1na2vs0mg"},{"bike_id":"5dfd9658-fa7f-46fc-b68f-ea8f76487a17","system_id":"levelo_inurba_marseille","lat":43.337444,"lon":5.374475,"is_reserved":false,"is_disabled":false,"rental_uris":{"android":"levelo://app?vid=5dfd9658-fa7f-46fc-b68f-ea8f76487a17","ios":"levelo://app?vid=5dfd9658-fa7f-46fc-b68f-ea8f76487a17"},"vehicle_type_id":"4","last_reported":1727694457,"current_range_meters":22000,"station_id":"","pricing_plan_id":"cebpf4jnsgd1na2vs0mg"},{"bike_id":"eab30390-0c07-449c-a891-cba8bee1096b","system_id":"levelo_inurba_marseille","lat":43.32309,"lon":5.383,"is_reserved":false,"is_disabled":false,"rental_uris":{"android":"levelo://app?vid=eab30390-0c07-449c-a891-cba8bee1096b","ios":"levelo://app?vid=eab30390-0c07-449c-a891-cba8bee1096b"},"vehicle_type_id":"4","last_reported":1727694457,"current_range_meters":36800,"station_id":"ce4bhr12rcd13ifvqhqg","pricing_plan_id":"cebpf4jnsgd1na2vs0mg"},{"bike_id":"fdef7ae9-ba96-44b0-b95b-7baf90afc649","system_id":"levelo_inurba_marseille","lat":43.23963,"lon":5.36628,"is_reserved":false,"is_disabled":false,"rental_uris":{"android":"levelo://app?vid=fdef7ae9-ba96-44b0-b95b-7baf90afc649","ios":"levelo://app?vid=fdef7ae9-ba96-44b0-b95b-7baf90afc649"},"vehicle_type_id":"4","last_reported":1727694457,"current_range_meters":24800,"station_id":"ce4bhi12rcd13ifvqfp0","pricing_plan_id":"cebpf4jnsgd1na2vs0mg"},{"bike_id":"697fe274-5038-420a-b64b-fd47cacc4dee","system_id":"levelo_inurba_marseille","lat":43.30462,"lon":5.37902,"is_reserved":false,"is_disabled":false,"rental_uris":{"android":"levelo://app?vid=697fe274-5038-420a-b64b-fd47cacc4dee","ios":"levelo://app?vid=697fe274-5038-420a-b64b-fd47cacc4dee"},"vehicle_type_id":"4","last_reported":1727694457,"current_range_meters":15200,"station_id":"ce4bgup2rcd13ifvqcn0","pricing_plan_id":"cebpf4jnsgd1na2vs0mg"},{"bike_id":"12b38438-2bf6-4cca-8ed2-a190ea38d96c","system_id":"levelo_inurba_marseille","lat":43.30788,"lon":5.37655,"is_reserved":false,"is_disabled":false,"rental_uris":{"android":"levelo://app?vid=12b38438-2bf6-4cca-8ed2-a190ea38d96c","ios":"levelo://app?vid=12b38438-2bf6-4cca-8ed2-a190ea38d96c"},"vehicle_type_id":"4","last_reported":1727694457,"current_range_meters":39200,"station_id":"ce4bgv92rcd13ifvqcq0","pricing_plan_id":"cebpf4jnsgd1na2vs0mg"},{"bike_id":"4738d962-55df-4319-86cb-804612b5415a","system_id":"levelo_inurba_marseille","lat":43.30549,"lon":5.36705,"is_reserved":false,"is_disabled":false,"rental_uris":{"android":"levelo://app?vid=4738d962-55df-4319-86cb-804612b5415a","ios":"levelo://app?vid=4738d962-55df-4319-86cb-804612b5415a"},"vehicle_type_id":"4","last_reported":1727694457,"current_range_meters":27200,"station_id":"ce4bgrp2rcd13ifvqc9g","pricing_plan_id":"cebpf4jnsgd1na2vs0mg"},{"bike_id":"01d629c1-ccb8-4fdc-a8fc-d8e3c8ebc2d3","system_id":"levelo_inurba_marseille","lat":43.3118,"lon":5.38722,"is_reserved":false,"is_disabled":false,"rental_uris":{"android":"levelo://app?vid=01d629c1-ccb8-4fdc-a8fc-d8e3c8ebc2d3","ios":"levelo://app?vid=01d629c1-ccb8-4fdc-a8fc-d8e3c8ebc2d3"},"vehicle_type_id":"4","last_reported":1727694457,"current_range_meters":16400,"station_id":"ce4bgv12rcd13ifvqcp0","pricing_plan_id":"cebpf4jnsgd1na2vs0mg"},{"bike_id":"a7feb0bf-4245-4b94-8aa6-2434874b658c","system_id":"levelo_inurba_marseille","lat":43.29193,"lon":5.35804,"is_reserved":false,"is_disabled":false,"rental_uris":{"android":"levelo://app?vid=a7feb0bf-4245-4b94-8aa6-2434874b658c","ios":"levelo://app?vid=a7feb0bf-4245-4b94-8aa6-2434874b658c"},"vehicle_type_id":"4","last_reported":1727694457,"current_range_meters":28800,"station_id":"ce4bhb12rcd13ifvqel0","pricing_plan_id":"cebpf4jnsgd1na2vs0mg"},{"bike_id":"a5fcb8cf-b27f-476f-adda-1d825e6a4907","system_id":"levelo_inurba_marseille","lat":43.28416,"lon":5.3752,"is_reserved":false,"is_disabled":false,"rental_uris":{"android":"levelo://app?vid=a5fcb8cf-b27f-476f-adda-1d825e6a4907","ios":"levelo://app?vid=a5fcb8cf-b27f-476f-adda-1d825e6a4907"},"vehicle_type_id":"4","last_reported":1727694457,"current_range_meters":32400,"station_id":"ce4bh412rcd13ifvqds0","pricing_plan_id":"cebpf4jnsgd1na2vs0mg"},{"bike_id":"d555eb86-384a-4de4-ab02-c161cadb5fa6","system_id":"levelo_inurba_marseille","lat":43.305908,"lon":5.39366,"is_reserved":false,"is_disabled":false,"rental_uris":{"android":"levelo://app?vid=d555eb86-384a-4de4-ab02-c161cadb5fa6","ios":"levelo://app?vid=d555eb86-384a-4de4-ab02-c161cadb5fa6"},"vehicle_type_id":"4","last_reported":1727694457,"current_range_meters":27200,"station_id":"ce4bh0p2rcd13ifvqd80","pricing_plan_id":"cebpf4jnsgd1na2vs0mg"},{"bike_id":"6f2d35b1-0278-43da-99ef-8d608ea1f489","system_id":"levelo_inurba_marseille","lat":43.23151,"lon":5.43711,"is_reserved":false,"is_disabled":false,"rental_uris":{"android":"levelo://app?vid=6f2d35b1-0278-43da-99ef-8d608ea1f489","ios":"levelo://app?vid=6f2d35b1-0278-43da-99ef-8d608ea1f489"},"vehicle_type_id":"4","last_reported":1727694457,"current_range_meters":22400,"station_id":"ce4bhmp2rcd13ifvqgog","pricing_plan_id":"cebpf4jnsgd1na2vs0mg"},{"bike_id":"eb055b23-4f17-4633-8a2c-044659cf713a","system_id":"levelo_inurba_marseille","lat":43.29896,"lon":5.4367,"is_reserved":false,"is_disabled":false,"rental_uris":{"android":"levelo://app?vid=eb055b23-4f17-4633-8a2c-044659cf713a","ios":"levelo://app?vid=eb055b23-4f17-4633-8a2c-044659cf713a"},"vehicle_type_id":"4","last_reported":1727694457,"current_range_meters":39200,"station_id":"ce4bhpp2rcd13ifvqhfg","pricing_plan_id":"cebpf4jnsgd1na2vs0mg"},{"bike_id":"512bb4ed-c2e7-473f-aa47-7ed3f92d1436","system_id":"levelo_inurba_marseille","lat":43.27488,"lon":5.42461,"is_reserved":false,"is_disabled":false,"rental_uris":{"android":"levelo://app?vid=512bb4ed-c2e7-473f-aa47-7ed3f92d1436","ios":"levelo://app?vid=512bb4ed-c2e7-473f-aa47-7ed3f92d1436"},"vehicle_type_id":"4","last_reported":1727694457,"current_range_meters":34800,"station_id":"ce4bhn92rcd13ifvqgrg","pricing_plan_id":"cebpf4jnsgd1na2vs0mg"},{"bike_id":"fa44b5cd-e6ac-47c0-bb18-cb2bb975035d","system_id":"levelo_inurba_marseille","lat":43.24387,"lon":5.37054,"is_reserved":false,"is_disabled":false,"rental_uris":{"android":"levelo://app?vid=fa44b5cd-e6ac-47c0-bb18-cb2bb975035d","ios":"levelo://app?vid=fa44b5cd-e6ac-47c0-bb18-cb2bb975035d"},"vehicle_type_id":"4","last_reported":1727694457,"current_range_meters":28800,"station_id":"ce4bhhh2rcd13ifvqfk0","pricing_plan_id":"cebpf4jnsgd1na2vs0mg"},{"bike_id":"90a81fb7-f144-42fb-8f18-36f4dc14c1f9","system_id":"levelo_inurba_marseille","lat":43.28076,"lon":5.39669,"is_reserved":false,"is_disabled":false,"rental_uris":{"android":"levelo://app?vid=90a81fb7-f144-42fb-8f18-36f4dc14c1f9","ios":"levelo://app?vid=90a81fb7-f144-42fb-8f18-36f4dc14c1f9"},"vehicle_type_id":"4","last_reported":1727694457,"current_range_meters":16800,"station_id":"ce4bho12rcd13ifvqh2g","pricing_plan_id":"cebpf4jnsgd1na2vs0mg"},{"bike_id":"b9a6b6ae-cba9-400e-818a-8dbfd5036d91","system_id":"levelo_inurba_marseille","lat":43.31081,"lon":5.4243,"is_reserved":false,"is_disabled":false,"rental_uris":{"android":"levelo://app?vid=b9a6b6ae-cba9-400e-818a-8dbfd5036d91","ios":"levelo://app?vid=b9a6b6ae-cba9-400e-818a-8dbfd5036d91"},"vehicle_type_id":"4","last_reported":1727694457,"current_range_meters":33600,"station_id":"ce4bhp92rcd13ifvqhag","pricing_plan_id":"cebpf4jnsgd1na2vs0mg"},{"bike_id":"0b792a66-9851-427d-af98-406cd940f51f","system_id":"levelo_inurba_marseille","lat":43.28425,"lon":5.3499,"is_reserved":false,"is_disabled":false,"rental_uris":{"android":"levelo://app?vid=0b792a66-9851-427d-af98-406cd940f51f","ios":"levelo://app?vid=0b792a66-9851-427d-af98-406cd940f51f"},"vehicle_type_id":"4","last_reported":1727694457,"current_range_meters":25600,"station_id":"ce4bhbh2rcd13ifvqepg","pricing_plan_id":"cebpf4jnsgd1na2vs0mg"},{"bike_id":"bd6880f9-b79d-4e23-b69b-52aa2845cce6","system_id":"levelo_inurba_marseille","lat":43.26059,"lon":5.39392,"is_reserved":false,"is_disabled":false,"rental_uris":{"android":"levelo://app?vid=bd6880f9-b79d-4e23-b69b-52aa2845cce6","ios":"levelo://app?vid=bd6880f9-b79d-4e23-b69b-52aa2845cce6"},"vehicle_type_id":"4","last_reported":1727694457,"current_range_meters":38400,"station_id":"ce4bhh92rcd13ifvqfj0","pricing_plan_id":"cebpf4jnsgd1na2vs0mg"},{"bike_id":"b54a9626-109e-4d4b-bfb3-41424061170c","system_id":"levelo_inurba_marseille","lat":43.2749,"lon":5.4246,"is_reserved":false,"is_disabled":false,"rental_uris":{"android":"levelo://app?vid=b54a9626-109e-4d4b-bfb3-41424061170c","ios":"levelo://app?vid=b54a9626-109e-4d4b-bfb3-41424061170c"},"vehicle_type_id":"4","last_reported":1727694457,"current_range_meters":28000,"station_id":"ce4bhn92rcd13ifvqgrg","pricing_plan_id":"cebpf4jnsgd1na2vs0mg"},{"bike_id":"dfcee297-0ed7-4c1f-9c24-b33dfd1c7db0","system_id":"levelo_inurba_marseille","lat":43.22932,"lon":5.35378,"is_reserved":false,"is_disabled":false,"rental_uris":{"android":"levelo://app?vid=dfcee297-0ed7-4c1f-9c24-b33dfd1c7db0","ios":"levelo://app?vid=dfcee297-0ed7-4c1f-9c24-b33dfd1c7db0"},"vehicle_type_id":"4","last_reported":1727694457,"current_range_meters":30400,"station_id":"cpo3532slgdg3j2ikp40","pricing_plan_id":"cebpf4jnsgd1na2vs0mg"},{"bike_id":"3adbef3a-d953-4907-812e-c82d266dfa33","system_id":"levelo_inurba_marseille","lat":43.27502,"lon":5.42445,"is_reserved":false,"is_disabled":false,"rental_uris":{"android":"levelo://app?vid=3adbef3a-d953-4907-812e-c82d266dfa33","ios":"levelo://app?vid=3adbef3a-d953-4907-812e-c82d266dfa33"},"vehicle_type_id":"4","last_reported":1727694457,"current_range_meters":8800,"station_id":"ce4bhn92rcd13ifvqgrg","pricing_plan_id":"cebpf4jnsgd1na2vs0mg"},{"bike_id":"d8abe563-b634-42e9-b93e-72a03ff0cea3","system_id":"levelo_inurba_marseille","lat":43.299103,"lon":5.385119,"is_reserved":false,"is_disabled":false,"rental_uris":{"android":"levelo://app?vid=d8abe563-b634-42e9-b93e-72a03ff0cea3","ios":"levelo://app?vid=d8abe563-b634-42e9-b93e-72a03ff0cea3"},"vehicle_type_id":"4","last_reported":1727694457,"current_range_meters":20800,"station_id":"ce4bgj92rcd13ifvqbd0","pricing_plan_id":"cebpf4jnsgd1na2vs0mg"},{"bike_id":"a6409f39-b477-4801-848d-7195b46675a8","system_id":"levelo_inurba_marseille","lat":43.30172,"lon":5.37419,"is_reserved":false,"is_disabled":false,"rental_uris":{"android":"levelo://app?vid=a6409f39-b477-4801-848d-7195b46675a8","ios":"levelo://app?vid=a6409f39-b477-4801-848d-7195b46675a8"},"vehicle_type_id":"4","last_reported":1727694457,"current_range_meters":38800,"station_id":"ce4bgs92rcd13ifvqcc0","pricing_plan_id":"cebpf4jnsgd1na2vs0mg"},{"bike_id":"064fbc96-87b4-421e-af03-f3f5f0c253eb","system_id":"levelo_inurba_marseille","lat":43.32111,"lon":5.36766,"is_reserved":false,"is_disabled":false,"rental_uris":{"android":"levelo://app?vid=064fbc96-87b4-421e-af03-f3f5f0c253eb","ios":"levelo://app?vid=064fbc96-87b4-421e-af03-f3f5f0c253eb"},"vehicle_type_id":"4","last_reported":1727694457,"current_range_meters":26800,"station_id":"ce4bhrh2rcd13ifvqhug","pricing_plan_id":"cebpf4jnsgd1na2vs0mg"},{"bike_id":"ca86f600-69cc-4efb-8075-dc152b8fb38d","system_id":"levelo_inurba_marseille","lat":43.29369,"lon":5.37866,"is_reserved":false,"is_disabled":false,"rental_uris":{"android":"levelo://app?vid=ca86f600-69cc-4efb-8075-dc152b8fb38d","ios":"levelo://app?vid=ca86f600-69cc-4efb-8075-dc152b8fb38d"},"vehicle_type_id":"4","last_reported":1727694457,"current_range_meters":24000,"station_id":"ce4bgjh2rcd13ifvqbf0","pricing_plan_id":"cebpf4jnsgd1na2vs0mg"},{"bike_id":"dcca5eb1-337d-4677-b150-3612f0c83882","system_id":"levelo_inurba_marseille","lat":43.31365,"lon":5.36694,"is_reserved":false,"is_disabled":false,"rental_uris":{"android":"levelo://app?vid=dcca5eb1-337d-4677-b150-3612f0c83882","ios":"levelo://app?vid=dcca5eb1-337d-4677-b150-3612f0c83882"},"vehicle_type_id":"4","last_reported":1727694457,"current_range_meters":30400,"station_id":"ce4bgr92rcd13ifvqc6g","pricing_plan_id":"cebpf4jnsgd1na2vs0mg"},{"bike_id":"130e6b57-6bee-41a7-ae82-e9d21f83bda3","system_id":"levelo_inurba_marseille","lat":43.28462,"lon":5.35877,"is_reserved":false,"is_disabled":false,"rental_uris":{"android":"levelo://app?vid=130e6b57-6bee-41a7-ae82-e9d21f83bda3","ios":"levelo://app?vid=130e6b57-6bee-41a7-ae82-e9d21f83bda3"},"vehicle_type_id":"4","last_reported":1727694457,"current_range_meters":3200,"station_id":"ce4bhah2rcd13ifvqei0","pricing_plan_id":"cebpf4jnsgd1na2vs0mg"},{"bike_id":"d2510458-9021-47e9-a5f4-1eb3ebe0c080","system_id":"levelo_inurba_marseille","lat":43.31757,"lon":5.39023,"is_reserved":false,"is_disabled":false,"rental_uris":{"android":"levelo://app?vid=d2510458-9021-47e9-a5f4-1eb3ebe0c080","ios":"levelo://app?vid=d2510458-9021-47e9-a5f4-1eb3ebe0c080"},"vehicle_type_id":"4","last_reported":1727694457,"current_range_meters":17600,"station_id":"ce4bhqp2rcd13ifvqhng","pricing_plan_id":"cebpf4jnsgd1na2vs0mg"},{"bike_id":"79e3b807-678c-4e9f-bcb7-05c9cb3c6740","system_id":"levelo_inurba_marseille","lat":43.32262,"lon":5.3828,"is_reserved":false,"is_disabled":false,"rental_uris":{"android":"levelo://app?vid=79e3b807-678c-4e9f-bcb7-05c9cb3c6740","ios":"levelo://app?vid=79e3b807-678c-4e9f-bcb7-05c9cb3c6740"},"vehicle_type_id":"4","last_reported":1727694457,"current_range_meters":7200,"station_id":"ce4bhr12rcd13ifvqhqg","pricing_plan_id":"cebpf4jnsgd1na2vs0mg"},{"bike_id":"c473d69b-4d27-4d1b-8afb-3e089d39cfb7","system_id":"levelo_inurba_marseille","lat":43.28274,"lon":5.35074,"is_reserved":false,"is_disabled":false,"rental_uris":{"android":"levelo://app?vid=c473d69b-4d27-4d1b-8afb-3e089d39cfb7","ios":"levelo://app?vid=c473d69b-4d27-4d1b-8afb-3e089d39cfb7"},"vehicle_type_id":"4","last_reported":1727694457,"current_range_meters":30000,"station_id":"ce4bhbp2rcd13ifvqerg","pricing_plan_id":"cebpf4jnsgd1na2vs0mg"},{"bike_id":"d15ed8ef-dbd6-471f-8e50-6b91b1159371","system_id":"levelo_inurba_marseille","lat":43.29527,"lon":5.37503,"is_reserved":false,"is_disabled":false,"rental_uris":{"android":"levelo://app?vid=d15ed8ef-dbd6-471f-8e50-6b91b1159371","ios":"levelo://app?vid=d15ed8ef-dbd6-471f-8e50-6b91b1159371"},"vehicle_type_id":"4","last_reported":1727694457,"current_range_meters":38000,"station_id":"","pricing_plan_id":"cebpf4jnsgd1na2vs0mg"},{"bike_id":"7bb3bf34-0abf-4730-94f3-dc895cb1dcd3","system_id":"levelo_inurba_marseille","lat":43.27921,"lon":5.3959,"is_reserved":false,"is_disabled":false,"rental_uris":{"android":"levelo://app?vid=7bb3bf34-0abf-4730-94f3-dc895cb1dcd3","ios":"levelo://app?vid=7bb3bf34-0abf-4730-94f3-dc895cb1dcd3"},"vehicle_type_id":"4","last_reported":1727694457,"current_range_meters":18000,"station_id":"ce4bhf92rcd13ifvqf40","pricing_plan_id":"cebpf4jnsgd1na2vs0mg"},{"bike_id":"b09aa09f-e2ca-4f52-a96c-9ca3c9bd6e8c","system_id":"levelo_inurba_marseille","lat":43.25936,"lon":5.40922,"is_reserved":false,"is_disabled":false,"rental_uris":{"android":"levelo://app?vid=b09aa09f-e2ca-4f52-a96c-9ca3c9bd6e8c","ios":"levelo://app?vid=b09aa09f-e2ca-4f52-a96c-9ca3c9bd6e8c"},"vehicle_type_id":"4","last_reported":1727694457,"current_range_meters":19600,"station_id":"ce4bhm92rcd13ifvqglg","pricing_plan_id":"cebpf4jnsgd1na2vs0mg"},{"bike_id":"fedf6eb3-7d62-485c-a27b-9ebbba315495","system_id":"levelo_inurba_marseille","lat":43.28037,"lon":5.36947,"is_reserved":false,"is_disabled":false,"rental_uris":{"android":"levelo://app?vid=fedf6eb3-7d62-485c-a27b-9ebbba315495","ios":"levelo://app?vid=fedf6eb3-7d62-485c-a27b-9ebbba315495"},"vehicle_type_id":"4","last_reported":1727694457,"current_range_meters":32400,"station_id":"ce4bha12rcd13ifvqef0","pricing_plan_id":"cebpf4jnsgd1na2vs0mg"},{"bike_id":"a5eb7083-ef30-4c43-b952-d113b3004463","system_id":"levelo_inurba_marseille","lat":43.26941,"lon":5.40252,"is_reserved":false,"is_disabled":false,"rental_uris":{"android":"levelo://app?vid=a5eb7083-ef30-4c43-b952-d113b3004463","ios":"levelo://app?vid=a5eb7083-ef30-4c43-b952-d113b3004463"},"vehicle_type_id":"4","last_reported":1727694457,"current_range_meters":29600,"station_id":"cjm6bp8fraef2m0cb0m0","pricing_plan_id":"cebpf4jnsgd1na2vs0mg"},{"bike_id":"54ae3a24-ff93-4d58-a036-7aaf71fe1015","system_id":"levelo_inurba_marseille","lat":43.257972,"lon":5.410131,"is_reserved":false,"is_disabled":false,"rental_uris":{"android":"levelo://app?vid=54ae3a24-ff93-4d58-a036-7aaf71fe1015","ios":"levelo://app?vid=54ae3a24-ff93-4d58-a036-7aaf71fe1015"},"vehicle_type_id":"4","last_reported":1727694457,"current_range_meters":26800,"station_id":"","pricing_plan_id":"cebpf4jnsgd1na2vs0mg"},{"bike_id":"0567f760-7485-429d-a575-b70f2c63d53d","system_id":"levelo_inurba_marseille","lat":43.29781,"lon":5.37101,"is_reserved":false,"is_disabled":false,"rental_uris":{"android":"levelo://app?vid=0567f760-7485-429d-a575-b70f2c63d53d","ios":"levelo://app?vid=0567f760-7485-429d-a575-b70f2c63d53d"},"vehicle_type_id":"4","last_reported":1727694457,"current_range_meters":11200,"station_id":"ce4bgop2rcd13ifvqc1g","pricing_plan_id":"cebpf4jnsgd1na2vs0mg"},{"bike_id":"031feaea-5ab3-441d-8491-f89de2ba331a","system_id":"levelo_inurba_marseille","lat":43.29597,"lon":5.38103,"is_reserved":false,"is_disabled":false,"rental_uris":{"android":"levelo://app?vid=031feaea-5ab3-441d-8491-f89de2ba331a","ios":"levelo://app?vid=031feaea-5ab3-441d-8491-f89de2ba331a"},"vehicle_type_id":"4","last_reported":1727694457,"current_range_meters":19600,"station_id":"ce4bgl12rcd13ifvqbo0","pricing_plan_id":"cebpf4jnsgd1na2vs0mg"},{"bike_id":"8dddc838-89b5-41e8-96f9-7d7f05e18f04","system_id":"levelo_inurba_marseille","lat":43.23155,"lon":5.43705,"is_reserved":false,"is_disabled":false,"rental_uris":{"android":"levelo://app?vid=8dddc838-89b5-41e8-96f9-7d7f05e18f04","ios":"levelo://app?vid=8dddc838-89b5-41e8-96f9-7d7f05e18f04"},"vehicle_type_id":"4","last_reported":1727694457,"current_range_meters":36400,"station_id":"ce4bhmp2rcd13ifvqgog","pricing_plan_id":"cebpf4jnsgd1na2vs0mg"},{"bike_id":"08d11b4e-4dcc-47b8-870d-0ca4ef843157","system_id":"levelo_inurba_marseille","lat":43.23149,"lon":5.43717,"is_reserved":false,"is_disabled":false,"rental_uris":{"android":"levelo://app?vid=08d11b4e-4dcc-47b8-870d-0ca4ef843157","ios":"levelo://app?vid=08d11b4e-4dcc-47b8-870d-0ca4ef843157"},"vehicle_type_id":"4","last_reported":1727694457,"current_range_meters":25600,"station_id":"ce4bhmp2rcd13ifvqgog","pricing_plan_id":"cebpf4jnsgd1na2vs0mg"},{"bike_id":"caf9ef4f-f018-4477-9379-2c5fdb847387","system_id":"levelo_inurba_marseille","lat":43.24392,"lon":5.37047,"is_reserved":false,"is_disabled":false,"rental_uris":{"android":"levelo://app?vid=caf9ef4f-f018-4477-9379-2c5fdb847387","ios":"levelo://app?vid=caf9ef4f-f018-4477-9379-2c5fdb847387"},"vehicle_type_id":"4","last_reported":1727694457,"current_range_meters":27200,"station_id":"ce4bhhh2rcd13ifvqfk0","pricing_plan_id":"cebpf4jnsgd1na2vs0mg"},{"bike_id":"faf6e94e-5967-4176-a24b-453a5f0f50e0","system_id":"levelo_inurba_marseille","lat":43.28419,"lon":5.3499,"is_reserved":false,"is_disabled":false,"rental_uris":{"android":"levelo://app?vid=faf6e94e-5967-4176-a24b-453a5f0f50e0","ios":"levelo://app?vid=faf6e94e-5967-4176-a24b-453a5f0f50e0"},"vehicle_type_id":"4","last_reported":1727694457,"current_range_meters":35600,"station_id":"ce4bhbh2rcd13ifvqepg","pricing_plan_id":"cebpf4jnsgd1na2vs0mg"},