{"last_updated":1777134571,"ttl":60,"version":"2.2","data":{"bikes":[{"bike_id":"3762a15a-49a2-4fc6-b2e6-a79b5f91a12f","system_id":"levelo_inurba_marseille","lat":43.285,"lon":5.4838,"is_reserved":false,"is_disabled":false,"rental_uris":{"android":"levelo://app?vid=3762a15a-49a2-4fc6-b2e6-a79b5f91a12f","ios":"levelo://app?vid=3762a15a-49a2-4fc6-b2e6-a79b5f91a12f"},"vehicle_type_id":"4","last_reported":1777134572,"current_range_meters":2800,"station_id":"","pricing_plan_id":"cebpf4jnsgd1na2vs0mg"},{"bike_id":"a41146b4-644e-4e3f-801b-007860addb1c","system_id":"levelo_inurba_marseille","lat":43.2397,"lon":5.36649,"is_reserved":false,"is_disabled":false,"rental_uris":{"android":"levelo://app?vid=a41146b4-644e-4e3f-801b-007860addb1c","ios":"levelo://app?vid=a41146b4-644e-4e3f-801b-007860addb1c"},"vehicle_type_id":"4","last_reported":1777134572,"current_range_meters":2800,"station_id":"ce4bhi12rcd13ifvqfp0","pricing_plan_id":"cebpf4jnsgd1na2vs0mg"},{"bike_id":"e8d6ce3d-1aa9-47ef-9b48-93862ee5f7fd","system_id":"levelo_inurba_marseille","lat":43.2128,"lon":5.35421,"is_reserved":false,"is_disabled":false,"rental_uris":{"android":"levelo://app?vid=e8d6ce3d-1aa9-47ef-9b48-93862ee5f7fd","ios":"levelo://app?vid=e8d6ce3d-1aa9-47ef-9b48-93862ee5f7fd"},"vehicle_type_id":"4","last_reported":1777134572,"current_range_meters":2800,"station_id":"","pricing_plan_id":"cebpf4jnsgd1na2vs0mg"},{"bike_id":"ad28629d-ca50-4c47-8885-051f106d8e89","system_id":"levelo_inurba_marseille","lat":43.29802,"lon":5.38079,"is_reserved":false,"is_disabled":false,"rental_uris":{"android":"levelo://app?vid=ad28629d-ca50-4c47-8885-051f106d8e89","ios":"levelo://app?vid=ad28629d-ca50-4c47-8885-051f106d8e89"},"vehicle_type_id":"4","last_reported":1777134572,"current_range_meters":2800,"station_id":"ce4bgip2rcd13ifvqbb0","pricing_plan_id":"cebpf4jnsgd1na2vs0mg"},{"bike_id":"372e3606-a46b-451e-9031-bdede728f8ec","system_id":"levelo_inurba_marseille","lat":43.28108,"lon":5.37838,"is_reserved":false,"is_disabled":false,"rental_uris":{"android":"levelo://app?vid=372e3606-a46b-451e-9031-bdede728f8ec","ios":"levelo://app?vid=372e3606-a46b-451e-9031-bdede728f8ec"},"vehicle_type_id":"4","last_reported":1777134572,"current_range_meters":2800,"station_id":"ce4bha12rcd13ifvqee0","pricing_plan_id":"cebpf4jnsgd1na2vs0mg"},{"bike_id":"4727c30d-80c6-40f4-a10e-cb4e610b5d83","system_id":"levelo_inurba_marseille","lat":43.28114,"lon":5.37841,"is_reserved":false,"is_disabled":false,"rental_uris":{"android":"levelo://app?vid=4727c30d-80c6-40f4-a10e-cb4e610b5d83","ios":"levelo://app?vid=4727c30d-80c6-40f4-a10e-cb4e610b5d83"},"vehicle_type_id":"4","last_reported":1777134572,"current_range_meters":2800,"station_id":"ce4bha12rcd13ifvqee0","pricing_plan_id":"cebpf4jnsgd1na2vs0mg"},{"bike_id":"6b046cac-4146-44ad-94ac-a807b37e1ea6","system_id":"levelo_inurba_marseille","lat":43.26556,"lon":5.37301,"is_reserved":false,"is_disabled":false,"rental_uris":{"android":"levelo://app?vid=6b046cac-4146-44ad-94ac-a807b37e1ea6","ios":"levelo://app?vid=6b046cac-4146-44ad-94ac-a807b37e1ea6"},"vehicle_type_id":"4","last_reported":1777134572,"current_range_meters":2800,"station_id":"ce4bhg12rcd13ifvqf70","pricing_plan_id":"cebpf4jnsgd1na2vs0mg"},{"bike_id":"83de3e8b-7216-461f-8096-99f705cb1ed1","system_id":"levelo_inurba_marseille","lat":43.225098,"lon":5.348417,"is_reserved":false,"is_disabled":false,"rental_uris":{"android":"levelo://app?vid=83de3e8b-7216-461f-8096-99f705cb1ed1","ios":"levelo://app?vid=83de3e8b-7216-461f-8096-99f705cb1ed1"},"vehicle_type_id":"4","last_reported":1777134572,"current_range_meters":2800,"station_id":"st_cvj5dfep6f1abm77gieg","pricing_plan_id":"cebpf4jnsgd1na2vs0mg"},{"bike_id":"4834b671-dcd9-47ee-874f-5a770ecd7078","system_id":"levelo_inurba_marseille","lat":43.30941,"lon":5.40149,"is_reserved":false,"is_disabled":false,"rental_uris":{"android":"levelo://app?vid=4834b671-dcd9-47ee-874f-5a770ecd7078","ios":"levelo://app?vid=4834b671-dcd9-47ee-874f-5a770ecd7078"},"vehicle_type_id":"4","last_reported":1777134572,"current_range_meters":2800,"station_id":"ce4bgvp2rcd13ifvqct0","pricing_plan_id":"cebpf4jnsgd1na2vs0mg"},{"bike_id":"eb9ed9b4-889e-45ab-9627-91aad94bf85f","system_id":"levelo_inurba_marseille","lat":43.23089,"lon":5.40578,"is_reserved":false,"is_disabled":false,"rental_uris":{"android":"levelo://app?vid=eb9ed9b4-889e-45ab-9627-91aad94bf85f","ios":"levelo://app?vid=eb9ed9b4-889e-45ab-9627-91aad94bf85f"},"vehicle_type_id":"4","last_reported":1777134572,"current_range_meters":2800,"station_id":"","pricing_plan_id":"cebpf4jnsgd1na2vs0mg"},{"bike_id":"e02e3b1e-735d-4aa6-8fe9-c49d2336f80a","system_id":"levelo_inurba_marseille","lat":43.29308,"lon":5.37174,"is_reserved":false,"is_disabled":false,"rental_uris":{"android":"levelo://app?vid=e02e3b1e-735d-4aa6-8fe9-c49d2336f80a","ios":"levelo://app?vid=e02e3b1e-735d-4aa6-8fe9-c49d2336f80a"},"vehicle_type_id":"4","last_reported":1777134572,"current_range_meters":2800,"station_id":"ce4bgh92rcd13ifvqb40","pricing_plan_id":"cebpf4jnsgd1na2vs0mg"},{"bike_id":"70a03824-de13-4307-b02a-2c16e2393f18","system_id":"levelo_inurba_marseille","lat":43.29088,"lon":5.38143,"is_reserved":false,"is_disabled":false,"rental_uris":{"android":"levelo://app?vid=70a03824-de13-4307-b02a-2c16e2393f18","ios":"levelo://app?vid=70a03824-de13-4307-b02a-2c16e2393f18"},"vehicle_type_id":"4","last_reported":1777134572,"current_range_meters":3200,"station_id":"ce4bh512rcd13ifvqe2g","pricing_plan_id":"cebpf4jnsgd1na2vs0mg"},{"bike_id":"e12a9cd5-5b8c-45e9-b554-405c12c55e35","system_id":"levelo_inurba_marseille","lat":43.24806,"lon":5.37455,"is_reserved":false,"is_disabled":false,"rental_uris":{"android":"levelo://app?vid=e12a9cd5-5b8c-45e9-b554-405c12c55e35","ios":"levelo://app?vid=e12a9cd5-5b8c-45e9-b554-405c12c55e35"},"vehicle_type_id":"4","last_reported":1777134572,"current_range_meters":3200,"station_id":"ce4bhgh2rcd13ifvqfb0","pricing_plan_id":"cebpf4jnsgd1na2vs0mg"},{"bike_id":"082e9381-5478-4fa8-bed1-a0ff7502c6ad","system_id":"levelo_inurba_marseille","lat":43.26229,"lon":5.37482,"is_reserved":false,"is_disabled":false,"rental_uris":{"android":"levelo://app?vid=082e9381-5478-4fa8-bed1-a0ff7502c6ad","ios":"levelo://app?vid=082e9381-5478-4fa8-bed1-a0ff7502c6ad"},"vehicle_type_id":"4","last_reported":1777134572,"current_range_meters":3200,"station_id":"","pricing_plan_id":"cebpf4jnsgd1na2vs0mg"},{"bike_id":"2813910b-bfe0-425f-a483-9778de4facfb","system_id":"levelo_inurba_marseille","lat":43.30241,"lon":5.4499,"is_reserved":false,"is_disabled":false,"rental_uris":{"android":"levelo://app?vid=2813910b-bfe0-425f-a483-9778de4facfb","ios":"levelo://app?vid=2813910b-bfe0-425f-a483-9778de4facfb"},"vehicle_type_id":"4","last_reported":1777134572,"current_range_meters":3200,"station_id":"","pricing_plan_id":"cebpf4jnsgd1na2vs0mg"},{"bike_id":"ca11b121-54de-4f65-9d70-def3e0fa6aac","system_id":"levelo_inurba_marseille","lat":43.26479,"lon":5.39533,"is_reserved":false,"is_disabled":false,"rental_uris":{"android":"levelo://app?vid=ca11b121-54de-4f65-9d70-def3e0fa6aac","ios":"levelo://app?vid=ca11b121-54de-4f65-9d70-def3e0fa6aac"},"vehicle_type_id":"4","last_reported":1777134572,"current_range_meters":3200,"station_id":"ce4bhi12rcd13ifvqfq0","pricing_plan_id":"cebpf4jnsgd1na2vs0mg"},{"bike_id":"676f4845-6b49-4773-b82f-ef4c6a0d7c2d","system_id":"levelo_inurba_marseille","lat":43.26126,"lon":5.37519,"is_reserved":false,"is_disabled":false,"rental_uris":{"android":"levelo://app?vid=676f4845-6b49-4773-b82f-ef4c6a0d7c2d","ios":"levelo://app?vid=676f4845-6b49-4773-b82f-ef4c6a0d7c2d"},"vehicle_type_id":"4","last_reported":1777134572,"current_range_meters":3200,"station_id":"","pricing_plan_id":"cebpf4jnsgd1na2vs0mg"},{"bike_id":"e458c82e-0eda-4b7d-a1f2-6d1d33d7763d","system_id":"levelo_inurba_marseille","lat":43.29956,"lon":5.38483,"is_reserved":false,"is_disabled":true,"rental_uris":{"android":"levelo://app?vid=e458c82e-0eda-4b7d-a1f2-6d1d33d7763d","ios":"levelo://app?vid=e458c82e-0eda-4b7d-a1f2-6d1d33d7763d"},"vehicle_type_id":"4","last_reported":1777134572,"current_range_meters":3200,"station_id":"ce4bgj92rcd13ifvqbd0","pricing_plan_id":"cebpf4jnsgd1na2vs0mg"},{"bike_id":"9900b946-95ae-488d-aeef-7b9acfb4addc","system_id":"levelo_inurba_marseille","lat":43.23054,"lon":5.35502,"is_reserved":false,"is_disabled":false,"rental_uris":{"android":"levelo://app?vid=9900b946-95ae-488d-aeef-7b9acfb4addc","ios":"levelo://app?vid=9900b946-95ae-488d-aeef-7b9acfb4addc"},"vehicle_type_id":"4","last_reported":1777134572,"current_range_meters":3200,"station_id":"cpo3342slgdg3j2ifvpg","pricing_plan_id":"cebpf4jnsgd1na2vs0mg"},{"bike_id":"53f915eb-4ef3-4ab2-9b11-4bfc7718361e","system_id":"levelo_inurba_marseille","lat":43.296995,"lon":5.371589,"is_reserved":false,"is_disabled":false,"rental_uris":{"android":"levelo://app?vid=53f915eb-4ef3-4ab2-9b11-4bfc7718361e","ios":"levelo://app?vid=53f915eb-4ef3-4ab2-9b11-4bfc7718361e"},"vehicle_type_id":"4","last_reported":1777134572,"current_range_meters":3200,"station_id":"ce4bgop2rcd13ifvqc1g","pricing_plan_id":"cebpf4jnsgd1na2vs0mg"},{"bike_id":"a26bb264-b55a-4b35-a3e6-c575d74e1819","system_id":"levelo_inurba_marseille","lat":43.26562,"lon":5.37326,"is_reserved":false,"is_disabled":false,"rental_uris":{"android":"levelo://app?vid=a26bb264-b55a-4b35-a3e6-c575d74e1819","ios":"levelo://app?vid=a26bb264-b55a-4b35-a3e6-c575d74e1819"},"vehicle_type_id":"4","last_reported":1777134572,"current_range_meters":3600,"station_id":"ce4bhg12rcd13ifvqf70","pricing_plan_id":"cebpf4jnsgd1na2vs0mg"},{"bike_id":"57138ddb-cc25-4997-8949-10c0391ecb17","system_id":"levelo_inurba_marseille","lat":43.29312,"lon":5.37182,"is_reserved":false,"is_disabled":false,"rental_uris":{"android":"levelo://app?vid=57138ddb-cc25-4997-8949-10c0391ecb17","ios":"levelo://app?vid=57138ddb-cc25-4997-8949-10c0391ecb17"},"vehicle_type_id":"4","last_reported":1777134572,"current_range_meters":3600,"station_id":"ce4bgh92rcd13ifvqb40","pricing_plan_id":"cebpf4jnsgd1na2vs0mg"},{"bike_id":"b38d89b8-c3c9-4fae-b6f2-09980d89f2e9","system_id":"levelo_inurba_marseille","lat":43.28487,"lon":5.48421,"is_reserved":false,"is_disabled":false,"rental_uris":{"android":"levelo://app?vid=b38d89b8-c3c9-4fae-b6f2-09980d89f2e9","ios":"levelo://app?vid=b38d89b8-c3c9-4fae-b6f2-09980d89f2e9"},"vehicle_type_id":"4","last_reported":1777134572,"current_range_meters":3600,"station_id":"","pricing_plan_id":"cebpf4jnsgd1na2vs0mg"},{"bike_id":"b371935c-178e-456f-a80f-428bfeae82d8","system_id":"levelo_inurba_marseille","lat":43.29188,"lon":5.3583,"is_reserved":false,"is_disabled":false,"rental_uris":{"android":"levelo://app?vid=b371935c-178e-456f-a80f-428bfeae82d8","ios":"levelo://app?vid=b371935c-178e-456f-a80f-428bfeae82d8"},"vehicle_type_id":"4","last_reported":1777134572,"current_range_meters":3600,"station_id":"ce4bhb12rcd13ifvqel0","pricing_plan_id":"cebpf4jnsgd1na2vs0mg"},{"bike_id":"8a3a4d22-45f8-4c90-a465-7b52f8e7cae5","system_id":"levelo_inurba_marseille","lat":43.2862,"lon":5.35099,"is_reserved":false,"is_disabled":false,"rental_uris":{"android":"levelo://app?vid=8a3a4d22-45f8-4c90-a465-7b52f8e7cae5","ios":"levelo://app?vid=8a3a4d22-45f8-4c90-a465-7b52f8e7cae5"},"vehicle_type_id":"4","last_reported":1777134572,"current_range_meters":3600,"station_id":"ce4bhch2rcd13ifvqeug","pricing_plan_id":"cebpf4jnsgd1na2vs0mg"},{"bike_id":"1fb04524-8ded-43f2-9640-6100227a8cc9","system_id":"levelo_inurba_marseille","lat":43.27684,"lon":5.38877,"is_reserved":false,"is_disabled":false,"rental_uris":{"android":"levelo://app?vid=1fb04524-8ded-43f2-9640-6100227a8cc9","ios":"levelo://app?vid=1fb04524-8ded-43f2-9640-6100227a8cc9"},"vehicle_type_id":"4","last_reported":1777134572,"current_range_meters":3600,"station_id":"ce4bhi12rcd13ifvqfo0","pricing_plan_id":"cebpf4jnsgd1na2vs0mg"},{"bike_id":"2d13072a-7be5-4b8b-9f55-eb46a1e283e4","system_id":"levelo_inurba_marseille","lat":43.240476,"lon":5.377421,"is_reserved":false,"is_disabled":false,"rental_uris":{"android":"levelo://app?vid=2d13072a-7be5-4b8b-9f55-eb46a1e283e4","ios":"levelo://app?vid=2d13072a-7be5-4b8b-9f55-eb46a1e283e4"},"vehicle_type_id":"4","last_reported":1777134572,"current_range_meters":3600,"station_id":"ce4bhnp2rcd13ifvqgvg","pricing_plan_id":"cebpf4jnsgd1na2vs0mg"},{"bike_id":"ae6e4d2f-469d-4b2e-9ce9-0d4ba061a040","system_id":"levelo_inurba_marseille","lat":43.299652,"lon":5.37163,"is_reserved":false,"is_disabled":false,"rental_uris":{"android":"levelo://app?vid=ae6e4d2f-469d-4b2e-9ce9-0d4ba061a040","ios":"levelo://app?vid=ae6e4d2f-469d-4b2e-9ce9-0d4ba061a040"},"vehicle_type_id":"4","last_reported":1777134572,"current_range_meters":3600,"station_id":"ce4bgr92rcd13ifvqc7g","pricing_plan_id":"cebpf4jnsgd1na2vs0mg"},{"bike_id":"5f8cdfbc-37c6-486e-8a09-9620e14e43ce","system_id":"levelo_inurba_marseille","lat":43.23891,"lon":5.37462,"is_reserved":false,"is_disabled":true,"rental_uris":{"android":"levelo://app?vid=5f8cdfbc-37c6-486e-8a09-9620e14e43ce","ios":"levelo://app?vid=5f8cdfbc-37c6-486e-8a09-9620e14e43ce"},"vehicle_type_id":"4","last_reported":1777134572,"current_range_meters":3600,"station_id":"st_d6sm7csbq4hs73f8fpjg","pricing_plan_id":"cebpf4jnsgd1na2vs0mg"},{"bike_id":"7ab9e9d2-55c6-492f-8e60-126c7a6965ab","system_id":"levelo_inurba_marseille","lat":43.27956,"lon":5.37038,"is_reserved":false,"is_disabled":false,"rental_uris":{"android":"levelo://app?vid=7ab9e9d2-55c6-492f-8e60-126c7a6965ab","ios":"levelo://app?vid=7ab9e9d2-55c6-492f-8e60-126c7a6965ab"},"vehicle_type_id":"4","last_reported":1777134572,"current_range_meters":3600,"station_id":"","pricing_plan_id":"cebpf4jnsgd1na2vs0mg"},{"bike_id":"46c69f75-a069-4ff8-bfdd-b098c06aeb99","system_id":"levelo_inurba_marseille","lat":43.29543,"lon":5.37515,"is_reserved":false,"is_disabled":false,"rental_uris":{"android":"levelo://app?vid=46c69f75-a069-4ff8-bfdd-b098c06aeb99","ios":"levelo://app?vid=46c69f75-a069-4ff8-bfdd-b098c06aeb99"},"vehicle_type_id":"4","last_reported":1777134572,"current_range_meters":3600,"station_id":"ce4bgkp2rcd13ifvqbmg","pricing_plan_id":"cebpf4jnsgd1na2vs0mg"},{"bike_id":"30ae163a-44ad-49ad-bf51-c1f54df5559c","system_id":"levelo_inurba_marseille","lat":43.28857,"lon":5.42512,"is_reserved":false,"is_disabled":false,"rental_uris":{"android":"levelo://app?vid=30ae163a-44ad-49ad-bf51-c1f54df5559c","ios":"levelo://app?vid=30ae163a-44ad-49ad-bf51-c1f54df5559c"},"vehicle_type_id":"4","last_reported":1777134572,"current_range_meters":3600,"station_id":"st_d3b462108ojc7389ooeg","pricing_plan_id":"cebpf4jnsgd1na2vs0mg"},{"bike_id":"6b2fcce4-0174-4e0e-8a49-78e622b17525","system_id":"levelo_inurba_marseille","lat":43.229287,"lon":5.353714,"is_reserved":false,"is_disabled":false,"rental_uris":{"android":"levelo://app?vid=6b2fcce4-0174-4e0e-8a49-78e622b17525","ios":"levelo://app?vid=6b2fcce4-0174-4e0e-8a49-78e622b17525"},"vehicle_type_id":"4","last_reported":1777134572,"current_range_meters":3600,"station_id":"cpo3532slgdg3j2ikp40","pricing_plan_id":"cebpf4jnsgd1na2vs0mg"},{"bike_id":"d099a7d0-1ed6-42bd-bde3-7b8223335184","system_id":"levelo_inurba_marseille","lat":43.29048,"lon":5.39973,"is_reserved":false,"is_disabled":false,"rental_uris":{"android":"levelo://app?vid=d099a7d0-1ed6-42bd-bde3-7b8223335184","ios":"levelo://app?vid=d099a7d0-1ed6-42bd-bde3-7b8223335184"},"vehicle_type_id":"4","last_reported":1777134572,"current_range_meters":4000,"station_id":"ce4bh392rcd13ifvqdm0","pricing_plan_id":"cebpf4jnsgd1na2vs0mg"},{"bike_id":"168b5534-ff13-4dc9-af35-5eae8b61ed60","system_id":"levelo_inurba_marseille","lat":43.22557,"lon":5.41631,"is_reserved":false,"is_disabled":false,"rental_uris":{"android":"levelo://app?vid=168b5534-ff13-4dc9-af35-5eae8b61ed60","ios":"levelo://app?vid=168b5534-ff13-4dc9-af35-5eae8b61ed60"},"vehicle_type_id":"4","last_reported":1777134572,"current_range_meters":4000,"station_id":"st_d2o4gvlbi1j2169b742g","pricing_plan_id":"cebpf4jnsgd1na2vs0mg"},{"bike_id":"b61aa6e2-2304-477a-8bb7-47931f185f04","system_id":"levelo_inurba_marseille","lat":43.28,"lon":5.41662,"is_reserved":false,"is_disabled":false,"rental_uris":{"android":"levelo://app?vid=b61aa6e2-2304-477a-8bb7-47931f185f04","ios":"levelo://app?vid=b61aa6e2-2304-477a-8bb7-47931f185f04"},"vehicle_type_id":"4","last_reported":1777134572,"current_range_meters":4000,"station_id":"ce4bho12rcd13ifvqh1g","pricing_plan_id":"cebpf4jnsgd1na2vs0mg"},{"bike_id":"dafc4c6f-3e7f-4e31-91d5-62f3da7dfeaa","system_id":"levelo_inurba_marseille","lat":43.241664,"lon":5.363907,"is_reserved":false,"is_disabled":false,"rental_uris":{"android":"levelo://app?vid=dafc4c6f-3e7f-4e31-91d5-62f3da7dfeaa","ios":"levelo://app?vid=dafc4c6f-3e7f-4e31-91d5-62f3da7dfeaa"},"vehicle_type_id":"4","last_reported":1777134572,"current_range_meters":4000,"station_id":"cpo36qri1sfpv3e86is0","pricing_plan_id":"cebpf4jnsgd1na2vs0mg"},{"bike_id":"31c03ed6-2b0c-4a38-b68c-930b3f6b9976","system_id":"levelo_inurba_marseille","lat":43.26219,"lon":5.37462,"is_reserved":false,"is_disabled":false,"rental_uris":{"android":"levelo://app?vid=31c03ed6-2b0c-4a38-b68c-930b3f6b9976","ios":"levelo://app?vid=31c03ed6-2b0c-4a38-b68c-930b3f6b9976"},"vehicle_type_id":"4","last_reported":1777134572,"current_range_meters":4000,"station_id":"ce4bhgp2rcd13ifvqfc0","pricing_plan_id":"cebpf4jnsgd1na2vs0mg"},{"bike_id":"1c95e56b-da44-4f0a-8e39-52e99c5fcf42","system_id":"levelo_inurba_marseille","lat":43.28459,"lon":5.3589,"is_reserved":false,"is_disabled":false,"rental_uris":{"android":"levelo://app?vid=1c95e56b-da44-4f0a-8e39-52e99c5fcf42","ios":"levelo://app?vid=1c95e56b-da44-4f0a-8e39-52e99c5fcf42"},"vehicle_type_id":"4","last_reported":1777134572,"current_range_meters":4000,"station_id":"ce4bhah2rcd13ifvqei0","pricing_plan_id":"cebpf4jnsgd1na2vs0mg"},{"bike_id":"267e94ee-d36e-4037-bc69-93b7f57fa2a4","system_id":"levelo_inurba_marseille","lat":43.30957,"lon":5.39042,"is_reserved":false,"is_disabled":false,"rental_uris":{"android":"levelo://app?vid=267e94ee-d36e-4037-bc69-93b7f57fa2a4","ios":"levelo://app?vid=267e94ee-d36e-4037-bc69-93b7f57fa2a4"},"vehicle_type_id":"4","last_reported":1777134572,"current_range_meters":4000,"station_id":"ce4bgup2rcd13ifvqco0","pricing_plan_id":"cebpf4jnsgd1na2vs0mg"},{"bike_id":"68385ad1-5a71-4622-9ac2-dcc837084f17","system_id":"levelo_inurba_marseille","lat":43.2407,"lon":5.37759,"is_reserved":false,"is_disabled":false,"rental_uris":{"android":"levelo://app?vid=68385ad1-5a71-4622-9ac2-dcc837084f17","ios":"levelo://app?vid=68385ad1-5a71-4622-9ac2-dcc837084f17"},"vehicle_type_id":"4","last_reported":1777134572,"current_range_meters":4000,"station_id":"ce4bhnp2rcd13ifvqgvg","pricing_plan_id":"cebpf4jnsgd1na2vs0mg"},{"bike_id":"672ec020-db34-412f-92a7-296ed4164916","system_id":"levelo_inurba_marseille","lat":43.25497,"lon":5.37655,"is_reserved":false,"is_disabled":false,"rental_uris":{"android":"levelo://app?vid=672ec020-db34-412f-92a7-296ed4164916","ios":"levelo://app?vid=672ec020-db34-412f-92a7-296ed4164916"},"vehicle_type_id":"4","last_reported":1777134572,"current_range_meters":4000,"station_id":"ce4bhh12rcd13ifvqff0","pricing_plan_id":"cebpf4jnsgd1na2vs0mg"},{"bike_id":"77a578e8-0e5b-49b0-aee5-442d406ae3f1","system_id":"levelo_inurba_marseille","lat":43.28948,"lon":5.36652,"is_reserved":false,"is_disabled":false,"rental_uris":{"android":"levelo://app?vid=77a578e8-0e5b-49b0-aee5-442d406ae3f1","ios":"levelo://app?vid=77a578e8-0e5b-49b0-aee5-442d406ae3f1"},"vehicle_type_id":"4","last_reported":1777134572,"current_range_meters":4000,"station_id":"ce4bhap2rcd13ifvqek0","pricing_plan_id":"cebpf4jnsgd1na2vs0mg"},{"bike_id":"5fcba6dc-7366-45f8-bd1a-a7a38fa1a000","system_id":"levelo_inurba_marseille","lat":43.2846,"lon":5.35892,"is_reserved":false,"is_disabled":false,"rental_uris":{"android":"levelo://app?vid=5fcba6dc-7366-45f8-bd1a-a7a38fa1a000","ios":"levelo://app?vid=5fcba6dc-7366-45f8-bd1a-a7a38fa1a000"},"vehicle_type_id":"4","last_reported":1777134572,"current_range_meters":4000,"station_id":"ce4bhah2rcd13ifvqei0","pricing_plan_id":"cebpf4jnsgd1na2vs0mg"},{"bike_id":"4af5f932-71ad-4954-ac3b-fecb2a352994","system_id":"levelo_inurba_marseille","lat":43.3236,"lon":5.36703,"is_reserved":false,"is_disabled":false,"rental_uris":{"android":"levelo://app?vid=4af5f932-71ad-4954-ac3b-fecb2a352994","ios":"levelo://app?vid=4af5f932-71ad-4954-ac3b-fecb2a352994"},"vehicle_type_id":"4","last_reported":1777134572,"current_range_meters":4400,"station_id":"","pricing_plan_id":"cebpf4jnsgd1na2vs0mg"},{"bike_id":"1370c3f0-6074-43de-a93b-f7f87c829b3b","system_id":"levelo_inurba_marseille","lat":43.2912,"lon":5.39985,"is_reserved":false,"is_disabled":false,"rental_uris":{"android":"levelo://app?vid=1370c3f0-6074-43de-a93b-f7f87c829b3b","ios":"levelo://app?vid=1370c3f0-6074-43de-a93b-f7f87c829b3b"},"vehicle_type_id":"4","last_reported":1777134572,"current_range_meters":4400,"station_id":"","pricing_plan_id":"cebpf4jnsgd1na2vs0mg"},{"bike_id":"4d5b4915-5fc0-4782-a3a4-e445cc2cf470","system_id":"levelo_inurba_marseille","lat":43.29871,"lon":5.42101,"is_reserved":false,"is_disabled":false,"rental_uris":{"android":"levelo://app?vid=4d5b4915-5fc0-4782-a3a4-e445cc2cf470","ios":"levelo://app?vid=4d5b4915-5fc0-4782-a3a4-e445cc2cf470"},"vehicle_type_id":"4","last_reported":1777134572,"current_range_meters":4400,"station_id":"st_d6tc004otcvc738tfe70","pricing_plan_id":"cebpf4jnsgd1na2vs0mg"},{"bike_id":"261b4d20-3fce-4a9a-b1df-f7d9447249df","system_id":"levelo_inurba_marseille","lat":43.285,"lon":5.48481,"is_reserved":false,"is_disabled":false,"rental_uris":{"android":"levelo://app?vid=261b4d20-3fce-4a9a-b1df-f7d9447249df","ios":"levelo://app?vid=261b4d20-3fce-4a9a-b1df-f7d9447249df"},"vehicle_type_id":"4","last_reported":1777134572,"current_range_meters":4400,"station_id":"st_d3svhcjqgbts73a3dn0g","pricing_plan_id":"cebpf4jnsgd1na2vs0mg"},{"bike_id":"5eee5bc5-b7b1-47cf-adcb-6d94f7f7f506","system_id":"levelo_inurba_marseille","lat":43.31362,"lon":5.3849,"is_reserved":false,"is_disabled":false,"rental_uris":{"android":"levelo://app?vid=5eee5bc5-b7b1-47cf-adcb-6d94f7f7f506","ios":"levelo://app?vid=5eee5bc5-b7b1-47cf-adcb-6d94f7f7f506"},"vehicle_type_id":"4","last_reported":1777134572,"current_range_meters":4400,"station_id":"ce4bgt92rcd13ifvqcf0","pricing_plan_id":"cebpf4jnsgd1na2vs0mg"},{"bike_id":"c7ac0306-6afc-4781-8692-f962ddfe1a23","system_id":"levelo_inurba_marseille","lat":43.32357,"lon":5.36762,"is_reserved":false,"is_disabled":false,"rental_uris":{"android":"levelo://app?vid=c7ac0306-6afc-4781-8692-f962ddfe1a23","ios":"levelo://app?vid=c7ac0306-6afc-4781-8692-f962ddfe1a23"},"vehicle_type_id":"4","last_reported":1777134572,"current_range_meters":4400,"station_id":"ce4bhsh2rcd13ifvqi2g","pricing_plan_id":"cebpf4jnsgd1na2vs0mg"},{"bike_id":"df1a8e09-bffc-4d2a-8649-1c4da0bc51b0","system_id":"levelo_inurba_marseille","lat":43.29582,"lon":5.37516,"is_reserved":false,"is_disabled":false,"rental_uris":{"android":"levelo://app?vid=df1a8e09-bffc-4d2a-8649-1c4da0bc51b0","ios":"levelo://app?vid=df1a8e09-bffc-4d2a-8649-1c4da0bc51b0"},"vehicle_type_id":"4","last_reported":1777134572,"current_range_meters":4400,"station_id":"ce4bgh92rcd13ifvqb50","pricing_plan_id":"cebpf4jnsgd1na2vs0mg"},{"bike_id":"f8b71621-9ee0-4284-b9b2-be8fa047ba8a","system_id":"levelo_inurba_marseille","lat":43.30128,"lon":5.43123,"is_reserved":false,"is_disabled":false,"rental_uris":{"android":"levelo://app?vid=f8b71621-9ee0-4284-b9b2-be8fa047ba8a","ios":"levelo://app?vid=f8b71621-9ee0-4284-b9b2-be8fa047ba8a"},"vehicle_type_id":"4","last_reported":1777134572,"current_range_meters":4400,"station_id":"st_d3js3co5814s73ftftug","pricing_plan_id":"cebpf4jnsgd1na2vs0mg"},{"bike_id":"f262acc8-4349-4d70-a7d7-eba95473e1cb","system_id":"levelo_inurba_marseille","lat":43.28102,"lon":5.37834,"is_reserved":false,"is_disabled":false,"rental_uris":{"android":"levelo://app?vid=f262acc8-4349-4d70-a7d7-eba95473e1cb","ios":"levelo://app?vid=f262acc8-4349-4d70-a7d7-eba95473e1cb"},"vehicle_type_id":"4","last_reported":1777134572,"current_range_meters":4400,"station_id":"ce4bha12rcd13ifvqee0","pricing_plan_id":"cebpf4jnsgd1na2vs0mg"},{"bike_id":"27cd71a7-0940-4415-a67f-21597fbf1cd9","system_id":"levelo_inurba_marseille","lat":43.33069,"lon":5.39064,"is_reserved":false,"is_disabled":false,"rental_uris":{"android":"levelo://app?vid=27cd71a7-0940-4415-a67f-21597fbf1cd9","ios":"levelo://app?vid=27cd71a7-0940-4415-a67f-21597fbf1cd9"},"vehicle_type_id":"4","last_reported":1777134572,"current_range_meters":4800,"station_id":"","pricing_plan_id":"cebpf4jnsgd1na2vs0mg"},{"bike_id":"f3660a28-0ee6-4a7d-b20e-935cdf2cc923","system_id":"levelo_inurba_marseille","lat":43.29962,"lon":5.38501,"is_reserved":false,"is_disabled":false,"rental_uris":{"android":"levelo://app?vid=f3660a28-0ee6-4a7d-b20e-935cdf2cc923","ios":"levelo://app?vid=f3660a28-0ee6-4a7d-b20e-935cdf2cc923"},"vehicle_type_id":"4","last_reported":1777134572,"current_range_meters":4800,"station_id":"ce4bgj92rcd13ifvqbd0","pricing_plan_id":"cebpf4jnsgd1na2vs0mg"},{"bike_id":"1d368fe1-0c8f-4a40-864c-b54082c58fa1","system_id":"levelo_inurba_marseille","lat":43.33539,"lon":5.37465,"is_reserved":false,"is_disabled":false,"rental_uris":{"android":"levelo://app?vid=1d368fe1-0c8f-4a40-864c-b54082c58fa1","ios":"levelo://app?vid=1d368fe1-0c8f-4a40-864c-b54082c58fa1"},"vehicle_type_id":"4","last_reported":1777134572,"current_range_meters":4800,"station_id":"st_d46tts09ee8s73dlu43g","pricing_plan_id":"cebpf4jnsgd1na2vs0mg"},{"bike_id":"5be0883e-9142-4b71-9b48-50fc24227f7d","system_id":"levelo_inurba_marseille","lat":43.24167,"lon":5.36395,"is_reserved":false,"is_disabled":false,"rental_uris":{"android":"levelo://app?vid=5be0883e-9142-4b71-9b48-50fc24227f7d","ios":"levelo://app?vid=5be0883e-9142-4b71-9b48-50fc24227f7d"},"vehicle_type_id":"4","last_reported":1777134572,"current_range_meters":4800,"station_id":"cpo36qri1sfpv3e86is0","pricing_plan_id":"cebpf4jnsgd1na2vs0mg"},{"bike_id":"641679f4-5197-45ac-a836-c1ccea5a0307","system_id":"levelo_inurba_marseille","lat":43.25488,"lon":5.37646,"is_reserved":false,"is_disabled":false,"rental_uris":{"android":"levelo://app?vid=641679f4-5197-45ac-a836-c1ccea5a0307","ios":"levelo://app?vid=641679f4-5197-45ac-a836-c1ccea5a0307"},"vehicle_type_id":"4","last_reported":1777134572,"current_range_meters":4800,"station_id":"ce4bhh12rcd13ifvqff0","pricing_plan_id":"cebpf4jnsgd1na2vs0mg"},{"bike_id":"09dca68d-a96e-4c7c-8c93-084a9274aaf6","system_id":"levelo_inurba_marseille","lat":43.22535,"lon":5.348278,"is_reserved":false,"is_disabled":false,"rental_uris":{"android":"levelo://app?vid=09dca68d-a96e-4c7c-8c93-084a9274aaf6","ios":"levelo://app?vid=09dca68d-a96e-4c7c-8c93-084a9274aaf6"},"vehicle_type_id":"4","last_reported":1777134572,"current_range_meters":4800,"station_id":"st_cvj5dfep6f1abm77gieg","pricing_plan_id":"cebpf4jnsgd1na2vs0mg"},{"bike_id":"12e3170c-3401-42a8-b7fb-4950b48d21a8","system_id":"levelo_inurba_marseille","lat":43.24176,"lon":5.36396,"is_reserved":false,"is_disabled":false,"rental_uris":{"android":"levelo://app?vid=12e3170c-3401-42a8-b7fb-4950b48d21a8","ios":"levelo://app?vid=12e3170c-3401-42a8-b7fb-4950b48d21a8"},"vehicle_type_id":"4","last_reported":1777134572,"current_range_meters":4800,"station_id":"cpo36qri1sfpv3e86is0","pricing_plan_id":"cebpf4jnsgd1na2vs0mg"},{"bike_id":"e4c05550-3c8b-465b-9688-1aee4c05f542","system_id":"levelo_inurba_marseille","lat":43.24366,"lon":5.37081,"is_reserved":false,"is_disabled":false,"rental_uris":{"android":"levelo://app?vid=e4c05550-3c8b-465b-9688-1aee4c05f542","ios":"levelo://app?vid=e4c05550-3c8b-465b-9688-1aee4c05f542"},"vehicle_type_id":"4","last_reported":1777134572,"current_range_meters":4800,"station_id":"ce4bhhh2rcd13ifvqfk0","pricing_plan_id":"cebpf4jnsgd1na2vs0mg"},{"bike_id":"4a8ab607-21da-40fb-bda2-279e688867e9","system_id":"levelo_inurba_marseille","lat":43.28708,"lon":5.39985,"is_reserved":false,"is_disabled":false,"rental_uris":{"android":"levelo://app?vid=4a8ab607-21da-40fb-bda2-279e688867e9","ios":"levelo://app?vid=4a8ab607-21da-40fb-bda2-279e688867e9"},"vehicle_type_id":"4","last_reported":1777134572,"current_range_meters":4800,"station_id":"ce4bho92rcd13ifvqh3g","pricing_plan_id":"cebpf4jnsgd1na2vs0mg"},{"bike_id":"659437c9-fde6-4cb5-8c57-c2853724a22e","system_id":"levelo_inurba_marseille","lat":43.29636,"lon":5.40614,"is_reserved":false,"is_disabled":false,"rental_uris":{"android":"levelo://app?vid=659437c9-fde6-4cb5-8c57-c2853724a22e","ios":"levelo://app?vid=659437c9-fde6-4cb5-8c57-c2853724a22e"},"vehicle_type_id":"4","last_reported":1777134572,"current_range_meters":4800,"station_id":"ce4bh0h2rcd13ifvqd60","pricing_plan_id":"cebpf4jnsgd1na2vs0mg"},{"bike_id":"745d9c85-028f-4beb-837f-34e50e789eb5","system_id":"levelo_inurba_marseille","lat":43.22554,"lon":5.41634,"is_reserved":false,"is_disabled":false,"rental_uris":{"android":"levelo://app?vid=745d9c85-028f-4beb-837f-34e50e789eb5","ios":"levelo://app?vid=745d9c85-028f-4beb-837f-34e50e789eb5"},"vehicle_type_id":"4","last_reported":1777134572,"current_range_meters":4800,"station_id":"st_d2o4gvlbi1j2169b742g","pricing_plan_id":"cebpf4jnsgd1na2vs0mg"},{"bike_id":"f42e5fd2-e9aa-492c-874c-61327075857b","system_id":"levelo_inurba_marseille","lat":43.23784,"lon":5.36632,"is_reserved":false,"is_disabled":false,"rental_uris":{"android":"levelo://app?vid=f42e5fd2-e9aa-492c-874c-61327075857b","ios":"levelo://app?vid=f42e5fd2-e9aa-492c-874c-61327075857b"},"vehicle_type_id":"4","last_reported":1777134572,"current_range_meters":5600,"station_id":"st_d3nk18o9ro0c73en2l3g","pricing_plan_id":"cebpf4jnsgd1na2vs0mg"},{"bike_id":"4e09535f-a46c-4fd9-8c4a-595683209474","system_id":"levelo_inurba_marseille","lat":43.23964,"lon":5.36641,"is_reserved":false,"is_disabled":false,"rental_uris":{"android":"levelo://app?vid=4e09535f-a46c-4fd9-8c4a-595683209474","ios":"levelo://app?vid=4e09535f-a46c-4fd9-8c4a-595683209474"},"vehicle_type_id":"4","last_reported":1777134572,"current_range_meters":5600,"station_id":"ce4bhi12rcd13ifvqfp0","pricing_plan_id":"cebpf4jnsgd1na2vs0mg"},{"bike_id":"f583c87a-2ff3-40f4-be38-36053ddc1b8f","system_id":"levelo_inurba_marseille","lat":43.29049,"lon":5.35917,"is_reserved":false,"is_disabled":false,"rental_uris":{"android":"levelo://app?vid=f583c87a-2ff3-40f4-be38-36053ddc1b8f","ios":"levelo://app?vid=f583c87a-2ff3-40f4-be38-36053ddc1b8f"},"vehicle_type_id":"4","last_reported":1777134572,"current_range_meters":5600,"station_id":"ce4bha92rcd13ifvqeg0","pricing_plan_id":"cebpf4jnsgd1na2vs0mg"},{"bike_id":"bfb00433-4595-473f-a8aa-5b6d3f9c89b7","system_id":"levelo_inurba_marseille","lat":43.29002,"lon":5.35592,"is_reserved":false,"is_disabled":true,"rental_uris":{"android":"levelo://app?vid=bfb00433-4595-473f-a8aa-5b6d3f9c89b7","ios":"levelo://app?vid=bfb00433-4595-473f-a8aa-5b6d3f9c89b7"},"vehicle_type_id":"4","last_reported":1777134572,"current_range_meters":5600,"station_id":"ce4bhb92rcd13ifvqen0","pricing_plan_id":"cebpf4jnsgd1na2vs0mg"},{"bike_id":"8c8d3a1e-3e2c-407c-b8ad-af868cc54226","system_id":"levelo_inurba_marseille","lat":43.294882,"lon":5.393907,"is_reserved":false,"is_disabled":false,"rental_uris":{"android":"levelo://app?vid=8c8d3a1e-3e2c-407c-b8ad-af868cc54226","ios":"levelo://app?vid=8c8d3a1e-3e2c-407c-b8ad-af868cc54226"},"vehicle_type_id":"4","last_reported":1777134572,"current_range_meters":5600,"station_id":"","pricing_plan_id":"cebpf4jnsgd1na2vs0mg"},{"bike_id":"f645e30b-5616-45b3-a17d-faf4a49d971d","system_id":"levelo_inurba_marseille","lat":43.31,"lon":5.37533,"is_reserved":false,"is_disabled":false,"rental_uris":{"android":"levelo://app?vid=f645e30b-5616-45b3-a17d-faf4a49d971d","ios":"levelo://app?vid=f645e30b-5616-45b3-a17d-faf4a49d971d"},"vehicle_type_id":"4","last_reported":1777134572,"current_range_meters":5600,"station_id":"","pricing_plan_id":"cebpf4jnsgd1na2vs0mg"},{"bike_id":"baf5e93f-baa0-4776-9800-afea43e9329e","system_id":"levelo_inurba_marseille","lat":43.23209,"lon":5.35528,"is_reserved":false,"is_disabled":false,"rental_uris":{"android":"levelo://app?vid=baf5e93f-baa0-4776-9800-afea43e9329e","ios":"levelo://app?vid=baf5e93f-baa0-4776-9800-afea43e9329e"},"vehicle_type_id":"4","last_reported":1777134572,"current_range_meters":5600,"station_id":"ce4bhu92rcd13ifvqi70","pricing_plan_id":"cebpf4jnsgd1na2vs0mg"},{"bike_id":"229e4557-384d-4a68-9d9c-a426b264692f","system_id":"levelo_inurba_marseille","lat":43.26013,"lon":5.37565,"is_reserved":false,"is_disabled":false,"rental_uris":{"android":"levelo://app?vid=229e4557-384d-4a68-9d9c-a426b264692f","ios":"levelo://app?vid=229e4557-384d-4a68-9d9c-a426b264692f"},"vehicle_type_id":"4","last_reported":1777134572,"current_range_meters":5600,"station_id":"ce4bhgh2rcd13ifvqfa0","pricing_plan_id":"cebpf4jnsgd1na2vs0mg"},{"bike_id":"a3dee876-3af2-46d4-9131-1dd0997e500a","system_id":"levelo_inurba_marseille","lat":43.24423,"lon":5.371,"is_reserved":false,"is_disabled":true,"rental_uris":{"android":"levelo://app?vid=a3dee876-3af2-46d4-9131-1dd0997e500a","ios":"levelo://app?vid=a3dee876-3af2-46d4-9131-1dd0997e500a"},"vehicle_type_id":"4","last_reported":1777134572,"current_range_meters":5600,"station_id":"ce4bhhh2rcd13ifvqfk0","pricing_plan_id":"cebpf4jnsgd1na2vs0mg"},{"bike_id":"5e24b500-6d09-48a3-8de7-51c8a68ea398","system_id":"levelo_inurba_marseille","lat":43.29333,"lon":5.37177,"is_reserved":false,"is_disabled":false,"rental_uris":{"android":"levelo://app?vid=5e24b500-6d09-48a3-8de7-51c8a68ea398","ios":"levelo://app?vid=5e24b500-6d09-48a3-8de7-51c8a68ea398"},"vehicle_type_id":"4","last_reported":1777134572,"current_range_meters":5600,"station_id":"ce4bgh92rcd13ifvqb40","pricing_plan_id":"cebpf4jnsgd1na2vs0mg"},{"bike_id":"63537266-84c7-4c8a-a2b4-541646f3c284","system_id":"levelo_inurba_marseille","lat":43.29577,"lon":5.37528,"is_reserved":false,"is_disabled":false,"rental_uris":{"android":"levelo://app?vid=63537266-84c7-4c8a-a2b4-541646f3c284","ios":"levelo://app?vid=63537266-84c7-4c8a-a2b4-541646f3c284"},"vehicle_type_id":"4","last_reported":1777134572,"current_range_meters":5600,"station_id":"ce4bgh92rcd13ifvqb50","pricing_plan_id":"cebpf4jnsgd1na2vs0mg"},{"bike_id":"dbf3e3f6-b336-4955-9f32-dc9ff23f6505","system_id":"levelo_inurba_marseille","lat":43.28369,"lon":5.38638,"is_reserved":false,"is_disabled":false,"rental_uris":{"android":"levelo://app?vid=dbf3e3f6-b336-4955-9f32-dc9ff23f6505","ios":"levelo://app?vid=dbf3e3f6-b336-4955-9f32-dc9ff23f6505"},"vehicle_type_id":"4","last_reported":1777134572,"current_range_meters":5600,"station_id":"ce4bh492rcd13ifvqdvg","pricing_plan_id":"cebpf4jnsgd1na2vs0mg"},{"bike_id":"6f9ea2e9-7454-4dbc-9337-741daa1f2311","system_id":"levelo_inurba_marseille","lat":43.2928,"lon":5.40111,"is_reserved":false,"is_disabled":false,"rental_uris":{"android":"levelo://app?vid=6f9ea2e9-7454-4dbc-9337-741daa1f2311","ios":"levelo://app?vid=6f9ea2e9-7454-4dbc-9337-741daa1f2311"},"vehicle_type_id":"4","last_reported":1777134572,"current_range_meters":5600,"station_id":"ce4bh312rcd13ifvqdk0","pricing_plan_id":"cebpf4jnsgd1na2vs0mg"},{"bike_id":"6b498e23-233c-44e7-bdf2-4e8481886ee3","system_id":"levelo_inurba_marseille","lat":43.25499,"lon":5.37689,"is_reserved":false,"is_disabled":false,"rental_uris":{"android":"levelo://app?vid=6b498e23-233c-44e7-bdf2-4e8481886ee3","ios":"levelo://app?vid=6b498e23-233c-44e7-bdf2-4e8481886ee3"},"vehicle_type_id":"4","last_reported":1777134572,"current_range_meters":5600,"station_id":"ce4bhh12rcd13ifvqff0","pricing_plan_id":"cebpf4jnsgd1na2vs0mg"},{"bike_id":"9e736a24-151b-4861-9d3c-68515cd11e0f","system_id":"levelo_inurba_marseille","lat":43.32087,"lon":5.36776,"is_reserved":false,"is_disabled":false,"rental_uris":{"android":"levelo://app?vid=9e736a24-151b-4861-9d3c-68515cd11e0f","ios":"levelo://app?vid=9e736a24-151b-4861-9d3c-68515cd11e0f"},"vehicle_type_id":"4","last_reported":1777134572,"current_range_meters":5600,"station_id":"ce4bhrh2rcd13ifvqhug","pricing_plan_id":"cebpf4jnsgd1na2vs0mg"},{"bike_id":"2fb12c66-0d48-4e8a-9f2c-bfeeeee40d5d","system_id":"levelo_inurba_marseille","lat":43.29531,"lon":5.39055,"is_reserved":false,"is_disabled":false,"rental_uris":{"android":"levelo://app?vid=2fb12c66-0d48-4e8a-9f2c-bfeeeee40d5d","ios":"levelo://app?vid=2fb12c66-0d48-4e8a-9f2c-bfeeeee40d5d"},"vehicle_type_id":"4","last_reported":1777134572,"current_range_meters":5600,"station_id":"ce4bh3p2rcd13ifvqdp0","pricing_plan_id":"cebpf4jnsgd1na2vs0mg"},{"bike_id":"959c53ca-e222-44fd-a2b9-db62f9b8decb","system_id":"levelo_inurba_marseille","lat":43.287018,"lon":5.400013,"is_reserved":false,"is_disabled":false,"rental_uris":{"android":"levelo://app?vid=959c53ca-e222-44fd-a2b9-db62f9b8decb","ios":"levelo://app?vid=959c53ca-e222-44fd-a2b9-db62f9b8decb"},"vehicle_type_id":"4","last_reported":1777134572,"current_range_meters":5600,"station_id":"ce4bho92rcd13ifvqh3g","pricing_plan_id":"cebpf4jnsgd1na2vs0mg"},{"bike_id":"19b203d7-33e0-4c92-9cd7-fcc55ccd08c0","system_id":"levelo_inurba_marseille","lat":43.30947,"lon":5.39032,"is_reserved":false,"is_disabled":false,"rental_uris":{"android":"levelo://app?vid=19b203d7-33e0-4c92-9cd7-fcc55ccd08c0","ios":"levelo://app?vid=19b203d7-33e0-4c92-9cd7-fcc55ccd08c0"},"vehicle_type_id":"4","last_reported":1777134572,"current_range_meters":6000,"station_id":"ce4bgup2rcd13ifvqco0","pricing_plan_id":"cebpf4jnsgd1na2vs0mg"},{"bike_id":"0ce641a1-ca62-4f05-b894-4a72f77b98f2","system_id":"levelo_inurba_marseille","lat":43.32362,"lon":5.36746,"is_reserved":false,"is_disabled":false,"rental_uris":{"android":"levelo://app?vid=0ce641a1-ca62-4f05-b894-4a72f77b98f2","ios":"levelo://app?vid=0ce641a1-ca62-4f05-b894-4a72f77b98f2"},"vehicle_type_id":"4","last_reported":1777134572,"current_range_meters":6000,"station_id":"ce4bhsh2rcd13ifvqi2g","pricing_plan_id":"cebpf4jnsgd1na2vs0mg"},{"bike_id":"a5852bfe-dd4a-49ad-99ce-389ba013aeb1","system_id":"levelo_inurba_marseille","lat":43.29262,"lon":5.38446,"is_reserved":false,"is_disabled":false,"rental_uris":{"android":"levelo://app?vid=a5852bfe-dd4a-49ad-99ce-389ba013aeb1","ios":"levelo://app?vid=a5852bfe-dd4a-49ad-99ce-389ba013aeb1"},"vehicle_type_id":"4","last_reported":1777134572,"current_range_meters":6000,"station_id":"ce4bh692rcd13ifvqea0","pricing_plan_id":"cebpf4jnsgd1na2vs0mg"},{"bike_id":"0d87082b-98b9-4190-b54f-6a2663de4ebe","system_id":"levelo_inurba_marseille","lat":43.29311,"lon":5.37179,"is_reserved":false,"is_disabled":false,"rental_uris":{"android":"levelo://app?vid=0d87082b-98b9-4190-b54f-6a2663de4ebe","ios":"levelo://app?vid=0d87082b-98b9-4190-b54f-6a2663de4ebe"},"vehicle_type_id":"4","last_reported":1777134572,"current_range_meters":6000,"station_id":"ce4bgh92rcd13ifvqb40","pricing_plan_id":"cebpf4jnsgd1na2vs0mg"},{"bike_id":"1da117f2-f893-4ac3-99f7-852c0750949e","system_id":"levelo_inurba_marseille","lat":43.2763,"lon":5.36125,"is_reserved":false,"is_disabled":false,"rental_uris":{"android":"levelo://app?vid=1da117f2-f893-4ac3-99f7-852c0750949e","ios":"levelo://app?vid=1da117f2-f893-4ac3-99f7-852c0750949e"},"vehicle_type_id":"4","last_reported":1777134572,"current_range_meters":6000,"station_id":"ce4bgj92rcd13ifvqbe0","pricing_plan_id":"cebpf4jnsgd1na2vs0mg"},{"bike_id":"45ad0d0e-efdd-4c05-bbcd-19b309dc3892","system_id":"levelo_inurba_marseille","lat":43.27996,"lon":5.41688,"is_reserved":false,"is_disabled":false,"rental_uris":{"android":"levelo://app?vid=45ad0d0e-efdd-4c05-bbcd-19b309dc3892","ios":"levelo://app?vid=45ad0d0e-efdd-4c05-bbcd-19b309dc3892"},"vehicle_type_id":"4","last_reported":1777134572,"current_range_meters":6000,"station_id":"ce4bho12rcd13ifvqh1g","pricing_plan_id":"cebpf4jnsgd1na2vs0mg"},{"bike_id":"3c21f0ef-7f78-49a9-8bbf-12a3b7f18f2e","system_id":"levelo_inurba_marseille","lat":43.27496,"lon":5.42451,"is_reserved":false,"is_disabled":false,"rental_uris":{"android":"levelo://app?vid=3c21f0ef-7f78-49a9-8bbf-12a3b7f18f2e","ios":"levelo://app?vid=3c21f0ef-7f78-49a9-8bbf-12a3b7f18f2e"},"vehicle_type_id":"4","last_reported":1777134572,"current_range_meters":6000,"station_id":"ce4bhn92rcd13ifvqgrg","pricing_plan_id":"cebpf4jnsgd1na2vs0mg"},{"bike_id":"9278db47-07ec-490b-96cb-556e160c5c2f","system_id":"levelo_inurba_marseille","lat":43.2967,"lon":5.38018,"is_reserved":false,"is_disabled":false,"rental_uris":{"android":"levelo://app?vid=9278db47-07ec-490b-96cb-556e160c5c2f","ios":"levelo://app?vid=9278db47-07ec-490b-96cb-556e160c5c2f"},"vehicle_type_id":"4","last_reported":1777134572,"current_range_meters":6000,"station_id":"","pricing_plan_id":"cebpf4jnsgd1na2vs0mg"},{"bike_id":"dfc07030-c1d4-4fa1-ba24-2372f7a0b101","system_id":"levelo_inurba_marseille","lat":43.29586,"lon":5.37508,"is_reserved":false,"is_disabled":false,"rental_uris":{"android":"levelo://app?vid=dfc07030-c1d4-4fa1-ba24-2372f7a0b101","ios":"levelo://app?vid=dfc07030-c1d4-4fa1-ba24-2372f7a0b101"},"vehicle_type_id":"4","last_reported":1777134572,"current_range_meters":6000,"station_id":"ce4bgh92rcd13ifvqb50","pricing_plan_id":"cebpf4jnsgd1na2vs0mg"},{"bike_id":"75471a09-e4ee-4438-b4e9-ebcc3c66f359","system_id":"levelo_inurba_marseille","lat":43.21198,"lon":5.35068,"is_reserved":false,"is_disabled":false,"rental_uris":{"android":"levelo://app?vid=75471a09-e4ee-4438-b4e9-ebcc3c66f359","ios":"levelo://app?vid=75471a09-e4ee-4438-b4e9-ebcc3c66f359"},"vehicle_type_id":"4","last_reported":1777134572,"current_range_meters":6000,"station_id":"st_cvj6sg6p6f1abm77japg","pricing_plan_id":"cebpf4jnsgd1na2vs0mg"},{"bike_id":"5c73441f-3997-44ce-a4e1-69b1f068869f","system_id":"levelo_inurba_marseille","lat":43.29544,"lon":5.37521,"is_reserved":false,"is_disabled":false,"rental_uris":{"android":"levelo://app?vid=5c73441f-3997-44ce-a4e1-69b1f068869f","ios":"levelo://app?vid=5c73441f-3997-44ce-a4e1-69b1f068869f"},"vehicle_type_id":"4","last_reported":1777134572,"current_range_meters":6000,"station_id":"ce4bgkp2rcd13ifvqbmg","pricing_plan_id":"cebpf4jnsgd1na2vs0mg"},{"bike_id":"3fb466cd-aa6e-4b7e-b1b8-899f5bde5a01","system_id":"levelo_inurba_marseille","lat":43.29318,"lon":5.37181,"is_reserved":false,"is_disabled":false,"rental_uris":{"android":"levelo://app?vid=3fb466cd-aa6e-4b7e-b1b8-899f5bde5a01","ios":"levelo://app?vid=3fb466cd-aa6e-4b7e-b1b8-899f5bde5a01"},"vehicle_type_id":"4","last_reported":1777134572,"current_range_meters":6000,"station_id":"ce4bgh92rcd13ifvqb40","pricing_plan_id":"cebpf4jnsgd1na2vs0mg"},{"bike_id":"bfb99aa3-f97d-4b55-be0c-9a3ca853e319","system_id":"levelo_inurba_marseille","lat":43.28036,"lon":5.36957,"is_reserved":false,"is_disabled":false,"rental_uris":{"android":"levelo://app?vid=bfb99aa3-f97d-4b55-be0c-9a3ca853e319","ios":"levelo://app?vid=bfb99aa3-f97d-4b55-be0c-9a3ca853e319"},"vehicle_type_id":"4","last_reported":1777134572,"current_range_meters":6000,"station_id":"ce4bha12rcd13ifvqef0","pricing_plan_id":"cebpf4jnsgd1na2vs0mg"},{"bike_id":"318b0f19-64fa-4af9-92a2-6b5d9e2e4a7b","system_id":"levelo_inurba_marseille","lat":43.21195,"lon":5.35051,"is_reserved":false,"is_disabled":false,"rental_uris":{"android":"levelo://app?vid=318b0f19-64fa-4af9-92a2-6b5d9e2e4a7b","ios":"levelo://app?vid=318b0f19-64fa-4af9-92a2-6b5d9e2e4a7b"},"vehicle_type_id":"4","last_reported":1777134572,"current_range_meters":6000,"station_id":"st_cvj6sg6p6f1abm77japg","pricing_plan_id":"cebpf4jnsgd1na2vs0mg"},{"bike_id":"5091d3df-140a-4a96-ba1e-f44ab742c57b","system_id":"levelo_inurba_marseille","lat":43.2318,"lon":5.39995,"is_reserved":false,"is_disabled":true,"rental_uris":{"android":"levelo://app?vid=5091d3df-140a-4a96-ba1e-f44ab742c57b","ios":"levelo://app?vid=5091d3df-140a-4a96-ba1e-f44ab742c57b"},"vehicle_type_id":"4","last_reported":1777134572,"current_range_meters":6000,"station_id":"ce4bhn12rcd13ifvqgqg","pricing_plan_id":"cebpf4jnsgd1na2vs0mg"},{"bike_id":"104fd012-0591-4808-a3f9-8f0a2aec1db6","system_id":"levelo_inurba_marseille","lat":43.30898,"lon":5.3719,"is_reserved":false,"is_disabled":false,"rental_uris":{"android":"levelo://app?vid=104fd012-0591-4808-a3f9-8f0a2aec1db6","ios":"levelo://app?vid=104fd012-0591-4808-a3f9-8f0a2aec1db6"},"vehicle_type_id":"4","last_reported":1777134572,"current_range_meters":6400,"station_id":"ce4bguh2rcd13ifvqckg","pricing_plan_id":"cebpf4jnsgd1na2vs0mg"},{"bike_id":"54dd0309-49d2-49f6-bbb2-520a1e5622f4","system_id":"levelo_inurba_marseille","lat":43.24166,"lon":5.36398,"is_reserved":false,"is_disabled":false,"rental_uris":{"android":"levelo://app?vid=54dd0309-49d2-49f6-bbb2-520a1e5622f4","ios":"levelo://app?vid=54dd0309-49d2-49f6-bbb2-520a1e5622f4"},"vehicle_type_id":"4","last_reported":1777134572,"current_range_meters":6400,"station_id":"cpo36qri1sfpv3e86is0","pricing_plan_id":"cebpf4jnsgd1na2vs0mg"},{"bike_id":"c0126e79-e455-4033-aa6f-9cd2537e8b04","system_id":"levelo_inurba_marseille","lat":43.28706,"lon":5.46682,"is_reserved":false,"is_disabled":false,"rental_uris":{"android":"levelo://app?vid=c0126e79-e455-4033-aa6f-9cd2537e8b04","ios":"levelo://app?vid=c0126e79-e455-4033-aa6f-9cd2537e8b04"},"vehicle_type_id":"4","last_reported":1777134572,"current_range_meters":6400,"station_id":"st_d6tc3vkotcvc738tfjhg","pricing_plan_id":"cebpf4jnsgd1na2vs0mg"},{"bike_id":"2620bef1-15d7-4444-b0bb-8d457fc8da10","system_id":"levelo_inurba_marseille","lat":43.29581,"lon":5.37521,"is_reserved":false,"is_disabled":false,"rental_uris":{"android":"levelo://app?vid=2620bef1-15d7-4444-b0bb-8d457fc8da10","ios":"levelo://app?vid=2620bef1-15d7-4444-b0bb-8d457fc8da10"},"vehicle_type_id":"4","last_reported":1777134572,"current_range_meters":6400,"station_id":"ce4bgh92rcd13ifvqb50","pricing_plan_id":"cebpf4jnsgd1na2vs0mg"},{"bike_id":"aa897415-67a0-4b07-b64e-cbc8da7d4792","system_id":"levelo_inurba_marseille","lat":43.24162,"lon":5.36434,"is_reserved":false,"is_disabled":false,"rental_uris":{"android":"levelo://app?vid=aa897415-67a0-4b07-b64e-cbc8da7d4792","ios":"levelo://app?vid=aa897415-67a0-4b07-b64e-cbc8da7d4792"},"vehicle_type_id":"4","last_reported":1777134572,"current_range_meters":6400,"station_id":"cpo36qri1sfpv3e86is0","pricing_plan_id":"cebpf4jnsgd1na2vs0mg"},{"bike_id":"7c7a6e62-e130-431f-b3ec-a07feec308d8","system_id":"levelo_inurba_marseille","lat":43.22703,"lon":5.34817,"is_reserved":false,"is_disabled":false,"rental_uris":{"android":"levelo://app?vid=7c7a6e62-e130-431f-b3ec-a07feec308d8","ios":"levelo://app?vid=7c7a6e62-e130-431f-b3ec-a07feec308d8"},"vehicle_type_id":"4","last_reported":1777134572,"current_range_meters":6400,"station_id":"","pricing_plan_id":"cebpf4jnsgd1na2vs0mg"},{"bike_id":"9bcb5bad-dbb2-431c-9005-5d79941461cd","system_id":"levelo_inurba_marseille","lat":43.24424,"lon":5.37085,"is_reserved":false,"is_disabled":false,"rental_uris":{"android":"levelo://app?vid=9bcb5bad-dbb2-431c-9005-5d79941461cd","ios":"levelo://app?vid=9bcb5bad-dbb2-431c-9005-5d79941461cd"},"vehicle_type_id":"4","last_reported":1777134572,"current_range_meters":6400,"station_id":"ce4bhhh2rcd13ifvqfk0","pricing_plan_id":"cebpf4jnsgd1na2vs0mg"},{"bike_id":"6b47eb43-6f8f-4580-9086-245580b67e91","system_id":"levelo_inurba_marseille","lat":43.30662,"lon":5.40132,"is_reserved":false,"is_disabled":false,"rental_uris":{"android":"levelo://app?vid=6b47eb43-6f8f-4580-9086-245580b67e91","ios":"levelo://app?vid=6b47eb43-6f8f-4580-9086-245580b67e91"},"vehicle_type_id":"4","last_reported":1777134572,"current_range_meters":6400,"station_id":"ce4bh112rcd13ifvqda0","pricing_plan_id":"cebpf4jnsgd1na2vs0mg"},{"bike_id":"021c3599-d960-4255-bf18-8b3b47549997","system_id":"levelo_inurba_marseille","lat":43.30191,"lon":5.43091,"is_reserved":false,"is_disabled":false,"rental_uris":{"android":"levelo://app?vid=021c3599-d960-4255-bf18-8b3b47549997","ios":"levelo://app?vid=021c3599-d960-4255-bf18-8b3b47549997"},"vehicle_type_id":"4","last_reported":1777134572,"current_range_meters":6400,"station_id":"st_d3js3co5814s73ftftug","pricing_plan_id":"cebpf4jnsgd1na2vs0mg"},{"bike_id":"57443e64-9494-4a6b-a7e2-b11ee40ab1d9","system_id":"levelo_inurba_marseille","lat":43.30559,"lon":5.36681,"is_reserved":false,"is_disabled":false,"rental_uris":{"android":"levelo://app?vid=57443e64-9494-4a6b-a7e2-b11ee40ab1d9","ios":"levelo://app?vid=57443e64-9494-4a6b-a7e2-b11ee40ab1d9"},"vehicle_type_id":"4","last_reported":1777134572,"current_range_meters":6400,"station_id":"ce4bgrp2rcd13ifvqc9g","pricing_plan_id":"cebpf4jnsgd1na2vs0mg"},{"bike_id":"b14c6416-724a-4ae0-8e0d-0a861e3a9f05","system_id":"levelo_inurba_marseille","lat":43.262151,"lon":5.374409,"is_reserved":false,"is_disabled":false,"rental_uris":{"android":"levelo://app?vid=b14c6416-724a-4ae0-8e0d-0a861e3a9f05","ios":"levelo://app?vid=b14c6416-724a-4ae0-8e0d-0a861e3a9f05"},"vehicle_type_id":"4","last_reported":1777134572,"current_range_meters":6400,"station_id":"ce4bhgp2rcd13ifvqfc0","pricing_plan_id":"cebpf4jnsgd1na2vs0mg"},{"bike_id":"3a7af906-0790-4ba8-a393-cbfdee65fb09","system_id":"levelo_inurba_marseille","lat":43.27075,"lon":5.42285,"is_reserved":false,"is_disabled":false,"rental_uris":{"android":"levelo://app?vid=3a7af906-0790-4ba8-a393-cbfdee65fb09","ios":"levelo://app?vid=3a7af906-0790-4ba8-a393-cbfdee65fb09"},"vehicle_type_id":"4","last_reported":1777134572,"current_range_meters":6400,"station_id":"ce4bhk92rcd13ifvqgb0","pricing_plan_id":"cebpf4jnsgd1na2vs0mg"},{"bike_id":"47cc7247-b622-46cd-b993-fa564205db38","system_id":"levelo_inurba_marseille","lat":43.2657,"lon":5.39013,"is_reserved":false,"is_disabled":false,"rental_uris":{"android":"levelo://app?vid=47cc7247-b622-46cd-b993-fa564205db38","ios":"levelo://app?vid=47cc7247-b622-46cd-b993-fa564205db38"},"vehicle_type_id":"4","last_reported":1777134572,"current_range_meters":6400,"station_id":"ce4bhe12rcd13ifvqf30","pricing_plan_id":"cebpf4jnsgd1na2vs0mg"},{"bike_id":"9c69c0ac-cb2e-4800-8ae4-d6005fd24f62","system_id":"levelo_inurba_marseille","lat":43.29895,"lon":5.38922,"is_reserved":false,"is_disabled":false,"rental_uris":{"android":"levelo://app?vid=9c69c0ac-cb2e-4800-8ae4-d6005fd24f62","ios":"levelo://app?vid=9c69c0ac-cb2e-4800-8ae4-d6005fd24f62"},"vehicle_type_id":"4","last_reported":1777134572,"current_range_meters":6400,"station_id":"ce4bh392rcd13ifvqdl0","pricing_plan_id":"cebpf4jnsgd1na2vs0mg"},{"bike_id":"70f5d3ac-66a3-4d57-931d-dbe404bb386c","system_id":"levelo_inurba_marseille","lat":43.29263,"lon":5.38442,"is_reserved":false,"is_disabled":false,"rental_uris":{"android":"levelo://app?vid=70f5d3ac-66a3-4d57-931d-dbe404bb386c","ios":"levelo://app?vid=70f5d3ac-66a3-4d57-931d-dbe404bb386c"},"vehicle_type_id":"4","last_reported":1777134572,"current_range_meters":6400,"station_id":"ce4bh692rcd13ifvqea0","pricing_plan_id":"cebpf4jnsgd1na2vs0mg"},{"bike_id":"071eb1fd-1dcf-4e3a-a611-a7bf2415e8af","system_id":"levelo_inurba_marseille","lat":43.26032,"lon":5.37564,"is_reserved":false,"is_disabled":false,"rental_uris":{"android":"levelo://app?vid=071eb1fd-1dcf-4e3a-a611-a7bf2415e8af","ios":"levelo://app?vid=071eb1fd-1dcf-4e3a-a611-a7bf2415e8af"},"vehicle_type_id":"4","last_reported":1777134572,"current_range_meters":6800,"station_id":"ce4bhgh2rcd13ifvqfa0","pricing_plan_id":"cebpf4jnsgd1na2vs0mg"},{"bike_id":"da151389-e78f-4a80-84fe-4e4e4914dbe6","system_id":"levelo_inurba_marseille","lat":43.26569,"lon":5.37321,"is_reserved":false,"is_disabled":false,"rental_uris":{"android":"levelo://app?vid=da151389-e78f-4a80-84fe-4e4e4914dbe6","ios":"levelo://app?vid=da151389-e78f-4a80-84fe-4e4e4914dbe6"},"vehicle_type_id":"4","last_reported":1777134572,"current_range_meters":6800,"station_id":"ce4bhg12rcd13ifvqf70","pricing_plan_id":"cebpf4jnsgd1na2vs0mg"},{"bike_id":"4bbbb14a-8fcc-43d3-a29a-3f8be7e2f321","system_id":"levelo_inurba_marseille","lat":43.29351,"lon":5.37212,"is_reserved":false,"is_disabled":false,"rental_uris":{"android":"levelo://app?vid=4bbbb14a-8fcc-43d3-a29a-3f8be7e2f321","ios":"levelo://app?vid=4bbbb14a-8fcc-43d3-a29a-3f8be7e2f321"},"vehicle_type_id":"4","last_reported":1777134572,"current_range_meters":6800,"station_id":"","pricing_plan_id":"cebpf4jnsgd1na2vs0mg"},{"bike_id":"a9afd410-904d-46b2-9716-d6e308b952c4","system_id":"levelo_inurba_marseille","lat":43.29581,"lon":5.37525,"is_reserved":false,"is_disabled":false,"rental_uris":{"android":"levelo://app?vid=a9afd410-904d-46b2-9716-d6e308b952c4","ios":"levelo://app?vid=a9afd410-904d-46b2-9716-d6e308b952c4"},"vehicle_type_id":"4","last_reported":1777134572,"current_range_meters":6800,"station_id":"ce4bgh92rcd13ifvqb50","pricing_plan_id":"cebpf4jnsgd1na2vs0mg"},{"bike_id":"64448080-9e2b-4a6e-a5eb-fd7381764743","system_id":"levelo_inurba_marseille","lat":43.24834,"lon":5.37461,"is_reserved":false,"is_disabled":false,"rental_uris":{"android":"levelo://app?vid=64448080-9e2b-4a6e-a5eb-fd7381764743","ios":"levelo://app?vid=64448080-9e2b-4a6e-a5eb-fd7381764743"},"vehicle_type_id":"4","last_reported":1777134572,"current_range_meters":6800,"station_id":"","pricing_plan_id":"cebpf4jnsgd1na2vs0mg"},{"bike_id":"90610949-5042-40f1-8252-076aeddd7d81","system_id":"levelo_inurba_marseille","lat":43.31902,"lon":5.36837,"is_reserved":false,"is_disabled":false,"rental_uris":{"android":"levelo://app?vid=90610949-5042-40f1-8252-076aeddd7d81","ios":"levelo://app?vid=90610949-5042-40f1-8252-076aeddd7d81"},"vehicle_type_id":"4","last_reported":1777134572,"current_range_meters":6800,"station_id":"st_d6o2h0d0559c73evc1b0","pricing_plan_id":"cebpf4jnsgd1na2vs0mg"},{"bike_id":"a390dd0d-d25a-478a-b510-865e242fb587","system_id":"levelo_inurba_marseille","lat":43.27319,"lon":5.39071,"is_reserved":false,"is_disabled":false,"rental_uris":{"android":"levelo://app?vid=a390dd0d-d25a-478a-b510-865e242fb587","ios":"levelo://app?vid=a390dd0d-d25a-478a-b510-865e242fb587"},"vehicle_type_id":"4","last_reported":1777134572,"current_range_meters":6800,"station_id":"ce4bhgp2rcd13ifvqfe0","pricing_plan_id":"cebpf4jnsgd1na2vs0mg"},{"bike_id":"47cdfd85-c850-4193-aaa5-b5a23a2b2f3d","system_id":"levelo_inurba_marseille","lat":43.31096,"lon":5.37235,"is_reserved":false,"is_disabled":false,"rental_uris":{"android":"levelo://app?vid=47cdfd85-c850-4193-aaa5-b5a23a2b2f3d","ios":"levelo://app?vid=47cdfd85-c850-4193-aaa5-b5a23a2b2f3d"},"vehicle_type_id":"4","last_reported":1777134572,"current_range_meters":6800,"station_id":"st_d4kl2rp97mjs73e7tdfg","pricing_plan_id":"cebpf4jnsgd1na2vs0mg"},{"bike_id":"1b220113-281c-47e6-acd7-9d49e8223553","system_id":"levelo_inurba_marseille","lat":43.26032,"lon":5.37558,"is_reserved":false,"is_disabled":false,"rental_uris":{"android":"levelo://app?vid=1b220113-281c-47e6-acd7-9d49e8223553","ios":"levelo://app?vid=1b220113-281c-47e6-acd7-9d49e8223553"},"vehicle_type_id":"4","last_reported":1777134572,"current_range_meters":6800,"station_id":"ce4bhgh2rcd13ifvqfa0","pricing_plan_id":"cebpf4jnsgd1na2vs0mg"},{"bike_id":"08730050-ea82-4d71-ab39-3bb3d89fa620","system_id":"levelo_inurba_marseille","lat":43.2252,"lon":5.34813,"is_reserved":false,"is_disabled":false,"rental_uris":{"android":"levelo://app?vid=08730050-ea82-4d71-ab39-3bb3d89fa620","ios":"levelo://app?vid=08730050-ea82-4d71-ab39-3bb3d89fa620"},"vehicle_type_id":"4","last_reported":1777134572,"current_range_meters":6800,"station_id":"st_cvj5dfep6f1abm77gieg","pricing_plan_id":"cebpf4jnsgd1na2vs0mg"},{"bike_id":"8b7c62ad-8abe-465b-915b-910b5410de34","system_id":"levelo_inurba_marseille","lat":43.27618,"lon":5.36105,"is_reserved":false,"is_disabled":false,"rental_uris":{"android":"levelo://app?vid=8b7c62ad-8abe-465b-915b-910b5410de34","ios":"levelo://app?vid=8b7c62ad-8abe-465b-915b-910b5410de34"},"vehicle_type_id":"4","last_reported":1777134572,"current_range_meters":6800,"station_id":"ce4bgj92rcd13ifvqbe0","pricing_plan_id":"cebpf4jnsgd1na2vs0mg"},{"bike_id":"541dbded-315f-4ca8-ac49-47fcb4294bb7","system_id":"levelo_inurba_marseille","lat":43.33538,"lon":5.37473,"is_reserved":false,"is_disabled":false,"rental_uris":{"android":"levelo://app?vid=541dbded-315f-4ca8-ac49-47fcb4294bb7","ios":"levelo://app?vid=541dbded-315f-4ca8-ac49-47fcb4294bb7"},"vehicle_type_id":"4","last_reported":1777134572,"current_range_meters":6800,"station_id":"st_d46tts09ee8s73dlu43g","pricing_plan_id":"cebpf4jnsgd1na2vs0mg"},{"bike_id":"f37ff45f-a1b0-4582-a0db-6e653a17a919","system_id":"levelo_inurba_marseille","lat":43.28438,"lon":5.3503,"is_reserved":false,"is_disabled":false,"rental_uris":{"android":"levelo://app?vid=f37ff45f-a1b0-4582-a0db-6e653a17a919","ios":"levelo://app?vid=f37ff45f-a1b0-4582-a0db-6e653a17a919"},"vehicle_type_id":"4","last_reported":1777134572,"current_range_meters":6800,"station_id":"","pricing_plan_id":"cebpf4jnsgd1na2vs0mg"},{"bike_id":"3b94531d-5ff3-4638-a720-82a1644c8c8d","system_id":"levelo_inurba_marseille","lat":43.279626,"lon":5.38749,"is_reserved":false,"is_disabled":false,"rental_uris":{"android":"levelo://app?vid=3b94531d-5ff3-4638-a720-82a1644c8c8d","ios":"levelo://app?vid=3b94531d-5ff3-4638-a720-82a1644c8c8d"},"vehicle_type_id":"4","last_reported":1777134572,"current_range_meters":6800,"station_id":"ce4bhg12rcd13ifvqf80","pricing_plan_id":"cebpf4jnsgd1na2vs0mg"},{"bike_id":"a3271aed-3b32-4bf6-90ca-f2b8d085efc0","system_id":"levelo_inurba_marseille","lat":43.24837,"lon":5.37454,"is_reserved":false,"is_disabled":false,"rental_uris":{"android":"levelo://app?vid=a3271aed-3b32-4bf6-90ca-f2b8d085efc0","ios":"levelo://app?vid=a3271aed-3b32-4bf6-90ca-f2b8d085efc0"},"vehicle_type_id":"4","last_reported":1777134572,"current_range_meters":6800,"station_id":"","pricing_plan_id":"cebpf4jnsgd1na2vs0mg"},{"bike_id":"844ce041-ed98-419f-b136-b38b3b6b3046","system_id":"levelo_inurba_marseille","lat":43.28943,"lon":5.36641,"is_reserved":false,"is_disabled":false,"rental_uris":{"android":"levelo://app?vid=844ce041-ed98-419f-b136-b38b3b6b3046","ios":"levelo://app?vid=844ce041-ed98-419f-b136-b38b3b6b3046"},"vehicle_type_id":"4","last_reported":1777134572,"current_range_meters":6800,"station_id":"ce4bhap2rcd13ifvqek0","pricing_plan_id":"cebpf4jnsgd1na2vs0mg"},{"bike_id":"8d715502-1f4d-495a-aba7-e255ad4122f8","system_id":"levelo_inurba_marseille","lat":43.23959,"lon":5.36624,"is_reserved":false,"is_disabled":false,"rental_uris":{"android":"levelo://app?vid=8d715502-1f4d-495a-aba7-e255ad4122f8","ios":"levelo://app?vid=8d715502-1f4d-495a-aba7-e255ad4122f8"},"vehicle_type_id":"4","last_reported":1777134572,"current_range_meters":7200,"station_id":"ce4bhi12rcd13ifvqfp0","pricing_plan_id":"cebpf4jnsgd1na2vs0mg"},{"bike_id":"ecb4ac87-3fab-4392-9d43-71e6a61add32","system_id":"levelo_inurba_marseille","lat":43.28482,"lon":5.38764,"is_reserved":false,"is_disabled":false,"rental_uris":{"android":"levelo://app?vid=ecb4ac87-3fab-4392-9d43-71e6a61add32","ios":"levelo://app?vid=ecb4ac87-3fab-4392-9d43-71e6a61add32"},"vehicle_type_id":"4","last_reported":1777134572,"current_range_meters":7200,"station_id":"","pricing_plan_id":"cebpf4jnsgd1na2vs0mg"},{"bike_id":"e5bab3d4-51df-40f4-acb7-898a38cfd436","system_id":"levelo_inurba_marseille","lat":43.21193,"lon":5.35075,"is_reserved":false,"is_disabled":false,"rental_uris":{"android":"levelo://app?vid=e5bab3d4-51df-40f4-acb7-898a38cfd436","ios":"levelo://app?vid=e5bab3d4-51df-40f4-acb7-898a38cfd436"},"vehicle_type_id":"4","last_reported":1777134572,"current_range_meters":7200,"station_id":"st_cvj6sg6p6f1abm77japg","pricing_plan_id":"cebpf4jnsgd1na2vs0mg"},{"bike_id":"36fe2575-22d8-45fc-b110-398032622606","system_id":"levelo_inurba_marseille","lat":43.28478,"lon":5.38443,"is_reserved":false,"is_disabled":true,"rental_uris":{"android":"levelo://app?vid=36fe2575-22d8-45fc-b110-398032622606","ios":"levelo://app?vid=36fe2575-22d8-45fc-b110-398032622606"},"vehicle_type_id":"4","last_reported":1777134572,"current_range_meters":7200,"station_id":"ce4bh512rcd13ifvqe3g","pricing_plan_id":"cebpf4jnsgd1na2vs0mg"},{"bike_id":"ef80368e-91b9-4fc1-92df-3cb7ef762788","system_id":"levelo_inurba_marseille","lat":43.27813,"lon":5.40715,"is_reserved":false,"is_disabled":false,"rental_uris":{"android":"levelo://app?vid=ef80368e-91b9-4fc1-92df-3cb7ef762788","ios":"levelo://app?vid=ef80368e-91b9-4fc1-92df-3cb7ef762788"},"vehicle_type_id":"4","last_reported":1777134572,"current_range_meters":7200,"station_id":"ce4bhnh2rcd13ifvqgtg","pricing_plan_id":"cebpf4jnsgd1na2vs0mg"},{"bike_id":"bcfbc128-d285-4d78-bf51-560ef0a60c72","system_id":"levelo_inurba_marseille","lat":43.28479,"lon":5.48399,"is_reserved":false,"is_disabled":false,"rental_uris":{"android":"levelo://app?vid=bcfbc128-d285-4d78-bf51-560ef0a60c72","ios":"levelo://app?vid=bcfbc128-d285-4d78-bf51-560ef0a60c72"},"vehicle_type_id":"4","last_reported":1777134572,"current_range_meters":7200,"station_id":"","pricing_plan_id":"cebpf4jnsgd1na2vs0mg"},{"bike_id":"6a1cfa44-424c-4486-9c1d-4dd666a8eeca","system_id":"levelo_inurba_marseille","lat":43.21177,"lon":5.35084,"is_reserved":false,"is_disabled":false,"rental_uris":{"android":"levelo://app?vid=6a1cfa44-424c-4486-9c1d-4dd666a8eeca","ios":"levelo://app?vid=6a1cfa44-424c-4486-9c1d-4dd666a8eeca"},"vehicle_type_id":"4","last_reported":1777134572,"current_range_meters":7200,"station_id":"st_cvj6sg6p6f1abm77japg","pricing_plan_id":"cebpf4jnsgd1na2vs0mg"},{"bike_id":"dfe14d43-4d46-408a-92f1-f1cd6634ddfc","system_id":"levelo_inurba_marseille","lat":43.29265,"lon":5.38436,"is_reserved":false,"is_disabled":false,"rental_uris":{"android":"levelo://app?vid=dfe14d43-4d46-408a-92f1-f1cd6634ddfc","ios":"levelo://app?vid=dfe14d43-4d46-408a-92f1-f1cd6634ddfc"},"vehicle_type_id":"4","last_reported":1777134572,"current_range_meters":7200,"station_id":"ce4bh692rcd13ifvqea0","pricing_plan_id":"cebpf4jnsgd1na2vs0mg"},{"bike_id":"85e28e2a-2421-4551-a813-382122811cec","system_id":"levelo_inurba_marseille","lat":43.31899,"lon":5.36777,"is_reserved":false,"is_disabled":false,"rental_uris":{"android":"levelo://app?vid=85e28e2a-2421-4551-a813-382122811cec","ios":"levelo://app?vid=85e28e2a-2421-4551-a813-382122811cec"},"vehicle_type_id":"4","last_reported":1777134572,"current_range_meters":7200,"station_id":"st_d6o2h0d0559c73evc1b0","pricing_plan_id":"cebpf4jnsgd1na2vs0mg"},{"bike_id":"2b011dfd-b31a-42cc-be3f-96f7ba6133ca","system_id":"levelo_inurba_marseille","lat":43.30947,"lon":5.39036,"is_reserved":false,"is_disabled":false,"rental_uris":{"android":"levelo://app?vid=2b011dfd-b31a-42cc-be3f-96f7ba6133ca","ios":"levelo://app?vid=2b011dfd-b31a-42cc-be3f-96f7ba6133ca"},"vehicle_type_id":"4","last_reported":1777134572,"current_range_meters":7200,"station_id":"ce4bgup2rcd13ifvqco0","pricing_plan_id":"cebpf4jnsgd1na2vs0mg"},{"bike_id":"fd49c6c8-309b-4094-a542-f795fb68b18f","system_id":"levelo_inurba_marseille","lat":43.31353,"lon":5.36743,"is_reserved":false,"is_disabled":false,"rental_uris":{"android":"levelo://app?vid=fd49c6c8-309b-4094-a542-f795fb68b18f","ios":"levelo://app?vid=fd49c6c8-309b-4094-a542-f795fb68b18f"},"vehicle_type_id":"4","last_reported":1777134572,"current_range_meters":7200,"station_id":"ce4bgr92rcd13ifvqc6g","pricing_plan_id":"cebpf4jnsgd1na2vs0mg"},{"bike_id":"5e54dab6-8273-4aac-bd74-7f20b0407add","system_id":"levelo_inurba_marseille","lat":43.26236,"lon":5.37454,"is_reserved":false,"is_disabled":false,"rental_uris":{"android":"levelo://app?vid=5e54dab6-8273-4aac-bd74-7f20b0407add","ios":"levelo://app?vid=5e54dab6-8273-4aac-bd74-7f20b0407add"},"vehicle_type_id":"4","last_reported":1777134572,"current_range_meters":7200,"station_id":"ce4bhgp2rcd13ifvqfc0","pricing_plan_id":"cebpf4jnsgd1na2vs0mg"},{"bike_id":"faa4de1a-c4ab-4973-aa6b-0af52d1cc459","system_id":"levelo_inurba_marseille","lat":43.30946,"lon":5.39038,"is_reserved":false,"is_disabled":false,"rental_uris":{"android":"levelo://app?vid=faa4de1a-c4ab-4973-aa6b-0af52d1cc459","ios":"levelo://app?vid=faa4de1a-c4ab-4973-aa6b-0af52d1cc459"},"vehicle_type_id":"4","last_reported":1777134572,"current_range_meters":7200,"station_id":"ce4bgup2rcd13ifvqco0","pricing_plan_id":"cebpf4jnsgd1na2vs0mg"},{"bike_id":"d2dc1a36-51f9-4423-a54f-f3a7a5fdf737","system_id":"levelo_inurba_marseille","lat":43.23788,"lon":5.36635,"is_reserved":false,"is_disabled":false,"rental_uris":{"android":"levelo://app?vid=d2dc1a36-51f9-4423-a54f-f3a7a5fdf737","ios":"levelo://app?vid=d2dc1a36-51f9-4423-a54f-f3a7a5fdf737"},"vehicle_type_id":"4","last_reported":1777134572,"current_range_meters":7200,"station_id":"st_d3nk18o9ro0c73en2l3g","pricing_plan_id":"cebpf4jnsgd1na2vs0mg"},{"bike_id":"dd298909-d597-4718-a811-2a0137f1f1e3","system_id":"levelo_inurba_marseille","lat":43.24953,"lon":5.40486,"is_reserved":false,"is_disabled":false,"rental_uris":{"android":"levelo://app?vid=dd298909-d597-4718-a811-2a0137f1f1e3","ios":"levelo://app?vid=dd298909-d597-4718-a811-2a0137f1f1e3"},"vehicle_type_id":"4","last_reported":1777134572,"current_range_meters":7200,"station_id":"st_d2ngiaodas8pm72gd1h0","pricing_plan_id":"cebpf4jnsgd1na2vs0mg"},{"bike_id":"b227b013-f495-4197-8852-3364fe94216c","system_id":"levelo_inurba_marseille","lat":43.29972,"lon":5.37166,"is_reserved":false,"is_disabled":false,"rental_uris":{"android":"levelo://app?vid=b227b013-f495-4197-8852-3364fe94216c","ios":"levelo://app?vid=b227b013-f495-4197-8852-3364fe94216c"},"vehicle_type_id":"4","last_reported":1777134572,"current_range_meters":7200,"station_id":"ce4bgr92rcd13ifvqc7g","pricing_plan_id":"cebpf4jnsgd1na2vs0mg"},{"bike_id":"0a58102a-2708-4449-a652-cef706edc64f","system_id":"levelo_inurba_marseille","lat":43.27616,"lon":5.36082,"is_reserved":false,"is_disabled":false,"rental_uris":{"android":"levelo://app?vid=0a58102a-2708-4449-a652-cef706edc64f","ios":"levelo://app?vid=0a58102a-2708-4449-a652-cef706edc64f"},"vehicle_type_id":"4","last_reported":1777134572,"current_range_meters":7200,"station_id":"ce4bgj92rcd13ifvqbe0","pricing_plan_id":"cebpf4jnsgd1na2vs0mg"},{"bike_id":"19ca21ff-92f3-46a1-b1dc-c5d64c8d102f","system_id":"levelo_inurba_marseille","lat":43.23965,"lon":5.36649,"is_reserved":false,"is_disabled":false,"rental_uris":{"android":"levelo://app?vid=19ca21ff-92f3-46a1-b1dc-c5d64c8d102f","ios":"levelo://app?vid=19ca21ff-92f3-46a1-b1dc-c5d64c8d102f"},"vehicle_type_id":"4","last_reported":1777134572,"current_range_meters":8000,"station_id":"ce4bhi12rcd13ifvqfp0","pricing_plan_id":"cebpf4jnsgd1na2vs0mg"},{"bike_id":"044ce3d4-5f89-49a7-a22e-6dad240318c7","system_id":"levelo_inurba_marseille","lat":43.31277,"lon":5.40178,"is_reserved":false,"is_disabled":false,"rental_uris":{"android":"levelo://app?vid=044ce3d4-5f89-49a7-a22e-6dad240318c7","ios":"levelo://app?vid=044ce3d4-5f89-49a7-a22e-6dad240318c7"},"vehicle_type_id":"4","last_reported":1777134572,"current_range_meters":8000,"station_id":"ce4bh092rcd13ifvqd30","pricing_plan_id":"cebpf4jnsgd1na2vs0mg"},{"bike_id":"1db919cb-d624-4185-96c2-c157dd6f5589","system_id":"levelo_inurba_marseille","lat":43.27378,"lon":5.36248,"is_reserved":false,"is_disabled":false,"rental_uris":{"android":"levelo://app?vid=1db919cb-d624-4185-96c2-c157dd6f5589","ios":"levelo://app?vid=1db919cb-d624-4185-96c2-c157dd6f5589"},"vehicle_type_id":"4","last_reported":1777134572,"current_range_meters":8000,"station_id":"ce4bhbh2rcd13ifvqeo0","pricing_plan_id":"cebpf4jnsgd1na2vs0mg"},{"bike_id":"42406c23-17ce-4272-94b5-885011425a7d","system_id":"levelo_inurba_marseille","lat":43.24811,"lon":5.37456,"is_reserved":false,"is_disabled":false,"rental_uris":{"android":"levelo://app?vid=42406c23-17ce-4272-94b5-885011425a7d","ios":"levelo://app?vid=42406c23-17ce-4272-94b5-885011425a7d"},"vehicle_type_id":"4","last_reported":1777134572,"current_range_meters":8000,"station_id":"ce4bhgh2rcd13ifvqfb0","pricing_plan_id":"cebpf4jnsgd1na2vs0mg"},{"bike_id":"e4301bc3-acfe-47cc-acaa-b7d69e7cdaae","system_id":"levelo_inurba_marseille","lat":43.28429,"lon":5.35001,"is_reserved":false,"is_disabled":false,"rental_uris":{"android":"levelo://app?vid=e4301bc3-acfe-47cc-acaa-b7d69e7cdaae","ios":"levelo://app?vid=e4301bc3-acfe-47cc-acaa-b7d69e7cdaae"},"vehicle_type_id":"4","last_reported":1777134572,"current_range_meters":8000,"station_id":"ce4bhbh2rcd13ifvqepg","pricing_plan_id":"cebpf4jnsgd1na2vs0mg"},{"bike_id":"3fe60b2d-65d1-4d59-bf1e-422b9e7a469f","system_id":"levelo_inurba_marseille","lat":43.24981,"lon":5.38916,"is_reserved":false,"is_disabled":false,"rental_uris":{"android":"levelo://app?vid=3fe60b2d-65d1-4d59-bf1e-422b9e7a469f","ios":"levelo://app?vid=3fe60b2d-65d1-4d59-bf1e-422b9e7a469f"},"vehicle_type_id":"4","last_reported":1777134572,"current_range_meters":8000,"station_id":"ce4bhgp2rcd13ifvqfd0","pricing_plan_id":"cebpf4jnsgd1na2vs0mg"},{"bike_id":"5cd8de1a-668c-41b4-bb6e-7d71c5aa0e49","system_id":"levelo_inurba_marseille","lat":43.2315,"lon":5.43717,"is_reserved":false,"is_disabled":false,"rental_uris":{"android":"levelo://app?vid=5cd8de1a-668c-41b4-bb6e-7d71c5aa0e49","ios":"levelo://app?vid=5cd8de1a-668c-41b4-bb6e-7d71c5aa0e49"},"vehicle_type_id":"4","last_reported":1777134572,"current_range_meters":8000,"station_id":"ce4bhmp2rcd13ifvqgog","pricing_plan_id":"cebpf4jnsgd1na2vs0mg"},{"bike_id":"0f3dde67-d6bb-4a2c-bf1b-55d3c1d407da","system_id":"levelo_inurba_marseille","lat":43.29266,"lon":5.38439,"is_reserved":false,"is_disabled":false,"rental_uris":{"android":"levelo://app?vid=0f3dde67-d6bb-4a2c-bf1b-55d3c1d407da","ios":"levelo://app?vid=0f3dde67-d6bb-4a2c-bf1b-55d3c1d407da"},"vehicle_type_id":"4","last_reported":1777134572,"current_range_meters":8000,"station_id":"ce4bh692rcd13ifvqea0","pricing_plan_id":"cebpf4jnsgd1na2vs0mg"},{"bike_id":"548e4a82-32b2-49d2-a8d0-a6b1676f8a48","system_id":"levelo_inurba_marseille","lat":43.32482,"lon":5.36596,"is_reserved":false,"is_disabled":false,"rental_uris":{"android":"levelo://app?vid=548e4a82-32b2-49d2-a8d0-a6b1676f8a48","ios":"levelo://app?vid=548e4a82-32b2-49d2-a8d0-a6b1676f8a48"},"vehicle_type_id":"4","last_reported":1777134572,"current_range_meters":8000,"station_id":"ce4bhs12rcd13ifvqhvg","pricing_plan_id":"cebpf4jnsgd1na2vs0mg"},{"bike_id":"d1d5c7cf-8e64-4123-ad8a-ccd792fc4d10","system_id":"levelo_inurba_marseille","lat":43.29345,"lon":5.39861,"is_reserved":false,"is_disabled":false,"rental_uris":{"android":"levelo://app?vid=d1d5c7cf-8e64-4123-ad8a-ccd792fc4d10","ios":"levelo://app?vid=d1d5c7cf-8e64-4123-ad8a-ccd792fc4d10"},"vehicle_type_id":"4","last_reported":1777134572,"current_range_meters":8000,"station_id":"","pricing_plan_id":"cebpf4jnsgd1na2vs0mg"},{"bike_id":"750da962-73d6-4ef6-b519-7739e3fe3f9c","system_id":"levelo_inurba_marseille","lat":43.29577,"lon":5.37523,"is_reserved":false,"is_disabled":false,"rental_uris":{"android":"levelo://app?vid=750da962-73d6-4ef6-b519-7739e3fe3f9c","ios":"levelo://app?vid=750da962-73d6-4ef6-b519-7739e3fe3f9c"},"vehicle_type_id":"4","last_reported":1777134572,"current_range_meters":8000,"station_id":"ce4bgh92rcd13ifvqb50","pricing_plan_id":"cebpf4jnsgd1na2vs0mg"},{"bike_id":"00cadce8-7903-4092-8b5c-5695ce27b5b2","system_id":"levelo_inurba_marseille","lat":43.29537,"lon":5.38541,"is_reserved":false,"is_disabled":true,"rental_uris":{"android":"levelo://app?vid=00cadce8-7903-4092-8b5c-5695ce27b5b2","ios":"levelo://app?vid=00cadce8-7903-4092-8b5c-5695ce27b5b2"},"vehicle_type_id":"4","last_reported":1777134572,"current_range_meters":8000,"station_id":"ce4bgih2rcd13ifvqba0","pricing_plan_id":"cebpf4jnsgd1na2vs0mg"},{"bike_id":"0ab98db7-8bf0-448e-a46c-27488b044375","system_id":"levelo_inurba_marseille","lat":43.24827,"lon":5.37467,"is_reserved":false,"is_disabled":false,"rental_uris":{"android":"levelo://app?vid=0ab98db7-8bf0-448e-a46c-27488b044375","ios":"levelo://app?vid=0ab98db7-8bf0-448e-a46c-27488b044375"},"vehicle_type_id":"4","last_reported":1777134572,"current_range_meters":8000,"station_id":"ce4bhgh2rcd13ifvqfb0","pricing_plan_id":"cebpf4jnsgd1na2vs0mg"},{"bike_id":"90fac789-06e9-4c33-94b9-e82543e03c21","system_id":"levelo_inurba_marseille","lat":43.22598,"lon":5.41632,"is_reserved":false,"is_disabled":true,"rental_uris":{"android":"levelo://app?vid=90fac789-06e9-4c33-94b9-e82543e03c21","ios":"levelo://app?vid=90fac789-06e9-4c33-94b9-e82543e03c21"},"vehicle_type_id":"4","last_reported":1777134572,"current_range_meters":8000,"station_id":"st_d2o4gvlbi1j2169b742g","pricing_plan_id":"cebpf4jnsgd1na2vs0mg"},{"bike_id":"efe33c89-71e7-4a15-af1c-5cc4713a5444","system_id":"levelo_inurba_marseille","lat":43.21749,"lon":5.34603,"is_reserved":false,"is_disabled":false,"rental_uris":{"android":"levelo://app?vid=efe33c89-71e7-4a15-af1c-5cc4713a5444","ios":"levelo://app?vid=efe33c89-71e7-4a15-af1c-5cc4713a5444"},"vehicle_type_id":"4","last_reported":1777134572,"current_range_meters":8000,"station_id":"st_cvj6r9ubvosntc0bgbag","pricing_plan_id":"cebpf4jnsgd1na2vs0mg"},{"bike_id":"04205562-80b2-4f05-a6b7-bd3fac1fc208","system_id":"levelo_inurba_marseille","lat":43.27382,"lon":5.36262,"is_reserved":false,"is_disabled":false,"rental_uris":{"android":"levelo://app?vid=04205562-80b2-4f05-a6b7-bd3fac1fc208","ios":"levelo://app?vid=04205562-80b2-4f05-a6b7-bd3fac1fc208"},"vehicle_type_id":"4","last_reported":1777134572,"current_range_meters":8000,"station_id":"ce4bhbh2rcd13ifvqeo0","pricing_plan_id":"cebpf4jnsgd1na2vs0mg"},{"bike_id":"7f696ed5-b299-4e84-8b68-4b59fed33e61","system_id":"levelo_inurba_marseille","lat":43.28478,"lon":5.38574,"is_reserved":false,"is_disabled":false,"rental_uris":{"android":"levelo://app?vid=7f696ed5-b299-4e84-8b68-4b59fed33e61","ios":"levelo://app?vid=7f696ed5-b299-4e84-8b68-4b59fed33e61"},"vehicle_type_id":"4","last_reported":1777134572,"current_range_meters":8400,"station_id":"ce4bh8p2rcd13ifvqeb0","pricing_plan_id":"cebpf4jnsgd1na2vs0mg"},{"bike_id":"413e4623-e4a6-44c0-8fe0-f06c3e224af8","system_id":"levelo_inurba_marseille","lat":43.31884,"lon":5.368,"is_reserved":false,"is_disabled":false,"rental_uris":{"android":"levelo://app?vid=413e4623-e4a6-44c0-8fe0-f06c3e224af8","ios":"levelo://app?vid=413e4623-e4a6-44c0-8fe0-f06c3e224af8"},"vehicle_type_id":"4","last_reported":1777134572,"current_range_meters":8400,"station_id":"st_d6o2h0d0559c73evc1b0","pricing_plan_id":"cebpf4jnsgd1na2vs0mg"},{"bike_id":"0cd2fd7c-6402-466e-aa1b-fa186d7a7ed3","system_id":"levelo_inurba_marseille","lat":43.33194,"lon":5.37792,"is_reserved":false,"is_disabled":false,"rental_uris":{"android":"levelo://app?vid=0cd2fd7c-6402-466e-aa1b-fa186d7a7ed3","ios":"levelo://app?vid=0cd2fd7c-6402-466e-aa1b-fa186d7a7ed3"},"vehicle_type_id":"4","last_reported":1777134572,"current_range_meters":8400,"station_id":"","pricing_plan_id":"cebpf4jnsgd1na2vs0mg"},{"bike_id":"308f68c0-c326-4383-b2d4-3d5ce68f7df6","system_id":"levelo_inurba_marseille","lat":43.27978,"lon":5.36401,"is_reserved":false,"is_disabled":false,"rental_uris":{"android":"levelo://app?vid=308f68c0-c326-4383-b2d4-3d5ce68f7df6","ios":"levelo://app?vid=308f68c0-c326-4383-b2d4-3d5ce68f7df6"},"vehicle_type_id":"4","last_reported":1777134572,"current_range_meters":8400,"station_id":"","pricing_plan_id":"cebpf4jnsgd1na2vs0mg"},{"bike_id":"14fb6572-c823-498b-bea2-03eb3402f8ee","system_id":"levelo_inurba_marseille","lat":43.27616,"lon":5.36106,"is_reserved":false,"is_disabled":false,"rental_uris":{"android":"levelo://app?vid=14fb6572-c823-498b-bea2-03eb3402f8ee","ios":"levelo://app?vid=14fb6572-c823-498b-bea2-03eb3402f8ee"},"vehicle_type_id":"4","last_reported":1777134572,"current_range_meters":8400,"station_id":"ce4bgj92rcd13ifvqbe0","pricing_plan_id":"cebpf4jnsgd1na2vs0mg"},{"bike_id":"cd5ae753-0ce4-45ab-886c-3f79fabdb3b1","system_id":"levelo_inurba_marseille","lat":43.24787,"lon":5.37438,"is_reserved":false,"is_disabled":false,"rental_uris":{"android":"levelo://app?vid=cd5ae753-0ce4-45ab-886c-3f79fabdb3b1","ios":"levelo://app?vid=cd5ae753-0ce4-45ab-886c-3f79fabdb3b1"},"vehicle_type_id":"4","last_reported":1777134572,"current_range_meters":8400,"station_id":"ce4bhgh2rcd13ifvqfb0","pricing_plan_id":"cebpf4jnsgd1na2vs0mg"},{"bike_id":"7ac59c81-01df-4b8e-9807-86f926b0041a","system_id":"levelo_inurba_marseille","lat":43.28089,"lon":5.39126,"is_reserved":false,"is_disabled":false,"rental_uris":{"android":"levelo://app?vid=7ac59c81-01df-4b8e-9807-86f926b0041a","ios":"levelo://app?vid=7ac59c81-01df-4b8e-9807-86f926b0041a"},"vehicle_type_id":"4","last_reported":1777134572,"current_range_meters":8400,"station_id":"","pricing_plan_id":"cebpf4jnsgd1na2vs0mg"},{"bike_id":"501a4123-d748-4e5b-bccf-9c06b49d4805","system_id":"levelo_inurba_marseille","lat":43.30191,"lon":5.39871,"is_reserved":false,"is_disabled":false,"rental_uris":{"android":"levelo://app?vid=501a4123-d748-4e5b-bccf-9c06b49d4805","ios":"levelo://app?vid=501a4123-d748-4e5b-bccf-9c06b49d4805"},"vehicle_type_id":"4","last_reported":1777134572,"current_range_meters":8400,"station_id":"","pricing_plan_id":"cebpf4jnsgd1na2vs0mg"},{"bike_id":"a03ce919-3949-4c06-bbb8-c0f13ba943b2","system_id":"levelo_inurba_marseille","lat":43.25518,"lon":5.37666,"is_reserved":false,"is_disabled":true,"rental_uris":{"android":"levelo://app?vid=a03ce919-3949-4c06-bbb8-c0f13ba943b2","ios":"levelo://app?vid=a03ce919-3949-4c06-bbb8-c0f13ba943b2"},"vehicle_type_id":"4","last_reported":1777134572,"current_range_meters":8400,"station_id":"ce4bhh12rcd13ifvqff0","pricing_plan_id":"cebpf4jnsgd1na2vs0mg"},{"bike_id":"ace34436-51fe-4536-a1f6-cfa009f56977","system_id":"levelo_inurba_marseille","lat":43.33539,"lon":5.37459,"is_reserved":false,"is_disabled":false,"rental_uris":{"android":"levelo://app?vid=ace34436-51fe-4536-a1f6-cfa009f56977","ios":"levelo://app?vid=ace34436-51fe-4536-a1f6-cfa009f56977"},"vehicle_type_id":"4","last_reported":1777134572,"current_range_meters":8400,"station_id":"st_d46tts09ee8s73dlu43g","pricing_plan_id":"cebpf4jnsgd1na2vs0mg"},{"bike_id":"5d3fd44c-b59d-41d4-a478-9d5eb2e2ef58","system_id":"levelo_inurba_marseille","lat":43.30374,"lon":5.42485,"is_reserved":false,"is_disabled":false,"rental_uris":{"android":"levelo://app?vid=5d3fd44c-b59d-41d4-a478-9d5eb2e2ef58","ios":"levelo://app?vid=5d3fd44c-b59d-41d4-a478-9d5eb2e2ef58"},"vehicle_type_id":"4","last_reported":1777134572,"current_range_meters":8400,"station_id":"ce4bhoh2rcd13ifvqh6g","pricing_plan_id":"cebpf4jnsgd1na2vs0mg"},{"bike_id":"68b555d4-6705-4a27-888d-17647ea5e0d3","system_id":"levelo_inurba_marseille","lat":43.30546,"lon":5.36532,"is_reserved":false,"is_disabled":false,"rental_uris":{"android":"levelo://app?vid=68b555d4-6705-4a27-888d-17647ea5e0d3","ios":"levelo://app?vid=68b555d4-6705-4a27-888d-17647ea5e0d3"},"vehicle_type_id":"4","last_reported":1777134572,"current_range_meters":8400,"station_id":"ce4bgs12rcd13ifvqcag","pricing_plan_id":"cebpf4jnsgd1na2vs0mg"},{"bike_id":"15ec38c2-207f-45d3-aaae-e53735620dc0","system_id":"levelo_inurba_marseille","lat":43.27817,"lon":5.40761,"is_reserved":false,"is_disabled":false,"rental_uris":{"android":"levelo://app?vid=15ec38c2-207f-45d3-aaae-e53735620dc0","ios":"levelo://app?vid=15ec38c2-207f-45d3-aaae-e53735620dc0"},"vehicle_type_id":"4","last_reported":1777134572,"current_range_meters":8400,"station_id":"ce4bhnh2rcd13ifvqgtg","pricing_plan_id":"cebpf4jnsgd1na2vs0mg"},{"bike_id":"70c7e508-dee8-4c48-84ef-dd92c8416275","system_id":"levelo_inurba_marseille","lat":43.24162,"lon":5.36395,"is_reserved":false,"is_disabled":false,"rental_uris":{"android":"levelo://app?vid=70c7e508-dee8-4c48-84ef-dd92c8416275","ios":"levelo://app?vid=70c7e508-dee8-4c48-84ef-dd92c8416275"},"vehicle_type_id":"4","last_reported":1777134572,"current_range_meters":8400,"station_id":"cpo36qri1sfpv3e86is0","pricing_plan_id":"cebpf4jnsgd1na2vs0mg"},{"bike_id":"17fe3f56-b486-40dd-ac6a-710ede14c97d","system_id":"levelo_inurba_marseille","lat":43.314869,"lon":5.373029,"is_reserved":false,"is_disabled":false,"rental_uris":{"android":"levelo://app?vid=17fe3f56-b486-40dd-ac6a-710ede14c97d","ios":"levelo://app?vid=17fe3f56-b486-40dd-ac6a-710ede14c97d"},"vehicle_type_id":"4","last_reported":1777134572,"current_range_meters":8400,"station_id":"","pricing_plan_id":"cebpf4jnsgd1na2vs0mg"},{"bike_id":"06558e5b-846f-4e20-b375-c8972d75dc5a","system_id":"levelo_inurba_marseille","lat":43.27346,"lon":5.43128,"is_reserved":false,"is_disabled":false,"rental_uris":{"android":"levelo://app?vid=06558e5b-846f-4e20-b375-c8972d75dc5a","ios":"levelo://app?vid=06558e5b-846f-4e20-b375-c8972d75dc5a"},"vehicle_type_id":"4","last_reported":1777134572,"current_range_meters":8400,"station_id":"","pricing_plan_id":"cebpf4jnsgd1na2vs0mg"},{"bike_id":"f9b98806-d74c-46ef-8642-07dd46c19f4b","system_id":"levelo_inurba_marseille","lat":43.28687,"lon":5.46665,"is_reserved":false,"is_disabled":false,"rental_uris":{"android":"levelo://app?vid=f9b98806-d74c-46ef-8642-07dd46c19f4b","ios":"levelo://app?vid=f9b98806-d74c-46ef-8642-07dd46c19f4b"},"vehicle_type_id":"4","last_reported":1777134572,"current_range_meters":8400,"station_id":"st_d6tc3vkotcvc738tfjhg","pricing_plan_id":"cebpf4jnsgd1na2vs0mg"},{"bike_id":"fea5a28c-0167-4a62-9062-e629ed9b3e8f","system_id":"levelo_inurba_marseille","lat":43.2848,"lon":5.48398,"is_reserved":false,"is_disabled":false,"rental_uris":{"android":"levelo://app?vid=fea5a28c-0167-4a62-9062-e629ed9b3e8f","ios":"levelo://app?vid=fea5a28c-0167-4a62-9062-e629ed9b3e8f"},"vehicle_type_id":"4","last_reported":1777134572,"current_range_meters":8400,"station_id":"st_d3svhcjqgbts73a3dn0g","pricing_plan_id":"cebpf4jnsgd1na2vs0mg"},{"bike_id":"ce2f3d40-e70a-4d55-b844-abe87c79edbe","system_id":"levelo_inurba_marseille","lat":43.29596,"lon":5.37508,"is_reserved":false,"is_disabled":false,"rental_uris":{"android":"levelo://app?vid=ce2f3d40-e70a-4d55-b844-abe87c79edbe","ios":"levelo://app?vid=ce2f3d40-e70a-4d55-b844-abe87c79edbe"},"vehicle_type_id":"4","last_reported":1777134572,"current_range_meters":8400,"station_id":"ce4bgh92rcd13ifvqb50","pricing_plan_id":"cebpf4jnsgd1na2vs0mg"},{"bike_id":"73b29586-6035-4b17-8f89-10c778399a16","system_id":"levelo_inurba_marseille","lat":43.31986,"lon":5.38146,"is_reserved":false,"is_disabled":false,"rental_uris":{"android":"levelo://app?vid=73b29586-6035-4b17-8f89-10c778399a16","ios":"levelo://app?vid=73b29586-6035-4b17-8f89-10c778399a16"},"vehicle_type_id":"4","last_reported":1777134572,"current_range_meters":8400,"station_id":"ce4bhr12rcd13ifvqhpg","pricing_plan_id":"cebpf4jnsgd1na2vs0mg"},{"bike_id":"0ea1a9b9-ff24-4321-b210-dd9afe765cb5","system_id":"levelo_inurba_marseille","lat":43.28418,"lon":5.37513,"is_reserved":false,"is_disabled":false,"rental_uris":{"android":"levelo://app?vid=0ea1a9b9-ff24-4321-b210-dd9afe765cb5","ios":"levelo://app?vid=0ea1a9b9-ff24-4321-b210-dd9afe765cb5"},"vehicle_type_id":"4","last_reported":1777134572,"current_range_meters":8400,"station_id":"ce4bh412rcd13ifvqds0","pricing_plan_id":"cebpf4jnsgd1na2vs0mg"},{"bike_id":"b6e8c883-09cb-4e9d-86ab-573101733794","system_id":"levelo_inurba_marseille","lat":43.29191,"lon":5.35798,"is_reserved":false,"is_disabled":false,"rental_uris":{"android":"levelo://app?vid=b6e8c883-09cb-4e9d-86ab-573101733794","ios":"levelo://app?vid=b6e8c883-09cb-4e9d-86ab-573101733794"},"vehicle_type_id":"4","last_reported":1777134572,"current_range_meters":8400,"station_id":"ce4bhb12rcd13ifvqel0","pricing_plan_id":"cebpf4jnsgd1na2vs0mg"},{"bike_id":"c28b021b-a8b1-40b4-ad71-94e856bd717c","system_id":"levelo_inurba_marseille","lat":43.3117,"lon":5.3871,"is_reserved":false,"is_disabled":false,"rental_uris":{"android":"levelo://app?vid=c28b021b-a8b1-40b4-ad71-94e856bd717c","ios":"levelo://app?vid=c28b021b-a8b1-40b4-ad71-94e856bd717c"},"vehicle_type_id":"4","last_reported":1777134572,"current_range_meters":8400,"station_id":"ce4bgv12rcd13ifvqcp0","pricing_plan_id":"cebpf4jnsgd1na2vs0mg"},{"bike_id":"e5a36497-12fd-45d2-802b-852a8b8f2f74","system_id":"levelo_inurba_marseille","lat":43.26034,"lon":5.37546,"is_reserved":false,"is_disabled":false,"rental_uris":{"android":"levelo://app?vid=e5a36497-12fd-45d2-802b-852a8b8f2f74","ios":"levelo://app?vid=e5a36497-12fd-45d2-802b-852a8b8f2f74"},"vehicle_type_id":"4","last_reported":1777134572,"current_range_meters":8400,"station_id":"ce4bhgh2rcd13ifvqfa0","pricing_plan_id":"cebpf4jnsgd1na2vs0mg"},{"bike_id":"39d505bb-194c-48a6-bdd0-92d3bc36c2df","system_id":"levelo_inurba_marseille","lat":43.28485,"lon":5.38528,"is_reserved":false,"is_disabled":true,"rental_uris":{"android":"levelo://app?vid=39d505bb-194c-48a6-bdd0-92d3bc36c2df","ios":"levelo://app?vid=39d505bb-194c-48a6-bdd0-92d3bc36c2df"},"vehicle_type_id":"4","last_reported":1777134572,"current_range_meters":8800,"station_id":"ce4bh8p2rcd13ifvqeb0","pricing_plan_id":"cebpf4jnsgd1na2vs0mg"},{"bike_id":"2c8ba99c-ea4d-4f3f-b2f9-faf28eedf19b","system_id":"levelo_inurba_marseille","lat":43.28107,"lon":5.37832,"is_reserved":false,"is_disabled":false,"rental_uris":{"android":"levelo://app?vid=2c8ba99c-ea4d-4f3f-b2f9-faf28eedf19b","ios":"levelo://app?vid=2c8ba99c-ea4d-4f3f-b2f9-faf28eedf19b"},"vehicle_type_id":"4","last_reported":1777134572,"current_range_meters":8800,"station_id":"ce4bha12rcd13ifvqee0","pricing_plan_id":"cebpf4jnsgd1na2vs0mg"},{"bike_id":"9a7c39d8-ef30-4694-b180-b6fe0a089530","system_id":"levelo_inurba_marseille","lat":43.30119,"lon":5.43117,"is_reserved":false,"is_disabled":false,"rental_uris":{"android":"levelo://app?vid=9a7c39d8-ef30-4694-b180-b6fe0a089530","ios":"levelo://app?vid=9a7c39d8-ef30-4694-b180-b6fe0a089530"},"vehicle_type_id":"4","last_reported":1777134572,"current_range_meters":8800,"station_id":"st_d3js3co5814s73ftftug","pricing_plan_id":"cebpf4jnsgd1na2vs0mg"},{"bike_id":"adc6061c-7968-465f-b141-f084abd57b66","system_id":"levelo_inurba_marseille","lat":43.22535,"lon":5.34816,"is_reserved":false,"is_disabled":false,"rental_uris":{"android":"levelo://app?vid=adc6061c-7968-465f-b141-f084abd57b66","ios":"levelo://app?vid=adc6061c-7968-465f-b141-f084abd57b66"},"vehicle_type_id":"4","last_reported":1777134572,"current_range_meters":8800,"station_id":"st_cvj5dfep6f1abm77gieg","pricing_plan_id":"cebpf4jnsgd1na2vs0mg"},{"bike_id":"428a4dc2-262f-4ab5-8f00-fb49be5b2651","system_id":"levelo_inurba_marseille","lat":43.25504,"lon":5.37703,"is_reserved":false,"is_disabled":false,"rental_uris":{"android":"levelo://app?vid=428a4dc2-262f-4ab5-8f00-fb49be5b2651","ios":"levelo://app?vid=428a4dc2-262f-4ab5-8f00-fb49be5b2651"},"vehicle_type_id":"4","last_reported":1777134572,"current_range_meters":8800,"station_id":"ce4bhh12rcd13ifvqff0","pricing_plan_id":"cebpf4jnsgd1na2vs0mg"},{"bike_id":"5687bcf3-d7dc-457c-91e4-c37491638fcd","system_id":"levelo_inurba_marseille","lat":43.24168,"lon":5.36408,"is_reserved":false,"is_disabled":false,"rental_uris":{"android":"levelo://app?vid=5687bcf3-d7dc-457c-91e4-c37491638fcd","ios":"levelo://app?vid=5687bcf3-d7dc-457c-91e4-c37491638fcd"},"vehicle_type_id":"4","last_reported":1777134572,"current_range_meters":8800,"station_id":"cpo36qri1sfpv3e86is0","pricing_plan_id":"cebpf4jnsgd1na2vs0mg"},{"bike_id":"d05fd2fe-8ae5-4090-8cdc-f68b787e25b4","system_id":"levelo_inurba_marseille","lat":43.24067,"lon":5.37761,"is_reserved":false,"is_disabled":false,"rental_uris":{"android":"levelo://app?vid=d05fd2fe-8ae5-4090-8cdc-f68b787e25b4","ios":"levelo://app?vid=d05fd2fe-8ae5-4090-8cdc-f68b787e25b4"},"vehicle_type_id":"4","last_reported":1777134572,"current_range_meters":8800,"station_id":"ce4bhnp2rcd13ifvqgvg","pricing_plan_id":"cebpf4jnsgd1na2vs0mg"},{"bike_id":"abcc6420-3dfd-455c-8c2e-a050730ed064","system_id":"levelo_inurba_marseille","lat":43.29574,"lon":5.37512,"is_reserved":false,"is_disabled":false,"rental_uris":{"android":"levelo://app?vid=abcc6420-3dfd-455c-8c2e-a050730ed064","ios":"levelo://app?vid=abcc6420-3dfd-455c-8c2e-a050730ed064"},"vehicle_type_id":"4","last_reported":1777134572,"current_range_meters":8800,"station_id":"ce4bgh92rcd13ifvqb50","pricing_plan_id":"cebpf4jnsgd1na2vs0mg"},{"bike_id":"d635b6a9-26d7-4024-944b-3b30f7178297","system_id":"levelo_inurba_marseille","lat":43.2405,"lon":5.36265,"is_reserved":false,"is_disabled":false,"rental_uris":{"android":"levelo://app?vid=d635b6a9-26d7-4024-944b-3b30f7178297","ios":"levelo://app?vid=d635b6a9-26d7-4024-944b-3b30f7178297"},"vehicle_type_id":"4","last_reported":1777134572,"current_range_meters":8800,"station_id":"","pricing_plan_id":"cebpf4jnsgd1na2vs0mg"},{"bike_id":"648bc781-8e68-4ccd-aedc-987a153e904f","system_id":"levelo_inurba_marseille","lat":43.29265,"lon":5.38457,"is_reserved":false,"is_disabled":false,"rental_uris":{"android":"levelo://app?vid=648bc781-8e68-4ccd-aedc-987a153e904f","ios":"levelo://app?vid=648bc781-8e68-4ccd-aedc-987a153e904f"},"vehicle_type_id":"4","last_reported":1777134572,"current_range_meters":8800,"station_id":"ce4bh692rcd13ifvqea0","pricing_plan_id":"cebpf4jnsgd1na2vs0mg"},{"bike_id":"e79bde01-2f2e-4687-9114-2908a926683e","system_id":"levelo_inurba_marseille","lat":43.33549,"lon":5.37474,"is_reserved":false,"is_disabled":false,"rental_uris":{"android":"levelo://app?vid=e79bde01-2f2e-4687-9114-2908a926683e","ios":"levelo://app?vid=e79bde01-2f2e-4687-9114-2908a926683e"},"vehicle_type_id":"4","last_reported":1777134572,"current_range_meters":8800,"station_id":"st_d46tts09ee8s73dlu43g","pricing_plan_id":"cebpf4jnsgd1na2vs0mg"},{"bike_id":"d3fc06ed-a4a6-4ebd-a012-f82f411a860e","system_id":"levelo_inurba_marseille","lat":43.21137,"lon":5.35096,"is_reserved":false,"is_disabled":false,"rental_uris":{"android":"levelo://app?vid=d3fc06ed-a4a6-4ebd-a012-f82f411a860e","ios":"levelo://app?vid=d3fc06ed-a4a6-4ebd-a012-f82f411a860e"},"vehicle_type_id":"4","last_reported":1777134572,"current_range_meters":8800,"station_id":"st_cvj6sg6p6f1abm77japg","pricing_plan_id":"cebpf4jnsgd1na2vs0mg"},{"bike_id":"8b54c2fe-91d6-414d-b053-a12a35141416","system_id":"levelo_inurba_marseille","lat":43.24392,"lon":5.37073,"is_reserved":false,"is_disabled":false,"rental_uris":{"android":"levelo://app?vid=8b54c2fe-91d6-414d-b053-a12a35141416","ios":"levelo://app?vid=8b54c2fe-91d6-414d-b053-a12a35141416"},"vehicle_type_id":"4","last_reported":1777134572,"current_range_meters":8800,"station_id":"ce4bhhh2rcd13ifvqfk0","pricing_plan_id":"cebpf4jnsgd1na2vs0mg"},{"bike_id":"4a48db75-f299-4ca4-a738-060ff8ec3581","system_id":"levelo_inurba_marseille","lat":43.285358,"lon":5.36008,"is_reserved":false,"is_disabled":false,"rental_uris":{"android":"levelo://app?vid=4a48db75-f299-4ca4-a738-060ff8ec3581","ios":"levelo://app?vid=4a48db75-f299-4ca4-a738-060ff8ec3581"},"vehicle_type_id":"4","last_reported":1777134572,"current_range_meters":8800,"station_id":"ce4bhah2rcd13ifvqei0","pricing_plan_id":"cebpf4jnsgd1na2vs0mg"},{"bike_id":"e788ca34-60df-4b1c-a1a5-a422788eab30","system_id":"levelo_inurba_marseille","lat":43.30388,"lon":5.42458,"is_reserved":false,"is_disabled":false,"rental_uris":{"android":"levelo://app?vid=e788ca34-60df-4b1c-a1a5-a422788eab30","ios":"levelo://app?vid=e788ca34-60df-4b1c-a1a5-a422788eab30"},"vehicle_type_id":"4","last_reported":1777134572,"current_range_meters":8800,"station_id":"ce4bhoh2rcd13ifvqh6g","pricing_plan_id":"cebpf4jnsgd1na2vs0mg"},{"bike_id":"f1cffc7b-9140-4f3f-acd5-1357e8e47054","system_id":"levelo_inurba_marseille","lat":43.22526,"lon":5.34823,"is_reserved":false,"is_disabled":false,"rental_uris":{"android":"levelo://app?vid=f1cffc7b-9140-4f3f-acd5-1357e8e47054","ios":"levelo://app?vid=f1cffc7b-9140-4f3f-acd5-1357e8e47054"},"vehicle_type_id":"4","last_reported":1777134572,"current_range_meters":8800,"station_id":"st_cvj5dfep6f1abm77gieg","pricing_plan_id":"cebpf4jnsgd1na2vs0mg"},{"bike_id":"05a33fd5-e436-4ad0-a907-865e546c41d5","system_id":"levelo_inurba_marseille","lat":43.22554,"lon":5.41613,"is_reserved":false,"is_disabled":true,"rental_uris":{"android":"levelo://app?vid=05a33fd5-e436-4ad0-a907-865e546c41d5","ios":"levelo://app?vid=05a33fd5-e436-4ad0-a907-865e546c41d5"},"vehicle_type_id":"4","last_reported":1777134572,"current_range_meters":8800,"station_id":"","pricing_plan_id":"cebpf4jnsgd1na2vs0mg"},{"bike_id":"bce6b424-5434-4a5e-b71a-5a803fa5a237","system_id":"levelo_inurba_marseille","lat":43.21739,"lon":5.34599,"is_reserved":false,"is_disabled":false,"rental_uris":{"android":"levelo://app?vid=bce6b424-5434-4a5e-b71a-5a803fa5a237","ios":"levelo://app?vid=bce6b424-5434-4a5e-b71a-5a803fa5a237"},"vehicle_type_id":"4","last_reported":1777134572,"current_range_meters":8800,"station_id":"st_cvj6r9ubvosntc0bgbag","pricing_plan_id":"cebpf4jnsgd1na2vs0mg"},{"bike_id":"f33c6c9d-346a-4c73-9b31-f3ca6fe92254","system_id":"levelo_inurba_marseille","lat":43.29638,"lon":5.37765,"is_reserved":false,"is_disabled":true,"rental_uris":{"android":"levelo://app?vid=f33c6c9d-346a-4c73-9b31-f3ca6fe92254","ios":"levelo://app?vid=f33c6c9d-346a-4c73-9b31-f3ca6fe92254"},"vehicle_type_id":"4","last_reported":1777134572,"current_range_meters":8800,"station_id":"ce4bgi92rcd13ifvqb90","pricing_plan_id":"cebpf4jnsgd1na2vs0mg"},{"bike_id":"26882210-997c-4922-b3e5-8a44e2a594af","system_id":"levelo_inurba_marseille","lat":43.25549,"lon":5.37648,"is_reserved":false,"is_disabled":false,"rental_uris":{"android":"levelo://app?vid=26882210-997c-4922-b3e5-8a44e2a594af","ios":"levelo://app?vid=26882210-997c-4922-b3e5-8a44e2a594af"},"vehicle_type_id":"4","last_reported":1777134572,"current_range_meters":8800,"station_id":"","pricing_plan_id":"cebpf4jnsgd1na2vs0mg"},{"bike_id":"b3517082-5026-4ea7-acd8-c418b593e8f6","system_id":"levelo_inurba_marseille","lat":43.31282,"lon":5.4018,"is_reserved":false,"is_disabled":false,"rental_uris":{"android":"levelo://app?vid=b3517082-5026-4ea7-acd8-c418b593e8f6","ios":"levelo://app?vid=b3517082-5026-4ea7-acd8-c418b593e8f6"},"vehicle_type_id":"4","last_reported":1777134572,"current_range_meters":8800,"station_id":"ce4bh092rcd13ifvqd30","pricing_plan_id":"cebpf4jnsgd1na2vs0mg"},{"bike_id":"880dd9ef-df4a-41e2-ab0c-29ad1b801895","system_id":"levelo_inurba_marseille","lat":43.25092,"lon":5.39519,"is_reserved":false,"is_disabled":false,"rental_uris":{"android":"levelo://app?vid=880dd9ef-df4a-41e2-ab0c-29ad1b801895","ios":"levelo://app?vid=880dd9ef-df4a-41e2-ab0c-29ad1b801895"},"vehicle_type_id":"4","last_reported":1777134572,"current_range_meters":8800,"station_id":"ce4bhm12rcd13ifvqgkg","pricing_plan_id":"cebpf4jnsgd1na2vs0mg"},{"bike_id":"23cb598b-32a2-4aea-b0bc-a88e2747f151","system_id":"levelo_inurba_marseille","lat":43.31613,"lon":5.39703,"is_reserved":false,"is_disabled":false,"rental_uris":{"android":"levelo://app?vid=23cb598b-32a2-4aea-b0bc-a88e2747f151","ios":"levelo://app?vid=23cb598b-32a2-4aea-b0bc-a88e2747f151"},"vehicle_type_id":"4","last_reported":1777134572,"current_range_meters":9200,"station_id":"","pricing_plan_id":"cebpf4jnsgd1na2vs0mg"},{"bike_id":"e7760414-c99e-4edb-8d77-254918982c51","system_id":"levelo_inurba_marseille","lat":43.280813,"lon":5.396654,"is_reserved":false,"is_disabled":false,"rental_uris":{"android":"levelo://app?vid=e7760414-c99e-4edb-8d77-254918982c51","ios":"levelo://app?vid=e7760414-c99e-4edb-8d77-254918982c51"},"vehicle_type_id":"4","last_reported":1777134572,"current_range_meters":9200,"station_id":"ce4bho12rcd13ifvqh2g","pricing_plan_id":"cebpf4jnsgd1na2vs0mg"},{"bike_id":"3fc1dfc0-f814-454d-bc8c-cab5321e7daf","system_id":"levelo_inurba_marseille","lat":43.26202,"lon":5.3793,"is_reserved":false,"is_disabled":false,"rental_uris":{"android":"levelo://app?vid=3fc1dfc0-f814-454d-bc8c-cab5321e7daf","ios":"levelo://app?vid=3fc1dfc0-f814-454d-bc8c-cab5321e7daf"},"vehicle_type_id":"4","last_reported":1777134572,"current_range_meters":9200,"station_id":"ce4bhjp2rcd13ifvqg90","pricing_plan_id":"cebpf4jnsgd1na2vs0mg"},{"bike_id":"a7abb83b-d8f7-4b04-81c9-42ce1f31f52a","system_id":"levelo_inurba_marseille","lat":43.27591,"lon":5.36135,"is_reserved":false,"is_disabled":false,"rental_uris":{"android":"levelo://app?vid=a7abb83b-d8f7-4b04-81c9-42ce1f31f52a","ios":"levelo://app?vid=a7abb83b-d8f7-4b04-81c9-42ce1f31f52a"},"vehicle_type_id":"4","last_reported":1777134572,"current_range_meters":9200,"station_id":"ce4bgj92rcd13ifvqbe0","pricing_plan_id":"cebpf4jnsgd1na2vs0mg"},{"bike_id":"70578acc-b935-4f77-be23-bcde1db99b26","system_id":"levelo_inurba_marseille","lat":43.29794,"lon":5.38155,"is_reserved":false,"is_disabled":false,"rental_uris":{"android":"levelo://app?vid=70578acc-b935-4f77-be23-bcde1db99b26","ios":"levelo://app?vid=70578acc-b935-4f77-be23-bcde1db99b26"},"vehicle_type_id":"4","last_reported":1777134572,"current_range_meters":9200,"station_id":"ce4bgip2rcd13ifvqbb0","pricing_plan_id":"cebpf4jnsgd1na2vs0mg"},{"bike_id":"e819429d-0b65-477a-b9ba-c7afd2106ade","system_id":"levelo_inurba_marseille","lat":43.26034,"lon":5.37557,"is_reserved":false,"is_disabled":false,"rental_uris":{"android":"levelo://app?vid=e819429d-0b65-477a-b9ba-c7afd2106ade","ios":"levelo://app?vid=e819429d-0b65-477a-b9ba-c7afd2106ade"},"vehicle_type_id":"4","last_reported":1777134572,"current_range_meters":9200,"station_id":"ce4bhgh2rcd13ifvqfa0","pricing_plan_id":"cebpf4jnsgd1na2vs0mg"},{"bike_id":"f54ccc15-12bb-43a9-bcae-01eb62b17984","system_id":"levelo_inurba_marseille","lat":43.24826,"lon":5.37463,"is_reserved":false,"is_disabled":false,"rental_uris":{"android":"levelo://app?vid=f54ccc15-12bb-43a9-bcae-01eb62b17984","ios":"levelo://app?vid=f54ccc15-12bb-43a9-bcae-01eb62b17984"},"vehicle_type_id":"4","last_reported":1777134572,"current_range_meters":9200,"station_id":"ce4bhgh2rcd13ifvqfb0","pricing_plan_id":"cebpf4jnsgd1na2vs0mg"},{"bike_id":"4cfd627a-de69-45ae-84dd-17efdefd3e66","system_id":"levelo_inurba_marseille","lat":43.26545,"lon":5.37295,"is_reserved":false,"is_disabled":false,"rental_uris":{"android":"levelo://app?vid=4cfd627a-de69-45ae-84dd-17efdefd3e66","ios":"levelo://app?vid=4cfd627a-de69-45ae-84dd-17efdefd3e66"},"vehicle_type_id":"4","last_reported":1777134572,"current_range_meters":9200,"station_id":"ce4bhg12rcd13ifvqf70","pricing_plan_id":"cebpf4jnsgd1na2vs0mg"},{"bike_id":"d3e9b620-cd42-4df4-8fae-e98a466e75fe","system_id":"levelo_inurba_marseille","lat":43.25589,"lon":5.38232,"is_reserved":false,"is_disabled":false,"rental_uris":{"android":"levelo://app?vid=d3e9b620-cd42-4df4-8fae-e98a466e75fe","ios":"levelo://app?vid=d3e9b620-cd42-4df4-8fae-e98a466e75fe"},"vehicle_type_id":"4","last_reported":1777134572,"current_range_meters":9200,"station_id":"ce4bhih2rcd13ifvqfs0","pricing_plan_id":"cebpf4jnsgd1na2vs0mg"},{"bike_id":"02539330-07fb-42fe-9010-acebe7361a6c","system_id":"levelo_inurba_marseille","lat":43.27209,"lon":5.39177,"is_reserved":false,"is_disabled":false,"rental_uris":{"android":"levelo://app?vid=02539330-07fb-42fe-9010-acebe7361a6c","ios":"levelo://app?vid=02539330-07fb-42fe-9010-acebe7361a6c"},"vehicle_type_id":"4","last_reported":1777134572,"current_range_meters":9200,"station_id":"ce4bhhp2rcd13ifvqfm0","pricing_plan_id":"cebpf4jnsgd1na2vs0mg"},{"bike_id":"f3bb7a73-33e1-4285-8e1d-6b88a6b548d1","system_id":"levelo_inurba_marseille","lat":43.26015,"lon":5.37581,"is_reserved":false,"is_disabled":true,"rental_uris":{"android":"levelo://app?vid=f3bb7a73-33e1-4285-8e1d-6b88a6b548d1","ios":"levelo://app?vid=f3bb7a73-33e1-4285-8e1d-6b88a6b548d1"},"vehicle_type_id":"4","last_reported":1777134572,"current_range_meters":9200,"station_id":"ce4bhgh2rcd13ifvqfa0","pricing_plan_id":"cebpf4jnsgd1na2vs0mg"},{"bike_id":"7c6f5d31-a587-415f-8cb8-7c50045d3add","system_id":"levelo_inurba_marseille","lat":43.23149,"lon":5.43734,"is_reserved":false,"is_disabled":false,"rental_uris":{"android":"levelo://app?vid=7c6f5d31-a587-415f-8cb8-7c50045d3add","ios":"levelo://app?vid=7c6f5d31-a587-415f-8cb8-7c50045d3add"},"vehicle_type_id":"4","last_reported":1777134572,"current_range_meters":9200,"station_id":"ce4bhmp2rcd13ifvqgog","pricing_plan_id":"cebpf4jnsgd1na2vs0mg"},{"bike_id":"fda983b3-301e-40f3-bb07-e5c67ab620e4","system_id":"levelo_inurba_marseille","lat":43.25096,"lon":5.40482,"is_reserved":false,"is_disabled":false,"rental_uris":{"android":"levelo://app?vid=fda983b3-301e-40f3-bb07-e5c67ab620e4","ios":"levelo://app?vid=fda983b3-301e-40f3-bb07-e5c67ab620e4"},"vehicle_type_id":"4","last_reported":1777134572,"current_range_meters":9200,"station_id":"","pricing_plan_id":"cebpf4jnsgd1na2vs0mg"},{"bike_id":"2d691d13-bc6e-4748-91cd-8b1ca28ee241","system_id":"levelo_inurba_marseille","lat":43.26025,"lon":5.37547,"is_reserved":false,"is_disabled":false,"rental_uris":{"android":"levelo://app?vid=2d691d13-bc6e-4748-91cd-8b1ca28ee241","ios":"levelo://app?vid=2d691d13-bc6e-4748-91cd-8b1ca28ee241"},"vehicle_type_id":"4","last_reported":1777134572,"current_range_meters":9200,"station_id":"ce4bhgh2rcd13ifvqfa0","pricing_plan_id":"cebpf4jnsgd1na2vs0mg"},