{"last_updated":1742919048,"ttl":60,"version":"2.2","data":{"bikes":[{"bike_id":"b171da26-119e-41e1-b2cd-afb442ce6a35","system_id":"levelo_inurba_marseille","lat":43.32351,"lon":5.36742,"is_reserved":false,"is_disabled":false,"rental_uris":{"android":"levelo://app?vid=b171da26-119e-41e1-b2cd-afb442ce6a35","ios":"levelo://app?vid=b171da26-119e-41e1-b2cd-afb442ce6a35"},"vehicle_type_id":"4","last_reported":1742919048,"current_range_meters":2800,"station_id":"ce4bhsh2rcd13ifvqi2g","pricing_plan_id":"cebpf4jnsgd1na2vs0mg"},{"bike_id":"0904efab-9eaa-4ac7-937f-c788c5400c0b","system_id":"levelo_inurba_marseille","lat":43.31077,"lon":5.38368,"is_reserved":false,"is_disabled":false,"rental_uris":{"android":"levelo://app?vid=0904efab-9eaa-4ac7-937f-c788c5400c0b","ios":"levelo://app?vid=0904efab-9eaa-4ac7-937f-c788c5400c0b"},"vehicle_type_id":"4","last_reported":1742919048,"current_range_meters":2800,"station_id":"ce4bgv92rcd13ifvqcr0","pricing_plan_id":"cebpf4jnsgd1na2vs0mg"},{"bike_id":"8fa2ab0a-0596-4bf3-ac6a-505c70d7e052","system_id":"levelo_inurba_marseille","lat":43.29747,"lon":5.37685,"is_reserved":false,"is_disabled":false,"rental_uris":{"android":"levelo://app?vid=8fa2ab0a-0596-4bf3-ac6a-505c70d7e052","ios":"levelo://app?vid=8fa2ab0a-0596-4bf3-ac6a-505c70d7e052"},"vehicle_type_id":"4","last_reported":1742919048,"current_range_meters":2800,"station_id":"ce4bgkh2rcd13ifvqbl0","pricing_plan_id":"cebpf4jnsgd1na2vs0mg"},{"bike_id":"a820f1b5-bdbf-4354-8e64-2a4da5d7d09d","system_id":"levelo_inurba_marseille","lat":43.29864,"lon":5.38129,"is_reserved":false,"is_disabled":false,"rental_uris":{"android":"levelo://app?vid=a820f1b5-bdbf-4354-8e64-2a4da5d7d09d","ios":"levelo://app?vid=a820f1b5-bdbf-4354-8e64-2a4da5d7d09d"},"vehicle_type_id":"4","last_reported":1742919048,"current_range_meters":2800,"station_id":"ce4bgj12rcd13ifvqbc0","pricing_plan_id":"cebpf4jnsgd1na2vs0mg"},{"bike_id":"03dc2499-7722-4659-b342-035ff90fd4f4","system_id":"levelo_inurba_marseille","lat":43.31376,"lon":5.36741,"is_reserved":false,"is_disabled":false,"rental_uris":{"android":"levelo://app?vid=03dc2499-7722-4659-b342-035ff90fd4f4","ios":"levelo://app?vid=03dc2499-7722-4659-b342-035ff90fd4f4"},"vehicle_type_id":"4","last_reported":1742919048,"current_range_meters":2800,"station_id":"ce4bgr92rcd13ifvqc6g","pricing_plan_id":"cebpf4jnsgd1na2vs0mg"},{"bike_id":"a636d69c-19b5-419a-b2eb-a8424be63df9","system_id":"levelo_inurba_marseille","lat":43.23194,"lon":5.35549,"is_reserved":false,"is_disabled":false,"rental_uris":{"android":"levelo://app?vid=a636d69c-19b5-419a-b2eb-a8424be63df9","ios":"levelo://app?vid=a636d69c-19b5-419a-b2eb-a8424be63df9"},"vehicle_type_id":"4","last_reported":1742919048,"current_range_meters":2800,"station_id":"ce4bhu92rcd13ifvqi70","pricing_plan_id":"cebpf4jnsgd1na2vs0mg"},{"bike_id":"06719312-abd5-400e-b70f-5ca54e3a0e39","system_id":"levelo_inurba_marseille","lat":43.265717,"lon":5.372909,"is_reserved":false,"is_disabled":false,"rental_uris":{"android":"levelo://app?vid=06719312-abd5-400e-b70f-5ca54e3a0e39","ios":"levelo://app?vid=06719312-abd5-400e-b70f-5ca54e3a0e39"},"vehicle_type_id":"4","last_reported":1742919048,"current_range_meters":1600,"station_id":"ce4bhg12rcd13ifvqf70","pricing_plan_id":"cebpf4jnsgd1na2vs0mg"},{"bike_id":"28612735-2f70-4358-8c99-4133d5938513","system_id":"levelo_inurba_marseille","lat":43.301492,"lon":5.37456,"is_reserved":false,"is_disabled":false,"rental_uris":{"android":"levelo://app?vid=28612735-2f70-4358-8c99-4133d5938513","ios":"levelo://app?vid=28612735-2f70-4358-8c99-4133d5938513"},"vehicle_type_id":"4","last_reported":1742919048,"current_range_meters":3600,"station_id":"ce4bgs92rcd13ifvqcc0","pricing_plan_id":"cebpf4jnsgd1na2vs0mg"},{"bike_id":"bea7b3e6-b0f6-428b-98d3-61630b930d30","system_id":"levelo_inurba_marseille","lat":43.258966,"lon":5.375932,"is_reserved":false,"is_disabled":false,"rental_uris":{"android":"levelo://app?vid=bea7b3e6-b0f6-428b-98d3-61630b930d30","ios":"levelo://app?vid=bea7b3e6-b0f6-428b-98d3-61630b930d30"},"vehicle_type_id":"4","last_reported":1742919048,"current_range_meters":9200,"station_id":"ce4bhgh2rcd13ifvqfa0","pricing_plan_id":"cebpf4jnsgd1na2vs0mg"},{"bike_id":"c6ca2aed-89aa-4f22-a569-282a7ed70327","system_id":"levelo_inurba_marseille","lat":43.28413,"lon":5.34978,"is_reserved":false,"is_disabled":false,"rental_uris":{"android":"levelo://app?vid=c6ca2aed-89aa-4f22-a569-282a7ed70327","ios":"levelo://app?vid=c6ca2aed-89aa-4f22-a569-282a7ed70327"},"vehicle_type_id":"4","last_reported":1742919048,"current_range_meters":3200,"station_id":"ce4bhbh2rcd13ifvqepg","pricing_plan_id":"cebpf4jnsgd1na2vs0mg"},{"bike_id":"94ec1f8d-e250-441b-b6cd-8ffdb5a5855f","system_id":"levelo_inurba_marseille","lat":43.29044,"lon":5.35917,"is_reserved":false,"is_disabled":false,"rental_uris":{"android":"levelo://app?vid=94ec1f8d-e250-441b-b6cd-8ffdb5a5855f","ios":"levelo://app?vid=94ec1f8d-e250-441b-b6cd-8ffdb5a5855f"},"vehicle_type_id":"4","last_reported":1742919048,"current_range_meters":3200,"station_id":"ce4bha92rcd13ifvqeg0","pricing_plan_id":"cebpf4jnsgd1na2vs0mg"},{"bike_id":"b71c53e4-ec9c-47da-af41-161e65262f66","system_id":"levelo_inurba_marseille","lat":43.284241,"lon":5.349816,"is_reserved":false,"is_disabled":false,"rental_uris":{"android":"levelo://app?vid=b71c53e4-ec9c-47da-af41-161e65262f66","ios":"levelo://app?vid=b71c53e4-ec9c-47da-af41-161e65262f66"},"vehicle_type_id":"4","last_reported":1742919048,"current_range_meters":2000,"station_id":"ce4bgl12rcd13ifvqbo0","pricing_plan_id":"cebpf4jnsgd1na2vs0mg"},{"bike_id":"e8a8681a-90be-4ab3-80a0-95a4b8b4cbd9","system_id":"levelo_inurba_marseille","lat":43.31245,"lon":5.36859,"is_reserved":false,"is_disabled":false,"rental_uris":{"android":"levelo://app?vid=e8a8681a-90be-4ab3-80a0-95a4b8b4cbd9","ios":"levelo://app?vid=e8a8681a-90be-4ab3-80a0-95a4b8b4cbd9"},"vehicle_type_id":"4","last_reported":1742919048,"current_range_meters":3200,"station_id":"ce4bgl92rcd13ifvqbq0","pricing_plan_id":"cebpf4jnsgd1na2vs0mg"},{"bike_id":"be295973-b64b-4612-a980-85ed6abce5b1","system_id":"levelo_inurba_marseille","lat":43.30424,"lon":5.39754,"is_reserved":false,"is_disabled":true,"rental_uris":{"android":"levelo://app?vid=be295973-b64b-4612-a980-85ed6abce5b1","ios":"levelo://app?vid=be295973-b64b-4612-a980-85ed6abce5b1"},"vehicle_type_id":"4","last_reported":1742919048,"current_range_meters":3600,"station_id":"ce4bh092rcd13ifvqd20","pricing_plan_id":"cebpf4jnsgd1na2vs0mg"},{"bike_id":"ebf86de8-a3f7-4563-b9cd-62f5316ef4ec","system_id":"levelo_inurba_marseille","lat":43.309252,"lon":5.401472,"is_reserved":false,"is_disabled":true,"rental_uris":{"android":"levelo://app?vid=ebf86de8-a3f7-4563-b9cd-62f5316ef4ec","ios":"levelo://app?vid=ebf86de8-a3f7-4563-b9cd-62f5316ef4ec"},"vehicle_type_id":"4","last_reported":1742919048,"current_range_meters":3600,"station_id":"ce4bgvp2rcd13ifvqct0","pricing_plan_id":"cebpf4jnsgd1na2vs0mg"},{"bike_id":"3b27ba13-985b-41d9-ab83-2d3e5090d678","system_id":"levelo_inurba_marseille","lat":43.29636,"lon":5.40597,"is_reserved":false,"is_disabled":false,"rental_uris":{"android":"levelo://app?vid=3b27ba13-985b-41d9-ab83-2d3e5090d678","ios":"levelo://app?vid=3b27ba13-985b-41d9-ab83-2d3e5090d678"},"vehicle_type_id":"4","last_reported":1742919048,"current_range_meters":3600,"station_id":"ce4bh0h2rcd13ifvqd60","pricing_plan_id":"cebpf4jnsgd1na2vs0mg"},{"bike_id":"ce96cefe-0d10-4e92-af6d-fc44539a3cc1","system_id":"levelo_inurba_marseille","lat":43.26215,"lon":5.3744,"is_reserved":false,"is_disabled":false,"rental_uris":{"android":"levelo://app?vid=ce96cefe-0d10-4e92-af6d-fc44539a3cc1","ios":"levelo://app?vid=ce96cefe-0d10-4e92-af6d-fc44539a3cc1"},"vehicle_type_id":"4","last_reported":1742919048,"current_range_meters":3600,"station_id":"ce4bhgp2rcd13ifvqfc0","pricing_plan_id":"cebpf4jnsgd1na2vs0mg"},{"bike_id":"c674abf4-d5b2-45b5-99ee-1dd3f5179b2d","system_id":"levelo_inurba_marseille","lat":43.29683,"lon":5.36201,"is_reserved":false,"is_disabled":false,"rental_uris":{"android":"levelo://app?vid=c674abf4-d5b2-45b5-99ee-1dd3f5179b2d","ios":"levelo://app?vid=c674abf4-d5b2-45b5-99ee-1dd3f5179b2d"},"vehicle_type_id":"4","last_reported":1742919048,"current_range_meters":3600,"station_id":"","pricing_plan_id":"cebpf4jnsgd1na2vs0mg"},{"bike_id":"fda04b31-c9ad-44fd-adb7-62fbf773a732","system_id":"levelo_inurba_marseille","lat":43.27379,"lon":5.36254,"is_reserved":false,"is_disabled":false,"rental_uris":{"android":"levelo://app?vid=fda04b31-c9ad-44fd-adb7-62fbf773a732","ios":"levelo://app?vid=fda04b31-c9ad-44fd-adb7-62fbf773a732"},"vehicle_type_id":"4","last_reported":1742919048,"current_range_meters":3600,"station_id":"ce4bhbh2rcd13ifvqeo0","pricing_plan_id":"cebpf4jnsgd1na2vs0mg"},{"bike_id":"ea74b304-a511-42d9-802c-b73d63930d77","system_id":"levelo_inurba_marseille","lat":43.27988,"lon":5.40025,"is_reserved":false,"is_disabled":false,"rental_uris":{"android":"levelo://app?vid=ea74b304-a511-42d9-802c-b73d63930d77","ios":"levelo://app?vid=ea74b304-a511-42d9-802c-b73d63930d77"},"vehicle_type_id":"4","last_reported":1742919048,"current_range_meters":3600,"station_id":"ce4bho92rcd13ifvqh4g","pricing_plan_id":"cebpf4jnsgd1na2vs0mg"},{"bike_id":"91a7a41c-aebc-41fa-9164-9aec077190a1","system_id":"levelo_inurba_marseille","lat":43.28862,"lon":5.35867,"is_reserved":false,"is_disabled":false,"rental_uris":{"android":"levelo://app?vid=91a7a41c-aebc-41fa-9164-9aec077190a1","ios":"levelo://app?vid=91a7a41c-aebc-41fa-9164-9aec077190a1"},"vehicle_type_id":"4","last_reported":1742919048,"current_range_meters":4000,"station_id":"ce4bhb12rcd13ifvqem0","pricing_plan_id":"cebpf4jnsgd1na2vs0mg"},{"bike_id":"9cb4e541-1473-430f-aca9-b191bbf6107a","system_id":"levelo_inurba_marseille","lat":43.27987,"lon":5.40024,"is_reserved":false,"is_disabled":false,"rental_uris":{"android":"levelo://app?vid=9cb4e541-1473-430f-aca9-b191bbf6107a","ios":"levelo://app?vid=9cb4e541-1473-430f-aca9-b191bbf6107a"},"vehicle_type_id":"4","last_reported":1742919048,"current_range_meters":4000,"station_id":"ce4bho92rcd13ifvqh4g","pricing_plan_id":"cebpf4jnsgd1na2vs0mg"},{"bike_id":"7c6f6c80-8b6d-4720-b21d-c852896257a7","system_id":"levelo_inurba_marseille","lat":43.29535,"lon":5.3904,"is_reserved":false,"is_disabled":false,"rental_uris":{"android":"levelo://app?vid=7c6f6c80-8b6d-4720-b21d-c852896257a7","ios":"levelo://app?vid=7c6f6c80-8b6d-4720-b21d-c852896257a7"},"vehicle_type_id":"4","last_reported":1742919048,"current_range_meters":4000,"station_id":"ce4bh3p2rcd13ifvqdp0","pricing_plan_id":"cebpf4jnsgd1na2vs0mg"},{"bike_id":"f32cbd07-a4af-4cc5-b935-c33c020566ac","system_id":"levelo_inurba_marseille","lat":43.28162,"lon":5.42635,"is_reserved":false,"is_disabled":false,"rental_uris":{"android":"levelo://app?vid=f32cbd07-a4af-4cc5-b935-c33c020566ac","ios":"levelo://app?vid=f32cbd07-a4af-4cc5-b935-c33c020566ac"},"vehicle_type_id":"4","last_reported":1742919048,"current_range_meters":4400,"station_id":"ce4bhnh2rcd13ifvqgug","pricing_plan_id":"cebpf4jnsgd1na2vs0mg"},{"bike_id":"b8727117-5b78-4931-b703-6482be2d0344","system_id":"levelo_inurba_marseille","lat":43.25577,"lon":5.38242,"is_reserved":false,"is_disabled":false,"rental_uris":{"android":"levelo://app?vid=b8727117-5b78-4931-b703-6482be2d0344","ios":"levelo://app?vid=b8727117-5b78-4931-b703-6482be2d0344"},"vehicle_type_id":"4","last_reported":1742919048,"current_range_meters":4400,"station_id":"ce4bhih2rcd13ifvqfs0","pricing_plan_id":"cebpf4jnsgd1na2vs0mg"},{"bike_id":"fe22edde-ba5a-481d-a995-102793359aa0","system_id":"levelo_inurba_marseille","lat":43.25115,"lon":5.40319,"is_reserved":false,"is_disabled":false,"rental_uris":{"android":"levelo://app?vid=fe22edde-ba5a-481d-a995-102793359aa0","ios":"levelo://app?vid=fe22edde-ba5a-481d-a995-102793359aa0"},"vehicle_type_id":"4","last_reported":1742919048,"current_range_meters":4400,"station_id":"ce4bhlh2rcd13ifvqgig","pricing_plan_id":"cebpf4jnsgd1na2vs0mg"},{"bike_id":"2b609199-5e86-42c9-afb4-e7a35a6192b6","system_id":"levelo_inurba_marseille","lat":43.3044,"lon":5.38887,"is_reserved":false,"is_disabled":false,"rental_uris":{"android":"levelo://app?vid=2b609199-5e86-42c9-afb4-e7a35a6192b6","ios":"levelo://app?vid=2b609199-5e86-42c9-afb4-e7a35a6192b6"},"vehicle_type_id":"4","last_reported":1742919048,"current_range_meters":4800,"station_id":"ce4bgk12rcd13ifvqbi0","pricing_plan_id":"cebpf4jnsgd1na2vs0mg"},{"bike_id":"d9e04fb2-4307-487c-887e-1ba8fa9c11fc","system_id":"levelo_inurba_marseille","lat":43.33171,"lon":5.38184,"is_reserved":false,"is_disabled":false,"rental_uris":{"android":"levelo://app?vid=d9e04fb2-4307-487c-887e-1ba8fa9c11fc","ios":"levelo://app?vid=d9e04fb2-4307-487c-887e-1ba8fa9c11fc"},"vehicle_type_id":"4","last_reported":1742919048,"current_range_meters":4800,"station_id":"","pricing_plan_id":"cebpf4jnsgd1na2vs0mg"},{"bike_id":"ff2e60d0-cc5d-485b-8b45-8f58e1016574","system_id":"levelo_inurba_marseille","lat":43.266928,"lon":5.382749,"is_reserved":false,"is_disabled":false,"rental_uris":{"android":"levelo://app?vid=ff2e60d0-cc5d-485b-8b45-8f58e1016574","ios":"levelo://app?vid=ff2e60d0-cc5d-485b-8b45-8f58e1016574"},"vehicle_type_id":"4","last_reported":1742919048,"current_range_meters":4800,"station_id":"ce4bhg92rcd13ifvqf90","pricing_plan_id":"cebpf4jnsgd1na2vs0mg"},{"bike_id":"914d07e2-95c0-4852-99c5-a2b70e525605","system_id":"levelo_inurba_marseille","lat":43.28465,"lon":5.38552,"is_reserved":false,"is_disabled":false,"rental_uris":{"android":"levelo://app?vid=914d07e2-95c0-4852-99c5-a2b70e525605","ios":"levelo://app?vid=914d07e2-95c0-4852-99c5-a2b70e525605"},"vehicle_type_id":"4","last_reported":1742919048,"current_range_meters":4800,"station_id":"ce4bh8p2rcd13ifvqeb0","pricing_plan_id":"cebpf4jnsgd1na2vs0mg"},{"bike_id":"2f08ba24-c017-4334-8cd8-6cb49eab4771","system_id":"levelo_inurba_marseille","lat":43.31662,"lon":5.37234,"is_reserved":false,"is_disabled":false,"rental_uris":{"android":"levelo://app?vid=2f08ba24-c017-4334-8cd8-6cb49eab4771","ios":"levelo://app?vid=2f08ba24-c017-4334-8cd8-6cb49eab4771"},"vehicle_type_id":"4","last_reported":1742919048,"current_range_meters":4800,"station_id":"","pricing_plan_id":"cebpf4jnsgd1na2vs0mg"},{"bike_id":"6f3a3ecb-8dc9-4ceb-9c21-88f381d21dc9","system_id":"levelo_inurba_marseille","lat":43.31302,"lon":5.37598,"is_reserved":false,"is_disabled":false,"rental_uris":{"android":"levelo://app?vid=6f3a3ecb-8dc9-4ceb-9c21-88f381d21dc9","ios":"levelo://app?vid=6f3a3ecb-8dc9-4ceb-9c21-88f381d21dc9"},"vehicle_type_id":"4","last_reported":1742919048,"current_range_meters":5600,"station_id":"","pricing_plan_id":"cebpf4jnsgd1na2vs0mg"},{"bike_id":"40c6c38d-7c08-4634-b2e8-fc9f8f5447a9","system_id":"levelo_inurba_marseille","lat":43.24815,"lon":5.37467,"is_reserved":false,"is_disabled":false,"rental_uris":{"android":"levelo://app?vid=40c6c38d-7c08-4634-b2e8-fc9f8f5447a9","ios":"levelo://app?vid=40c6c38d-7c08-4634-b2e8-fc9f8f5447a9"},"vehicle_type_id":"4","last_reported":1742919048,"current_range_meters":5600,"station_id":"ce4bhgh2rcd13ifvqfb0","pricing_plan_id":"cebpf4jnsgd1na2vs0mg"},{"bike_id":"a18bcc34-c41a-4d6a-897b-5b97c82ff532","system_id":"levelo_inurba_marseille","lat":43.25874,"lon":5.39908,"is_reserved":false,"is_disabled":false,"rental_uris":{"android":"levelo://app?vid=a18bcc34-c41a-4d6a-897b-5b97c82ff532","ios":"levelo://app?vid=a18bcc34-c41a-4d6a-897b-5b97c82ff532"},"vehicle_type_id":"4","last_reported":1742919048,"current_range_meters":5600,"station_id":"ce4bhl92rcd13ifvqghg","pricing_plan_id":"cebpf4jnsgd1na2vs0mg"},{"bike_id":"df632c8e-92f6-4b8a-9524-6d142d68aad1","system_id":"levelo_inurba_marseille","lat":43.2558,"lon":5.38236,"is_reserved":false,"is_disabled":false,"rental_uris":{"android":"levelo://app?vid=df632c8e-92f6-4b8a-9524-6d142d68aad1","ios":"levelo://app?vid=df632c8e-92f6-4b8a-9524-6d142d68aad1"},"vehicle_type_id":"4","last_reported":1742919048,"current_range_meters":5600,"station_id":"ce4bhih2rcd13ifvqfs0","pricing_plan_id":"cebpf4jnsgd1na2vs0mg"},{"bike_id":"b8179fb1-cc21-4f9f-b56b-d21bac76b2a1","system_id":"levelo_inurba_marseille","lat":43.28156,"lon":5.42643,"is_reserved":false,"is_disabled":false,"rental_uris":{"android":"levelo://app?vid=b8179fb1-cc21-4f9f-b56b-d21bac76b2a1","ios":"levelo://app?vid=b8179fb1-cc21-4f9f-b56b-d21bac76b2a1"},"vehicle_type_id":"4","last_reported":1742919048,"current_range_meters":6000,"station_id":"ce4bhnh2rcd13ifvqgug","pricing_plan_id":"cebpf4jnsgd1na2vs0mg"},{"bike_id":"898719d5-ffcd-4cce-af90-d4d75e85ec0e","system_id":"levelo_inurba_marseille","lat":43.29633,"lon":5.4059,"is_reserved":false,"is_disabled":false,"rental_uris":{"android":"levelo://app?vid=898719d5-ffcd-4cce-af90-d4d75e85ec0e","ios":"levelo://app?vid=898719d5-ffcd-4cce-af90-d4d75e85ec0e"},"vehicle_type_id":"4","last_reported":1742919048,"current_range_meters":6000,"station_id":"ce4bh0h2rcd13ifvqd60","pricing_plan_id":"cebpf4jnsgd1na2vs0mg"},{"bike_id":"a1467c8d-d458-48fa-ae2a-398452ffafde","system_id":"levelo_inurba_marseille","lat":43.31759,"lon":5.39005,"is_reserved":false,"is_disabled":false,"rental_uris":{"android":"levelo://app?vid=a1467c8d-d458-48fa-ae2a-398452ffafde","ios":"levelo://app?vid=a1467c8d-d458-48fa-ae2a-398452ffafde"},"vehicle_type_id":"4","last_reported":1742919048,"current_range_meters":6000,"station_id":"ce4bhqp2rcd13ifvqhng","pricing_plan_id":"cebpf4jnsgd1na2vs0mg"},{"bike_id":"b7d700cc-e80e-461a-a5b3-d22a71e707a9","system_id":"levelo_inurba_marseille","lat":43.29418,"lon":5.38628,"is_reserved":false,"is_disabled":false,"rental_uris":{"android":"levelo://app?vid=b7d700cc-e80e-461a-a5b3-d22a71e707a9","ios":"levelo://app?vid=b7d700cc-e80e-461a-a5b3-d22a71e707a9"},"vehicle_type_id":"4","last_reported":1742919048,"current_range_meters":6000,"station_id":"ce4bh2h2rcd13ifvqdh0","pricing_plan_id":"cebpf4jnsgd1na2vs0mg"},{"bike_id":"d0de300c-b25d-4431-929e-879e18667c2d","system_id":"levelo_inurba_marseille","lat":43.33096,"lon":5.38702,"is_reserved":false,"is_disabled":false,"rental_uris":{"android":"levelo://app?vid=d0de300c-b25d-4431-929e-879e18667c2d","ios":"levelo://app?vid=d0de300c-b25d-4431-929e-879e18667c2d"},"vehicle_type_id":"4","last_reported":1742919048,"current_range_meters":6000,"station_id":"","pricing_plan_id":"cebpf4jnsgd1na2vs0mg"},{"bike_id":"775601d0-1d64-4764-8b8d-386525c8a65d","system_id":"levelo_inurba_marseille","lat":43.32114,"lon":5.36763,"is_reserved":false,"is_disabled":false,"rental_uris":{"android":"levelo://app?vid=775601d0-1d64-4764-8b8d-386525c8a65d","ios":"levelo://app?vid=775601d0-1d64-4764-8b8d-386525c8a65d"},"vehicle_type_id":"4","last_reported":1742919048,"current_range_meters":6000,"station_id":"ce4bhrh2rcd13ifvqhug","pricing_plan_id":"cebpf4jnsgd1na2vs0mg"},{"bike_id":"8723922e-320e-4649-af0a-8190d390afa0","system_id":"levelo_inurba_marseille","lat":43.32115,"lon":5.36806,"is_reserved":false,"is_disabled":false,"rental_uris":{"android":"levelo://app?vid=8723922e-320e-4649-af0a-8190d390afa0","ios":"levelo://app?vid=8723922e-320e-4649-af0a-8190d390afa0"},"vehicle_type_id":"4","last_reported":1742919048,"current_range_meters":6000,"station_id":"ce4bhrh2rcd13ifvqhug","pricing_plan_id":"cebpf4jnsgd1na2vs0mg"},{"bike_id":"cf30ba2d-9dd5-4d8d-b3a7-9af496f3ef85","system_id":"levelo_inurba_marseille","lat":43.289226,"lon":5.381897,"is_reserved":false,"is_disabled":false,"rental_uris":{"android":"levelo://app?vid=cf30ba2d-9dd5-4d8d-b3a7-9af496f3ef85","ios":"levelo://app?vid=cf30ba2d-9dd5-4d8d-b3a7-9af496f3ef85"},"vehicle_type_id":"4","last_reported":1742919048,"current_range_meters":6000,"station_id":"ce4bh4p2rcd13ifvqe1g","pricing_plan_id":"cebpf4jnsgd1na2vs0mg"},{"bike_id":"7fe9a385-3cb1-429e-bc3b-abab1a23a3a2","system_id":"levelo_inurba_marseille","lat":43.230611,"lon":5.354936,"is_reserved":false,"is_disabled":false,"rental_uris":{"android":"levelo://app?vid=7fe9a385-3cb1-429e-bc3b-abab1a23a3a2","ios":"levelo://app?vid=7fe9a385-3cb1-429e-bc3b-abab1a23a3a2"},"vehicle_type_id":"4","last_reported":1742919048,"current_range_meters":6000,"station_id":"cpo3342slgdg3j2ifvpg","pricing_plan_id":"cebpf4jnsgd1na2vs0mg"},{"bike_id":"998dba84-c8b1-487c-a566-ac6493a0b402","system_id":"levelo_inurba_marseille","lat":43.25115,"lon":5.40335,"is_reserved":false,"is_disabled":false,"rental_uris":{"android":"levelo://app?vid=998dba84-c8b1-487c-a566-ac6493a0b402","ios":"levelo://app?vid=998dba84-c8b1-487c-a566-ac6493a0b402"},"vehicle_type_id":"4","last_reported":1742919048,"current_range_meters":0,"station_id":"ce4bhlh2rcd13ifvqgig","pricing_plan_id":"cebpf4jnsgd1na2vs0mg"},{"bike_id":"1b65f3cd-728f-4b90-b6fb-89cc294d02b1","system_id":"levelo_inurba_marseille","lat":43.29899,"lon":5.43664,"is_reserved":false,"is_disabled":false,"rental_uris":{"android":"levelo://app?vid=1b65f3cd-728f-4b90-b6fb-89cc294d02b1","ios":"levelo://app?vid=1b65f3cd-728f-4b90-b6fb-89cc294d02b1"},"vehicle_type_id":"4","last_reported":1742919048,"current_range_meters":6000,"station_id":"ce4bhpp2rcd13ifvqhfg","pricing_plan_id":"cebpf4jnsgd1na2vs0mg"},{"bike_id":"586906c0-4a28-4f24-825f-02459e62ffeb","system_id":"levelo_inurba_marseille","lat":43.2873,"lon":5.36078,"is_reserved":false,"is_disabled":false,"rental_uris":{"android":"levelo://app?vid=586906c0-4a28-4f24-825f-02459e62ffeb","ios":"levelo://app?vid=586906c0-4a28-4f24-825f-02459e62ffeb"},"vehicle_type_id":"4","last_reported":1742919048,"current_range_meters":6400,"station_id":"cki0cbj6b192h4jlfktg","pricing_plan_id":"cebpf4jnsgd1na2vs0mg"},{"bike_id":"dfe51f8a-94cd-4d8a-8aec-25874a5013a5","system_id":"levelo_inurba_marseille","lat":43.29206,"lon":5.39324,"is_reserved":false,"is_disabled":false,"rental_uris":{"android":"levelo://app?vid=dfe51f8a-94cd-4d8a-8aec-25874a5013a5","ios":"levelo://app?vid=dfe51f8a-94cd-4d8a-8aec-25874a5013a5"},"vehicle_type_id":"4","last_reported":1742919048,"current_range_meters":6400,"station_id":"ce4bh192rcd13ifvqdd0","pricing_plan_id":"cebpf4jnsgd1na2vs0mg"},{"bike_id":"ad53f3fc-cf5b-43d1-b346-44e38477f0f2","system_id":"levelo_inurba_marseille","lat":43.24803,"lon":5.37454,"is_reserved":false,"is_disabled":false,"rental_uris":{"android":"levelo://app?vid=ad53f3fc-cf5b-43d1-b346-44e38477f0f2","ios":"levelo://app?vid=ad53f3fc-cf5b-43d1-b346-44e38477f0f2"},"vehicle_type_id":"4","last_reported":1742919048,"current_range_meters":6400,"station_id":"ce4bhgh2rcd13ifvqfb0","pricing_plan_id":"cebpf4jnsgd1na2vs0mg"},{"bike_id":"4b82f9a6-2f12-42e5-86cc-35d0acf12b8e","system_id":"levelo_inurba_marseille","lat":43.25086,"lon":5.39515,"is_reserved":false,"is_disabled":false,"rental_uris":{"android":"levelo://app?vid=4b82f9a6-2f12-42e5-86cc-35d0acf12b8e","ios":"levelo://app?vid=4b82f9a6-2f12-42e5-86cc-35d0acf12b8e"},"vehicle_type_id":"4","last_reported":1742919048,"current_range_meters":6400,"station_id":"ce4bhm12rcd13ifvqgkg","pricing_plan_id":"cebpf4jnsgd1na2vs0mg"},{"bike_id":"6d3e6b6d-9812-4b3b-9cc0-b90f29bc8fe5","system_id":"levelo_inurba_marseille","lat":43.26231,"lon":5.40464,"is_reserved":false,"is_disabled":false,"rental_uris":{"android":"levelo://app?vid=6d3e6b6d-9812-4b3b-9cc0-b90f29bc8fe5","ios":"levelo://app?vid=6d3e6b6d-9812-4b3b-9cc0-b90f29bc8fe5"},"vehicle_type_id":"4","last_reported":1742919048,"current_range_meters":9200,"station_id":"ce4bhmh2rcd13ifvqgmg","pricing_plan_id":"cebpf4jnsgd1na2vs0mg"},{"bike_id":"466b240e-8af4-43dd-a4b7-495b57b70ed0","system_id":"levelo_inurba_marseille","lat":43.2784,"lon":5.39198,"is_reserved":false,"is_disabled":false,"rental_uris":{"android":"levelo://app?vid=466b240e-8af4-43dd-a4b7-495b57b70ed0","ios":"levelo://app?vid=466b240e-8af4-43dd-a4b7-495b57b70ed0"},"vehicle_type_id":"4","last_reported":1742919048,"current_range_meters":6000,"station_id":"ce4bhjp2rcd13ifvqga0","pricing_plan_id":"cebpf4jnsgd1na2vs0mg"},{"bike_id":"fbfecbb6-5794-4d9a-9176-1810e4b4a7ef","system_id":"levelo_inurba_marseille","lat":43.23067,"lon":5.35496,"is_reserved":false,"is_disabled":false,"rental_uris":{"android":"levelo://app?vid=fbfecbb6-5794-4d9a-9176-1810e4b4a7ef","ios":"levelo://app?vid=fbfecbb6-5794-4d9a-9176-1810e4b4a7ef"},"vehicle_type_id":"4","last_reported":1742919048,"current_range_meters":6400,"station_id":"cpo3342slgdg3j2ifvpg","pricing_plan_id":"cebpf4jnsgd1na2vs0mg"},{"bike_id":"72be74dd-0f77-40ea-8d8e-12765168ba69","system_id":"levelo_inurba_marseille","lat":43.28715,"lon":5.39989,"is_reserved":false,"is_disabled":false,"rental_uris":{"android":"levelo://app?vid=72be74dd-0f77-40ea-8d8e-12765168ba69","ios":"levelo://app?vid=72be74dd-0f77-40ea-8d8e-12765168ba69"},"vehicle_type_id":"4","last_reported":1742919048,"current_range_meters":6400,"station_id":"ce4bho92rcd13ifvqh3g","pricing_plan_id":"cebpf4jnsgd1na2vs0mg"},{"bike_id":"2d5ed7d8-b98c-48c3-85a6-c75438c93d03","system_id":"levelo_inurba_marseille","lat":43.29689,"lon":5.36579,"is_reserved":false,"is_disabled":false,"rental_uris":{"android":"levelo://app?vid=2d5ed7d8-b98c-48c3-85a6-c75438c93d03","ios":"levelo://app?vid=2d5ed7d8-b98c-48c3-85a6-c75438c93d03"},"vehicle_type_id":"4","last_reported":1742919048,"current_range_meters":6400,"station_id":"ce4bgn12rcd13ifvqbt0","pricing_plan_id":"cebpf4jnsgd1na2vs0mg"},{"bike_id":"e8e78699-c895-41e0-9ac6-e9dc3b4ffb9f","system_id":"levelo_inurba_marseille","lat":43.28418,"lon":5.34983,"is_reserved":false,"is_disabled":false,"rental_uris":{"android":"levelo://app?vid=e8e78699-c895-41e0-9ac6-e9dc3b4ffb9f","ios":"levelo://app?vid=e8e78699-c895-41e0-9ac6-e9dc3b4ffb9f"},"vehicle_type_id":"4","last_reported":1742919048,"current_range_meters":6000,"station_id":"ce4bh3h2rcd13ifvqdn0","pricing_plan_id":"cebpf4jnsgd1na2vs0mg"},{"bike_id":"e117a0a5-1095-47c3-90e2-c8d5bf6e72e4","system_id":"levelo_inurba_marseille","lat":43.30608,"lon":5.3666,"is_reserved":false,"is_disabled":false,"rental_uris":{"android":"levelo://app?vid=e117a0a5-1095-47c3-90e2-c8d5bf6e72e4","ios":"levelo://app?vid=e117a0a5-1095-47c3-90e2-c8d5bf6e72e4"},"vehicle_type_id":"4","last_reported":1742919048,"current_range_meters":6400,"station_id":"","pricing_plan_id":"cebpf4jnsgd1na2vs0mg"},{"bike_id":"c9e38cae-e556-4f76-b64a-1f94d19ed782","system_id":"levelo_inurba_marseille","lat":43.22928,"lon":5.35371,"is_reserved":false,"is_disabled":false,"rental_uris":{"android":"levelo://app?vid=c9e38cae-e556-4f76-b64a-1f94d19ed782","ios":"levelo://app?vid=c9e38cae-e556-4f76-b64a-1f94d19ed782"},"vehicle_type_id":"4","last_reported":1742919048,"current_range_meters":6800,"station_id":"cpo3532slgdg3j2ikp40","pricing_plan_id":"cebpf4jnsgd1na2vs0mg"},{"bike_id":"2462aff4-312c-46a9-ae18-d864ef42c20c","system_id":"levelo_inurba_marseille","lat":43.24172,"lon":5.3641,"is_reserved":false,"is_disabled":false,"rental_uris":{"android":"levelo://app?vid=2462aff4-312c-46a9-ae18-d864ef42c20c","ios":"levelo://app?vid=2462aff4-312c-46a9-ae18-d864ef42c20c"},"vehicle_type_id":"4","last_reported":1742919048,"current_range_meters":6800,"station_id":"cpo36qri1sfpv3e86is0","pricing_plan_id":"cebpf4jnsgd1na2vs0mg"},{"bike_id":"aee65f89-d928-4f0d-b9ee-4a47671540a1","system_id":"levelo_inurba_marseille","lat":43.31223,"lon":5.36849,"is_reserved":false,"is_disabled":false,"rental_uris":{"android":"levelo://app?vid=aee65f89-d928-4f0d-b9ee-4a47671540a1","ios":"levelo://app?vid=aee65f89-d928-4f0d-b9ee-4a47671540a1"},"vehicle_type_id":"4","last_reported":1742919048,"current_range_meters":6800,"station_id":"ce4bgl92rcd13ifvqbq0","pricing_plan_id":"cebpf4jnsgd1na2vs0mg"},{"bike_id":"1b8779ee-15bd-411f-8230-66fb3b9d06b8","system_id":"levelo_inurba_marseille","lat":43.299,"lon":5.43664,"is_reserved":false,"is_disabled":false,"rental_uris":{"android":"levelo://app?vid=1b8779ee-15bd-411f-8230-66fb3b9d06b8","ios":"levelo://app?vid=1b8779ee-15bd-411f-8230-66fb3b9d06b8"},"vehicle_type_id":"4","last_reported":1742919048,"current_range_meters":6800,"station_id":"ce4bhpp2rcd13ifvqhfg","pricing_plan_id":"cebpf4jnsgd1na2vs0mg"},{"bike_id":"1cdb5e5f-6bda-4e07-b645-0554ed59cc39","system_id":"levelo_inurba_marseille","lat":43.25826,"lon":5.39428,"is_reserved":false,"is_disabled":false,"rental_uris":{"android":"levelo://app?vid=1cdb5e5f-6bda-4e07-b645-0554ed59cc39","ios":"levelo://app?vid=1cdb5e5f-6bda-4e07-b645-0554ed59cc39"},"vehicle_type_id":"4","last_reported":1742919048,"current_range_meters":6800,"station_id":"ce4bhip2rcd13ifvqft0","pricing_plan_id":"cebpf4jnsgd1na2vs0mg"},{"bike_id":"60a4bfdd-976f-4f2f-a21a-68c4e333ecd6","system_id":"levelo_inurba_marseille","lat":43.23073,"lon":5.35501,"is_reserved":false,"is_disabled":false,"rental_uris":{"android":"levelo://app?vid=60a4bfdd-976f-4f2f-a21a-68c4e333ecd6","ios":"levelo://app?vid=60a4bfdd-976f-4f2f-a21a-68c4e333ecd6"},"vehicle_type_id":"4","last_reported":1742919048,"current_range_meters":6800,"station_id":"cpo3342slgdg3j2ifvpg","pricing_plan_id":"cebpf4jnsgd1na2vs0mg"},{"bike_id":"077f2b93-8f43-4f08-8ace-a02b56488cac","system_id":"levelo_inurba_marseille","lat":43.2624,"lon":5.40456,"is_reserved":false,"is_disabled":false,"rental_uris":{"android":"levelo://app?vid=077f2b93-8f43-4f08-8ace-a02b56488cac","ios":"levelo://app?vid=077f2b93-8f43-4f08-8ace-a02b56488cac"},"vehicle_type_id":"4","last_reported":1742919048,"current_range_meters":6800,"station_id":"ce4bhmh2rcd13ifvqgmg","pricing_plan_id":"cebpf4jnsgd1na2vs0mg"},{"bike_id":"4941eea8-a781-468b-b83e-defe6faab05f","system_id":"levelo_inurba_marseille","lat":43.32285,"lon":5.38258,"is_reserved":false,"is_disabled":false,"rental_uris":{"android":"levelo://app?vid=4941eea8-a781-468b-b83e-defe6faab05f","ios":"levelo://app?vid=4941eea8-a781-468b-b83e-defe6faab05f"},"vehicle_type_id":"4","last_reported":1742919048,"current_range_meters":6800,"station_id":"ce4bhr12rcd13ifvqhqg","pricing_plan_id":"cebpf4jnsgd1na2vs0mg"},{"bike_id":"50b83e63-792b-454a-8347-2a88185fc76e","system_id":"levelo_inurba_marseille","lat":43.294135,"lon":5.377092,"is_reserved":false,"is_disabled":false,"rental_uris":{"android":"levelo://app?vid=50b83e63-792b-454a-8347-2a88185fc76e","ios":"levelo://app?vid=50b83e63-792b-454a-8347-2a88185fc76e"},"vehicle_type_id":"4","last_reported":1742919048,"current_range_meters":8000,"station_id":"ce4bh3p2rcd13ifvqdp0","pricing_plan_id":"cebpf4jnsgd1na2vs0mg"},{"bike_id":"f01d8139-5ac8-4ddc-b477-0048c8b17695","system_id":"levelo_inurba_marseille","lat":43.2931,"lon":5.38517,"is_reserved":false,"is_disabled":false,"rental_uris":{"android":"levelo://app?vid=f01d8139-5ac8-4ddc-b477-0048c8b17695","ios":"levelo://app?vid=f01d8139-5ac8-4ddc-b477-0048c8b17695"},"vehicle_type_id":"4","last_reported":1742919048,"current_range_meters":7200,"station_id":"ce4bh292rcd13ifvqdf0","pricing_plan_id":"cebpf4jnsgd1na2vs0mg"},{"bike_id":"89726fdc-bac8-4a97-9944-0e6899c7f8d2","system_id":"levelo_inurba_marseille","lat":43.29675,"lon":5.3624,"is_reserved":false,"is_disabled":false,"rental_uris":{"android":"levelo://app?vid=89726fdc-bac8-4a97-9944-0e6899c7f8d2","ios":"levelo://app?vid=89726fdc-bac8-4a97-9944-0e6899c7f8d2"},"vehicle_type_id":"4","last_reported":1742919048,"current_range_meters":7200,"station_id":"","pricing_plan_id":"cebpf4jnsgd1na2vs0mg"},{"bike_id":"463a4df3-df32-4854-9380-c2e9927dee65","system_id":"levelo_inurba_marseille","lat":43.3236,"lon":5.38883,"is_reserved":false,"is_disabled":false,"rental_uris":{"android":"levelo://app?vid=463a4df3-df32-4854-9380-c2e9927dee65","ios":"levelo://app?vid=463a4df3-df32-4854-9380-c2e9927dee65"},"vehicle_type_id":"4","last_reported":1742919048,"current_range_meters":7200,"station_id":"ce4bhqp2rcd13ifvqhog","pricing_plan_id":"cebpf4jnsgd1na2vs0mg"},{"bike_id":"54b2eb2e-f099-4f46-9067-448b807e02c4","system_id":"levelo_inurba_marseille","lat":43.29042,"lon":5.356,"is_reserved":false,"is_disabled":false,"rental_uris":{"android":"levelo://app?vid=54b2eb2e-f099-4f46-9067-448b807e02c4","ios":"levelo://app?vid=54b2eb2e-f099-4f46-9067-448b807e02c4"},"vehicle_type_id":"4","last_reported":1742919048,"current_range_meters":7200,"station_id":"","pricing_plan_id":"cebpf4jnsgd1na2vs0mg"},{"bike_id":"fadf20a5-3b5c-49ed-957f-5516b2f5674c","system_id":"levelo_inurba_marseille","lat":43.26556,"lon":5.37284,"is_reserved":false,"is_disabled":false,"rental_uris":{"android":"levelo://app?vid=fadf20a5-3b5c-49ed-957f-5516b2f5674c","ios":"levelo://app?vid=fadf20a5-3b5c-49ed-957f-5516b2f5674c"},"vehicle_type_id":"4","last_reported":1742919048,"current_range_meters":7200,"station_id":"ce4bhg12rcd13ifvqf70","pricing_plan_id":"cebpf4jnsgd1na2vs0mg"},{"bike_id":"1e611466-2c74-4567-9eb9-7c7a16ab3cce","system_id":"levelo_inurba_marseille","lat":43.28154,"lon":5.42641,"is_reserved":false,"is_disabled":false,"rental_uris":{"android":"levelo://app?vid=1e611466-2c74-4567-9eb9-7c7a16ab3cce","ios":"levelo://app?vid=1e611466-2c74-4567-9eb9-7c7a16ab3cce"},"vehicle_type_id":"4","last_reported":1742919048,"current_range_meters":7200,"station_id":"ce4bhnh2rcd13ifvqgug","pricing_plan_id":"cebpf4jnsgd1na2vs0mg"},{"bike_id":"0957846f-e3eb-4816-ba0a-8d8736e1afee","system_id":"levelo_inurba_marseille","lat":43.29543,"lon":5.38539,"is_reserved":false,"is_disabled":false,"rental_uris":{"android":"levelo://app?vid=0957846f-e3eb-4816-ba0a-8d8736e1afee","ios":"levelo://app?vid=0957846f-e3eb-4816-ba0a-8d8736e1afee"},"vehicle_type_id":"4","last_reported":1742919048,"current_range_meters":7200,"station_id":"ce4bgih2rcd13ifvqba0","pricing_plan_id":"cebpf4jnsgd1na2vs0mg"},{"bike_id":"a6ef28f0-c60f-4119-bd1a-2502381c6037","system_id":"levelo_inurba_marseille","lat":43.30304,"lon":5.36881,"is_reserved":false,"is_disabled":false,"rental_uris":{"android":"levelo://app?vid=a6ef28f0-c60f-4119-bd1a-2502381c6037","ios":"levelo://app?vid=a6ef28f0-c60f-4119-bd1a-2502381c6037"},"vehicle_type_id":"4","last_reported":1742919048,"current_range_meters":8000,"station_id":"ce4bgqh2rcd13ifvqc5g","pricing_plan_id":"cebpf4jnsgd1na2vs0mg"},{"bike_id":"8c525436-78cb-4eda-8b88-16e3a6e0d390","system_id":"levelo_inurba_marseille","lat":43.24839,"lon":5.37374,"is_reserved":false,"is_disabled":false,"rental_uris":{"android":"levelo://app?vid=8c525436-78cb-4eda-8b88-16e3a6e0d390","ios":"levelo://app?vid=8c525436-78cb-4eda-8b88-16e3a6e0d390"},"vehicle_type_id":"4","last_reported":1742919048,"current_range_meters":8000,"station_id":"ce4bhgh2rcd13ifvqfb0","pricing_plan_id":"cebpf4jnsgd1na2vs0mg"},{"bike_id":"c0802077-7a16-4727-a8dd-d6fc82bd7f7d","system_id":"levelo_inurba_marseille","lat":43.26684,"lon":5.38274,"is_reserved":false,"is_disabled":false,"rental_uris":{"android":"levelo://app?vid=c0802077-7a16-4727-a8dd-d6fc82bd7f7d","ios":"levelo://app?vid=c0802077-7a16-4727-a8dd-d6fc82bd7f7d"},"vehicle_type_id":"4","last_reported":1742919048,"current_range_meters":8000,"station_id":"ce4bhg92rcd13ifvqf90","pricing_plan_id":"cebpf4jnsgd1na2vs0mg"},{"bike_id":"a0d4632a-7a87-4031-aeeb-061ca0feaca6","system_id":"levelo_inurba_marseille","lat":43.23957,"lon":5.36621,"is_reserved":false,"is_disabled":false,"rental_uris":{"android":"levelo://app?vid=a0d4632a-7a87-4031-aeeb-061ca0feaca6","ios":"levelo://app?vid=a0d4632a-7a87-4031-aeeb-061ca0feaca6"},"vehicle_type_id":"4","last_reported":1742919048,"current_range_meters":8400,"station_id":"ce4bhi12rcd13ifvqfp0","pricing_plan_id":"cebpf4jnsgd1na2vs0mg"},{"bike_id":"15e3e5eb-d835-4728-a546-750b58ac5259","system_id":"levelo_inurba_marseille","lat":43.31782,"lon":5.39018,"is_reserved":false,"is_disabled":false,"rental_uris":{"android":"levelo://app?vid=15e3e5eb-d835-4728-a546-750b58ac5259","ios":"levelo://app?vid=15e3e5eb-d835-4728-a546-750b58ac5259"},"vehicle_type_id":"4","last_reported":1742919048,"current_range_meters":8400,"station_id":"ce4bhqp2rcd13ifvqhng","pricing_plan_id":"cebpf4jnsgd1na2vs0mg"},{"bike_id":"8863ea21-846f-4583-9230-75e6392ab351","system_id":"levelo_inurba_marseille","lat":43.31773,"lon":5.39054,"is_reserved":false,"is_disabled":false,"rental_uris":{"android":"levelo://app?vid=8863ea21-846f-4583-9230-75e6392ab351","ios":"levelo://app?vid=8863ea21-846f-4583-9230-75e6392ab351"},"vehicle_type_id":"4","last_reported":1742919048,"current_range_meters":8400,"station_id":"ce4bhqp2rcd13ifvqhng","pricing_plan_id":"cebpf4jnsgd1na2vs0mg"},{"bike_id":"f9734f80-b982-476e-aff2-358aba5839be","system_id":"levelo_inurba_marseille","lat":43.26558,"lon":5.37277,"is_reserved":false,"is_disabled":false,"rental_uris":{"android":"levelo://app?vid=f9734f80-b982-476e-aff2-358aba5839be","ios":"levelo://app?vid=f9734f80-b982-476e-aff2-358aba5839be"},"vehicle_type_id":"4","last_reported":1742919048,"current_range_meters":8400,"station_id":"ce4bhg12rcd13ifvqf70","pricing_plan_id":"cebpf4jnsgd1na2vs0mg"},{"bike_id":"ef43d9bd-e531-4a59-b8a9-fdc80b41fa34","system_id":"levelo_inurba_marseille","lat":43.31285,"lon":5.40173,"is_reserved":false,"is_disabled":true,"rental_uris":{"android":"levelo://app?vid=ef43d9bd-e531-4a59-b8a9-fdc80b41fa34","ios":"levelo://app?vid=ef43d9bd-e531-4a59-b8a9-fdc80b41fa34"},"vehicle_type_id":"4","last_reported":1742919048,"current_range_meters":8400,"station_id":"ce4bh092rcd13ifvqd30","pricing_plan_id":"cebpf4jnsgd1na2vs0mg"},{"bike_id":"d7c12436-4bbb-40d1-a28a-aede6f2646e5","system_id":"levelo_inurba_marseille","lat":43.31193,"lon":5.36836,"is_reserved":false,"is_disabled":false,"rental_uris":{"android":"levelo://app?vid=d7c12436-4bbb-40d1-a28a-aede6f2646e5","ios":"levelo://app?vid=d7c12436-4bbb-40d1-a28a-aede6f2646e5"},"vehicle_type_id":"4","last_reported":1742919048,"current_range_meters":8400,"station_id":"ce4bgl92rcd13ifvqbq0","pricing_plan_id":"cebpf4jnsgd1na2vs0mg"},{"bike_id":"d8fd9b24-6954-489d-a399-d310337bb2d1","system_id":"levelo_inurba_marseille","lat":43.29203,"lon":5.35799,"is_reserved":false,"is_disabled":false,"rental_uris":{"android":"levelo://app?vid=d8fd9b24-6954-489d-a399-d310337bb2d1","ios":"levelo://app?vid=d8fd9b24-6954-489d-a399-d310337bb2d1"},"vehicle_type_id":"4","last_reported":1742919048,"current_range_meters":8400,"station_id":"ce4bhb12rcd13ifvqel0","pricing_plan_id":"cebpf4jnsgd1na2vs0mg"},{"bike_id":"61a5d0ad-db6f-41af-a15f-7db06a934354","system_id":"levelo_inurba_marseille","lat":43.27374,"lon":5.36259,"is_reserved":false,"is_disabled":false,"rental_uris":{"android":"levelo://app?vid=61a5d0ad-db6f-41af-a15f-7db06a934354","ios":"levelo://app?vid=61a5d0ad-db6f-41af-a15f-7db06a934354"},"vehicle_type_id":"4","last_reported":1742919048,"current_range_meters":8800,"station_id":"ce4bhbh2rcd13ifvqeo0","pricing_plan_id":"cebpf4jnsgd1na2vs0mg"},{"bike_id":"2a00e69f-e8f0-4293-a71f-9f6c011d4f23","system_id":"levelo_inurba_marseille","lat":43.24995,"lon":5.38928,"is_reserved":false,"is_disabled":false,"rental_uris":{"android":"levelo://app?vid=2a00e69f-e8f0-4293-a71f-9f6c011d4f23","ios":"levelo://app?vid=2a00e69f-e8f0-4293-a71f-9f6c011d4f23"},"vehicle_type_id":"4","last_reported":1742919048,"current_range_meters":8800,"station_id":"ce4bhgp2rcd13ifvqfd0","pricing_plan_id":"cebpf4jnsgd1na2vs0mg"},{"bike_id":"315f585f-9b25-44fe-8a2b-4e9a490bbaa9","system_id":"levelo_inurba_marseille","lat":43.24179,"lon":5.3973,"is_reserved":false,"is_disabled":false,"rental_uris":{"android":"levelo://app?vid=315f585f-9b25-44fe-8a2b-4e9a490bbaa9","ios":"levelo://app?vid=315f585f-9b25-44fe-8a2b-4e9a490bbaa9"},"vehicle_type_id":"4","last_reported":1742919048,"current_range_meters":8800,"station_id":"ce4bhn12rcd13ifvqgpg","pricing_plan_id":"cebpf4jnsgd1na2vs0mg"},{"bike_id":"d7608a6d-c028-4adf-a31d-366dbf880c43","system_id":"levelo_inurba_marseille","lat":43.29216,"lon":5.36066,"is_reserved":false,"is_disabled":false,"rental_uris":{"android":"levelo://app?vid=d7608a6d-c028-4adf-a31d-366dbf880c43","ios":"levelo://app?vid=d7608a6d-c028-4adf-a31d-366dbf880c43"},"vehicle_type_id":"4","last_reported":1742919048,"current_range_meters":8800,"station_id":"ce4bhbh2rcd13ifvqeqg","pricing_plan_id":"cebpf4jnsgd1na2vs0mg"},{"bike_id":"11314af1-d967-4fa0-8fce-e22a5637bb79","system_id":"levelo_inurba_marseille","lat":43.29896,"lon":5.43664,"is_reserved":false,"is_disabled":false,"rental_uris":{"android":"levelo://app?vid=11314af1-d967-4fa0-8fce-e22a5637bb79","ios":"levelo://app?vid=11314af1-d967-4fa0-8fce-e22a5637bb79"},"vehicle_type_id":"4","last_reported":1742919048,"current_range_meters":8800,"station_id":"ce4bhpp2rcd13ifvqhfg","pricing_plan_id":"cebpf4jnsgd1na2vs0mg"},{"bike_id":"c353c957-fbb8-408a-9097-46c8d6b68074","system_id":"levelo_inurba_marseille","lat":43.24184,"lon":5.39719,"is_reserved":false,"is_disabled":false,"rental_uris":{"android":"levelo://app?vid=c353c957-fbb8-408a-9097-46c8d6b68074","ios":"levelo://app?vid=c353c957-fbb8-408a-9097-46c8d6b68074"},"vehicle_type_id":"4","last_reported":1742919048,"current_range_meters":8800,"station_id":"ce4bhn12rcd13ifvqgpg","pricing_plan_id":"cebpf4jnsgd1na2vs0mg"},{"bike_id":"c9a94867-9c99-4983-9703-9d66b11dc0b5","system_id":"levelo_inurba_marseille","lat":43.29803,"lon":5.38092,"is_reserved":false,"is_disabled":false,"rental_uris":{"android":"levelo://app?vid=c9a94867-9c99-4983-9703-9d66b11dc0b5","ios":"levelo://app?vid=c9a94867-9c99-4983-9703-9d66b11dc0b5"},"vehicle_type_id":"4","last_reported":1742919048,"current_range_meters":8800,"station_id":"ce4bgip2rcd13ifvqbb0","pricing_plan_id":"cebpf4jnsgd1na2vs0mg"},{"bike_id":"2a99ecb7-4bf0-4c00-89bb-11ff019b8a6d","system_id":"levelo_inurba_marseille","lat":43.22943,"lon":5.35402,"is_reserved":false,"is_disabled":false,"rental_uris":{"android":"levelo://app?vid=2a99ecb7-4bf0-4c00-89bb-11ff019b8a6d","ios":"levelo://app?vid=2a99ecb7-4bf0-4c00-89bb-11ff019b8a6d"},"vehicle_type_id":"4","last_reported":1742919048,"current_range_meters":9200,"station_id":"cpo3532slgdg3j2ikp40","pricing_plan_id":"cebpf4jnsgd1na2vs0mg"},{"bike_id":"c92ac62d-2e46-4289-843a-c760d8da0c94","system_id":"levelo_inurba_marseille","lat":43.25725,"lon":5.41109,"is_reserved":false,"is_disabled":false,"rental_uris":{"android":"levelo://app?vid=c92ac62d-2e46-4289-843a-c760d8da0c94","ios":"levelo://app?vid=c92ac62d-2e46-4289-843a-c760d8da0c94"},"vehicle_type_id":"4","last_reported":1742919048,"current_range_meters":9200,"station_id":"ce4bhkp2rcd13ifvqgd0","pricing_plan_id":"cebpf4jnsgd1na2vs0mg"},{"bike_id":"e3f76d45-4904-44a7-aac2-e04832e991bb","system_id":"levelo_inurba_marseille","lat":43.29955,"lon":5.41316,"is_reserved":false,"is_disabled":true,"rental_uris":{"android":"levelo://app?vid=e3f76d45-4904-44a7-aac2-e04832e991bb","ios":"levelo://app?vid=e3f76d45-4904-44a7-aac2-e04832e991bb"},"vehicle_type_id":"4","last_reported":1742919048,"current_range_meters":9200,"station_id":"ce4bhp12rcd13ifvqh9g","pricing_plan_id":"cebpf4jnsgd1na2vs0mg"},{"bike_id":"a4a50d47-237f-4eae-99b6-ebe8d4aa7212","system_id":"levelo_inurba_marseille","lat":43.29689,"lon":5.37701,"is_reserved":false,"is_disabled":false,"rental_uris":{"android":"levelo://app?vid=a4a50d47-237f-4eae-99b6-ebe8d4aa7212","ios":"levelo://app?vid=a4a50d47-237f-4eae-99b6-ebe8d4aa7212"},"vehicle_type_id":"4","last_reported":1742919048,"current_range_meters":7200,"station_id":"ce4bgkh2rcd13ifvqbl0","pricing_plan_id":"cebpf4jnsgd1na2vs0mg"},{"bike_id":"1848cf99-7a86-429c-a1af-abe291b1144c","system_id":"levelo_inurba_marseille","lat":43.32509,"lon":5.3656,"is_reserved":false,"is_disabled":false,"rental_uris":{"android":"levelo://app?vid=1848cf99-7a86-429c-a1af-abe291b1144c","ios":"levelo://app?vid=1848cf99-7a86-429c-a1af-abe291b1144c"},"vehicle_type_id":"4","last_reported":1742919048,"current_range_meters":9200,"station_id":"ce4bhs12rcd13ifvqhvg","pricing_plan_id":"cebpf4jnsgd1na2vs0mg"},{"bike_id":"9ea54192-fb11-48f4-94a2-a7add4650084","system_id":"levelo_inurba_marseille","lat":43.28263,"lon":5.35079,"is_reserved":false,"is_disabled":false,"rental_uris":{"android":"levelo://app?vid=9ea54192-fb11-48f4-94a2-a7add4650084","ios":"levelo://app?vid=9ea54192-fb11-48f4-94a2-a7add4650084"},"vehicle_type_id":"4","last_reported":1742919048,"current_range_meters":9200,"station_id":"ce4bhbp2rcd13ifvqerg","pricing_plan_id":"cebpf4jnsgd1na2vs0mg"},{"bike_id":"d0ce6a4c-8c1a-4117-b620-bb8816808dbc","system_id":"levelo_inurba_marseille","lat":43.23965,"lon":5.36635,"is_reserved":false,"is_disabled":false,"rental_uris":{"android":"levelo://app?vid=d0ce6a4c-8c1a-4117-b620-bb8816808dbc","ios":"levelo://app?vid=d0ce6a4c-8c1a-4117-b620-bb8816808dbc"},"vehicle_type_id":"4","last_reported":1742919048,"current_range_meters":9200,"station_id":"ce4bhi12rcd13ifvqfp0","pricing_plan_id":"cebpf4jnsgd1na2vs0mg"},{"bike_id":"903efa00-01ef-498a-9d32-7d6adb5b8874","system_id":"levelo_inurba_marseille","lat":43.27432,"lon":5.39411,"is_reserved":false,"is_disabled":false,"rental_uris":{"android":"levelo://app?vid=903efa00-01ef-498a-9d32-7d6adb5b8874","ios":"levelo://app?vid=903efa00-01ef-498a-9d32-7d6adb5b8874"},"vehicle_type_id":"4","last_reported":1742919048,"current_range_meters":10000,"station_id":"ce4bhdp2rcd13ifvqf20","pricing_plan_id":"cebpf4jnsgd1na2vs0mg"},{"bike_id":"b6fd1ec3-47b2-486f-8b84-f71e2b87ecef","system_id":"levelo_inurba_marseille","lat":43.31081,"lon":5.42434,"is_reserved":false,"is_disabled":true,"rental_uris":{"android":"levelo://app?vid=b6fd1ec3-47b2-486f-8b84-f71e2b87ecef","ios":"levelo://app?vid=b6fd1ec3-47b2-486f-8b84-f71e2b87ecef"},"vehicle_type_id":"4","last_reported":1742919048,"current_range_meters":9200,"station_id":"ce4bhp92rcd13ifvqhag","pricing_plan_id":"cebpf4jnsgd1na2vs0mg"},{"bike_id":"8f208df7-81e0-45c5-bd98-a49c85a38fa2","system_id":"levelo_inurba_marseille","lat":43.30327,"lon":5.36912,"is_reserved":false,"is_disabled":false,"rental_uris":{"android":"levelo://app?vid=8f208df7-81e0-45c5-bd98-a49c85a38fa2","ios":"levelo://app?vid=8f208df7-81e0-45c5-bd98-a49c85a38fa2"},"vehicle_type_id":"4","last_reported":1742919048,"current_range_meters":9200,"station_id":"","pricing_plan_id":"cebpf4jnsgd1na2vs0mg"},{"bike_id":"3ed7c9f8-967e-4ca7-821e-1364621d8c31","system_id":"levelo_inurba_marseille","lat":43.24175,"lon":5.39724,"is_reserved":false,"is_disabled":false,"rental_uris":{"android":"levelo://app?vid=3ed7c9f8-967e-4ca7-821e-1364621d8c31","ios":"levelo://app?vid=3ed7c9f8-967e-4ca7-821e-1364621d8c31"},"vehicle_type_id":"4","last_reported":1742919048,"current_range_meters":9200,"station_id":"ce4bhn12rcd13ifvqgpg","pricing_plan_id":"cebpf4jnsgd1na2vs0mg"},{"bike_id":"8871fee1-c30f-4721-bb9f-022f22051a94","system_id":"levelo_inurba_marseille","lat":43.2417,"lon":5.39731,"is_reserved":false,"is_disabled":false,"rental_uris":{"android":"levelo://app?vid=8871fee1-c30f-4721-bb9f-022f22051a94","ios":"levelo://app?vid=8871fee1-c30f-4721-bb9f-022f22051a94"},"vehicle_type_id":"4","last_reported":1742919048,"current_range_meters":9600,"station_id":"ce4bhn12rcd13ifvqgpg","pricing_plan_id":"cebpf4jnsgd1na2vs0mg"},{"bike_id":"f294d69a-8637-46e9-95b8-3d82151d6376","system_id":"levelo_inurba_marseille","lat":43.2798,"lon":5.41648,"is_reserved":false,"is_disabled":true,"rental_uris":{"android":"levelo://app?vid=f294d69a-8637-46e9-95b8-3d82151d6376","ios":"levelo://app?vid=f294d69a-8637-46e9-95b8-3d82151d6376"},"vehicle_type_id":"4","last_reported":1742919048,"current_range_meters":9600,"station_id":"ce4bho12rcd13ifvqh1g","pricing_plan_id":"cebpf4jnsgd1na2vs0mg"},{"bike_id":"73098e66-a44d-4fd1-a26f-b78f715d4d94","system_id":"levelo_inurba_marseille","lat":43.31228,"lon":5.36844,"is_reserved":false,"is_disabled":false,"rental_uris":{"android":"levelo://app?vid=73098e66-a44d-4fd1-a26f-b78f715d4d94","ios":"levelo://app?vid=73098e66-a44d-4fd1-a26f-b78f715d4d94"},"vehicle_type_id":"4","last_reported":1742919048,"current_range_meters":9600,"station_id":"ce4bgl92rcd13ifvqbq0","pricing_plan_id":"cebpf4jnsgd1na2vs0mg"},{"bike_id":"52f1b479-42be-4f75-92e9-c0fcdead300f","system_id":"levelo_inurba_marseille","lat":43.26512,"lon":5.39531,"is_reserved":false,"is_disabled":false,"rental_uris":{"android":"levelo://app?vid=52f1b479-42be-4f75-92e9-c0fcdead300f","ios":"levelo://app?vid=52f1b479-42be-4f75-92e9-c0fcdead300f"},"vehicle_type_id":"4","last_reported":1742919048,"current_range_meters":9600,"station_id":"ce4bhi12rcd13ifvqfq0","pricing_plan_id":"cebpf4jnsgd1na2vs0mg"},{"bike_id":"f5f4e51b-dfe9-4880-93b8-d8ae3d87c58c","system_id":"levelo_inurba_marseille","lat":43.23198,"lon":5.35546,"is_reserved":false,"is_disabled":false,"rental_uris":{"android":"levelo://app?vid=f5f4e51b-dfe9-4880-93b8-d8ae3d87c58c","ios":"levelo://app?vid=f5f4e51b-dfe9-4880-93b8-d8ae3d87c58c"},"vehicle_type_id":"4","last_reported":1742919048,"current_range_meters":9600,"station_id":"ce4bhu92rcd13ifvqi70","pricing_plan_id":"cebpf4jnsgd1na2vs0mg"},{"bike_id":"2f3e2a92-1301-4a27-8eaa-7b0ea525530e","system_id":"levelo_inurba_marseille","lat":43.31682,"lon":5.43678,"is_reserved":false,"is_disabled":false,"rental_uris":{"android":"levelo://app?vid=2f3e2a92-1301-4a27-8eaa-7b0ea525530e","ios":"levelo://app?vid=2f3e2a92-1301-4a27-8eaa-7b0ea525530e"},"vehicle_type_id":"4","last_reported":1742919048,"current_range_meters":9600,"station_id":"ce4bhp92rcd13ifvqhcg","pricing_plan_id":"cebpf4jnsgd1na2vs0mg"},{"bike_id":"ada4ba7b-2dc8-47ef-a5a8-9dc4e4bd1916","system_id":"levelo_inurba_marseille","lat":43.29687,"lon":5.37771,"is_reserved":false,"is_disabled":false,"rental_uris":{"android":"levelo://app?vid=ada4ba7b-2dc8-47ef-a5a8-9dc4e4bd1916","ios":"levelo://app?vid=ada4ba7b-2dc8-47ef-a5a8-9dc4e4bd1916"},"vehicle_type_id":"4","last_reported":1742919048,"current_range_meters":9600,"station_id":"","pricing_plan_id":"cebpf4jnsgd1na2vs0mg"},{"bike_id":"8539d52e-781c-4e19-80b3-ffe8b70dcee3","system_id":"levelo_inurba_marseille","lat":43.29594,"lon":5.3759,"is_reserved":false,"is_disabled":false,"rental_uris":{"android":"levelo://app?vid=8539d52e-781c-4e19-80b3-ffe8b70dcee3","ios":"levelo://app?vid=8539d52e-781c-4e19-80b3-ffe8b70dcee3"},"vehicle_type_id":"4","last_reported":1742919048,"current_range_meters":9600,"station_id":"","pricing_plan_id":"cebpf4jnsgd1na2vs0mg"},{"bike_id":"bd19e553-e5f5-4b5c-8770-02920f14b999","system_id":"levelo_inurba_marseille","lat":43.31337,"lon":5.36721,"is_reserved":false,"is_disabled":false,"rental_uris":{"android":"levelo://app?vid=bd19e553-e5f5-4b5c-8770-02920f14b999","ios":"levelo://app?vid=bd19e553-e5f5-4b5c-8770-02920f14b999"},"vehicle_type_id":"4","last_reported":1742919048,"current_range_meters":9200,"station_id":"ce4bgr92rcd13ifvqc6g","pricing_plan_id":"cebpf4jnsgd1na2vs0mg"},{"bike_id":"8e4446e2-d2ef-42c9-9afd-c75fb46c490d","system_id":"levelo_inurba_marseille","lat":43.25121,"lon":5.40317,"is_reserved":false,"is_disabled":false,"rental_uris":{"android":"levelo://app?vid=8e4446e2-d2ef-42c9-9afd-c75fb46c490d","ios":"levelo://app?vid=8e4446e2-d2ef-42c9-9afd-c75fb46c490d"},"vehicle_type_id":"4","last_reported":1742919048,"current_range_meters":11200,"station_id":"ce4bhlh2rcd13ifvqgig","pricing_plan_id":"cebpf4jnsgd1na2vs0mg"},{"bike_id":"f8d9e271-1395-4359-b702-1bb66f9e2939","system_id":"levelo_inurba_marseille","lat":43.25579,"lon":5.382399,"is_reserved":false,"is_disabled":false,"rental_uris":{"android":"levelo://app?vid=f8d9e271-1395-4359-b702-1bb66f9e2939","ios":"levelo://app?vid=f8d9e271-1395-4359-b702-1bb66f9e2939"},"vehicle_type_id":"4","last_reported":1742919048,"current_range_meters":10000,"station_id":"ce4bhih2rcd13ifvqfs0","pricing_plan_id":"cebpf4jnsgd1na2vs0mg"},{"bike_id":"831348ed-89df-4568-bc5b-439f88ca451c","system_id":"levelo_inurba_marseille","lat":43.25583,"lon":5.38239,"is_reserved":false,"is_disabled":false,"rental_uris":{"android":"levelo://app?vid=831348ed-89df-4568-bc5b-439f88ca451c","ios":"levelo://app?vid=831348ed-89df-4568-bc5b-439f88ca451c"},"vehicle_type_id":"4","last_reported":1742919048,"current_range_meters":10000,"station_id":"ce4bhih2rcd13ifvqfs0","pricing_plan_id":"cebpf4jnsgd1na2vs0mg"},{"bike_id":"225cbe9d-4f8e-432e-b5e7-cd7e14da2d62","system_id":"levelo_inurba_marseille","lat":43.2819,"lon":5.4266,"is_reserved":false,"is_disabled":false,"rental_uris":{"android":"levelo://app?vid=225cbe9d-4f8e-432e-b5e7-cd7e14da2d62","ios":"levelo://app?vid=225cbe9d-4f8e-432e-b5e7-cd7e14da2d62"},"vehicle_type_id":"4","last_reported":1742919048,"current_range_meters":10000,"station_id":"ce4bhnh2rcd13ifvqgug","pricing_plan_id":"cebpf4jnsgd1na2vs0mg"},{"bike_id":"a830f52f-aeba-4ddd-9c3f-5756c42841a5","system_id":"levelo_inurba_marseille","lat":43.32495,"lon":5.3657,"is_reserved":false,"is_disabled":false,"rental_uris":{"android":"levelo://app?vid=a830f52f-aeba-4ddd-9c3f-5756c42841a5","ios":"levelo://app?vid=a830f52f-aeba-4ddd-9c3f-5756c42841a5"},"vehicle_type_id":"4","last_reported":1742919048,"current_range_meters":10000,"station_id":"ce4bhs12rcd13ifvqhvg","pricing_plan_id":"cebpf4jnsgd1na2vs0mg"},{"bike_id":"74406c35-ee35-437d-be26-2d7711378046","system_id":"levelo_inurba_marseille","lat":43.32363,"lon":5.36777,"is_reserved":false,"is_disabled":false,"rental_uris":{"android":"levelo://app?vid=74406c35-ee35-437d-be26-2d7711378046","ios":"levelo://app?vid=74406c35-ee35-437d-be26-2d7711378046"},"vehicle_type_id":"4","last_reported":1742919048,"current_range_meters":10000,"station_id":"ce4bhsh2rcd13ifvqi2g","pricing_plan_id":"cebpf4jnsgd1na2vs0mg"},{"bike_id":"d7c9b119-99cc-4acd-80c4-6ecaf67a26b1","system_id":"levelo_inurba_marseille","lat":43.23065,"lon":5.35496,"is_reserved":false,"is_disabled":false,"rental_uris":{"android":"levelo://app?vid=d7c9b119-99cc-4acd-80c4-6ecaf67a26b1","ios":"levelo://app?vid=d7c9b119-99cc-4acd-80c4-6ecaf67a26b1"},"vehicle_type_id":"4","last_reported":1742919048,"current_range_meters":10000,"station_id":"cpo3342slgdg3j2ifvpg","pricing_plan_id":"cebpf4jnsgd1na2vs0mg"},{"bike_id":"46774e41-cc26-42e2-8ed3-a8ea17d2f850","system_id":"levelo_inurba_marseille","lat":43.31362,"lon":5.36745,"is_reserved":false,"is_disabled":false,"rental_uris":{"android":"levelo://app?vid=46774e41-cc26-42e2-8ed3-a8ea17d2f850","ios":"levelo://app?vid=46774e41-cc26-42e2-8ed3-a8ea17d2f850"},"vehicle_type_id":"4","last_reported":1742919048,"current_range_meters":10000,"station_id":"ce4bgr92rcd13ifvqc6g","pricing_plan_id":"cebpf4jnsgd1na2vs0mg"},{"bike_id":"f93c5482-2189-4295-8ab3-1f2933ff652c","system_id":"levelo_inurba_marseille","lat":43.28971,"lon":5.37822,"is_reserved":false,"is_disabled":false,"rental_uris":{"android":"levelo://app?vid=f93c5482-2189-4295-8ab3-1f2933ff652c","ios":"levelo://app?vid=f93c5482-2189-4295-8ab3-1f2933ff652c"},"vehicle_type_id":"4","last_reported":1742919048,"current_range_meters":10000,"station_id":"ce4bh9p2rcd13ifvqed0","pricing_plan_id":"cebpf4jnsgd1na2vs0mg"},{"bike_id":"89e75ed9-7f20-48f7-ad37-e0033e47c633","system_id":"levelo_inurba_marseille","lat":43.24645,"lon":5.38881,"is_reserved":false,"is_disabled":false,"rental_uris":{"android":"levelo://app?vid=89e75ed9-7f20-48f7-ad37-e0033e47c633","ios":"levelo://app?vid=89e75ed9-7f20-48f7-ad37-e0033e47c633"},"vehicle_type_id":"4","last_reported":1742919048,"current_range_meters":10000,"station_id":"ce4bhg12rcd13ifvqf60","pricing_plan_id":"cebpf4jnsgd1na2vs0mg"},{"bike_id":"8e8fd147-d111-4916-8723-e94b07f41e02","system_id":"levelo_inurba_marseille","lat":43.29883,"lon":5.38905,"is_reserved":false,"is_disabled":false,"rental_uris":{"android":"levelo://app?vid=8e8fd147-d111-4916-8723-e94b07f41e02","ios":"levelo://app?vid=8e8fd147-d111-4916-8723-e94b07f41e02"},"vehicle_type_id":"4","last_reported":1742919048,"current_range_meters":11200,"station_id":"ce4bh392rcd13ifvqdl0","pricing_plan_id":"cebpf4jnsgd1na2vs0mg"},{"bike_id":"5aeb641c-8c67-430e-bd09-77076d22412d","system_id":"levelo_inurba_marseille","lat":43.31042,"lon":5.37532,"is_reserved":false,"is_disabled":false,"rental_uris":{"android":"levelo://app?vid=5aeb641c-8c67-430e-bd09-77076d22412d","ios":"levelo://app?vid=5aeb641c-8c67-430e-bd09-77076d22412d"},"vehicle_type_id":"4","last_reported":1742919048,"current_range_meters":10800,"station_id":"","pricing_plan_id":"cebpf4jnsgd1na2vs0mg"},{"bike_id":"6633349b-54ae-41b8-88d5-61ec5d012302","system_id":"levelo_inurba_marseille","lat":43.32115,"lon":5.36772,"is_reserved":false,"is_disabled":false,"rental_uris":{"android":"levelo://app?vid=6633349b-54ae-41b8-88d5-61ec5d012302","ios":"levelo://app?vid=6633349b-54ae-41b8-88d5-61ec5d012302"},"vehicle_type_id":"4","last_reported":1742919048,"current_range_meters":10800,"station_id":"ce4bhrh2rcd13ifvqhug","pricing_plan_id":"cebpf4jnsgd1na2vs0mg"},{"bike_id":"1dd0f505-ea3d-4c64-92f9-9d1669ff2185","system_id":"levelo_inurba_marseille","lat":43.270683,"lon":5.363265,"is_reserved":false,"is_disabled":false,"rental_uris":{"android":"levelo://app?vid=1dd0f505-ea3d-4c64-92f9-9d1669ff2185","ios":"levelo://app?vid=1dd0f505-ea3d-4c64-92f9-9d1669ff2185"},"vehicle_type_id":"4","last_reported":1742919048,"current_range_meters":10800,"station_id":"ce4bhb12rcd13ifvqem0","pricing_plan_id":"cebpf4jnsgd1na2vs0mg"},{"bike_id":"fdcc714d-c762-4a16-91da-437181feabf2","system_id":"levelo_inurba_marseille","lat":43.26689,"lon":5.38272,"is_reserved":false,"is_disabled":false,"rental_uris":{"android":"levelo://app?vid=fdcc714d-c762-4a16-91da-437181feabf2","ios":"levelo://app?vid=fdcc714d-c762-4a16-91da-437181feabf2"},"vehicle_type_id":"4","last_reported":1742919048,"current_range_meters":10800,"station_id":"ce4bhg92rcd13ifvqf90","pricing_plan_id":"cebpf4jnsgd1na2vs0mg"},{"bike_id":"ae03e723-bfe8-4f54-b026-c2faa49429ca","system_id":"levelo_inurba_marseille","lat":43.250022,"lon":5.389235,"is_reserved":false,"is_disabled":false,"rental_uris":{"android":"levelo://app?vid=ae03e723-bfe8-4f54-b026-c2faa49429ca","ios":"levelo://app?vid=ae03e723-bfe8-4f54-b026-c2faa49429ca"},"vehicle_type_id":"4","last_reported":1742919048,"current_range_meters":10800,"station_id":"ce4bhgp2rcd13ifvqfd0","pricing_plan_id":"cebpf4jnsgd1na2vs0mg"},{"bike_id":"4295b9d8-72e7-42c6-8cde-b04c02803640","system_id":"levelo_inurba_marseille","lat":43.2955,"lon":5.42283,"is_reserved":false,"is_disabled":false,"rental_uris":{"android":"levelo://app?vid=4295b9d8-72e7-42c6-8cde-b04c02803640","ios":"levelo://app?vid=4295b9d8-72e7-42c6-8cde-b04c02803640"},"vehicle_type_id":"4","last_reported":1742919048,"current_range_meters":10800,"station_id":"ce4bhph2rcd13ifvqhdg","pricing_plan_id":"cebpf4jnsgd1na2vs0mg"},{"bike_id":"5afadd01-05af-47f2-b106-8c57133c5065","system_id":"levelo_inurba_marseille","lat":43.2998,"lon":5.38485,"is_reserved":false,"is_disabled":true,"rental_uris":{"android":"levelo://app?vid=5afadd01-05af-47f2-b106-8c57133c5065","ios":"levelo://app?vid=5afadd01-05af-47f2-b106-8c57133c5065"},"vehicle_type_id":"4","last_reported":1742919048,"current_range_meters":10800,"station_id":"ce4bgj92rcd13ifvqbd0","pricing_plan_id":"cebpf4jnsgd1na2vs0mg"},{"bike_id":"8583bcae-e817-4db7-ab92-448c595780ea","system_id":"levelo_inurba_marseille","lat":43.33016,"lon":5.39017,"is_reserved":false,"is_disabled":false,"rental_uris":{"android":"levelo://app?vid=8583bcae-e817-4db7-ab92-448c595780ea","ios":"levelo://app?vid=8583bcae-e817-4db7-ab92-448c595780ea"},"vehicle_type_id":"4","last_reported":1742919048,"current_range_meters":10800,"station_id":"ce4bhr92rcd13ifvqhrg","pricing_plan_id":"cebpf4jnsgd1na2vs0mg"},{"bike_id":"2d4e687a-9c18-4086-9d00-f57175bd6e2a","system_id":"levelo_inurba_marseille","lat":43.32372,"lon":5.38882,"is_reserved":false,"is_disabled":false,"rental_uris":{"android":"levelo://app?vid=2d4e687a-9c18-4086-9d00-f57175bd6e2a","ios":"levelo://app?vid=2d4e687a-9c18-4086-9d00-f57175bd6e2a"},"vehicle_type_id":"4","last_reported":1742919048,"current_range_meters":10800,"station_id":"ce4bhqp2rcd13ifvqhog","pricing_plan_id":"cebpf4jnsgd1na2vs0mg"},{"bike_id":"f0510ba7-c335-4b7a-aec7-5e60e076b988","system_id":"levelo_inurba_marseille","lat":43.27373,"lon":5.36245,"is_reserved":false,"is_disabled":false,"rental_uris":{"android":"levelo://app?vid=f0510ba7-c335-4b7a-aec7-5e60e076b988","ios":"levelo://app?vid=f0510ba7-c335-4b7a-aec7-5e60e076b988"},"vehicle_type_id":"4","last_reported":1742919048,"current_range_meters":11200,"station_id":"ce4bhbh2rcd13ifvqeo0","pricing_plan_id":"cebpf4jnsgd1na2vs0mg"},{"bike_id":"f558f6b0-3f63-4d80-a453-9668b89af024","system_id":"levelo_inurba_marseille","lat":43.30421,"lon":5.41275,"is_reserved":false,"is_disabled":false,"rental_uris":{"android":"levelo://app?vid=f558f6b0-3f63-4d80-a453-9668b89af024","ios":"levelo://app?vid=f558f6b0-3f63-4d80-a453-9668b89af024"},"vehicle_type_id":"4","last_reported":1742919048,"current_range_meters":11200,"station_id":"ce4bhop2rcd13ifvqh8g","pricing_plan_id":"cebpf4jnsgd1na2vs0mg"},{"bike_id":"c4ea3242-4536-4e80-970c-0b6756b82966","system_id":"levelo_inurba_marseille","lat":43.29025,"lon":5.38651,"is_reserved":false,"is_disabled":false,"rental_uris":{"android":"levelo://app?vid=c4ea3242-4536-4e80-970c-0b6756b82966","ios":"levelo://app?vid=c4ea3242-4536-4e80-970c-0b6756b82966"},"vehicle_type_id":"4","last_reported":1742919048,"current_range_meters":11200,"station_id":"ce4bh4p2rcd13ifvqe0g","pricing_plan_id":"cebpf4jnsgd1na2vs0mg"},{"bike_id":"d6212dd7-8674-4220-8208-ed3378c06ae2","system_id":"levelo_inurba_marseille","lat":43.26509,"lon":5.39538,"is_reserved":false,"is_disabled":false,"rental_uris":{"android":"levelo://app?vid=d6212dd7-8674-4220-8208-ed3378c06ae2","ios":"levelo://app?vid=d6212dd7-8674-4220-8208-ed3378c06ae2"},"vehicle_type_id":"4","last_reported":1742919048,"current_range_meters":11200,"station_id":"ce4bhi12rcd13ifvqfq0","pricing_plan_id":"cebpf4jnsgd1na2vs0mg"},{"bike_id":"197a5fba-44c1-4e8a-8e0f-bef154324847","system_id":"levelo_inurba_marseille","lat":43.2827,"lon":5.3508,"is_reserved":false,"is_disabled":false,"rental_uris":{"android":"levelo://app?vid=197a5fba-44c1-4e8a-8e0f-bef154324847","ios":"levelo://app?vid=197a5fba-44c1-4e8a-8e0f-bef154324847"},"vehicle_type_id":"4","last_reported":1742919048,"current_range_meters":11200,"station_id":"ce4bhbp2rcd13ifvqerg","pricing_plan_id":"cebpf4jnsgd1na2vs0mg"},{"bike_id":"8ae15a70-570c-4953-ab7d-8a9a184f4162","system_id":"levelo_inurba_marseille","lat":43.30106,"lon":5.39076,"is_reserved":false,"is_disabled":false,"rental_uris":{"android":"levelo://app?vid=8ae15a70-570c-4953-ab7d-8a9a184f4162","ios":"levelo://app?vid=8ae15a70-570c-4953-ab7d-8a9a184f4162"},"vehicle_type_id":"4","last_reported":1742919048,"current_range_meters":11200,"station_id":"ce4bh192rcd13ifvqdb0","pricing_plan_id":"cebpf4jnsgd1na2vs0mg"},{"bike_id":"1eb0b26c-463a-4d28-b94e-fd5f60d10d4c","system_id":"levelo_inurba_marseille","lat":43.28705,"lon":5.37921,"is_reserved":false,"is_disabled":false,"rental_uris":{"android":"levelo://app?vid=1eb0b26c-463a-4d28-b94e-fd5f60d10d4c","ios":"levelo://app?vid=1eb0b26c-463a-4d28-b94e-fd5f60d10d4c"},"vehicle_type_id":"4","last_reported":1742919048,"current_range_meters":11200,"station_id":"ce4bh9p2rcd13ifvqec0","pricing_plan_id":"cebpf4jnsgd1na2vs0mg"},{"bike_id":"336604d6-ec91-482b-ad5a-cb8c01e81c5d","system_id":"levelo_inurba_marseille","lat":43.23201,"lon":5.35551,"is_reserved":false,"is_disabled":false,"rental_uris":{"android":"levelo://app?vid=336604d6-ec91-482b-ad5a-cb8c01e81c5d","ios":"levelo://app?vid=336604d6-ec91-482b-ad5a-cb8c01e81c5d"},"vehicle_type_id":"4","last_reported":1742919048,"current_range_meters":11200,"station_id":"ce4bhu92rcd13ifvqi70","pricing_plan_id":"cebpf4jnsgd1na2vs0mg"},{"bike_id":"29f7ed51-05d6-400d-adac-3815b36ec717","system_id":"levelo_inurba_marseille","lat":43.29601,"lon":5.36793,"is_reserved":false,"is_disabled":false,"rental_uris":{"android":"levelo://app?vid=29f7ed51-05d6-400d-adac-3815b36ec717","ios":"levelo://app?vid=29f7ed51-05d6-400d-adac-3815b36ec717"},"vehicle_type_id":"4","last_reported":1742919048,"current_range_meters":12000,"station_id":"","pricing_plan_id":"cebpf4jnsgd1na2vs0mg"},{"bike_id":"162b0c4d-e29b-4dff-82ff-11b2d68a2f68","system_id":"levelo_inurba_marseille","lat":43.23964,"lon":5.3664,"is_reserved":false,"is_disabled":false,"rental_uris":{"android":"levelo://app?vid=162b0c4d-e29b-4dff-82ff-11b2d68a2f68","ios":"levelo://app?vid=162b0c4d-e29b-4dff-82ff-11b2d68a2f68"},"vehicle_type_id":"4","last_reported":1742919048,"current_range_meters":11600,"station_id":"ce4bhi12rcd13ifvqfp0","pricing_plan_id":"cebpf4jnsgd1na2vs0mg"},{"bike_id":"fa0bd830-b5e1-4d00-82d7-ed272fa92124","system_id":"levelo_inurba_marseille","lat":43.27352,"lon":5.3623,"is_reserved":false,"is_disabled":false,"rental_uris":{"android":"levelo://app?vid=fa0bd830-b5e1-4d00-82d7-ed272fa92124","ios":"levelo://app?vid=fa0bd830-b5e1-4d00-82d7-ed272fa92124"},"vehicle_type_id":"4","last_reported":1742919048,"current_range_meters":11600,"station_id":"ce4bhbh2rcd13ifvqeo0","pricing_plan_id":"cebpf4jnsgd1na2vs0mg"},{"bike_id":"a2d7f409-3a34-429b-8354-28c2e08fa239","system_id":"levelo_inurba_marseille","lat":43.2468,"lon":5.38158,"is_reserved":false,"is_disabled":false,"rental_uris":{"android":"levelo://app?vid=a2d7f409-3a34-429b-8354-28c2e08fa239","ios":"levelo://app?vid=a2d7f409-3a34-429b-8354-28c2e08fa239"},"vehicle_type_id":"4","last_reported":1742919048,"current_range_meters":11600,"station_id":"ce4bhih2rcd13ifvqfr0","pricing_plan_id":"cebpf4jnsgd1na2vs0mg"},{"bike_id":"38351309-2dec-417c-a558-74c8bc991036","system_id":"levelo_inurba_marseille","lat":43.30804,"lon":5.40661,"is_reserved":false,"is_disabled":true,"rental_uris":{"android":"levelo://app?vid=38351309-2dec-417c-a558-74c8bc991036","ios":"levelo://app?vid=38351309-2dec-417c-a558-74c8bc991036"},"vehicle_type_id":"4","last_reported":1742919048,"current_range_meters":11600,"station_id":"","pricing_plan_id":"cebpf4jnsgd1na2vs0mg"},{"bike_id":"f8f49d80-3f40-4b73-a41c-f9ec41fb87a8","system_id":"levelo_inurba_marseille","lat":43.25498,"lon":5.3765,"is_reserved":false,"is_disabled":false,"rental_uris":{"android":"levelo://app?vid=f8f49d80-3f40-4b73-a41c-f9ec41fb87a8","ios":"levelo://app?vid=f8f49d80-3f40-4b73-a41c-f9ec41fb87a8"},"vehicle_type_id":"4","last_reported":1742919048,"current_range_meters":11600,"station_id":"ce4bhh12rcd13ifvqff0","pricing_plan_id":"cebpf4jnsgd1na2vs0mg"},{"bike_id":"9b16c85e-1fca-4194-a073-a94a809567b1","system_id":"levelo_inurba_marseille","lat":43.29088,"lon":5.3715,"is_reserved":false,"is_disabled":false,"rental_uris":{"android":"levelo://app?vid=9b16c85e-1fca-4194-a073-a94a809567b1","ios":"levelo://app?vid=9b16c85e-1fca-4194-a073-a94a809567b1"},"vehicle_type_id":"4","last_reported":1742919048,"current_range_meters":12800,"station_id":"ce4bh5p2rcd13ifvqe4g","pricing_plan_id":"cebpf4jnsgd1na2vs0mg"},{"bike_id":"c5533bfa-58fb-4159-84c3-9f3de8313ba2","system_id":"levelo_inurba_marseille","lat":43.28002,"lon":5.40014,"is_reserved":false,"is_disabled":false,"rental_uris":{"android":"levelo://app?vid=c5533bfa-58fb-4159-84c3-9f3de8313ba2","ios":"levelo://app?vid=c5533bfa-58fb-4159-84c3-9f3de8313ba2"},"vehicle_type_id":"4","last_reported":1742919048,"current_range_meters":12000,"station_id":"ce4bho92rcd13ifvqh4g","pricing_plan_id":"cebpf4jnsgd1na2vs0mg"},{"bike_id":"af623c75-5db3-429d-be85-c4b472314003","system_id":"levelo_inurba_marseille","lat":43.29221,"lon":5.36063,"is_reserved":false,"is_disabled":false,"rental_uris":{"android":"levelo://app?vid=af623c75-5db3-429d-be85-c4b472314003","ios":"levelo://app?vid=af623c75-5db3-429d-be85-c4b472314003"},"vehicle_type_id":"4","last_reported":1742919048,"current_range_meters":12000,"station_id":"ce4bhbh2rcd13ifvqeqg","pricing_plan_id":"cebpf4jnsgd1na2vs0mg"},{"bike_id":"a3244318-a490-4319-9d6a-b6b1395e58c5","system_id":"levelo_inurba_marseille","lat":43.28445,"lon":5.39203,"is_reserved":false,"is_disabled":false,"rental_uris":{"android":"levelo://app?vid=a3244318-a490-4319-9d6a-b6b1395e58c5","ios":"levelo://app?vid=a3244318-a490-4319-9d6a-b6b1395e58c5"},"vehicle_type_id":"4","last_reported":1742919048,"current_range_meters":12000,"station_id":"ce4bhoh2rcd13ifvqh5g","pricing_plan_id":"cebpf4jnsgd1na2vs0mg"},{"bike_id":"85b3d61b-2258-48d9-8bf7-c2ef70b10193","system_id":"levelo_inurba_marseille","lat":43.25857,"lon":5.39905,"is_reserved":false,"is_disabled":false,"rental_uris":{"android":"levelo://app?vid=85b3d61b-2258-48d9-8bf7-c2ef70b10193","ios":"levelo://app?vid=85b3d61b-2258-48d9-8bf7-c2ef70b10193"},"vehicle_type_id":"4","last_reported":1742919048,"current_range_meters":12000,"station_id":"ce4bhl92rcd13ifvqghg","pricing_plan_id":"cebpf4jnsgd1na2vs0mg"},{"bike_id":"05ac6668-2fc3-47e1-a1e8-2c17ea551bed","system_id":"levelo_inurba_marseille","lat":43.30313,"lon":5.39203,"is_reserved":false,"is_disabled":false,"rental_uris":{"android":"levelo://app?vid=05ac6668-2fc3-47e1-a1e8-2c17ea551bed","ios":"levelo://app?vid=05ac6668-2fc3-47e1-a1e8-2c17ea551bed"},"vehicle_type_id":"4","last_reported":1742919048,"current_range_meters":12000,"station_id":"ce4bgkh2rcd13ifvqbk0","pricing_plan_id":"cebpf4jnsgd1na2vs0mg"},{"bike_id":"1502655e-4b8e-44c8-a987-e2a6aff7a4f2","system_id":"levelo_inurba_marseille","lat":43.30441,"lon":5.38887,"is_reserved":false,"is_disabled":false,"rental_uris":{"android":"levelo://app?vid=1502655e-4b8e-44c8-a987-e2a6aff7a4f2","ios":"levelo://app?vid=1502655e-4b8e-44c8-a987-e2a6aff7a4f2"},"vehicle_type_id":"4","last_reported":1742919048,"current_range_meters":12400,"station_id":"ce4bgk12rcd13ifvqbi0","pricing_plan_id":"cebpf4jnsgd1na2vs0mg"},{"bike_id":"605c60fb-51a1-46ee-9798-e2e3724c0d91","system_id":"levelo_inurba_marseille","lat":43.29897,"lon":5.43689,"is_reserved":false,"is_disabled":false,"rental_uris":{"android":"levelo://app?vid=605c60fb-51a1-46ee-9798-e2e3724c0d91","ios":"levelo://app?vid=605c60fb-51a1-46ee-9798-e2e3724c0d91"},"vehicle_type_id":"4","last_reported":1742919048,"current_range_meters":12400,"station_id":"ce4bhpp2rcd13ifvqhfg","pricing_plan_id":"cebpf4jnsgd1na2vs0mg"},{"bike_id":"6ab59567-3072-4e48-8b87-ca1eeaa92336","system_id":"levelo_inurba_marseille","lat":43.31076,"lon":5.3836,"is_reserved":false,"is_disabled":false,"rental_uris":{"android":"levelo://app?vid=6ab59567-3072-4e48-8b87-ca1eeaa92336","ios":"levelo://app?vid=6ab59567-3072-4e48-8b87-ca1eeaa92336"},"vehicle_type_id":"4","last_reported":1742919048,"current_range_meters":12400,"station_id":"ce4bgv92rcd13ifvqcr0","pricing_plan_id":"cebpf4jnsgd1na2vs0mg"},{"bike_id":"8f1aeda8-66cd-4f57-9be9-c9eff285cb3b","system_id":"levelo_inurba_marseille","lat":43.23182,"lon":5.39984,"is_reserved":false,"is_disabled":false,"rental_uris":{"android":"levelo://app?vid=8f1aeda8-66cd-4f57-9be9-c9eff285cb3b","ios":"levelo://app?vid=8f1aeda8-66cd-4f57-9be9-c9eff285cb3b"},"vehicle_type_id":"4","last_reported":1742919048,"current_range_meters":12400,"station_id":"ce4bhn12rcd13ifvqgqg","pricing_plan_id":"cebpf4jnsgd1na2vs0mg"},{"bike_id":"53f2ee6a-c22e-4f4e-9286-96bdcb8d0fe6","system_id":"levelo_inurba_marseille","lat":43.29305,"lon":5.37168,"is_reserved":false,"is_disabled":false,"rental_uris":{"android":"levelo://app?vid=53f2ee6a-c22e-4f4e-9286-96bdcb8d0fe6","ios":"levelo://app?vid=53f2ee6a-c22e-4f4e-9286-96bdcb8d0fe6"},"vehicle_type_id":"4","last_reported":1742919048,"current_range_meters":12400,"station_id":"ce4bgh92rcd13ifvqb40","pricing_plan_id":"cebpf4jnsgd1na2vs0mg"},{"bike_id":"d5a5f6a4-83b1-4197-a7be-3eada53abb55","system_id":"levelo_inurba_marseille","lat":43.304632,"lon":5.379015,"is_reserved":false,"is_disabled":false,"rental_uris":{"android":"levelo://app?vid=d5a5f6a4-83b1-4197-a7be-3eada53abb55","ios":"levelo://app?vid=d5a5f6a4-83b1-4197-a7be-3eada53abb55"},"vehicle_type_id":"4","last_reported":1742919048,"current_range_meters":12800,"station_id":"ce4bgup2rcd13ifvqcn0","pricing_plan_id":"cebpf4jnsgd1na2vs0mg"},{"bike_id":"f0b317bd-af7c-406f-9aca-ce5e7d4d40cf","system_id":"levelo_inurba_marseille","lat":43.2467,"lon":5.38165,"is_reserved":false,"is_disabled":false,"rental_uris":{"android":"levelo://app?vid=f0b317bd-af7c-406f-9aca-ce5e7d4d40cf","ios":"levelo://app?vid=f0b317bd-af7c-406f-9aca-ce5e7d4d40cf"},"vehicle_type_id":"4","last_reported":1742919048,"current_range_meters":12800,"station_id":"ce4bhih2rcd13ifvqfr0","pricing_plan_id":"cebpf4jnsgd1na2vs0mg"},{"bike_id":"7f51ddb2-3561-4237-aad9-69913b9fd9d9","system_id":"levelo_inurba_marseille","lat":43.310826,"lon":5.424352,"is_reserved":false,"is_disabled":false,"rental_uris":{"android":"levelo://app?vid=7f51ddb2-3561-4237-aad9-69913b9fd9d9","ios":"levelo://app?vid=7f51ddb2-3561-4237-aad9-69913b9fd9d9"},"vehicle_type_id":"4","last_reported":1742919048,"current_range_meters":12800,"station_id":"ce4bhp92rcd13ifvqhag","pricing_plan_id":"cebpf4jnsgd1na2vs0mg"},{"bike_id":"825bb2d9-bdc4-41e3-8f2f-ebc5a10a1e2c","system_id":"levelo_inurba_marseille","lat":43.28274,"lon":5.35079,"is_reserved":false,"is_disabled":false,"rental_uris":{"android":"levelo://app?vid=825bb2d9-bdc4-41e3-8f2f-ebc5a10a1e2c","ios":"levelo://app?vid=825bb2d9-bdc4-41e3-8f2f-ebc5a10a1e2c"},"vehicle_type_id":"4","last_reported":1742919048,"current_range_meters":12800,"station_id":"ce4bhbp2rcd13ifvqerg","pricing_plan_id":"cebpf4jnsgd1na2vs0mg"},{"bike_id":"93856530-cf8f-438c-ba2e-fece11bc99df","system_id":"levelo_inurba_marseille","lat":43.30469,"lon":5.37914,"is_reserved":false,"is_disabled":false,"rental_uris":{"android":"levelo://app?vid=93856530-cf8f-438c-ba2e-fece11bc99df","ios":"levelo://app?vid=93856530-cf8f-438c-ba2e-fece11bc99df"},"vehicle_type_id":"4","last_reported":1742919048,"current_range_meters":12800,"station_id":"ce4bgup2rcd13ifvqcn0","pricing_plan_id":"cebpf4jnsgd1na2vs0mg"},{"bike_id":"20ca5c4c-4720-471d-9aff-758ae3790a92","system_id":"levelo_inurba_marseille","lat":43.28277,"lon":5.35083,"is_reserved":false,"is_disabled":false,"rental_uris":{"android":"levelo://app?vid=20ca5c4c-4720-471d-9aff-758ae3790a92","ios":"levelo://app?vid=20ca5c4c-4720-471d-9aff-758ae3790a92"},"vehicle_type_id":"4","last_reported":1742919048,"current_range_meters":12800,"station_id":"ce4bhbp2rcd13ifvqerg","pricing_plan_id":"cebpf4jnsgd1na2vs0mg"},{"bike_id":"4b12d6d7-e013-43eb-aef6-0e62b249f5a9","system_id":"levelo_inurba_marseille","lat":43.29803,"lon":5.4039,"is_reserved":false,"is_disabled":false,"rental_uris":{"android":"levelo://app?vid=4b12d6d7-e013-43eb-aef6-0e62b249f5a9","ios":"levelo://app?vid=4b12d6d7-e013-43eb-aef6-0e62b249f5a9"},"vehicle_type_id":"4","last_reported":1742919048,"current_range_meters":12800,"station_id":"ce4bh112rcd13ifvqd90","pricing_plan_id":"cebpf4jnsgd1na2vs0mg"},{"bike_id":"d5d0722c-2ec9-4009-88e1-93167bb65f1d","system_id":"levelo_inurba_marseille","lat":43.30331,"lon":5.4043,"is_reserved":false,"is_disabled":false,"rental_uris":{"android":"levelo://app?vid=d5d0722c-2ec9-4009-88e1-93167bb65f1d","ios":"levelo://app?vid=d5d0722c-2ec9-4009-88e1-93167bb65f1d"},"vehicle_type_id":"4","last_reported":1742919048,"current_range_meters":12800,"station_id":"ce4bh012rcd13ifvqd10","pricing_plan_id":"cebpf4jnsgd1na2vs0mg"},{"bike_id":"a131070a-e779-4800-86bd-eec8ea7cf525","system_id":"levelo_inurba_marseille","lat":43.28108,"lon":5.37912,"is_reserved":false,"is_disabled":false,"rental_uris":{"android":"levelo://app?vid=a131070a-e779-4800-86bd-eec8ea7cf525","ios":"levelo://app?vid=a131070a-e779-4800-86bd-eec8ea7cf525"},"vehicle_type_id":"4","last_reported":1742919048,"current_range_meters":13600,"station_id":"ce4bha12rcd13ifvqee0","pricing_plan_id":"cebpf4jnsgd1na2vs0mg"},{"bike_id":"14b3d8c0-9552-4146-a464-91a85d612ec4","system_id":"levelo_inurba_marseille","lat":43.3122,"lon":5.36832,"is_reserved":false,"is_disabled":false,"rental_uris":{"android":"levelo://app?vid=14b3d8c0-9552-4146-a464-91a85d612ec4","ios":"levelo://app?vid=14b3d8c0-9552-4146-a464-91a85d612ec4"},"vehicle_type_id":"4","last_reported":1742919048,"current_range_meters":13600,"station_id":"ce4bgl92rcd13ifvqbq0","pricing_plan_id":"cebpf4jnsgd1na2vs0mg"},{"bike_id":"2eb9a270-fbab-4f93-8fa6-d4b7bddad1fe","system_id":"levelo_inurba_marseille","lat":43.27955,"lon":5.41047,"is_reserved":false,"is_disabled":false,"rental_uris":{"android":"levelo://app?vid=2eb9a270-fbab-4f93-8fa6-d4b7bddad1fe","ios":"levelo://app?vid=2eb9a270-fbab-4f93-8fa6-d4b7bddad1fe"},"vehicle_type_id":"4","last_reported":1742919048,"current_range_meters":13600,"station_id":"ce4bhnp2rcd13ifvqh0g","pricing_plan_id":"cebpf4jnsgd1na2vs0mg"},{"bike_id":"31c7cf9e-8b1d-45a7-a1b8-254c902bbbb5","system_id":"levelo_inurba_marseille","lat":43.23964,"lon":5.36629,"is_reserved":false,"is_disabled":false,"rental_uris":{"android":"levelo://app?vid=31c7cf9e-8b1d-45a7-a1b8-254c902bbbb5","ios":"levelo://app?vid=31c7cf9e-8b1d-45a7-a1b8-254c902bbbb5"},"vehicle_type_id":"4","last_reported":1742919048,"current_range_meters":13600,"station_id":"ce4bhi12rcd13ifvqfp0","pricing_plan_id":"cebpf4jnsgd1na2vs0mg"},{"bike_id":"1d8a3249-9200-4972-bc96-75314e87b237","system_id":"levelo_inurba_marseille","lat":43.30599,"lon":5.36721,"is_reserved":false,"is_disabled":false,"rental_uris":{"android":"levelo://app?vid=1d8a3249-9200-4972-bc96-75314e87b237","ios":"levelo://app?vid=1d8a3249-9200-4972-bc96-75314e87b237"},"vehicle_type_id":"4","last_reported":1742919048,"current_range_meters":13600,"station_id":"","pricing_plan_id":"cebpf4jnsgd1na2vs0mg"},{"bike_id":"f83dc16a-0892-41f5-ac77-5fd42c063ee1","system_id":"levelo_inurba_marseille","lat":43.25006,"lon":5.3893,"is_reserved":false,"is_disabled":false,"rental_uris":{"android":"levelo://app?vid=f83dc16a-0892-41f5-ac77-5fd42c063ee1","ios":"levelo://app?vid=f83dc16a-0892-41f5-ac77-5fd42c063ee1"},"vehicle_type_id":"4","last_reported":1742919048,"current_range_meters":14000,"station_id":"ce4bhgp2rcd13ifvqfd0","pricing_plan_id":"cebpf4jnsgd1na2vs0mg"},{"bike_id":"7944a096-bc42-4bfe-bc96-00a26829189d","system_id":"levelo_inurba_marseille","lat":43.26562,"lon":5.39013,"is_reserved":false,"is_disabled":false,"rental_uris":{"android":"levelo://app?vid=7944a096-bc42-4bfe-bc96-00a26829189d","ios":"levelo://app?vid=7944a096-bc42-4bfe-bc96-00a26829189d"},"vehicle_type_id":"4","last_reported":1742919048,"current_range_meters":14000,"station_id":"ce4bhe12rcd13ifvqf30","pricing_plan_id":"cebpf4jnsgd1na2vs0mg"},{"bike_id":"da43d894-069e-486e-a738-14255c3635ad","system_id":"levelo_inurba_marseille","lat":43.26055,"lon":5.394,"is_reserved":false,"is_disabled":false,"rental_uris":{"android":"levelo://app?vid=da43d894-069e-486e-a738-14255c3635ad","ios":"levelo://app?vid=da43d894-069e-486e-a738-14255c3635ad"},"vehicle_type_id":"4","last_reported":1742919048,"current_range_meters":14000,"station_id":"ce4bhh92rcd13ifvqfj0","pricing_plan_id":"cebpf4jnsgd1na2vs0mg"},{"bike_id":"d554ef3b-1656-4b31-bf64-5afd079f1a93","system_id":"levelo_inurba_marseille","lat":43.28438,"lon":5.39192,"is_reserved":false,"is_disabled":false,"rental_uris":{"android":"levelo://app?vid=d554ef3b-1656-4b31-bf64-5afd079f1a93","ios":"levelo://app?vid=d554ef3b-1656-4b31-bf64-5afd079f1a93"},"vehicle_type_id":"4","last_reported":1742919048,"current_range_meters":14000,"station_id":"ce4bhoh2rcd13ifvqh5g","pricing_plan_id":"cebpf4jnsgd1na2vs0mg"},{"bike_id":"11bb0b32-fdc0-4c22-aa18-db9114dfbe3f","system_id":"levelo_inurba_marseille","lat":43.27378,"lon":5.36254,"is_reserved":false,"is_disabled":false,"rental_uris":{"android":"levelo://app?vid=11bb0b32-fdc0-4c22-aa18-db9114dfbe3f","ios":"levelo://app?vid=11bb0b32-fdc0-4c22-aa18-db9114dfbe3f"},"vehicle_type_id":"4","last_reported":1742919048,"current_range_meters":14000,"station_id":"ce4bhbh2rcd13ifvqeo0","pricing_plan_id":"cebpf4jnsgd1na2vs0mg"},{"bike_id":"0aea2c8b-a3f7-47d3-88d0-95fbd5fe692b","system_id":"levelo_inurba_marseille","lat":43.266891,"lon":5.382719,"is_reserved":false,"is_disabled":false,"rental_uris":{"android":"levelo://app?vid=0aea2c8b-a3f7-47d3-88d0-95fbd5fe692b","ios":"levelo://app?vid=0aea2c8b-a3f7-47d3-88d0-95fbd5fe692b"},"vehicle_type_id":"4","last_reported":1742919048,"current_range_meters":14000,"station_id":"ce4bhg92rcd13ifvqf90","pricing_plan_id":"cebpf4jnsgd1na2vs0mg"},{"bike_id":"87d02fc3-81d6-40d4-acc4-d3383536a876","system_id":"levelo_inurba_marseille","lat":43.294915,"lon":5.374424,"is_reserved":false,"is_disabled":false,"rental_uris":{"android":"levelo://app?vid=87d02fc3-81d6-40d4-acc4-d3383536a876","ios":"levelo://app?vid=87d02fc3-81d6-40d4-acc4-d3383536a876"},"vehicle_type_id":"4","last_reported":1742919048,"current_range_meters":14400,"station_id":"ce4bgkp2rcd13ifvqbmg","pricing_plan_id":"cebpf4jnsgd1na2vs0mg"},{"bike_id":"84a7a785-5392-42bc-8088-fb903bcc7f5c","system_id":"levelo_inurba_marseille","lat":43.23063,"lon":5.35489,"is_reserved":false,"is_disabled":false,"rental_uris":{"android":"levelo://app?vid=84a7a785-5392-42bc-8088-fb903bcc7f5c","ios":"levelo://app?vid=84a7a785-5392-42bc-8088-fb903bcc7f5c"},"vehicle_type_id":"4","last_reported":1742919048,"current_range_meters":14400,"station_id":"cpo3342slgdg3j2ifvpg","pricing_plan_id":"cebpf4jnsgd1na2vs0mg"},{"bike_id":"0c9cada4-2764-4013-a528-15089818cb84","system_id":"levelo_inurba_marseille","lat":43.27753,"lon":5.41143,"is_reserved":false,"is_disabled":false,"rental_uris":{"android":"levelo://app?vid=0c9cada4-2764-4013-a528-15089818cb84","ios":"levelo://app?vid=0c9cada4-2764-4013-a528-15089818cb84"},"vehicle_type_id":"4","last_reported":1742919048,"current_range_meters":14400,"station_id":"","pricing_plan_id":"cebpf4jnsgd1na2vs0mg"},{"bike_id":"7fdecdeb-36cb-4cf4-9c98-d803f5809435","system_id":"levelo_inurba_marseille","lat":43.26144,"lon":5.39851,"is_reserved":false,"is_disabled":false,"rental_uris":{"android":"levelo://app?vid=7fdecdeb-36cb-4cf4-9c98-d803f5809435","ios":"levelo://app?vid=7fdecdeb-36cb-4cf4-9c98-d803f5809435"},"vehicle_type_id":"4","last_reported":1742919048,"current_range_meters":14400,"station_id":"","pricing_plan_id":"cebpf4jnsgd1na2vs0mg"},{"bike_id":"39dd3a0d-5b61-48d8-a69f-25b5d345b395","system_id":"levelo_inurba_marseille","lat":43.30567,"lon":5.36542,"is_reserved":false,"is_disabled":false,"rental_uris":{"android":"levelo://app?vid=39dd3a0d-5b61-48d8-a69f-25b5d345b395","ios":"levelo://app?vid=39dd3a0d-5b61-48d8-a69f-25b5d345b395"},"vehicle_type_id":"4","last_reported":1742919048,"current_range_meters":14400,"station_id":"ce4bgs12rcd13ifvqcag","pricing_plan_id":"cebpf4jnsgd1na2vs0mg"},{"bike_id":"974f5876-effd-44d0-911c-76ea7a107a8c","system_id":"levelo_inurba_marseille","lat":43.33289,"lon":5.3587,"is_reserved":false,"is_disabled":false,"rental_uris":{"android":"levelo://app?vid=974f5876-effd-44d0-911c-76ea7a107a8c","ios":"levelo://app?vid=974f5876-effd-44d0-911c-76ea7a107a8c"},"vehicle_type_id":"4","last_reported":1742919048,"current_range_meters":14400,"station_id":"","pricing_plan_id":"cebpf4jnsgd1na2vs0mg"},{"bike_id":"fa14eb3a-1fdb-4bc8-8092-af468e8ded60","system_id":"levelo_inurba_marseille","lat":43.28004,"lon":5.40018,"is_reserved":false,"is_disabled":false,"rental_uris":{"android":"levelo://app?vid=fa14eb3a-1fdb-4bc8-8092-af468e8ded60","ios":"levelo://app?vid=fa14eb3a-1fdb-4bc8-8092-af468e8ded60"},"vehicle_type_id":"4","last_reported":1742919048,"current_range_meters":14400,"station_id":"ce4bho92rcd13ifvqh4g","pricing_plan_id":"cebpf4jnsgd1na2vs0mg"},{"bike_id":"a64b1f28-48ed-49fb-bbe5-72e652d70813","system_id":"levelo_inurba_marseille","lat":43.2439,"lon":5.37056,"is_reserved":false,"is_disabled":false,"rental_uris":{"android":"levelo://app?vid=a64b1f28-48ed-49fb-bbe5-72e652d70813","ios":"levelo://app?vid=a64b1f28-48ed-49fb-bbe5-72e652d70813"},"vehicle_type_id":"4","last_reported":1742919048,"current_range_meters":14400,"station_id":"ce4bhhh2rcd13ifvqfk0","pricing_plan_id":"cebpf4jnsgd1na2vs0mg"},{"bike_id":"05160a09-5251-42a3-b58c-5d0443f8c766","system_id":"levelo_inurba_marseille","lat":43.23969,"lon":5.36628,"is_reserved":false,"is_disabled":false,"rental_uris":{"android":"levelo://app?vid=05160a09-5251-42a3-b58c-5d0443f8c766","ios":"levelo://app?vid=05160a09-5251-42a3-b58c-5d0443f8c766"},"vehicle_type_id":"4","last_reported":1742919048,"current_range_meters":14800,"station_id":"ce4bhi12rcd13ifvqfp0","pricing_plan_id":"cebpf4jnsgd1na2vs0mg"},{"bike_id":"cfe41239-6838-43e3-b658-c47b66d5efd6","system_id":"levelo_inurba_marseille","lat":43.32673,"lon":5.40993,"is_reserved":false,"is_disabled":false,"rental_uris":{"android":"levelo://app?vid=cfe41239-6838-43e3-b658-c47b66d5efd6","ios":"levelo://app?vid=cfe41239-6838-43e3-b658-c47b66d5efd6"},"vehicle_type_id":"4","last_reported":1742919048,"current_range_meters":14800,"station_id":"ce4bhpp2rcd13ifvqhgg","pricing_plan_id":"cebpf4jnsgd1na2vs0mg"},{"bike_id":"de95c946-7a25-4208-a884-99e0f35cb364","system_id":"levelo_inurba_marseille","lat":43.28673,"lon":5.36357,"is_reserved":false,"is_disabled":false,"rental_uris":{"android":"levelo://app?vid=de95c946-7a25-4208-a884-99e0f35cb364","ios":"levelo://app?vid=de95c946-7a25-4208-a884-99e0f35cb364"},"vehicle_type_id":"4","last_reported":1742919048,"current_range_meters":14800,"station_id":"ce4bhah2rcd13ifvqej0","pricing_plan_id":"cebpf4jnsgd1na2vs0mg"},{"bike_id":"9f45a8a9-5077-4f04-9d54-e73ba8ea23aa","system_id":"levelo_inurba_marseille","lat":43.292,"lon":5.39315,"is_reserved":false,"is_disabled":false,"rental_uris":{"android":"levelo://app?vid=9f45a8a9-5077-4f04-9d54-e73ba8ea23aa","ios":"levelo://app?vid=9f45a8a9-5077-4f04-9d54-e73ba8ea23aa"},"vehicle_type_id":"4","last_reported":1742919048,"current_range_meters":14400,"station_id":"ce4bh192rcd13ifvqdd0","pricing_plan_id":"cebpf4jnsgd1na2vs0mg"},{"bike_id":"8ba11d0e-dc45-4bc3-a15d-ccf081ccb3e7","system_id":"levelo_inurba_marseille","lat":43.23067,"lon":5.35488,"is_reserved":false,"is_disabled":false,"rental_uris":{"android":"levelo://app?vid=8ba11d0e-dc45-4bc3-a15d-ccf081ccb3e7","ios":"levelo://app?vid=8ba11d0e-dc45-4bc3-a15d-ccf081ccb3e7"},"vehicle_type_id":"4","last_reported":1742919048,"current_range_meters":14800,"station_id":"cpo3342slgdg3j2ifvpg","pricing_plan_id":"cebpf4jnsgd1na2vs0mg"},{"bike_id":"82219511-549c-4b63-baf5-ff8405cca9d7","system_id":"levelo_inurba_marseille","lat":43.31699,"lon":5.43691,"is_reserved":false,"is_disabled":false,"rental_uris":{"android":"levelo://app?vid=82219511-549c-4b63-baf5-ff8405cca9d7","ios":"levelo://app?vid=82219511-549c-4b63-baf5-ff8405cca9d7"},"vehicle_type_id":"4","last_reported":1742919048,"current_range_meters":14800,"station_id":"ce4bhp92rcd13ifvqhcg","pricing_plan_id":"cebpf4jnsgd1na2vs0mg"},{"bike_id":"8cf55c0e-14e4-445f-b97d-4d1e1788a7d4","system_id":"levelo_inurba_marseille","lat":43.33727,"lon":5.3919,"is_reserved":false,"is_disabled":false,"rental_uris":{"android":"levelo://app?vid=8cf55c0e-14e4-445f-b97d-4d1e1788a7d4","ios":"levelo://app?vid=8cf55c0e-14e4-445f-b97d-4d1e1788a7d4"},"vehicle_type_id":"4","last_reported":1742919048,"current_range_meters":14800,"station_id":"ce4bhr92rcd13ifvqhsg","pricing_plan_id":"cebpf4jnsgd1na2vs0mg"},{"bike_id":"c25dc083-e0b1-4df6-be60-f5722be711e8","system_id":"levelo_inurba_marseille","lat":43.31221,"lon":5.36848,"is_reserved":false,"is_disabled":false,"rental_uris":{"android":"levelo://app?vid=c25dc083-e0b1-4df6-be60-f5722be711e8","ios":"levelo://app?vid=c25dc083-e0b1-4df6-be60-f5722be711e8"},"vehicle_type_id":"4","last_reported":1742919048,"current_range_meters":14800,"station_id":"ce4bgl92rcd13ifvqbq0","pricing_plan_id":"cebpf4jnsgd1na2vs0mg"},{"bike_id":"a818961d-5f1c-4a77-8216-5fd27d2d139f","system_id":"levelo_inurba_marseille","lat":43.31351,"lon":5.36678,"is_reserved":false,"is_disabled":false,"rental_uris":{"android":"levelo://app?vid=a818961d-5f1c-4a77-8216-5fd27d2d139f","ios":"levelo://app?vid=a818961d-5f1c-4a77-8216-5fd27d2d139f"},"vehicle_type_id":"4","last_reported":1742919048,"current_range_meters":14800,"station_id":"ce4bgr92rcd13ifvqc6g","pricing_plan_id":"cebpf4jnsgd1na2vs0mg"},{"bike_id":"8e1b69fe-38a9-404e-9145-427fd10d244c","system_id":"levelo_inurba_marseille","lat":43.28418,"lon":5.34989,"is_reserved":false,"is_disabled":true,"rental_uris":{"android":"levelo://app?vid=8e1b69fe-38a9-404e-9145-427fd10d244c","ios":"levelo://app?vid=8e1b69fe-38a9-404e-9145-427fd10d244c"},"vehicle_type_id":"4","last_reported":1742919048,"current_range_meters":15200,"station_id":"ce4bhbh2rcd13ifvqepg","pricing_plan_id":"cebpf4jnsgd1na2vs0mg"},{"bike_id":"549132c2-0d0c-476c-8b9f-3505368111d7","system_id":"levelo_inurba_marseille","lat":43.28035,"lon":5.36952,"is_reserved":false,"is_disabled":false,"rental_uris":{"android":"levelo://app?vid=549132c2-0d0c-476c-8b9f-3505368111d7","ios":"levelo://app?vid=549132c2-0d0c-476c-8b9f-3505368111d7"},"vehicle_type_id":"4","last_reported":1742919048,"current_range_meters":15200,"station_id":"ce4bha12rcd13ifvqef0","pricing_plan_id":"cebpf4jnsgd1na2vs0mg"},{"bike_id":"408b1563-67b6-4098-8dd6-1f3aa1f53851","system_id":"levelo_inurba_marseille","lat":43.29572,"lon":5.39389,"is_reserved":false,"is_disabled":false,"rental_uris":{"android":"levelo://app?vid=408b1563-67b6-4098-8dd6-1f3aa1f53851","ios":"levelo://app?vid=408b1563-67b6-4098-8dd6-1f3aa1f53851"},"vehicle_type_id":"4","last_reported":1742919048,"current_range_meters":15200,"station_id":"ce4bh292rcd13ifvqdf0","pricing_plan_id":"cebpf4jnsgd1na2vs0mg"},{"bike_id":"e7125f90-8572-41a2-b5a5-534686ae3149","system_id":"levelo_inurba_marseille","lat":43.28674,"lon":5.38657,"is_reserved":false,"is_disabled":false,"rental_uris":{"android":"levelo://app?vid=e7125f90-8572-41a2-b5a5-534686ae3149","ios":"levelo://app?vid=e7125f90-8572-41a2-b5a5-534686ae3149"},"vehicle_type_id":"4","last_reported":1742919048,"current_range_meters":15200,"station_id":"ce4bh492rcd13ifvqdug","pricing_plan_id":"cebpf4jnsgd1na2vs0mg"},{"bike_id":"2b3f0385-7bef-41e6-b807-cebd049fb58d","system_id":"levelo_inurba_marseille","lat":43.24179,"lon":5.39737,"is_reserved":false,"is_disabled":false,"rental_uris":{"android":"levelo://app?vid=2b3f0385-7bef-41e6-b807-cebd049fb58d","ios":"levelo://app?vid=2b3f0385-7bef-41e6-b807-cebd049fb58d"},"vehicle_type_id":"4","last_reported":1742919048,"current_range_meters":15200,"station_id":"ce4bhn12rcd13ifvqgpg","pricing_plan_id":"cebpf4jnsgd1na2vs0mg"},{"bike_id":"553164b3-168b-4299-844d-7c974961fc08","system_id":"levelo_inurba_marseille","lat":43.28415,"lon":5.34993,"is_reserved":false,"is_disabled":false,"rental_uris":{"android":"levelo://app?vid=553164b3-168b-4299-844d-7c974961fc08","ios":"levelo://app?vid=553164b3-168b-4299-844d-7c974961fc08"},"vehicle_type_id":"4","last_reported":1742919048,"current_range_meters":15200,"station_id":"ce4bhbh2rcd13ifvqepg","pricing_plan_id":"cebpf4jnsgd1na2vs0mg"},{"bike_id":"52793577-8d59-4388-bc9a-d81f8bc1b0fa","system_id":"levelo_inurba_marseille","lat":43.32492,"lon":5.36566,"is_reserved":false,"is_disabled":true,"rental_uris":{"android":"levelo://app?vid=52793577-8d59-4388-bc9a-d81f8bc1b0fa","ios":"levelo://app?vid=52793577-8d59-4388-bc9a-d81f8bc1b0fa"},"vehicle_type_id":"4","last_reported":1742919048,"current_range_meters":15200,"station_id":"ce4bhs12rcd13ifvqhvg","pricing_plan_id":"cebpf4jnsgd1na2vs0mg"},{"bike_id":"aa303dff-91b5-49e9-90fc-c1de20bffb62","system_id":"levelo_inurba_marseille","lat":43.29706,"lon":5.37689,"is_reserved":false,"is_disabled":false,"rental_uris":{"android":"levelo://app?vid=aa303dff-91b5-49e9-90fc-c1de20bffb62","ios":"levelo://app?vid=aa303dff-91b5-49e9-90fc-c1de20bffb62"},"vehicle_type_id":"4","last_reported":1742919048,"current_range_meters":16000,"station_id":"ce4bgkh2rcd13ifvqbl0","pricing_plan_id":"cebpf4jnsgd1na2vs0mg"},{"bike_id":"d8ac796d-5e05-48dc-89b5-b398ed2cdc6e","system_id":"levelo_inurba_marseille","lat":43.24172,"lon":5.363985,"is_reserved":false,"is_disabled":false,"rental_uris":{"android":"levelo://app?vid=d8ac796d-5e05-48dc-89b5-b398ed2cdc6e","ios":"levelo://app?vid=d8ac796d-5e05-48dc-89b5-b398ed2cdc6e"},"vehicle_type_id":"4","last_reported":1742919048,"current_range_meters":16000,"station_id":"ce4bgih2rcd13ifvqba0","pricing_plan_id":"cebpf4jnsgd1na2vs0mg"},{"bike_id":"6f50529f-c142-4f07-b97a-17ed119c088f","system_id":"levelo_inurba_marseille","lat":43.28614,"lon":5.35098,"is_reserved":false,"is_disabled":false,"rental_uris":{"android":"levelo://app?vid=6f50529f-c142-4f07-b97a-17ed119c088f","ios":"levelo://app?vid=6f50529f-c142-4f07-b97a-17ed119c088f"},"vehicle_type_id":"4","last_reported":1742919048,"current_range_meters":16000,"station_id":"ce4bhch2rcd13ifvqeug","pricing_plan_id":"cebpf4jnsgd1na2vs0mg"},{"bike_id":"34f86d08-4027-466e-9cab-f2a844c49b43","system_id":"levelo_inurba_marseille","lat":43.28281,"lon":5.35075,"is_reserved":false,"is_disabled":false,"rental_uris":{"android":"levelo://app?vid=34f86d08-4027-466e-9cab-f2a844c49b43","ios":"levelo://app?vid=34f86d08-4027-466e-9cab-f2a844c49b43"},"vehicle_type_id":"4","last_reported":1742919048,"current_range_meters":16000,"station_id":"ce4bhbp2rcd13ifvqerg","pricing_plan_id":"cebpf4jnsgd1na2vs0mg"},{"bike_id":"32eb88cb-1ae3-459e-a828-0a92a32c2315","system_id":"levelo_inurba_marseille","lat":43.2678,"lon":5.39423,"is_reserved":false,"is_disabled":false,"rental_uris":{"android":"levelo://app?vid=32eb88cb-1ae3-459e-a828-0a92a32c2315","ios":"levelo://app?vid=32eb88cb-1ae3-459e-a828-0a92a32c2315"},"vehicle_type_id":"4","last_reported":1742919048,"current_range_meters":16000,"station_id":"","pricing_plan_id":"cebpf4jnsgd1na2vs0mg"},{"bike_id":"80164332-3b57-4953-8d77-2e3ebeeef46d","system_id":"levelo_inurba_marseille","lat":43.2873,"lon":5.37943,"is_reserved":false,"is_disabled":false,"rental_uris":{"android":"levelo://app?vid=80164332-3b57-4953-8d77-2e3ebeeef46d","ios":"levelo://app?vid=80164332-3b57-4953-8d77-2e3ebeeef46d"},"vehicle_type_id":"4","last_reported":1742919048,"current_range_meters":16000,"station_id":"ce4bh9p2rcd13ifvqec0","pricing_plan_id":"cebpf4jnsgd1na2vs0mg"},{"bike_id":"4ca1265d-7176-47b0-955b-82889410aaee","system_id":"levelo_inurba_marseille","lat":43.29921,"lon":5.37468,"is_reserved":false,"is_disabled":false,"rental_uris":{"android":"levelo://app?vid=4ca1265d-7176-47b0-955b-82889410aaee","ios":"levelo://app?vid=4ca1265d-7176-47b0-955b-82889410aaee"},"vehicle_type_id":"4","last_reported":1742919048,"current_range_meters":16400,"station_id":"","pricing_plan_id":"cebpf4jnsgd1na2vs0mg"},{"bike_id":"2349ea78-e5ff-44c1-8a9d-5755df83b4b0","system_id":"levelo_inurba_marseille","lat":43.28118,"lon":5.42696,"is_reserved":false,"is_disabled":false,"rental_uris":{"android":"levelo://app?vid=2349ea78-e5ff-44c1-8a9d-5755df83b4b0","ios":"levelo://app?vid=2349ea78-e5ff-44c1-8a9d-5755df83b4b0"},"vehicle_type_id":"4","last_reported":1742919048,"current_range_meters":16000,"station_id":"","pricing_plan_id":"cebpf4jnsgd1na2vs0mg"},{"bike_id":"607c3d45-233b-4304-b7f8-b6f34b2d83ce","system_id":"levelo_inurba_marseille","lat":43.28706,"lon":5.39953,"is_reserved":false,"is_disabled":false,"rental_uris":{"android":"levelo://app?vid=607c3d45-233b-4304-b7f8-b6f34b2d83ce","ios":"levelo://app?vid=607c3d45-233b-4304-b7f8-b6f34b2d83ce"},"vehicle_type_id":"4","last_reported":1742919048,"current_range_meters":16400,"station_id":"ce4bho92rcd13ifvqh3g","pricing_plan_id":"cebpf4jnsgd1na2vs0mg"},{"bike_id":"9c23b3c2-c990-4dbf-aa18-6e694601de23","system_id":"levelo_inurba_marseille","lat":43.30409,"lon":5.41287,"is_reserved":false,"is_disabled":true,"rental_uris":{"android":"levelo://app?vid=9c23b3c2-c990-4dbf-aa18-6e694601de23","ios":"levelo://app?vid=9c23b3c2-c990-4dbf-aa18-6e694601de23"},"vehicle_type_id":"4","last_reported":1742919048,"current_range_meters":16400,"station_id":"ce4bhop2rcd13ifvqh8g","pricing_plan_id":"cebpf4jnsgd1na2vs0mg"},{"bike_id":"046f982b-769b-4f96-b14f-4e8ec294fd36","system_id":"levelo_inurba_marseille","lat":43.24527,"lon":5.39506,"is_reserved":false,"is_disabled":false,"rental_uris":{"android":"levelo://app?vid=046f982b-769b-4f96-b14f-4e8ec294fd36","ios":"levelo://app?vid=046f982b-769b-4f96-b14f-4e8ec294fd36"},"vehicle_type_id":"4","last_reported":1742919048,"current_range_meters":16400,"station_id":"ce4bhlp2rcd13ifvqgjg","pricing_plan_id":"cebpf4jnsgd1na2vs0mg"},{"bike_id":"fe4bbe52-6158-4535-a166-b1e1e79035be","system_id":"levelo_inurba_marseille","lat":43.27622,"lon":5.36117,"is_reserved":false,"is_disabled":false,"rental_uris":{"android":"levelo://app?vid=fe4bbe52-6158-4535-a166-b1e1e79035be","ios":"levelo://app?vid=fe4bbe52-6158-4535-a166-b1e1e79035be"},"vehicle_type_id":"4","last_reported":1742919048,"current_range_meters":16400,"station_id":"ce4bgj92rcd13ifvqbe0","pricing_plan_id":"cebpf4jnsgd1na2vs0mg"},{"bike_id":"2eaf3081-8c9d-446c-a652-896c17b390c1","system_id":"levelo_inurba_marseille","lat":43.27181,"lon":5.40991,"is_reserved":false,"is_disabled":false,"rental_uris":{"android":"levelo://app?vid=2eaf3081-8c9d-446c-a652-896c17b390c1","ios":"levelo://app?vid=2eaf3081-8c9d-446c-a652-896c17b390c1"},"vehicle_type_id":"4","last_reported":1742919048,"current_range_meters":16400,"station_id":"ce4bhl12rcd13ifvqgf0","pricing_plan_id":"cebpf4jnsgd1na2vs0mg"},{"bike_id":"ecbac42f-2a55-4e43-9449-9a512a44ac31","system_id":"levelo_inurba_marseille","lat":43.28464,"lon":5.3588,"is_reserved":false,"is_disabled":false,"rental_uris":{"android":"levelo://app?vid=ecbac42f-2a55-4e43-9449-9a512a44ac31","ios":"levelo://app?vid=ecbac42f-2a55-4e43-9449-9a512a44ac31"},"vehicle_type_id":"4","last_reported":1742919048,"current_range_meters":16400,"station_id":"ce4bhah2rcd13ifvqei0","pricing_plan_id":"cebpf4jnsgd1na2vs0mg"},{"bike_id":"2b40bf48-39e3-4936-b1da-fca968455116","system_id":"levelo_inurba_marseille","lat":43.28007,"lon":5.40008,"is_reserved":false,"is_disabled":false,"rental_uris":{"android":"levelo://app?vid=2b40bf48-39e3-4936-b1da-fca968455116","ios":"levelo://app?vid=2b40bf48-39e3-4936-b1da-fca968455116"},"vehicle_type_id":"4","last_reported":1742919048,"current_range_meters":16400,"station_id":"ce4bho92rcd13ifvqh4g","pricing_plan_id":"cebpf4jnsgd1na2vs0mg"},{"bike_id":"3b44c771-1871-4bee-b5c7-80c37a32917a","system_id":"levelo_inurba_marseille","lat":43.28279,"lon":5.35064,"is_reserved":false,"is_disabled":false,"rental_uris":{"android":"levelo://app?vid=3b44c771-1871-4bee-b5c7-80c37a32917a","ios":"levelo://app?vid=3b44c771-1871-4bee-b5c7-80c37a32917a"},"vehicle_type_id":"4","last_reported":1742919048,"current_range_meters":16400,"station_id":"ce4bhbp2rcd13ifvqerg","pricing_plan_id":"cebpf4jnsgd1na2vs0mg"},{"bike_id":"7bc7b74d-b00d-4fc8-8fd6-83f9e21afab4","system_id":"levelo_inurba_marseille","lat":43.241638,"lon":5.363963,"is_reserved":false,"is_disabled":false,"rental_uris":{"android":"levelo://app?vid=7bc7b74d-b00d-4fc8-8fd6-83f9e21afab4","ios":"levelo://app?vid=7bc7b74d-b00d-4fc8-8fd6-83f9e21afab4"},"vehicle_type_id":"4","last_reported":1742919048,"current_range_meters":16400,"station_id":"cpo36qri1sfpv3e86is0","pricing_plan_id":"cebpf4jnsgd1na2vs0mg"},{"bike_id":"cbd73c7c-0f51-4e44-a559-4814faf49b03","system_id":"levelo_inurba_marseille","lat":43.24183,"lon":5.39733,"is_reserved":false,"is_disabled":false,"rental_uris":{"android":"levelo://app?vid=cbd73c7c-0f51-4e44-a559-4814faf49b03","ios":"levelo://app?vid=cbd73c7c-0f51-4e44-a559-4814faf49b03"},"vehicle_type_id":"4","last_reported":1742919048,"current_range_meters":16800,"station_id":"ce4bhn12rcd13ifvqgpg","pricing_plan_id":"cebpf4jnsgd1na2vs0mg"},{"bike_id":"6d7433b8-d6b9-499c-8450-ff9b3ccdcc86","system_id":"levelo_inurba_marseille","lat":43.27948,"lon":5.41047,"is_reserved":false,"is_disabled":false,"rental_uris":{"android":"levelo://app?vid=6d7433b8-d6b9-499c-8450-ff9b3ccdcc86","ios":"levelo://app?vid=6d7433b8-d6b9-499c-8450-ff9b3ccdcc86"},"vehicle_type_id":"4","last_reported":1742919048,"current_range_meters":16800,"station_id":"ce4bhnp2rcd13ifvqh0g","pricing_plan_id":"cebpf4jnsgd1na2vs0mg"},{"bike_id":"2fc182a6-efe7-45af-af11-d66fde904d33","system_id":"levelo_inurba_marseille","lat":43.286724,"lon":5.386628,"is_reserved":false,"is_disabled":false,"rental_uris":{"android":"levelo://app?vid=2fc182a6-efe7-45af-af11-d66fde904d33","ios":"levelo://app?vid=2fc182a6-efe7-45af-af11-d66fde904d33"},"vehicle_type_id":"4","last_reported":1742919048,"current_range_meters":16800,"station_id":"ce4bh492rcd13ifvqdug","pricing_plan_id":"cebpf4jnsgd1na2vs0mg"},{"bike_id":"c6b94905-f665-4803-b1ef-0bbce5d69f51","system_id":"levelo_inurba_marseille","lat":43.27435,"lon":5.39416,"is_reserved":false,"is_disabled":false,"rental_uris":{"android":"levelo://app?vid=c6b94905-f665-4803-b1ef-0bbce5d69f51","ios":"levelo://app?vid=c6b94905-f665-4803-b1ef-0bbce5d69f51"},"vehicle_type_id":"4","last_reported":1742919048,"current_range_meters":16800,"station_id":"ce4bhdp2rcd13ifvqf20","pricing_plan_id":"cebpf4jnsgd1na2vs0mg"},{"bike_id":"5f7c0a5d-25df-46d9-ae20-f439f91ff579","system_id":"levelo_inurba_marseille","lat":43.28967,"lon":5.37826,"is_reserved":false,"is_disabled":false,"rental_uris":{"android":"levelo://app?vid=5f7c0a5d-25df-46d9-ae20-f439f91ff579","ios":"levelo://app?vid=5f7c0a5d-25df-46d9-ae20-f439f91ff579"},