{"last_updated":1779318233,"ttl":60,"version":"2.2","data":{"bikes":[{"bike_id":"7d641315-6110-49cb-a9dd-d637ff032de1","system_id":"levelo_inurba_marseille","lat":43.337444,"lon":5.374475,"is_reserved":false,"is_disabled":false,"rental_uris":{"android":"levelo://app?vid=7d641315-6110-49cb-a9dd-d637ff032de1","ios":"levelo://app?vid=7d641315-6110-49cb-a9dd-d637ff032de1"},"vehicle_type_id":"4","last_reported":1779318234,"current_range_meters":0,"station_id":"","pricing_plan_id":"cebpf4jnsgd1na2vs0mg"},{"bike_id":"1537ff86-4c07-4043-a319-565b4fb3369d","system_id":"levelo_inurba_marseille","lat":43.28597,"lon":5.38114,"is_reserved":false,"is_disabled":false,"rental_uris":{"android":"levelo://app?vid=1537ff86-4c07-4043-a319-565b4fb3369d","ios":"levelo://app?vid=1537ff86-4c07-4043-a319-565b4fb3369d"},"vehicle_type_id":"4","last_reported":1779318234,"current_range_meters":2800,"station_id":"","pricing_plan_id":"cebpf4jnsgd1na2vs0mg"},{"bike_id":"f974da8c-b4df-461d-9d70-cc4e31306028","system_id":"levelo_inurba_marseille","lat":43.2789,"lon":5.38005,"is_reserved":false,"is_disabled":false,"rental_uris":{"android":"levelo://app?vid=f974da8c-b4df-461d-9d70-cc4e31306028","ios":"levelo://app?vid=f974da8c-b4df-461d-9d70-cc4e31306028"},"vehicle_type_id":"4","last_reported":1779318234,"current_range_meters":2800,"station_id":"ce4bhf92rcd13ifvqf50","pricing_plan_id":"cebpf4jnsgd1na2vs0mg"},{"bike_id":"a8ea8d83-c9cd-4629-a246-ef8bdb83bc4d","system_id":"levelo_inurba_marseille","lat":43.31029,"lon":5.37532,"is_reserved":false,"is_disabled":false,"rental_uris":{"android":"levelo://app?vid=a8ea8d83-c9cd-4629-a246-ef8bdb83bc4d","ios":"levelo://app?vid=a8ea8d83-c9cd-4629-a246-ef8bdb83bc4d"},"vehicle_type_id":"4","last_reported":1779318234,"current_range_meters":2800,"station_id":"","pricing_plan_id":"cebpf4jnsgd1na2vs0mg"},{"bike_id":"beabf383-8221-474b-9527-f524d01c5f81","system_id":"levelo_inurba_marseille","lat":43.30113,"lon":5.40223,"is_reserved":false,"is_disabled":false,"rental_uris":{"android":"levelo://app?vid=beabf383-8221-474b-9527-f524d01c5f81","ios":"levelo://app?vid=beabf383-8221-474b-9527-f524d01c5f81"},"vehicle_type_id":"4","last_reported":1779318234,"current_range_meters":2800,"station_id":"","pricing_plan_id":"cebpf4jnsgd1na2vs0mg"},{"bike_id":"373480da-0b38-431c-bfd0-dc623ee268d1","system_id":"levelo_inurba_marseille","lat":43.24996,"lon":5.38925,"is_reserved":false,"is_disabled":false,"rental_uris":{"android":"levelo://app?vid=373480da-0b38-431c-bfd0-dc623ee268d1","ios":"levelo://app?vid=373480da-0b38-431c-bfd0-dc623ee268d1"},"vehicle_type_id":"4","last_reported":1779318234,"current_range_meters":2800,"station_id":"ce4bhgp2rcd13ifvqfd0","pricing_plan_id":"cebpf4jnsgd1na2vs0mg"},{"bike_id":"e30ef550-fded-4edb-bd5d-5491dc6fc3f8","system_id":"levelo_inurba_marseille","lat":43.24645,"lon":5.38182,"is_reserved":false,"is_disabled":false,"rental_uris":{"android":"levelo://app?vid=e30ef550-fded-4edb-bd5d-5491dc6fc3f8","ios":"levelo://app?vid=e30ef550-fded-4edb-bd5d-5491dc6fc3f8"},"vehicle_type_id":"4","last_reported":1779318234,"current_range_meters":2800,"station_id":"ce4bhih2rcd13ifvqfr0","pricing_plan_id":"cebpf4jnsgd1na2vs0mg"},{"bike_id":"25c2813c-2082-4aa6-a26d-f781f27c162a","system_id":"levelo_inurba_marseille","lat":43.27952,"lon":5.41035,"is_reserved":false,"is_disabled":false,"rental_uris":{"android":"levelo://app?vid=25c2813c-2082-4aa6-a26d-f781f27c162a","ios":"levelo://app?vid=25c2813c-2082-4aa6-a26d-f781f27c162a"},"vehicle_type_id":"4","last_reported":1779318234,"current_range_meters":2800,"station_id":"ce4bhnp2rcd13ifvqh0g","pricing_plan_id":"cebpf4jnsgd1na2vs0mg"},{"bike_id":"24fd1cb1-6d18-4010-8f75-2ad943d3ae18","system_id":"levelo_inurba_marseille","lat":43.24701,"lon":5.38148,"is_reserved":false,"is_disabled":true,"rental_uris":{"android":"levelo://app?vid=24fd1cb1-6d18-4010-8f75-2ad943d3ae18","ios":"levelo://app?vid=24fd1cb1-6d18-4010-8f75-2ad943d3ae18"},"vehicle_type_id":"4","last_reported":1779318234,"current_range_meters":2800,"station_id":"ce4bhih2rcd13ifvqfr0","pricing_plan_id":"cebpf4jnsgd1na2vs0mg"},{"bike_id":"49a5b004-fa45-453e-8c1a-79206fd70c60","system_id":"levelo_inurba_marseille","lat":43.30139,"lon":5.38776,"is_reserved":false,"is_disabled":false,"rental_uris":{"android":"levelo://app?vid=49a5b004-fa45-453e-8c1a-79206fd70c60","ios":"levelo://app?vid=49a5b004-fa45-453e-8c1a-79206fd70c60"},"vehicle_type_id":"4","last_reported":1779318234,"current_range_meters":3200,"station_id":"ce4bghh2rcd13ifvqb60","pricing_plan_id":"cebpf4jnsgd1na2vs0mg"},{"bike_id":"06c65f35-fa7e-4c4a-888e-ba7ea5f9b295","system_id":"levelo_inurba_marseille","lat":43.31705,"lon":5.40449,"is_reserved":false,"is_disabled":false,"rental_uris":{"android":"levelo://app?vid=06c65f35-fa7e-4c4a-888e-ba7ea5f9b295","ios":"levelo://app?vid=06c65f35-fa7e-4c4a-888e-ba7ea5f9b295"},"vehicle_type_id":"4","last_reported":1779318234,"current_range_meters":3200,"station_id":"ce4bh012rcd13ifvqd00","pricing_plan_id":"cebpf4jnsgd1na2vs0mg"},{"bike_id":"72f56fa8-e526-4ef5-b975-0672b110b057","system_id":"levelo_inurba_marseille","lat":43.32495,"lon":5.37449,"is_reserved":false,"is_disabled":false,"rental_uris":{"android":"levelo://app?vid=72f56fa8-e526-4ef5-b975-0672b110b057","ios":"levelo://app?vid=72f56fa8-e526-4ef5-b975-0672b110b057"},"vehicle_type_id":"4","last_reported":1779318234,"current_range_meters":3200,"station_id":"","pricing_plan_id":"cebpf4jnsgd1na2vs0mg"},{"bike_id":"ca1ca8ff-ba2f-4d5a-ab89-6a5ca6f2926b","system_id":"levelo_inurba_marseille","lat":43.29881,"lon":5.39748,"is_reserved":false,"is_disabled":false,"rental_uris":{"android":"levelo://app?vid=ca1ca8ff-ba2f-4d5a-ab89-6a5ca6f2926b","ios":"levelo://app?vid=ca1ca8ff-ba2f-4d5a-ab89-6a5ca6f2926b"},"vehicle_type_id":"4","last_reported":1779318234,"current_range_meters":3200,"station_id":"ce4bh0h2rcd13ifvqd50","pricing_plan_id":"cebpf4jnsgd1na2vs0mg"},{"bike_id":"80e0d217-3a82-4aff-ac69-3e348717c879","system_id":"levelo_inurba_marseille","lat":43.28112,"lon":5.37817,"is_reserved":false,"is_disabled":false,"rental_uris":{"android":"levelo://app?vid=80e0d217-3a82-4aff-ac69-3e348717c879","ios":"levelo://app?vid=80e0d217-3a82-4aff-ac69-3e348717c879"},"vehicle_type_id":"4","last_reported":1779318234,"current_range_meters":3200,"station_id":"ce4bha12rcd13ifvqee0","pricing_plan_id":"cebpf4jnsgd1na2vs0mg"},{"bike_id":"d09c36a6-9778-446b-b3a3-2ab82ba4c91a","system_id":"levelo_inurba_marseille","lat":43.24654,"lon":5.38156,"is_reserved":false,"is_disabled":false,"rental_uris":{"android":"levelo://app?vid=d09c36a6-9778-446b-b3a3-2ab82ba4c91a","ios":"levelo://app?vid=d09c36a6-9778-446b-b3a3-2ab82ba4c91a"},"vehicle_type_id":"4","last_reported":1779318234,"current_range_meters":3200,"station_id":"ce4bhih2rcd13ifvqfr0","pricing_plan_id":"cebpf4jnsgd1na2vs0mg"},{"bike_id":"6910e06f-f20d-432d-bfe5-cf38102a60fc","system_id":"levelo_inurba_marseille","lat":43.30137,"lon":5.40023,"is_reserved":false,"is_disabled":false,"rental_uris":{"android":"levelo://app?vid=6910e06f-f20d-432d-bfe5-cf38102a60fc","ios":"levelo://app?vid=6910e06f-f20d-432d-bfe5-cf38102a60fc"},"vehicle_type_id":"4","last_reported":1779318234,"current_range_meters":3200,"station_id":"","pricing_plan_id":"cebpf4jnsgd1na2vs0mg"},{"bike_id":"1d8a0de7-dee9-4c46-b0dc-9cb1beff9b47","system_id":"levelo_inurba_marseille","lat":43.28423,"lon":5.34984,"is_reserved":false,"is_disabled":false,"rental_uris":{"android":"levelo://app?vid=1d8a0de7-dee9-4c46-b0dc-9cb1beff9b47","ios":"levelo://app?vid=1d8a0de7-dee9-4c46-b0dc-9cb1beff9b47"},"vehicle_type_id":"4","last_reported":1779318234,"current_range_meters":3600,"station_id":"ce4bhbh2rcd13ifvqepg","pricing_plan_id":"cebpf4jnsgd1na2vs0mg"},{"bike_id":"6fbbeee5-4103-4e2c-9a6b-f561619170ee","system_id":"levelo_inurba_marseille","lat":43.225316,"lon":5.348364,"is_reserved":false,"is_disabled":false,"rental_uris":{"android":"levelo://app?vid=6fbbeee5-4103-4e2c-9a6b-f561619170ee","ios":"levelo://app?vid=6fbbeee5-4103-4e2c-9a6b-f561619170ee"},"vehicle_type_id":"4","last_reported":1779318234,"current_range_meters":3600,"station_id":"st_cvj5dfep6f1abm77gieg","pricing_plan_id":"cebpf4jnsgd1na2vs0mg"},{"bike_id":"435ea0d5-ad7c-4bb7-95f7-132f6610f88b","system_id":"levelo_inurba_marseille","lat":43.28614,"lon":5.3511,"is_reserved":false,"is_disabled":false,"rental_uris":{"android":"levelo://app?vid=435ea0d5-ad7c-4bb7-95f7-132f6610f88b","ios":"levelo://app?vid=435ea0d5-ad7c-4bb7-95f7-132f6610f88b"},"vehicle_type_id":"4","last_reported":1779318234,"current_range_meters":3600,"station_id":"ce4bhch2rcd13ifvqeug","pricing_plan_id":"cebpf4jnsgd1na2vs0mg"},{"bike_id":"05e96898-a928-4a3a-918b-fe95a4e06ca8","system_id":"levelo_inurba_marseille","lat":43.273191,"lon":5.390724,"is_reserved":false,"is_disabled":true,"rental_uris":{"android":"levelo://app?vid=05e96898-a928-4a3a-918b-fe95a4e06ca8","ios":"levelo://app?vid=05e96898-a928-4a3a-918b-fe95a4e06ca8"},"vehicle_type_id":"4","last_reported":1779318234,"current_range_meters":3600,"station_id":"","pricing_plan_id":"cebpf4jnsgd1na2vs0mg"},{"bike_id":"78f4b450-e1bb-498c-8a0c-dccb73727583","system_id":"levelo_inurba_marseille","lat":43.28236,"lon":5.39074,"is_reserved":false,"is_disabled":false,"rental_uris":{"android":"levelo://app?vid=78f4b450-e1bb-498c-8a0c-dccb73727583","ios":"levelo://app?vid=78f4b450-e1bb-498c-8a0c-dccb73727583"},"vehicle_type_id":"4","last_reported":1779318234,"current_range_meters":3600,"station_id":"ce4bhn92rcd13ifvqgsg","pricing_plan_id":"cebpf4jnsgd1na2vs0mg"},{"bike_id":"a14580bf-470b-4c59-928f-fd75ec05692e","system_id":"levelo_inurba_marseille","lat":43.29937,"lon":5.36532,"is_reserved":false,"is_disabled":false,"rental_uris":{"android":"levelo://app?vid=a14580bf-470b-4c59-928f-fd75ec05692e","ios":"levelo://app?vid=a14580bf-470b-4c59-928f-fd75ec05692e"},"vehicle_type_id":"4","last_reported":1779318234,"current_range_meters":3600,"station_id":"ce4bgm92rcd13ifvqbr0","pricing_plan_id":"cebpf4jnsgd1na2vs0mg"},{"bike_id":"668bb7ea-e890-4867-b444-969d9384fab7","system_id":"levelo_inurba_marseille","lat":43.25263,"lon":5.39424,"is_reserved":false,"is_disabled":false,"rental_uris":{"android":"levelo://app?vid=668bb7ea-e890-4867-b444-969d9384fab7","ios":"levelo://app?vid=668bb7ea-e890-4867-b444-969d9384fab7"},"vehicle_type_id":"4","last_reported":1779318234,"current_range_meters":3600,"station_id":"","pricing_plan_id":"cebpf4jnsgd1na2vs0mg"},{"bike_id":"796ba7c6-9432-4d76-b142-47911ed8993a","system_id":"levelo_inurba_marseille","lat":43.31723,"lon":5.42394,"is_reserved":false,"is_disabled":false,"rental_uris":{"android":"levelo://app?vid=796ba7c6-9432-4d76-b142-47911ed8993a","ios":"levelo://app?vid=796ba7c6-9432-4d76-b142-47911ed8993a"},"vehicle_type_id":"4","last_reported":1779318234,"current_range_meters":3600,"station_id":"ce4bhp92rcd13ifvqhbg","pricing_plan_id":"cebpf4jnsgd1na2vs0mg"},{"bike_id":"1c9797d8-8264-4791-a52f-e89d3f16cc0d","system_id":"levelo_inurba_marseille","lat":43.29581,"lon":5.36749,"is_reserved":false,"is_disabled":false,"rental_uris":{"android":"levelo://app?vid=1c9797d8-8264-4791-a52f-e89d3f16cc0d","ios":"levelo://app?vid=1c9797d8-8264-4791-a52f-e89d3f16cc0d"},"vehicle_type_id":"4","last_reported":1779318234,"current_range_meters":3600,"station_id":"ce4bgph2rcd13ifvqc2g","pricing_plan_id":"cebpf4jnsgd1na2vs0mg"},{"bike_id":"ab5bcc8b-3b72-47f8-b29e-c0fcb017ca4a","system_id":"levelo_inurba_marseille","lat":43.30638,"lon":5.4006,"is_reserved":false,"is_disabled":false,"rental_uris":{"android":"levelo://app?vid=ab5bcc8b-3b72-47f8-b29e-c0fcb017ca4a","ios":"levelo://app?vid=ab5bcc8b-3b72-47f8-b29e-c0fcb017ca4a"},"vehicle_type_id":"4","last_reported":1779318234,"current_range_meters":3600,"station_id":"ce4bh112rcd13ifvqda0","pricing_plan_id":"cebpf4jnsgd1na2vs0mg"},{"bike_id":"0be98877-0b3d-44cc-8b14-d27b00e21c61","system_id":"levelo_inurba_marseille","lat":43.30339,"lon":5.41893,"is_reserved":false,"is_disabled":false,"rental_uris":{"android":"levelo://app?vid=0be98877-0b3d-44cc-8b14-d27b00e21c61","ios":"levelo://app?vid=0be98877-0b3d-44cc-8b14-d27b00e21c61"},"vehicle_type_id":"4","last_reported":1779318234,"current_range_meters":3600,"station_id":"","pricing_plan_id":"cebpf4jnsgd1na2vs0mg"},{"bike_id":"de745e5d-4b98-4d49-9bd0-f17d616f75e3","system_id":"levelo_inurba_marseille","lat":43.3071,"lon":5.40678,"is_reserved":false,"is_disabled":false,"rental_uris":{"android":"levelo://app?vid=de745e5d-4b98-4d49-9bd0-f17d616f75e3","ios":"levelo://app?vid=de745e5d-4b98-4d49-9bd0-f17d616f75e3"},"vehicle_type_id":"4","last_reported":1779318234,"current_range_meters":4000,"station_id":"","pricing_plan_id":"cebpf4jnsgd1na2vs0mg"},{"bike_id":"7c7fb249-fc8e-4d79-a1ce-dd5b0f183060","system_id":"levelo_inurba_marseille","lat":43.29782,"lon":5.44085,"is_reserved":false,"is_disabled":false,"rental_uris":{"android":"levelo://app?vid=7c7fb249-fc8e-4d79-a1ce-dd5b0f183060","ios":"levelo://app?vid=7c7fb249-fc8e-4d79-a1ce-dd5b0f183060"},"vehicle_type_id":"4","last_reported":1779318234,"current_range_meters":4000,"station_id":"st_d3jp68qikq2c7381ktn0","pricing_plan_id":"cebpf4jnsgd1na2vs0mg"},{"bike_id":"11478a6d-054f-463c-83ef-2f58f5c99442","system_id":"levelo_inurba_marseille","lat":43.30871,"lon":5.3718,"is_reserved":false,"is_disabled":false,"rental_uris":{"android":"levelo://app?vid=11478a6d-054f-463c-83ef-2f58f5c99442","ios":"levelo://app?vid=11478a6d-054f-463c-83ef-2f58f5c99442"},"vehicle_type_id":"4","last_reported":1779318234,"current_range_meters":4000,"station_id":"ce4bguh2rcd13ifvqckg","pricing_plan_id":"cebpf4jnsgd1na2vs0mg"},{"bike_id":"47e75fc7-5e0f-4fd7-831f-8486114b27f3","system_id":"levelo_inurba_marseille","lat":43.28707,"lon":5.3739,"is_reserved":false,"is_disabled":true,"rental_uris":{"android":"levelo://app?vid=47e75fc7-5e0f-4fd7-831f-8486114b27f3","ios":"levelo://app?vid=47e75fc7-5e0f-4fd7-831f-8486114b27f3"},"vehicle_type_id":"4","last_reported":1779318234,"current_range_meters":4000,"station_id":"ce4bh3p2rcd13ifvqdq0","pricing_plan_id":"cebpf4jnsgd1na2vs0mg"},{"bike_id":"a4d844d8-4ee8-43cc-ad97-024b5a9cc11a","system_id":"levelo_inurba_marseille","lat":43.30937,"lon":5.40141,"is_reserved":false,"is_disabled":false,"rental_uris":{"android":"levelo://app?vid=a4d844d8-4ee8-43cc-ad97-024b5a9cc11a","ios":"levelo://app?vid=a4d844d8-4ee8-43cc-ad97-024b5a9cc11a"},"vehicle_type_id":"4","last_reported":1779318234,"current_range_meters":4000,"station_id":"ce4bgvp2rcd13ifvqct0","pricing_plan_id":"cebpf4jnsgd1na2vs0mg"},{"bike_id":"94133b29-971d-48eb-9475-ae0b64fbd116","system_id":"levelo_inurba_marseille","lat":43.28197,"lon":5.38169,"is_reserved":false,"is_disabled":false,"rental_uris":{"android":"levelo://app?vid=94133b29-971d-48eb-9475-ae0b64fbd116","ios":"levelo://app?vid=94133b29-971d-48eb-9475-ae0b64fbd116"},"vehicle_type_id":"4","last_reported":1779318234,"current_range_meters":4000,"station_id":"","pricing_plan_id":"cebpf4jnsgd1na2vs0mg"},{"bike_id":"88691929-87ed-4504-9c04-a8fdc570a438","system_id":"levelo_inurba_marseille","lat":43.30933,"lon":5.36834,"is_reserved":false,"is_disabled":false,"rental_uris":{"android":"levelo://app?vid=88691929-87ed-4504-9c04-a8fdc570a438","ios":"levelo://app?vid=88691929-87ed-4504-9c04-a8fdc570a438"},"vehicle_type_id":"4","last_reported":1779318234,"current_range_meters":4000,"station_id":"ce4bgn92rcd13ifvqbvg","pricing_plan_id":"cebpf4jnsgd1na2vs0mg"},{"bike_id":"2bf74d5d-fa63-42ae-b32e-db63a3d0dfe5","system_id":"levelo_inurba_marseille","lat":43.25572,"lon":5.38242,"is_reserved":false,"is_disabled":false,"rental_uris":{"android":"levelo://app?vid=2bf74d5d-fa63-42ae-b32e-db63a3d0dfe5","ios":"levelo://app?vid=2bf74d5d-fa63-42ae-b32e-db63a3d0dfe5"},"vehicle_type_id":"4","last_reported":1779318234,"current_range_meters":4000,"station_id":"ce4bhih2rcd13ifvqfs0","pricing_plan_id":"cebpf4jnsgd1na2vs0mg"},{"bike_id":"b905ca94-3071-4f16-9ce5-d80026149c93","system_id":"levelo_inurba_marseille","lat":43.31703,"lon":5.43689,"is_reserved":false,"is_disabled":false,"rental_uris":{"android":"levelo://app?vid=b905ca94-3071-4f16-9ce5-d80026149c93","ios":"levelo://app?vid=b905ca94-3071-4f16-9ce5-d80026149c93"},"vehicle_type_id":"4","last_reported":1779318234,"current_range_meters":4000,"station_id":"ce4bhp92rcd13ifvqhcg","pricing_plan_id":"cebpf4jnsgd1na2vs0mg"},{"bike_id":"fbb9cd9a-eeff-47a7-a071-bf140227c01e","system_id":"levelo_inurba_marseille","lat":43.29534,"lon":5.42288,"is_reserved":false,"is_disabled":false,"rental_uris":{"android":"levelo://app?vid=fbb9cd9a-eeff-47a7-a071-bf140227c01e","ios":"levelo://app?vid=fbb9cd9a-eeff-47a7-a071-bf140227c01e"},"vehicle_type_id":"4","last_reported":1779318234,"current_range_meters":4000,"station_id":"ce4bhph2rcd13ifvqhdg","pricing_plan_id":"cebpf4jnsgd1na2vs0mg"},{"bike_id":"ff26a0ce-1300-4a14-824b-0d8ecc854269","system_id":"levelo_inurba_marseille","lat":43.24489,"lon":5.42558,"is_reserved":false,"is_disabled":false,"rental_uris":{"android":"levelo://app?vid=ff26a0ce-1300-4a14-824b-0d8ecc854269","ios":"levelo://app?vid=ff26a0ce-1300-4a14-824b-0d8ecc854269"},"vehicle_type_id":"4","last_reported":1779318234,"current_range_meters":4000,"station_id":"st_d4a3vfp97mjs738cd8kg","pricing_plan_id":"cebpf4jnsgd1na2vs0mg"},{"bike_id":"46be8dd3-948b-467e-ad94-fd338307b9c7","system_id":"levelo_inurba_marseille","lat":43.2999,"lon":5.36738,"is_reserved":false,"is_disabled":false,"rental_uris":{"android":"levelo://app?vid=46be8dd3-948b-467e-ad94-fd338307b9c7","ios":"levelo://app?vid=46be8dd3-948b-467e-ad94-fd338307b9c7"},"vehicle_type_id":"4","last_reported":1779318234,"current_range_meters":4000,"station_id":"","pricing_plan_id":"cebpf4jnsgd1na2vs0mg"},{"bike_id":"634d42e8-0546-4078-b7c3-780d352dd253","system_id":"levelo_inurba_marseille","lat":43.3015,"lon":5.38081,"is_reserved":false,"is_disabled":false,"rental_uris":{"android":"levelo://app?vid=634d42e8-0546-4078-b7c3-780d352dd253","ios":"levelo://app?vid=634d42e8-0546-4078-b7c3-780d352dd253"},"vehicle_type_id":"4","last_reported":1779318234,"current_range_meters":4000,"station_id":"ce4bgjp2rcd13ifvqbh0","pricing_plan_id":"cebpf4jnsgd1na2vs0mg"},{"bike_id":"9bbf8bad-9024-483e-8743-8079437f3821","system_id":"levelo_inurba_marseille","lat":43.29053,"lon":5.39945,"is_reserved":false,"is_disabled":false,"rental_uris":{"android":"levelo://app?vid=9bbf8bad-9024-483e-8743-8079437f3821","ios":"levelo://app?vid=9bbf8bad-9024-483e-8743-8079437f3821"},"vehicle_type_id":"4","last_reported":1779318234,"current_range_meters":4000,"station_id":"ce4bh392rcd13ifvqdm0","pricing_plan_id":"cebpf4jnsgd1na2vs0mg"},{"bike_id":"65dfb13f-4570-4435-9163-5a7dd58b9c97","system_id":"levelo_inurba_marseille","lat":43.22508,"lon":5.34859,"is_reserved":false,"is_disabled":false,"rental_uris":{"android":"levelo://app?vid=65dfb13f-4570-4435-9163-5a7dd58b9c97","ios":"levelo://app?vid=65dfb13f-4570-4435-9163-5a7dd58b9c97"},"vehicle_type_id":"4","last_reported":1779318234,"current_range_meters":4000,"station_id":"st_cvj5dfep6f1abm77gieg","pricing_plan_id":"cebpf4jnsgd1na2vs0mg"},{"bike_id":"baac11a4-a518-4fbd-942c-9850095d6e14","system_id":"levelo_inurba_marseille","lat":43.30651,"lon":5.40065,"is_reserved":false,"is_disabled":false,"rental_uris":{"android":"levelo://app?vid=baac11a4-a518-4fbd-942c-9850095d6e14","ios":"levelo://app?vid=baac11a4-a518-4fbd-942c-9850095d6e14"},"vehicle_type_id":"4","last_reported":1779318234,"current_range_meters":4000,"station_id":"ce4bh112rcd13ifvqda0","pricing_plan_id":"cebpf4jnsgd1na2vs0mg"},{"bike_id":"9941467d-088a-4cca-8f63-efa4a0d06d4f","system_id":"levelo_inurba_marseille","lat":43.21752,"lon":5.34581,"is_reserved":false,"is_disabled":false,"rental_uris":{"android":"levelo://app?vid=9941467d-088a-4cca-8f63-efa4a0d06d4f","ios":"levelo://app?vid=9941467d-088a-4cca-8f63-efa4a0d06d4f"},"vehicle_type_id":"4","last_reported":1779318234,"current_range_meters":4000,"station_id":"st_cvj6r9ubvosntc0bgbag","pricing_plan_id":"cebpf4jnsgd1na2vs0mg"},{"bike_id":"6173dc13-863b-4ec7-bfb9-85b83d9a8813","system_id":"levelo_inurba_marseille","lat":43.2289,"lon":5.35421,"is_reserved":false,"is_disabled":false,"rental_uris":{"android":"levelo://app?vid=6173dc13-863b-4ec7-bfb9-85b83d9a8813","ios":"levelo://app?vid=6173dc13-863b-4ec7-bfb9-85b83d9a8813"},"vehicle_type_id":"4","last_reported":1779318234,"current_range_meters":4000,"station_id":"cpo3532slgdg3j2ikp40","pricing_plan_id":"cebpf4jnsgd1na2vs0mg"},{"bike_id":"b240bfe0-1e21-463f-b8ba-29278f3af6a0","system_id":"levelo_inurba_marseille","lat":43.31123,"lon":5.37772,"is_reserved":false,"is_disabled":false,"rental_uris":{"android":"levelo://app?vid=b240bfe0-1e21-463f-b8ba-29278f3af6a0","ios":"levelo://app?vid=b240bfe0-1e21-463f-b8ba-29278f3af6a0"},"vehicle_type_id":"4","last_reported":1779318234,"current_range_meters":4400,"station_id":"ce4bgt92rcd13ifvqcg0","pricing_plan_id":"cebpf4jnsgd1na2vs0mg"},{"bike_id":"491fbb4d-ccf3-472a-977a-f51e4432ccec","system_id":"levelo_inurba_marseille","lat":43.22923,"lon":5.35377,"is_reserved":false,"is_disabled":false,"rental_uris":{"android":"levelo://app?vid=491fbb4d-ccf3-472a-977a-f51e4432ccec","ios":"levelo://app?vid=491fbb4d-ccf3-472a-977a-f51e4432ccec"},"vehicle_type_id":"4","last_reported":1779318234,"current_range_meters":4400,"station_id":"cpo3532slgdg3j2ikp40","pricing_plan_id":"cebpf4jnsgd1na2vs0mg"},{"bike_id":"4341a76c-de83-439a-8ce3-4ff3f63ae155","system_id":"levelo_inurba_marseille","lat":43.28954,"lon":5.36587,"is_reserved":false,"is_disabled":false,"rental_uris":{"android":"levelo://app?vid=4341a76c-de83-439a-8ce3-4ff3f63ae155","ios":"levelo://app?vid=4341a76c-de83-439a-8ce3-4ff3f63ae155"},"vehicle_type_id":"4","last_reported":1779318234,"current_range_meters":4400,"station_id":"","pricing_plan_id":"cebpf4jnsgd1na2vs0mg"},{"bike_id":"6263790c-fe72-4740-85fb-61722d37adcc","system_id":"levelo_inurba_marseille","lat":43.28408,"lon":5.37522,"is_reserved":false,"is_disabled":false,"rental_uris":{"android":"levelo://app?vid=6263790c-fe72-4740-85fb-61722d37adcc","ios":"levelo://app?vid=6263790c-fe72-4740-85fb-61722d37adcc"},"vehicle_type_id":"4","last_reported":1779318234,"current_range_meters":4400,"station_id":"ce4bh412rcd13ifvqds0","pricing_plan_id":"cebpf4jnsgd1na2vs0mg"},{"bike_id":"3f42a6d9-721c-4045-81f8-56e377ee5c6e","system_id":"levelo_inurba_marseille","lat":43.26488,"lon":5.39537,"is_reserved":false,"is_disabled":true,"rental_uris":{"android":"levelo://app?vid=3f42a6d9-721c-4045-81f8-56e377ee5c6e","ios":"levelo://app?vid=3f42a6d9-721c-4045-81f8-56e377ee5c6e"},"vehicle_type_id":"4","last_reported":1779318234,"current_range_meters":4400,"station_id":"ce4bhi12rcd13ifvqfq0","pricing_plan_id":"cebpf4jnsgd1na2vs0mg"},{"bike_id":"78ee063a-5f1e-4634-b782-fad7e6ea49bb","system_id":"levelo_inurba_marseille","lat":43.28274,"lon":5.3507,"is_reserved":false,"is_disabled":true,"rental_uris":{"android":"levelo://app?vid=78ee063a-5f1e-4634-b782-fad7e6ea49bb","ios":"levelo://app?vid=78ee063a-5f1e-4634-b782-fad7e6ea49bb"},"vehicle_type_id":"4","last_reported":1779318234,"current_range_meters":4400,"station_id":"ce4bhbp2rcd13ifvqerg","pricing_plan_id":"cebpf4jnsgd1na2vs0mg"},{"bike_id":"13906fa3-7ad6-4abd-ab59-6fb3d01221a9","system_id":"levelo_inurba_marseille","lat":43.261932,"lon":5.374473,"is_reserved":false,"is_disabled":true,"rental_uris":{"android":"levelo://app?vid=13906fa3-7ad6-4abd-ab59-6fb3d01221a9","ios":"levelo://app?vid=13906fa3-7ad6-4abd-ab59-6fb3d01221a9"},"vehicle_type_id":"4","last_reported":1779318234,"current_range_meters":4400,"station_id":"ce4bhgp2rcd13ifvqfc0","pricing_plan_id":"cebpf4jnsgd1na2vs0mg"},{"bike_id":"b6dbcf2f-816d-438e-b35d-15b5289844e5","system_id":"levelo_inurba_marseille","lat":43.28409,"lon":5.37517,"is_reserved":false,"is_disabled":false,"rental_uris":{"android":"levelo://app?vid=b6dbcf2f-816d-438e-b35d-15b5289844e5","ios":"levelo://app?vid=b6dbcf2f-816d-438e-b35d-15b5289844e5"},"vehicle_type_id":"4","last_reported":1779318234,"current_range_meters":4400,"station_id":"ce4bh412rcd13ifvqds0","pricing_plan_id":"cebpf4jnsgd1na2vs0mg"},{"bike_id":"8f86defa-86b3-4703-86fc-36b92d95cb21","system_id":"levelo_inurba_marseille","lat":43.29796,"lon":5.39332,"is_reserved":false,"is_disabled":false,"rental_uris":{"android":"levelo://app?vid=8f86defa-86b3-4703-86fc-36b92d95cb21","ios":"levelo://app?vid=8f86defa-86b3-4703-86fc-36b92d95cb21"},"vehicle_type_id":"4","last_reported":1779318234,"current_range_meters":4400,"station_id":"chh1huq6cuj3fo74tm60","pricing_plan_id":"cebpf4jnsgd1na2vs0mg"},{"bike_id":"f734503f-77ab-4463-b3c5-d9228f405ada","system_id":"levelo_inurba_marseille","lat":43.27906,"lon":5.38016,"is_reserved":false,"is_disabled":false,"rental_uris":{"android":"levelo://app?vid=f734503f-77ab-4463-b3c5-d9228f405ada","ios":"levelo://app?vid=f734503f-77ab-4463-b3c5-d9228f405ada"},"vehicle_type_id":"4","last_reported":1779318234,"current_range_meters":4400,"station_id":"ce4bhf92rcd13ifvqf50","pricing_plan_id":"cebpf4jnsgd1na2vs0mg"},{"bike_id":"187681c3-3525-4629-a40f-e8b860c875cc","system_id":"levelo_inurba_marseille","lat":43.29566,"lon":5.39977,"is_reserved":false,"is_disabled":false,"rental_uris":{"android":"levelo://app?vid=187681c3-3525-4629-a40f-e8b860c875cc","ios":"levelo://app?vid=187681c3-3525-4629-a40f-e8b860c875cc"},"vehicle_type_id":"4","last_reported":1779318234,"current_range_meters":4400,"station_id":"ce4bh312rcd13ifvqdj0","pricing_plan_id":"cebpf4jnsgd1na2vs0mg"},{"bike_id":"0cf16f46-4f02-4324-9cbb-24e98a9a6627","system_id":"levelo_inurba_marseille","lat":43.30301,"lon":5.39215,"is_reserved":false,"is_disabled":false,"rental_uris":{"android":"levelo://app?vid=0cf16f46-4f02-4324-9cbb-24e98a9a6627","ios":"levelo://app?vid=0cf16f46-4f02-4324-9cbb-24e98a9a6627"},"vehicle_type_id":"4","last_reported":1779318234,"current_range_meters":4400,"station_id":"ce4bgkh2rcd13ifvqbk0","pricing_plan_id":"cebpf4jnsgd1na2vs0mg"},{"bike_id":"291bce7d-95a9-4f5c-a2d8-de5b55889c52","system_id":"levelo_inurba_marseille","lat":43.30974,"lon":5.36819,"is_reserved":false,"is_disabled":false,"rental_uris":{"android":"levelo://app?vid=291bce7d-95a9-4f5c-a2d8-de5b55889c52","ios":"levelo://app?vid=291bce7d-95a9-4f5c-a2d8-de5b55889c52"},"vehicle_type_id":"4","last_reported":1779318234,"current_range_meters":4400,"station_id":"","pricing_plan_id":"cebpf4jnsgd1na2vs0mg"},{"bike_id":"8254c16b-2709-467c-9f0c-f5d3dae1f566","system_id":"levelo_inurba_marseille","lat":43.31737,"lon":5.40167,"is_reserved":false,"is_disabled":false,"rental_uris":{"android":"levelo://app?vid=8254c16b-2709-467c-9f0c-f5d3dae1f566","ios":"levelo://app?vid=8254c16b-2709-467c-9f0c-f5d3dae1f566"},"vehicle_type_id":"4","last_reported":1779318234,"current_range_meters":4400,"station_id":"ce4bh012rcd13ifvqd00","pricing_plan_id":"cebpf4jnsgd1na2vs0mg"},{"bike_id":"00f8a525-f6c8-455f-bfa6-20d66cfcf0b5","system_id":"levelo_inurba_marseille","lat":43.24988,"lon":5.39612,"is_reserved":false,"is_disabled":false,"rental_uris":{"android":"levelo://app?vid=00f8a525-f6c8-455f-bfa6-20d66cfcf0b5","ios":"levelo://app?vid=00f8a525-f6c8-455f-bfa6-20d66cfcf0b5"},"vehicle_type_id":"4","last_reported":1779318234,"current_range_meters":4400,"station_id":"","pricing_plan_id":"cebpf4jnsgd1na2vs0mg"},{"bike_id":"65eb9ff9-15c9-4a56-bd3a-d3588f69bdf0","system_id":"levelo_inurba_marseille","lat":43.31875,"lon":5.40849,"is_reserved":false,"is_disabled":false,"rental_uris":{"android":"levelo://app?vid=65eb9ff9-15c9-4a56-bd3a-d3588f69bdf0","ios":"levelo://app?vid=65eb9ff9-15c9-4a56-bd3a-d3588f69bdf0"},"vehicle_type_id":"4","last_reported":1779318234,"current_range_meters":4400,"station_id":"","pricing_plan_id":"cebpf4jnsgd1na2vs0mg"},{"bike_id":"4d9ee6d9-5b9f-446e-ba40-dccb3a9755fd","system_id":"levelo_inurba_marseille","lat":43.24799,"lon":5.37466,"is_reserved":false,"is_disabled":true,"rental_uris":{"android":"levelo://app?vid=4d9ee6d9-5b9f-446e-ba40-dccb3a9755fd","ios":"levelo://app?vid=4d9ee6d9-5b9f-446e-ba40-dccb3a9755fd"},"vehicle_type_id":"4","last_reported":1779318234,"current_range_meters":4400,"station_id":"ce4bhgh2rcd13ifvqfb0","pricing_plan_id":"cebpf4jnsgd1na2vs0mg"},{"bike_id":"830fbec4-0a75-4e1e-a4d5-ab2e34d5b368","system_id":"levelo_inurba_marseille","lat":43.31316,"lon":5.36921,"is_reserved":false,"is_disabled":false,"rental_uris":{"android":"levelo://app?vid=830fbec4-0a75-4e1e-a4d5-ab2e34d5b368","ios":"levelo://app?vid=830fbec4-0a75-4e1e-a4d5-ab2e34d5b368"},"vehicle_type_id":"4","last_reported":1779318234,"current_range_meters":4400,"station_id":"","pricing_plan_id":"cebpf4jnsgd1na2vs0mg"},{"bike_id":"bb169257-6faa-4179-b25d-e318bfd38ef6","system_id":"levelo_inurba_marseille","lat":43.3189,"lon":5.4073,"is_reserved":false,"is_disabled":false,"rental_uris":{"android":"levelo://app?vid=bb169257-6faa-4179-b25d-e318bfd38ef6","ios":"levelo://app?vid=bb169257-6faa-4179-b25d-e318bfd38ef6"},"vehicle_type_id":"4","last_reported":1779318234,"current_range_meters":4800,"station_id":"ce4bhq12rcd13ifvqhig","pricing_plan_id":"cebpf4jnsgd1na2vs0mg"},{"bike_id":"58b49956-f9ec-48e1-96e8-4a4d6650c806","system_id":"levelo_inurba_marseille","lat":43.28441,"lon":5.39175,"is_reserved":false,"is_disabled":false,"rental_uris":{"android":"levelo://app?vid=58b49956-f9ec-48e1-96e8-4a4d6650c806","ios":"levelo://app?vid=58b49956-f9ec-48e1-96e8-4a4d6650c806"},"vehicle_type_id":"4","last_reported":1779318234,"current_range_meters":4800,"station_id":"ce4bhoh2rcd13ifvqh5g","pricing_plan_id":"cebpf4jnsgd1na2vs0mg"},{"bike_id":"2bcd18e4-f6d1-498a-8b99-e89505a1d723","system_id":"levelo_inurba_marseille","lat":43.29307,"lon":5.37473,"is_reserved":false,"is_disabled":false,"rental_uris":{"android":"levelo://app?vid=2bcd18e4-f6d1-498a-8b99-e89505a1d723","ios":"levelo://app?vid=2bcd18e4-f6d1-498a-8b99-e89505a1d723"},"vehicle_type_id":"4","last_reported":1779318234,"current_range_meters":4800,"station_id":"ce4bgi12rcd13ifvqb70","pricing_plan_id":"cebpf4jnsgd1na2vs0mg"},{"bike_id":"6160ae8e-a0ef-40fb-a824-ac8b6555538f","system_id":"levelo_inurba_marseille","lat":43.26643,"lon":5.38948,"is_reserved":false,"is_disabled":false,"rental_uris":{"android":"levelo://app?vid=6160ae8e-a0ef-40fb-a824-ac8b6555538f","ios":"levelo://app?vid=6160ae8e-a0ef-40fb-a824-ac8b6555538f"},"vehicle_type_id":"4","last_reported":1779318234,"current_range_meters":4800,"station_id":"","pricing_plan_id":"cebpf4jnsgd1na2vs0mg"},{"bike_id":"b8cb0ca9-b67d-49fe-825f-c0bcf70ec713","system_id":"levelo_inurba_marseille","lat":43.28606,"lon":5.39199,"is_reserved":false,"is_disabled":false,"rental_uris":{"android":"levelo://app?vid=b8cb0ca9-b67d-49fe-825f-c0bcf70ec713","ios":"levelo://app?vid=b8cb0ca9-b67d-49fe-825f-c0bcf70ec713"},"vehicle_type_id":"4","last_reported":1779318234,"current_range_meters":4800,"station_id":"","pricing_plan_id":"cebpf4jnsgd1na2vs0mg"},{"bike_id":"71dbdd84-d1bc-485c-be24-1de65325ad39","system_id":"levelo_inurba_marseille","lat":43.30931,"lon":5.40148,"is_reserved":false,"is_disabled":false,"rental_uris":{"android":"levelo://app?vid=71dbdd84-d1bc-485c-be24-1de65325ad39","ios":"levelo://app?vid=71dbdd84-d1bc-485c-be24-1de65325ad39"},"vehicle_type_id":"4","last_reported":1779318234,"current_range_meters":4800,"station_id":"ce4bgvp2rcd13ifvqct0","pricing_plan_id":"cebpf4jnsgd1na2vs0mg"},{"bike_id":"5a938283-bd97-4afe-bccf-5238cbf0c1ba","system_id":"levelo_inurba_marseille","lat":43.30369,"lon":5.39875,"is_reserved":false,"is_disabled":false,"rental_uris":{"android":"levelo://app?vid=5a938283-bd97-4afe-bccf-5238cbf0c1ba","ios":"levelo://app?vid=5a938283-bd97-4afe-bccf-5238cbf0c1ba"},"vehicle_type_id":"4","last_reported":1779318234,"current_range_meters":4800,"station_id":"","pricing_plan_id":"cebpf4jnsgd1na2vs0mg"},{"bike_id":"446470c9-2e90-4a6d-80b2-9827b9fef087","system_id":"levelo_inurba_marseille","lat":43.28573,"lon":5.39496,"is_reserved":false,"is_disabled":false,"rental_uris":{"android":"levelo://app?vid=446470c9-2e90-4a6d-80b2-9827b9fef087","ios":"levelo://app?vid=446470c9-2e90-4a6d-80b2-9827b9fef087"},"vehicle_type_id":"4","last_reported":1779318234,"current_range_meters":4800,"station_id":"ce4bh292rcd13ifvqdg0","pricing_plan_id":"cebpf4jnsgd1na2vs0mg"},{"bike_id":"88b71783-5a76-45d7-95c1-e155059fa86a","system_id":"levelo_inurba_marseille","lat":43.28949,"lon":5.39633,"is_reserved":false,"is_disabled":false,"rental_uris":{"android":"levelo://app?vid=88b71783-5a76-45d7-95c1-e155059fa86a","ios":"levelo://app?vid=88b71783-5a76-45d7-95c1-e155059fa86a"},"vehicle_type_id":"4","last_reported":1779318234,"current_range_meters":5600,"station_id":"ce4bh3h2rcd13ifvqdn0","pricing_plan_id":"cebpf4jnsgd1na2vs0mg"},{"bike_id":"d3ff84ca-1a35-47b9-9971-176fd9813c99","system_id":"levelo_inurba_marseille","lat":43.28272,"lon":5.35069,"is_reserved":false,"is_disabled":true,"rental_uris":{"android":"levelo://app?vid=d3ff84ca-1a35-47b9-9971-176fd9813c99","ios":"levelo://app?vid=d3ff84ca-1a35-47b9-9971-176fd9813c99"},"vehicle_type_id":"4","last_reported":1779318234,"current_range_meters":5600,"station_id":"ce4bhbp2rcd13ifvqerg","pricing_plan_id":"cebpf4jnsgd1na2vs0mg"},{"bike_id":"3a50c5a4-deb8-4283-a331-71ea6e0504a8","system_id":"levelo_inurba_marseille","lat":43.2854,"lon":5.44091,"is_reserved":false,"is_disabled":false,"rental_uris":{"android":"levelo://app?vid=3a50c5a4-deb8-4283-a331-71ea6e0504a8","ios":"levelo://app?vid=3a50c5a4-deb8-4283-a331-71ea6e0504a8"},"vehicle_type_id":"4","last_reported":1779318234,"current_range_meters":5600,"station_id":"st_d3j3df2ikq2c7380ej80","pricing_plan_id":"cebpf4jnsgd1na2vs0mg"},{"bike_id":"8b30cf7c-e323-4937-a27c-040c9bca2b76","system_id":"levelo_inurba_marseille","lat":43.29556,"lon":5.38496,"is_reserved":false,"is_disabled":false,"rental_uris":{"android":"levelo://app?vid=8b30cf7c-e323-4937-a27c-040c9bca2b76","ios":"levelo://app?vid=8b30cf7c-e323-4937-a27c-040c9bca2b76"},"vehicle_type_id":"4","last_reported":1779318234,"current_range_meters":5600,"station_id":"","pricing_plan_id":"cebpf4jnsgd1na2vs0mg"},{"bike_id":"f6025abd-7600-48ca-a17a-986bf5349c82","system_id":"levelo_inurba_marseille","lat":43.25702,"lon":5.41125,"is_reserved":false,"is_disabled":false,"rental_uris":{"android":"levelo://app?vid=f6025abd-7600-48ca-a17a-986bf5349c82","ios":"levelo://app?vid=f6025abd-7600-48ca-a17a-986bf5349c82"},"vehicle_type_id":"4","last_reported":1779318234,"current_range_meters":5600,"station_id":"ce4bhkp2rcd13ifvqgd0","pricing_plan_id":"cebpf4jnsgd1na2vs0mg"},{"bike_id":"23639e87-9955-4450-b928-6d756e254232","system_id":"levelo_inurba_marseille","lat":43.299362,"lon":5.365605,"is_reserved":false,"is_disabled":false,"rental_uris":{"android":"levelo://app?vid=23639e87-9955-4450-b928-6d756e254232","ios":"levelo://app?vid=23639e87-9955-4450-b928-6d756e254232"},"vehicle_type_id":"4","last_reported":1779318234,"current_range_meters":5600,"station_id":"ce4bgm92rcd13ifvqbr0","pricing_plan_id":"cebpf4jnsgd1na2vs0mg"},{"bike_id":"ed0a2e31-3f52-4952-819a-710fa6677d96","system_id":"levelo_inurba_marseille","lat":43.28702,"lon":5.46688,"is_reserved":false,"is_disabled":false,"rental_uris":{"android":"levelo://app?vid=ed0a2e31-3f52-4952-819a-710fa6677d96","ios":"levelo://app?vid=ed0a2e31-3f52-4952-819a-710fa6677d96"},"vehicle_type_id":"4","last_reported":1779318234,"current_range_meters":5600,"station_id":"st_d6tc3vkotcvc738tfjhg","pricing_plan_id":"cebpf4jnsgd1na2vs0mg"},{"bike_id":"5b204f4b-b296-45d4-912e-16425feeb896","system_id":"levelo_inurba_marseille","lat":43.29802,"lon":5.40372,"is_reserved":false,"is_disabled":false,"rental_uris":{"android":"levelo://app?vid=5b204f4b-b296-45d4-912e-16425feeb896","ios":"levelo://app?vid=5b204f4b-b296-45d4-912e-16425feeb896"},"vehicle_type_id":"4","last_reported":1779318234,"current_range_meters":5600,"station_id":"ce4bh112rcd13ifvqd90","pricing_plan_id":"cebpf4jnsgd1na2vs0mg"},{"bike_id":"bc3fe07f-ae95-42d2-91f0-d34745765c9e","system_id":"levelo_inurba_marseille","lat":43.24438,"lon":5.42565,"is_reserved":false,"is_disabled":false,"rental_uris":{"android":"levelo://app?vid=bc3fe07f-ae95-42d2-91f0-d34745765c9e","ios":"levelo://app?vid=bc3fe07f-ae95-42d2-91f0-d34745765c9e"},"vehicle_type_id":"4","last_reported":1779318234,"current_range_meters":5600,"station_id":"st_d4a3vfp97mjs738cd8kg","pricing_plan_id":"cebpf4jnsgd1na2vs0mg"},{"bike_id":"9610b6c1-4de4-4635-adca-70fccdbaf631","system_id":"levelo_inurba_marseille","lat":43.29559,"lon":5.38533,"is_reserved":false,"is_disabled":true,"rental_uris":{"android":"levelo://app?vid=9610b6c1-4de4-4635-adca-70fccdbaf631","ios":"levelo://app?vid=9610b6c1-4de4-4635-adca-70fccdbaf631"},"vehicle_type_id":"4","last_reported":1779318234,"current_range_meters":5600,"station_id":"ce4bgih2rcd13ifvqba0","pricing_plan_id":"cebpf4jnsgd1na2vs0mg"},{"bike_id":"5a017e23-5549-4350-a411-15d42f13ec7e","system_id":"levelo_inurba_marseille","lat":43.31399,"lon":5.38506,"is_reserved":false,"is_disabled":false,"rental_uris":{"android":"levelo://app?vid=5a017e23-5549-4350-a411-15d42f13ec7e","ios":"levelo://app?vid=5a017e23-5549-4350-a411-15d42f13ec7e"},"vehicle_type_id":"4","last_reported":1779318234,"current_range_meters":5600,"station_id":"","pricing_plan_id":"cebpf4jnsgd1na2vs0mg"},{"bike_id":"ab3d0653-ceb0-447c-b6ee-1608aa7ac29d","system_id":"levelo_inurba_marseille","lat":43.29179,"lon":5.46009,"is_reserved":false,"is_disabled":false,"rental_uris":{"android":"levelo://app?vid=ab3d0653-ceb0-447c-b6ee-1608aa7ac29d","ios":"levelo://app?vid=ab3d0653-ceb0-447c-b6ee-1608aa7ac29d"},"vehicle_type_id":"4","last_reported":1779318234,"current_range_meters":5600,"station_id":"","pricing_plan_id":"cebpf4jnsgd1na2vs0mg"},{"bike_id":"d8983a03-7068-468d-afba-9184bd0a9ec7","system_id":"levelo_inurba_marseille","lat":43.29882,"lon":5.38893,"is_reserved":false,"is_disabled":false,"rental_uris":{"android":"levelo://app?vid=d8983a03-7068-468d-afba-9184bd0a9ec7","ios":"levelo://app?vid=d8983a03-7068-468d-afba-9184bd0a9ec7"},"vehicle_type_id":"4","last_reported":1779318234,"current_range_meters":5600,"station_id":"ce4bh392rcd13ifvqdl0","pricing_plan_id":"cebpf4jnsgd1na2vs0mg"},{"bike_id":"1945c429-a6b3-4afe-8b4e-c989148ef8b4","system_id":"levelo_inurba_marseille","lat":43.28614,"lon":5.37794,"is_reserved":false,"is_disabled":false,"rental_uris":{"android":"levelo://app?vid=1945c429-a6b3-4afe-8b4e-c989148ef8b4","ios":"levelo://app?vid=1945c429-a6b3-4afe-8b4e-c989148ef8b4"},"vehicle_type_id":"4","last_reported":1779318234,"current_range_meters":5600,"station_id":"","pricing_plan_id":"cebpf4jnsgd1na2vs0mg"},{"bike_id":"7f79f024-70ef-46fc-aaed-47c5192eeb69","system_id":"levelo_inurba_marseille","lat":43.28685,"lon":5.40002,"is_reserved":false,"is_disabled":false,"rental_uris":{"android":"levelo://app?vid=7f79f024-70ef-46fc-aaed-47c5192eeb69","ios":"levelo://app?vid=7f79f024-70ef-46fc-aaed-47c5192eeb69"},"vehicle_type_id":"4","last_reported":1779318234,"current_range_meters":6000,"station_id":"ce4bho92rcd13ifvqh3g","pricing_plan_id":"cebpf4jnsgd1na2vs0mg"},{"bike_id":"aad045da-fd57-45c6-a276-0fae1c562c27","system_id":"levelo_inurba_marseille","lat":43.30337,"lon":5.40431,"is_reserved":false,"is_disabled":false,"rental_uris":{"android":"levelo://app?vid=aad045da-fd57-45c6-a276-0fae1c562c27","ios":"levelo://app?vid=aad045da-fd57-45c6-a276-0fae1c562c27"},"vehicle_type_id":"4","last_reported":1779318234,"current_range_meters":6000,"station_id":"ce4bh012rcd13ifvqd10","pricing_plan_id":"cebpf4jnsgd1na2vs0mg"},{"bike_id":"b6a287e1-8cbd-41f7-ad22-13bfaf641c30","system_id":"levelo_inurba_marseille","lat":43.28938,"lon":5.39622,"is_reserved":false,"is_disabled":false,"rental_uris":{"android":"levelo://app?vid=b6a287e1-8cbd-41f7-ad22-13bfaf641c30","ios":"levelo://app?vid=b6a287e1-8cbd-41f7-ad22-13bfaf641c30"},"vehicle_type_id":"4","last_reported":1779318234,"current_range_meters":6000,"station_id":"ce4bh3h2rcd13ifvqdn0","pricing_plan_id":"cebpf4jnsgd1na2vs0mg"},{"bike_id":"c202bc15-6fd2-4b5b-b9f8-fe2a7981a9a0","system_id":"levelo_inurba_marseille","lat":43.23333,"lon":5.35899,"is_reserved":false,"is_disabled":false,"rental_uris":{"android":"levelo://app?vid=c202bc15-6fd2-4b5b-b9f8-fe2a7981a9a0","ios":"levelo://app?vid=c202bc15-6fd2-4b5b-b9f8-fe2a7981a9a0"},"vehicle_type_id":"4","last_reported":1779318234,"current_range_meters":6000,"station_id":"","pricing_plan_id":"cebpf4jnsgd1na2vs0mg"},{"bike_id":"63e853a5-551d-4d65-8a47-9c51160382e9","system_id":"levelo_inurba_marseille","lat":43.29572,"lon":5.39975,"is_reserved":false,"is_disabled":false,"rental_uris":{"android":"levelo://app?vid=63e853a5-551d-4d65-8a47-9c51160382e9","ios":"levelo://app?vid=63e853a5-551d-4d65-8a47-9c51160382e9"},"vehicle_type_id":"4","last_reported":1779318234,"current_range_meters":6000,"station_id":"ce4bh312rcd13ifvqdj0","pricing_plan_id":"cebpf4jnsgd1na2vs0mg"},{"bike_id":"47c9cb97-371d-4e9f-9c20-83aba40029f7","system_id":"levelo_inurba_marseille","lat":43.225321,"lon":5.348338,"is_reserved":false,"is_disabled":false,"rental_uris":{"android":"levelo://app?vid=47c9cb97-371d-4e9f-9c20-83aba40029f7","ios":"levelo://app?vid=47c9cb97-371d-4e9f-9c20-83aba40029f7"},"vehicle_type_id":"4","last_reported":1779318234,"current_range_meters":6000,"station_id":"st_cvj5dfep6f1abm77gieg","pricing_plan_id":"cebpf4jnsgd1na2vs0mg"},{"bike_id":"cc4d7ae3-c5f7-4b04-bb34-9909f7f7970d","system_id":"levelo_inurba_marseille","lat":43.29265,"lon":5.4092,"is_reserved":false,"is_disabled":true,"rental_uris":{"android":"levelo://app?vid=cc4d7ae3-c5f7-4b04-bb34-9909f7f7970d","ios":"levelo://app?vid=cc4d7ae3-c5f7-4b04-bb34-9909f7f7970d"},"vehicle_type_id":"4","last_reported":1779318234,"current_range_meters":6000,"station_id":"ce4bh192rcd13ifvqdc0","pricing_plan_id":"cebpf4jnsgd1na2vs0mg"},{"bike_id":"05896f52-d0c6-479f-9af9-0dc1e43de6bd","system_id":"levelo_inurba_marseille","lat":43.28705,"lon":5.39977,"is_reserved":false,"is_disabled":false,"rental_uris":{"android":"levelo://app?vid=05896f52-d0c6-479f-9af9-0dc1e43de6bd","ios":"levelo://app?vid=05896f52-d0c6-479f-9af9-0dc1e43de6bd"},"vehicle_type_id":"4","last_reported":1779318234,"current_range_meters":6000,"station_id":"ce4bho92rcd13ifvqh3g","pricing_plan_id":"cebpf4jnsgd1na2vs0mg"},{"bike_id":"da944e72-44c6-4bd2-9c1b-1671f752e12e","system_id":"levelo_inurba_marseille","lat":43.28428,"lon":5.34981,"is_reserved":false,"is_disabled":false,"rental_uris":{"android":"levelo://app?vid=da944e72-44c6-4bd2-9c1b-1671f752e12e","ios":"levelo://app?vid=da944e72-44c6-4bd2-9c1b-1671f752e12e"},"vehicle_type_id":"4","last_reported":1779318234,"current_range_meters":6000,"station_id":"ce4bhbh2rcd13ifvqepg","pricing_plan_id":"cebpf4jnsgd1na2vs0mg"},{"bike_id":"390ee940-4c83-4081-8edb-bcfbb6c43117","system_id":"levelo_inurba_marseille","lat":43.3108,"lon":5.42429,"is_reserved":false,"is_disabled":false,"rental_uris":{"android":"levelo://app?vid=390ee940-4c83-4081-8edb-bcfbb6c43117","ios":"levelo://app?vid=390ee940-4c83-4081-8edb-bcfbb6c43117"},"vehicle_type_id":"4","last_reported":1779318234,"current_range_meters":6000,"station_id":"ce4bhp92rcd13ifvqhag","pricing_plan_id":"cebpf4jnsgd1na2vs0mg"},{"bike_id":"ab1b80a7-8642-4232-b72a-fa5cdf2c1795","system_id":"levelo_inurba_marseille","lat":43.27049,"lon":5.38323,"is_reserved":false,"is_disabled":false,"rental_uris":{"android":"levelo://app?vid=ab1b80a7-8642-4232-b72a-fa5cdf2c1795","ios":"levelo://app?vid=ab1b80a7-8642-4232-b72a-fa5cdf2c1795"},"vehicle_type_id":"4","last_reported":1779318234,"current_range_meters":6000,"station_id":"st_d3n2fo6cfp8s73cte1j0","pricing_plan_id":"cebpf4jnsgd1na2vs0mg"},{"bike_id":"6c41c42b-7b5f-405e-859d-62132869e9bb","system_id":"levelo_inurba_marseille","lat":43.28461,"lon":5.35896,"is_reserved":false,"is_disabled":false,"rental_uris":{"android":"levelo://app?vid=6c41c42b-7b5f-405e-859d-62132869e9bb","ios":"levelo://app?vid=6c41c42b-7b5f-405e-859d-62132869e9bb"},"vehicle_type_id":"4","last_reported":1779318234,"current_range_meters":6000,"station_id":"ce4bhah2rcd13ifvqei0","pricing_plan_id":"cebpf4jnsgd1na2vs0mg"},{"bike_id":"58b6ccef-43a9-4667-81bf-f1c34e937d0b","system_id":"levelo_inurba_marseille","lat":43.27618,"lon":5.36112,"is_reserved":false,"is_disabled":false,"rental_uris":{"android":"levelo://app?vid=58b6ccef-43a9-4667-81bf-f1c34e937d0b","ios":"levelo://app?vid=58b6ccef-43a9-4667-81bf-f1c34e937d0b"},"vehicle_type_id":"4","last_reported":1779318234,"current_range_meters":6000,"station_id":"ce4bgj92rcd13ifvqbe0","pricing_plan_id":"cebpf4jnsgd1na2vs0mg"},{"bike_id":"c35d4196-671b-414f-ba54-6bcb597f3830","system_id":"levelo_inurba_marseille","lat":43.28917,"lon":5.3839,"is_reserved":false,"is_disabled":false,"rental_uris":{"android":"levelo://app?vid=c35d4196-671b-414f-ba54-6bcb597f3830","ios":"levelo://app?vid=c35d4196-671b-414f-ba54-6bcb597f3830"},"vehicle_type_id":"4","last_reported":1779318234,"current_range_meters":6400,"station_id":"ce4bh612rcd13ifvqe6g","pricing_plan_id":"cebpf4jnsgd1na2vs0mg"},{"bike_id":"71c00d56-3270-4e01-9f4b-286f5eb98d05","system_id":"levelo_inurba_marseille","lat":43.306122,"lon":5.372213,"is_reserved":false,"is_disabled":false,"rental_uris":{"android":"levelo://app?vid=71c00d56-3270-4e01-9f4b-286f5eb98d05","ios":"levelo://app?vid=71c00d56-3270-4e01-9f4b-286f5eb98d05"},"vehicle_type_id":"4","last_reported":1779318234,"current_range_meters":6400,"station_id":"ce4bgqh2rcd13ifvqc4g","pricing_plan_id":"cebpf4jnsgd1na2vs0mg"},{"bike_id":"3090dfec-7e3a-4b2d-8266-83218f4ce809","system_id":"levelo_inurba_marseille","lat":43.26569,"lon":5.38993,"is_reserved":false,"is_disabled":false,"rental_uris":{"android":"levelo://app?vid=3090dfec-7e3a-4b2d-8266-83218f4ce809","ios":"levelo://app?vid=3090dfec-7e3a-4b2d-8266-83218f4ce809"},"vehicle_type_id":"4","last_reported":1779318234,"current_range_meters":6400,"station_id":"ce4bhe12rcd13ifvqf30","pricing_plan_id":"cebpf4jnsgd1na2vs0mg"},{"bike_id":"42a87bbb-c3b9-4638-83cb-57215133b083","system_id":"levelo_inurba_marseille","lat":43.29292,"lon":5.3716,"is_reserved":false,"is_disabled":false,"rental_uris":{"android":"levelo://app?vid=42a87bbb-c3b9-4638-83cb-57215133b083","ios":"levelo://app?vid=42a87bbb-c3b9-4638-83cb-57215133b083"},"vehicle_type_id":"4","last_reported":1779318234,"current_range_meters":6400,"station_id":"ce4bgh92rcd13ifvqb40","pricing_plan_id":"cebpf4jnsgd1na2vs0mg"},{"bike_id":"e7b2834d-0414-4c8b-95bb-dbeba87a5cba","system_id":"levelo_inurba_marseille","lat":43.32948,"lon":5.38913,"is_reserved":false,"is_disabled":false,"rental_uris":{"android":"levelo://app?vid=e7b2834d-0414-4c8b-95bb-dbeba87a5cba","ios":"levelo://app?vid=e7b2834d-0414-4c8b-95bb-dbeba87a5cba"},"vehicle_type_id":"4","last_reported":1779318234,"current_range_meters":6400,"station_id":"","pricing_plan_id":"cebpf4jnsgd1na2vs0mg"},{"bike_id":"6e24a969-0f97-4d59-87fe-fb88bdf57d03","system_id":"levelo_inurba_marseille","lat":43.28375,"lon":5.38627,"is_reserved":false,"is_disabled":false,"rental_uris":{"android":"levelo://app?vid=6e24a969-0f97-4d59-87fe-fb88bdf57d03","ios":"levelo://app?vid=6e24a969-0f97-4d59-87fe-fb88bdf57d03"},"vehicle_type_id":"4","last_reported":1779318234,"current_range_meters":6400,"station_id":"ce4bh492rcd13ifvqdvg","pricing_plan_id":"cebpf4jnsgd1na2vs0mg"},{"bike_id":"8abba8cb-6df7-4abd-9677-4ca572eb13e8","system_id":"levelo_inurba_marseille","lat":43.28946,"lon":5.39653,"is_reserved":false,"is_disabled":false,"rental_uris":{"android":"levelo://app?vid=8abba8cb-6df7-4abd-9677-4ca572eb13e8","ios":"levelo://app?vid=8abba8cb-6df7-4abd-9677-4ca572eb13e8"},"vehicle_type_id":"4","last_reported":1779318234,"current_range_meters":6400,"station_id":"ce4bh3h2rcd13ifvqdn0","pricing_plan_id":"cebpf4jnsgd1na2vs0mg"},{"bike_id":"a5c7eeed-43ca-4544-87fd-e137e0c9b180","system_id":"levelo_inurba_marseille","lat":43.29568,"lon":5.38534,"is_reserved":false,"is_disabled":false,"rental_uris":{"android":"levelo://app?vid=a5c7eeed-43ca-4544-87fd-e137e0c9b180","ios":"levelo://app?vid=a5c7eeed-43ca-4544-87fd-e137e0c9b180"},"vehicle_type_id":"4","last_reported":1779318234,"current_range_meters":6400,"station_id":"ce4bgih2rcd13ifvqba0","pricing_plan_id":"cebpf4jnsgd1na2vs0mg"},{"bike_id":"f866df32-1984-464f-b169-bf63661abae8","system_id":"levelo_inurba_marseille","lat":43.27186,"lon":5.40981,"is_reserved":false,"is_disabled":false,"rental_uris":{"android":"levelo://app?vid=f866df32-1984-464f-b169-bf63661abae8","ios":"levelo://app?vid=f866df32-1984-464f-b169-bf63661abae8"},"vehicle_type_id":"4","last_reported":1779318234,"current_range_meters":6400,"station_id":"ce4bhl12rcd13ifvqgf0","pricing_plan_id":"cebpf4jnsgd1na2vs0mg"},{"bike_id":"5198c4a8-6c89-4c86-b60c-6a7c6074f434","system_id":"levelo_inurba_marseille","lat":43.3074,"lon":5.42456,"is_reserved":false,"is_disabled":false,"rental_uris":{"android":"levelo://app?vid=5198c4a8-6c89-4c86-b60c-6a7c6074f434","ios":"levelo://app?vid=5198c4a8-6c89-4c86-b60c-6a7c6074f434"},"vehicle_type_id":"4","last_reported":1779318234,"current_range_meters":6400,"station_id":"st_cvj6ca6bvosntc0bfgr0","pricing_plan_id":"cebpf4jnsgd1na2vs0mg"},{"bike_id":"971279ad-c3ba-4571-819f-fa9941bdb7dc","system_id":"levelo_inurba_marseille","lat":43.28543,"lon":5.44087,"is_reserved":false,"is_disabled":true,"rental_uris":{"android":"levelo://app?vid=971279ad-c3ba-4571-819f-fa9941bdb7dc","ios":"levelo://app?vid=971279ad-c3ba-4571-819f-fa9941bdb7dc"},"vehicle_type_id":"4","last_reported":1779318234,"current_range_meters":6400,"station_id":"st_d3j3df2ikq2c7380ej80","pricing_plan_id":"cebpf4jnsgd1na2vs0mg"},{"bike_id":"a3857048-92e2-4783-b165-372c66143a1f","system_id":"levelo_inurba_marseille","lat":43.2822,"lon":5.39059,"is_reserved":false,"is_disabled":false,"rental_uris":{"android":"levelo://app?vid=a3857048-92e2-4783-b165-372c66143a1f","ios":"levelo://app?vid=a3857048-92e2-4783-b165-372c66143a1f"},"vehicle_type_id":"4","last_reported":1779318234,"current_range_meters":6400,"station_id":"ce4bhn92rcd13ifvqgsg","pricing_plan_id":"cebpf4jnsgd1na2vs0mg"},{"bike_id":"187bbf18-d8ae-4483-a996-a2dc6c8185d7","system_id":"levelo_inurba_marseille","lat":43.3044,"lon":5.38933,"is_reserved":false,"is_disabled":false,"rental_uris":{"android":"levelo://app?vid=187bbf18-d8ae-4483-a996-a2dc6c8185d7","ios":"levelo://app?vid=187bbf18-d8ae-4483-a996-a2dc6c8185d7"},"vehicle_type_id":"4","last_reported":1779318234,"current_range_meters":6400,"station_id":"ce4bgk12rcd13ifvqbi0","pricing_plan_id":"cebpf4jnsgd1na2vs0mg"},{"bike_id":"76fb359d-651f-4b2f-a835-dd9b08ca1522","system_id":"levelo_inurba_marseille","lat":43.29052,"lon":5.372,"is_reserved":false,"is_disabled":false,"rental_uris":{"android":"levelo://app?vid=76fb359d-651f-4b2f-a835-dd9b08ca1522","ios":"levelo://app?vid=76fb359d-651f-4b2f-a835-dd9b08ca1522"},"vehicle_type_id":"4","last_reported":1779318234,"current_range_meters":6400,"station_id":"ce4bh5p2rcd13ifvqe4g","pricing_plan_id":"cebpf4jnsgd1na2vs0mg"},{"bike_id":"85aa7030-1d2d-4efc-851d-09155d499f3c","system_id":"levelo_inurba_marseille","lat":43.32061,"lon":5.41817,"is_reserved":false,"is_disabled":false,"rental_uris":{"android":"levelo://app?vid=85aa7030-1d2d-4efc-851d-09155d499f3c","ios":"levelo://app?vid=85aa7030-1d2d-4efc-851d-09155d499f3c"},"vehicle_type_id":"4","last_reported":1779318234,"current_range_meters":6400,"station_id":"","pricing_plan_id":"cebpf4jnsgd1na2vs0mg"},{"bike_id":"7e88b870-5ff2-4471-88fb-ab74e45d300b","system_id":"levelo_inurba_marseille","lat":43.279,"lon":5.38005,"is_reserved":false,"is_disabled":false,"rental_uris":{"android":"levelo://app?vid=7e88b870-5ff2-4471-88fb-ab74e45d300b","ios":"levelo://app?vid=7e88b870-5ff2-4471-88fb-ab74e45d300b"},"vehicle_type_id":"4","last_reported":1779318234,"current_range_meters":6400,"station_id":"ce4bhf92rcd13ifvqf50","pricing_plan_id":"cebpf4jnsgd1na2vs0mg"},{"bike_id":"b694d5dc-8b9c-4f5d-b756-49983936d7ec","system_id":"levelo_inurba_marseille","lat":43.24055,"lon":5.37768,"is_reserved":false,"is_disabled":false,"rental_uris":{"android":"levelo://app?vid=b694d5dc-8b9c-4f5d-b756-49983936d7ec","ios":"levelo://app?vid=b694d5dc-8b9c-4f5d-b756-49983936d7ec"},"vehicle_type_id":"4","last_reported":1779318234,"current_range_meters":6400,"station_id":"ce4bhnp2rcd13ifvqgvg","pricing_plan_id":"cebpf4jnsgd1na2vs0mg"},{"bike_id":"24139e48-8c49-4fdb-9fc9-c31c6a2c8ea7","system_id":"levelo_inurba_marseille","lat":43.24665,"lon":5.3888,"is_reserved":false,"is_disabled":false,"rental_uris":{"android":"levelo://app?vid=24139e48-8c49-4fdb-9fc9-c31c6a2c8ea7","ios":"levelo://app?vid=24139e48-8c49-4fdb-9fc9-c31c6a2c8ea7"},"vehicle_type_id":"4","last_reported":1779318234,"current_range_meters":6400,"station_id":"ce4bhg12rcd13ifvqf60","pricing_plan_id":"cebpf4jnsgd1na2vs0mg"},{"bike_id":"edeb54d9-e15c-4660-97b0-f8179e706b40","system_id":"levelo_inurba_marseille","lat":43.28952,"lon":5.35658,"is_reserved":false,"is_disabled":true,"rental_uris":{"android":"levelo://app?vid=edeb54d9-e15c-4660-97b0-f8179e706b40","ios":"levelo://app?vid=edeb54d9-e15c-4660-97b0-f8179e706b40"},"vehicle_type_id":"4","last_reported":1779318234,"current_range_meters":6400,"station_id":"","pricing_plan_id":"cebpf4jnsgd1na2vs0mg"},{"bike_id":"de315fc5-e4a4-4a3e-96eb-972d021c61d5","system_id":"levelo_inurba_marseille","lat":43.30322,"lon":5.39208,"is_reserved":false,"is_disabled":false,"rental_uris":{"android":"levelo://app?vid=de315fc5-e4a4-4a3e-96eb-972d021c61d5","ios":"levelo://app?vid=de315fc5-e4a4-4a3e-96eb-972d021c61d5"},"vehicle_type_id":"4","last_reported":1779318234,"current_range_meters":6800,"station_id":"ce4bgkh2rcd13ifvqbk0","pricing_plan_id":"cebpf4jnsgd1na2vs0mg"},{"bike_id":"9be0d29d-cf38-478e-a5b2-3ccdc95ac463","system_id":"levelo_inurba_marseille","lat":43.27572,"lon":5.38428,"is_reserved":false,"is_disabled":false,"rental_uris":{"android":"levelo://app?vid=9be0d29d-cf38-478e-a5b2-3ccdc95ac463","ios":"levelo://app?vid=9be0d29d-cf38-478e-a5b2-3ccdc95ac463"},"vehicle_type_id":"4","last_reported":1779318234,"current_range_meters":6800,"station_id":"ce4bhh92rcd13ifvqfi0","pricing_plan_id":"cebpf4jnsgd1na2vs0mg"},{"bike_id":"dd5bca8d-4a0a-4bc1-8cec-b991e57c6089","system_id":"levelo_inurba_marseille","lat":43.24184,"lon":5.36354,"is_reserved":false,"is_disabled":false,"rental_uris":{"android":"levelo://app?vid=dd5bca8d-4a0a-4bc1-8cec-b991e57c6089","ios":"levelo://app?vid=dd5bca8d-4a0a-4bc1-8cec-b991e57c6089"},"vehicle_type_id":"4","last_reported":1779318234,"current_range_meters":6800,"station_id":"cpo36qri1sfpv3e86is0","pricing_plan_id":"cebpf4jnsgd1na2vs0mg"},{"bike_id":"931f0d4f-f79d-43bd-844d-c17a85f6359a","system_id":"levelo_inurba_marseille","lat":43.29046,"lon":5.39937,"is_reserved":false,"is_disabled":false,"rental_uris":{"android":"levelo://app?vid=931f0d4f-f79d-43bd-844d-c17a85f6359a","ios":"levelo://app?vid=931f0d4f-f79d-43bd-844d-c17a85f6359a"},"vehicle_type_id":"4","last_reported":1779318234,"current_range_meters":6800,"station_id":"ce4bh392rcd13ifvqdm0","pricing_plan_id":"cebpf4jnsgd1na2vs0mg"},{"bike_id":"c5e693a5-5aee-4f2f-b3d3-ad6fe1a5da64","system_id":"levelo_inurba_marseille","lat":43.3246,"lon":5.36574,"is_reserved":false,"is_disabled":false,"rental_uris":{"android":"levelo://app?vid=c5e693a5-5aee-4f2f-b3d3-ad6fe1a5da64","ios":"levelo://app?vid=c5e693a5-5aee-4f2f-b3d3-ad6fe1a5da64"},"vehicle_type_id":"4","last_reported":1779318234,"current_range_meters":6800,"station_id":"ce4bhs12rcd13ifvqhvg","pricing_plan_id":"cebpf4jnsgd1na2vs0mg"},{"bike_id":"f7e55107-6af1-4b5b-91a7-3b967adfe6ea","system_id":"levelo_inurba_marseille","lat":43.2902,"lon":5.38145,"is_reserved":false,"is_disabled":false,"rental_uris":{"android":"levelo://app?vid=f7e55107-6af1-4b5b-91a7-3b967adfe6ea","ios":"levelo://app?vid=f7e55107-6af1-4b5b-91a7-3b967adfe6ea"},"vehicle_type_id":"4","last_reported":1779318234,"current_range_meters":6800,"station_id":"ce4bh4p2rcd13ifvqe1g","pricing_plan_id":"cebpf4jnsgd1na2vs0mg"},{"bike_id":"6e56ddd0-7524-400e-9ead-6aa874825d80","system_id":"levelo_inurba_marseille","lat":43.28211,"lon":5.39027,"is_reserved":false,"is_disabled":false,"rental_uris":{"android":"levelo://app?vid=6e56ddd0-7524-400e-9ead-6aa874825d80","ios":"levelo://app?vid=6e56ddd0-7524-400e-9ead-6aa874825d80"},"vehicle_type_id":"4","last_reported":1779318234,"current_range_meters":6800,"station_id":"ce4bhn92rcd13ifvqgsg","pricing_plan_id":"cebpf4jnsgd1na2vs0mg"},{"bike_id":"e38caa21-a14a-4197-88a1-db68aad57c56","system_id":"levelo_inurba_marseille","lat":43.28711,"lon":5.46696,"is_reserved":false,"is_disabled":false,"rental_uris":{"android":"levelo://app?vid=e38caa21-a14a-4197-88a1-db68aad57c56","ios":"levelo://app?vid=e38caa21-a14a-4197-88a1-db68aad57c56"},"vehicle_type_id":"4","last_reported":1779318234,"current_range_meters":6800,"station_id":"st_d6tc3vkotcvc738tfjhg","pricing_plan_id":"cebpf4jnsgd1na2vs0mg"},{"bike_id":"a3071a58-220a-49d7-933f-639eaa20dffd","system_id":"levelo_inurba_marseille","lat":43.28784,"lon":5.4271,"is_reserved":false,"is_disabled":false,"rental_uris":{"android":"levelo://app?vid=a3071a58-220a-49d7-933f-639eaa20dffd","ios":"levelo://app?vid=a3071a58-220a-49d7-933f-639eaa20dffd"},"vehicle_type_id":"4","last_reported":1779318234,"current_range_meters":6800,"station_id":"","pricing_plan_id":"cebpf4jnsgd1na2vs0mg"},{"bike_id":"87615e51-7ea8-422f-91e5-4a862196b9d0","system_id":"levelo_inurba_marseille","lat":43.25328,"lon":5.42166,"is_reserved":false,"is_disabled":false,"rental_uris":{"android":"levelo://app?vid=87615e51-7ea8-422f-91e5-4a862196b9d0","ios":"levelo://app?vid=87615e51-7ea8-422f-91e5-4a862196b9d0"},"vehicle_type_id":"4","last_reported":1779318234,"current_range_meters":6800,"station_id":"st_d2m65c5bi1j21697t3ng","pricing_plan_id":"cebpf4jnsgd1na2vs0mg"},{"bike_id":"f0e1c62c-4014-47ee-b8a9-c5f5511a0d13","system_id":"levelo_inurba_marseille","lat":43.30931,"lon":5.40152,"is_reserved":false,"is_disabled":false,"rental_uris":{"android":"levelo://app?vid=f0e1c62c-4014-47ee-b8a9-c5f5511a0d13","ios":"levelo://app?vid=f0e1c62c-4014-47ee-b8a9-c5f5511a0d13"},"vehicle_type_id":"4","last_reported":1779318234,"current_range_meters":6800,"station_id":"ce4bgvp2rcd13ifvqct0","pricing_plan_id":"cebpf4jnsgd1na2vs0mg"},{"bike_id":"b0f1837a-ba23-48f3-a7c9-fe91ecd3237b","system_id":"levelo_inurba_marseille","lat":43.26072,"lon":5.394,"is_reserved":false,"is_disabled":false,"rental_uris":{"android":"levelo://app?vid=b0f1837a-ba23-48f3-a7c9-fe91ecd3237b","ios":"levelo://app?vid=b0f1837a-ba23-48f3-a7c9-fe91ecd3237b"},"vehicle_type_id":"4","last_reported":1779318234,"current_range_meters":6800,"station_id":"ce4bhh92rcd13ifvqfj0","pricing_plan_id":"cebpf4jnsgd1na2vs0mg"},{"bike_id":"4fdd8c15-1bcb-4fa5-b5bd-d33affd8bbad","system_id":"levelo_inurba_marseille","lat":43.30196,"lon":5.39938,"is_reserved":false,"is_disabled":false,"rental_uris":{"android":"levelo://app?vid=4fdd8c15-1bcb-4fa5-b5bd-d33affd8bbad","ios":"levelo://app?vid=4fdd8c15-1bcb-4fa5-b5bd-d33affd8bbad"},"vehicle_type_id":"4","last_reported":1779318234,"current_range_meters":6800,"station_id":"","pricing_plan_id":"cebpf4jnsgd1na2vs0mg"},{"bike_id":"c516a5ed-b3ae-497a-8fb4-e4a29969a0c7","system_id":"levelo_inurba_marseille","lat":43.2958,"lon":5.39981,"is_reserved":false,"is_disabled":true,"rental_uris":{"android":"levelo://app?vid=c516a5ed-b3ae-497a-8fb4-e4a29969a0c7","ios":"levelo://app?vid=c516a5ed-b3ae-497a-8fb4-e4a29969a0c7"},"vehicle_type_id":"4","last_reported":1779318234,"current_range_meters":6800,"station_id":"ce4bh312rcd13ifvqdj0","pricing_plan_id":"cebpf4jnsgd1na2vs0mg"},{"bike_id":"3096f3f7-7fc7-4228-b175-4b649f17f6c1","system_id":"levelo_inurba_marseille","lat":43.27994,"lon":5.4167,"is_reserved":false,"is_disabled":false,"rental_uris":{"android":"levelo://app?vid=3096f3f7-7fc7-4228-b175-4b649f17f6c1","ios":"levelo://app?vid=3096f3f7-7fc7-4228-b175-4b649f17f6c1"},"vehicle_type_id":"4","last_reported":1779318234,"current_range_meters":6800,"station_id":"ce4bho12rcd13ifvqh1g","pricing_plan_id":"cebpf4jnsgd1na2vs0mg"},{"bike_id":"76d9f01a-7981-4ce9-bf0b-7ca3e26a009c","system_id":"levelo_inurba_marseille","lat":43.29001,"lon":5.37813,"is_reserved":false,"is_disabled":true,"rental_uris":{"android":"levelo://app?vid=76d9f01a-7981-4ce9-bf0b-7ca3e26a009c","ios":"levelo://app?vid=76d9f01a-7981-4ce9-bf0b-7ca3e26a009c"},"vehicle_type_id":"4","last_reported":1779318234,"current_range_meters":6800,"station_id":"ce4bh9p2rcd13ifvqed0","pricing_plan_id":"cebpf4jnsgd1na2vs0mg"},{"bike_id":"2ca7b8fb-98ca-45d4-80fb-36997f3b8947","system_id":"levelo_inurba_marseille","lat":43.2658,"lon":5.39035,"is_reserved":false,"is_disabled":false,"rental_uris":{"android":"levelo://app?vid=2ca7b8fb-98ca-45d4-80fb-36997f3b8947","ios":"levelo://app?vid=2ca7b8fb-98ca-45d4-80fb-36997f3b8947"},"vehicle_type_id":"4","last_reported":1779318234,"current_range_meters":6800,"station_id":"ce4bhe12rcd13ifvqf30","pricing_plan_id":"cebpf4jnsgd1na2vs0mg"},{"bike_id":"61a484b1-19d4-41ed-bd4d-afccf23d593e","system_id":"levelo_inurba_marseille","lat":43.28476,"lon":5.38418,"is_reserved":false,"is_disabled":false,"rental_uris":{"android":"levelo://app?vid=61a484b1-19d4-41ed-bd4d-afccf23d593e","ios":"levelo://app?vid=61a484b1-19d4-41ed-bd4d-afccf23d593e"},"vehicle_type_id":"4","last_reported":1779318234,"current_range_meters":6800,"station_id":"ce4bh512rcd13ifvqe3g","pricing_plan_id":"cebpf4jnsgd1na2vs0mg"},{"bike_id":"7e7baf03-24b6-4996-8b95-34d4e5760aba","system_id":"levelo_inurba_marseille","lat":43.29029,"lon":5.38608,"is_reserved":false,"is_disabled":true,"rental_uris":{"android":"levelo://app?vid=7e7baf03-24b6-4996-8b95-34d4e5760aba","ios":"levelo://app?vid=7e7baf03-24b6-4996-8b95-34d4e5760aba"},"vehicle_type_id":"4","last_reported":1779318234,"current_range_meters":6800,"station_id":"ce4bh4p2rcd13ifvqe0g","pricing_plan_id":"cebpf4jnsgd1na2vs0mg"},{"bike_id":"45110dc0-6313-41c7-a8ee-672fb8338ff5","system_id":"levelo_inurba_marseille","lat":43.28864,"lon":5.42521,"is_reserved":false,"is_disabled":false,"rental_uris":{"android":"levelo://app?vid=45110dc0-6313-41c7-a8ee-672fb8338ff5","ios":"levelo://app?vid=45110dc0-6313-41c7-a8ee-672fb8338ff5"},"vehicle_type_id":"4","last_reported":1779318234,"current_range_meters":6800,"station_id":"st_d3b462108ojc7389ooeg","pricing_plan_id":"cebpf4jnsgd1na2vs0mg"},{"bike_id":"5d406f5e-299d-4f1d-8d07-1ec50de5b6e9","system_id":"levelo_inurba_marseille","lat":43.29786,"lon":5.39362,"is_reserved":false,"is_disabled":false,"rental_uris":{"android":"levelo://app?vid=5d406f5e-299d-4f1d-8d07-1ec50de5b6e9","ios":"levelo://app?vid=5d406f5e-299d-4f1d-8d07-1ec50de5b6e9"},"vehicle_type_id":"4","last_reported":1779318234,"current_range_meters":6800,"station_id":"chh1huq6cuj3fo74tm60","pricing_plan_id":"cebpf4jnsgd1na2vs0mg"},{"bike_id":"dcab00e4-b3bd-4572-b937-f215ffccae6a","system_id":"levelo_inurba_marseille","lat":43.26931,"lon":5.40233,"is_reserved":false,"is_disabled":false,"rental_uris":{"android":"levelo://app?vid=dcab00e4-b3bd-4572-b937-f215ffccae6a","ios":"levelo://app?vid=dcab00e4-b3bd-4572-b937-f215ffccae6a"},"vehicle_type_id":"4","last_reported":1779318234,"current_range_meters":6800,"station_id":"cjm6bp8fraef2m0cb0m0","pricing_plan_id":"cebpf4jnsgd1na2vs0mg"},{"bike_id":"e7efd226-2c43-4498-bd5b-0def1db25104","system_id":"levelo_inurba_marseille","lat":43.28477,"lon":5.35901,"is_reserved":false,"is_disabled":false,"rental_uris":{"android":"levelo://app?vid=e7efd226-2c43-4498-bd5b-0def1db25104","ios":"levelo://app?vid=e7efd226-2c43-4498-bd5b-0def1db25104"},"vehicle_type_id":"4","last_reported":1779318234,"current_range_meters":6800,"station_id":"ce4bhah2rcd13ifvqei0","pricing_plan_id":"cebpf4jnsgd1na2vs0mg"},{"bike_id":"040af776-d9a9-4c99-a3e3-c3ef2e356abf","system_id":"levelo_inurba_marseille","lat":43.28503,"lon":5.38568,"is_reserved":false,"is_disabled":false,"rental_uris":{"android":"levelo://app?vid=040af776-d9a9-4c99-a3e3-c3ef2e356abf","ios":"levelo://app?vid=040af776-d9a9-4c99-a3e3-c3ef2e356abf"},"vehicle_type_id":"4","last_reported":1779318234,"current_range_meters":6800,"station_id":"ce4bh8p2rcd13ifvqeb0","pricing_plan_id":"cebpf4jnsgd1na2vs0mg"},{"bike_id":"fdb24316-916f-4678-90a1-920482a20683","system_id":"levelo_inurba_marseille","lat":43.317,"lon":5.40446,"is_reserved":false,"is_disabled":false,"rental_uris":{"android":"levelo://app?vid=fdb24316-916f-4678-90a1-920482a20683","ios":"levelo://app?vid=fdb24316-916f-4678-90a1-920482a20683"},"vehicle_type_id":"4","last_reported":1779318234,"current_range_meters":6800,"station_id":"ce4bh012rcd13ifvqd00","pricing_plan_id":"cebpf4jnsgd1na2vs0mg"},{"bike_id":"6b77fe71-f943-4f19-bbd9-4ec325a149d9","system_id":"levelo_inurba_marseille","lat":43.28412,"lon":5.37534,"is_reserved":false,"is_disabled":false,"rental_uris":{"android":"levelo://app?vid=6b77fe71-f943-4f19-bbd9-4ec325a149d9","ios":"levelo://app?vid=6b77fe71-f943-4f19-bbd9-4ec325a149d9"},"vehicle_type_id":"4","last_reported":1779318234,"current_range_meters":6800,"station_id":"ce4bh412rcd13ifvqds0","pricing_plan_id":"cebpf4jnsgd1na2vs0mg"},{"bike_id":"37d1eac1-3743-4b79-a265-2a16f0f4d90d","system_id":"levelo_inurba_marseille","lat":43.2963,"lon":5.3773,"is_reserved":false,"is_disabled":true,"rental_uris":{"android":"levelo://app?vid=37d1eac1-3743-4b79-a265-2a16f0f4d90d","ios":"levelo://app?vid=37d1eac1-3743-4b79-a265-2a16f0f4d90d"},"vehicle_type_id":"4","last_reported":1779318234,"current_range_meters":7200,"station_id":"ce4bgi92rcd13ifvqb90","pricing_plan_id":"cebpf4jnsgd1na2vs0mg"},{"bike_id":"7975b169-5677-4dff-9b59-bed9c727a531","system_id":"levelo_inurba_marseille","lat":43.31103,"lon":5.37778,"is_reserved":false,"is_disabled":true,"rental_uris":{"android":"levelo://app?vid=7975b169-5677-4dff-9b59-bed9c727a531","ios":"levelo://app?vid=7975b169-5677-4dff-9b59-bed9c727a531"},"vehicle_type_id":"4","last_reported":1779318234,"current_range_meters":7200,"station_id":"ce4bgt92rcd13ifvqcg0","pricing_plan_id":"cebpf4jnsgd1na2vs0mg"},{"bike_id":"ef227ab8-b5b9-472b-b469-39a87d525ccb","system_id":"levelo_inurba_marseille","lat":43.2821,"lon":5.39057,"is_reserved":false,"is_disabled":false,"rental_uris":{"android":"levelo://app?vid=ef227ab8-b5b9-472b-b469-39a87d525ccb","ios":"levelo://app?vid=ef227ab8-b5b9-472b-b469-39a87d525ccb"},"vehicle_type_id":"4","last_reported":1779318234,"current_range_meters":7200,"station_id":"ce4bhn92rcd13ifvqgsg","pricing_plan_id":"cebpf4jnsgd1na2vs0mg"},{"bike_id":"6678e321-5389-4431-9c53-24777ba9d6de","system_id":"levelo_inurba_marseille","lat":43.29076,"lon":5.37163,"is_reserved":false,"is_disabled":false,"rental_uris":{"android":"levelo://app?vid=6678e321-5389-4431-9c53-24777ba9d6de","ios":"levelo://app?vid=6678e321-5389-4431-9c53-24777ba9d6de"},"vehicle_type_id":"4","last_reported":1779318234,"current_range_meters":7200,"station_id":"ce4bh5p2rcd13ifvqe4g","pricing_plan_id":"cebpf4jnsgd1na2vs0mg"},{"bike_id":"2867f625-8401-41e4-a87f-2a6c444dd23d","system_id":"levelo_inurba_marseille","lat":43.31451,"lon":5.3742,"is_reserved":false,"is_disabled":false,"rental_uris":{"android":"levelo://app?vid=2867f625-8401-41e4-a87f-2a6c444dd23d","ios":"levelo://app?vid=2867f625-8401-41e4-a87f-2a6c444dd23d"},"vehicle_type_id":"4","last_reported":1779318234,"current_range_meters":7200,"station_id":"","pricing_plan_id":"cebpf4jnsgd1na2vs0mg"},{"bike_id":"bda3057c-409f-445a-9e92-541f835f6d5d","system_id":"levelo_inurba_marseille","lat":43.21759,"lon":5.34612,"is_reserved":false,"is_disabled":false,"rental_uris":{"android":"levelo://app?vid=bda3057c-409f-445a-9e92-541f835f6d5d","ios":"levelo://app?vid=bda3057c-409f-445a-9e92-541f835f6d5d"},"vehicle_type_id":"4","last_reported":1779318234,"current_range_meters":7200,"station_id":"st_cvj6r9ubvosntc0bgbag","pricing_plan_id":"cebpf4jnsgd1na2vs0mg"},{"bike_id":"f21198b3-cc38-4d1d-876e-83ff3a9c5575","system_id":"levelo_inurba_marseille","lat":43.29191,"lon":5.39323,"is_reserved":false,"is_disabled":false,"rental_uris":{"android":"levelo://app?vid=f21198b3-cc38-4d1d-876e-83ff3a9c5575","ios":"levelo://app?vid=f21198b3-cc38-4d1d-876e-83ff3a9c5575"},"vehicle_type_id":"4","last_reported":1779318234,"current_range_meters":7200,"station_id":"ce4bh192rcd13ifvqdd0","pricing_plan_id":"cebpf4jnsgd1na2vs0mg"},{"bike_id":"b54a0860-ff04-4417-9804-a7525879c950","system_id":"levelo_inurba_marseille","lat":43.30526,"lon":5.38064,"is_reserved":false,"is_disabled":false,"rental_uris":{"android":"levelo://app?vid=b54a0860-ff04-4417-9804-a7525879c950","ios":"levelo://app?vid=b54a0860-ff04-4417-9804-a7525879c950"},"vehicle_type_id":"4","last_reported":1779318234,"current_range_meters":7200,"station_id":"","pricing_plan_id":"cebpf4jnsgd1na2vs0mg"},{"bike_id":"7ff1bc81-78ee-4408-9762-6a7a2e9876b2","system_id":"levelo_inurba_marseille","lat":43.2291,"lon":5.35392,"is_reserved":false,"is_disabled":false,"rental_uris":{"android":"levelo://app?vid=7ff1bc81-78ee-4408-9762-6a7a2e9876b2","ios":"levelo://app?vid=7ff1bc81-78ee-4408-9762-6a7a2e9876b2"},"vehicle_type_id":"4","last_reported":1779318234,"current_range_meters":7200,"station_id":"cpo3532slgdg3j2ikp40","pricing_plan_id":"cebpf4jnsgd1na2vs0mg"},{"bike_id":"faed9e98-8b71-42e4-8b75-2d0412995e9c","system_id":"levelo_inurba_marseille","lat":43.24674,"lon":5.40072,"is_reserved":false,"is_disabled":false,"rental_uris":{"android":"levelo://app?vid=faed9e98-8b71-42e4-8b75-2d0412995e9c","ios":"levelo://app?vid=faed9e98-8b71-42e4-8b75-2d0412995e9c"},"vehicle_type_id":"4","last_reported":1779318234,"current_range_meters":7200,"station_id":"","pricing_plan_id":"cebpf4jnsgd1na2vs0mg"},{"bike_id":"381a1687-3b4c-4e43-ada7-0b296f458493","system_id":"levelo_inurba_marseille","lat":43.28746,"lon":5.46694,"is_reserved":false,"is_disabled":false,"rental_uris":{"android":"levelo://app?vid=381a1687-3b4c-4e43-ada7-0b296f458493","ios":"levelo://app?vid=381a1687-3b4c-4e43-ada7-0b296f458493"},"vehicle_type_id":"4","last_reported":1779318234,"current_range_meters":7200,"station_id":"","pricing_plan_id":"cebpf4jnsgd1na2vs0mg"},{"bike_id":"2da5e8c9-6a64-4da8-ae03-132afb90fbb2","system_id":"levelo_inurba_marseille","lat":43.28613,"lon":5.39893,"is_reserved":false,"is_disabled":false,"rental_uris":{"android":"levelo://app?vid=2da5e8c9-6a64-4da8-ae03-132afb90fbb2","ios":"levelo://app?vid=2da5e8c9-6a64-4da8-ae03-132afb90fbb2"},"vehicle_type_id":"4","last_reported":1779318234,"current_range_meters":7200,"station_id":"st_d4a7ka997mjs738ck50g","pricing_plan_id":"cebpf4jnsgd1na2vs0mg"},{"bike_id":"29d3f4a8-eb87-48d7-9078-200ee5029180","system_id":"levelo_inurba_marseille","lat":43.29223,"lon":5.36053,"is_reserved":false,"is_disabled":false,"rental_uris":{"android":"levelo://app?vid=29d3f4a8-eb87-48d7-9078-200ee5029180","ios":"levelo://app?vid=29d3f4a8-eb87-48d7-9078-200ee5029180"},"vehicle_type_id":"4","last_reported":1779318234,"current_range_meters":7200,"station_id":"ce4bhbh2rcd13ifvqeqg","pricing_plan_id":"cebpf4jnsgd1na2vs0mg"},{"bike_id":"30d289fc-109a-48f5-a7ee-a95f904115da","system_id":"levelo_inurba_marseille","lat":43.31365,"lon":5.3849,"is_reserved":false,"is_disabled":false,"rental_uris":{"android":"levelo://app?vid=30d289fc-109a-48f5-a7ee-a95f904115da","ios":"levelo://app?vid=30d289fc-109a-48f5-a7ee-a95f904115da"},"vehicle_type_id":"4","last_reported":1779318234,"current_range_meters":7200,"station_id":"ce4bgt92rcd13ifvqcf0","pricing_plan_id":"cebpf4jnsgd1na2vs0mg"},{"bike_id":"15a4ef45-bb40-4062-acaf-f25356ce981a","system_id":"levelo_inurba_marseille","lat":43.30565,"lon":5.36714,"is_reserved":false,"is_disabled":true,"rental_uris":{"android":"levelo://app?vid=15a4ef45-bb40-4062-acaf-f25356ce981a","ios":"levelo://app?vid=15a4ef45-bb40-4062-acaf-f25356ce981a"},"vehicle_type_id":"4","last_reported":1779318234,"current_range_meters":7200,"station_id":"ce4bgrp2rcd13ifvqc9g","pricing_plan_id":"cebpf4jnsgd1na2vs0mg"},{"bike_id":"e74cc65c-76f1-42c6-85ab-a981a73da68b","system_id":"levelo_inurba_marseille","lat":43.22567,"lon":5.41623,"is_reserved":false,"is_disabled":false,"rental_uris":{"android":"levelo://app?vid=e74cc65c-76f1-42c6-85ab-a981a73da68b","ios":"levelo://app?vid=e74cc65c-76f1-42c6-85ab-a981a73da68b"},"vehicle_type_id":"4","last_reported":1779318234,"current_range_meters":7200,"station_id":"st_d2o4gvlbi1j2169b742g","pricing_plan_id":"cebpf4jnsgd1na2vs0mg"},{"bike_id":"4581f6a7-79e9-44cd-b96e-06f3561662b8","system_id":"levelo_inurba_marseille","lat":43.22537,"lon":5.34825,"is_reserved":false,"is_disabled":false,"rental_uris":{"android":"levelo://app?vid=4581f6a7-79e9-44cd-b96e-06f3561662b8","ios":"levelo://app?vid=4581f6a7-79e9-44cd-b96e-06f3561662b8"},"vehicle_type_id":"4","last_reported":1779318234,"current_range_meters":7200,"station_id":"st_cvj5dfep6f1abm77gieg","pricing_plan_id":"cebpf4jnsgd1na2vs0mg"},{"bike_id":"8da072d2-bc69-4669-b8a2-c4b323a5ccfa","system_id":"levelo_inurba_marseille","lat":43.28419,"lon":5.37517,"is_reserved":false,"is_disabled":true,"rental_uris":{"android":"levelo://app?vid=8da072d2-bc69-4669-b8a2-c4b323a5ccfa","ios":"levelo://app?vid=8da072d2-bc69-4669-b8a2-c4b323a5ccfa"},"vehicle_type_id":"4","last_reported":1779318234,"current_range_meters":7200,"station_id":"ce4bh412rcd13ifvqds0","pricing_plan_id":"cebpf4jnsgd1na2vs0mg"},{"bike_id":"d68a936e-9daf-43f0-a68d-31a43f79d6b4","system_id":"levelo_inurba_marseille","lat":43.28464,"lon":5.35889,"is_reserved":false,"is_disabled":false,"rental_uris":{"android":"levelo://app?vid=d68a936e-9daf-43f0-a68d-31a43f79d6b4","ios":"levelo://app?vid=d68a936e-9daf-43f0-a68d-31a43f79d6b4"},"vehicle_type_id":"4","last_reported":1779318234,"current_range_meters":7200,"station_id":"ce4bhah2rcd13ifvqei0","pricing_plan_id":"cebpf4jnsgd1na2vs0mg"},{"bike_id":"79d56ee1-af37-4aee-87cc-6ddfe877e584","system_id":"levelo_inurba_marseille","lat":43.27835,"lon":5.39197,"is_reserved":false,"is_disabled":false,"rental_uris":{"android":"levelo://app?vid=79d56ee1-af37-4aee-87cc-6ddfe877e584","ios":"levelo://app?vid=79d56ee1-af37-4aee-87cc-6ddfe877e584"},"vehicle_type_id":"4","last_reported":1779318234,"current_range_meters":7200,"station_id":"ce4bhjp2rcd13ifvqga0","pricing_plan_id":"cebpf4jnsgd1na2vs0mg"},{"bike_id":"8c39b6dd-b754-48e2-823c-6f28d51803e0","system_id":"levelo_inurba_marseille","lat":43.29309,"lon":5.39765,"is_reserved":false,"is_disabled":false,"rental_uris":{"android":"levelo://app?vid=8c39b6dd-b754-48e2-823c-6f28d51803e0","ios":"levelo://app?vid=8c39b6dd-b754-48e2-823c-6f28d51803e0"},"vehicle_type_id":"4","last_reported":1779318234,"current_range_meters":7200,"station_id":"","pricing_plan_id":"cebpf4jnsgd1na2vs0mg"},{"bike_id":"505cb8b6-4a87-4b72-8a1d-8920a90ddb30","system_id":"levelo_inurba_marseille","lat":43.30101,"lon":5.39081,"is_reserved":false,"is_disabled":false,"rental_uris":{"android":"levelo://app?vid=505cb8b6-4a87-4b72-8a1d-8920a90ddb30","ios":"levelo://app?vid=505cb8b6-4a87-4b72-8a1d-8920a90ddb30"},"vehicle_type_id":"4","last_reported":1779318234,"current_range_meters":7200,"station_id":"ce4bh192rcd13ifvqdb0","pricing_plan_id":"cebpf4jnsgd1na2vs0mg"},{"bike_id":"210000fa-3cba-420d-9938-925b13dcf371","system_id":"levelo_inurba_marseille","lat":43.28334,"lon":5.38123,"is_reserved":false,"is_disabled":false,"rental_uris":{"android":"levelo://app?vid=210000fa-3cba-420d-9938-925b13dcf371","ios":"levelo://app?vid=210000fa-3cba-420d-9938-925b13dcf371"},"vehicle_type_id":"4","last_reported":1779318234,"current_range_meters":7200,"station_id":"ce4bh412rcd13ifvqdr0","pricing_plan_id":"cebpf4jnsgd1na2vs0mg"},{"bike_id":"cdea3a3f-ad21-4609-8ff7-db1e94c68a25","system_id":"levelo_inurba_marseille","lat":43.21767,"lon":5.34599,"is_reserved":false,"is_disabled":false,"rental_uris":{"android":"levelo://app?vid=cdea3a3f-ad21-4609-8ff7-db1e94c68a25","ios":"levelo://app?vid=cdea3a3f-ad21-4609-8ff7-db1e94c68a25"},"vehicle_type_id":"4","last_reported":1779318234,"current_range_meters":8000,"station_id":"st_cvj6r9ubvosntc0bgbag","pricing_plan_id":"cebpf4jnsgd1na2vs0mg"},{"bike_id":"aa328c66-195e-4754-bc09-a9d3e3da759b","system_id":"levelo_inurba_marseille","lat":43.28105,"lon":5.37857,"is_reserved":false,"is_disabled":false,"rental_uris":{"android":"levelo://app?vid=aa328c66-195e-4754-bc09-a9d3e3da759b","ios":"levelo://app?vid=aa328c66-195e-4754-bc09-a9d3e3da759b"},"vehicle_type_id":"4","last_reported":1779318234,"current_range_meters":8000,"station_id":"ce4bha12rcd13ifvqee0","pricing_plan_id":"cebpf4jnsgd1na2vs0mg"},{"bike_id":"42ce663f-838a-4443-811e-128d6660ba2e","system_id":"levelo_inurba_marseille","lat":43.28976,"lon":5.37844,"is_reserved":false,"is_disabled":false,"rental_uris":{"android":"levelo://app?vid=42ce663f-838a-4443-811e-128d6660ba2e","ios":"levelo://app?vid=42ce663f-838a-4443-811e-128d6660ba2e"},"vehicle_type_id":"4","last_reported":1779318234,"current_range_meters":8000,"station_id":"ce4bh9p2rcd13ifvqed0","pricing_plan_id":"cebpf4jnsgd1na2vs0mg"},{"bike_id":"eb0f425e-4651-461b-803b-54eec489b7e8","system_id":"levelo_inurba_marseille","lat":43.24444,"lon":5.42565,"is_reserved":false,"is_disabled":false,"rental_uris":{"android":"levelo://app?vid=eb0f425e-4651-461b-803b-54eec489b7e8","ios":"levelo://app?vid=eb0f425e-4651-461b-803b-54eec489b7e8"},"vehicle_type_id":"4","last_reported":1779318234,"current_range_meters":8000,"station_id":"st_d4a3vfp97mjs738cd8kg","pricing_plan_id":"cebpf4jnsgd1na2vs0mg"},{"bike_id":"0d3ea755-0ef1-4203-bc47-c7bdcb0fa6dd","system_id":"levelo_inurba_marseille","lat":43.30448,"lon":5.389,"is_reserved":false,"is_disabled":false,"rental_uris":{"android":"levelo://app?vid=0d3ea755-0ef1-4203-bc47-c7bdcb0fa6dd","ios":"levelo://app?vid=0d3ea755-0ef1-4203-bc47-c7bdcb0fa6dd"},"vehicle_type_id":"4","last_reported":1779318234,"current_range_meters":8000,"station_id":"ce4bgk12rcd13ifvqbi0","pricing_plan_id":"cebpf4jnsgd1na2vs0mg"},{"bike_id":"282c9669-7dad-469f-b087-8dbbc861bbc4","system_id":"levelo_inurba_marseille","lat":43.274223,"lon":5.394069,"is_reserved":false,"is_disabled":true,"rental_uris":{"android":"levelo://app?vid=282c9669-7dad-469f-b087-8dbbc861bbc4","ios":"levelo://app?vid=282c9669-7dad-469f-b087-8dbbc861bbc4"},"vehicle_type_id":"4","last_reported":1779318234,"current_range_meters":8000,"station_id":"ce4bhdp2rcd13ifvqf20","pricing_plan_id":"cebpf4jnsgd1na2vs0mg"},{"bike_id":"84048bdd-5ca2-4618-8dc7-44848538cd6f","system_id":"levelo_inurba_marseille","lat":43.25583,"lon":5.38231,"is_reserved":false,"is_disabled":false,"rental_uris":{"android":"levelo://app?vid=84048bdd-5ca2-4618-8dc7-44848538cd6f","ios":"levelo://app?vid=84048bdd-5ca2-4618-8dc7-44848538cd6f"},"vehicle_type_id":"4","last_reported":1779318234,"current_range_meters":8000,"station_id":"ce4bhih2rcd13ifvqfs0","pricing_plan_id":"cebpf4jnsgd1na2vs0mg"},{"bike_id":"4e3abe44-81b8-4d22-8fa4-d176f590145e","system_id":"levelo_inurba_marseille","lat":43.28122,"lon":5.37836,"is_reserved":false,"is_disabled":false,"rental_uris":{"android":"levelo://app?vid=4e3abe44-81b8-4d22-8fa4-d176f590145e","ios":"levelo://app?vid=4e3abe44-81b8-4d22-8fa4-d176f590145e"},"vehicle_type_id":"4","last_reported":1779318234,"current_range_meters":8000,"station_id":"ce4bha12rcd13ifvqee0","pricing_plan_id":"cebpf4jnsgd1na2vs0mg"},{"bike_id":"86a0fb52-613b-4a6c-942d-1abbde400b19","system_id":"levelo_inurba_marseille","lat":43.28422,"lon":5.34978,"is_reserved":false,"is_disabled":true,"rental_uris":{"android":"levelo://app?vid=86a0fb52-613b-4a6c-942d-1abbde400b19","ios":"levelo://app?vid=86a0fb52-613b-4a6c-942d-1abbde400b19"},"vehicle_type_id":"4","last_reported":1779318234,"current_range_meters":8000,"station_id":"ce4bhbh2rcd13ifvqepg","pricing_plan_id":"cebpf4jnsgd1na2vs0mg"},{"bike_id":"54ebc614-4655-4582-83f2-3a009523bce0","system_id":"levelo_inurba_marseille","lat":43.25507,"lon":5.3766,"is_reserved":false,"is_disabled":true,"rental_uris":{"android":"levelo://app?vid=54ebc614-4655-4582-83f2-3a009523bce0","ios":"levelo://app?vid=54ebc614-4655-4582-83f2-3a009523bce0"},"vehicle_type_id":"4","last_reported":1779318234,"current_range_meters":8000,"station_id":"ce4bhh12rcd13ifvqff0","pricing_plan_id":"cebpf4jnsgd1na2vs0mg"},{"bike_id":"aad75fce-f297-4a66-8546-74ab6bfcd851","system_id":"levelo_inurba_marseille","lat":43.2417,"lon":5.36395,"is_reserved":false,"is_disabled":false,"rental_uris":{"android":"levelo://app?vid=aad75fce-f297-4a66-8546-74ab6bfcd851","ios":"levelo://app?vid=aad75fce-f297-4a66-8546-74ab6bfcd851"},"vehicle_type_id":"4","last_reported":1779318234,"current_range_meters":8000,"station_id":"cpo36qri1sfpv3e86is0","pricing_plan_id":"cebpf4jnsgd1na2vs0mg"},{"bike_id":"b9c60d60-4264-40e8-a508-f1be55518834","system_id":"levelo_inurba_marseille","lat":43.28454,"lon":5.38412,"is_reserved":false,"is_disabled":false,"rental_uris":{"android":"levelo://app?vid=b9c60d60-4264-40e8-a508-f1be55518834","ios":"levelo://app?vid=b9c60d60-4264-40e8-a508-f1be55518834"},"vehicle_type_id":"4","last_reported":1779318234,"current_range_meters":8000,"station_id":"ce4bh512rcd13ifvqe3g","pricing_plan_id":"cebpf4jnsgd1na2vs0mg"},{"bike_id":"b4bb4584-80e7-4195-a68c-70dd91a63a57","system_id":"levelo_inurba_marseille","lat":43.261937,"lon":5.374475,"is_reserved":false,"is_disabled":false,"rental_uris":{"android":"levelo://app?vid=b4bb4584-80e7-4195-a68c-70dd91a63a57","ios":"levelo://app?vid=b4bb4584-80e7-4195-a68c-70dd91a63a57"},"vehicle_type_id":"4","last_reported":1779318234,"current_range_meters":8000,"station_id":"ce4bhgp2rcd13ifvqfc0","pricing_plan_id":"cebpf4jnsgd1na2vs0mg"},{"bike_id":"5b2a581a-ec1c-4cbe-ba39-04ebd8922ba0","system_id":"levelo_inurba_marseille","lat":43.28376,"lon":5.40244,"is_reserved":false,"is_disabled":false,"rental_uris":{"android":"levelo://app?vid=5b2a581a-ec1c-4cbe-ba39-04ebd8922ba0","ios":"levelo://app?vid=5b2a581a-ec1c-4cbe-ba39-04ebd8922ba0"},"vehicle_type_id":"4","last_reported":1779318234,"current_range_meters":8000,"station_id":"","pricing_plan_id":"cebpf4jnsgd1na2vs0mg"},{"bike_id":"e197dbb7-26cc-4236-b2f8-6618940fae9e","system_id":"levelo_inurba_marseille","lat":43.2897,"lon":5.35617,"is_reserved":false,"is_disabled":true,"rental_uris":{"android":"levelo://app?vid=e197dbb7-26cc-4236-b2f8-6618940fae9e","ios":"levelo://app?vid=e197dbb7-26cc-4236-b2f8-6618940fae9e"},"vehicle_type_id":"4","last_reported":1779318234,"current_range_meters":8000,"station_id":"ce4bhb92rcd13ifvqen0","pricing_plan_id":"cebpf4jnsgd1na2vs0mg"},{"bike_id":"f700b1da-af38-4d5f-ad87-e4d046ffd9a3","system_id":"levelo_inurba_marseille","lat":43.24017,"lon":5.37784,"is_reserved":false,"is_disabled":false,"rental_uris":{"android":"levelo://app?vid=f700b1da-af38-4d5f-ad87-e4d046ffd9a3","ios":"levelo://app?vid=f700b1da-af38-4d5f-ad87-e4d046ffd9a3"},"vehicle_type_id":"4","last_reported":1779318234,"current_range_meters":8000,"station_id":"ce4bhnp2rcd13ifvqgvg","pricing_plan_id":"cebpf4jnsgd1na2vs0mg"},{"bike_id":"2417956b-f325-4b75-806c-e42e7b7f598c","system_id":"levelo_inurba_marseille","lat":43.24961,"lon":5.41735,"is_reserved":false,"is_disabled":false,"rental_uris":{"android":"levelo://app?vid=2417956b-f325-4b75-806c-e42e7b7f598c","ios":"levelo://app?vid=2417956b-f325-4b75-806c-e42e7b7f598c"},"vehicle_type_id":"4","last_reported":1779318234,"current_range_meters":8000,"station_id":"","pricing_plan_id":"cebpf4jnsgd1na2vs0mg"},{"bike_id":"b3c58742-0569-4988-8f74-9982023b97a6","system_id":"levelo_inurba_marseille","lat":43.31882,"lon":5.36805,"is_reserved":false,"is_disabled":false,"rental_uris":{"android":"levelo://app?vid=b3c58742-0569-4988-8f74-9982023b97a6","ios":"levelo://app?vid=b3c58742-0569-4988-8f74-9982023b97a6"},"vehicle_type_id":"4","last_reported":1779318234,"current_range_meters":8400,"station_id":"st_d6o2h0d0559c73evc1b0","pricing_plan_id":"cebpf4jnsgd1na2vs0mg"},{"bike_id":"90909669-7a43-46e5-9a32-45c9f9a499f8","system_id":"levelo_inurba_marseille","lat":43.30133,"lon":5.39851,"is_reserved":false,"is_disabled":false,"rental_uris":{"android":"levelo://app?vid=90909669-7a43-46e5-9a32-45c9f9a499f8","ios":"levelo://app?vid=90909669-7a43-46e5-9a32-45c9f9a499f8"},"vehicle_type_id":"4","last_reported":1779318234,"current_range_meters":8400,"station_id":"ce4bh0h2rcd13ifvqd40","pricing_plan_id":"cebpf4jnsgd1na2vs0mg"},{"bike_id":"41d55f64-564a-478e-9515-bd2146133ca8","system_id":"levelo_inurba_marseille","lat":43.2859,"lon":5.39946,"is_reserved":false,"is_disabled":false,"rental_uris":{"android":"levelo://app?vid=41d55f64-564a-478e-9515-bd2146133ca8","ios":"levelo://app?vid=41d55f64-564a-478e-9515-bd2146133ca8"},"vehicle_type_id":"4","last_reported":1779318234,"current_range_meters":8400,"station_id":"","pricing_plan_id":"cebpf4jnsgd1na2vs0mg"},{"bike_id":"94c49980-82e9-40c1-8742-79af726fe66b","system_id":"levelo_inurba_marseille","lat":43.29884,"lon":5.42092,"is_reserved":false,"is_disabled":false,"rental_uris":{"android":"levelo://app?vid=94c49980-82e9-40c1-8742-79af726fe66b","ios":"levelo://app?vid=94c49980-82e9-40c1-8742-79af726fe66b"},"vehicle_type_id":"4","last_reported":1779318234,"current_range_meters":8400,"station_id":"st_d6tc004otcvc738tfe70","pricing_plan_id":"cebpf4jnsgd1na2vs0mg"},{"bike_id":"4cc306f1-4e1b-469c-9daa-9c4ee4ee3409","system_id":"levelo_inurba_marseille","lat":43.299385,"lon":5.398471,"is_reserved":false,"is_disabled":false,"rental_uris":{"android":"levelo://app?vid=4cc306f1-4e1b-469c-9daa-9c4ee4ee3409","ios":"levelo://app?vid=4cc306f1-4e1b-469c-9daa-9c4ee4ee3409"},"vehicle_type_id":"4","last_reported":1779318234,"current_range_meters":8400,"station_id":"","pricing_plan_id":"cebpf4jnsgd1na2vs0mg"},{"bike_id":"2c5c64bf-711f-4bd8-992c-6aa244c03a61","system_id":"levelo_inurba_marseille","lat":43.2959,"lon":5.38176,"is_reserved":false,"is_disabled":true,"rental_uris":{"android":"levelo://app?vid=2c5c64bf-711f-4bd8-992c-6aa244c03a61","ios":"levelo://app?vid=2c5c64bf-711f-4bd8-992c-6aa244c03a61"},"vehicle_type_id":"4","last_reported":1779318234,"current_range_meters":8400,"station_id":"ce4bgl12rcd13ifvqbo0","pricing_plan_id":"cebpf4jnsgd1na2vs0mg"},{"bike_id":"a7663cb0-bdf2-4f00-9897-79ffa21a4db5","system_id":"levelo_inurba_marseille","lat":43.29562,"lon":5.39028,"is_reserved":false,"is_disabled":false,"rental_uris":{"android":"levelo://app?vid=a7663cb0-bdf2-4f00-9897-79ffa21a4db5","ios":"levelo://app?vid=a7663cb0-bdf2-4f00-9897-79ffa21a4db5"},"vehicle_type_id":"4","last_reported":1779318234,"current_range_meters":8400,"station_id":"","pricing_plan_id":"cebpf4jnsgd1na2vs0mg"},{"bike_id":"3a636bf3-84e4-4339-9994-403a1263860e","system_id":"levelo_inurba_marseille","lat":43.27826,"lon":5.39187,"is_reserved":false,"is_disabled":false,"rental_uris":{"android":"levelo://app?vid=3a636bf3-84e4-4339-9994-403a1263860e","ios":"levelo://app?vid=3a636bf3-84e4-4339-9994-403a1263860e"},"vehicle_type_id":"4","last_reported":1779318234,"current_range_meters":8400,"station_id":"ce4bhjp2rcd13ifvqga0","pricing_plan_id":"cebpf4jnsgd1na2vs0mg"},{"bike_id":"3fda13dd-62eb-4101-a611-c63297cf5d15","system_id":"levelo_inurba_marseille","lat":43.28697,"lon":5.373857,"is_reserved":false,"is_disabled":false,"rental_uris":{"android":"levelo://app?vid=3fda13dd-62eb-4101-a611-c63297cf5d15","ios":"levelo://app?vid=3fda13dd-62eb-4101-a611-c63297cf5d15"},"vehicle_type_id":"4","last_reported":1779318234,"current_range_meters":8400,"station_id":"ce4bh3p2rcd13ifvqdq0","pricing_plan_id":"cebpf4jnsgd1na2vs0mg"},{"bike_id":"2841de83-224d-4a3c-99b6-db495d1adef1","system_id":"levelo_inurba_marseille","lat":43.30631,"lon":5.4005,"is_reserved":false,"is_disabled":false,"rental_uris":{"android":"levelo://app?vid=2841de83-224d-4a3c-99b6-db495d1adef1","ios":"levelo://app?vid=2841de83-224d-4a3c-99b6-db495d1adef1"},"vehicle_type_id":"4","last_reported":1779318234,"current_range_meters":8400,"station_id":"ce4bh112rcd13ifvqda0","pricing_plan_id":"cebpf4jnsgd1na2vs0mg"},{"bike_id":"d0eb42b4-0ee2-41e6-bae8-9a2993c57c45","system_id":"levelo_inurba_marseille","lat":43.30926,"lon":5.40156,"is_reserved":false,"is_disabled":false,"rental_uris":{"android":"levelo://app?vid=d0eb42b4-0ee2-41e6-bae8-9a2993c57c45","ios":"levelo://app?vid=d0eb42b4-0ee2-41e6-bae8-9a2993c57c45"},"vehicle_type_id":"4","last_reported":1779318234,"current_range_meters":8400,"station_id":"ce4bgvp2rcd13ifvqct0","pricing_plan_id":"cebpf4jnsgd1na2vs0mg"},{"bike_id":"2c2f2607-cd7b-439c-b16b-459a4264ed42","system_id":"levelo_inurba_marseille","lat":43.29916,"lon":5.38142,"is_reserved":false,"is_disabled":false,"rental_uris":{"android":"levelo://app?vid=2c2f2607-cd7b-439c-b16b-459a4264ed42","ios":"levelo://app?vid=2c2f2607-cd7b-439c-b16b-459a4264ed42"},"vehicle_type_id":"4","last_reported":1779318234,"current_range_meters":8400,"station_id":"ce4bgj12rcd13ifvqbc0","pricing_plan_id":"cebpf4jnsgd1na2vs0mg"},{"bike_id":"f5cb4d68-7d11-462a-9a79-caf807b8b29a","system_id":"levelo_inurba_marseille","lat":43.30296,"lon":5.39224,"is_reserved":false,"is_disabled":false,"rental_uris":{"android":"levelo://app?vid=f5cb4d68-7d11-462a-9a79-caf807b8b29a","ios":"levelo://app?vid=f5cb4d68-7d11-462a-9a79-caf807b8b29a"},"vehicle_type_id":"4","last_reported":1779318234,"current_range_meters":8400,"station_id":"ce4bgkh2rcd13ifvqbk0","pricing_plan_id":"cebpf4jnsgd1na2vs0mg"},{"bike_id":"12481d7b-ca53-44d2-a72d-3641cbe06950","system_id":"levelo_inurba_marseille","lat":43.29914,"lon":5.41122,"is_reserved":false,"is_disabled":false,"rental_uris":{"android":"levelo://app?vid=12481d7b-ca53-44d2-a72d-3641cbe06950","ios":"levelo://app?vid=12481d7b-ca53-44d2-a72d-3641cbe06950"},"vehicle_type_id":"4","last_reported":1779318234,"current_range_meters":8400,"station_id":"","pricing_plan_id":"cebpf4jnsgd1na2vs0mg"},{"bike_id":"7ddbe22d-bab8-4335-82e8-2d5c4a9070a9","system_id":"levelo_inurba_marseille","lat":43.2546,"lon":5.41551,"is_reserved":false,"is_disabled":false,"rental_uris":{"android":"levelo://app?vid=7ddbe22d-bab8-4335-82e8-2d5c4a9070a9","ios":"levelo://app?vid=7ddbe22d-bab8-4335-82e8-2d5c4a9070a9"},"vehicle_type_id":"4","last_reported":1779318234,"current_range_meters":8400,"station_id":"","pricing_plan_id":"cebpf4jnsgd1na2vs0mg"},{"bike_id":"87992c88-ecb9-429e-8c45-8a21961af2b1","system_id":"levelo_inurba_marseille","lat":43.29523,"lon":5.394,"is_reserved":false,"is_disabled":false,"rental_uris":{"android":"levelo://app?vid=87992c88-ecb9-429e-8c45-8a21961af2b1","ios":"levelo://app?vid=87992c88-ecb9-429e-8c45-8a21961af2b1"},"vehicle_type_id":"4","last_reported":1779318234,"current_range_meters":8400,"station_id":"ce4bh292rcd13ifvqdf0","pricing_plan_id":"cebpf4jnsgd1na2vs0mg"},{"bike_id":"d4489d0a-9da0-4121-b07e-4f2cd7660fd1","system_id":"levelo_inurba_marseille","lat":43.24366,"lon":5.37083,"is_reserved":false,"is_disabled":false,"rental_uris":{"android":"levelo://app?vid=d4489d0a-9da0-4121-b07e-4f2cd7660fd1","ios":"levelo://app?vid=d4489d0a-9da0-4121-b07e-4f2cd7660fd1"},"vehicle_type_id":"4","last_reported":1779318234,"current_range_meters":8400,"station_id":"ce4bhhh2rcd13ifvqfk0","pricing_plan_id":"cebpf4jnsgd1na2vs0mg"},{"bike_id":"38567cb0-51a6-4e45-8cea-a98ef4eda7dc","system_id":"levelo_inurba_marseille","lat":43.31477,"lon":5.37308,"is_reserved":false,"is_disabled":false,"rental_uris":{"android":"levelo://app?vid=38567cb0-51a6-4e45-8cea-a98ef4eda7dc","ios":"levelo://app?vid=38567cb0-51a6-4e45-8cea-a98ef4eda7dc"},"vehicle_type_id":"4","last_reported":1779318234,"current_range_meters":8400,"station_id":"ce4bgt12rcd13ifvqcd0","pricing_plan_id":"cebpf4jnsgd1na2vs0mg"},{"bike_id":"9f432327-a270-4644-9d90-81465373164f","system_id":"levelo_inurba_marseille","lat":43.29027,"lon":5.39996,"is_reserved":false,"is_disabled":false,"rental_uris":{"android":"levelo://app?vid=9f432327-a270-4644-9d90-81465373164f","ios":"levelo://app?vid=9f432327-a270-4644-9d90-81465373164f"},"vehicle_type_id":"4","last_reported":1779318234,"current_range_meters":8400,"station_id":"ce4bh392rcd13ifvqdm0","pricing_plan_id":"cebpf4jnsgd1na2vs0mg"},{"bike_id":"72bee0bb-8dc4-495d-b327-1c8db4123867","system_id":"levelo_inurba_marseille","lat":43.2681,"lon":5.40299,"is_reserved":false,"is_disabled":false,"rental_uris":{"android":"levelo://app?vid=72bee0bb-8dc4-495d-b327-1c8db4123867","ios":"levelo://app?vid=72bee0bb-8dc4-495d-b327-1c8db4123867"},"vehicle_type_id":"4","last_reported":1779318234,"current_range_meters":8400,"station_id":"ce501612rcd8frsf0b60","pricing_plan_id":"cebpf4jnsgd1na2vs0mg"},{"bike_id":"2fdda9c5-5807-41e7-a64c-feadf07a903c","system_id":"levelo_inurba_marseille","lat":43.26378,"lon":5.41058,"is_reserved":false,"is_disabled":false,"rental_uris":{"android":"levelo://app?vid=2fdda9c5-5807-41e7-a64c-feadf07a903c","ios":"levelo://app?vid=2fdda9c5-5807-41e7-a64c-feadf07a903c"},"vehicle_type_id":"4","last_reported":1779318234,"current_range_meters":8400,"station_id":"st_d4e5ca6na9uc73bfl5fg","pricing_plan_id":"cebpf4jnsgd1na2vs0mg"},{"bike_id":"bac299b5-fc4e-424f-8c05-a5bbed976d4c","system_id":"levelo_inurba_marseille","lat":43.22534,"lon":5.34833,"is_reserved":false,"is_disabled":false,"rental_uris":{"android":"levelo://app?vid=bac299b5-fc4e-424f-8c05-a5bbed976d4c","ios":"levelo://app?vid=bac299b5-fc4e-424f-8c05-a5bbed976d4c"},"vehicle_type_id":"4","last_reported":1779318234,"current_range_meters":8400,"station_id":"st_cvj5dfep6f1abm77gieg","pricing_plan_id":"cebpf4jnsgd1na2vs0mg"},{"bike_id":"cdc99775-2a76-4038-973d-58172b6f2b92","system_id":"levelo_inurba_marseille","lat":43.2901,"lon":5.35611,"is_reserved":false,"is_disabled":true,"rental_uris":{"android":"levelo://app?vid=cdc99775-2a76-4038-973d-58172b6f2b92","ios":"levelo://app?vid=cdc99775-2a76-4038-973d-58172b6f2b92"},"vehicle_type_id":"4","last_reported":1779318234,"current_range_meters":8400,"station_id":"ce4bhb92rcd13ifvqen0","pricing_plan_id":"cebpf4jnsgd1na2vs0mg"},{"bike_id":"722a63ef-9893-40dc-8866-7c604203f7f1","system_id":"levelo_inurba_marseille","lat":43.30444,"lon":5.38906,"is_reserved":false,"is_disabled":false,"rental_uris":{"android":"levelo://app?vid=722a63ef-9893-40dc-8866-7c604203f7f1","ios":"levelo://app?vid=722a63ef-9893-40dc-8866-7c604203f7f1"},"vehicle_type_id":"4","last_reported":1779318234,"current_range_meters":8400,"station_id":"ce4bgk12rcd13ifvqbi0","pricing_plan_id":"cebpf4jnsgd1na2vs0mg"},{"bike_id":"574f98ab-1f57-456e-a741-64ec8fa6c3b2","system_id":"levelo_inurba_marseille","lat":43.2926,"lon":5.38437,"is_reserved":false,"is_disabled":true,"rental_uris":{"android":"levelo://app?vid=574f98ab-1f57-456e-a741-64ec8fa6c3b2","ios":"levelo://app?vid=574f98ab-1f57-456e-a741-64ec8fa6c3b2"},"vehicle_type_id":"4","last_reported":1779318234,"current_range_meters":8400,"station_id":"ce4bh692rcd13ifvqea0","pricing_plan_id":"cebpf4jnsgd1na2vs0mg"},{"bike_id":"68d1f156-6a75-4a7b-b338-23ac86ac58a5","system_id":"levelo_inurba_marseille","lat":43.31275,"lon":5.40145,"is_reserved":false,"is_disabled":false,"rental_uris":{"android":"levelo://app?vid=68d1f156-6a75-4a7b-b338-23ac86ac58a5","ios":"levelo://app?vid=68d1f156-6a75-4a7b-b338-23ac86ac58a5"},"vehicle_type_id":"4","last_reported":1779318234,"current_range_meters":8400,"station_id":"ce4bh092rcd13ifvqd30","pricing_plan_id":"cebpf4jnsgd1na2vs0mg"},{"bike_id":"1ca95aee-a991-4a29-b8d4-54ec712d9fb3","system_id":"levelo_inurba_marseille","lat":43.28702,"lon":5.46691,"is_reserved":false,"is_disabled":false,"rental_uris":{"android":"levelo://app?vid=1ca95aee-a991-4a29-b8d4-54ec712d9fb3","ios":"levelo://app?vid=1ca95aee-a991-4a29-b8d4-54ec712d9fb3"},"vehicle_type_id":"4","last_reported":1779318234,"current_range_meters":8400,"station_id":"st_d6tc3vkotcvc738tfjhg","pricing_plan_id":"cebpf4jnsgd1na2vs0mg"},{"bike_id":"0b9fb95c-cf6b-4ed5-8bf4-759fc5a571cc","system_id":"levelo_inurba_marseille","lat":43.26857,"lon":5.40663,"is_reserved":false,"is_disabled":false,"rental_uris":{"android":"levelo://app?vid=0b9fb95c-cf6b-4ed5-8bf4-759fc5a571cc","ios":"levelo://app?vid=0b9fb95c-cf6b-4ed5-8bf4-759fc5a571cc"},"vehicle_type_id":"4","last_reported":1779318234,"current_range_meters":8400,"station_id":"","pricing_plan_id":"cebpf4jnsgd1na2vs0mg"},{"bike_id":"94d363c9-eb9c-491d-8b21-9b20b513e8f4","system_id":"levelo_inurba_marseille","lat":43.24668,"lon":5.38129,"is_reserved":false,"is_disabled":false,"rental_uris":{"android":"levelo://app?vid=94d363c9-eb9c-491d-8b21-9b20b513e8f4","ios":"levelo://app?vid=94d363c9-eb9c-491d-8b21-9b20b513e8f4"},"vehicle_type_id":"4","last_reported":1779318234,"current_range_meters":8400,"station_id":"ce4bhih2rcd13ifvqfr0","pricing_plan_id":"cebpf4jnsgd1na2vs0mg"},{"bike_id":"b7348f1b-4d89-4109-a6da-ee1d816f8563","system_id":"levelo_inurba_marseille","lat":43.29398,"lon":5.38752,"is_reserved":false,"is_disabled":false,"rental_uris":{"android":"levelo://app?vid=b7348f1b-4d89-4109-a6da-ee1d816f8563","ios":"levelo://app?vid=b7348f1b-4d89-4109-a6da-ee1d816f8563"},"vehicle_type_id":"4","last_reported":1779318234,"current_range_meters":8400,"station_id":"","pricing_plan_id":"cebpf4jnsgd1na2vs0mg"},{"bike_id":"aa38e8c5-77de-4d3e-a591-d4ff2702b5f8","system_id":"levelo_inurba_marseille","lat":43.30312,"lon":5.39188,"is_reserved":false,"is_disabled":false,"rental_uris":{"android":"levelo://app?vid=aa38e8c5-77de-4d3e-a591-d4ff2702b5f8","ios":"levelo://app?vid=aa38e8c5-77de-4d3e-a591-d4ff2702b5f8"},"vehicle_type_id":"4","last_reported":1779318234,"current_range_meters":8400,"station_id":"ce4bgkh2rcd13ifvqbk0","pricing_plan_id":"cebpf4jnsgd1na2vs0mg"},{"bike_id":"615c49a8-b4db-44a4-9999-da0b264dbd08","system_id":"levelo_inurba_marseille","lat":43.25867,"lon":5.39878,"is_reserved":false,"is_disabled":false,"rental_uris":{"android":"levelo://app?vid=615c49a8-b4db-44a4-9999-da0b264dbd08","ios":"levelo://app?vid=615c49a8-b4db-44a4-9999-da0b264dbd08"},"vehicle_type_id":"4","last_reported":1779318234,"current_range_meters":8400,"station_id":"ce4bhl92rcd13ifvqghg","pricing_plan_id":"cebpf4jnsgd1na2vs0mg"},{"bike_id":"5a297e80-d2f0-4fb4-9886-093528a3567a","system_id":"levelo_inurba_marseille","lat":43.3147,"lon":5.37372,"is_reserved":false,"is_disabled":true,"rental_uris":{"android":"levelo://app?vid=5a297e80-d2f0-4fb4-9886-093528a3567a","ios":"levelo://app?vid=5a297e80-d2f0-4fb4-9886-093528a3567a"},"vehicle_type_id":"4","last_reported":1779318234,"current_range_meters":8800,"station_id":"","pricing_plan_id":"cebpf4jnsgd1na2vs0mg"},{"bike_id":"7e2325cb-0e1c-4598-851a-c8d5a31023ae","system_id":"levelo_inurba_marseille","lat":43.29891,"lon":5.39731,"is_reserved":false,"is_disabled":false,"rental_uris":{"android":"levelo://app?vid=7e2325cb-0e1c-4598-851a-c8d5a31023ae","ios":"levelo://app?vid=7e2325cb-0e1c-4598-851a-c8d5a31023ae"},"vehicle_type_id":"4","last_reported":1779318234,"current_range_meters":8800,"station_id":"ce4bh0h2rcd13ifvqd50","pricing_plan_id":"cebpf4jnsgd1na2vs0mg"},{"bike_id":"77b1acc3-de39-40aa-939c-5c95431b22b9","system_id":"levelo_inurba_marseille","lat":43.28731,"lon":5.39961,"is_reserved":false,"is_disabled":false,"rental_uris":{"android":"levelo://app?vid=77b1acc3-de39-40aa-939c-5c95431b22b9","ios":"levelo://app?vid=77b1acc3-de39-40aa-939c-5c95431b22b9"},"vehicle_type_id":"4","last_reported":1779318234,"current_range_meters":8800,"station_id":"ce4bho92rcd13ifvqh3g","pricing_plan_id":"cebpf4jnsgd1na2vs0mg"},{"bike_id":"0958d9eb-dcbe-4823-8eea-5d41935725c1","system_id":"levelo_inurba_marseille","lat":43.28458,"lon":5.35871,"is_reserved":false,"is_disabled":false,"rental_uris":{"android":"levelo://app?vid=0958d9eb-dcbe-4823-8eea-5d41935725c1","ios":"levelo://app?vid=0958d9eb-dcbe-4823-8eea-5d41935725c1"},"vehicle_type_id":"4","last_reported":1779318234,"current_range_meters":8800,"station_id":"ce4bhah2rcd13ifvqei0","pricing_plan_id":"cebpf4jnsgd1na2vs0mg"},{"bike_id":"477c5db0-ace8-4c76-8cdd-10ccb6337664","system_id":"levelo_inurba_marseille","lat":43.30937,"lon":5.40138,"is_reserved":false,"is_disabled":false,"rental_uris":{"android":"levelo://app?vid=477c5db0-ace8-4c76-8cdd-10ccb6337664","ios":"levelo://app?vid=477c5db0-ace8-4c76-8cdd-10ccb6337664"},"vehicle_type_id":"4","last_reported":1779318234,"current_range_meters":8800,"station_id":"ce4bgvp2rcd13ifvqct0","pricing_plan_id":"cebpf4jnsgd1na2vs0mg"},{"bike_id":"ab3cff16-245f-4723-82b6-b729751ed010","system_id":"levelo_inurba_marseille","lat":43.30891,"lon":5.40172,"is_reserved":false,"is_disabled":false,"rental_uris":{"android":"levelo://app?vid=ab3cff16-245f-4723-82b6-b729751ed010","ios":"levelo://app?vid=ab3cff16-245f-4723-82b6-b729751ed010"},"vehicle_type_id":"4","last_reported":1779318234,"current_range_meters":8800,"station_id":"","pricing_plan_id":"cebpf4jnsgd1na2vs0mg"},