{"last_updated":1727266636,"ttl":60,"version":"2.2","data":{"bikes":[{"bike_id":"82daf3e6-22ba-455b-a5f2-5bb273d17fdb","system_id":"levelo_inurba_marseille","lat":43.28008,"lon":5.4,"is_reserved":false,"is_disabled":false,"rental_uris":{"android":"levelo://app?vid=82daf3e6-22ba-455b-a5f2-5bb273d17fdb","ios":"levelo://app?vid=82daf3e6-22ba-455b-a5f2-5bb273d17fdb"},"vehicle_type_id":"4","last_reported":1727266636,"current_range_meters":22800,"station_id":"ce4bho92rcd13ifvqh4g","pricing_plan_id":"cebpf4jnsgd1na2vs0mg"},{"bike_id":"25462338-bf6f-47a9-b5a8-6eb58cc72396","system_id":"levelo_inurba_marseille","lat":43.28941,"lon":5.36637,"is_reserved":false,"is_disabled":false,"rental_uris":{"android":"levelo://app?vid=25462338-bf6f-47a9-b5a8-6eb58cc72396","ios":"levelo://app?vid=25462338-bf6f-47a9-b5a8-6eb58cc72396"},"vehicle_type_id":"4","last_reported":1727266636,"current_range_meters":20000,"station_id":"ce4bhap2rcd13ifvqek0","pricing_plan_id":"cebpf4jnsgd1na2vs0mg"},{"bike_id":"6109ada7-505d-440e-a420-8d4d66c41f19","system_id":"levelo_inurba_marseille","lat":43.27438,"lon":5.42467,"is_reserved":false,"is_disabled":false,"rental_uris":{"android":"levelo://app?vid=6109ada7-505d-440e-a420-8d4d66c41f19","ios":"levelo://app?vid=6109ada7-505d-440e-a420-8d4d66c41f19"},"vehicle_type_id":"4","last_reported":1727266636,"current_range_meters":24800,"station_id":"","pricing_plan_id":"cebpf4jnsgd1na2vs0mg"},{"bike_id":"1035aa74-604a-43b2-bfcc-ffbd3a1cb238","system_id":"levelo_inurba_marseille","lat":43.25097,"lon":5.40303,"is_reserved":false,"is_disabled":false,"rental_uris":{"android":"levelo://app?vid=1035aa74-604a-43b2-bfcc-ffbd3a1cb238","ios":"levelo://app?vid=1035aa74-604a-43b2-bfcc-ffbd3a1cb238"},"vehicle_type_id":"4","last_reported":1727266636,"current_range_meters":39200,"station_id":"ce4bhlh2rcd13ifvqgig","pricing_plan_id":"cebpf4jnsgd1na2vs0mg"},{"bike_id":"eca8fdfc-30c1-4a31-93fb-82b6ae36ac3f","system_id":"levelo_inurba_marseille","lat":43.23183,"lon":5.39989,"is_reserved":false,"is_disabled":false,"rental_uris":{"android":"levelo://app?vid=eca8fdfc-30c1-4a31-93fb-82b6ae36ac3f","ios":"levelo://app?vid=eca8fdfc-30c1-4a31-93fb-82b6ae36ac3f"},"vehicle_type_id":"4","last_reported":1727266636,"current_range_meters":35200,"station_id":"ce4bhn12rcd13ifvqgqg","pricing_plan_id":"cebpf4jnsgd1na2vs0mg"},{"bike_id":"ef783995-369e-4e3d-86dd-db5168584640","system_id":"levelo_inurba_marseille","lat":43.30913,"lon":5.36837,"is_reserved":false,"is_disabled":false,"rental_uris":{"android":"levelo://app?vid=ef783995-369e-4e3d-86dd-db5168584640","ios":"levelo://app?vid=ef783995-369e-4e3d-86dd-db5168584640"},"vehicle_type_id":"4","last_reported":1727266636,"current_range_meters":15200,"station_id":"ce4bgn92rcd13ifvqbvg","pricing_plan_id":"cebpf4jnsgd1na2vs0mg"},{"bike_id":"3c49ec60-211c-474c-8bed-18f06ca8bf5b","system_id":"levelo_inurba_marseille","lat":43.25116,"lon":5.40318,"is_reserved":false,"is_disabled":false,"rental_uris":{"android":"levelo://app?vid=3c49ec60-211c-474c-8bed-18f06ca8bf5b","ios":"levelo://app?vid=3c49ec60-211c-474c-8bed-18f06ca8bf5b"},"vehicle_type_id":"4","last_reported":1727266636,"current_range_meters":38000,"station_id":"ce4bhlh2rcd13ifvqgig","pricing_plan_id":"cebpf4jnsgd1na2vs0mg"},{"bike_id":"f7a338af-1395-4aab-9a8f-5f637cc6b9d3","system_id":"levelo_inurba_marseille","lat":43.309016,"lon":5.368623,"is_reserved":false,"is_disabled":false,"rental_uris":{"android":"levelo://app?vid=f7a338af-1395-4aab-9a8f-5f637cc6b9d3","ios":"levelo://app?vid=f7a338af-1395-4aab-9a8f-5f637cc6b9d3"},"vehicle_type_id":"4","last_reported":1727266636,"current_range_meters":22000,"station_id":"ce4bgn92rcd13ifvqbvg","pricing_plan_id":"cebpf4jnsgd1na2vs0mg"},{"bike_id":"6192e6f9-fb09-4714-ad9f-6b6b67f26390","system_id":"levelo_inurba_marseille","lat":43.28982,"lon":5.37829,"is_reserved":false,"is_disabled":false,"rental_uris":{"android":"levelo://app?vid=6192e6f9-fb09-4714-ad9f-6b6b67f26390","ios":"levelo://app?vid=6192e6f9-fb09-4714-ad9f-6b6b67f26390"},"vehicle_type_id":"4","last_reported":1727266636,"current_range_meters":20800,"station_id":"ce4bh9p2rcd13ifvqed0","pricing_plan_id":"cebpf4jnsgd1na2vs0mg"},{"bike_id":"b3b4ffea-4a69-495a-b61a-866742dfd2d7","system_id":"levelo_inurba_marseille","lat":43.33774,"lon":5.37437,"is_reserved":false,"is_disabled":false,"rental_uris":{"android":"levelo://app?vid=b3b4ffea-4a69-495a-b61a-866742dfd2d7","ios":"levelo://app?vid=b3b4ffea-4a69-495a-b61a-866742dfd2d7"},"vehicle_type_id":"4","last_reported":1727266636,"current_range_meters":33600,"station_id":"","pricing_plan_id":"cebpf4jnsgd1na2vs0mg"},{"bike_id":"25efd241-95d4-4957-9414-50676d4f1256","system_id":"levelo_inurba_marseille","lat":43.32665,"lon":5.40989,"is_reserved":false,"is_disabled":false,"rental_uris":{"android":"levelo://app?vid=25efd241-95d4-4957-9414-50676d4f1256","ios":"levelo://app?vid=25efd241-95d4-4957-9414-50676d4f1256"},"vehicle_type_id":"4","last_reported":1727266636,"current_range_meters":37600,"station_id":"ce4bhpp2rcd13ifvqhgg","pricing_plan_id":"cebpf4jnsgd1na2vs0mg"},{"bike_id":"c27e1a31-5943-4053-bcda-4856339859f1","system_id":"levelo_inurba_marseille","lat":43.28612,"lon":5.35106,"is_reserved":false,"is_disabled":false,"rental_uris":{"android":"levelo://app?vid=c27e1a31-5943-4053-bcda-4856339859f1","ios":"levelo://app?vid=c27e1a31-5943-4053-bcda-4856339859f1"},"vehicle_type_id":"4","last_reported":1727266636,"current_range_meters":35600,"station_id":"ce4bhch2rcd13ifvqeug","pricing_plan_id":"cebpf4jnsgd1na2vs0mg"},{"bike_id":"9926f8d4-52ff-41d7-995b-39e4b6d4cdc0","system_id":"levelo_inurba_marseille","lat":43.32487,"lon":5.36559,"is_reserved":false,"is_disabled":false,"rental_uris":{"android":"levelo://app?vid=9926f8d4-52ff-41d7-995b-39e4b6d4cdc0","ios":"levelo://app?vid=9926f8d4-52ff-41d7-995b-39e4b6d4cdc0"},"vehicle_type_id":"4","last_reported":1727266636,"current_range_meters":38800,"station_id":"ce4bhs12rcd13ifvqhvg","pricing_plan_id":"cebpf4jnsgd1na2vs0mg"},{"bike_id":"dc6defcc-b17f-4666-a1ab-13773ffe1834","system_id":"levelo_inurba_marseille","lat":43.30542,"lon":5.36555,"is_reserved":false,"is_disabled":false,"rental_uris":{"android":"levelo://app?vid=dc6defcc-b17f-4666-a1ab-13773ffe1834","ios":"levelo://app?vid=dc6defcc-b17f-4666-a1ab-13773ffe1834"},"vehicle_type_id":"4","last_reported":1727266636,"current_range_meters":16400,"station_id":"ce4bgs12rcd13ifvqcag","pricing_plan_id":"cebpf4jnsgd1na2vs0mg"},{"bike_id":"891f67ca-3177-449c-ad82-68ab5a464f63","system_id":"levelo_inurba_marseille","lat":43.24389,"lon":5.37052,"is_reserved":false,"is_disabled":false,"rental_uris":{"android":"levelo://app?vid=891f67ca-3177-449c-ad82-68ab5a464f63","ios":"levelo://app?vid=891f67ca-3177-449c-ad82-68ab5a464f63"},"vehicle_type_id":"4","last_reported":1727266636,"current_range_meters":28400,"station_id":"ce4bhhh2rcd13ifvqfk0","pricing_plan_id":"cebpf4jnsgd1na2vs0mg"},{"bike_id":"f5d7fabd-e40b-4775-8f6f-203938f28ec6","system_id":"levelo_inurba_marseille","lat":43.28846,"lon":5.3585,"is_reserved":false,"is_disabled":false,"rental_uris":{"android":"levelo://app?vid=f5d7fabd-e40b-4775-8f6f-203938f28ec6","ios":"levelo://app?vid=f5d7fabd-e40b-4775-8f6f-203938f28ec6"},"vehicle_type_id":"4","last_reported":1727266636,"current_range_meters":32000,"station_id":"ce4bhb12rcd13ifvqem0","pricing_plan_id":"cebpf4jnsgd1na2vs0mg"},{"bike_id":"aeea4805-d17d-4c4c-a385-15625beb0d39","system_id":"levelo_inurba_marseille","lat":43.30309,"lon":5.36909,"is_reserved":false,"is_disabled":false,"rental_uris":{"android":"levelo://app?vid=aeea4805-d17d-4c4c-a385-15625beb0d39","ios":"levelo://app?vid=aeea4805-d17d-4c4c-a385-15625beb0d39"},"vehicle_type_id":"4","last_reported":1727266636,"current_range_meters":38800,"station_id":"ce4bgqh2rcd13ifvqc5g","pricing_plan_id":"cebpf4jnsgd1na2vs0mg"},{"bike_id":"aa0c5329-bfb6-4b58-bb76-bcbc29575262","system_id":"levelo_inurba_marseille","lat":43.29935,"lon":5.36551,"is_reserved":false,"is_disabled":false,"rental_uris":{"android":"levelo://app?vid=aa0c5329-bfb6-4b58-bb76-bcbc29575262","ios":"levelo://app?vid=aa0c5329-bfb6-4b58-bb76-bcbc29575262"},"vehicle_type_id":"4","last_reported":1727266636,"current_range_meters":25200,"station_id":"ce4bgm92rcd13ifvqbr0","pricing_plan_id":"cebpf4jnsgd1na2vs0mg"},{"bike_id":"494a23ac-7f02-4098-b60b-599f478a0112","system_id":"levelo_inurba_marseille","lat":43.29026,"lon":5.3812,"is_reserved":false,"is_disabled":false,"rental_uris":{"android":"levelo://app?vid=494a23ac-7f02-4098-b60b-599f478a0112","ios":"levelo://app?vid=494a23ac-7f02-4098-b60b-599f478a0112"},"vehicle_type_id":"4","last_reported":1727266636,"current_range_meters":7200,"station_id":"ce4bh4p2rcd13ifvqe1g","pricing_plan_id":"cebpf4jnsgd1na2vs0mg"},{"bike_id":"9b6c9692-d65d-4cce-ab7d-dd22b3bc3630","system_id":"levelo_inurba_marseille","lat":43.32494,"lon":5.36674,"is_reserved":false,"is_disabled":false,"rental_uris":{"android":"levelo://app?vid=9b6c9692-d65d-4cce-ab7d-dd22b3bc3630","ios":"levelo://app?vid=9b6c9692-d65d-4cce-ab7d-dd22b3bc3630"},"vehicle_type_id":"4","last_reported":1727266636,"current_range_meters":32400,"station_id":"","pricing_plan_id":"cebpf4jnsgd1na2vs0mg"},{"bike_id":"81047cb8-e8ef-484d-bc58-d2aefeaefd09","system_id":"levelo_inurba_marseille","lat":43.30126,"lon":5.3985,"is_reserved":false,"is_disabled":false,"rental_uris":{"android":"levelo://app?vid=81047cb8-e8ef-484d-bc58-d2aefeaefd09","ios":"levelo://app?vid=81047cb8-e8ef-484d-bc58-d2aefeaefd09"},"vehicle_type_id":"4","last_reported":1727266636,"current_range_meters":11200,"station_id":"ce4bh0h2rcd13ifvqd40","pricing_plan_id":"cebpf4jnsgd1na2vs0mg"},{"bike_id":"5ed80275-baf9-4b4f-b823-14e41340c1d3","system_id":"levelo_inurba_marseille","lat":43.29166,"lon":5.37154,"is_reserved":false,"is_disabled":false,"rental_uris":{"android":"levelo://app?vid=5ed80275-baf9-4b4f-b823-14e41340c1d3","ios":"levelo://app?vid=5ed80275-baf9-4b4f-b823-14e41340c1d3"},"vehicle_type_id":"4","last_reported":1727266636,"current_range_meters":36800,"station_id":"ce4bha92rcd13ifvqeh0","pricing_plan_id":"cebpf4jnsgd1na2vs0mg"},{"bike_id":"7737b815-6daf-41f0-8354-4b28ba75917f","system_id":"levelo_inurba_marseille","lat":43.30189,"lon":5.39823,"is_reserved":false,"is_disabled":false,"rental_uris":{"android":"levelo://app?vid=7737b815-6daf-41f0-8354-4b28ba75917f","ios":"levelo://app?vid=7737b815-6daf-41f0-8354-4b28ba75917f"},"vehicle_type_id":"4","last_reported":1727266636,"current_range_meters":17600,"station_id":"ce4bgvp2rcd13ifvqct0","pricing_plan_id":"cebpf4jnsgd1na2vs0mg"},{"bike_id":"725961d3-4f01-41ca-95ee-8135790d31a9","system_id":"levelo_inurba_marseille","lat":43.27076,"lon":5.42268,"is_reserved":false,"is_disabled":false,"rental_uris":{"android":"levelo://app?vid=725961d3-4f01-41ca-95ee-8135790d31a9","ios":"levelo://app?vid=725961d3-4f01-41ca-95ee-8135790d31a9"},"vehicle_type_id":"4","last_reported":1727266636,"current_range_meters":15200,"station_id":"ce4bhk92rcd13ifvqgb0","pricing_plan_id":"cebpf4jnsgd1na2vs0mg"},{"bike_id":"d310761c-054e-492e-994a-731711a3d680","system_id":"levelo_inurba_marseille","lat":43.26687,"lon":5.38271,"is_reserved":false,"is_disabled":false,"rental_uris":{"android":"levelo://app?vid=d310761c-054e-492e-994a-731711a3d680","ios":"levelo://app?vid=d310761c-054e-492e-994a-731711a3d680"},"vehicle_type_id":"4","last_reported":1727266636,"current_range_meters":25600,"station_id":"ce4bhg92rcd13ifvqf90","pricing_plan_id":"cebpf4jnsgd1na2vs0mg"},{"bike_id":"836a9120-3836-4611-8ce4-eaea9bb5d922","system_id":"levelo_inurba_marseille","lat":43.26687,"lon":5.38261,"is_reserved":false,"is_disabled":false,"rental_uris":{"android":"levelo://app?vid=836a9120-3836-4611-8ce4-eaea9bb5d922","ios":"levelo://app?vid=836a9120-3836-4611-8ce4-eaea9bb5d922"},"vehicle_type_id":"4","last_reported":1727266636,"current_range_meters":2800,"station_id":"ce4bhg92rcd13ifvqf90","pricing_plan_id":"cebpf4jnsgd1na2vs0mg"},{"bike_id":"1a12c837-f89e-4ed8-8674-d39ae475ada8","system_id":"levelo_inurba_marseille","lat":43.26033,"lon":5.37548,"is_reserved":false,"is_disabled":false,"rental_uris":{"android":"levelo://app?vid=1a12c837-f89e-4ed8-8674-d39ae475ada8","ios":"levelo://app?vid=1a12c837-f89e-4ed8-8674-d39ae475ada8"},"vehicle_type_id":"4","last_reported":1727266636,"current_range_meters":37600,"station_id":"ce4bhgh2rcd13ifvqfa0","pricing_plan_id":"cebpf4jnsgd1na2vs0mg"},{"bike_id":"3b195df4-d71b-45c6-b4ee-0701cb9345da","system_id":"levelo_inurba_marseille","lat":43.30142,"lon":5.37421,"is_reserved":false,"is_disabled":false,"rental_uris":{"android":"levelo://app?vid=3b195df4-d71b-45c6-b4ee-0701cb9345da","ios":"levelo://app?vid=3b195df4-d71b-45c6-b4ee-0701cb9345da"},"vehicle_type_id":"4","last_reported":1727266636,"current_range_meters":27200,"station_id":"ce4bgs92rcd13ifvqcc0","pricing_plan_id":"cebpf4jnsgd1na2vs0mg"},{"bike_id":"f57f9a2b-463a-495e-b929-b7d110fc5488","system_id":"levelo_inurba_marseille","lat":43.2984,"lon":5.36265,"is_reserved":false,"is_disabled":false,"rental_uris":{"android":"levelo://app?vid=f57f9a2b-463a-495e-b929-b7d110fc5488","ios":"levelo://app?vid=f57f9a2b-463a-495e-b929-b7d110fc5488"},"vehicle_type_id":"4","last_reported":1727266636,"current_range_meters":12000,"station_id":"ce4bgpp2rcd13ifvqc3g","pricing_plan_id":"cebpf4jnsgd1na2vs0mg"},{"bike_id":"a6ef7b13-1aab-486c-9ca5-d5571ad66da7","system_id":"levelo_inurba_marseille","lat":43.25113,"lon":5.40327,"is_reserved":false,"is_disabled":false,"rental_uris":{"android":"levelo://app?vid=a6ef7b13-1aab-486c-9ca5-d5571ad66da7","ios":"levelo://app?vid=a6ef7b13-1aab-486c-9ca5-d5571ad66da7"},"vehicle_type_id":"4","last_reported":1727266636,"current_range_meters":24800,"station_id":"ce4bhlh2rcd13ifvqgig","pricing_plan_id":"cebpf4jnsgd1na2vs0mg"},{"bike_id":"e9e079ca-42fb-48ba-a6e1-682b20d310ce","system_id":"levelo_inurba_marseille","lat":43.23201,"lon":5.35546,"is_reserved":false,"is_disabled":false,"rental_uris":{"android":"levelo://app?vid=e9e079ca-42fb-48ba-a6e1-682b20d310ce","ios":"levelo://app?vid=e9e079ca-42fb-48ba-a6e1-682b20d310ce"},"vehicle_type_id":"4","last_reported":1727266636,"current_range_meters":28000,"station_id":"ce4bhu92rcd13ifvqi70","pricing_plan_id":"cebpf4jnsgd1na2vs0mg"},{"bike_id":"b2aaa312-27b6-4029-9bb8-b0e464c4b06f","system_id":"levelo_inurba_marseille","lat":43.29632,"lon":5.40584,"is_reserved":false,"is_disabled":false,"rental_uris":{"android":"levelo://app?vid=b2aaa312-27b6-4029-9bb8-b0e464c4b06f","ios":"levelo://app?vid=b2aaa312-27b6-4029-9bb8-b0e464c4b06f"},"vehicle_type_id":"4","last_reported":1727266636,"current_range_meters":2800,"station_id":"ce4bh0h2rcd13ifvqd60","pricing_plan_id":"cebpf4jnsgd1na2vs0mg"},{"bike_id":"695d25e3-ac6d-459d-b69e-9baa2718f7fe","system_id":"levelo_inurba_marseille","lat":43.29621,"lon":5.37724,"is_reserved":false,"is_disabled":false,"rental_uris":{"android":"levelo://app?vid=695d25e3-ac6d-459d-b69e-9baa2718f7fe","ios":"levelo://app?vid=695d25e3-ac6d-459d-b69e-9baa2718f7fe"},"vehicle_type_id":"4","last_reported":1727266636,"current_range_meters":38800,"station_id":"ce4bgi92rcd13ifvqb90","pricing_plan_id":"cebpf4jnsgd1na2vs0mg"},{"bike_id":"6d17349d-7578-4eee-8cc0-17bcddbaaca2","system_id":"levelo_inurba_marseille","lat":43.28463,"lon":5.35883,"is_reserved":false,"is_disabled":false,"rental_uris":{"android":"levelo://app?vid=6d17349d-7578-4eee-8cc0-17bcddbaaca2","ios":"levelo://app?vid=6d17349d-7578-4eee-8cc0-17bcddbaaca2"},"vehicle_type_id":"4","last_reported":1727266636,"current_range_meters":18000,"station_id":"ce4bhah2rcd13ifvqei0","pricing_plan_id":"cebpf4jnsgd1na2vs0mg"},{"bike_id":"7a8458d5-44ac-4f2e-abef-3f01eb31f7ca","system_id":"levelo_inurba_marseille","lat":43.337444,"lon":5.374475,"is_reserved":false,"is_disabled":false,"rental_uris":{"android":"levelo://app?vid=7a8458d5-44ac-4f2e-abef-3f01eb31f7ca","ios":"levelo://app?vid=7a8458d5-44ac-4f2e-abef-3f01eb31f7ca"},"vehicle_type_id":"4","last_reported":1727266636,"current_range_meters":25600,"station_id":"","pricing_plan_id":"cebpf4jnsgd1na2vs0mg"},{"bike_id":"300c6076-c425-4213-a44c-2ca78507b12e","system_id":"levelo_inurba_marseille","lat":43.22932,"lon":5.35373,"is_reserved":false,"is_disabled":false,"rental_uris":{"android":"levelo://app?vid=300c6076-c425-4213-a44c-2ca78507b12e","ios":"levelo://app?vid=300c6076-c425-4213-a44c-2ca78507b12e"},"vehicle_type_id":"4","last_reported":1727266636,"current_range_meters":14000,"station_id":"cpo3532slgdg3j2ikp40","pricing_plan_id":"cebpf4jnsgd1na2vs0mg"},{"bike_id":"5b80f534-31aa-493e-a7af-c5c257fa4e9e","system_id":"levelo_inurba_marseille","lat":43.29699,"lon":5.37282,"is_reserved":false,"is_disabled":false,"rental_uris":{"android":"levelo://app?vid=5b80f534-31aa-493e-a7af-c5c257fa4e9e","ios":"levelo://app?vid=5b80f534-31aa-493e-a7af-c5c257fa4e9e"},"vehicle_type_id":"4","last_reported":1727266636,"current_range_meters":38800,"station_id":"ce4bgk12rcd13ifvqbj0","pricing_plan_id":"cebpf4jnsgd1na2vs0mg"},{"bike_id":"a5bed6c7-0181-4d5a-bf16-c9aae083ea7a","system_id":"levelo_inurba_marseille","lat":43.27498,"lon":5.42451,"is_reserved":false,"is_disabled":false,"rental_uris":{"android":"levelo://app?vid=a5bed6c7-0181-4d5a-bf16-c9aae083ea7a","ios":"levelo://app?vid=a5bed6c7-0181-4d5a-bf16-c9aae083ea7a"},"vehicle_type_id":"4","last_reported":1727266636,"current_range_meters":27200,"station_id":"ce4bhn92rcd13ifvqgrg","pricing_plan_id":"cebpf4jnsgd1na2vs0mg"},{"bike_id":"0b1e4c37-3578-47d3-9fbc-3d280b331de0","system_id":"levelo_inurba_marseille","lat":43.33736,"lon":5.37443,"is_reserved":false,"is_disabled":false,"rental_uris":{"android":"levelo://app?vid=0b1e4c37-3578-47d3-9fbc-3d280b331de0","ios":"levelo://app?vid=0b1e4c37-3578-47d3-9fbc-3d280b331de0"},"vehicle_type_id":"4","last_reported":1727266636,"current_range_meters":10000,"station_id":"","pricing_plan_id":"cebpf4jnsgd1na2vs0mg"},{"bike_id":"9b5414fb-06c9-40d1-b908-960caef5868a","system_id":"levelo_inurba_marseille","lat":43.31698,"lon":5.4047,"is_reserved":false,"is_disabled":false,"rental_uris":{"android":"levelo://app?vid=9b5414fb-06c9-40d1-b908-960caef5868a","ios":"levelo://app?vid=9b5414fb-06c9-40d1-b908-960caef5868a"},"vehicle_type_id":"4","last_reported":1727266636,"current_range_meters":32800,"station_id":"ce4bh012rcd13ifvqd00","pricing_plan_id":"cebpf4jnsgd1na2vs0mg"},{"bike_id":"3f33dcb4-629a-4d3d-903a-65a7237a5402","system_id":"levelo_inurba_marseille","lat":43.31324,"lon":5.39699,"is_reserved":false,"is_disabled":false,"rental_uris":{"android":"levelo://app?vid=3f33dcb4-629a-4d3d-903a-65a7237a5402","ios":"levelo://app?vid=3f33dcb4-629a-4d3d-903a-65a7237a5402"},"vehicle_type_id":"4","last_reported":1727266636,"current_range_meters":17200,"station_id":"ce4bgvp2rcd13ifvqcu0","pricing_plan_id":"cebpf4jnsgd1na2vs0mg"},{"bike_id":"e43397a9-a2a5-418d-a127-80a08ae4dffc","system_id":"levelo_inurba_marseille","lat":43.28706,"lon":5.37393,"is_reserved":false,"is_disabled":false,"rental_uris":{"android":"levelo://app?vid=e43397a9-a2a5-418d-a127-80a08ae4dffc","ios":"levelo://app?vid=e43397a9-a2a5-418d-a127-80a08ae4dffc"},"vehicle_type_id":"4","last_reported":1727266636,"current_range_meters":39200,"station_id":"ce4bh3p2rcd13ifvqdq0","pricing_plan_id":"cebpf4jnsgd1na2vs0mg"},{"bike_id":"c9caa42e-e8a7-4b6e-b172-795704959513","system_id":"levelo_inurba_marseille","lat":43.30906,"lon":5.3685,"is_reserved":false,"is_disabled":false,"rental_uris":{"android":"levelo://app?vid=c9caa42e-e8a7-4b6e-b172-795704959513","ios":"levelo://app?vid=c9caa42e-e8a7-4b6e-b172-795704959513"},"vehicle_type_id":"4","last_reported":1727266636,"current_range_meters":32000,"station_id":"ce4bgn92rcd13ifvqbvg","pricing_plan_id":"cebpf4jnsgd1na2vs0mg"},{"bike_id":"4d5bb3c5-a36f-495b-a3bb-d6b2fa8e2bf4","system_id":"levelo_inurba_marseille","lat":43.29231,"lon":5.36119,"is_reserved":false,"is_disabled":false,"rental_uris":{"android":"levelo://app?vid=4d5bb3c5-a36f-495b-a3bb-d6b2fa8e2bf4","ios":"levelo://app?vid=4d5bb3c5-a36f-495b-a3bb-d6b2fa8e2bf4"},"vehicle_type_id":"4","last_reported":1727266636,"current_range_meters":14400,"station_id":"ce4bhb12rcd13ifvqel0","pricing_plan_id":"cebpf4jnsgd1na2vs0mg"},{"bike_id":"5bcbf6d3-46d4-4c79-9dd2-d1229cd3d5e6","system_id":"levelo_inurba_marseille","lat":43.29575,"lon":5.37495,"is_reserved":false,"is_disabled":false,"rental_uris":{"android":"levelo://app?vid=5bcbf6d3-46d4-4c79-9dd2-d1229cd3d5e6","ios":"levelo://app?vid=5bcbf6d3-46d4-4c79-9dd2-d1229cd3d5e6"},"vehicle_type_id":"4","last_reported":1727266636,"current_range_meters":39200,"station_id":"ce4bgh92rcd13ifvqb50","pricing_plan_id":"cebpf4jnsgd1na2vs0mg"},{"bike_id":"ef848ce3-9705-4c32-9972-e7ba056b4ea0","system_id":"levelo_inurba_marseille","lat":43.29577,"lon":5.37502,"is_reserved":false,"is_disabled":false,"rental_uris":{"android":"levelo://app?vid=ef848ce3-9705-4c32-9972-e7ba056b4ea0","ios":"levelo://app?vid=ef848ce3-9705-4c32-9972-e7ba056b4ea0"},"vehicle_type_id":"4","last_reported":1727266636,"current_range_meters":13600,"station_id":"ce4bgh92rcd13ifvqb50","pricing_plan_id":"cebpf4jnsgd1na2vs0mg"},{"bike_id":"07bfc4b5-d2bc-426f-ac4f-91d7fb48115a","system_id":"levelo_inurba_marseille","lat":43.32487,"lon":5.36559,"is_reserved":false,"is_disabled":false,"rental_uris":{"android":"levelo://app?vid=07bfc4b5-d2bc-426f-ac4f-91d7fb48115a","ios":"levelo://app?vid=07bfc4b5-d2bc-426f-ac4f-91d7fb48115a"},"vehicle_type_id":"4","last_reported":1727266636,"current_range_meters":36400,"station_id":"ce4bhs12rcd13ifvqhvg","pricing_plan_id":"cebpf4jnsgd1na2vs0mg"},{"bike_id":"2b91a84e-a424-4342-8b8f-74aaffa62f3c","system_id":"levelo_inurba_marseille","lat":43.25585,"lon":5.38224,"is_reserved":false,"is_disabled":false,"rental_uris":{"android":"levelo://app?vid=2b91a84e-a424-4342-8b8f-74aaffa62f3c","ios":"levelo://app?vid=2b91a84e-a424-4342-8b8f-74aaffa62f3c"},"vehicle_type_id":"4","last_reported":1727266636,"current_range_meters":27600,"station_id":"ce4bhih2rcd13ifvqfs0","pricing_plan_id":"cebpf4jnsgd1na2vs0mg"},{"bike_id":"2ad4c575-ab5c-480b-9a5b-726ca3ebfda6","system_id":"levelo_inurba_marseille","lat":43.30966,"lon":5.39039,"is_reserved":false,"is_disabled":false,"rental_uris":{"android":"levelo://app?vid=2ad4c575-ab5c-480b-9a5b-726ca3ebfda6","ios":"levelo://app?vid=2ad4c575-ab5c-480b-9a5b-726ca3ebfda6"},"vehicle_type_id":"4","last_reported":1727266636,"current_range_meters":31200,"station_id":"ce4bgup2rcd13ifvqco0","pricing_plan_id":"cebpf4jnsgd1na2vs0mg"},{"bike_id":"44944327-804d-4efd-957d-c88684856ece","system_id":"levelo_inurba_marseille","lat":43.3377,"lon":5.37439,"is_reserved":false,"is_disabled":false,"rental_uris":{"android":"levelo://app?vid=44944327-804d-4efd-957d-c88684856ece","ios":"levelo://app?vid=44944327-804d-4efd-957d-c88684856ece"},"vehicle_type_id":"4","last_reported":1727266636,"current_range_meters":35200,"station_id":"","pricing_plan_id":"cebpf4jnsgd1na2vs0mg"},{"bike_id":"38e6ca4b-a0e9-43c7-8097-b71829c40424","system_id":"levelo_inurba_marseille","lat":43.26784,"lon":5.39417,"is_reserved":false,"is_disabled":false,"rental_uris":{"android":"levelo://app?vid=38e6ca4b-a0e9-43c7-8097-b71829c40424","ios":"levelo://app?vid=38e6ca4b-a0e9-43c7-8097-b71829c40424"},"vehicle_type_id":"4","last_reported":1727266636,"current_range_meters":20800,"station_id":"ce4bhh12rcd13ifvqfg0","pricing_plan_id":"cebpf4jnsgd1na2vs0mg"},{"bike_id":"c616d233-ea67-4895-8880-51b610224d27","system_id":"levelo_inurba_marseille","lat":43.30538,"lon":5.36523,"is_reserved":false,"is_disabled":false,"rental_uris":{"android":"levelo://app?vid=c616d233-ea67-4895-8880-51b610224d27","ios":"levelo://app?vid=c616d233-ea67-4895-8880-51b610224d27"},"vehicle_type_id":"4","last_reported":1727266636,"current_range_meters":16400,"station_id":"ce4bgs12rcd13ifvqcag","pricing_plan_id":"cebpf4jnsgd1na2vs0mg"},{"bike_id":"3a38f8e0-beba-4af9-89a0-fc7134749126","system_id":"levelo_inurba_marseille","lat":43.29305,"lon":5.37459,"is_reserved":false,"is_disabled":false,"rental_uris":{"android":"levelo://app?vid=3a38f8e0-beba-4af9-89a0-fc7134749126","ios":"levelo://app?vid=3a38f8e0-beba-4af9-89a0-fc7134749126"},"vehicle_type_id":"4","last_reported":1727266636,"current_range_meters":38400,"station_id":"ce4bgi12rcd13ifvqb70","pricing_plan_id":"cebpf4jnsgd1na2vs0mg"},{"bike_id":"b6d66480-c506-49eb-b751-7b2c73bd2162","system_id":"levelo_inurba_marseille","lat":43.29626,"lon":5.37158,"is_reserved":false,"is_disabled":false,"rental_uris":{"android":"levelo://app?vid=b6d66480-c506-49eb-b751-7b2c73bd2162","ios":"levelo://app?vid=b6d66480-c506-49eb-b751-7b2c73bd2162"},"vehicle_type_id":"4","last_reported":1727266636,"current_range_meters":22800,"station_id":"ce4bgnh2rcd13ifvqc0g","pricing_plan_id":"cebpf4jnsgd1na2vs0mg"},{"bike_id":"25c2da3d-9bb6-48b8-8579-2ff6744c67cb","system_id":"levelo_inurba_marseille","lat":43.23153,"lon":5.43711,"is_reserved":false,"is_disabled":false,"rental_uris":{"android":"levelo://app?vid=25c2da3d-9bb6-48b8-8579-2ff6744c67cb","ios":"levelo://app?vid=25c2da3d-9bb6-48b8-8579-2ff6744c67cb"},"vehicle_type_id":"4","last_reported":1727266636,"current_range_meters":37600,"station_id":"ce4bhmp2rcd13ifvqgog","pricing_plan_id":"cebpf4jnsgd1na2vs0mg"},{"bike_id":"84975cc0-2712-4001-b3f4-009ccf587811","system_id":"levelo_inurba_marseille","lat":43.29916,"lon":5.37462,"is_reserved":false,"is_disabled":false,"rental_uris":{"android":"levelo://app?vid=84975cc0-2712-4001-b3f4-009ccf587811","ios":"levelo://app?vid=84975cc0-2712-4001-b3f4-009ccf587811"},"vehicle_type_id":"4","last_reported":1727266636,"current_range_meters":24000,"station_id":"ce4bgjh2rcd13ifvqbg0","pricing_plan_id":"cebpf4jnsgd1na2vs0mg"},{"bike_id":"64e778b2-ba9f-4824-bff1-f50741ea35c3","system_id":"levelo_inurba_marseille","lat":43.27369,"lon":5.3625,"is_reserved":false,"is_disabled":false,"rental_uris":{"android":"levelo://app?vid=64e778b2-ba9f-4824-bff1-f50741ea35c3","ios":"levelo://app?vid=64e778b2-ba9f-4824-bff1-f50741ea35c3"},"vehicle_type_id":"4","last_reported":1727266636,"current_range_meters":12000,"station_id":"ce4bhbh2rcd13ifvqeo0","pricing_plan_id":"cebpf4jnsgd1na2vs0mg"},{"bike_id":"3c7daa5a-2229-4ef5-8f32-ce0c6827033b","system_id":"levelo_inurba_marseille","lat":43.25729,"lon":5.411,"is_reserved":false,"is_disabled":false,"rental_uris":{"android":"levelo://app?vid=3c7daa5a-2229-4ef5-8f32-ce0c6827033b","ios":"levelo://app?vid=3c7daa5a-2229-4ef5-8f32-ce0c6827033b"},"vehicle_type_id":"4","last_reported":1727266636,"current_range_meters":38400,"station_id":"ce4bhkp2rcd13ifvqgd0","pricing_plan_id":"cebpf4jnsgd1na2vs0mg"},{"bike_id":"ee63e176-fc74-4f9b-b285-be092a4e57c8","system_id":"levelo_inurba_marseille","lat":43.26942,"lon":5.40245,"is_reserved":false,"is_disabled":false,"rental_uris":{"android":"levelo://app?vid=ee63e176-fc74-4f9b-b285-be092a4e57c8","ios":"levelo://app?vid=ee63e176-fc74-4f9b-b285-be092a4e57c8"},"vehicle_type_id":"4","last_reported":1727266636,"current_range_meters":11200,"station_id":"cjm6bp8fraef2m0cb0m0","pricing_plan_id":"cebpf4jnsgd1na2vs0mg"},{"bike_id":"79a05bb1-ccec-47f0-8ebd-1f95854549f8","system_id":"levelo_inurba_marseille","lat":43.31285,"lon":5.38042,"is_reserved":false,"is_disabled":false,"rental_uris":{"android":"levelo://app?vid=79a05bb1-ccec-47f0-8ebd-1f95854549f8","ios":"levelo://app?vid=79a05bb1-ccec-47f0-8ebd-1f95854549f8"},"vehicle_type_id":"4","last_reported":1727266636,"current_range_meters":11200,"station_id":"","pricing_plan_id":"cebpf4jnsgd1na2vs0mg"},{"bike_id":"82a46f4c-338e-4f2c-bb15-b73bebda5189","system_id":"levelo_inurba_marseille","lat":43.23148,"lon":5.43708,"is_reserved":false,"is_disabled":false,"rental_uris":{"android":"levelo://app?vid=82a46f4c-338e-4f2c-bb15-b73bebda5189","ios":"levelo://app?vid=82a46f4c-338e-4f2c-bb15-b73bebda5189"},"vehicle_type_id":"4","last_reported":1727266636,"current_range_meters":37600,"station_id":"ce4bhmp2rcd13ifvqgog","pricing_plan_id":"cebpf4jnsgd1na2vs0mg"},{"bike_id":"919c6ba0-bf1d-4474-9057-0c3c995d596d","system_id":"levelo_inurba_marseille","lat":43.299251,"lon":5.374731,"is_reserved":false,"is_disabled":false,"rental_uris":{"android":"levelo://app?vid=919c6ba0-bf1d-4474-9057-0c3c995d596d","ios":"levelo://app?vid=919c6ba0-bf1d-4474-9057-0c3c995d596d"},"vehicle_type_id":"4","last_reported":1727266636,"current_range_meters":14000,"station_id":"ce4bgjh2rcd13ifvqbg0","pricing_plan_id":"cebpf4jnsgd1na2vs0mg"},{"bike_id":"8f8ce9e0-a16f-41ac-b61c-22e20f734efe","system_id":"levelo_inurba_marseille","lat":43.30953,"lon":5.39026,"is_reserved":false,"is_disabled":false,"rental_uris":{"android":"levelo://app?vid=8f8ce9e0-a16f-41ac-b61c-22e20f734efe","ios":"levelo://app?vid=8f8ce9e0-a16f-41ac-b61c-22e20f734efe"},"vehicle_type_id":"4","last_reported":1727266636,"current_range_meters":26000,"station_id":"ce4bgup2rcd13ifvqco0","pricing_plan_id":"cebpf4jnsgd1na2vs0mg"},{"bike_id":"d65ab9c0-7e18-45de-8bf7-e4c1c3d6db56","system_id":"levelo_inurba_marseille","lat":43.2397,"lon":5.36622,"is_reserved":false,"is_disabled":false,"rental_uris":{"android":"levelo://app?vid=d65ab9c0-7e18-45de-8bf7-e4c1c3d6db56","ios":"levelo://app?vid=d65ab9c0-7e18-45de-8bf7-e4c1c3d6db56"},"vehicle_type_id":"4","last_reported":1727266636,"current_range_meters":24000,"station_id":"ce4bhi12rcd13ifvqfp0","pricing_plan_id":"cebpf4jnsgd1na2vs0mg"},{"bike_id":"796cb342-ddc2-46b9-af55-e1044983438d","system_id":"levelo_inurba_marseille","lat":43.30318,"lon":5.36902,"is_reserved":false,"is_disabled":false,"rental_uris":{"android":"levelo://app?vid=796cb342-ddc2-46b9-af55-e1044983438d","ios":"levelo://app?vid=796cb342-ddc2-46b9-af55-e1044983438d"},"vehicle_type_id":"4","last_reported":1727266636,"current_range_meters":32800,"station_id":"ce4bgqh2rcd13ifvqc5g","pricing_plan_id":"cebpf4jnsgd1na2vs0mg"},{"bike_id":"f254c1a6-815f-4439-a521-360043e931d8","system_id":"levelo_inurba_marseille","lat":43.26682,"lon":5.38269,"is_reserved":false,"is_disabled":false,"rental_uris":{"android":"levelo://app?vid=f254c1a6-815f-4439-a521-360043e931d8","ios":"levelo://app?vid=f254c1a6-815f-4439-a521-360043e931d8"},"vehicle_type_id":"4","last_reported":1727266636,"current_range_meters":2800,"station_id":"ce4bhg92rcd13ifvqf90","pricing_plan_id":"cebpf4jnsgd1na2vs0mg"},{"bike_id":"f97ba308-62f2-45e6-b928-755fc3107561","system_id":"levelo_inurba_marseille","lat":43.23189,"lon":5.39984,"is_reserved":false,"is_disabled":false,"rental_uris":{"android":"levelo://app?vid=f97ba308-62f2-45e6-b928-755fc3107561","ios":"levelo://app?vid=f97ba308-62f2-45e6-b928-755fc3107561"},"vehicle_type_id":"4","last_reported":1727266636,"current_range_meters":38800,"station_id":"ce4bhn12rcd13ifvqgqg","pricing_plan_id":"cebpf4jnsgd1na2vs0mg"},{"bike_id":"ffb788d4-680f-4792-a087-79cf193199fa","system_id":"levelo_inurba_marseille","lat":43.31889,"lon":5.40735,"is_reserved":false,"is_disabled":false,"rental_uris":{"android":"levelo://app?vid=ffb788d4-680f-4792-a087-79cf193199fa","ios":"levelo://app?vid=ffb788d4-680f-4792-a087-79cf193199fa"},"vehicle_type_id":"4","last_reported":1727266636,"current_range_meters":36000,"station_id":"ce4bhq12rcd13ifvqhig","pricing_plan_id":"cebpf4jnsgd1na2vs0mg"},{"bike_id":"3fb94ac6-1872-4a49-be5f-fc77bf5b3901","system_id":"levelo_inurba_marseille","lat":43.3091,"lon":5.36847,"is_reserved":false,"is_disabled":false,"rental_uris":{"android":"levelo://app?vid=3fb94ac6-1872-4a49-be5f-fc77bf5b3901","ios":"levelo://app?vid=3fb94ac6-1872-4a49-be5f-fc77bf5b3901"},"vehicle_type_id":"4","last_reported":1727266636,"current_range_meters":36400,"station_id":"ce4bgn92rcd13ifvqbvg","pricing_plan_id":"cebpf4jnsgd1na2vs0mg"},{"bike_id":"502cbdd1-7512-43b9-8e5c-8a510463b77f","system_id":"levelo_inurba_marseille","lat":43.25941,"lon":5.40898,"is_reserved":false,"is_disabled":false,"rental_uris":{"android":"levelo://app?vid=502cbdd1-7512-43b9-8e5c-8a510463b77f","ios":"levelo://app?vid=502cbdd1-7512-43b9-8e5c-8a510463b77f"},"vehicle_type_id":"4","last_reported":1727266636,"current_range_meters":19200,"station_id":"ce4bhm92rcd13ifvqglg","pricing_plan_id":"cebpf4jnsgd1na2vs0mg"},{"bike_id":"78969057-a73d-4dd3-8038-e96c4318ac49","system_id":"levelo_inurba_marseille","lat":43.30598,"lon":5.37206,"is_reserved":false,"is_disabled":false,"rental_uris":{"android":"levelo://app?vid=78969057-a73d-4dd3-8038-e96c4318ac49","ios":"levelo://app?vid=78969057-a73d-4dd3-8038-e96c4318ac49"},"vehicle_type_id":"4","last_reported":1727266636,"current_range_meters":30000,"station_id":"ce4bgqh2rcd13ifvqc4g","pricing_plan_id":"cebpf4jnsgd1na2vs0mg"},{"bike_id":"ecb70881-b110-48a8-b751-24b4690d4031","system_id":"levelo_inurba_marseille","lat":43.2319,"lon":5.39983,"is_reserved":false,"is_disabled":false,"rental_uris":{"android":"levelo://app?vid=ecb70881-b110-48a8-b751-24b4690d4031","ios":"levelo://app?vid=ecb70881-b110-48a8-b751-24b4690d4031"},"vehicle_type_id":"4","last_reported":1727266636,"current_range_meters":38000,"station_id":"ce4bhn12rcd13ifvqgqg","pricing_plan_id":"cebpf4jnsgd1na2vs0mg"},{"bike_id":"8629fc96-8f77-44a4-a451-955e31386731","system_id":"levelo_inurba_marseille","lat":43.30329,"lon":5.40429,"is_reserved":false,"is_disabled":false,"rental_uris":{"android":"levelo://app?vid=8629fc96-8f77-44a4-a451-955e31386731","ios":"levelo://app?vid=8629fc96-8f77-44a4-a451-955e31386731"},"vehicle_type_id":"4","last_reported":1727266636,"current_range_meters":38800,"station_id":"ce4bh012rcd13ifvqd10","pricing_plan_id":"cebpf4jnsgd1na2vs0mg"},{"bike_id":"25bd7405-be80-4a77-a761-8a1efed52652","system_id":"levelo_inurba_marseille","lat":43.299,"lon":5.43668,"is_reserved":false,"is_disabled":false,"rental_uris":{"android":"levelo://app?vid=25bd7405-be80-4a77-a761-8a1efed52652","ios":"levelo://app?vid=25bd7405-be80-4a77-a761-8a1efed52652"},"vehicle_type_id":"4","last_reported":1727266636,"current_range_meters":39200,"station_id":"ce4bhpp2rcd13ifvqhfg","pricing_plan_id":"cebpf4jnsgd1na2vs0mg"},{"bike_id":"bbd31db5-c137-4320-95f9-7cb19235dc07","system_id":"levelo_inurba_marseille","lat":43.30797,"lon":5.43518,"is_reserved":false,"is_disabled":false,"rental_uris":{"android":"levelo://app?vid=bbd31db5-c137-4320-95f9-7cb19235dc07","ios":"levelo://app?vid=bbd31db5-c137-4320-95f9-7cb19235dc07"},"vehicle_type_id":"4","last_reported":1727266636,"current_range_meters":39200,"station_id":"ce4bhph2rcd13ifvqheg","pricing_plan_id":"cebpf4jnsgd1na2vs0mg"},{"bike_id":"8ab885fd-70a2-43ee-9896-159857b52f7e","system_id":"levelo_inurba_marseille","lat":43.23184,"lon":5.39983,"is_reserved":false,"is_disabled":false,"rental_uris":{"android":"levelo://app?vid=8ab885fd-70a2-43ee-9896-159857b52f7e","ios":"levelo://app?vid=8ab885fd-70a2-43ee-9896-159857b52f7e"},"vehicle_type_id":"4","last_reported":1727266636,"current_range_meters":38800,"station_id":"ce4bhn12rcd13ifvqgqg","pricing_plan_id":"cebpf4jnsgd1na2vs0mg"},{"bike_id":"301f31ce-0a1a-4f7c-95c1-6b0d39e87c17","system_id":"levelo_inurba_marseille","lat":43.2559,"lon":5.38217,"is_reserved":false,"is_disabled":false,"rental_uris":{"android":"levelo://app?vid=301f31ce-0a1a-4f7c-95c1-6b0d39e87c17","ios":"levelo://app?vid=301f31ce-0a1a-4f7c-95c1-6b0d39e87c17"},"vehicle_type_id":"4","last_reported":1727266636,"current_range_meters":34000,"station_id":"ce4bhih2rcd13ifvqfs0","pricing_plan_id":"cebpf4jnsgd1na2vs0mg"},{"bike_id":"f6275728-f078-4fe3-a4cc-467a5a2ab004","system_id":"levelo_inurba_marseille","lat":43.31486,"lon":5.3695,"is_reserved":false,"is_disabled":false,"rental_uris":{"android":"levelo://app?vid=f6275728-f078-4fe3-a4cc-467a5a2ab004","ios":"levelo://app?vid=f6275728-f078-4fe3-a4cc-467a5a2ab004"},"vehicle_type_id":"4","last_reported":1727266636,"current_range_meters":35200,"station_id":"","pricing_plan_id":"cebpf4jnsgd1na2vs0mg"},{"bike_id":"124ed7b5-473e-4a00-a600-343137f4cef9","system_id":"levelo_inurba_marseille","lat":43.33721,"lon":5.39184,"is_reserved":false,"is_disabled":false,"rental_uris":{"android":"levelo://app?vid=124ed7b5-473e-4a00-a600-343137f4cef9","ios":"levelo://app?vid=124ed7b5-473e-4a00-a600-343137f4cef9"},"vehicle_type_id":"4","last_reported":1727266636,"current_range_meters":39200,"station_id":"ce4bhr92rcd13ifvqhsg","pricing_plan_id":"cebpf4jnsgd1na2vs0mg"},{"bike_id":"6a7fa3dc-ffce-4f6a-b75e-507a8b3ef4db","system_id":"levelo_inurba_marseille","lat":43.32542,"lon":5.4143,"is_reserved":false,"is_disabled":false,"rental_uris":{"android":"levelo://app?vid=6a7fa3dc-ffce-4f6a-b75e-507a8b3ef4db","ios":"levelo://app?vid=6a7fa3dc-ffce-4f6a-b75e-507a8b3ef4db"},"vehicle_type_id":"4","last_reported":1727266636,"current_range_meters":8400,"station_id":"ce4bhq12rcd13ifvqhhg","pricing_plan_id":"cebpf4jnsgd1na2vs0mg"},{"bike_id":"de85db51-c892-4bf5-846a-e779b3cae671","system_id":"levelo_inurba_marseille","lat":43.28927,"lon":5.38399,"is_reserved":false,"is_disabled":false,"rental_uris":{"android":"levelo://app?vid=de85db51-c892-4bf5-846a-e779b3cae671","ios":"levelo://app?vid=de85db51-c892-4bf5-846a-e779b3cae671"},"vehicle_type_id":"4","last_reported":1727266636,"current_range_meters":30400,"station_id":"ce4bh612rcd13ifvqe6g","pricing_plan_id":"cebpf4jnsgd1na2vs0mg"},{"bike_id":"7308ee73-d401-4cd9-99de-1fa0dc62eb00","system_id":"levelo_inurba_marseille","lat":43.27613,"lon":5.36106,"is_reserved":false,"is_disabled":false,"rental_uris":{"android":"levelo://app?vid=7308ee73-d401-4cd9-99de-1fa0dc62eb00","ios":"levelo://app?vid=7308ee73-d401-4cd9-99de-1fa0dc62eb00"},"vehicle_type_id":"4","last_reported":1727266636,"current_range_meters":4000,"station_id":"ce4bgj92rcd13ifvqbe0","pricing_plan_id":"cebpf4jnsgd1na2vs0mg"},{"bike_id":"8861a43b-8bc2-4627-b0c7-8019e1e64601","system_id":"levelo_inurba_marseille","lat":43.29927,"lon":5.37467,"is_reserved":false,"is_disabled":false,"rental_uris":{"android":"levelo://app?vid=8861a43b-8bc2-4627-b0c7-8019e1e64601","ios":"levelo://app?vid=8861a43b-8bc2-4627-b0c7-8019e1e64601"},"vehicle_type_id":"4","last_reported":1727266636,"current_range_meters":24400,"station_id":"ce4bgjh2rcd13ifvqbg0","pricing_plan_id":"cebpf4jnsgd1na2vs0mg"},{"bike_id":"ba48d8f2-32d1-4432-ab59-da552ea9cf00","system_id":"levelo_inurba_marseille","lat":43.28697,"lon":5.37389,"is_reserved":false,"is_disabled":false,"rental_uris":{"android":"levelo://app?vid=ba48d8f2-32d1-4432-ab59-da552ea9cf00","ios":"levelo://app?vid=ba48d8f2-32d1-4432-ab59-da552ea9cf00"},"vehicle_type_id":"4","last_reported":1727266636,"current_range_meters":12400,"station_id":"ce4bh3p2rcd13ifvqdq0","pricing_plan_id":"cebpf4jnsgd1na2vs0mg"},{"bike_id":"d18e33d1-440e-4c0b-9a8b-2d2580d7559d","system_id":"levelo_inurba_marseille","lat":43.32484,"lon":5.36563,"is_reserved":false,"is_disabled":false,"rental_uris":{"android":"levelo://app?vid=d18e33d1-440e-4c0b-9a8b-2d2580d7559d","ios":"levelo://app?vid=d18e33d1-440e-4c0b-9a8b-2d2580d7559d"},"vehicle_type_id":"4","last_reported":1727266636,"current_range_meters":3200,"station_id":"ce4bhs12rcd13ifvqhvg","pricing_plan_id":"cebpf4jnsgd1na2vs0mg"},{"bike_id":"9741c67b-4f44-4822-84c5-9142355e44cf","system_id":"levelo_inurba_marseille","lat":43.3252,"lon":5.41426,"is_reserved":false,"is_disabled":false,"rental_uris":{"android":"levelo://app?vid=9741c67b-4f44-4822-84c5-9142355e44cf","ios":"levelo://app?vid=9741c67b-4f44-4822-84c5-9142355e44cf"},"vehicle_type_id":"4","last_reported":1727266636,"current_range_meters":10000,"station_id":"ce4bhq12rcd13ifvqhhg","pricing_plan_id":"cebpf4jnsgd1na2vs0mg"},{"bike_id":"dcca5794-959e-45e1-b073-e693b63e10f0","system_id":"levelo_inurba_marseille","lat":43.26558,"lon":5.37281,"is_reserved":false,"is_disabled":false,"rental_uris":{"android":"levelo://app?vid=dcca5794-959e-45e1-b073-e693b63e10f0","ios":"levelo://app?vid=dcca5794-959e-45e1-b073-e693b63e10f0"},"vehicle_type_id":"4","last_reported":1727266636,"current_range_meters":30400,"station_id":"ce4bhg12rcd13ifvqf70","pricing_plan_id":"cebpf4jnsgd1na2vs0mg"},{"bike_id":"9e0d7cb9-bd10-47a4-932f-0e2d3b375713","system_id":"levelo_inurba_marseille","lat":43.23152,"lon":5.43722,"is_reserved":false,"is_disabled":false,"rental_uris":{"android":"levelo://app?vid=9e0d7cb9-bd10-47a4-932f-0e2d3b375713","ios":"levelo://app?vid=9e0d7cb9-bd10-47a4-932f-0e2d3b375713"},"vehicle_type_id":"4","last_reported":1727266636,"current_range_meters":36000,"station_id":"ce4bhmp2rcd13ifvqgog","pricing_plan_id":"cebpf4jnsgd1na2vs0mg"},{"bike_id":"e28015bc-b70b-46aa-8761-9a271b0e190b","system_id":"levelo_inurba_marseille","lat":43.31372,"lon":5.38496,"is_reserved":false,"is_disabled":false,"rental_uris":{"android":"levelo://app?vid=e28015bc-b70b-46aa-8761-9a271b0e190b","ios":"levelo://app?vid=e28015bc-b70b-46aa-8761-9a271b0e190b"},"vehicle_type_id":"4","last_reported":1727266636,"current_range_meters":38800,"station_id":"ce4bgt92rcd13ifvqcf0","pricing_plan_id":"cebpf4jnsgd1na2vs0mg"},{"bike_id":"1802deb5-1c46-4f67-afa3-157e0fdc0220","system_id":"levelo_inurba_marseille","lat":43.27811,"lon":5.40716,"is_reserved":false,"is_disabled":false,"rental_uris":{"android":"levelo://app?vid=1802deb5-1c46-4f67-afa3-157e0fdc0220","ios":"levelo://app?vid=1802deb5-1c46-4f67-afa3-157e0fdc0220"},"vehicle_type_id":"4","last_reported":1727266636,"current_range_meters":24400,"station_id":"ce4bhnh2rcd13ifvqgtg","pricing_plan_id":"cebpf4jnsgd1na2vs0mg"},{"bike_id":"dd242317-41e5-44f2-bc98-6bc74d7c5925","system_id":"levelo_inurba_marseille","lat":43.23154,"lon":5.43704,"is_reserved":false,"is_disabled":false,"rental_uris":{"android":"levelo://app?vid=dd242317-41e5-44f2-bc98-6bc74d7c5925","ios":"levelo://app?vid=dd242317-41e5-44f2-bc98-6bc74d7c5925"},"vehicle_type_id":"4","last_reported":1727266636,"current_range_meters":22000,"station_id":"ce4bhmp2rcd13ifvqgog","pricing_plan_id":"cebpf4jnsgd1na2vs0mg"},{"bike_id":"e75a8ea6-e75b-4ff2-8201-11eb1d7ef8ed","system_id":"levelo_inurba_marseille","lat":43.26685,"lon":5.38266,"is_reserved":false,"is_disabled":false,"rental_uris":{"android":"levelo://app?vid=e75a8ea6-e75b-4ff2-8201-11eb1d7ef8ed","ios":"levelo://app?vid=e75a8ea6-e75b-4ff2-8201-11eb1d7ef8ed"},"vehicle_type_id":"4","last_reported":1727266636,"current_range_meters":37600,"station_id":"ce4bhg92rcd13ifvqf90","pricing_plan_id":"cebpf4jnsgd1na2vs0mg"},{"bike_id":"7d1c5f24-b2c4-4b39-a45e-5cd31c748af9","system_id":"levelo_inurba_marseille","lat":43.32482,"lon":5.36565,"is_reserved":false,"is_disabled":false,"rental_uris":{"android":"levelo://app?vid=7d1c5f24-b2c4-4b39-a45e-5cd31c748af9","ios":"levelo://app?vid=7d1c5f24-b2c4-4b39-a45e-5cd31c748af9"},"vehicle_type_id":"4","last_reported":1727266636,"current_range_meters":34000,"station_id":"ce4bhs12rcd13ifvqhvg","pricing_plan_id":"cebpf4jnsgd1na2vs0mg"},{"bike_id":"f3ac9d56-8a6b-4b8b-83b8-4e8b660e9afe","system_id":"levelo_inurba_marseille","lat":43.23967,"lon":5.36616,"is_reserved":false,"is_disabled":false,"rental_uris":{"android":"levelo://app?vid=f3ac9d56-8a6b-4b8b-83b8-4e8b660e9afe","ios":"levelo://app?vid=f3ac9d56-8a6b-4b8b-83b8-4e8b660e9afe"},"vehicle_type_id":"4","last_reported":1727266636,"current_range_meters":27200,"station_id":"ce4bhi12rcd13ifvqfp0","pricing_plan_id":"cebpf4jnsgd1na2vs0mg"},{"bike_id":"129ad9db-a154-4e30-9b46-bcf4b93e36bb","system_id":"levelo_inurba_marseille","lat":43.29925,"lon":5.37473,"is_reserved":false,"is_disabled":false,"rental_uris":{"android":"levelo://app?vid=129ad9db-a154-4e30-9b46-bcf4b93e36bb","ios":"levelo://app?vid=129ad9db-a154-4e30-9b46-bcf4b93e36bb"},"vehicle_type_id":"4","last_reported":1727266636,"current_range_meters":26000,"station_id":"ce4bgjh2rcd13ifvqbg0","pricing_plan_id":"cebpf4jnsgd1na2vs0mg"},{"bike_id":"873052f7-9bc5-4a04-9907-f5412dc2735a","system_id":"levelo_inurba_marseille","lat":43.33764,"lon":5.37441,"is_reserved":false,"is_disabled":false,"rental_uris":{"android":"levelo://app?vid=873052f7-9bc5-4a04-9907-f5412dc2735a","ios":"levelo://app?vid=873052f7-9bc5-4a04-9907-f5412dc2735a"},"vehicle_type_id":"4","last_reported":1727266636,"current_range_meters":24800,"station_id":"","pricing_plan_id":"cebpf4jnsgd1na2vs0mg"},{"bike_id":"40e8f74b-e490-42cb-8b96-2f519227f431","system_id":"levelo_inurba_marseille","lat":43.33767,"lon":5.37433,"is_reserved":false,"is_disabled":false,"rental_uris":{"android":"levelo://app?vid=40e8f74b-e490-42cb-8b96-2f519227f431","ios":"levelo://app?vid=40e8f74b-e490-42cb-8b96-2f519227f431"},"vehicle_type_id":"4","last_reported":1727266636,"current_range_meters":16400,"station_id":"","pricing_plan_id":"cebpf4jnsgd1na2vs0mg"},{"bike_id":"58b2197a-cf42-4b39-95ea-f27c689a1336","system_id":"levelo_inurba_marseille","lat":43.32478,"lon":5.36567,"is_reserved":false,"is_disabled":false,"rental_uris":{"android":"levelo://app?vid=58b2197a-cf42-4b39-95ea-f27c689a1336","ios":"levelo://app?vid=58b2197a-cf42-4b39-95ea-f27c689a1336"},"vehicle_type_id":"4","last_reported":1727266636,"current_range_meters":24800,"station_id":"ce4bhs12rcd13ifvqhvg","pricing_plan_id":"cebpf4jnsgd1na2vs0mg"},{"bike_id":"af4bd883-ba6d-45c4-bfa5-9b040e8d0a92","system_id":"levelo_inurba_marseille","lat":43.28427,"lon":5.34978,"is_reserved":false,"is_disabled":false,"rental_uris":{"android":"levelo://app?vid=af4bd883-ba6d-45c4-bfa5-9b040e8d0a92","ios":"levelo://app?vid=af4bd883-ba6d-45c4-bfa5-9b040e8d0a92"},"vehicle_type_id":"4","last_reported":1727266636,"current_range_meters":16400,"station_id":"ce4bhbh2rcd13ifvqepg","pricing_plan_id":"cebpf4jnsgd1na2vs0mg"},{"bike_id":"8315e448-7e35-424d-8a69-5910567ed9d2","system_id":"levelo_inurba_marseille","lat":43.28352,"lon":5.38101,"is_reserved":false,"is_disabled":false,"rental_uris":{"android":"levelo://app?vid=8315e448-7e35-424d-8a69-5910567ed9d2","ios":"levelo://app?vid=8315e448-7e35-424d-8a69-5910567ed9d2"},"vehicle_type_id":"4","last_reported":1727266636,"current_range_meters":34000,"station_id":"ce4bh412rcd13ifvqdr0","pricing_plan_id":"cebpf4jnsgd1na2vs0mg"},{"bike_id":"c55eeb1a-5cf4-45e2-a2fa-f1cebe35d633","system_id":"levelo_inurba_marseille","lat":43.3015,"lon":5.38085,"is_reserved":false,"is_disabled":false,"rental_uris":{"android":"levelo://app?vid=c55eeb1a-5cf4-45e2-a2fa-f1cebe35d633","ios":"levelo://app?vid=c55eeb1a-5cf4-45e2-a2fa-f1cebe35d633"},"vehicle_type_id":"4","last_reported":1727266636,"current_range_meters":6000,"station_id":"ce4bgjp2rcd13ifvqbh0","pricing_plan_id":"cebpf4jnsgd1na2vs0mg"},{"bike_id":"e35ab449-7ef3-4cc5-8c52-a80a98c9ea11","system_id":"levelo_inurba_marseille","lat":43.26197,"lon":5.37933,"is_reserved":false,"is_disabled":false,"rental_uris":{"android":"levelo://app?vid=e35ab449-7ef3-4cc5-8c52-a80a98c9ea11","ios":"levelo://app?vid=e35ab449-7ef3-4cc5-8c52-a80a98c9ea11"},"vehicle_type_id":"4","last_reported":1727266636,"current_range_meters":9200,"station_id":"ce4bhjp2rcd13ifvqg90","pricing_plan_id":"cebpf4jnsgd1na2vs0mg"},{"bike_id":"80006792-b164-4ec0-8245-535214535a6c","system_id":"levelo_inurba_marseille","lat":43.2842,"lon":5.34973,"is_reserved":false,"is_disabled":false,"rental_uris":{"android":"levelo://app?vid=80006792-b164-4ec0-8245-535214535a6c","ios":"levelo://app?vid=80006792-b164-4ec0-8245-535214535a6c"},"vehicle_type_id":"4","last_reported":1727266636,"current_range_meters":19200,"station_id":"ce4bhbh2rcd13ifvqepg","pricing_plan_id":"cebpf4jnsgd1na2vs0mg"},{"bike_id":"e7279736-ed88-41fd-989b-6884a09284df","system_id":"levelo_inurba_marseille","lat":43.23155,"lon":5.43712,"is_reserved":false,"is_disabled":false,"rental_uris":{"android":"levelo://app?vid=e7279736-ed88-41fd-989b-6884a09284df","ios":"levelo://app?vid=e7279736-ed88-41fd-989b-6884a09284df"},"vehicle_type_id":"4","last_reported":1727266636,"current_range_meters":14400,"station_id":"ce4bhmp2rcd13ifvqgog","pricing_plan_id":"cebpf4jnsgd1na2vs0mg"},{"bike_id":"ee43f925-1efd-4e9c-8360-45de779aa1c9","system_id":"levelo_inurba_marseille","lat":43.280792,"lon":5.368089,"is_reserved":false,"is_disabled":false,"rental_uris":{"android":"levelo://app?vid=ee43f925-1efd-4e9c-8360-45de779aa1c9","ios":"levelo://app?vid=ee43f925-1efd-4e9c-8360-45de779aa1c9"},"vehicle_type_id":"4","last_reported":1727266636,"current_range_meters":21600,"station_id":"ce4bha12rcd13ifvqee0","pricing_plan_id":"cebpf4jnsgd1na2vs0mg"},{"bike_id":"f0486ccf-c439-4df8-b707-25c77eff0e84","system_id":"levelo_inurba_marseille","lat":43.29269,"lon":5.36851,"is_reserved":false,"is_disabled":false,"rental_uris":{"android":"levelo://app?vid=f0486ccf-c439-4df8-b707-25c77eff0e84","ios":"levelo://app?vid=f0486ccf-c439-4df8-b707-25c77eff0e84"},"vehicle_type_id":"4","last_reported":1727266636,"current_range_meters":30000,"station_id":"ce4bhbp2rcd13ifvqesg","pricing_plan_id":"cebpf4jnsgd1na2vs0mg"},{"bike_id":"a75d11e4-5000-41f8-9ff2-fbd2a76366d5","system_id":"levelo_inurba_marseille","lat":43.33953,"lon":5.42075,"is_reserved":false,"is_disabled":false,"rental_uris":{"android":"levelo://app?vid=a75d11e4-5000-41f8-9ff2-fbd2a76366d5","ios":"levelo://app?vid=a75d11e4-5000-41f8-9ff2-fbd2a76366d5"},"vehicle_type_id":"4","last_reported":1727266636,"current_range_meters":20800,"station_id":"","pricing_plan_id":"cebpf4jnsgd1na2vs0mg"},{"bike_id":"5f4ff80f-7a62-4562-b79b-70d7636ae3d4","system_id":"levelo_inurba_marseille","lat":43.306033,"lon":5.372386,"is_reserved":false,"is_disabled":false,"rental_uris":{"android":"levelo://app?vid=5f4ff80f-7a62-4562-b79b-70d7636ae3d4","ios":"levelo://app?vid=5f4ff80f-7a62-4562-b79b-70d7636ae3d4"},"vehicle_type_id":"4","last_reported":1727266636,"current_range_meters":37600,"station_id":"ce4bgqh2rcd13ifvqc4g","pricing_plan_id":"cebpf4jnsgd1na2vs0mg"},{"bike_id":"b90f3738-b5d9-4774-911c-01aad44d55f5","system_id":"levelo_inurba_marseille","lat":43.31083,"lon":5.42429,"is_reserved":false,"is_disabled":false,"rental_uris":{"android":"levelo://app?vid=b90f3738-b5d9-4774-911c-01aad44d55f5","ios":"levelo://app?vid=b90f3738-b5d9-4774-911c-01aad44d55f5"},"vehicle_type_id":"4","last_reported":1727266636,"current_range_meters":25200,"station_id":"ce4bhp92rcd13ifvqhag","pricing_plan_id":"cebpf4jnsgd1na2vs0mg"},{"bike_id":"a134d4d1-5611-42e8-905d-77401e2debba","system_id":"levelo_inurba_marseille","lat":43.30122,"lon":5.39839,"is_reserved":false,"is_disabled":false,"rental_uris":{"android":"levelo://app?vid=a134d4d1-5611-42e8-905d-77401e2debba","ios":"levelo://app?vid=a134d4d1-5611-42e8-905d-77401e2debba"},"vehicle_type_id":"4","last_reported":1727266636,"current_range_meters":38000,"station_id":"ce4bh0h2rcd13ifvqd40","pricing_plan_id":"cebpf4jnsgd1na2vs0mg"},{"bike_id":"b219bd9e-1b0a-4956-9e88-9fbe4e039fad","system_id":"levelo_inurba_marseille","lat":43.27064,"lon":5.42272,"is_reserved":false,"is_disabled":false,"rental_uris":{"android":"levelo://app?vid=b219bd9e-1b0a-4956-9e88-9fbe4e039fad","ios":"levelo://app?vid=b219bd9e-1b0a-4956-9e88-9fbe4e039fad"},"vehicle_type_id":"4","last_reported":1727266636,"current_range_meters":38800,"station_id":"ce4bhk92rcd13ifvqgb0","pricing_plan_id":"cebpf4jnsgd1na2vs0mg"},{"bike_id":"3387f1f4-fbc5-4889-bdb1-2f58a447ed66","system_id":"levelo_inurba_marseille","lat":43.26556,"lon":5.37282,"is_reserved":false,"is_disabled":false,"rental_uris":{"android":"levelo://app?vid=3387f1f4-fbc5-4889-bdb1-2f58a447ed66","ios":"levelo://app?vid=3387f1f4-fbc5-4889-bdb1-2f58a447ed66"},"vehicle_type_id":"4","last_reported":1727266636,"current_range_meters":3200,"station_id":"ce4bhg12rcd13ifvqf70","pricing_plan_id":"cebpf4jnsgd1na2vs0mg"},{"bike_id":"e5aa85a7-6285-4308-85ed-92af65cc1c60","system_id":"levelo_inurba_marseille","lat":43.23185,"lon":5.3998,"is_reserved":false,"is_disabled":false,"rental_uris":{"android":"levelo://app?vid=e5aa85a7-6285-4308-85ed-92af65cc1c60","ios":"levelo://app?vid=e5aa85a7-6285-4308-85ed-92af65cc1c60"},"vehicle_type_id":"4","last_reported":1727266636,"current_range_meters":38800,"station_id":"ce4bhn12rcd13ifvqgqg","pricing_plan_id":"cebpf4jnsgd1na2vs0mg"},{"bike_id":"bc0a2413-3bea-48af-b961-1b3c4d74ab88","system_id":"levelo_inurba_marseille","lat":43.28285,"lon":5.35073,"is_reserved":false,"is_disabled":false,"rental_uris":{"android":"levelo://app?vid=bc0a2413-3bea-48af-b961-1b3c4d74ab88","ios":"levelo://app?vid=bc0a2413-3bea-48af-b961-1b3c4d74ab88"},"vehicle_type_id":"4","last_reported":1727266636,"current_range_meters":39200,"station_id":"ce4bhbp2rcd13ifvqerg","pricing_plan_id":"cebpf4jnsgd1na2vs0mg"},{"bike_id":"d2b29a3f-a9f9-4e26-bd8f-3dbbdf2f5a97","system_id":"levelo_inurba_marseille","lat":43.30531,"lon":5.36529,"is_reserved":false,"is_disabled":false,"rental_uris":{"android":"levelo://app?vid=d2b29a3f-a9f9-4e26-bd8f-3dbbdf2f5a97","ios":"levelo://app?vid=d2b29a3f-a9f9-4e26-bd8f-3dbbdf2f5a97"},"vehicle_type_id":"4","last_reported":1727266636,"current_range_meters":36000,"station_id":"ce4bgs12rcd13ifvqcag","pricing_plan_id":"cebpf4jnsgd1na2vs0mg"},{"bike_id":"f1f38292-6308-4127-bcad-e524eb9f1a1c","system_id":"levelo_inurba_marseille","lat":43.239677,"lon":5.366283,"is_reserved":false,"is_disabled":false,"rental_uris":{"android":"levelo://app?vid=f1f38292-6308-4127-bcad-e524eb9f1a1c","ios":"levelo://app?vid=f1f38292-6308-4127-bcad-e524eb9f1a1c"},"vehicle_type_id":"4","last_reported":1727266636,"current_range_meters":31200,"station_id":"ce4bhi12rcd13ifvqfp0","pricing_plan_id":"cebpf4jnsgd1na2vs0mg"},{"bike_id":"d2e964e8-4e2f-49e4-aa9d-3a8d70993580","system_id":"levelo_inurba_marseille","lat":43.29683,"lon":5.37282,"is_reserved":false,"is_disabled":false,"rental_uris":{"android":"levelo://app?vid=d2e964e8-4e2f-49e4-aa9d-3a8d70993580","ios":"levelo://app?vid=d2e964e8-4e2f-49e4-aa9d-3a8d70993580"},"vehicle_type_id":"4","last_reported":1727266636,"current_range_meters":22000,"station_id":"ce4bgk12rcd13ifvqbj0","pricing_plan_id":"cebpf4jnsgd1na2vs0mg"},{"bike_id":"d7bddb9c-df46-47dc-b55d-c9399f94b717","system_id":"levelo_inurba_marseille","lat":43.28357,"lon":5.38101,"is_reserved":false,"is_disabled":false,"rental_uris":{"android":"levelo://app?vid=d7bddb9c-df46-47dc-b55d-c9399f94b717","ios":"levelo://app?vid=d7bddb9c-df46-47dc-b55d-c9399f94b717"},"vehicle_type_id":"4","last_reported":1727266636,"current_range_meters":11200,"station_id":"ce4bh412rcd13ifvqdr0","pricing_plan_id":"cebpf4jnsgd1na2vs0mg"},{"bike_id":"10a437b8-b58e-40b1-b0b7-6372b1519414","system_id":"levelo_inurba_marseille","lat":43.303038,"lon":5.368788,"is_reserved":false,"is_disabled":false,"rental_uris":{"android":"levelo://app?vid=10a437b8-b58e-40b1-b0b7-6372b1519414","ios":"levelo://app?vid=10a437b8-b58e-40b1-b0b7-6372b1519414"},"vehicle_type_id":"4","last_reported":1727266636,"current_range_meters":39200,"station_id":"ce4bgqh2rcd13ifvqc5g","pricing_plan_id":"cebpf4jnsgd1na2vs0mg"},{"bike_id":"c80eec86-a8c9-4662-a1ea-3fc69eb420b2","system_id":"levelo_inurba_marseille","lat":43.3054,"lon":5.36697,"is_reserved":false,"is_disabled":false,"rental_uris":{"android":"levelo://app?vid=c80eec86-a8c9-4662-a1ea-3fc69eb420b2","ios":"levelo://app?vid=c80eec86-a8c9-4662-a1ea-3fc69eb420b2"},"vehicle_type_id":"4","last_reported":1727266636,"current_range_meters":24000,"station_id":"ce4bgrp2rcd13ifvqc9g","pricing_plan_id":"cebpf4jnsgd1na2vs0mg"},{"bike_id":"dff5b480-2f0f-4235-8970-6a378b475319","system_id":"levelo_inurba_marseille","lat":43.29897,"lon":5.43669,"is_reserved":false,"is_disabled":false,"rental_uris":{"android":"levelo://app?vid=dff5b480-2f0f-4235-8970-6a378b475319","ios":"levelo://app?vid=dff5b480-2f0f-4235-8970-6a378b475319"},"vehicle_type_id":"4","last_reported":1727266636,"current_range_meters":23200,"station_id":"ce4bhpp2rcd13ifvqhfg","pricing_plan_id":"cebpf4jnsgd1na2vs0mg"},{"bike_id":"db846659-9f58-4c95-8df7-1391089048a8","system_id":"levelo_inurba_marseille","lat":43.27183,"lon":5.40986,"is_reserved":false,"is_disabled":false,"rental_uris":{"android":"levelo://app?vid=db846659-9f58-4c95-8df7-1391089048a8","ios":"levelo://app?vid=db846659-9f58-4c95-8df7-1391089048a8"},"vehicle_type_id":"4","last_reported":1727266636,"current_range_meters":32800,"station_id":"ce4bhl12rcd13ifvqgf0","pricing_plan_id":"cebpf4jnsgd1na2vs0mg"},{"bike_id":"8e05af2b-9b3f-476e-849e-aaaf8aec646f","system_id":"levelo_inurba_marseille","lat":43.28694,"lon":5.37401,"is_reserved":false,"is_disabled":false,"rental_uris":{"android":"levelo://app?vid=8e05af2b-9b3f-476e-849e-aaaf8aec646f","ios":"levelo://app?vid=8e05af2b-9b3f-476e-849e-aaaf8aec646f"},"vehicle_type_id":"4","last_reported":1727266636,"current_range_meters":38800,"station_id":"ce4bh3p2rcd13ifvqdq0","pricing_plan_id":"cebpf4jnsgd1na2vs0mg"},{"bike_id":"9722848f-0f79-44cb-b350-5ed3e3129372","system_id":"levelo_inurba_marseille","lat":43.30601,"lon":5.37233,"is_reserved":false,"is_disabled":false,"rental_uris":{"android":"levelo://app?vid=9722848f-0f79-44cb-b350-5ed3e3129372","ios":"levelo://app?vid=9722848f-0f79-44cb-b350-5ed3e3129372"},"vehicle_type_id":"4","last_reported":1727266636,"current_range_meters":4400,"station_id":"ce4bgqh2rcd13ifvqc4g","pricing_plan_id":"cebpf4jnsgd1na2vs0mg"},{"bike_id":"32777ea6-7bee-4625-8520-57f3d9a945ba","system_id":"levelo_inurba_marseille","lat":43.28679,"lon":5.38667,"is_reserved":false,"is_disabled":false,"rental_uris":{"android":"levelo://app?vid=32777ea6-7bee-4625-8520-57f3d9a945ba","ios":"levelo://app?vid=32777ea6-7bee-4625-8520-57f3d9a945ba"},"vehicle_type_id":"4","last_reported":1727266636,"current_range_meters":36800,"station_id":"ce4bh492rcd13ifvqdug","pricing_plan_id":"cebpf4jnsgd1na2vs0mg"},{"bike_id":"e38c6984-adcd-4fc9-90bc-d2a21c5908a4","system_id":"levelo_inurba_marseille","lat":43.28356,"lon":5.38107,"is_reserved":false,"is_disabled":false,"rental_uris":{"android":"levelo://app?vid=e38c6984-adcd-4fc9-90bc-d2a21c5908a4","ios":"levelo://app?vid=e38c6984-adcd-4fc9-90bc-d2a21c5908a4"},"vehicle_type_id":"4","last_reported":1727266636,"current_range_meters":27200,"station_id":"ce4bh412rcd13ifvqdr0","pricing_plan_id":"cebpf4jnsgd1na2vs0mg"},{"bike_id":"9319f2d2-8934-40e9-a26f-ebc66bd51940","system_id":"levelo_inurba_marseille","lat":43.30149,"lon":5.37413,"is_reserved":false,"is_disabled":false,"rental_uris":{"android":"levelo://app?vid=9319f2d2-8934-40e9-a26f-ebc66bd51940","ios":"levelo://app?vid=9319f2d2-8934-40e9-a26f-ebc66bd51940"},"vehicle_type_id":"4","last_reported":1727266636,"current_range_meters":9600,"station_id":"ce4bgs92rcd13ifvqcc0","pricing_plan_id":"cebpf4jnsgd1na2vs0mg"},{"bike_id":"6d66ff78-160f-4da8-a472-88e324eab12b","system_id":"levelo_inurba_marseille","lat":43.32485,"lon":5.36558,"is_reserved":false,"is_disabled":false,"rental_uris":{"android":"levelo://app?vid=6d66ff78-160f-4da8-a472-88e324eab12b","ios":"levelo://app?vid=6d66ff78-160f-4da8-a472-88e324eab12b"},"vehicle_type_id":"4","last_reported":1727266636,"current_range_meters":32000,"station_id":"ce4bhs12rcd13ifvqhvg","pricing_plan_id":"cebpf4jnsgd1na2vs0mg"},{"bike_id":"8282acf3-1e10-4e7a-9e2e-d47e811adce2","system_id":"levelo_inurba_marseille","lat":43.2551,"lon":5.37646,"is_reserved":false,"is_disabled":false,"rental_uris":{"android":"levelo://app?vid=8282acf3-1e10-4e7a-9e2e-d47e811adce2","ios":"levelo://app?vid=8282acf3-1e10-4e7a-9e2e-d47e811adce2"},"vehicle_type_id":"4","last_reported":1727266636,"current_range_meters":38800,"station_id":"ce4bhh12rcd13ifvqff0","pricing_plan_id":"cebpf4jnsgd1na2vs0mg"},{"bike_id":"bfa808ba-36f9-4cbe-8c7b-cf852834cfb1","system_id":"levelo_inurba_marseille","lat":43.26807,"lon":5.402735,"is_reserved":false,"is_disabled":false,"rental_uris":{"android":"levelo://app?vid=bfa808ba-36f9-4cbe-8c7b-cf852834cfb1","ios":"levelo://app?vid=bfa808ba-36f9-4cbe-8c7b-cf852834cfb1"},"vehicle_type_id":"4","last_reported":1727266636,"current_range_meters":26000,"station_id":"ce501612rcd8frsf0b60","pricing_plan_id":"cebpf4jnsgd1na2vs0mg"},{"bike_id":"42f49e90-8e19-4b2c-a44e-fdadfa0fb2d6","system_id":"levelo_inurba_marseille","lat":43.28944,"lon":5.36639,"is_reserved":false,"is_disabled":false,"rental_uris":{"android":"levelo://app?vid=42f49e90-8e19-4b2c-a44e-fdadfa0fb2d6","ios":"levelo://app?vid=42f49e90-8e19-4b2c-a44e-fdadfa0fb2d6"},"vehicle_type_id":"4","last_reported":1727266636,"current_range_meters":12800,"station_id":"ce4bhap2rcd13ifvqek0","pricing_plan_id":"cebpf4jnsgd1na2vs0mg"},{"bike_id":"df5b38d2-64cb-4df0-856f-ea9bd22c082c","system_id":"levelo_inurba_marseille","lat":43.23195,"lon":5.35553,"is_reserved":false,"is_disabled":false,"rental_uris":{"android":"levelo://app?vid=df5b38d2-64cb-4df0-856f-ea9bd22c082c","ios":"levelo://app?vid=df5b38d2-64cb-4df0-856f-ea9bd22c082c"},"vehicle_type_id":"4","last_reported":1727266636,"current_range_meters":8000,"station_id":"ce4bhu92rcd13ifvqi70","pricing_plan_id":"cebpf4jnsgd1na2vs0mg"},{"bike_id":"b5f805f9-ac3c-496b-8ae1-2f42d2744998","system_id":"levelo_inurba_marseille","lat":43.28938,"lon":5.3664,"is_reserved":false,"is_disabled":false,"rental_uris":{"android":"levelo://app?vid=b5f805f9-ac3c-496b-8ae1-2f42d2744998","ios":"levelo://app?vid=b5f805f9-ac3c-496b-8ae1-2f42d2744998"},"vehicle_type_id":"4","last_reported":1727266636,"current_range_meters":38000,"station_id":"ce4bhap2rcd13ifvqek0","pricing_plan_id":"cebpf4jnsgd1na2vs0mg"},{"bike_id":"891137de-5805-4e25-8c63-e02660ead314","system_id":"levelo_inurba_marseille","lat":43.25864,"lon":5.399,"is_reserved":false,"is_disabled":false,"rental_uris":{"android":"levelo://app?vid=891137de-5805-4e25-8c63-e02660ead314","ios":"levelo://app?vid=891137de-5805-4e25-8c63-e02660ead314"},"vehicle_type_id":"4","last_reported":1727266636,"current_range_meters":32400,"station_id":"ce4bhl92rcd13ifvqghg","pricing_plan_id":"cebpf4jnsgd1na2vs0mg"},{"bike_id":"1d19d43a-746f-4ec6-a6a3-c574899f679a","system_id":"levelo_inurba_marseille","lat":43.25004,"lon":5.38923,"is_reserved":false,"is_disabled":false,"rental_uris":{"android":"levelo://app?vid=1d19d43a-746f-4ec6-a6a3-c574899f679a","ios":"levelo://app?vid=1d19d43a-746f-4ec6-a6a3-c574899f679a"},"vehicle_type_id":"4","last_reported":1727266636,"current_range_meters":10800,"station_id":"ce4bhgp2rcd13ifvqfd0","pricing_plan_id":"cebpf4jnsgd1na2vs0mg"},{"bike_id":"16572a4e-842d-44fc-9dea-41399ddd68bf","system_id":"levelo_inurba_marseille","lat":43.26806,"lon":5.40268,"is_reserved":false,"is_disabled":false,"rental_uris":{"android":"levelo://app?vid=16572a4e-842d-44fc-9dea-41399ddd68bf","ios":"levelo://app?vid=16572a4e-842d-44fc-9dea-41399ddd68bf"},"vehicle_type_id":"4","last_reported":1727266636,"current_range_meters":15200,"station_id":"ce501612rcd8frsf0b60","pricing_plan_id":"cebpf4jnsgd1na2vs0mg"},{"bike_id":"3fb95c81-ef95-48e3-a8c3-f895f69c22eb","system_id":"levelo_inurba_marseille","lat":43.25869,"lon":5.39896,"is_reserved":false,"is_disabled":false,"rental_uris":{"android":"levelo://app?vid=3fb95c81-ef95-48e3-a8c3-f895f69c22eb","ios":"levelo://app?vid=3fb95c81-ef95-48e3-a8c3-f895f69c22eb"},"vehicle_type_id":"4","last_reported":1727266636,"current_range_meters":8800,"station_id":"ce4bhl92rcd13ifvqghg","pricing_plan_id":"cebpf4jnsgd1na2vs0mg"},{"bike_id":"e6581c86-ea5b-4865-89e9-2d08bc65b701","system_id":"levelo_inurba_marseille","lat":43.27178,"lon":5.40983,"is_reserved":false,"is_disabled":false,"rental_uris":{"android":"levelo://app?vid=e6581c86-ea5b-4865-89e9-2d08bc65b701","ios":"levelo://app?vid=e6581c86-ea5b-4865-89e9-2d08bc65b701"},"vehicle_type_id":"4","last_reported":1727266636,"current_range_meters":36400,"station_id":"ce4bhl12rcd13ifvqgf0","pricing_plan_id":"cebpf4jnsgd1na2vs0mg"},{"bike_id":"33d64000-fe97-4944-8f92-e5fa1433969d","system_id":"levelo_inurba_marseille","lat":43.29283,"lon":5.40111,"is_reserved":false,"is_disabled":false,"rental_uris":{"android":"levelo://app?vid=33d64000-fe97-4944-8f92-e5fa1433969d","ios":"levelo://app?vid=33d64000-fe97-4944-8f92-e5fa1433969d"},"vehicle_type_id":"4","last_reported":1727266636,"current_range_meters":3600,"station_id":"ce4bh312rcd13ifvqdk0","pricing_plan_id":"cebpf4jnsgd1na2vs0mg"},{"bike_id":"4bc8cc2b-989f-47cc-8074-4ca638c98463","system_id":"levelo_inurba_marseille","lat":43.27956,"lon":5.41039,"is_reserved":false,"is_disabled":false,"rental_uris":{"android":"levelo://app?vid=4bc8cc2b-989f-47cc-8074-4ca638c98463","ios":"levelo://app?vid=4bc8cc2b-989f-47cc-8074-4ca638c98463"},"vehicle_type_id":"4","last_reported":1727266636,"current_range_meters":16800,"station_id":"ce4bhnp2rcd13ifvqh0g","pricing_plan_id":"cebpf4jnsgd1na2vs0mg"},{"bike_id":"bca81bcc-db8f-4252-98dd-a19370662d96","system_id":"levelo_inurba_marseille","lat":43.30135,"lon":5.37416,"is_reserved":false,"is_disabled":false,"rental_uris":{"android":"levelo://app?vid=bca81bcc-db8f-4252-98dd-a19370662d96","ios":"levelo://app?vid=bca81bcc-db8f-4252-98dd-a19370662d96"},"vehicle_type_id":"4","last_reported":1727266636,"current_range_meters":22000,"station_id":"ce4bgs92rcd13ifvqcc0","pricing_plan_id":"cebpf4jnsgd1na2vs0mg"},{"bike_id":"12d7053e-cea1-40b3-a966-a7d733501bec","system_id":"levelo_inurba_marseille","lat":43.24386,"lon":5.37062,"is_reserved":false,"is_disabled":false,"rental_uris":{"android":"levelo://app?vid=12d7053e-cea1-40b3-a966-a7d733501bec","ios":"levelo://app?vid=12d7053e-cea1-40b3-a966-a7d733501bec"},"vehicle_type_id":"4","last_reported":1727266636,"current_range_meters":10800,"station_id":"ce4bhhh2rcd13ifvqfk0","pricing_plan_id":"cebpf4jnsgd1na2vs0mg"},{"bike_id":"cde29f88-37a7-4fca-800e-2a54fcbf5931","system_id":"levelo_inurba_marseille","lat":43.29625,"lon":5.37148,"is_reserved":false,"is_disabled":false,"rental_uris":{"android":"levelo://app?vid=cde29f88-37a7-4fca-800e-2a54fcbf5931","ios":"levelo://app?vid=cde29f88-37a7-4fca-800e-2a54fcbf5931"},"vehicle_type_id":"4","last_reported":1727266636,"current_range_meters":33200,"station_id":"ce4bgnh2rcd13ifvqc0g","pricing_plan_id":"cebpf4jnsgd1na2vs0mg"},{"bike_id":"cfec6e20-8640-4436-92c7-63382aa5292e","system_id":"levelo_inurba_marseille","lat":43.26555,"lon":5.37283,"is_reserved":false,"is_disabled":false,"rental_uris":{"android":"levelo://app?vid=cfec6e20-8640-4436-92c7-63382aa5292e","ios":"levelo://app?vid=cfec6e20-8640-4436-92c7-63382aa5292e"},"vehicle_type_id":"4","last_reported":1727266636,"current_range_meters":16800,"station_id":"ce4bhg12rcd13ifvqf70","pricing_plan_id":"cebpf4jnsgd1na2vs0mg"},{"bike_id":"27431c98-bcee-4fbc-9005-ef4fd6a106b8","system_id":"levelo_inurba_marseille","lat":43.23183,"lon":5.39976,"is_reserved":false,"is_disabled":false,"rental_uris":{"android":"levelo://app?vid=27431c98-bcee-4fbc-9005-ef4fd6a106b8","ios":"levelo://app?vid=27431c98-bcee-4fbc-9005-ef4fd6a106b8"},"vehicle_type_id":"4","last_reported":1727266636,"current_range_meters":11600,"station_id":"ce4bhn12rcd13ifvqgqg","pricing_plan_id":"cebpf4jnsgd1na2vs0mg"},{"bike_id":"aba567c1-d718-48a1-83a9-1615888d239e","system_id":"levelo_inurba_marseille","lat":43.29965,"lon":5.385,"is_reserved":false,"is_disabled":false,"rental_uris":{"android":"levelo://app?vid=aba567c1-d718-48a1-83a9-1615888d239e","ios":"levelo://app?vid=aba567c1-d718-48a1-83a9-1615888d239e"},"vehicle_type_id":"4","last_reported":1727266636,"current_range_meters":22800,"station_id":"ce4bgj92rcd13ifvqbd0","pricing_plan_id":"cebpf4jnsgd1na2vs0mg"},{"bike_id":"6b67c6ca-8c85-442f-91a5-5271149dfa81","system_id":"levelo_inurba_marseille","lat":43.29973,"lon":5.37182,"is_reserved":false,"is_disabled":false,"rental_uris":{"android":"levelo://app?vid=6b67c6ca-8c85-442f-91a5-5271149dfa81","ios":"levelo://app?vid=6b67c6ca-8c85-442f-91a5-5271149dfa81"},"vehicle_type_id":"4","last_reported":1727266636,"current_range_meters":14000,"station_id":"ce4bgr92rcd13ifvqc7g","pricing_plan_id":"cebpf4jnsgd1na2vs0mg"},{"bike_id":"e4694cbe-abfe-4232-86b0-1127775f75b8","system_id":"levelo_inurba_marseille","lat":43.30325,"lon":5.40442,"is_reserved":false,"is_disabled":false,"rental_uris":{"android":"levelo://app?vid=e4694cbe-abfe-4232-86b0-1127775f75b8","ios":"levelo://app?vid=e4694cbe-abfe-4232-86b0-1127775f75b8"},"vehicle_type_id":"4","last_reported":1727266636,"current_range_meters":38800,"station_id":"ce4bh012rcd13ifvqd10","pricing_plan_id":"cebpf4jnsgd1na2vs0mg"},{"bike_id":"6f13f1e3-08a6-435c-b569-937a600e179f","system_id":"levelo_inurba_marseille","lat":43.31164,"lon":5.38713,"is_reserved":false,"is_disabled":false,"rental_uris":{"android":"levelo://app?vid=6f13f1e3-08a6-435c-b569-937a600e179f","ios":"levelo://app?vid=6f13f1e3-08a6-435c-b569-937a600e179f"},"vehicle_type_id":"4","last_reported":1727266636,"current_range_meters":28400,"station_id":"ce4bgv12rcd13ifvqcp0","pricing_plan_id":"cebpf4jnsgd1na2vs0mg"},{"bike_id":"903507de-16f6-48d0-a454-2c9d4c61bdc6","system_id":"levelo_inurba_marseille","lat":43.30143,"lon":5.37417,"is_reserved":false,"is_disabled":false,"rental_uris":{"android":"levelo://app?vid=903507de-16f6-48d0-a454-2c9d4c61bdc6","ios":"levelo://app?vid=903507de-16f6-48d0-a454-2c9d4c61bdc6"},"vehicle_type_id":"4","last_reported":1727266636,"current_range_meters":28000,"station_id":"ce4bgs92rcd13ifvqcc0","pricing_plan_id":"cebpf4jnsgd1na2vs0mg"},{"bike_id":"457b3257-3032-40a6-a3b9-adfeccf538a3","system_id":"levelo_inurba_marseille","lat":43.32541,"lon":5.41435,"is_reserved":false,"is_disabled":false,"rental_uris":{"android":"levelo://app?vid=457b3257-3032-40a6-a3b9-adfeccf538a3","ios":"levelo://app?vid=457b3257-3032-40a6-a3b9-adfeccf538a3"},"vehicle_type_id":"4","last_reported":1727266636,"current_range_meters":36000,"station_id":"ce4bhq12rcd13ifvqhhg","pricing_plan_id":"cebpf4jnsgd1na2vs0mg"},{"bike_id":"5464bd4b-5c6d-4472-9105-7bc381bf630a","system_id":"levelo_inurba_marseille","lat":43.2998,"lon":5.37165,"is_reserved":false,"is_disabled":false,"rental_uris":{"android":"levelo://app?vid=5464bd4b-5c6d-4472-9105-7bc381bf630a","ios":"levelo://app?vid=5464bd4b-5c6d-4472-9105-7bc381bf630a"},"vehicle_type_id":"4","last_reported":1727266636,"current_range_meters":32400,"station_id":"ce4bgr92rcd13ifvqc7g","pricing_plan_id":"cebpf4jnsgd1na2vs0mg"},{"bike_id":"d3e3d6f0-f2b4-44a6-b55a-ce0b88f2da6b","system_id":"levelo_inurba_marseille","lat":43.30334,"lon":5.40428,"is_reserved":false,"is_disabled":false,"rental_uris":{"android":"levelo://app?vid=d3e3d6f0-f2b4-44a6-b55a-ce0b88f2da6b","ios":"levelo://app?vid=d3e3d6f0-f2b4-44a6-b55a-ce0b88f2da6b"},"vehicle_type_id":"4","last_reported":1727266636,"current_range_meters":16400,"station_id":"ce4bh012rcd13ifvqd10","pricing_plan_id":"cebpf4jnsgd1na2vs0mg"},{"bike_id":"c2929dfe-5db6-4e8c-9187-c59c4c2907d3","system_id":"levelo_inurba_marseille","lat":43.3375,"lon":5.37446,"is_reserved":false,"is_disabled":false,"rental_uris":{"android":"levelo://app?vid=c2929dfe-5db6-4e8c-9187-c59c4c2907d3","ios":"levelo://app?vid=c2929dfe-5db6-4e8c-9187-c59c4c2907d3"},"vehicle_type_id":"4","last_reported":1727266636,"current_range_meters":27200,"station_id":"","pricing_plan_id":"cebpf4jnsgd1na2vs0mg"},{"bike_id":"50a7fcdc-a7ea-4fa4-8d14-fa81d39361e4","system_id":"levelo_inurba_marseille","lat":43.30894,"lon":5.37188,"is_reserved":false,"is_disabled":false,"rental_uris":{"android":"levelo://app?vid=50a7fcdc-a7ea-4fa4-8d14-fa81d39361e4","ios":"levelo://app?vid=50a7fcdc-a7ea-4fa4-8d14-fa81d39361e4"},"vehicle_type_id":"4","last_reported":1727266636,"current_range_meters":13600,"station_id":"ce4bguh2rcd13ifvqckg","pricing_plan_id":"cebpf4jnsgd1na2vs0mg"},{"bike_id":"72dccb5f-1d84-41fe-9146-a3d2680464fd","system_id":"levelo_inurba_marseille","lat":43.27072,"lon":5.42276,"is_reserved":false,"is_disabled":false,"rental_uris":{"android":"levelo://app?vid=72dccb5f-1d84-41fe-9146-a3d2680464fd","ios":"levelo://app?vid=72dccb5f-1d84-41fe-9146-a3d2680464fd"},"vehicle_type_id":"4","last_reported":1727266636,"current_range_meters":25200,"station_id":"ce4bhk92rcd13ifvqgb0","pricing_plan_id":"cebpf4jnsgd1na2vs0mg"},{"bike_id":"ea9035d1-0c9f-4f17-b1b3-40a23517eafe","system_id":"levelo_inurba_marseille","lat":43.32494,"lon":5.36556,"is_reserved":false,"is_disabled":false,"rental_uris":{"android":"levelo://app?vid=ea9035d1-0c9f-4f17-b1b3-40a23517eafe","ios":"levelo://app?vid=ea9035d1-0c9f-4f17-b1b3-40a23517eafe"},"vehicle_type_id":"4","last_reported":1727266636,"current_range_meters":19200,"station_id":"ce4bhs12rcd13ifvqhvg","pricing_plan_id":"cebpf4jnsgd1na2vs0mg"},{"bike_id":"90d56ecb-ea63-4a52-9ee0-713e2022db82","system_id":"levelo_inurba_marseille","lat":43.33603,"lon":5.41031,"is_reserved":false,"is_disabled":false,"rental_uris":{"android":"levelo://app?vid=90d56ecb-ea63-4a52-9ee0-713e2022db82","ios":"levelo://app?vid=90d56ecb-ea63-4a52-9ee0-713e2022db82"},"vehicle_type_id":"4","last_reported":1727266636,"current_range_meters":32800,"station_id":"ce4bhqh2rcd13ifvqhmg","pricing_plan_id":"cebpf4jnsgd1na2vs0mg"},{"bike_id":"bed33afa-0824-484e-861d-4e8827b72cb4","system_id":"levelo_inurba_marseille","lat":43.32369,"lon":5.38868,"is_reserved":false,"is_disabled":false,"rental_uris":{"android":"levelo://app?vid=bed33afa-0824-484e-861d-4e8827b72cb4","ios":"levelo://app?vid=bed33afa-0824-484e-861d-4e8827b72cb4"},"vehicle_type_id":"4","last_reported":1727266636,"current_range_meters":24000,"station_id":"ce4bhqp2rcd13ifvqhog","pricing_plan_id":"cebpf4jnsgd1na2vs0mg"},{"bike_id":"bb9a8b8c-e7b6-4c47-9ed6-5491c2671e35","system_id":"levelo_inurba_marseille","lat":43.29198,"lon":5.3931,"is_reserved":false,"is_disabled":false,"rental_uris":{"android":"levelo://app?vid=bb9a8b8c-e7b6-4c47-9ed6-5491c2671e35","ios":"levelo://app?vid=bb9a8b8c-e7b6-4c47-9ed6-5491c2671e35"},"vehicle_type_id":"4","last_reported":1727266636,"current_range_meters":22800,"station_id":"ce4bh192rcd13ifvqdd0","pricing_plan_id":"cebpf4jnsgd1na2vs0mg"},{"bike_id":"60c7f33b-65fe-428d-ad8d-5f226e5af9d9","system_id":"levelo_inurba_marseille","lat":43.27623,"lon":5.36112,"is_reserved":false,"is_disabled":false,"rental_uris":{"android":"levelo://app?vid=60c7f33b-65fe-428d-ad8d-5f226e5af9d9","ios":"levelo://app?vid=60c7f33b-65fe-428d-ad8d-5f226e5af9d9"},"vehicle_type_id":"4","last_reported":1727266636,"current_range_meters":12800,"station_id":"ce4bgj92rcd13ifvqbe0","pricing_plan_id":"cebpf4jnsgd1na2vs0mg"},{"bike_id":"87befd5f-ae3a-4850-b8fe-6447011156bb","system_id":"levelo_inurba_marseille","lat":43.30558,"lon":5.3654,"is_reserved":false,"is_disabled":false,"rental_uris":{"android":"levelo://app?vid=87befd5f-ae3a-4850-b8fe-6447011156bb","ios":"levelo://app?vid=87befd5f-ae3a-4850-b8fe-6447011156bb"},"vehicle_type_id":"4","last_reported":1727266636,"current_range_meters":32800,"station_id":"ce4bgs12rcd13ifvqcag","pricing_plan_id":"cebpf4jnsgd1na2vs0mg"},{"bike_id":"03865dce-3846-4044-a4da-d94f561d092c","system_id":"levelo_inurba_marseille","lat":43.29935,"lon":5.3653,"is_reserved":false,"is_disabled":false,"rental_uris":{"android":"levelo://app?vid=03865dce-3846-4044-a4da-d94f561d092c","ios":"levelo://app?vid=03865dce-3846-4044-a4da-d94f561d092c"},"vehicle_type_id":"4","last_reported":1727266636,"current_range_meters":37600,"station_id":"ce4bgm92rcd13ifvqbr0","pricing_plan_id":"cebpf4jnsgd1na2vs0mg"},{"bike_id":"3833f1ff-a1dd-4e25-a558-1268c7b7c0f8","system_id":"levelo_inurba_marseille","lat":43.30604,"lon":5.37242,"is_reserved":false,"is_disabled":false,"rental_uris":{"android":"levelo://app?vid=3833f1ff-a1dd-4e25-a558-1268c7b7c0f8","ios":"levelo://app?vid=3833f1ff-a1dd-4e25-a558-1268c7b7c0f8"},"vehicle_type_id":"4","last_reported":1727266636,"current_range_meters":36800,"station_id":"ce4bgqh2rcd13ifvqc4g","pricing_plan_id":"cebpf4jnsgd1na2vs0mg"},{"bike_id":"59bbd874-f20f-4867-b9b1-9afe5bb8272f","system_id":"levelo_inurba_marseille","lat":43.30593,"lon":5.37206,"is_reserved":false,"is_disabled":false,"rental_uris":{"android":"levelo://app?vid=59bbd874-f20f-4867-b9b1-9afe5bb8272f","ios":"levelo://app?vid=59bbd874-f20f-4867-b9b1-9afe5bb8272f"},"vehicle_type_id":"4","last_reported":1727266636,"current_range_meters":26800,"station_id":"ce4bgqh2rcd13ifvqc4g","pricing_plan_id":"cebpf4jnsgd1na2vs0mg"},{"bike_id":"36dc270f-25c9-4873-8bc7-80da5a1302c8","system_id":"levelo_inurba_marseille","lat":43.30155,"lon":5.38087,"is_reserved":false,"is_disabled":false,"rental_uris":{"android":"levelo://app?vid=36dc270f-25c9-4873-8bc7-80da5a1302c8","ios":"levelo://app?vid=36dc270f-25c9-4873-8bc7-80da5a1302c8"},"vehicle_type_id":"4","last_reported":1727266636,"current_range_meters":38000,"station_id":"ce4bgjp2rcd13ifvqbh0","pricing_plan_id":"cebpf4jnsgd1na2vs0mg"},{"bike_id":"249c9091-61aa-4e8e-8e7b-4cdb5273009f","system_id":"levelo_inurba_marseille","lat":43.301403,"lon":5.374203,"is_reserved":false,"is_disabled":false,"rental_uris":{"android":"levelo://app?vid=249c9091-61aa-4e8e-8e7b-4cdb5273009f","ios":"levelo://app?vid=249c9091-61aa-4e8e-8e7b-4cdb5273009f"},"vehicle_type_id":"4","last_reported":1727266636,"current_range_meters":38800,"station_id":"ce4bgs92rcd13ifvqcc0","pricing_plan_id":"cebpf4jnsgd1na2vs0mg"},{"bike_id":"d78c72a2-5a35-49e9-a545-b16445c6b0ff","system_id":"levelo_inurba_marseille","lat":43.28623,"lon":5.35106,"is_reserved":false,"is_disabled":false,"rental_uris":{"android":"levelo://app?vid=d78c72a2-5a35-49e9-a545-b16445c6b0ff","ios":"levelo://app?vid=d78c72a2-5a35-49e9-a545-b16445c6b0ff"},"vehicle_type_id":"4","last_reported":1727266636,"current_range_meters":18000,"station_id":"ce4bhch2rcd13ifvqeug","pricing_plan_id":"cebpf4jnsgd1na2vs0mg"},{"bike_id":"dd6360d6-6c29-47ff-904f-8f023efd62d4","system_id":"levelo_inurba_marseille","lat":43.26558,"lon":5.37283,"is_reserved":false,"is_disabled":false,"rental_uris":{"android":"levelo://app?vid=dd6360d6-6c29-47ff-904f-8f023efd62d4","ios":"levelo://app?vid=dd6360d6-6c29-47ff-904f-8f023efd62d4"},"vehicle_type_id":"4","last_reported":1727266636,"current_range_meters":29600,"station_id":"ce4bhhh2rcd13ifvqfk0","pricing_plan_id":"cebpf4jnsgd1na2vs0mg"},{"bike_id":"7c911eb4-4b2c-40ae-9ec5-2014feb04e78","system_id":"levelo_inurba_marseille","lat":43.33027,"lon":5.39041,"is_reserved":false,"is_disabled":false,"rental_uris":{"android":"levelo://app?vid=7c911eb4-4b2c-40ae-9ec5-2014feb04e78","ios":"levelo://app?vid=7c911eb4-4b2c-40ae-9ec5-2014feb04e78"},"vehicle_type_id":"4","last_reported":1727266636,"current_range_meters":28400,"station_id":"ce4bhr92rcd13ifvqhrg","pricing_plan_id":"cebpf4jnsgd1na2vs0mg"},{"bike_id":"2a8d2f4d-9446-494b-bf76-b6eaf542941a","system_id":"levelo_inurba_marseille","lat":43.28955,"lon":5.36403,"is_reserved":false,"is_disabled":false,"rental_uris":{"android":"levelo://app?vid=2a8d2f4d-9446-494b-bf76-b6eaf542941a","ios":"levelo://app?vid=2a8d2f4d-9446-494b-bf76-b6eaf542941a"},"vehicle_type_id":"4","last_reported":1727266636,"current_range_meters":32400,"station_id":"ce4bhc92rcd13ifvqetg","pricing_plan_id":"cebpf4jnsgd1na2vs0mg"},{"bike_id":"b16c4cae-8747-4e06-bc44-1d13c49aa0fb","system_id":"levelo_inurba_marseille","lat":43.27178,"lon":5.40986,"is_reserved":false,"is_disabled":false,"rental_uris":{"android":"levelo://app?vid=b16c4cae-8747-4e06-bc44-1d13c49aa0fb","ios":"levelo://app?vid=b16c4cae-8747-4e06-bc44-1d13c49aa0fb"},"vehicle_type_id":"4","last_reported":1727266636,"current_range_meters":28400,"station_id":"ce4bhl12rcd13ifvqgf0","pricing_plan_id":"cebpf4jnsgd1na2vs0mg"},{"bike_id":"f0a78fc6-5562-40c6-b648-5badb9f076d9","system_id":"levelo_inurba_marseille","lat":43.29002,"lon":5.35615,"is_reserved":false,"is_disabled":false,"rental_uris":{"android":"levelo://app?vid=f0a78fc6-5562-40c6-b648-5badb9f076d9","ios":"levelo://app?vid=f0a78fc6-5562-40c6-b648-5badb9f076d9"},"vehicle_type_id":"4","last_reported":1727266636,"current_range_meters":38000,"station_id":"ce4bhb92rcd13ifvqen0","pricing_plan_id":"cebpf4jnsgd1na2vs0mg"},{"bike_id":"6c6b14c3-545c-4c13-865a-cd6e59e5ddff","system_id":"levelo_inurba_marseille","lat":43.26548,"lon":5.37282,"is_reserved":false,"is_disabled":false,"rental_uris":{"android":"levelo://app?vid=6c6b14c3-545c-4c13-865a-cd6e59e5ddff","ios":"levelo://app?vid=6c6b14c3-545c-4c13-865a-cd6e59e5ddff"},"vehicle_type_id":"4","last_reported":1727266636,"current_range_meters":28800,"station_id":"ce4bhg12rcd13ifvqf70","pricing_plan_id":"cebpf4jnsgd1na2vs0mg"},{"bike_id":"148a2904-6a3f-4978-ad46-822deb5c0a69","system_id":"levelo_inurba_marseille","lat":43.29707,"lon":5.36595,"is_reserved":false,"is_disabled":false,"rental_uris":{"android":"levelo://app?vid=148a2904-6a3f-4978-ad46-822deb5c0a69","ios":"levelo://app?vid=148a2904-6a3f-4978-ad46-822deb5c0a69"},"vehicle_type_id":"4","last_reported":1727266636,"current_range_meters":8000,"station_id":"ce4bgn12rcd13ifvqbt0","pricing_plan_id":"cebpf4jnsgd1na2vs0mg"},{"bike_id":"61a5d1bc-87bd-4a14-b6a1-65cc127207b7","system_id":"levelo_inurba_marseille","lat":43.26197,"lon":5.37448,"is_reserved":false,"is_disabled":false,"rental_uris":{"android":"levelo://app?vid=61a5d1bc-87bd-4a14-b6a1-65cc127207b7","ios":"levelo://app?vid=61a5d1bc-87bd-4a14-b6a1-65cc127207b7"},"vehicle_type_id":"4","last_reported":1727266636,"current_range_meters":4000,"station_id":"ce4bhgp2rcd13ifvqfc0","pricing_plan_id":"cebpf4jnsgd1na2vs0mg"},{"bike_id":"57b6eecb-491f-4d22-adf3-83721690a3d3","system_id":"levelo_inurba_marseille","lat":43.32046,"lon":5.41566,"is_reserved":false,"is_disabled":false,"rental_uris":{"android":"levelo://app?vid=57b6eecb-491f-4d22-adf3-83721690a3d3","ios":"levelo://app?vid=57b6eecb-491f-4d22-adf3-83721690a3d3"},"vehicle_type_id":"4","last_reported":1727266636,"current_range_meters":38400,"station_id":"ce4bhq92rcd13ifvqhkg","pricing_plan_id":"cebpf4jnsgd1na2vs0mg"},{"bike_id":"a44e9219-6fdd-4665-9047-5e8f21602f59","system_id":"levelo_inurba_marseille","lat":43.29571,"lon":5.37509,"is_reserved":false,"is_disabled":false,"rental_uris":{"android":"levelo://app?vid=a44e9219-6fdd-4665-9047-5e8f21602f59","ios":"levelo://app?vid=a44e9219-6fdd-4665-9047-5e8f21602f59"},"vehicle_type_id":"4","last_reported":1727266636,"current_range_meters":28400,"station_id":"ce4bgh92rcd13ifvqb50","pricing_plan_id":"cebpf4jnsgd1na2vs0mg"},{"bike_id":"d7b65fa9-dc2d-400c-b0a4-6c2385fd4f27","system_id":"levelo_inurba_marseille","lat":43.29714,"lon":5.37689,"is_reserved":false,"is_disabled":false,"rental_uris":{"android":"levelo://app?vid=d7b65fa9-dc2d-400c-b0a4-6c2385fd4f27","ios":"levelo://app?vid=d7b65fa9-dc2d-400c-b0a4-6c2385fd4f27"},"vehicle_type_id":"4","last_reported":1727266636,"current_range_meters":25200,"station_id":"ce4bgkh2rcd13ifvqbl0","pricing_plan_id":"cebpf4jnsgd1na2vs0mg"},{"bike_id":"e828d106-339e-45bb-8cc1-41a306883c3a","system_id":"levelo_inurba_marseille","lat":43.33762,"lon":5.37439,"is_reserved":false,"is_disabled":false,"rental_uris":{"android":"levelo://app?vid=e828d106-339e-45bb-8cc1-41a306883c3a","ios":"levelo://app?vid=e828d106-339e-45bb-8cc1-41a306883c3a"},"vehicle_type_id":"4","last_reported":1727266636,"current_range_meters":32800,"station_id":"","pricing_plan_id":"cebpf4jnsgd1na2vs0mg"},{"bike_id":"fca1c06d-3db8-4002-998c-414950e33284","system_id":"levelo_inurba_marseille","lat":43.30536,"lon":5.36542,"is_reserved":false,"is_disabled":false,"rental_uris":{"android":"levelo://app?vid=fca1c06d-3db8-4002-998c-414950e33284","ios":"levelo://app?vid=fca1c06d-3db8-4002-998c-414950e33284"},"vehicle_type_id":"4","last_reported":1727266636,"current_range_meters":8000,"station_id":"ce4bgs12rcd13ifvqcag","pricing_plan_id":"cebpf4jnsgd1na2vs0mg"},{"bike_id":"4c43b43f-be17-43d2-95e0-fab0c099fe37","system_id":"levelo_inurba_marseille","lat":43.23152,"lon":5.43701,"is_reserved":false,"is_disabled":false,"rental_uris":{"android":"levelo://app?vid=4c43b43f-be17-43d2-95e0-fab0c099fe37","ios":"levelo://app?vid=4c43b43f-be17-43d2-95e0-fab0c099fe37"},"vehicle_type_id":"4","last_reported":1727266636,"current_range_meters":37600,"station_id":"ce4bhmp2rcd13ifvqgog","pricing_plan_id":"cebpf4jnsgd1na2vs0mg"},{"bike_id":"dc473676-824d-41ad-aeb7-667c159f885c","system_id":"levelo_inurba_marseille","lat":43.23197,"lon":5.35544,"is_reserved":false,"is_disabled":false,"rental_uris":{"android":"levelo://app?vid=dc473676-824d-41ad-aeb7-667c159f885c","ios":"levelo://app?vid=dc473676-824d-41ad-aeb7-667c159f885c"},"vehicle_type_id":"4","last_reported":1727266636,"current_range_meters":28400,"station_id":"ce4bhu92rcd13ifvqi70","pricing_plan_id":"cebpf4jnsgd1na2vs0mg"},{"bike_id":"b44fe68c-0573-4b7d-ad16-ba1b0c496159","system_id":"levelo_inurba_marseille","lat":43.25728,"lon":5.41107,"is_reserved":false,"is_disabled":false,"rental_uris":{"android":"levelo://app?vid=b44fe68c-0573-4b7d-ad16-ba1b0c496159","ios":"levelo://app?vid=b44fe68c-0573-4b7d-ad16-ba1b0c496159"},"vehicle_type_id":"4","last_reported":1727266636,"current_range_meters":37600,"station_id":"ce4bhkp2rcd13ifvqgd0","pricing_plan_id":"cebpf4jnsgd1na2vs0mg"},{"bike_id":"ac7313d3-e4c9-487a-ba08-9e71c55eecc0","system_id":"levelo_inurba_marseille","lat":43.27059,"lon":5.40254,"is_reserved":false,"is_disabled":false,"rental_uris":{"android":"levelo://app?vid=ac7313d3-e4c9-487a-ba08-9e71c55eecc0","ios":"levelo://app?vid=ac7313d3-e4c9-487a-ba08-9e71c55eecc0"},"vehicle_type_id":"4","last_reported":1727266636,"current_range_meters":28400,"station_id":"ce4bhk92rcd13ifvqgc0","pricing_plan_id":"cebpf4jnsgd1na2vs0mg"},{"bike_id":"a7bca3df-0344-4204-86d7-b742d4769839","system_id":"levelo_inurba_marseille","lat":43.30863,"lon":5.3685,"is_reserved":false,"is_disabled":false,"rental_uris":{"android":"levelo://app?vid=a7bca3df-0344-4204-86d7-b742d4769839","ios":"levelo://app?vid=a7bca3df-0344-4204-86d7-b742d4769839"},"vehicle_type_id":"4","last_reported":1727266636,"current_range_meters":28000,"station_id":"ce4bgn92rcd13ifvqbvg","pricing_plan_id":"cebpf4jnsgd1na2vs0mg"},{"bike_id":"9dcda5ca-840f-4316-837e-dc2815522252","system_id":"levelo_inurba_marseille","lat":43.28362,"lon":5.38093,"is_reserved":false,"is_disabled":false,"rental_uris":{"android":"levelo://app?vid=9dcda5ca-840f-4316-837e-dc2815522252","ios":"levelo://app?vid=9dcda5ca-840f-4316-837e-dc2815522252"},"vehicle_type_id":"4","last_reported":1727266636,"current_range_meters":23200,"station_id":"ce4bh412rcd13ifvqdr0","pricing_plan_id":"cebpf4jnsgd1na2vs0mg"},{"bike_id":"7300afce-9798-4945-835d-6c8de6045b8a","system_id":"levelo_inurba_marseille","lat":43.30541,"lon":5.38426,"is_reserved":false,"is_disabled":false,"rental_uris":{"android":"levelo://app?vid=7300afce-9798-4945-835d-6c8de6045b8a","ios":"levelo://app?vid=7300afce-9798-4945-835d-6c8de6045b8a"},"vehicle_type_id":"4","last_reported":1727266636,"current_range_meters":10800,"station_id":"ce4bgg92rcd13ifvqb30","pricing_plan_id":"cebpf4jnsgd1na2vs0mg"},{"bike_id":"48693abf-83e0-444e-a4af-2bfbc9d6a6de","system_id":"levelo_inurba_marseille","lat":43.30955,"lon":5.39036,"is_reserved":false,"is_disabled":false,"rental_uris":{"android":"levelo://app?vid=48693abf-83e0-444e-a4af-2bfbc9d6a6de","ios":"levelo://app?vid=48693abf-83e0-444e-a4af-2bfbc9d6a6de"},"vehicle_type_id":"4","last_reported":1727266636,"current_range_meters":15200,"station_id":"ce4bgup2rcd13ifvqco0","pricing_plan_id":"cebpf4jnsgd1na2vs0mg"},{"bike_id":"22a93696-29c8-4204-b668-5cf26c040a0d","system_id":"levelo_inurba_marseille","lat":43.32364,"lon":5.38887,"is_reserved":false,"is_disabled":false,"rental_uris":{"android":"levelo://app?vid=22a93696-29c8-4204-b668-5cf26c040a0d","ios":"levelo://app?vid=22a93696-29c8-4204-b668-5cf26c040a0d"},"vehicle_type_id":"4","last_reported":1727266636,"current_range_meters":27600,"station_id":"ce4bhqp2rcd13ifvqhog","pricing_plan_id":"cebpf4jnsgd1na2vs0mg"},{"bike_id":"0b618dbf-d966-4666-aea6-7575082450fa","system_id":"levelo_inurba_marseille","lat":43.30143,"lon":5.37419,"is_reserved":false,"is_disabled":false,"rental_uris":{"android":"levelo://app?vid=0b618dbf-d966-4666-aea6-7575082450fa","ios":"levelo://app?vid=0b618dbf-d966-4666-aea6-7575082450fa"},"vehicle_type_id":"4","last_reported":1727266636,"current_range_meters":27600,"station_id":"ce4bgs92rcd13ifvqcc0","pricing_plan_id":"cebpf4jnsgd1na2vs0mg"},{"bike_id":"7827170f-fe53-4f76-acc5-1f9d10e67145","system_id":"levelo_inurba_marseille","lat":43.22932,"lon":5.35375,"is_reserved":false,"is_disabled":false,"rental_uris":{"android":"levelo://app?vid=7827170f-fe53-4f76-acc5-1f9d10e67145","ios":"levelo://app?vid=7827170f-fe53-4f76-acc5-1f9d10e67145"},"vehicle_type_id":"4","last_reported":1727266636,"current_range_meters":38000,"station_id":"cpo3532slgdg3j2ikp40","pricing_plan_id":"cebpf4jnsgd1na2vs0mg"},{"bike_id":"fe06af04-fbb5-4642-911d-6d451bcd8306","system_id":"levelo_inurba_marseille","lat":43.29587,"lon":5.36734,"is_reserved":false,"is_disabled":false,"rental_uris":{"android":"levelo://app?vid=fe06af04-fbb5-4642-911d-6d451bcd8306","ios":"levelo://app?vid=fe06af04-fbb5-4642-911d-6d451bcd8306"},"vehicle_type_id":"4","last_reported":1727266636,"current_range_meters":7200,"station_id":"ce4bgph2rcd13ifvqc2g","pricing_plan_id":"cebpf4jnsgd1na2vs0mg"},{"bike_id":"d831a0c8-0bcd-4449-91a5-836df1a52d4b","system_id":"levelo_inurba_marseille","lat":43.307183,"lon":5.37276,"is_reserved":false,"is_disabled":false,"rental_uris":{"android":"levelo://app?vid=d831a0c8-0bcd-4449-91a5-836df1a52d4b","ios":"levelo://app?vid=d831a0c8-0bcd-4449-91a5-836df1a52d4b"},"vehicle_type_id":"4","last_reported":1727266636,"current_range_meters":10800,"station_id":"","pricing_plan_id":"cebpf4jnsgd1na2vs0mg"},{"bike_id":"b41fc8d1-aaa6-48b8-85ea-0782e9dda81a","system_id":"levelo_inurba_marseille","lat":43.29586,"lon":5.36728,"is_reserved":false,"is_disabled":false,"rental_uris":{"android":"levelo://app?vid=b41fc8d1-aaa6-48b8-85ea-0782e9dda81a","ios":"levelo://app?vid=b41fc8d1-aaa6-48b8-85ea-0782e9dda81a"},"vehicle_type_id":"4","last_reported":1727266636,"current_range_meters":38000,"station_id":"ce4bgph2rcd13ifvqc2g","pricing_plan_id":"cebpf4jnsgd1na2vs0mg"},{"bike_id":"37ea3e6e-16e9-42b3-b4f9-836c84a7a894","system_id":"levelo_inurba_marseille","lat":43.23191,"lon":5.39979,"is_reserved":false,"is_disabled":false,"rental_uris":{"android":"levelo://app?vid=37ea3e6e-16e9-42b3-b4f9-836c84a7a894","ios":"levelo://app?vid=37ea3e6e-16e9-42b3-b4f9-836c84a7a894"},"vehicle_type_id":"4","last_reported":1727266636,"current_range_meters":27200,"station_id":"ce4bhn12rcd13ifvqgqg","pricing_plan_id":"cebpf4jnsgd1na2vs0mg"},{"bike_id":"8bb6b925-c5d1-4e9a-a876-08dc5f15bd7d","system_id":"levelo_inurba_marseille","lat":43.33722,"lon":5.39182,"is_reserved":false,"is_disabled":false,"rental_uris":{"android":"levelo://app?vid=8bb6b925-c5d1-4e9a-a876-08dc5f15bd7d","ios":"levelo://app?vid=8bb6b925-c5d1-4e9a-a876-08dc5f15bd7d"},"vehicle_type_id":"4","last_reported":1727266636,"current_range_meters":32400,"station_id":"ce4bhr92rcd13ifvqhsg","pricing_plan_id":"cebpf4jnsgd1na2vs0mg"},{"bike_id":"25fc008f-cba0-4520-a495-da20005b2eca","system_id":"levelo_inurba_marseille","lat":43.29559,"lon":5.42287,"is_reserved":false,"is_disabled":false,"rental_uris":{"android":"levelo://app?vid=25fc008f-cba0-4520-a495-da20005b2eca","ios":"levelo://app?vid=25fc008f-cba0-4520-a495-da20005b2eca"},"vehicle_type_id":"4","last_reported":1727266636,"current_range_meters":35600,"station_id":"ce4bhph2rcd13ifvqhdg","pricing_plan_id":"cebpf4jnsgd1na2vs0mg"},{"bike_id":"0a4fc341-7de9-4cab-885c-82e308df7632","system_id":"levelo_inurba_marseille","lat":43.30546,"lon":5.36542,"is_reserved":false,"is_disabled":false,"rental_uris":{"android":"levelo://app?vid=0a4fc341-7de9-4cab-885c-82e308df7632","ios":"levelo://app?vid=0a4fc341-7de9-4cab-885c-82e308df7632"},"vehicle_type_id":"4","last_reported":1727266636,"current_range_meters":30400,"station_id":"ce4bgs12rcd13ifvqcag","pricing_plan_id":"cebpf4jnsgd1na2vs0mg"},{"bike_id":"7d13bfe6-cac1-417a-a866-11f3f6431dbc","system_id":"levelo_inurba_marseille","lat":43.28856,"lon":5.37141,"is_reserved":false,"is_disabled":false,"rental_uris":{"android":"levelo://app?vid=7d13bfe6-cac1-417a-a866-11f3f6431dbc","ios":"levelo://app?vid=7d13bfe6-cac1-417a-a866-11f3f6431dbc"},"vehicle_type_id":"4","last_reported":1727266636,"current_range_meters":26000,"station_id":"ce4bht12rcd13ifvqi60","pricing_plan_id":"cebpf4jnsgd1na2vs0mg"},{"bike_id":"4a4bfd88-bdfc-4802-b3a8-e798e4274727","system_id":"levelo_inurba_marseille","lat":43.32288,"lon":5.3825,"is_reserved":false,"is_disabled":false,"rental_uris":{"android":"levelo://app?vid=4a4bfd88-bdfc-4802-b3a8-e798e4274727","ios":"levelo://app?vid=4a4bfd88-bdfc-4802-b3a8-e798e4274727"},"vehicle_type_id":"4","last_reported":1727266636,"current_range_meters":28400,"station_id":"ce4bhr12rcd13ifvqhqg","pricing_plan_id":"cebpf4jnsgd1na2vs0mg"},{"bike_id":"55510e67-f2d9-4cd2-86a1-c10296679920","system_id":"levelo_inurba_marseille","lat":43.28426,"lon":5.34984,"is_reserved":false,"is_disabled":false,"rental_uris":{"android":"levelo://app?vid=55510e67-f2d9-4cd2-86a1-c10296679920","ios":"levelo://app?vid=55510e67-f2d9-4cd2-86a1-c10296679920"},"vehicle_type_id":"4","last_reported":1727266636,"current_range_meters":26000,"station_id":"ce4bhbh2rcd13ifvqepg","pricing_plan_id":"cebpf4jnsgd1na2vs0mg"},{"bike_id":"6d96f985-9c01-48a6-84cc-38d4437fa126","system_id":"levelo_inurba_marseille","lat":43.23155,"lon":5.43706,"is_reserved":false,"is_disabled":false,"rental_uris":{"android":"levelo://app?vid=6d96f985-9c01-48a6-84cc-38d4437fa126","ios":"levelo://app?vid=6d96f985-9c01-48a6-84cc-38d4437fa126"},"vehicle_type_id":"4","last_reported":1727266636,"current_range_meters":12800,"station_id":"ce4bhmp2rcd13ifvqgog","pricing_plan_id":"cebpf4jnsgd1na2vs0mg"},{"bike_id":"82958840-f2ed-4e3e-97c4-30ae1a290766","system_id":"levelo_inurba_marseille","lat":43.3015,"lon":5.38083,"is_reserved":false,"is_disabled":false,"rental_uris":{"android":"levelo://app?vid=82958840-f2ed-4e3e-97c4-30ae1a290766","ios":"levelo://app?vid=82958840-f2ed-4e3e-97c4-30ae1a290766"},"vehicle_type_id":"4","last_reported":1727266636,"current_range_meters":30400,"station_id":"ce4bgjp2rcd13ifvqbh0","pricing_plan_id":"cebpf4jnsgd1na2vs0mg"},{"bike_id":"9fa31e2d-5cc3-46db-a1f4-a7af90113ebd","system_id":"levelo_inurba_marseille","lat":43.3034,"lon":5.40431,"is_reserved":false,"is_disabled":false,"rental_uris":{"android":"levelo://app?vid=9fa31e2d-5cc3-46db-a1f4-a7af90113ebd","ios":"levelo://app?vid=9fa31e2d-5cc3-46db-a1f4-a7af90113ebd"},"vehicle_type_id":"4","last_reported":1727266636,"current_range_meters":12400,"station_id":"ce4bh012rcd13ifvqd10","pricing_plan_id":"cebpf4jnsgd1na2vs0mg"},{"bike_id":"2a5a26eb-1e6d-4720-a5c0-14737be0e39b","system_id":"levelo_inurba_marseille","lat":43.29517,"lon":5.37511,"is_reserved":false,"is_disabled":false,"rental_uris":{"android":"levelo://app?vid=2a5a26eb-1e6d-4720-a5c0-14737be0e39b","ios":"levelo://app?vid=2a5a26eb-1e6d-4720-a5c0-14737be0e39b"},"vehicle_type_id":"4","last_reported":1727266636,"current_range_meters":6000,"station_id":"ce4bgkp2rcd13ifvqbmg","pricing_plan_id":"cebpf4jnsgd1na2vs0mg"},{"bike_id":"55629b39-5f30-46c9-a027-cdbff5918041","system_id":"levelo_inurba_marseille","lat":43.33028,"lon":5.39044,"is_reserved":false,"is_disabled":false,"rental_uris":{"android":"levelo://app?vid=55629b39-5f30-46c9-a027-cdbff5918041","ios":"levelo://app?vid=55629b39-5f30-46c9-a027-cdbff5918041"},"vehicle_type_id":"4","last_reported":1727266636,"current_range_meters":39200,"station_id":"ce4bhr92rcd13ifvqhrg","pricing_plan_id":"cebpf4jnsgd1na2vs0mg"},{"bike_id":"f49eb88d-699d-45b8-8315-3888fc1f0652","system_id":"levelo_inurba_marseille","lat":43.29045,"lon":5.3996,"is_reserved":false,"is_disabled":false,"rental_uris":{"android":"levelo://app?vid=f49eb88d-699d-45b8-8315-3888fc1f0652","ios":"levelo://app?vid=f49eb88d-699d-45b8-8315-3888fc1f0652"},"vehicle_type_id":"4","last_reported":1727266636,"current_range_meters":24000,"station_id":"ce4bh392rcd13ifvqdm0","pricing_plan_id":"cebpf4jnsgd1na2vs0mg"},{"bike_id":"77f0566a-5973-4204-864d-ffbe42722600","system_id":"levelo_inurba_marseille","lat":43.30133,"lon":5.38787,"is_reserved":false,"is_disabled":false,"rental_uris":{"android":"levelo://app?vid=77f0566a-5973-4204-864d-ffbe42722600","ios":"levelo://app?vid=77f0566a-5973-4204-864d-ffbe42722600"},"vehicle_type_id":"4","last_reported":1727266636,"current_range_meters":9200,"station_id":"ce4bghh2rcd13ifvqb60","pricing_plan_id":"cebpf4jnsgd1na2vs0mg"},{"bike_id":"7217a5dd-5fc6-4a42-a4dd-774fb4d97bff","system_id":"levelo_inurba_marseille","lat":43.25113,"lon":5.40321,"is_reserved":false,"is_disabled":false,"rental_uris":{"android":"levelo://app?vid=7217a5dd-5fc6-4a42-a4dd-774fb4d97bff","ios":"levelo://app?vid=7217a5dd-5fc6-4a42-a4dd-774fb4d97bff"},"vehicle_type_id":"4","last_reported":1727266636,"current_range_meters":31200,"station_id":"ce4bhgp2rcd13ifvqfd0","pricing_plan_id":"cebpf4jnsgd1na2vs0mg"},{"bike_id":"0fa02f19-62ea-444b-908b-23c26cd28fb0","system_id":"levelo_inurba_marseille","lat":43.301399,"lon":5.374232,"is_reserved":false,"is_disabled":false,"rental_uris":{"android":"levelo://app?vid=0fa02f19-62ea-444b-908b-23c26cd28fb0","ios":"levelo://app?vid=0fa02f19-62ea-444b-908b-23c26cd28fb0"},"vehicle_type_id":"4","last_reported":1727266636,"current_range_meters":39200,"station_id":"ce4bgs92rcd13ifvqcc0","pricing_plan_id":"cebpf4jnsgd1na2vs0mg"},{"bike_id":"1ac5bad7-a8fc-4000-a19e-ab73856fa5db","system_id":"levelo_inurba_marseille","lat":43.28724,"lon":5.37951,"is_reserved":false,"is_disabled":false,"rental_uris":{"android":"levelo://app?vid=1ac5bad7-a8fc-4000-a19e-ab73856fa5db","ios":"levelo://app?vid=1ac5bad7-a8fc-4000-a19e-ab73856fa5db"},"vehicle_type_id":"4","last_reported":1727266636,"current_range_meters":32800,"station_id":"ce4bh9p2rcd13ifvqec0","pricing_plan_id":"cebpf4jnsgd1na2vs0mg"},{"bike_id":"adbf1946-4b4c-4718-a791-6ad29182d938","system_id":"levelo_inurba_marseille","lat":43.28941,"lon":5.3664,"is_reserved":false,"is_disabled":false,"rental_uris":{"android":"levelo://app?vid=adbf1946-4b4c-4718-a791-6ad29182d938","ios":"levelo://app?vid=adbf1946-4b4c-4718-a791-6ad29182d938"},"vehicle_type_id":"4","last_reported":1727266636,"current_range_meters":19200,"station_id":"ce4bhap2rcd13ifvqek0","pricing_plan_id":"cebpf4jnsgd1na2vs0mg"},{"bike_id":"aedaee93-41e3-4b56-a914-6ef53120ed85","system_id":"levelo_inurba_marseille","lat":43.30528,"lon":5.36715,"is_reserved":false,"is_disabled":false,"rental_uris":{"android":"levelo://app?vid=aedaee93-41e3-4b56-a914-6ef53120ed85","ios":"levelo://app?vid=aedaee93-41e3-4b56-a914-6ef53120ed85"},"vehicle_type_id":"4","last_reported":1727266636,"current_range_meters":14400,"station_id":"ce4bgrp2rcd13ifvqc9g","pricing_plan_id":"cebpf4jnsgd1na2vs0mg"},{"bike_id":"5e787303-50e2-4b6f-ac85-c0e6d3015235","system_id":"levelo_inurba_marseille","lat":43.29896,"lon":5.43656,"is_reserved":false,"is_disabled":false,"rental_uris":{"android":"levelo://app?vid=5e787303-50e2-4b6f-ac85-c0e6d3015235","ios":"levelo://app?vid=5e787303-50e2-4b6f-ac85-c0e6d3015235"},"vehicle_type_id":"4","last_reported":1727266636,"current_range_meters":38000,"station_id":"ce4bhpp2rcd13ifvqhfg","pricing_plan_id":"cebpf4jnsgd1na2vs0mg"},{"bike_id":"c6c83e13-3f99-4f3d-bb76-43f1f3e8331d","system_id":"levelo_inurba_marseille","lat":43.31348,"lon":5.36712,"is_reserved":false,"is_disabled":false,"rental_uris":{"android":"levelo://app?vid=c6c83e13-3f99-4f3d-bb76-43f1f3e8331d","ios":"levelo://app?vid=c6c83e13-3f99-4f3d-bb76-43f1f3e8331d"},"vehicle_type_id":"4","last_reported":1727266636,"current_range_meters":23200,"station_id":"ce4bgr92rcd13ifvqc6g","pricing_plan_id":"cebpf4jnsgd1na2vs0mg"},{"bike_id":"ede37da0-431f-462e-af97-45c71435ab2a","system_id":"levelo_inurba_marseille","lat":43.24185,"lon":5.39718,"is_reserved":false,"is_disabled":false,"rental_uris":{"android":"levelo://app?vid=ede37da0-431f-462e-af97-45c71435ab2a","ios":"levelo://app?vid=ede37da0-431f-462e-af97-45c71435ab2a"},"vehicle_type_id":"4","last_reported":1727266636,"current_range_meters":20000,"station_id":"ce4bhn12rcd13ifvqgpg","pricing_plan_id":"cebpf4jnsgd1na2vs0mg"},{"bike_id":"2fbbc555-ae02-4198-8e3b-731b4f411622","system_id":"levelo_inurba_marseille","lat":43.24074,"lon":5.3776,"is_reserved":false,"is_disabled":false,"rental_uris":{"android":"levelo://app?vid=2fbbc555-ae02-4198-8e3b-731b4f411622","ios":"levelo://app?vid=2fbbc555-ae02-4198-8e3b-731b4f411622"},"vehicle_type_id":"4","last_reported":1727266636,"current_range_meters":12000,"station_id":"ce4bhnp2rcd13ifvqgvg","pricing_plan_id":"cebpf4jnsgd1na2vs0mg"},{"bike_id":"5a424b04-e0fc-4717-afab-aacb064c7c38","system_id":"levelo_inurba_marseille","lat":43.3016,"lon":5.38083,"is_reserved":false,"is_disabled":false,"rental_uris":{"android":"levelo://app?vid=5a424b04-e0fc-4717-afab-aacb064c7c38","ios":"levelo://app?vid=5a424b04-e0fc-4717-afab-aacb064c7c38"},"vehicle_type_id":"4","last_reported":1727266636,"current_range_meters":36400,"station_id":"ce4bgjp2rcd13ifvqbh0","pricing_plan_id":"cebpf4jnsgd1na2vs0mg"},