{"last_updated":1731917609,"ttl":60,"version":"2.2","data":{"bikes":[{"bike_id":"cd58cff6-9659-4f50-9a0b-78bb39581d4a","system_id":"levelo_inurba_marseille","lat":43.337444,"lon":5.374475,"is_reserved":false,"is_disabled":false,"rental_uris":{"android":"levelo://app?vid=cd58cff6-9659-4f50-9a0b-78bb39581d4a","ios":"levelo://app?vid=cd58cff6-9659-4f50-9a0b-78bb39581d4a"},"vehicle_type_id":"4","last_reported":1731917609,"current_range_meters":38800,"station_id":"","pricing_plan_id":"cebpf4jnsgd1na2vs0mg"},{"bike_id":"0749ee66-2697-48e2-9594-44b37738757e","system_id":"levelo_inurba_marseille","lat":43.33744,"lon":5.37468,"is_reserved":false,"is_disabled":false,"rental_uris":{"android":"levelo://app?vid=0749ee66-2697-48e2-9594-44b37738757e","ios":"levelo://app?vid=0749ee66-2697-48e2-9594-44b37738757e"},"vehicle_type_id":"4","last_reported":1731917609,"current_range_meters":38800,"station_id":"","pricing_plan_id":"cebpf4jnsgd1na2vs0mg"},{"bike_id":"4dcf46ca-97d3-4646-8193-7170ea46e339","system_id":"levelo_inurba_marseille","lat":43.24083,"lon":5.37757,"is_reserved":false,"is_disabled":false,"rental_uris":{"android":"levelo://app?vid=4dcf46ca-97d3-4646-8193-7170ea46e339","ios":"levelo://app?vid=4dcf46ca-97d3-4646-8193-7170ea46e339"},"vehicle_type_id":"4","last_reported":1731917609,"current_range_meters":6800,"station_id":"ce4bhnp2rcd13ifvqgvg","pricing_plan_id":"cebpf4jnsgd1na2vs0mg"},{"bike_id":"ffe82358-94e8-461e-850e-3a6078b9cd88","system_id":"levelo_inurba_marseille","lat":43.31887,"lon":5.40751,"is_reserved":false,"is_disabled":false,"rental_uris":{"android":"levelo://app?vid=ffe82358-94e8-461e-850e-3a6078b9cd88","ios":"levelo://app?vid=ffe82358-94e8-461e-850e-3a6078b9cd88"},"vehicle_type_id":"4","last_reported":1731917609,"current_range_meters":24000,"station_id":"ce4bhq12rcd13ifvqhig","pricing_plan_id":"cebpf4jnsgd1na2vs0mg"},{"bike_id":"9d3506a7-93b0-481a-a9f4-f87ba4b5a00d","system_id":"levelo_inurba_marseille","lat":43.24078,"lon":5.37756,"is_reserved":false,"is_disabled":false,"rental_uris":{"android":"levelo://app?vid=9d3506a7-93b0-481a-a9f4-f87ba4b5a00d","ios":"levelo://app?vid=9d3506a7-93b0-481a-a9f4-f87ba4b5a00d"},"vehicle_type_id":"4","last_reported":1731917609,"current_range_meters":14800,"station_id":"ce4bhnp2rcd13ifvqgvg","pricing_plan_id":"cebpf4jnsgd1na2vs0mg"},{"bike_id":"e4d4b6a3-efd8-4f6a-b18f-9e5609305c48","system_id":"levelo_inurba_marseille","lat":43.25595,"lon":5.38219,"is_reserved":false,"is_disabled":false,"rental_uris":{"android":"levelo://app?vid=e4d4b6a3-efd8-4f6a-b18f-9e5609305c48","ios":"levelo://app?vid=e4d4b6a3-efd8-4f6a-b18f-9e5609305c48"},"vehicle_type_id":"4","last_reported":1731917609,"current_range_meters":15200,"station_id":"ce4bhih2rcd13ifvqfs0","pricing_plan_id":"cebpf4jnsgd1na2vs0mg"},{"bike_id":"0672d165-d197-4474-bbec-2df95543fd2f","system_id":"levelo_inurba_marseille","lat":43.29903,"lon":5.43668,"is_reserved":false,"is_disabled":false,"rental_uris":{"android":"levelo://app?vid=0672d165-d197-4474-bbec-2df95543fd2f","ios":"levelo://app?vid=0672d165-d197-4474-bbec-2df95543fd2f"},"vehicle_type_id":"4","last_reported":1731917609,"current_range_meters":38400,"station_id":"ce4bhpp2rcd13ifvqhfg","pricing_plan_id":"cebpf4jnsgd1na2vs0mg"},{"bike_id":"0abafd50-d6f0-4ae1-8b2e-e1936ed5039b","system_id":"levelo_inurba_marseille","lat":43.29778,"lon":5.41348,"is_reserved":false,"is_disabled":false,"rental_uris":{"android":"levelo://app?vid=0abafd50-d6f0-4ae1-8b2e-e1936ed5039b","ios":"levelo://app?vid=0abafd50-d6f0-4ae1-8b2e-e1936ed5039b"},"vehicle_type_id":"4","last_reported":1731917609,"current_range_meters":4800,"station_id":"","pricing_plan_id":"cebpf4jnsgd1na2vs0mg"},{"bike_id":"8e1608f7-0c9d-4d5a-bdae-d5e906f9b475","system_id":"levelo_inurba_marseille","lat":43.2314,"lon":5.4368,"is_reserved":false,"is_disabled":false,"rental_uris":{"android":"levelo://app?vid=8e1608f7-0c9d-4d5a-bdae-d5e906f9b475","ios":"levelo://app?vid=8e1608f7-0c9d-4d5a-bdae-d5e906f9b475"},"vehicle_type_id":"4","last_reported":1731917609,"current_range_meters":8800,"station_id":"ce4bhmp2rcd13ifvqgog","pricing_plan_id":"cebpf4jnsgd1na2vs0mg"},{"bike_id":"0e0e35ca-86b6-497b-80ee-9069c75142b8","system_id":"levelo_inurba_marseille","lat":43.27812,"lon":5.40714,"is_reserved":false,"is_disabled":false,"rental_uris":{"android":"levelo://app?vid=0e0e35ca-86b6-497b-80ee-9069c75142b8","ios":"levelo://app?vid=0e0e35ca-86b6-497b-80ee-9069c75142b8"},"vehicle_type_id":"4","last_reported":1731917609,"current_range_meters":8400,"station_id":"ce4bhnh2rcd13ifvqgtg","pricing_plan_id":"cebpf4jnsgd1na2vs0mg"},{"bike_id":"1a1fece6-24ee-48c7-97db-f2cc78ba1021","system_id":"levelo_inurba_marseille","lat":43.3016,"lon":5.3809,"is_reserved":false,"is_disabled":false,"rental_uris":{"android":"levelo://app?vid=1a1fece6-24ee-48c7-97db-f2cc78ba1021","ios":"levelo://app?vid=1a1fece6-24ee-48c7-97db-f2cc78ba1021"},"vehicle_type_id":"4","last_reported":1731917609,"current_range_meters":38800,"station_id":"ce4bgjp2rcd13ifvqbh0","pricing_plan_id":"cebpf4jnsgd1na2vs0mg"},{"bike_id":"8a7790ec-4774-462c-8a4d-166c8cf2570f","system_id":"levelo_inurba_marseille","lat":43.31883,"lon":5.40741,"is_reserved":false,"is_disabled":false,"rental_uris":{"android":"levelo://app?vid=8a7790ec-4774-462c-8a4d-166c8cf2570f","ios":"levelo://app?vid=8a7790ec-4774-462c-8a4d-166c8cf2570f"},"vehicle_type_id":"4","last_reported":1731917609,"current_range_meters":35600,"station_id":"ce4bhq12rcd13ifvqhig","pricing_plan_id":"cebpf4jnsgd1na2vs0mg"},{"bike_id":"d8168399-7f51-43a0-919a-82c36d2fe8f4","system_id":"levelo_inurba_marseille","lat":43.3016,"lon":5.38082,"is_reserved":false,"is_disabled":false,"rental_uris":{"android":"levelo://app?vid=d8168399-7f51-43a0-919a-82c36d2fe8f4","ios":"levelo://app?vid=d8168399-7f51-43a0-919a-82c36d2fe8f4"},"vehicle_type_id":"4","last_reported":1731917609,"current_range_meters":20400,"station_id":"ce4bgjp2rcd13ifvqbh0","pricing_plan_id":"cebpf4jnsgd1na2vs0mg"},{"bike_id":"4c167bc3-2964-4625-adc0-c92e539ad80f","system_id":"levelo_inurba_marseille","lat":43.28286,"lon":5.40789,"is_reserved":false,"is_disabled":false,"rental_uris":{"android":"levelo://app?vid=4c167bc3-2964-4625-adc0-c92e539ad80f","ios":"levelo://app?vid=4c167bc3-2964-4625-adc0-c92e539ad80f"},"vehicle_type_id":"4","last_reported":1731917609,"current_range_meters":30400,"station_id":"","pricing_plan_id":"cebpf4jnsgd1na2vs0mg"},{"bike_id":"4d3b4655-4b5b-47a3-9888-1cf2725c1ba6","system_id":"levelo_inurba_marseille","lat":43.30274,"lon":5.37714,"is_reserved":false,"is_disabled":false,"rental_uris":{"android":"levelo://app?vid=4d3b4655-4b5b-47a3-9888-1cf2725c1ba6","ios":"levelo://app?vid=4d3b4655-4b5b-47a3-9888-1cf2725c1ba6"},"vehicle_type_id":"4","last_reported":1731917609,"current_range_meters":25600,"station_id":"ce4bguh2rcd13ifvqcj0","pricing_plan_id":"cebpf4jnsgd1na2vs0mg"},{"bike_id":"dc24ccdd-f78a-4bfd-b60d-87b5aafd671c","system_id":"levelo_inurba_marseille","lat":43.30547,"lon":5.36548,"is_reserved":false,"is_disabled":false,"rental_uris":{"android":"levelo://app?vid=dc24ccdd-f78a-4bfd-b60d-87b5aafd671c","ios":"levelo://app?vid=dc24ccdd-f78a-4bfd-b60d-87b5aafd671c"},"vehicle_type_id":"4","last_reported":1731917609,"current_range_meters":34000,"station_id":"ce4bgs12rcd13ifvqcag","pricing_plan_id":"cebpf4jnsgd1na2vs0mg"},{"bike_id":"853a1166-61cc-42b2-9e7f-3b747ea4f57f","system_id":"levelo_inurba_marseille","lat":43.29557,"lon":5.42292,"is_reserved":false,"is_disabled":false,"rental_uris":{"android":"levelo://app?vid=853a1166-61cc-42b2-9e7f-3b747ea4f57f","ios":"levelo://app?vid=853a1166-61cc-42b2-9e7f-3b747ea4f57f"},"vehicle_type_id":"4","last_reported":1731917609,"current_range_meters":38800,"station_id":"ce4bhph2rcd13ifvqhdg","pricing_plan_id":"cebpf4jnsgd1na2vs0mg"},{"bike_id":"2dee49ce-519e-46ae-a73b-e2b9369760e1","system_id":"levelo_inurba_marseille","lat":43.3017,"lon":5.38085,"is_reserved":false,"is_disabled":false,"rental_uris":{"android":"levelo://app?vid=2dee49ce-519e-46ae-a73b-e2b9369760e1","ios":"levelo://app?vid=2dee49ce-519e-46ae-a73b-e2b9369760e1"},"vehicle_type_id":"4","last_reported":1731917609,"current_range_meters":24800,"station_id":"ce4bgjp2rcd13ifvqbh0","pricing_plan_id":"cebpf4jnsgd1na2vs0mg"},{"bike_id":"6b0ea79e-cb12-4a50-9845-e4686b3cacc8","system_id":"levelo_inurba_marseille","lat":43.295751,"lon":5.399791,"is_reserved":false,"is_disabled":false,"rental_uris":{"android":"levelo://app?vid=6b0ea79e-cb12-4a50-9845-e4686b3cacc8","ios":"levelo://app?vid=6b0ea79e-cb12-4a50-9845-e4686b3cacc8"},"vehicle_type_id":"4","last_reported":1731917609,"current_range_meters":6000,"station_id":"","pricing_plan_id":"cebpf4jnsgd1na2vs0mg"},{"bike_id":"0fc5a783-cead-43fe-807f-e50ea4607906","system_id":"levelo_inurba_marseille","lat":43.32548,"lon":5.41469,"is_reserved":false,"is_disabled":false,"rental_uris":{"android":"levelo://app?vid=0fc5a783-cead-43fe-807f-e50ea4607906","ios":"levelo://app?vid=0fc5a783-cead-43fe-807f-e50ea4607906"},"vehicle_type_id":"4","last_reported":1731917609,"current_range_meters":6000,"station_id":"ce4bhq12rcd13ifvqhhg","pricing_plan_id":"cebpf4jnsgd1na2vs0mg"},{"bike_id":"6b1bb570-1834-4a05-babb-c2e8ba5691b5","system_id":"levelo_inurba_marseille","lat":43.30149,"lon":5.38092,"is_reserved":false,"is_disabled":false,"rental_uris":{"android":"levelo://app?vid=6b1bb570-1834-4a05-babb-c2e8ba5691b5","ios":"levelo://app?vid=6b1bb570-1834-4a05-babb-c2e8ba5691b5"},"vehicle_type_id":"4","last_reported":1731917609,"current_range_meters":9600,"station_id":"ce4bgjp2rcd13ifvqbh0","pricing_plan_id":"cebpf4jnsgd1na2vs0mg"},{"bike_id":"e0b967c0-b35f-4934-9248-f55c41b4f08b","system_id":"levelo_inurba_marseille","lat":43.28151,"lon":5.4422,"is_reserved":false,"is_disabled":false,"rental_uris":{"android":"levelo://app?vid=e0b967c0-b35f-4934-9248-f55c41b4f08b","ios":"levelo://app?vid=e0b967c0-b35f-4934-9248-f55c41b4f08b"},"vehicle_type_id":"4","last_reported":1731917609,"current_range_meters":4400,"station_id":"","pricing_plan_id":"cebpf4jnsgd1na2vs0mg"},{"bike_id":"0b38b36a-cb8f-48e5-a013-7abb6c4dcc0e","system_id":"levelo_inurba_marseille","lat":43.27996,"lon":5.40017,"is_reserved":false,"is_disabled":false,"rental_uris":{"android":"levelo://app?vid=0b38b36a-cb8f-48e5-a013-7abb6c4dcc0e","ios":"levelo://app?vid=0b38b36a-cb8f-48e5-a013-7abb6c4dcc0e"},"vehicle_type_id":"4","last_reported":1731917609,"current_range_meters":30000,"station_id":"ce4bho92rcd13ifvqh4g","pricing_plan_id":"cebpf4jnsgd1na2vs0mg"},{"bike_id":"ebc5ff2a-1934-4dc8-9d0f-bc104e73ada8","system_id":"levelo_inurba_marseille","lat":43.30145,"lon":5.37415,"is_reserved":false,"is_disabled":false,"rental_uris":{"android":"levelo://app?vid=ebc5ff2a-1934-4dc8-9d0f-bc104e73ada8","ios":"levelo://app?vid=ebc5ff2a-1934-4dc8-9d0f-bc104e73ada8"},"vehicle_type_id":"4","last_reported":1731917609,"current_range_meters":26000,"station_id":"ce4bgs92rcd13ifvqcc0","pricing_plan_id":"cebpf4jnsgd1na2vs0mg"},{"bike_id":"5be600ff-958a-4031-9ec8-d554b363a204","system_id":"levelo_inurba_marseille","lat":43.24076,"lon":5.37759,"is_reserved":false,"is_disabled":false,"rental_uris":{"android":"levelo://app?vid=5be600ff-958a-4031-9ec8-d554b363a204","ios":"levelo://app?vid=5be600ff-958a-4031-9ec8-d554b363a204"},"vehicle_type_id":"4","last_reported":1731917609,"current_range_meters":16400,"station_id":"ce4bhnp2rcd13ifvqgvg","pricing_plan_id":"cebpf4jnsgd1na2vs0mg"},{"bike_id":"4305c1d1-ca62-4e47-ac96-b9970d6e957d","system_id":"levelo_inurba_marseille","lat":43.23194,"lon":5.35551,"is_reserved":false,"is_disabled":false,"rental_uris":{"android":"levelo://app?vid=4305c1d1-ca62-4e47-ac96-b9970d6e957d","ios":"levelo://app?vid=4305c1d1-ca62-4e47-ac96-b9970d6e957d"},"vehicle_type_id":"4","last_reported":1731917609,"current_range_meters":38400,"station_id":"ce4bhu92rcd13ifvqi70","pricing_plan_id":"cebpf4jnsgd1na2vs0mg"},{"bike_id":"2bd3ae1c-22d2-4b0f-9fd7-42d6b84fc3a3","system_id":"levelo_inurba_marseille","lat":43.3361,"lon":5.41044,"is_reserved":false,"is_disabled":false,"rental_uris":{"android":"levelo://app?vid=2bd3ae1c-22d2-4b0f-9fd7-42d6b84fc3a3","ios":"levelo://app?vid=2bd3ae1c-22d2-4b0f-9fd7-42d6b84fc3a3"},"vehicle_type_id":"4","last_reported":1731917609,"current_range_meters":12000,"station_id":"ce4bhqh2rcd13ifvqhmg","pricing_plan_id":"cebpf4jnsgd1na2vs0mg"},{"bike_id":"79b76398-f4aa-422b-b325-2360d07a8784","system_id":"levelo_inurba_marseille","lat":43.3373,"lon":5.39183,"is_reserved":false,"is_disabled":false,"rental_uris":{"android":"levelo://app?vid=79b76398-f4aa-422b-b325-2360d07a8784","ios":"levelo://app?vid=79b76398-f4aa-422b-b325-2360d07a8784"},"vehicle_type_id":"4","last_reported":1731917609,"current_range_meters":38400,"station_id":"ce4bhr92rcd13ifvqhsg","pricing_plan_id":"cebpf4jnsgd1na2vs0mg"},{"bike_id":"cb063066-bc04-4247-be1a-9eb33e7fe1b9","system_id":"levelo_inurba_marseille","lat":43.31344,"lon":5.36728,"is_reserved":false,"is_disabled":false,"rental_uris":{"android":"levelo://app?vid=cb063066-bc04-4247-be1a-9eb33e7fe1b9","ios":"levelo://app?vid=cb063066-bc04-4247-be1a-9eb33e7fe1b9"},"vehicle_type_id":"4","last_reported":1731917609,"current_range_meters":38400,"station_id":"ce4bgr92rcd13ifvqc6g","pricing_plan_id":"cebpf4jnsgd1na2vs0mg"},{"bike_id":"f547dc2a-7341-4371-8e50-941333da4743","system_id":"levelo_inurba_marseille","lat":43.24081,"lon":5.37757,"is_reserved":false,"is_disabled":false,"rental_uris":{"android":"levelo://app?vid=f547dc2a-7341-4371-8e50-941333da4743","ios":"levelo://app?vid=f547dc2a-7341-4371-8e50-941333da4743"},"vehicle_type_id":"4","last_reported":1731917609,"current_range_meters":28800,"station_id":"ce4bhnp2rcd13ifvqgvg","pricing_plan_id":"cebpf4jnsgd1na2vs0mg"},{"bike_id":"3ba2b2e1-3c95-4de7-915d-86cf8ebac199","system_id":"levelo_inurba_marseille","lat":43.23151,"lon":5.43723,"is_reserved":false,"is_disabled":false,"rental_uris":{"android":"levelo://app?vid=3ba2b2e1-3c95-4de7-915d-86cf8ebac199","ios":"levelo://app?vid=3ba2b2e1-3c95-4de7-915d-86cf8ebac199"},"vehicle_type_id":"4","last_reported":1731917609,"current_range_meters":27600,"station_id":"ce4bhmp2rcd13ifvqgog","pricing_plan_id":"cebpf4jnsgd1na2vs0mg"},{"bike_id":"193882bb-8c14-47a7-b4c6-b51fabbf965f","system_id":"levelo_inurba_marseille","lat":43.30142,"lon":5.37412,"is_reserved":false,"is_disabled":false,"rental_uris":{"android":"levelo://app?vid=193882bb-8c14-47a7-b4c6-b51fabbf965f","ios":"levelo://app?vid=193882bb-8c14-47a7-b4c6-b51fabbf965f"},"vehicle_type_id":"4","last_reported":1731917609,"current_range_meters":25600,"station_id":"ce4bgs92rcd13ifvqcc0","pricing_plan_id":"cebpf4jnsgd1na2vs0mg"},{"bike_id":"d2f0f3fe-5594-42dd-8e69-8cdbebee7e7d","system_id":"levelo_inurba_marseille","lat":43.23152,"lon":5.43716,"is_reserved":false,"is_disabled":false,"rental_uris":{"android":"levelo://app?vid=d2f0f3fe-5594-42dd-8e69-8cdbebee7e7d","ios":"levelo://app?vid=d2f0f3fe-5594-42dd-8e69-8cdbebee7e7d"},"vehicle_type_id":"4","last_reported":1731917609,"current_range_meters":17600,"station_id":"ce4bhmp2rcd13ifvqgog","pricing_plan_id":"cebpf4jnsgd1na2vs0mg"},{"bike_id":"2c4874ef-9abd-4400-8cd7-bafe971a0da7","system_id":"levelo_inurba_marseille","lat":43.26682,"lon":5.38272,"is_reserved":false,"is_disabled":false,"rental_uris":{"android":"levelo://app?vid=2c4874ef-9abd-4400-8cd7-bafe971a0da7","ios":"levelo://app?vid=2c4874ef-9abd-4400-8cd7-bafe971a0da7"},"vehicle_type_id":"4","last_reported":1731917609,"current_range_meters":38000,"station_id":"ce4bhg92rcd13ifvqf90","pricing_plan_id":"cebpf4jnsgd1na2vs0mg"},{"bike_id":"e0c06d7f-6c9a-4d47-aebf-1f4d87b9a208","system_id":"levelo_inurba_marseille","lat":43.24076,"lon":5.37758,"is_reserved":false,"is_disabled":false,"rental_uris":{"android":"levelo://app?vid=e0c06d7f-6c9a-4d47-aebf-1f4d87b9a208","ios":"levelo://app?vid=e0c06d7f-6c9a-4d47-aebf-1f4d87b9a208"},"vehicle_type_id":"4","last_reported":1731917609,"current_range_meters":29600,"station_id":"ce4bhnp2rcd13ifvqgvg","pricing_plan_id":"cebpf4jnsgd1na2vs0mg"},{"bike_id":"820107f6-5960-4ac9-a0d6-2d6de9c307ba","system_id":"levelo_inurba_marseille","lat":43.31346,"lon":5.36732,"is_reserved":false,"is_disabled":false,"rental_uris":{"android":"levelo://app?vid=820107f6-5960-4ac9-a0d6-2d6de9c307ba","ios":"levelo://app?vid=820107f6-5960-4ac9-a0d6-2d6de9c307ba"},"vehicle_type_id":"4","last_reported":1731917609,"current_range_meters":3600,"station_id":"ce4bgr92rcd13ifvqc6g","pricing_plan_id":"cebpf4jnsgd1na2vs0mg"},{"bike_id":"20b8bb00-4fa4-49d3-b00f-f353e411e243","system_id":"levelo_inurba_marseille","lat":43.27069,"lon":5.42279,"is_reserved":false,"is_disabled":false,"rental_uris":{"android":"levelo://app?vid=20b8bb00-4fa4-49d3-b00f-f353e411e243","ios":"levelo://app?vid=20b8bb00-4fa4-49d3-b00f-f353e411e243"},"vehicle_type_id":"4","last_reported":1731917609,"current_range_meters":17200,"station_id":"ce4bhk92rcd13ifvqgb0","pricing_plan_id":"cebpf4jnsgd1na2vs0mg"},{"bike_id":"5f89f61e-343d-4cfe-8829-222555f36d01","system_id":"levelo_inurba_marseille","lat":43.31355,"lon":5.3671,"is_reserved":false,"is_disabled":false,"rental_uris":{"android":"levelo://app?vid=5f89f61e-343d-4cfe-8829-222555f36d01","ios":"levelo://app?vid=5f89f61e-343d-4cfe-8829-222555f36d01"},"vehicle_type_id":"4","last_reported":1731917609,"current_range_meters":26000,"station_id":"ce4bgr92rcd13ifvqc6g","pricing_plan_id":"cebpf4jnsgd1na2vs0mg"},{"bike_id":"843e9cf8-cb36-40cc-a9bb-d3ba7a303f37","system_id":"levelo_inurba_marseille","lat":43.27495,"lon":5.42452,"is_reserved":false,"is_disabled":false,"rental_uris":{"android":"levelo://app?vid=843e9cf8-cb36-40cc-a9bb-d3ba7a303f37","ios":"levelo://app?vid=843e9cf8-cb36-40cc-a9bb-d3ba7a303f37"},"vehicle_type_id":"4","last_reported":1731917609,"current_range_meters":20000,"station_id":"ce4bhn92rcd13ifvqgrg","pricing_plan_id":"cebpf4jnsgd1na2vs0mg"},{"bike_id":"df760bef-826e-46ed-8504-a518580bb03d","system_id":"levelo_inurba_marseille","lat":43.25939,"lon":5.40903,"is_reserved":false,"is_disabled":false,"rental_uris":{"android":"levelo://app?vid=df760bef-826e-46ed-8504-a518580bb03d","ios":"levelo://app?vid=df760bef-826e-46ed-8504-a518580bb03d"},"vehicle_type_id":"4","last_reported":1731917609,"current_range_meters":19600,"station_id":"ce4bhm92rcd13ifvqglg","pricing_plan_id":"cebpf4jnsgd1na2vs0mg"},{"bike_id":"cb0d1356-500f-4078-a00d-3c9d1fb52b03","system_id":"levelo_inurba_marseille","lat":43.281,"lon":5.37838,"is_reserved":false,"is_disabled":false,"rental_uris":{"android":"levelo://app?vid=cb0d1356-500f-4078-a00d-3c9d1fb52b03","ios":"levelo://app?vid=cb0d1356-500f-4078-a00d-3c9d1fb52b03"},"vehicle_type_id":"4","last_reported":1731917609,"current_range_meters":23200,"station_id":"ce4bha12rcd13ifvqee0","pricing_plan_id":"cebpf4jnsgd1na2vs0mg"},{"bike_id":"06e1c5f2-51a8-4704-a7e0-81b2a4157d88","system_id":"levelo_inurba_marseille","lat":43.28611,"lon":5.35105,"is_reserved":false,"is_disabled":false,"rental_uris":{"android":"levelo://app?vid=06e1c5f2-51a8-4704-a7e0-81b2a4157d88","ios":"levelo://app?vid=06e1c5f2-51a8-4704-a7e0-81b2a4157d88"},"vehicle_type_id":"4","last_reported":1731917609,"current_range_meters":39200,"station_id":"ce4bhch2rcd13ifvqeug","pricing_plan_id":"cebpf4jnsgd1na2vs0mg"},{"bike_id":"4f475baa-25a7-46a4-bbb6-a03c9b045fca","system_id":"levelo_inurba_marseille","lat":43.26031,"lon":5.37546,"is_reserved":false,"is_disabled":false,"rental_uris":{"android":"levelo://app?vid=4f475baa-25a7-46a4-bbb6-a03c9b045fca","ios":"levelo://app?vid=4f475baa-25a7-46a4-bbb6-a03c9b045fca"},"vehicle_type_id":"4","last_reported":1731917609,"current_range_meters":13600,"station_id":"ce4bhgh2rcd13ifvqfa0","pricing_plan_id":"cebpf4jnsgd1na2vs0mg"},{"bike_id":"89e5e066-8e8b-4f46-b612-129fca9a9d8b","system_id":"levelo_inurba_marseille","lat":43.30942,"lon":5.39039,"is_reserved":false,"is_disabled":false,"rental_uris":{"android":"levelo://app?vid=89e5e066-8e8b-4f46-b612-129fca9a9d8b","ios":"levelo://app?vid=89e5e066-8e8b-4f46-b612-129fca9a9d8b"},"vehicle_type_id":"4","last_reported":1731917609,"current_range_meters":39200,"station_id":"ce4bgup2rcd13ifvqco0","pricing_plan_id":"cebpf4jnsgd1na2vs0mg"},{"bike_id":"5cad086e-cb7b-4491-81b8-b4839c9d4e1f","system_id":"levelo_inurba_marseille","lat":43.3361,"lon":5.41027,"is_reserved":false,"is_disabled":false,"rental_uris":{"android":"levelo://app?vid=5cad086e-cb7b-4491-81b8-b4839c9d4e1f","ios":"levelo://app?vid=5cad086e-cb7b-4491-81b8-b4839c9d4e1f"},"vehicle_type_id":"4","last_reported":1731917609,"current_range_meters":36800,"station_id":"ce4bhqh2rcd13ifvqhmg","pricing_plan_id":"cebpf4jnsgd1na2vs0mg"},{"bike_id":"8c43ec51-a327-446e-8cf3-4b92e82d4a0c","system_id":"levelo_inurba_marseille","lat":43.31361,"lon":5.36696,"is_reserved":false,"is_disabled":false,"rental_uris":{"android":"levelo://app?vid=8c43ec51-a327-446e-8cf3-4b92e82d4a0c","ios":"levelo://app?vid=8c43ec51-a327-446e-8cf3-4b92e82d4a0c"},"vehicle_type_id":"4","last_reported":1731917609,"current_range_meters":29600,"station_id":"ce4bgr92rcd13ifvqc6g","pricing_plan_id":"cebpf4jnsgd1na2vs0mg"},{"bike_id":"27757d2e-94cc-46f1-b4e2-8780c773e562","system_id":"levelo_inurba_marseille","lat":43.34141,"lon":5.40898,"is_reserved":false,"is_disabled":false,"rental_uris":{"android":"levelo://app?vid=27757d2e-94cc-46f1-b4e2-8780c773e562","ios":"levelo://app?vid=27757d2e-94cc-46f1-b4e2-8780c773e562"},"vehicle_type_id":"4","last_reported":1731917609,"current_range_meters":29600,"station_id":"ce4bhqh2rcd13ifvqhlg","pricing_plan_id":"cebpf4jnsgd1na2vs0mg"},{"bike_id":"2c916808-1103-40df-bd9a-a6bf4818d9cd","system_id":"levelo_inurba_marseille","lat":43.31352,"lon":5.36707,"is_reserved":false,"is_disabled":false,"rental_uris":{"android":"levelo://app?vid=2c916808-1103-40df-bd9a-a6bf4818d9cd","ios":"levelo://app?vid=2c916808-1103-40df-bd9a-a6bf4818d9cd"},"vehicle_type_id":"4","last_reported":1731917609,"current_range_meters":38800,"station_id":"ce4bgr92rcd13ifvqc6g","pricing_plan_id":"cebpf4jnsgd1na2vs0mg"},{"bike_id":"a6332be3-8b9e-4e6b-bc13-d37dc7c963c9","system_id":"levelo_inurba_marseille","lat":43.27493,"lon":5.42462,"is_reserved":false,"is_disabled":false,"rental_uris":{"android":"levelo://app?vid=a6332be3-8b9e-4e6b-bc13-d37dc7c963c9","ios":"levelo://app?vid=a6332be3-8b9e-4e6b-bc13-d37dc7c963c9"},"vehicle_type_id":"4","last_reported":1731917609,"current_range_meters":23200,"station_id":"ce4bhn92rcd13ifvqgrg","pricing_plan_id":"cebpf4jnsgd1na2vs0mg"},{"bike_id":"f9a03401-7713-439c-a74d-a2e5d319320a","system_id":"levelo_inurba_marseille","lat":43.30398,"lon":5.3753,"is_reserved":false,"is_disabled":false,"rental_uris":{"android":"levelo://app?vid=f9a03401-7713-439c-a74d-a2e5d319320a","ios":"levelo://app?vid=f9a03401-7713-439c-a74d-a2e5d319320a"},"vehicle_type_id":"4","last_reported":1731917609,"current_range_meters":34800,"station_id":"","pricing_plan_id":"cebpf4jnsgd1na2vs0mg"},{"bike_id":"9ec8bda9-b440-4dae-97c7-9c094b51aaa6","system_id":"levelo_inurba_marseille","lat":43.26409,"lon":5.39582,"is_reserved":false,"is_disabled":false,"rental_uris":{"android":"levelo://app?vid=9ec8bda9-b440-4dae-97c7-9c094b51aaa6","ios":"levelo://app?vid=9ec8bda9-b440-4dae-97c7-9c094b51aaa6"},"vehicle_type_id":"4","last_reported":1731917609,"current_range_meters":6000,"station_id":"ce4bhi12rcd13ifvqfo0","pricing_plan_id":"cebpf4jnsgd1na2vs0mg"},{"bike_id":"2f759898-c909-4744-b69a-54f49d63f76e","system_id":"levelo_inurba_marseille","lat":43.28944,"lon":5.36398,"is_reserved":false,"is_disabled":false,"rental_uris":{"android":"levelo://app?vid=2f759898-c909-4744-b69a-54f49d63f76e","ios":"levelo://app?vid=2f759898-c909-4744-b69a-54f49d63f76e"},"vehicle_type_id":"4","last_reported":1731917609,"current_range_meters":38800,"station_id":"ce4bhc92rcd13ifvqetg","pricing_plan_id":"cebpf4jnsgd1na2vs0mg"},{"bike_id":"f493fbd1-a6d2-46e7-bd5f-a282c47329e6","system_id":"levelo_inurba_marseille","lat":43.29899,"lon":5.43674,"is_reserved":false,"is_disabled":false,"rental_uris":{"android":"levelo://app?vid=f493fbd1-a6d2-46e7-bd5f-a282c47329e6","ios":"levelo://app?vid=f493fbd1-a6d2-46e7-bd5f-a282c47329e6"},"vehicle_type_id":"4","last_reported":1731917609,"current_range_meters":38800,"station_id":"ce4bhpp2rcd13ifvqhfg","pricing_plan_id":"cebpf4jnsgd1na2vs0mg"},{"bike_id":"cba5c7ae-999a-4d2c-b630-53c429865eb6","system_id":"levelo_inurba_marseille","lat":43.23151,"lon":5.43722,"is_reserved":false,"is_disabled":false,"rental_uris":{"android":"levelo://app?vid=cba5c7ae-999a-4d2c-b630-53c429865eb6","ios":"levelo://app?vid=cba5c7ae-999a-4d2c-b630-53c429865eb6"},"vehicle_type_id":"4","last_reported":1731917609,"current_range_meters":26800,"station_id":"ce4bhmp2rcd13ifvqgog","pricing_plan_id":"cebpf4jnsgd1na2vs0mg"},{"bike_id":"8700b163-9d6d-4ba4-8f67-8f73e2fafd13","system_id":"levelo_inurba_marseille","lat":43.24069,"lon":5.37763,"is_reserved":false,"is_disabled":false,"rental_uris":{"android":"levelo://app?vid=8700b163-9d6d-4ba4-8f67-8f73e2fafd13","ios":"levelo://app?vid=8700b163-9d6d-4ba4-8f67-8f73e2fafd13"},"vehicle_type_id":"4","last_reported":1731917609,"current_range_meters":38800,"station_id":"ce4bhnp2rcd13ifvqgvg","pricing_plan_id":"cebpf4jnsgd1na2vs0mg"},{"bike_id":"5f7af20b-8740-416c-a770-66f799e39f12","system_id":"levelo_inurba_marseille","lat":43.3054,"lon":5.36544,"is_reserved":false,"is_disabled":false,"rental_uris":{"android":"levelo://app?vid=5f7af20b-8740-416c-a770-66f799e39f12","ios":"levelo://app?vid=5f7af20b-8740-416c-a770-66f799e39f12"},"vehicle_type_id":"4","last_reported":1731917609,"current_range_meters":26000,"station_id":"ce4bgs12rcd13ifvqcag","pricing_plan_id":"cebpf4jnsgd1na2vs0mg"},{"bike_id":"6b0c80ce-aa66-46e5-b76b-a1f522bd9826","system_id":"levelo_inurba_marseille","lat":43.2904,"lon":5.3997,"is_reserved":false,"is_disabled":false,"rental_uris":{"android":"levelo://app?vid=6b0c80ce-aa66-46e5-b76b-a1f522bd9826","ios":"levelo://app?vid=6b0c80ce-aa66-46e5-b76b-a1f522bd9826"},"vehicle_type_id":"4","last_reported":1731917609,"current_range_meters":38800,"station_id":"ce4bh392rcd13ifvqdm0","pricing_plan_id":"cebpf4jnsgd1na2vs0mg"},{"bike_id":"1b28e70b-0d54-432a-a11c-7102dd588df4","system_id":"levelo_inurba_marseille","lat":43.31698,"lon":5.40475,"is_reserved":false,"is_disabled":false,"rental_uris":{"android":"levelo://app?vid=1b28e70b-0d54-432a-a11c-7102dd588df4","ios":"levelo://app?vid=1b28e70b-0d54-432a-a11c-7102dd588df4"},"vehicle_type_id":"4","last_reported":1731917609,"current_range_meters":2000,"station_id":"ce4bh012rcd13ifvqd00","pricing_plan_id":"cebpf4jnsgd1na2vs0mg"},{"bike_id":"c3b2f2e4-a56b-4032-90ec-36bdae251001","system_id":"levelo_inurba_marseille","lat":43.3055,"lon":5.36545,"is_reserved":false,"is_disabled":false,"rental_uris":{"android":"levelo://app?vid=c3b2f2e4-a56b-4032-90ec-36bdae251001","ios":"levelo://app?vid=c3b2f2e4-a56b-4032-90ec-36bdae251001"},"vehicle_type_id":"4","last_reported":1731917609,"current_range_meters":19600,"station_id":"ce4bgs12rcd13ifvqcag","pricing_plan_id":"cebpf4jnsgd1na2vs0mg"},{"bike_id":"469c871d-e2d0-41fa-8a1e-f327a82dfe1a","system_id":"levelo_inurba_marseille","lat":43.30534,"lon":5.36691,"is_reserved":false,"is_disabled":false,"rental_uris":{"android":"levelo://app?vid=469c871d-e2d0-41fa-8a1e-f327a82dfe1a","ios":"levelo://app?vid=469c871d-e2d0-41fa-8a1e-f327a82dfe1a"},"vehicle_type_id":"4","last_reported":1731917609,"current_range_meters":34800,"station_id":"ce4bgrp2rcd13ifvqc9g","pricing_plan_id":"cebpf4jnsgd1na2vs0mg"},{"bike_id":"01272bd5-a2c0-44b6-b76e-87cd305d9451","system_id":"levelo_inurba_marseille","lat":43.3302,"lon":5.39044,"is_reserved":false,"is_disabled":false,"rental_uris":{"android":"levelo://app?vid=01272bd5-a2c0-44b6-b76e-87cd305d9451","ios":"levelo://app?vid=01272bd5-a2c0-44b6-b76e-87cd305d9451"},"vehicle_type_id":"4","last_reported":1731917609,"current_range_meters":10000,"station_id":"ce4bhr92rcd13ifvqhrg","pricing_plan_id":"cebpf4jnsgd1na2vs0mg"},{"bike_id":"7694d120-882b-4df8-9318-0f76e5aee323","system_id":"levelo_inurba_marseille","lat":43.2981,"lon":5.37728,"is_reserved":false,"is_disabled":false,"rental_uris":{"android":"levelo://app?vid=7694d120-882b-4df8-9318-0f76e5aee323","ios":"levelo://app?vid=7694d120-882b-4df8-9318-0f76e5aee323"},"vehicle_type_id":"4","last_reported":1731917609,"current_range_meters":30800,"station_id":"","pricing_plan_id":"cebpf4jnsgd1na2vs0mg"},{"bike_id":"893be487-5a33-4ac7-85ff-42dae1b2e3e4","system_id":"levelo_inurba_marseille","lat":43.31356,"lon":5.36705,"is_reserved":false,"is_disabled":false,"rental_uris":{"android":"levelo://app?vid=893be487-5a33-4ac7-85ff-42dae1b2e3e4","ios":"levelo://app?vid=893be487-5a33-4ac7-85ff-42dae1b2e3e4"},"vehicle_type_id":"4","last_reported":1731917609,"current_range_meters":35600,"station_id":"ce4bgr92rcd13ifvqc6g","pricing_plan_id":"cebpf4jnsgd1na2vs0mg"},{"bike_id":"91ade9a4-a826-46c2-80cb-12654846f984","system_id":"levelo_inurba_marseille","lat":43.32289,"lon":5.38283,"is_reserved":false,"is_disabled":false,"rental_uris":{"android":"levelo://app?vid=91ade9a4-a826-46c2-80cb-12654846f984","ios":"levelo://app?vid=91ade9a4-a826-46c2-80cb-12654846f984"},"vehicle_type_id":"4","last_reported":1731917609,"current_range_meters":35200,"station_id":"ce4bhr12rcd13ifvqhqg","pricing_plan_id":"cebpf4jnsgd1na2vs0mg"},{"bike_id":"cb3165b9-4890-480d-ae63-784fba188dfc","system_id":"levelo_inurba_marseille","lat":43.2707,"lon":5.42278,"is_reserved":false,"is_disabled":false,"rental_uris":{"android":"levelo://app?vid=cb3165b9-4890-480d-ae63-784fba188dfc","ios":"levelo://app?vid=cb3165b9-4890-480d-ae63-784fba188dfc"},"vehicle_type_id":"4","last_reported":1731917609,"current_range_meters":39200,"station_id":"ce4bhk92rcd13ifvqgb0","pricing_plan_id":"cebpf4jnsgd1na2vs0mg"},{"bike_id":"5938f129-0be9-4612-acac-86791f6673ad","system_id":"levelo_inurba_marseille","lat":43.28199,"lon":5.44383,"is_reserved":false,"is_disabled":false,"rental_uris":{"android":"levelo://app?vid=5938f129-0be9-4612-acac-86791f6673ad","ios":"levelo://app?vid=5938f129-0be9-4612-acac-86791f6673ad"},"vehicle_type_id":"4","last_reported":1731917609,"current_range_meters":8800,"station_id":"","pricing_plan_id":"cebpf4jnsgd1na2vs0mg"},{"bike_id":"4ddda77b-3169-4448-8e06-10231f4b4780","system_id":"levelo_inurba_marseille","lat":43.2408,"lon":5.37752,"is_reserved":false,"is_disabled":false,"rental_uris":{"android":"levelo://app?vid=4ddda77b-3169-4448-8e06-10231f4b4780","ios":"levelo://app?vid=4ddda77b-3169-4448-8e06-10231f4b4780"},"vehicle_type_id":"4","last_reported":1731917609,"current_range_meters":26800,"station_id":"ce4bhnp2rcd13ifvqgvg","pricing_plan_id":"cebpf4jnsgd1na2vs0mg"},{"bike_id":"0a42f816-2cce-4ecb-9202-f9bf3ba8de5a","system_id":"levelo_inurba_marseille","lat":43.33021,"lon":5.39036,"is_reserved":false,"is_disabled":false,"rental_uris":{"android":"levelo://app?vid=0a42f816-2cce-4ecb-9202-f9bf3ba8de5a","ios":"levelo://app?vid=0a42f816-2cce-4ecb-9202-f9bf3ba8de5a"},"vehicle_type_id":"4","last_reported":1731917609,"current_range_meters":38800,"station_id":"ce4bhr92rcd13ifvqhrg","pricing_plan_id":"cebpf4jnsgd1na2vs0mg"},{"bike_id":"3c2a74aa-3e64-42a9-9a08-f13350de454e","system_id":"levelo_inurba_marseille","lat":43.28155,"lon":5.42642,"is_reserved":false,"is_disabled":false,"rental_uris":{"android":"levelo://app?vid=3c2a74aa-3e64-42a9-9a08-f13350de454e","ios":"levelo://app?vid=3c2a74aa-3e64-42a9-9a08-f13350de454e"},"vehicle_type_id":"4","last_reported":1731917609,"current_range_meters":38000,"station_id":"ce4bhnh2rcd13ifvqgug","pricing_plan_id":"cebpf4jnsgd1na2vs0mg"},{"bike_id":"a5c6397b-4773-4673-8f19-a09873f0e2b0","system_id":"levelo_inurba_marseille","lat":43.30286,"lon":5.37699,"is_reserved":false,"is_disabled":false,"rental_uris":{"android":"levelo://app?vid=a5c6397b-4773-4673-8f19-a09873f0e2b0","ios":"levelo://app?vid=a5c6397b-4773-4673-8f19-a09873f0e2b0"},"vehicle_type_id":"4","last_reported":1731917609,"current_range_meters":38800,"station_id":"ce4bguh2rcd13ifvqcj0","pricing_plan_id":"cebpf4jnsgd1na2vs0mg"},{"bike_id":"8c66c237-10d1-4ccd-8df6-bfec343b6c71","system_id":"levelo_inurba_marseille","lat":43.29039,"lon":5.37564,"is_reserved":false,"is_disabled":false,"rental_uris":{"android":"levelo://app?vid=8c66c237-10d1-4ccd-8df6-bfec343b6c71","ios":"levelo://app?vid=8c66c237-10d1-4ccd-8df6-bfec343b6c71"},"vehicle_type_id":"4","last_reported":1731917609,"current_range_meters":7200,"station_id":"ce4bh692rcd13ifvqe90","pricing_plan_id":"cebpf4jnsgd1na2vs0mg"},{"bike_id":"5a19b76a-bc9e-4d10-a22e-a9a8b5ef4c47","system_id":"levelo_inurba_marseille","lat":43.24074,"lon":5.37761,"is_reserved":false,"is_disabled":false,"rental_uris":{"android":"levelo://app?vid=5a19b76a-bc9e-4d10-a22e-a9a8b5ef4c47","ios":"levelo://app?vid=5a19b76a-bc9e-4d10-a22e-a9a8b5ef4c47"},"vehicle_type_id":"4","last_reported":1731917609,"current_range_meters":28000,"station_id":"ce4bhnp2rcd13ifvqgvg","pricing_plan_id":"cebpf4jnsgd1na2vs0mg"},{"bike_id":"5ed22230-ed97-489b-a6af-ba06152c21b7","system_id":"levelo_inurba_marseille","lat":43.23153,"lon":5.43723,"is_reserved":false,"is_disabled":false,"rental_uris":{"android":"levelo://app?vid=5ed22230-ed97-489b-a6af-ba06152c21b7","ios":"levelo://app?vid=5ed22230-ed97-489b-a6af-ba06152c21b7"},"vehicle_type_id":"4","last_reported":1731917609,"current_range_meters":18000,"station_id":"ce4bhmp2rcd13ifvqgog","pricing_plan_id":"cebpf4jnsgd1na2vs0mg"},{"bike_id":"3d889148-005b-4d14-b3f5-0166b79de543","system_id":"levelo_inurba_marseille","lat":43.30538,"lon":5.36704,"is_reserved":false,"is_disabled":false,"rental_uris":{"android":"levelo://app?vid=3d889148-005b-4d14-b3f5-0166b79de543","ios":"levelo://app?vid=3d889148-005b-4d14-b3f5-0166b79de543"},"vehicle_type_id":"4","last_reported":1731917609,"current_range_meters":24000,"station_id":"ce4bgrp2rcd13ifvqc9g","pricing_plan_id":"cebpf4jnsgd1na2vs0mg"},{"bike_id":"12867844-fa2a-41b2-8d74-706d4ef15909","system_id":"levelo_inurba_marseille","lat":43.3375,"lon":5.37452,"is_reserved":false,"is_disabled":false,"rental_uris":{"android":"levelo://app?vid=12867844-fa2a-41b2-8d74-706d4ef15909","ios":"levelo://app?vid=12867844-fa2a-41b2-8d74-706d4ef15909"},"vehicle_type_id":"4","last_reported":1731917609,"current_range_meters":29600,"station_id":"","pricing_plan_id":"cebpf4jnsgd1na2vs0mg"},{"bike_id":"bd77777b-1c6d-4ed8-8504-0026ced8b46a","system_id":"levelo_inurba_marseille","lat":43.3254,"lon":5.41425,"is_reserved":false,"is_disabled":false,"rental_uris":{"android":"levelo://app?vid=bd77777b-1c6d-4ed8-8504-0026ced8b46a","ios":"levelo://app?vid=bd77777b-1c6d-4ed8-8504-0026ced8b46a"},"vehicle_type_id":"4","last_reported":1731917609,"current_range_meters":24800,"station_id":"ce4bhq12rcd13ifvqhhg","pricing_plan_id":"cebpf4jnsgd1na2vs0mg"},{"bike_id":"63395649-0477-4ed1-972a-a383d6863529","system_id":"levelo_inurba_marseille","lat":43.23182,"lon":5.3999,"is_reserved":false,"is_disabled":false,"rental_uris":{"android":"levelo://app?vid=63395649-0477-4ed1-972a-a383d6863529","ios":"levelo://app?vid=63395649-0477-4ed1-972a-a383d6863529"},"vehicle_type_id":"4","last_reported":1731917609,"current_range_meters":32400,"station_id":"ce4bhn12rcd13ifvqgqg","pricing_plan_id":"cebpf4jnsgd1na2vs0mg"},{"bike_id":"ee6a0457-635e-4d93-8b9b-ce71505ee70a","system_id":"levelo_inurba_marseille","lat":43.30951,"lon":5.39029,"is_reserved":false,"is_disabled":false,"rental_uris":{"android":"levelo://app?vid=ee6a0457-635e-4d93-8b9b-ce71505ee70a","ios":"levelo://app?vid=ee6a0457-635e-4d93-8b9b-ce71505ee70a"},"vehicle_type_id":"4","last_reported":1731917609,"current_range_meters":37600,"station_id":"ce4bgup2rcd13ifvqco0","pricing_plan_id":"cebpf4jnsgd1na2vs0mg"},{"bike_id":"7a771648-63f5-4c34-b7b5-423a1240d23d","system_id":"levelo_inurba_marseille","lat":43.300018,"lon":5.363548,"is_reserved":false,"is_disabled":false,"rental_uris":{"android":"levelo://app?vid=7a771648-63f5-4c34-b7b5-423a1240d23d","ios":"levelo://app?vid=7a771648-63f5-4c34-b7b5-423a1240d23d"},"vehicle_type_id":"4","last_reported":1731917609,"current_range_meters":24000,"station_id":"ce4bgpp2rcd13ifvqc3g","pricing_plan_id":"cebpf4jnsgd1na2vs0mg"},{"bike_id":"74c63f9b-8786-4c37-9ae7-64360acdde5e","system_id":"levelo_inurba_marseille","lat":43.29558,"lon":5.42288,"is_reserved":false,"is_disabled":false,"rental_uris":{"android":"levelo://app?vid=74c63f9b-8786-4c37-9ae7-64360acdde5e","ios":"levelo://app?vid=74c63f9b-8786-4c37-9ae7-64360acdde5e"},"vehicle_type_id":"4","last_reported":1731917609,"current_range_meters":38800,"station_id":"ce4bhph2rcd13ifvqhdg","pricing_plan_id":"cebpf4jnsgd1na2vs0mg"},{"bike_id":"f5a042e4-9244-45ca-a000-cfabc5edd18a","system_id":"levelo_inurba_marseille","lat":43.27071,"lon":5.42279,"is_reserved":false,"is_disabled":false,"rental_uris":{"android":"levelo://app?vid=f5a042e4-9244-45ca-a000-cfabc5edd18a","ios":"levelo://app?vid=f5a042e4-9244-45ca-a000-cfabc5edd18a"},"vehicle_type_id":"4","last_reported":1731917609,"current_range_meters":9200,"station_id":"ce4bhk92rcd13ifvqgb0","pricing_plan_id":"cebpf4jnsgd1na2vs0mg"},{"bike_id":"438c7460-0f2d-492b-8a11-5a4b3f82e315","system_id":"levelo_inurba_marseille","lat":43.27995,"lon":5.41667,"is_reserved":false,"is_disabled":false,"rental_uris":{"android":"levelo://app?vid=438c7460-0f2d-492b-8a11-5a4b3f82e315","ios":"levelo://app?vid=438c7460-0f2d-492b-8a11-5a4b3f82e315"},"vehicle_type_id":"4","last_reported":1731917609,"current_range_meters":24800,"station_id":"ce4bho12rcd13ifvqh1g","pricing_plan_id":"cebpf4jnsgd1na2vs0mg"},{"bike_id":"10808265-c82e-4663-ad34-00454e769817","system_id":"levelo_inurba_marseille","lat":43.23187,"lon":5.3999,"is_reserved":false,"is_disabled":false,"rental_uris":{"android":"levelo://app?vid=10808265-c82e-4663-ad34-00454e769817","ios":"levelo://app?vid=10808265-c82e-4663-ad34-00454e769817"},"vehicle_type_id":"4","last_reported":1731917609,"current_range_meters":27600,"station_id":"ce4bhn12rcd13ifvqgqg","pricing_plan_id":"cebpf4jnsgd1na2vs0mg"},{"bike_id":"ab2b2996-1a6a-46a9-bcf1-805df49ee05c","system_id":"levelo_inurba_marseille","lat":43.32346,"lon":5.40634,"is_reserved":false,"is_disabled":false,"rental_uris":{"android":"levelo://app?vid=ab2b2996-1a6a-46a9-bcf1-805df49ee05c","ios":"levelo://app?vid=ab2b2996-1a6a-46a9-bcf1-805df49ee05c"},"vehicle_type_id":"4","last_reported":1731917609,"current_range_meters":34000,"station_id":"ce4bhq92rcd13ifvqhjg","pricing_plan_id":"cebpf4jnsgd1na2vs0mg"},{"bike_id":"8c2a237e-d2f8-4233-9666-9a621fab3436","system_id":"levelo_inurba_marseille","lat":43.310791,"lon":5.3849,"is_reserved":false,"is_disabled":false,"rental_uris":{"android":"levelo://app?vid=8c2a237e-d2f8-4233-9666-9a621fab3436","ios":"levelo://app?vid=8c2a237e-d2f8-4233-9666-9a621fab3436"},"vehicle_type_id":"4","last_reported":1731917609,"current_range_meters":36000,"station_id":"ce4bgv92rcd13ifvqcr0","pricing_plan_id":"cebpf4jnsgd1na2vs0mg"},{"bike_id":"cccc15e4-d2c8-45f7-abbe-e5b3cb8bc634","system_id":"levelo_inurba_marseille","lat":43.27072,"lon":5.4228,"is_reserved":false,"is_disabled":false,"rental_uris":{"android":"levelo://app?vid=cccc15e4-d2c8-45f7-abbe-e5b3cb8bc634","ios":"levelo://app?vid=cccc15e4-d2c8-45f7-abbe-e5b3cb8bc634"},"vehicle_type_id":"4","last_reported":1731917609,"current_range_meters":6400,"station_id":"ce4bhk92rcd13ifvqgb0","pricing_plan_id":"cebpf4jnsgd1na2vs0mg"},{"bike_id":"6bcc6a84-ce11-4a3f-b321-4ab21fe5ea37","system_id":"levelo_inurba_marseille","lat":43.2808,"lon":5.39662,"is_reserved":false,"is_disabled":false,"rental_uris":{"android":"levelo://app?vid=6bcc6a84-ce11-4a3f-b321-4ab21fe5ea37","ios":"levelo://app?vid=6bcc6a84-ce11-4a3f-b321-4ab21fe5ea37"},"vehicle_type_id":"4","last_reported":1731917609,"current_range_meters":3600,"station_id":"ce4bho12rcd13ifvqh2g","pricing_plan_id":"cebpf4jnsgd1na2vs0mg"},{"bike_id":"8f019a78-c493-4f9d-a72d-a75fc0e36210","system_id":"levelo_inurba_marseille","lat":43.2407,"lon":5.37759,"is_reserved":false,"is_disabled":false,"rental_uris":{"android":"levelo://app?vid=8f019a78-c493-4f9d-a72d-a75fc0e36210","ios":"levelo://app?vid=8f019a78-c493-4f9d-a72d-a75fc0e36210"},"vehicle_type_id":"4","last_reported":1731917609,"current_range_meters":27600,"station_id":"ce4bhnp2rcd13ifvqgvg","pricing_plan_id":"cebpf4jnsgd1na2vs0mg"},{"bike_id":"af5b6f30-c1ae-41a8-8658-805682fdccfa","system_id":"levelo_inurba_marseille","lat":43.27492,"lon":5.42457,"is_reserved":false,"is_disabled":false,"rental_uris":{"android":"levelo://app?vid=af5b6f30-c1ae-41a8-8658-805682fdccfa","ios":"levelo://app?vid=af5b6f30-c1ae-41a8-8658-805682fdccfa"},"vehicle_type_id":"4","last_reported":1731917609,"current_range_meters":27600,"station_id":"ce4bhn92rcd13ifvqgrg","pricing_plan_id":"cebpf4jnsgd1na2vs0mg"},{"bike_id":"2ec448d8-ab1e-4b5b-9ab7-4092c37c8982","system_id":"levelo_inurba_marseille","lat":43.31221,"lon":5.36856,"is_reserved":false,"is_disabled":false,"rental_uris":{"android":"levelo://app?vid=2ec448d8-ab1e-4b5b-9ab7-4092c37c8982","ios":"levelo://app?vid=2ec448d8-ab1e-4b5b-9ab7-4092c37c8982"},"vehicle_type_id":"4","last_reported":1731917609,"current_range_meters":38400,"station_id":"ce4bgl92rcd13ifvqbq0","pricing_plan_id":"cebpf4jnsgd1na2vs0mg"},{"bike_id":"2573527e-9511-431e-be38-5fac3907cf83","system_id":"levelo_inurba_marseille","lat":43.28417,"lon":5.34978,"is_reserved":false,"is_disabled":false,"rental_uris":{"android":"levelo://app?vid=2573527e-9511-431e-be38-5fac3907cf83","ios":"levelo://app?vid=2573527e-9511-431e-be38-5fac3907cf83"},"vehicle_type_id":"4","last_reported":1731917609,"current_range_meters":8400,"station_id":"ce4bhbh2rcd13ifvqepg","pricing_plan_id":"cebpf4jnsgd1na2vs0mg"},{"bike_id":"4d02e9d9-dced-49ee-8877-7c642a8eb14e","system_id":"levelo_inurba_marseille","lat":43.28977,"lon":5.37839,"is_reserved":false,"is_disabled":false,"rental_uris":{"android":"levelo://app?vid=4d02e9d9-dced-49ee-8877-7c642a8eb14e","ios":"levelo://app?vid=4d02e9d9-dced-49ee-8877-7c642a8eb14e"},"vehicle_type_id":"4","last_reported":1731917609,"current_range_meters":38800,"station_id":"ce4bh9p2rcd13ifvqed0","pricing_plan_id":"cebpf4jnsgd1na2vs0mg"},{"bike_id":"94b96e1a-875a-4fb2-8a15-489944c1a547","system_id":"levelo_inurba_marseille","lat":43.26689,"lon":5.3827,"is_reserved":false,"is_disabled":false,"rental_uris":{"android":"levelo://app?vid=94b96e1a-875a-4fb2-8a15-489944c1a547","ios":"levelo://app?vid=94b96e1a-875a-4fb2-8a15-489944c1a547"},"vehicle_type_id":"4","last_reported":1731917609,"current_range_meters":14800,"station_id":"ce4bhg92rcd13ifvqf90","pricing_plan_id":"cebpf4jnsgd1na2vs0mg"},{"bike_id":"f78e874f-2bcc-46c3-917b-baae845142a0","system_id":"levelo_inurba_marseille","lat":43.27487,"lon":5.42466,"is_reserved":false,"is_disabled":false,"rental_uris":{"android":"levelo://app?vid=f78e874f-2bcc-46c3-917b-baae845142a0","ios":"levelo://app?vid=f78e874f-2bcc-46c3-917b-baae845142a0"},"vehicle_type_id":"4","last_reported":1731917609,"current_range_meters":36800,"station_id":"ce4bhn92rcd13ifvqgrg","pricing_plan_id":"cebpf4jnsgd1na2vs0mg"},{"bike_id":"1fec2535-47a2-492c-8207-5c06e50e74f0","system_id":"levelo_inurba_marseille","lat":43.2926,"lon":5.40905,"is_reserved":false,"is_disabled":false,"rental_uris":{"android":"levelo://app?vid=1fec2535-47a2-492c-8207-5c06e50e74f0","ios":"levelo://app?vid=1fec2535-47a2-492c-8207-5c06e50e74f0"},"vehicle_type_id":"4","last_reported":1731917609,"current_range_meters":23200,"station_id":"ce4bh192rcd13ifvqdc0","pricing_plan_id":"cebpf4jnsgd1na2vs0mg"},{"bike_id":"a285ba96-20ce-4dd9-87ae-ab52a435dc05","system_id":"levelo_inurba_marseille","lat":43.280691,"lon":5.396082,"is_reserved":false,"is_disabled":false,"rental_uris":{"android":"levelo://app?vid=a285ba96-20ce-4dd9-87ae-ab52a435dc05","ios":"levelo://app?vid=a285ba96-20ce-4dd9-87ae-ab52a435dc05"},"vehicle_type_id":"4","last_reported":1731917609,"current_range_meters":26000,"station_id":"ce4bho12rcd13ifvqh2g","pricing_plan_id":"cebpf4jnsgd1na2vs0mg"},{"bike_id":"afd5e78f-339a-41d4-9c5d-45b35f2e47fe","system_id":"levelo_inurba_marseille","lat":43.31367,"lon":5.36696,"is_reserved":false,"is_disabled":false,"rental_uris":{"android":"levelo://app?vid=afd5e78f-339a-41d4-9c5d-45b35f2e47fe","ios":"levelo://app?vid=afd5e78f-339a-41d4-9c5d-45b35f2e47fe"},"vehicle_type_id":"4","last_reported":1731917609,"current_range_meters":25600,"station_id":"ce4bgr92rcd13ifvqc6g","pricing_plan_id":"cebpf4jnsgd1na2vs0mg"},{"bike_id":"376b73de-cec1-461e-9bd4-4cf574cafff0","system_id":"levelo_inurba_marseille","lat":43.30472,"lon":5.37911,"is_reserved":false,"is_disabled":false,"rental_uris":{"android":"levelo://app?vid=376b73de-cec1-461e-9bd4-4cf574cafff0","ios":"levelo://app?vid=376b73de-cec1-461e-9bd4-4cf574cafff0"},"vehicle_type_id":"4","last_reported":1731917609,"current_range_meters":15200,"station_id":"ce4bgup2rcd13ifvqcn0","pricing_plan_id":"cebpf4jnsgd1na2vs0mg"},{"bike_id":"0e96c414-f4eb-4c99-b82e-191f8b731f9d","system_id":"levelo_inurba_marseille","lat":43.30949,"lon":5.39035,"is_reserved":false,"is_disabled":false,"rental_uris":{"android":"levelo://app?vid=0e96c414-f4eb-4c99-b82e-191f8b731f9d","ios":"levelo://app?vid=0e96c414-f4eb-4c99-b82e-191f8b731f9d"},"vehicle_type_id":"4","last_reported":1731917609,"current_range_meters":21600,"station_id":"ce4bgup2rcd13ifvqco0","pricing_plan_id":"cebpf4jnsgd1na2vs0mg"},{"bike_id":"7c0a99e4-82bf-4b66-8512-fe3f58563314","system_id":"levelo_inurba_marseille","lat":43.30145,"lon":5.38093,"is_reserved":false,"is_disabled":false,"rental_uris":{"android":"levelo://app?vid=7c0a99e4-82bf-4b66-8512-fe3f58563314","ios":"levelo://app?vid=7c0a99e4-82bf-4b66-8512-fe3f58563314"},"vehicle_type_id":"4","last_reported":1731917609,"current_range_meters":38800,"station_id":"ce4bgjp2rcd13ifvqbh0","pricing_plan_id":"cebpf4jnsgd1na2vs0mg"},{"bike_id":"e73206b1-cfd7-4ecb-ba5a-91c351b433ae","system_id":"levelo_inurba_marseille","lat":43.33604,"lon":5.41034,"is_reserved":false,"is_disabled":false,"rental_uris":{"android":"levelo://app?vid=e73206b1-cfd7-4ecb-ba5a-91c351b433ae","ios":"levelo://app?vid=e73206b1-cfd7-4ecb-ba5a-91c351b433ae"},"vehicle_type_id":"4","last_reported":1731917609,"current_range_meters":34000,"station_id":"ce4bhqh2rcd13ifvqhmg","pricing_plan_id":"cebpf4jnsgd1na2vs0mg"},{"bike_id":"8519b6c3-1fd3-4165-bc52-fc27fa0ddd32","system_id":"levelo_inurba_marseille","lat":43.30148,"lon":5.37433,"is_reserved":false,"is_disabled":false,"rental_uris":{"android":"levelo://app?vid=8519b6c3-1fd3-4165-bc52-fc27fa0ddd32","ios":"levelo://app?vid=8519b6c3-1fd3-4165-bc52-fc27fa0ddd32"},"vehicle_type_id":"4","last_reported":1731917609,"current_range_meters":36400,"station_id":"ce4bgs92rcd13ifvqcc0","pricing_plan_id":"cebpf4jnsgd1na2vs0mg"},{"bike_id":"b495ee60-b3cc-4ebd-a722-56ca86299e4f","system_id":"levelo_inurba_marseille","lat":43.28615,"lon":5.35107,"is_reserved":false,"is_disabled":false,"rental_uris":{"android":"levelo://app?vid=b495ee60-b3cc-4ebd-a722-56ca86299e4f","ios":"levelo://app?vid=b495ee60-b3cc-4ebd-a722-56ca86299e4f"},"vehicle_type_id":"4","last_reported":1731917609,"current_range_meters":28800,"station_id":"ce4bhch2rcd13ifvqeug","pricing_plan_id":"cebpf4jnsgd1na2vs0mg"},{"bike_id":"56b4ba4f-4fd0-49c7-bb38-a2891a98ef6f","system_id":"levelo_inurba_marseille","lat":43.29709,"lon":5.37706,"is_reserved":false,"is_disabled":false,"rental_uris":{"android":"levelo://app?vid=56b4ba4f-4fd0-49c7-bb38-a2891a98ef6f","ios":"levelo://app?vid=56b4ba4f-4fd0-49c7-bb38-a2891a98ef6f"},"vehicle_type_id":"4","last_reported":1731917609,"current_range_meters":36800,"station_id":"ce4bgkh2rcd13ifvqbl0","pricing_plan_id":"cebpf4jnsgd1na2vs0mg"},{"bike_id":"8cdbbb9d-e54c-4963-8b6c-ba5d001805cc","system_id":"levelo_inurba_marseille","lat":43.28149,"lon":5.44216,"is_reserved":false,"is_disabled":false,"rental_uris":{"android":"levelo://app?vid=8cdbbb9d-e54c-4963-8b6c-ba5d001805cc","ios":"levelo://app?vid=8cdbbb9d-e54c-4963-8b6c-ba5d001805cc"},"vehicle_type_id":"4","last_reported":1731917609,"current_range_meters":30800,"station_id":"","pricing_plan_id":"cebpf4jnsgd1na2vs0mg"},{"bike_id":"c00f2be0-76d9-4b26-94f7-45f73858d595","system_id":"levelo_inurba_marseille","lat":43.31354,"lon":5.36719,"is_reserved":false,"is_disabled":false,"rental_uris":{"android":"levelo://app?vid=c00f2be0-76d9-4b26-94f7-45f73858d595","ios":"levelo://app?vid=c00f2be0-76d9-4b26-94f7-45f73858d595"},"vehicle_type_id":"4","last_reported":1731917609,"current_range_meters":28000,"station_id":"ce4bgr92rcd13ifvqc6g","pricing_plan_id":"cebpf4jnsgd1na2vs0mg"},{"bike_id":"5aee1fdb-668e-4111-9baa-ecca3c80e955","system_id":"levelo_inurba_marseille","lat":43.269822,"lon":5.402954,"is_reserved":false,"is_disabled":false,"rental_uris":{"android":"levelo://app?vid=5aee1fdb-668e-4111-9baa-ecca3c80e955","ios":"levelo://app?vid=5aee1fdb-668e-4111-9baa-ecca3c80e955"},"vehicle_type_id":"4","last_reported":1731917609,"current_range_meters":28000,"station_id":"cjm6bp8fraef2m0cb0m0","pricing_plan_id":"cebpf4jnsgd1na2vs0mg"},{"bike_id":"627267c9-1348-4cb3-88c3-2f2514fc4c79","system_id":"levelo_inurba_marseille","lat":43.241843,"lon":5.397356,"is_reserved":false,"is_disabled":false,"rental_uris":{"android":"levelo://app?vid=627267c9-1348-4cb3-88c3-2f2514fc4c79","ios":"levelo://app?vid=627267c9-1348-4cb3-88c3-2f2514fc4c79"},"vehicle_type_id":"4","last_reported":1731917609,"current_range_meters":32800,"station_id":"ce4bhn12rcd13ifvqgpg","pricing_plan_id":"cebpf4jnsgd1na2vs0mg"},{"bike_id":"9d0ff97e-4153-45c9-bb5a-0bdd6df51804","system_id":"levelo_inurba_marseille","lat":43.32481,"lon":5.3657,"is_reserved":false,"is_disabled":false,"rental_uris":{"android":"levelo://app?vid=9d0ff97e-4153-45c9-bb5a-0bdd6df51804","ios":"levelo://app?vid=9d0ff97e-4153-45c9-bb5a-0bdd6df51804"},"vehicle_type_id":"4","last_reported":1731917609,"current_range_meters":14000,"station_id":"ce4bhs12rcd13ifvqhvg","pricing_plan_id":"cebpf4jnsgd1na2vs0mg"},{"bike_id":"c483694c-438e-462f-90c6-ccb355245e72","system_id":"levelo_inurba_marseille","lat":43.29299,"lon":5.37455,"is_reserved":false,"is_disabled":false,"rental_uris":{"android":"levelo://app?vid=c483694c-438e-462f-90c6-ccb355245e72","ios":"levelo://app?vid=c483694c-438e-462f-90c6-ccb355245e72"},"vehicle_type_id":"4","last_reported":1731917609,"current_range_meters":32400,"station_id":"ce4bgi12rcd13ifvqb70","pricing_plan_id":"cebpf4jnsgd1na2vs0mg"},{"bike_id":"54eb70f0-653b-4cdd-a3b1-eabcdb2944a9","system_id":"levelo_inurba_marseille","lat":43.28942,"lon":5.36638,"is_reserved":false,"is_disabled":false,"rental_uris":{"android":"levelo://app?vid=54eb70f0-653b-4cdd-a3b1-eabcdb2944a9","ios":"levelo://app?vid=54eb70f0-653b-4cdd-a3b1-eabcdb2944a9"},"vehicle_type_id":"4","last_reported":1731917609,"current_range_meters":18800,"station_id":"ce4bhap2rcd13ifvqek0","pricing_plan_id":"cebpf4jnsgd1na2vs0mg"},{"bike_id":"7d029cc6-96a9-4e6d-b99f-e2039a43253c","system_id":"levelo_inurba_marseille","lat":43.29231,"lon":5.36637,"is_reserved":false,"is_disabled":false,"rental_uris":{"android":"levelo://app?vid=7d029cc6-96a9-4e6d-b99f-e2039a43253c","ios":"levelo://app?vid=7d029cc6-96a9-4e6d-b99f-e2039a43253c"},"vehicle_type_id":"4","last_reported":1731917609,"current_range_meters":2000,"station_id":"","pricing_plan_id":"cebpf4jnsgd1na2vs0mg"},{"bike_id":"99e250a3-df4c-4b34-9509-c05720c8abf5","system_id":"levelo_inurba_marseille","lat":43.30547,"lon":5.36533,"is_reserved":false,"is_disabled":false,"rental_uris":{"android":"levelo://app?vid=99e250a3-df4c-4b34-9509-c05720c8abf5","ios":"levelo://app?vid=99e250a3-df4c-4b34-9509-c05720c8abf5"},"vehicle_type_id":"4","last_reported":1731917609,"current_range_meters":18000,"station_id":"ce4bgs12rcd13ifvqcag","pricing_plan_id":"cebpf4jnsgd1na2vs0mg"},{"bike_id":"20c2a3ef-5802-4bf3-806a-29ad3c9e8e37","system_id":"levelo_inurba_marseille","lat":43.24083,"lon":5.3775,"is_reserved":false,"is_disabled":false,"rental_uris":{"android":"levelo://app?vid=20c2a3ef-5802-4bf3-806a-29ad3c9e8e37","ios":"levelo://app?vid=20c2a3ef-5802-4bf3-806a-29ad3c9e8e37"},"vehicle_type_id":"4","last_reported":1731917609,"current_range_meters":36400,"station_id":"ce4bhnp2rcd13ifvqgvg","pricing_plan_id":"cebpf4jnsgd1na2vs0mg"},{"bike_id":"e9fddd88-3041-4832-a1df-44e589b3fc6d","system_id":"levelo_inurba_marseille","lat":43.30902,"lon":5.3685,"is_reserved":false,"is_disabled":false,"rental_uris":{"android":"levelo://app?vid=e9fddd88-3041-4832-a1df-44e589b3fc6d","ios":"levelo://app?vid=e9fddd88-3041-4832-a1df-44e589b3fc6d"},"vehicle_type_id":"4","last_reported":1731917609,"current_range_meters":32800,"station_id":"ce4bgn92rcd13ifvqbvg","pricing_plan_id":"cebpf4jnsgd1na2vs0mg"},{"bike_id":"957022d7-b82e-43b5-a67e-6a73ad2e7420","system_id":"levelo_inurba_marseille","lat":43.31223,"lon":5.3686,"is_reserved":false,"is_disabled":false,"rental_uris":{"android":"levelo://app?vid=957022d7-b82e-43b5-a67e-6a73ad2e7420","ios":"levelo://app?vid=957022d7-b82e-43b5-a67e-6a73ad2e7420"},"vehicle_type_id":"4","last_reported":1731917609,"current_range_meters":28000,"station_id":"ce4bgl92rcd13ifvqbq0","pricing_plan_id":"cebpf4jnsgd1na2vs0mg"},{"bike_id":"8ba64712-6dd9-4d67-a2e5-a1bfb13671bb","system_id":"levelo_inurba_marseille","lat":43.33757,"lon":5.37449,"is_reserved":false,"is_disabled":false,"rental_uris":{"android":"levelo://app?vid=8ba64712-6dd9-4d67-a2e5-a1bfb13671bb","ios":"levelo://app?vid=8ba64712-6dd9-4d67-a2e5-a1bfb13671bb"},"vehicle_type_id":"4","last_reported":1731917609,"current_range_meters":38400,"station_id":"","pricing_plan_id":"cebpf4jnsgd1na2vs0mg"},{"bike_id":"2340cb86-c374-404b-8be0-bf4efc611cee","system_id":"levelo_inurba_marseille","lat":43.33611,"lon":5.41031,"is_reserved":false,"is_disabled":false,"rental_uris":{"android":"levelo://app?vid=2340cb86-c374-404b-8be0-bf4efc611cee","ios":"levelo://app?vid=2340cb86-c374-404b-8be0-bf4efc611cee"},"vehicle_type_id":"4","last_reported":1731917609,"current_range_meters":16400,"station_id":"ce4bhqh2rcd13ifvqhmg","pricing_plan_id":"cebpf4jnsgd1na2vs0mg"},{"bike_id":"ce249102-5132-45ee-9b83-fc2ea0c15102","system_id":"levelo_inurba_marseille","lat":43.23153,"lon":5.4371,"is_reserved":false,"is_disabled":false,"rental_uris":{"android":"levelo://app?vid=ce249102-5132-45ee-9b83-fc2ea0c15102","ios":"levelo://app?vid=ce249102-5132-45ee-9b83-fc2ea0c15102"},"vehicle_type_id":"4","last_reported":1731917609,"current_range_meters":31200,"station_id":"ce4bhmp2rcd13ifvqgog","pricing_plan_id":"cebpf4jnsgd1na2vs0mg"},{"bike_id":"4f01fa73-c9c0-4fc0-986b-b2a94d270e4a","system_id":"levelo_inurba_marseille","lat":43.302519,"lon":5.400883,"is_reserved":false,"is_disabled":false,"rental_uris":{"android":"levelo://app?vid=4f01fa73-c9c0-4fc0-986b-b2a94d270e4a","ios":"levelo://app?vid=4f01fa73-c9c0-4fc0-986b-b2a94d270e4a"},"vehicle_type_id":"4","last_reported":1731917609,"current_range_meters":6800,"station_id":"ce4bgvh2rcd13ifvqcs0","pricing_plan_id":"cebpf4jnsgd1na2vs0mg"},{"bike_id":"6d757fef-4f26-43f9-ac2c-ffab39bf7dae","system_id":"levelo_inurba_marseille","lat":43.32249,"lon":5.36901,"is_reserved":false,"is_disabled":false,"rental_uris":{"android":"levelo://app?vid=6d757fef-4f26-43f9-ac2c-ffab39bf7dae","ios":"levelo://app?vid=6d757fef-4f26-43f9-ac2c-ffab39bf7dae"},"vehicle_type_id":"4","last_reported":1731917609,"current_range_meters":11600,"station_id":"","pricing_plan_id":"cebpf4jnsgd1na2vs0mg"},{"bike_id":"00b10178-2dd6-4b25-bd2f-3948b65be282","system_id":"levelo_inurba_marseille","lat":43.26191,"lon":5.3794,"is_reserved":false,"is_disabled":false,"rental_uris":{"android":"levelo://app?vid=00b10178-2dd6-4b25-bd2f-3948b65be282","ios":"levelo://app?vid=00b10178-2dd6-4b25-bd2f-3948b65be282"},"vehicle_type_id":"4","last_reported":1731917609,"current_range_meters":28000,"station_id":"ce4bhjp2rcd13ifvqg90","pricing_plan_id":"cebpf4jnsgd1na2vs0mg"},{"bike_id":"64db109c-dd7d-48fa-8530-8d60317c0b1c","system_id":"levelo_inurba_marseille","lat":43.2797,"lon":5.38744,"is_reserved":false,"is_disabled":false,"rental_uris":{"android":"levelo://app?vid=64db109c-dd7d-48fa-8530-8d60317c0b1c","ios":"levelo://app?vid=64db109c-dd7d-48fa-8530-8d60317c0b1c"},"vehicle_type_id":"4","last_reported":1731917609,"current_range_meters":11600,"station_id":"ce4bhg12rcd13ifvqf80","pricing_plan_id":"cebpf4jnsgd1na2vs0mg"},{"bike_id":"250baacc-16ca-4248-a285-691ee29a779c","system_id":"levelo_inurba_marseille","lat":43.2815,"lon":5.4265,"is_reserved":false,"is_disabled":false,"rental_uris":{"android":"levelo://app?vid=250baacc-16ca-4248-a285-691ee29a779c","ios":"levelo://app?vid=250baacc-16ca-4248-a285-691ee29a779c"},"vehicle_type_id":"4","last_reported":1731917609,"current_range_meters":24000,"station_id":"ce4bhnh2rcd13ifvqgug","pricing_plan_id":"cebpf4jnsgd1na2vs0mg"},{"bike_id":"3f4cfda2-06d7-42d5-a506-6b6eb38b77c3","system_id":"levelo_inurba_marseille","lat":43.2957,"lon":5.37513,"is_reserved":false,"is_disabled":false,"rental_uris":{"android":"levelo://app?vid=3f4cfda2-06d7-42d5-a506-6b6eb38b77c3","ios":"levelo://app?vid=3f4cfda2-06d7-42d5-a506-6b6eb38b77c3"},"vehicle_type_id":"4","last_reported":1731917609,"current_range_meters":22400,"station_id":"ce4bgh92rcd13ifvqb50","pricing_plan_id":"cebpf4jnsgd1na2vs0mg"},{"bike_id":"1ede608c-8dec-484d-9315-76e0e8eb111a","system_id":"levelo_inurba_marseille","lat":43.24082,"lon":5.37747,"is_reserved":false,"is_disabled":false,"rental_uris":{"android":"levelo://app?vid=1ede608c-8dec-484d-9315-76e0e8eb111a","ios":"levelo://app?vid=1ede608c-8dec-484d-9315-76e0e8eb111a"},"vehicle_type_id":"4","last_reported":1731917609,"current_range_meters":38400,"station_id":"ce4bhnp2rcd13ifvqgvg","pricing_plan_id":"cebpf4jnsgd1na2vs0mg"},{"bike_id":"45473ffb-db49-425b-a98d-42945a1171f5","system_id":"levelo_inurba_marseille","lat":43.31353,"lon":5.36698,"is_reserved":false,"is_disabled":false,"rental_uris":{"android":"levelo://app?vid=45473ffb-db49-425b-a98d-42945a1171f5","ios":"levelo://app?vid=45473ffb-db49-425b-a98d-42945a1171f5"},"vehicle_type_id":"4","last_reported":1731917609,"current_range_meters":22400,"station_id":"ce4bgr92rcd13ifvqc6g","pricing_plan_id":"cebpf4jnsgd1na2vs0mg"},{"bike_id":"6b8c4514-cb85-4a2a-9925-6fb4153b9632","system_id":"levelo_inurba_marseille","lat":43.29551,"lon":5.42288,"is_reserved":false,"is_disabled":false,"rental_uris":{"android":"levelo://app?vid=6b8c4514-cb85-4a2a-9925-6fb4153b9632","ios":"levelo://app?vid=6b8c4514-cb85-4a2a-9925-6fb4153b9632"},"vehicle_type_id":"4","last_reported":1731917609,"current_range_meters":32000,"station_id":"ce4bhph2rcd13ifvqhdg","pricing_plan_id":"cebpf4jnsgd1na2vs0mg"},{"bike_id":"a15efd61-0ae2-4074-8787-b0e02c22fb8f","system_id":"levelo_inurba_marseille","lat":43.30291,"lon":5.37704,"is_reserved":false,"is_disabled":false,"rental_uris":{"android":"levelo://app?vid=a15efd61-0ae2-4074-8787-b0e02c22fb8f","ios":"levelo://app?vid=a15efd61-0ae2-4074-8787-b0e02c22fb8f"},"vehicle_type_id":"4","last_reported":1731917609,"current_range_meters":4000,"station_id":"ce4bguh2rcd13ifvqcj0","pricing_plan_id":"cebpf4jnsgd1na2vs0mg"},{"bike_id":"74a98861-d6be-47db-94fa-21441fdd6108","system_id":"levelo_inurba_marseille","lat":43.27493,"lon":5.42463,"is_reserved":false,"is_disabled":false,"rental_uris":{"android":"levelo://app?vid=74a98861-d6be-47db-94fa-21441fdd6108","ios":"levelo://app?vid=74a98861-d6be-47db-94fa-21441fdd6108"},"vehicle_type_id":"4","last_reported":1731917609,"current_range_meters":10800,"station_id":"ce4bhn92rcd13ifvqgrg","pricing_plan_id":"cebpf4jnsgd1na2vs0mg"},{"bike_id":"139a9c37-6b2f-43a0-9a41-400224b43309","system_id":"levelo_inurba_marseille","lat":43.24078,"lon":5.37758,"is_reserved":false,"is_disabled":false,"rental_uris":{"android":"levelo://app?vid=139a9c37-6b2f-43a0-9a41-400224b43309","ios":"levelo://app?vid=139a9c37-6b2f-43a0-9a41-400224b43309"},"vehicle_type_id":"4","last_reported":1731917609,"current_range_meters":27200,"station_id":"ce4bhnp2rcd13ifvqgvg","pricing_plan_id":"cebpf4jnsgd1na2vs0mg"},{"bike_id":"c376ba5d-d765-46cc-aac4-ce14630fc352","system_id":"levelo_inurba_marseille","lat":43.30792,"lon":5.38161,"is_reserved":false,"is_disabled":false,"rental_uris":{"android":"levelo://app?vid=c376ba5d-d765-46cc-aac4-ce14630fc352","ios":"levelo://app?vid=c376ba5d-d765-46cc-aac4-ce14630fc352"},"vehicle_type_id":"4","last_reported":1731917609,"current_range_meters":38800,"station_id":"ce4bgt12rcd13ifvqce0","pricing_plan_id":"cebpf4jnsgd1na2vs0mg"},{"bike_id":"65ad3404-ca16-4ff6-a3da-345d3f802f80","system_id":"levelo_inurba_marseille","lat":43.241843,"lon":5.397356,"is_reserved":false,"is_disabled":false,"rental_uris":{"android":"levelo://app?vid=65ad3404-ca16-4ff6-a3da-345d3f802f80","ios":"levelo://app?vid=65ad3404-ca16-4ff6-a3da-345d3f802f80"},"vehicle_type_id":"4","last_reported":1731917609,"current_range_meters":28000,"station_id":"ce4bhn12rcd13ifvqgpg","pricing_plan_id":"cebpf4jnsgd1na2vs0mg"},{"bike_id":"560057b5-38ed-41d2-8363-c423745ab422","system_id":"levelo_inurba_marseille","lat":43.28154,"lon":5.4263,"is_reserved":false,"is_disabled":false,"rental_uris":{"android":"levelo://app?vid=560057b5-38ed-41d2-8363-c423745ab422","ios":"levelo://app?vid=560057b5-38ed-41d2-8363-c423745ab422"},"vehicle_type_id":"4","last_reported":1731917609,"current_range_meters":37600,"station_id":"ce4bhnh2rcd13ifvqgug","pricing_plan_id":"cebpf4jnsgd1na2vs0mg"},{"bike_id":"5d4e2dc7-724c-466d-821f-689c5300916f","system_id":"levelo_inurba_marseille","lat":43.27497,"lon":5.4245,"is_reserved":false,"is_disabled":false,"rental_uris":{"android":"levelo://app?vid=5d4e2dc7-724c-466d-821f-689c5300916f","ios":"levelo://app?vid=5d4e2dc7-724c-466d-821f-689c5300916f"},"vehicle_type_id":"4","last_reported":1731917609,"current_range_meters":26800,"station_id":"ce4bhn92rcd13ifvqgrg","pricing_plan_id":"cebpf4jnsgd1na2vs0mg"},{"bike_id":"30a7f999-986c-48a3-8ede-577b666edfcd","system_id":"levelo_inurba_marseille","lat":43.30911,"lon":5.36839,"is_reserved":false,"is_disabled":false,"rental_uris":{"android":"levelo://app?vid=30a7f999-986c-48a3-8ede-577b666edfcd","ios":"levelo://app?vid=30a7f999-986c-48a3-8ede-577b666edfcd"},"vehicle_type_id":"4","last_reported":1731917609,"current_range_meters":37600,"station_id":"ce4bgn92rcd13ifvqbvg","pricing_plan_id":"cebpf4jnsgd1na2vs0mg"},{"bike_id":"2b238d72-8129-40b8-a647-76de4a951ae7","system_id":"levelo_inurba_marseille","lat":43.24082,"lon":5.37753,"is_reserved":false,"is_disabled":false,"rental_uris":{"android":"levelo://app?vid=2b238d72-8129-40b8-a647-76de4a951ae7","ios":"levelo://app?vid=2b238d72-8129-40b8-a647-76de4a951ae7"},"vehicle_type_id":"4","last_reported":1731917609,"current_range_meters":29600,"station_id":"ce4bhnp2rcd13ifvqgvg","pricing_plan_id":"cebpf4jnsgd1na2vs0mg"},{"bike_id":"c8c84a8a-7d3b-464a-8a60-011e6388e813","system_id":"levelo_inurba_marseille","lat":43.30951,"lon":5.39048,"is_reserved":false,"is_disabled":false,"rental_uris":{"android":"levelo://app?vid=c8c84a8a-7d3b-464a-8a60-011e6388e813","ios":"levelo://app?vid=c8c84a8a-7d3b-464a-8a60-011e6388e813"},"vehicle_type_id":"4","last_reported":1731917609,"current_range_meters":31200,"station_id":"ce4bgqh2rcd13ifvqc4g","pricing_plan_id":"cebpf4jnsgd1na2vs0mg"},{"bike_id":"d4dd291e-8a92-4723-80e0-ac5f42a489a9","system_id":"levelo_inurba_marseille","lat":43.241865,"lon":5.39679,"is_reserved":false,"is_disabled":false,"rental_uris":{"android":"levelo://app?vid=d4dd291e-8a92-4723-80e0-ac5f42a489a9","ios":"levelo://app?vid=d4dd291e-8a92-4723-80e0-ac5f42a489a9"},"vehicle_type_id":"4","last_reported":1731917609,"current_range_meters":24000,"station_id":"ce4bhn12rcd13ifvqgpg","pricing_plan_id":"cebpf4jnsgd1na2vs0mg"},{"bike_id":"04436320-8095-41fb-9f29-a8844f9c1d7c","system_id":"levelo_inurba_marseille","lat":43.30191,"lon":5.3661,"is_reserved":false,"is_disabled":false,"rental_uris":{"android":"levelo://app?vid=04436320-8095-41fb-9f29-a8844f9c1d7c","ios":"levelo://app?vid=04436320-8095-41fb-9f29-a8844f9c1d7c"},"vehicle_type_id":"4","last_reported":1731917609,"current_range_meters":22800,"station_id":"ce4bgrh2rcd13ifvqc8g","pricing_plan_id":"cebpf4jnsgd1na2vs0mg"},{"bike_id":"7c98e0a9-8a05-4c51-84e1-8e2ad06176a0","system_id":"levelo_inurba_marseille","lat":43.32545,"lon":5.41433,"is_reserved":false,"is_disabled":false,"rental_uris":{"android":"levelo://app?vid=7c98e0a9-8a05-4c51-84e1-8e2ad06176a0","ios":"levelo://app?vid=7c98e0a9-8a05-4c51-84e1-8e2ad06176a0"},"vehicle_type_id":"4","last_reported":1731917609,"current_range_meters":36800,"station_id":"ce4bhq12rcd13ifvqhhg","pricing_plan_id":"cebpf4jnsgd1na2vs0mg"},{"bike_id":"38eaa893-4df3-47c8-8955-40a4a50dd910","system_id":"levelo_inurba_marseille","lat":43.25932,"lon":5.4091,"is_reserved":false,"is_disabled":false,"rental_uris":{"android":"levelo://app?vid=38eaa893-4df3-47c8-8955-40a4a50dd910","ios":"levelo://app?vid=38eaa893-4df3-47c8-8955-40a4a50dd910"},"vehicle_type_id":"4","last_reported":1731917609,"current_range_meters":25600,"station_id":"ce4bhm92rcd13ifvqglg","pricing_plan_id":"cebpf4jnsgd1na2vs0mg"},{"bike_id":"6fd9034b-09d2-4d95-bcb1-85d00b7952cb","system_id":"levelo_inurba_marseille","lat":43.30084,"lon":5.39085,"is_reserved":false,"is_disabled":false,"rental_uris":{"android":"levelo://app?vid=6fd9034b-09d2-4d95-bcb1-85d00b7952cb","ios":"levelo://app?vid=6fd9034b-09d2-4d95-bcb1-85d00b7952cb"},"vehicle_type_id":"4","last_reported":1731917609,"current_range_meters":31200,"station_id":"ce4bh192rcd13ifvqdb0","pricing_plan_id":"cebpf4jnsgd1na2vs0mg"},{"bike_id":"ae4b2d56-ce70-4260-aa4a-74f42a8752ff","system_id":"levelo_inurba_marseille","lat":43.34141,"lon":5.40907,"is_reserved":false,"is_disabled":false,"rental_uris":{"android":"levelo://app?vid=ae4b2d56-ce70-4260-aa4a-74f42a8752ff","ios":"levelo://app?vid=ae4b2d56-ce70-4260-aa4a-74f42a8752ff"},"vehicle_type_id":"4","last_reported":1731917609,"current_range_meters":32800,"station_id":"ce4bhqh2rcd13ifvqhlg","pricing_plan_id":"cebpf4jnsgd1na2vs0mg"},{"bike_id":"c33577fd-b8c9-4bc5-897b-b187d9c8af63","system_id":"levelo_inurba_marseille","lat":43.30159,"lon":5.3808,"is_reserved":false,"is_disabled":false,"rental_uris":{"android":"levelo://app?vid=c33577fd-b8c9-4bc5-897b-b187d9c8af63","ios":"levelo://app?vid=c33577fd-b8c9-4bc5-897b-b187d9c8af63"},"vehicle_type_id":"4","last_reported":1731917609,"current_range_meters":38800,"station_id":"ce4bgjp2rcd13ifvqbh0","pricing_plan_id":"cebpf4jnsgd1na2vs0mg"},{"bike_id":"72364b8a-04ac-45d7-b3c8-fdbe73025294","system_id":"levelo_inurba_marseille","lat":43.30906,"lon":5.36841,"is_reserved":false,"is_disabled":false,"rental_uris":{"android":"levelo://app?vid=72364b8a-04ac-45d7-b3c8-fdbe73025294","ios":"levelo://app?vid=72364b8a-04ac-45d7-b3c8-fdbe73025294"},"vehicle_type_id":"4","last_reported":1731917609,"current_range_meters":24400,"station_id":"ce4bgn92rcd13ifvqbvg","pricing_plan_id":"cebpf4jnsgd1na2vs0mg"},{"bike_id":"1b441a5d-fcf3-4cb1-9707-fd87ad14e96d","system_id":"levelo_inurba_marseille","lat":43.24068,"lon":5.37769,"is_reserved":false,"is_disabled":false,"rental_uris":{"android":"levelo://app?vid=1b441a5d-fcf3-4cb1-9707-fd87ad14e96d","ios":"levelo://app?vid=1b441a5d-fcf3-4cb1-9707-fd87ad14e96d"},"vehicle_type_id":"4","last_reported":1731917609,"current_range_meters":17200,"station_id":"ce4bhnp2rcd13ifvqgvg","pricing_plan_id":"cebpf4jnsgd1na2vs0mg"},{"bike_id":"22ea48db-755d-43c3-a7d2-0beff01815d8","system_id":"levelo_inurba_marseille","lat":43.31631,"lon":5.38318,"is_reserved":false,"is_disabled":false,"rental_uris":{"android":"levelo://app?vid=22ea48db-755d-43c3-a7d2-0beff01815d8","ios":"levelo://app?vid=22ea48db-755d-43c3-a7d2-0beff01815d8"},"vehicle_type_id":"4","last_reported":1731917609,"current_range_meters":4800,"station_id":"","pricing_plan_id":"cebpf4jnsgd1na2vs0mg"},{"bike_id":"769ece06-460f-4c2a-8c35-61e2f7e2cc66","system_id":"levelo_inurba_marseille","lat":43.27206,"lon":5.39181,"is_reserved":false,"is_disabled":false,"rental_uris":{"android":"levelo://app?vid=769ece06-460f-4c2a-8c35-61e2f7e2cc66","ios":"levelo://app?vid=769ece06-460f-4c2a-8c35-61e2f7e2cc66"},"vehicle_type_id":"4","last_reported":1731917609,"current_range_meters":28000,"station_id":"ce4bhhp2rcd13ifvqfm0","pricing_plan_id":"cebpf4jnsgd1na2vs0mg"},{"bike_id":"475290c4-27aa-445d-baab-c53c24b225ac","system_id":"levelo_inurba_marseille","lat":43.24548,"lon":5.39524,"is_reserved":false,"is_disabled":false,"rental_uris":{"android":"levelo://app?vid=475290c4-27aa-445d-baab-c53c24b225ac","ios":"levelo://app?vid=475290c4-27aa-445d-baab-c53c24b225ac"},"vehicle_type_id":"4","last_reported":1731917609,"current_range_meters":34800,"station_id":"ce4bhlp2rcd13ifvqgjg","pricing_plan_id":"cebpf4jnsgd1na2vs0mg"},{"bike_id":"8891eb82-3520-475e-82b8-b1c307e8095a","system_id":"levelo_inurba_marseille","lat":43.33027,"lon":5.39031,"is_reserved":false,"is_disabled":false,"rental_uris":{"android":"levelo://app?vid=8891eb82-3520-475e-82b8-b1c307e8095a","ios":"levelo://app?vid=8891eb82-3520-475e-82b8-b1c307e8095a"},"vehicle_type_id":"4","last_reported":1731917609,"current_range_meters":30800,"station_id":"ce4bhr92rcd13ifvqhrg","pricing_plan_id":"cebpf4jnsgd1na2vs0mg"},{"bike_id":"0c7483d4-e223-4c26-a83a-a4b9e7e6633e","system_id":"levelo_inurba_marseille","lat":43.26199,"lon":5.3793,"is_reserved":false,"is_disabled":false,"rental_uris":{"android":"levelo://app?vid=0c7483d4-e223-4c26-a83a-a4b9e7e6633e","ios":"levelo://app?vid=0c7483d4-e223-4c26-a83a-a4b9e7e6633e"},"vehicle_type_id":"4","last_reported":1731917609,"current_range_meters":35600,"station_id":"ce4bhjp2rcd13ifvqg90","pricing_plan_id":"cebpf4jnsgd1na2vs0mg"},{"bike_id":"29ec188a-f565-4617-9a87-d26899076666","system_id":"levelo_inurba_marseille","lat":43.25941,"lon":5.40905,"is_reserved":false,"is_disabled":false,"rental_uris":{"android":"levelo://app?vid=29ec188a-f565-4617-9a87-d26899076666","ios":"levelo://app?vid=29ec188a-f565-4617-9a87-d26899076666"},"vehicle_type_id":"4","last_reported":1731917609,"current_range_meters":16400,"station_id":"ce4bhm92rcd13ifvqglg","pricing_plan_id":"cebpf4jnsgd1na2vs0mg"},{"bike_id":"ca655f3b-8380-4045-b3f8-8acaa0e83ede","system_id":"levelo_inurba_marseille","lat":43.33739,"lon":5.37423,"is_reserved":false,"is_disabled":false,"rental_uris":{"android":"levelo://app?vid=ca655f3b-8380-4045-b3f8-8acaa0e83ede","ios":"levelo://app?vid=ca655f3b-8380-4045-b3f8-8acaa0e83ede"},"vehicle_type_id":"4","last_reported":1731917609,"current_range_meters":29600,"station_id":"","pricing_plan_id":"cebpf4jnsgd1na2vs0mg"},{"bike_id":"a96f919a-bfbd-4430-b23b-ed389435872c","system_id":"levelo_inurba_marseille","lat":43.27999,"lon":5.40014,"is_reserved":false,"is_disabled":false,"rental_uris":{"android":"levelo://app?vid=a96f919a-bfbd-4430-b23b-ed389435872c","ios":"levelo://app?vid=a96f919a-bfbd-4430-b23b-ed389435872c"},"vehicle_type_id":"4","last_reported":1731917609,"current_range_meters":23200,"station_id":"ce4bho92rcd13ifvqh4g","pricing_plan_id":"cebpf4jnsgd1na2vs0mg"},{"bike_id":"73c221c4-3f60-4caa-9daa-fb6e7a99f2d9","system_id":"levelo_inurba_marseille","lat":43.25936,"lon":5.40914,"is_reserved":false,"is_disabled":false,"rental_uris":{"android":"levelo://app?vid=73c221c4-3f60-4caa-9daa-fb6e7a99f2d9","ios":"levelo://app?vid=73c221c4-3f60-4caa-9daa-fb6e7a99f2d9"},"vehicle_type_id":"4","last_reported":1731917609,"current_range_meters":33200,"station_id":"ce4bhm92rcd13ifvqglg","pricing_plan_id":"cebpf4jnsgd1na2vs0mg"},{"bike_id":"a6b8c285-acc9-4039-9531-1aae39136a33","system_id":"levelo_inurba_marseille","lat":43.312042,"lon":5.367348,"is_reserved":false,"is_disabled":false,"rental_uris":{"android":"levelo://app?vid=a6b8c285-acc9-4039-9531-1aae39136a33","ios":"levelo://app?vid=a6b8c285-acc9-4039-9531-1aae39136a33"},"vehicle_type_id":"4","last_reported":1731917609,"current_range_meters":6800,"station_id":"","pricing_plan_id":"cebpf4jnsgd1na2vs0mg"},{"bike_id":"8732dc48-0ead-4fbf-abd3-bc444cb9a620","system_id":"levelo_inurba_marseille","lat":43.3212,"lon":5.36774,"is_reserved":false,"is_disabled":false,"rental_uris":{"android":"levelo://app?vid=8732dc48-0ead-4fbf-abd3-bc444cb9a620","ios":"levelo://app?vid=8732dc48-0ead-4fbf-abd3-bc444cb9a620"},"vehicle_type_id":"4","last_reported":1731917609,"current_range_meters":37600,"station_id":"ce4bhrh2rcd13ifvqhug","pricing_plan_id":"cebpf4jnsgd1na2vs0mg"},{"bike_id":"34b9f970-27e7-43cb-bb06-ac9397ebf150","system_id":"levelo_inurba_marseille","lat":43.24069,"lon":5.37766,"is_reserved":false,"is_disabled":false,"rental_uris":{"android":"levelo://app?vid=34b9f970-27e7-43cb-bb06-ac9397ebf150","ios":"levelo://app?vid=34b9f970-27e7-43cb-bb06-ac9397ebf150"},"vehicle_type_id":"4","last_reported":1731917609,"current_range_meters":19200,"station_id":"ce4bhnp2rcd13ifvqgvg","pricing_plan_id":"cebpf4jnsgd1na2vs0mg"},{"bike_id":"1b3a640c-6962-48bd-923e-991278d890a4","system_id":"levelo_inurba_marseille","lat":43.30613,"lon":5.37227,"is_reserved":false,"is_disabled":false,"rental_uris":{"android":"levelo://app?vid=1b3a640c-6962-48bd-923e-991278d890a4","ios":"levelo://app?vid=1b3a640c-6962-48bd-923e-991278d890a4"},"vehicle_type_id":"4","last_reported":1731917609,"current_range_meters":36800,"station_id":"ce4bgqh2rcd13ifvqc4g","pricing_plan_id":"cebpf4jnsgd1na2vs0mg"},{"bike_id":"d1fbc991-a48b-41ed-a778-bb3daa3dd802","system_id":"levelo_inurba_marseille","lat":43.26207,"lon":5.37918,"is_reserved":false,"is_disabled":false,"rental_uris":{"android":"levelo://app?vid=d1fbc991-a48b-41ed-a778-bb3daa3dd802","ios":"levelo://app?vid=d1fbc991-a48b-41ed-a778-bb3daa3dd802"},"vehicle_type_id":"4","last_reported":1731917609,"current_range_meters":36000,"station_id":"ce4bhjp2rcd13ifvqg90","pricing_plan_id":"cebpf4jnsgd1na2vs0mg"},{"bike_id":"9af3cdec-4f63-4439-b320-1cf5e6351989","system_id":"levelo_inurba_marseille","lat":43.26304,"lon":5.37391,"is_reserved":false,"is_disabled":false,"rental_uris":{"android":"levelo://app?vid=9af3cdec-4f63-4439-b320-1cf5e6351989","ios":"levelo://app?vid=9af3cdec-4f63-4439-b320-1cf5e6351989"},"vehicle_type_id":"4","last_reported":1731917609,"current_range_meters":27600,"station_id":"","pricing_plan_id":"cebpf4jnsgd1na2vs0mg"},{"bike_id":"aecb0585-6748-4522-8433-9a08ac38f104","system_id":"levelo_inurba_marseille","lat":43.30152,"lon":5.38075,"is_reserved":false,"is_disabled":false,"rental_uris":{"android":"levelo://app?vid=aecb0585-6748-4522-8433-9a08ac38f104","ios":"levelo://app?vid=aecb0585-6748-4522-8433-9a08ac38f104"},"vehicle_type_id":"4","last_reported":1731917609,"current_range_meters":38400,"station_id":"ce4bgjp2rcd13ifvqbh0","pricing_plan_id":"cebpf4jnsgd1na2vs0mg"},{"bike_id":"c51f4d7b-b912-4619-a0f6-68e640c96bcd","system_id":"levelo_inurba_marseille","lat":43.31359,"lon":5.36689,"is_reserved":false,"is_disabled":false,"rental_uris":{"android":"levelo://app?vid=c51f4d7b-b912-4619-a0f6-68e640c96bcd","ios":"levelo://app?vid=c51f4d7b-b912-4619-a0f6-68e640c96bcd"},"vehicle_type_id":"4","last_reported":1731917609,"current_range_meters":31200,"station_id":"ce4bgr92rcd13ifvqc6g","pricing_plan_id":"cebpf4jnsgd1na2vs0mg"},{"bike_id":"92ac4858-87d6-4ceb-8f6e-004635a816a8","system_id":"levelo_inurba_marseille","lat":43.27789,"lon":5.40729,"is_reserved":false,"is_disabled":false,"rental_uris":{"android":"levelo://app?vid=92ac4858-87d6-4ceb-8f6e-004635a816a8","ios":"levelo://app?vid=92ac4858-87d6-4ceb-8f6e-004635a816a8"},"vehicle_type_id":"4","last_reported":1731917609,"current_range_meters":23200,"station_id":"ce4bhnh2rcd13ifvqgtg","pricing_plan_id":"cebpf4jnsgd1na2vs0mg"},{"bike_id":"8fdbf1e0-4b15-498f-959a-b41da23b36eb","system_id":"levelo_inurba_marseille","lat":43.26501,"lon":5.39541,"is_reserved":false,"is_disabled":false,"rental_uris":{"android":"levelo://app?vid=8fdbf1e0-4b15-498f-959a-b41da23b36eb","ios":"levelo://app?vid=8fdbf1e0-4b15-498f-959a-b41da23b36eb"},"vehicle_type_id":"4","last_reported":1731917609,"current_range_meters":24800,"station_id":"ce4bhi12rcd13ifvqfq0","pricing_plan_id":"cebpf4jnsgd1na2vs0mg"},{"bike_id":"bf5881fa-4d9d-4dc8-b253-41223199274e","system_id":"levelo_inurba_marseille","lat":43.241843,"lon":5.397356,"is_reserved":false,"is_disabled":false,"rental_uris":{"android":"levelo://app?vid=bf5881fa-4d9d-4dc8-b253-41223199274e","ios":"levelo://app?vid=bf5881fa-4d9d-4dc8-b253-41223199274e"},"vehicle_type_id":"4","last_reported":1731917609,"current_range_meters":38400,"station_id":"ce4bhn12rcd13ifvqgpg","pricing_plan_id":"cebpf4jnsgd1na2vs0mg"},{"bike_id":"ec2351d1-10f8-43e0-aebc-df5382abbad8","system_id":"levelo_inurba_marseille","lat":43.23154,"lon":5.43723,"is_reserved":false,"is_disabled":false,"rental_uris":{"android":"levelo://app?vid=ec2351d1-10f8-43e0-aebc-df5382abbad8","ios":"levelo://app?vid=ec2351d1-10f8-43e0-aebc-df5382abbad8"},"vehicle_type_id":"4","last_reported":1731917609,"current_range_meters":22800,"station_id":"ce4bhmp2rcd13ifvqgog","pricing_plan_id":"cebpf4jnsgd1na2vs0mg"},{"bike_id":"ffb244c0-880a-4373-ab0e-c7f86857cb14","system_id":"levelo_inurba_marseille","lat":43.28858,"lon":5.39321,"is_reserved":false,"is_disabled":false,"rental_uris":{"android":"levelo://app?vid=ffb244c0-880a-4373-ab0e-c7f86857cb14","ios":"levelo://app?vid=ffb244c0-880a-4373-ab0e-c7f86857cb14"},"vehicle_type_id":"4","last_reported":1731917609,"current_range_meters":38800,"station_id":"ce4bh2p2rcd13ifvqdi0","pricing_plan_id":"cebpf4jnsgd1na2vs0mg"},{"bike_id":"63baa370-9658-45df-8777-56566e044ceb","system_id":"levelo_inurba_marseille","lat":43.29039,"lon":5.39953,"is_reserved":false,"is_disabled":false,"rental_uris":{"android":"levelo://app?vid=63baa370-9658-45df-8777-56566e044ceb","ios":"levelo://app?vid=63baa370-9658-45df-8777-56566e044ceb"},"vehicle_type_id":"4","last_reported":1731917609,"current_range_meters":9600,"station_id":"ce4bh392rcd13ifvqdm0","pricing_plan_id":"cebpf4jnsgd1na2vs0mg"},{"bike_id":"7465bc4b-7341-47ef-959d-45c0a1d37e4c","system_id":"levelo_inurba_marseille","lat":43.24086,"lon":5.37754,"is_reserved":false,"is_disabled":false,"rental_uris":{"android":"levelo://app?vid=7465bc4b-7341-47ef-959d-45c0a1d37e4c","ios":"levelo://app?vid=7465bc4b-7341-47ef-959d-45c0a1d37e4c"},"vehicle_type_id":"4","last_reported":1731917609,"current_range_meters":25200,"station_id":"ce4bhnp2rcd13ifvqgvg","pricing_plan_id":"cebpf4jnsgd1na2vs0mg"},{"bike_id":"827526a7-1cd2-4cdc-9740-44acb0c0d667","system_id":"levelo_inurba_marseille","lat":43.28158,"lon":5.42643,"is_reserved":false,"is_disabled":false,"rental_uris":{"android":"levelo://app?vid=827526a7-1cd2-4cdc-9740-44acb0c0d667","ios":"levelo://app?vid=827526a7-1cd2-4cdc-9740-44acb0c0d667"},"vehicle_type_id":"4","last_reported":1731917609,"current_range_meters":34800,"station_id":"ce4bhnh2rcd13ifvqgug","pricing_plan_id":"cebpf4jnsgd1na2vs0mg"},{"bike_id":"a84f5389-258d-4508-9c0f-32ee5d326b43","system_id":"levelo_inurba_marseille","lat":43.33767,"lon":5.37475,"is_reserved":false,"is_disabled":false,"rental_uris":{"android":"levelo://app?vid=a84f5389-258d-4508-9c0f-32ee5d326b43","ios":"levelo://app?vid=a84f5389-258d-4508-9c0f-32ee5d326b43"},"vehicle_type_id":"4","last_reported":1731917609,"current_range_meters":26000,"station_id":"","pricing_plan_id":"cebpf4jnsgd1na2vs0mg"},{"bike_id":"b9c318e7-376c-4fa6-84aa-7dff96dfb532","system_id":"levelo_inurba_marseille","lat":43.30162,"lon":5.38085,"is_reserved":false,"is_disabled":false,"rental_uris":{"android":"levelo://app?vid=b9c318e7-376c-4fa6-84aa-7dff96dfb532","ios":"levelo://app?vid=b9c318e7-376c-4fa6-84aa-7dff96dfb532"},"vehicle_type_id":"4","last_reported":1731917609,"current_range_meters":9200,"station_id":"ce4bgjp2rcd13ifvqbh0","pricing_plan_id":"cebpf4jnsgd1na2vs0mg"},{"bike_id":"4d55e7d7-7253-409c-adb4-fbf2b87e286d","system_id":"levelo_inurba_marseille","lat":43.3135,"lon":5.36724,"is_reserved":false,"is_disabled":false,"rental_uris":{"android":"levelo://app?vid=4d55e7d7-7253-409c-adb4-fbf2b87e286d","ios":"levelo://app?vid=4d55e7d7-7253-409c-adb4-fbf2b87e286d"},"vehicle_type_id":"4","last_reported":1731917609,"current_range_meters":22800,"station_id":"ce4bgr92rcd13ifvqc6g","pricing_plan_id":"cebpf4jnsgd1na2vs0mg"},{"bike_id":"8f426890-14c3-4f84-af0e-ede85f28b7aa","system_id":"levelo_inurba_marseille","lat":43.23146,"lon":5.43732,"is_reserved":false,"is_disabled":false,"rental_uris":{"android":"levelo://app?vid=8f426890-14c3-4f84-af0e-ede85f28b7aa","ios":"levelo://app?vid=8f426890-14c3-4f84-af0e-ede85f28b7aa"},"vehicle_type_id":"4","last_reported":1731917609,"current_range_meters":20000,"station_id":"ce4bhmp2rcd13ifvqgog","pricing_plan_id":"cebpf4jnsgd1na2vs0mg"},{"bike_id":"e642cba8-47b5-402d-beac-a365c34fa126","system_id":"levelo_inurba_marseille","lat":43.30282,"lon":5.37705,"is_reserved":false,"is_disabled":false,"rental_uris":{"android":"levelo://app?vid=e642cba8-47b5-402d-beac-a365c34fa126","ios":"levelo://app?vid=e642cba8-47b5-402d-beac-a365c34fa126"},"vehicle_type_id":"4","last_reported":1731917609,"current_range_meters":29600,"station_id":"ce4bguh2rcd13ifvqcj0","pricing_plan_id":"cebpf4jnsgd1na2vs0mg"},{"bike_id":"fcc3bb46-7516-43b0-811a-0a0d7e3d2379","system_id":"levelo_inurba_marseille","lat":43.31222,"lon":5.36861,"is_reserved":false,"is_disabled":false,"rental_uris":{"android":"levelo://app?vid=fcc3bb46-7516-43b0-811a-0a0d7e3d2379","ios":"levelo://app?vid=fcc3bb46-7516-43b0-811a-0a0d7e3d2379"},"vehicle_type_id":"4","last_reported":1731917609,"current_range_meters":23200,"station_id":"ce4bgl92rcd13ifvqbq0","pricing_plan_id":"cebpf4jnsgd1na2vs0mg"},{"bike_id":"95b7222f-eb18-4b6a-8fe7-103e91bfc300","system_id":"levelo_inurba_marseille","lat":43.3265,"lon":5.40995,"is_reserved":false,"is_disabled":false,"rental_uris":{"android":"levelo://app?vid=95b7222f-eb18-4b6a-8fe7-103e91bfc300","ios":"levelo://app?vid=95b7222f-eb18-4b6a-8fe7-103e91bfc300"},"vehicle_type_id":"4","last_reported":1731917609,"current_range_meters":37600,"station_id":"ce4bhpp2rcd13ifvqhgg","pricing_plan_id":"cebpf4jnsgd1na2vs0mg"},{"bike_id":"2278ff27-67f2-4840-a242-2d6ee755536b","system_id":"levelo_inurba_marseille","lat":43.32487,"lon":5.3657,"is_reserved":false,"is_disabled":false,"rental_uris":{"android":"levelo://app?vid=2278ff27-67f2-4840-a242-2d6ee755536b","ios":"levelo://app?vid=2278ff27-67f2-4840-a242-2d6ee755536b"},"vehicle_type_id":"4","last_reported":1731917609,"current_range_meters":39200,"station_id":"ce4bhs12rcd13ifvqhvg","pricing_plan_id":"cebpf4jnsgd1na2vs0mg"},{"bike_id":"1187d3bb-9436-4bf5-9797-55735610952f","system_id":"levelo_inurba_marseille","lat":43.337444,"lon":5.374475,"is_reserved":false,"is_disabled":false,"rental_uris":{"android":"levelo://app?vid=1187d3bb-9436-4bf5-9797-55735610952f","ios":"levelo://app?vid=1187d3bb-9436-4bf5-9797-55735610952f"},"vehicle_type_id":"4","last_reported":1731917609,"current_range_meters":32400,"station_id":"ce4bh0h2rcd13ifvqd40","pricing_plan_id":"cebpf4jnsgd1na2vs0mg"},{"bike_id":"d6204a94-8517-4454-be65-f1c360ad1702","system_id":"levelo_inurba_marseille","lat":43.24077,"lon":5.37758,"is_reserved":false,"is_disabled":false,"rental_uris":{"android":"levelo://app?vid=d6204a94-8517-4454-be65-f1c360ad1702","ios":"levelo://app?vid=d6204a94-8517-4454-be65-f1c360ad1702"},"vehicle_type_id":"4","last_reported":1731917609,"current_range_meters":3200,"station_id":"ce4bhnp2rcd13ifvqgvg","pricing_plan_id":"cebpf4jnsgd1na2vs0mg"},{"bike_id":"bc2a7e59-8337-404f-b350-286a356a07d8","system_id":"levelo_inurba_marseille","lat":43.31349,"lon":5.36728,"is_reserved":false,"is_disabled":false,"rental_uris":{"android":"levelo://app?vid=bc2a7e59-8337-404f-b350-286a356a07d8","ios":"levelo://app?vid=bc2a7e59-8337-404f-b350-286a356a07d8"},"vehicle_type_id":"4","last_reported":1731917609,"current_range_meters":35200,"station_id":"ce4bgr92rcd13ifvqc6g","pricing_plan_id":"cebpf4jnsgd1na2vs0mg"},{"bike_id":"87091484-cc08-4749-9076-5bcca772fced","system_id":"levelo_inurba_marseille","lat":43.28043,"lon":5.36951,"is_reserved":false,"is_disabled":false,"rental_uris":{"android":"levelo://app?vid=87091484-cc08-4749-9076-5bcca772fced","ios":"levelo://app?vid=87091484-cc08-4749-9076-5bcca772fced"},"vehicle_type_id":"4","last_reported":1731917609,"current_range_meters":19600,"station_id":"ce4bha12rcd13ifvqef0","pricing_plan_id":"cebpf4jnsgd1na2vs0mg"},{"bike_id":"aa6d6dd4-02af-4837-b7da-eda7b2534a85","system_id":"levelo_inurba_marseille","lat":43.30155,"lon":5.38087,"is_reserved":false,"is_disabled":false,"rental_uris":{"android":"levelo://app?vid=aa6d6dd4-02af-4837-b7da-eda7b2534a85","ios":"levelo://app?vid=aa6d6dd4-02af-4837-b7da-eda7b2534a85"},"vehicle_type_id":"4","last_reported":1731917609,"current_range_meters":38800,"station_id":"ce4bgjp2rcd13ifvqbh0","pricing_plan_id":"cebpf4jnsgd1na2vs0mg"},{"bike_id":"e5e1e488-84eb-4d68-8109-c1f2fa9a0da4","system_id":"levelo_inurba_marseille","lat":43.269409,"lon":5.389146,"is_reserved":false,"is_disabled":false,"rental_uris":{"android":"levelo://app?vid=e5e1e488-84eb-4d68-8109-c1f2fa9a0da4","ios":"levelo://app?vid=e5e1e488-84eb-4d68-8109-c1f2fa9a0da4"},"vehicle_type_id":"4","last_reported":1731917609,"current_range_meters":28400,"station_id":"ce4bhh92rcd13ifvqfj0","pricing_plan_id":"cebpf4jnsgd1na2vs0mg"},{"bike_id":"19b7ce29-c5d3-4420-b9d5-84f768a99620","system_id":"levelo_inurba_marseille","lat":43.30547,"lon":5.38416,"is_reserved":false,"is_disabled":false,"rental_uris":{"android":"levelo://app?vid=19b7ce29-c5d3-4420-b9d5-84f768a99620","ios":"levelo://app?vid=19b7ce29-c5d3-4420-b9d5-84f768a99620"},"vehicle_type_id":"4","last_reported":1731917609,"current_range_meters":20400,"station_id":"ce4bgg92rcd13ifvqb30","pricing_plan_id":"cebpf4jnsgd1na2vs0mg"},{"bike_id":"3cc1ea47-c169-427d-8e2b-1934c4fa5cf3","system_id":"levelo_inurba_marseille","lat":43.30465,"lon":5.37896,"is_reserved":false,"is_disabled":false,"rental_uris":{"android":"levelo://app?vid=3cc1ea47-c169-427d-8e2b-1934c4fa5cf3","ios":"levelo://app?vid=3cc1ea47-c169-427d-8e2b-1934c4fa5cf3"},"vehicle_type_id":"4","last_reported":1731917609,"current_range_meters":38800,"station_id":"ce4bgup2rcd13ifvqcn0","pricing_plan_id":"cebpf4jnsgd1na2vs0mg"},{"bike_id":"4f5b3494-e236-4a78-8756-d7b74c57f0e4","system_id":"levelo_inurba_marseille","lat":43.24075,"lon":5.3776,"is_reserved":false,"is_disabled":false,"rental_uris":{"android":"levelo://app?vid=4f5b3494-e236-4a78-8756-d7b74c57f0e4","ios":"levelo://app?vid=4f5b3494-e236-4a78-8756-d7b74c57f0e4"},"vehicle_type_id":"4","last_reported":1731917609,"current_range_meters":9600,"station_id":"ce4bhnp2rcd13ifvqgvg","pricing_plan_id":"cebpf4jnsgd1na2vs0mg"},{"bike_id":"87f58e9f-e18d-409c-8168-78f2c4bfa6a2","system_id":"levelo_inurba_marseille","lat":43.337444,"lon":5.374475,"is_reserved":false,"is_disabled":false,"rental_uris":{"android":"levelo://app?vid=87f58e9f-e18d-409c-8168-78f2c4bfa6a2","ios":"levelo://app?vid=87f58e9f-e18d-409c-8168-78f2c4bfa6a2"},"vehicle_type_id":"4","last_reported":1731917609,"current_range_meters":38400,"station_id":"","pricing_plan_id":"cebpf4jnsgd1na2vs0mg"},{"bike_id":"612522b4-14c9-47da-a955-7d7c006a90dd","system_id":"levelo_inurba_marseille","lat":43.24096,"lon":5.3784,"is_reserved":false,"is_disabled":false,"rental_uris":{"android":"levelo://app?vid=612522b4-14c9-47da-a955-7d7c006a90dd","ios":"levelo://app?vid=612522b4-14c9-47da-a955-7d7c006a90dd"},"vehicle_type_id":"4","last_reported":1731917609,"current_range_meters":28400,"station_id":"","pricing_plan_id":"cebpf4jnsgd1na2vs0mg"},{"bike_id":"336a7c10-2137-4288-a9af-8bf43ab2c695","system_id":"levelo_inurba_marseille","lat":43.28932,"lon":5.36644,"is_reserved":false,"is_disabled":false,"rental_uris":{"android":"levelo://app?vid=336a7c10-2137-4288-a9af-8bf43ab2c695","ios":"levelo://app?vid=336a7c10-2137-4288-a9af-8bf43ab2c695"},"vehicle_type_id":"4","last_reported":1731917609,"current_range_meters":21600,"station_id":"ce4bhap2rcd13ifvqek0","pricing_plan_id":"cebpf4jnsgd1na2vs0mg"},{"bike_id":"a7e10f14-442a-492e-b0b8-5735c10e70cc","system_id":"levelo_inurba_marseille","lat":43.30789,"lon":5.37641,"is_reserved":false,"is_disabled":false,"rental_uris":{"android":"levelo://app?vid=a7e10f14-442a-492e-b0b8-5735c10e70cc","ios":"levelo://app?vid=a7e10f14-442a-492e-b0b8-5735c10e70cc"},"vehicle_type_id":"4","last_reported":1731917609,"current_range_meters":38800,"station_id":"ce4bgv92rcd13ifvqcq0","pricing_plan_id":"cebpf4jnsgd1na2vs0mg"},{"bike_id":"6fe8590f-e391-4325-bdde-177e28f31a3e","system_id":"levelo_inurba_marseille","lat":43.33738,"lon":5.39187,"is_reserved":false,"is_disabled":false,"rental_uris":{"android":"levelo://app?vid=6fe8590f-e391-4325-bdde-177e28f31a3e","ios":"levelo://app?vid=6fe8590f-e391-4325-bdde-177e28f31a3e"},"vehicle_type_id":"4","last_reported":1731917609,"current_range_meters":37600,"station_id":"ce4bhr92rcd13ifvqhsg","pricing_plan_id":"cebpf4jnsgd1na2vs0mg"},{"bike_id":"9e0fe9ed-dad6-4dfe-8841-c783d6cac338","system_id":"levelo_inurba_marseille","lat":43.24085,"lon":5.37749,"is_reserved":false,"is_disabled":false,"rental_uris":{"android":"levelo://app?vid=9e0fe9ed-dad6-4dfe-8841-c783d6cac338","ios":"levelo://app?vid=9e0fe9ed-dad6-4dfe-8841-c783d6cac338"},"vehicle_type_id":"4","last_reported":1731917609,"current_range_meters":20000,"station_id":"ce4bhnp2rcd13ifvqgvg","pricing_plan_id":"cebpf4jnsgd1na2vs0mg"},{"bike_id":"f8fd2458-cbd7-49bc-8b98-886c5b354450","system_id":"levelo_inurba_marseille","lat":43.27617,"lon":5.3611,"is_reserved":false,"is_disabled":false,"rental_uris":{"android":"levelo://app?vid=f8fd2458-cbd7-49bc-8b98-886c5b354450","ios":"levelo://app?vid=f8fd2458-cbd7-49bc-8b98-886c5b354450"},"vehicle_type_id":"4","last_reported":1731917609,"current_range_meters":37600,"station_id":"ce4bgj92rcd13ifvqbe0","pricing_plan_id":"cebpf4jnsgd1na2vs0mg"},{"bike_id":"80021477-a82e-4788-93f9-a1be5b876083","system_id":"levelo_inurba_marseille","lat":43.27494,"lon":5.42461,"is_reserved":false,"is_disabled":false,"rental_uris":{"android":"levelo://app?vid=80021477-a82e-4788-93f9-a1be5b876083","ios":"levelo://app?vid=80021477-a82e-4788-93f9-a1be5b876083"},"vehicle_type_id":"4","last_reported":1731917609,"current_range_meters":24400,"station_id":"ce4bhn92rcd13ifvqgrg","pricing_plan_id":"cebpf4jnsgd1na2vs0mg"},{"bike_id":"022f478e-da93-4eda-9d1b-2d0e36905c07","system_id":"levelo_inurba_marseille","lat":43.31631,"lon":5.38268,"is_reserved":false,"is_disabled":false,"rental_uris":{"android":"levelo://app?vid=022f478e-da93-4eda-9d1b-2d0e36905c07","ios":"levelo://app?vid=022f478e-da93-4eda-9d1b-2d0e36905c07"},"vehicle_type_id":"4","last_reported":1731917609,"current_range_meters":8000,"station_id":"","pricing_plan_id":"cebpf4jnsgd1na2vs0mg"},{"bike_id":"a8fcf094-5fe5-49b4-9267-632c49b4795f","system_id":"levelo_inurba_marseille","lat":43.24074,"lon":5.37756,"is_reserved":false,"is_disabled":false,"rental_uris":{"android":"levelo://app?vid=a8fcf094-5fe5-49b4-9267-632c49b4795f","ios":"levelo://app?vid=a8fcf094-5fe5-49b4-9267-632c49b4795f"},"vehicle_type_id":"4","last_reported":1731917609,"current_range_meters":19200,"station_id":"ce4bhnp2rcd13ifvqgvg","pricing_plan_id":"cebpf4jnsgd1na2vs0mg"},{"bike_id":"3c7108fb-85fe-43b6-95ce-e6a5e6d34b1a","system_id":"levelo_inurba_marseille","lat":43.337314,"lon":5.391797,"is_reserved":false,"is_disabled":false,"rental_uris":{"android":"levelo://app?vid=3c7108fb-85fe-43b6-95ce-e6a5e6d34b1a","ios":"levelo://app?vid=3c7108fb-85fe-43b6-95ce-e6a5e6d34b1a"},"vehicle_type_id":"4","last_reported":1731917609,"current_range_meters":25200,"station_id":"ce4bhr92rcd13ifvqhsg","pricing_plan_id":"cebpf4jnsgd1na2vs0mg"},{"bike_id":"355c0a0b-84bd-4fdf-b751-29022c418da1","system_id":"levelo_inurba_marseille","lat":43.289941,"lon":5.378296,"is_reserved":false,"is_disabled":false,"rental_uris":{"android":"levelo://app?vid=355c0a0b-84bd-4fdf-b751-29022c418da1","ios":"levelo://app?vid=355c0a0b-84bd-4fdf-b751-29022c418da1"},"vehicle_type_id":"4","last_reported":1731917609,"current_range_meters":38800,"station_id":"ce4bh9p2rcd13ifvqed0","pricing_plan_id":"cebpf4jnsgd1na2vs0mg"},{"bike_id":"4ebaf455-4569-4bf0-808e-6152b7811121","system_id":"levelo_inurba_marseille","lat":43.31357,"lon":5.36709,"is_reserved":false,"is_disabled":false,"rental_uris":{"android":"levelo://app?vid=4ebaf455-4569-4bf0-808e-6152b7811121","ios":"levelo://app?vid=4ebaf455-4569-4bf0-808e-6152b7811121"},"vehicle_type_id":"4","last_reported":1731917609,"current_range_meters":14400,"station_id":"ce4bgr92rcd13ifvqc6g","pricing_plan_id":"cebpf4jnsgd1na2vs0mg"},{"bike_id":"fc64d5a0-3b69-49d2-b74b-e44f3a1e73ba","system_id":"levelo_inurba_marseille","lat":43.29917,"lon":5.37492,"is_reserved":false,"is_disabled":false,"rental_uris":{"android":"levelo://app?vid=fc64d5a0-3b69-49d2-b74b-e44f3a1e73ba","ios":"levelo://app?vid=fc64d5a0-3b69-49d2-b74b-e44f3a1e73ba"},"vehicle_type_id":"4","last_reported":1731917609,"current_range_meters":23200,"station_id":"ce4bgjh2rcd13ifvqbg0","pricing_plan_id":"cebpf4jnsgd1na2vs0mg"},{"bike_id":"e7fa0dac-53ea-48d4-a9eb-f78e3eacd21a","system_id":"levelo_inurba_marseille","lat":43.33749,"lon":5.37455,"is_reserved":false,"is_disabled":false,"rental_uris":{"android":"levelo://app?vid=e7fa0dac-53ea-48d4-a9eb-f78e3eacd21a","ios":"levelo://app?vid=e7fa0dac-53ea-48d4-a9eb-f78e3eacd21a"},"vehicle_type_id":"4","last_reported":1731917609,"current_range_meters":38800,"station_id":"","pricing_plan_id":"cebpf4jnsgd1na2vs0mg"},{"bike_id":"c6a375c3-592e-455c-8071-59dda2658dd7","system_id":"levelo_inurba_marseille","lat":43.25931,"lon":5.40915,"is_reserved":false,"is_disabled":false,"rental_uris":{"android":"levelo://app?vid=c6a375c3-592e-455c-8071-59dda2658dd7","ios":"levelo://app?vid=c6a375c3-592e-455c-8071-59dda2658dd7"},"vehicle_type_id":"4","last_reported":1731917609,"current_range_meters":10000,"station_id":"ce4bhm92rcd13ifvqglg","pricing_plan_id":"cebpf4jnsgd1na2vs0mg"},{"bike_id":"264d4ccb-6cb7-4402-a07c-ab581cd79e7e","system_id":"levelo_inurba_marseille","lat":43.26215,"lon":5.3744,"is_reserved":false,"is_disabled":false,"rental_uris":{"android":"levelo://app?vid=264d4ccb-6cb7-4402-a07c-ab581cd79e7e","ios":"levelo://app?vid=264d4ccb-6cb7-4402-a07c-ab581cd79e7e"},"vehicle_type_id":"4","last_reported":1731917609,"current_range_meters":31200,"station_id":"ce4bhgp2rcd13ifvqfc0","pricing_plan_id":"cebpf4jnsgd1na2vs0mg"},{"bike_id":"43155b5a-94b8-41f8-b3fe-ed8339ffbcce","system_id":"levelo_inurba_marseille","lat":43.27492,"lon":5.42453,"is_reserved":false,"is_disabled":false,"rental_uris":{"android":"levelo://app?vid=43155b5a-94b8-41f8-b3fe-ed8339ffbcce","ios":"levelo://app?vid=43155b5a-94b8-41f8-b3fe-ed8339ffbcce"},"vehicle_type_id":"4","last_reported":1731917609,"current_range_meters":38000,"station_id":"ce4bhn92rcd13ifvqgrg","pricing_plan_id":"cebpf4jnsgd1na2vs0mg"},{"bike_id":"b26e4567-c0c1-4baf-a2ae-bdd25fad90d7","system_id":"levelo_inurba_marseille","lat":43.30145,"lon":5.37424,"is_reserved":false,"is_disabled":false,"rental_uris":{"android":"levelo://app?vid=b26e4567-c0c1-4baf-a2ae-bdd25fad90d7","ios":"levelo://app?vid=b26e4567-c0c1-4baf-a2ae-bdd25fad90d7"},"vehicle_type_id":"4","last_reported":1731917609,"current_range_meters":9600,"station_id":"ce4bgs92rcd13ifvqcc0","pricing_plan_id":"cebpf4jnsgd1na2vs0mg"},{"bike_id":"5569445e-7565-44d9-b3f9-7220865aa9d6","system_id":"levelo_inurba_marseille","lat":43.285196,"lon":5.384947,"is_reserved":false,"is_disabled":false,"rental_uris":{"android":"levelo://app?vid=5569445e-7565-44d9-b3f9-7220865aa9d6","ios":"levelo://app?vid=5569445e-7565-44d9-b3f9-7220865aa9d6"},"vehicle_type_id":"4","last_reported":1731917609,"current_range_meters":22000,"station_id":"ce4bh8p2rcd13ifvqeb0","pricing_plan_id":"cebpf4jnsgd1na2vs0mg"},{"bike_id":"cfc417db-eb20-46fa-87f4-fca85d0c4d1d","system_id":"levelo_inurba_marseille","lat":43.27487,"lon":5.42463,"is_reserved":false,"is_disabled":false,"rental_uris":{"android":"levelo://app?vid=cfc417db-eb20-46fa-87f4-fca85d0c4d1d","ios":"levelo://app?vid=cfc417db-eb20-46fa-87f4-fca85d0c4d1d"},"vehicle_type_id":"4","last_reported":1731917609,"current_range_meters":16000,"station_id":"ce4bhn92rcd13ifvqgrg","pricing_plan_id":"cebpf4jnsgd1na2vs0mg"},{"bike_id":"12c776d7-9325-4aaf-a199-184388534248","system_id":"levelo_inurba_marseille","lat":43.25938,"lon":5.40905,"is_reserved":false,"is_disabled":false,"rental_uris":{"android":"levelo://app?vid=12c776d7-9325-4aaf-a199-184388534248","ios":"levelo://app?vid=12c776d7-9325-4aaf-a199-184388534248"},"vehicle_type_id":"4","last_reported":1731917609,"current_range_meters":14000,"station_id":"ce4bhm92rcd13ifvqglg","pricing_plan_id":"cebpf4jnsgd1na2vs0mg"},{"bike_id":"f5c7633a-037d-462c-ab25-cfd4428bffaa","system_id":"levelo_inurba_marseille","lat":43.30949,"lon":5.39031,"is_reserved":false,"is_disabled":false,"rental_uris":{"android":"levelo://app?vid=f5c7633a-037d-462c-ab25-cfd4428bffaa","ios":"levelo://app?vid=f5c7633a-037d-462c-ab25-cfd4428bffaa"},"vehicle_type_id":"4","last_reported":1731917609,"current_range_meters":20400,"station_id":"ce4bgup2rcd13ifvqco0","pricing_plan_id":"cebpf4jnsgd1na2vs0mg"},{"bike_id":"a3d98d77-92cc-4a58-b469-0632bebf6c0a","system_id":"levelo_inurba_marseille","lat":43.24403,"lon":5.40338,"is_reserved":false,"is_disabled":false,"rental_uris":{"android":"levelo://app?vid=a3d98d77-92cc-4a58-b469-0632bebf6c0a","ios":"levelo://app?vid=a3d98d77-92cc-4a58-b469-0632bebf6c0a"},"vehicle_type_id":"4","last_reported":1731917609,"current_range_meters":3200,"station_id":"","pricing_plan_id":"cebpf4jnsgd1na2vs0mg"},{"bike_id":"ddf3c492-94d5-4348-9e99-fe5014601706","system_id":"levelo_inurba_marseille","lat":43.31356,"lon":5.36713,"is_reserved":false,"is_disabled":false,"rental_uris":{"android":"levelo://app?vid=ddf3c492-94d5-4348-9e99-fe5014601706","ios":"levelo://app?vid=ddf3c492-94d5-4348-9e99-fe5014601706"},"vehicle_type_id":"4","last_reported":1731917609,"current_range_meters":11600,"station_id":"ce4bgr92rcd13ifvqc6g","pricing_plan_id":"cebpf4jnsgd1na2vs0mg"},{"bike_id":"57878d6b-d219-4d91-a8c2-c5af81e372c8","system_id":"levelo_inurba_marseille","lat":43.24389,"lon":5.37062,"is_reserved":false,"is_disabled":false,"rental_uris":{"android":"levelo://app?vid=57878d6b-d219-4d91-a8c2-c5af81e372c8","ios":"levelo://app?vid=57878d6b-d219-4d91-a8c2-c5af81e372c8"},"vehicle_type_id":"4","last_reported":1731917609,"current_range_meters":8400,"station_id":"ce4bhhh2rcd13ifvqfk0","pricing_plan_id":"cebpf4jnsgd1na2vs0mg"},{"bike_id":"94b66ff6-5506-417e-ab8e-f58c118d4482","system_id":"levelo_inurba_marseille","lat":43.29626,"lon":5.37719,"is_reserved":false,"is_disabled":false,"rental_uris":{"android":"levelo://app?vid=94b66ff6-5506-417e-ab8e-f58c118d4482","ios":"levelo://app?vid=94b66ff6-5506-417e-ab8e-f58c118d4482"},"vehicle_type_id":"4","last_reported":1731917609,"current_range_meters":16000,"station_id":"ce4bgi92rcd13ifvqb90","pricing_plan_id":"cebpf4jnsgd1na2vs0mg"},{"bike_id":"69d7719d-6825-423a-a3f9-766b86458100","system_id":"levelo_inurba_marseille","lat":43.2993,"lon":5.37461,"is_reserved":false,"is_disabled":false,"rental_uris":{"android":"levelo://app?vid=69d7719d-6825-423a-a3f9-766b86458100","ios":"levelo://app?vid=69d7719d-6825-423a-a3f9-766b86458100"},"vehicle_type_id":"4","last_reported":1731917609,"current_range_meters":27600,"station_id":"ce4bgjh2rcd13ifvqbg0","pricing_plan_id":"cebpf4jnsgd1na2vs0mg"},{"bike_id":"2238fb2b-25f3-4bf4-9278-9f02309f6044","system_id":"levelo_inurba_marseille","lat":43.293763,"lon":5.378353,"is_reserved":false,"is_disabled":false,"rental_uris":{"android":"levelo://app?vid=2238fb2b-25f3-4bf4-9278-9f02309f6044","ios":"levelo://app?vid=2238fb2b-25f3-4bf4-9278-9f02309f6044"},"vehicle_type_id":"4","last_reported":1731917609,"current_range_meters":38000,"station_id":"ce4bgjh2rcd13ifvqbf0","pricing_plan_id":"cebpf4jnsgd1na2vs0mg"},{"bike_id":"5216c185-1747-4039-b245-fd344bf55bd3","system_id":"levelo_inurba_marseille","lat":43.29915,"lon":5.37473,"is_reserved":false,"is_disabled":false,"rental_uris":{"android":"levelo://app?vid=5216c185-1747-4039-b245-fd344bf55bd3","ios":"levelo://app?vid=5216c185-1747-4039-b245-fd344bf55bd3"},"vehicle_type_id":"4","last_reported":1731917609,"current_range_meters":16400,"station_id":"ce4bgjh2rcd13ifvqbg0","pricing_plan_id":"cebpf4jnsgd1na2vs0mg"},{"bike_id":"a4e286ce-b0c9-4867-a3ad-7fb8f3e50416","system_id":"levelo_inurba_marseille","lat":43.24411,"lon":5.41602,"is_reserved":false,"is_disabled":false,"rental_uris":{"android":"levelo://app?vid=a4e286ce-b0c9-4867-a3ad-7fb8f3e50416","ios":"levelo://app?vid=a4e286ce-b0c9-4867-a3ad-7fb8f3e50416"},