{"last_updated":1770018194,"ttl":60,"version":"2.2","data":{"bikes":[{"bike_id":"85370985-12ff-40c6-a2c8-00917d53eba9","system_id":"levelo_inurba_marseille","lat":43.287229,"lon":5.360894,"is_reserved":false,"is_disabled":false,"rental_uris":{"android":"levelo://app?vid=85370985-12ff-40c6-a2c8-00917d53eba9","ios":"levelo://app?vid=85370985-12ff-40c6-a2c8-00917d53eba9"},"vehicle_type_id":"4","last_reported":1770018195,"current_range_meters":2800,"station_id":"cki0cbj6b192h4jlfktg","pricing_plan_id":"cebpf4jnsgd1na2vs0mg"},{"bike_id":"b3075ece-1939-46b2-a082-449acbb6e23e","system_id":"levelo_inurba_marseille","lat":43.26213,"lon":5.37442,"is_reserved":false,"is_disabled":false,"rental_uris":{"android":"levelo://app?vid=b3075ece-1939-46b2-a082-449acbb6e23e","ios":"levelo://app?vid=b3075ece-1939-46b2-a082-449acbb6e23e"},"vehicle_type_id":"4","last_reported":1770018195,"current_range_meters":2800,"station_id":"ce4bhgp2rcd13ifvqfc0","pricing_plan_id":"cebpf4jnsgd1na2vs0mg"},{"bike_id":"3ba7ff2b-aa75-4edd-a097-2a01468d04db","system_id":"levelo_inurba_marseille","lat":43.24076,"lon":5.37786,"is_reserved":false,"is_disabled":false,"rental_uris":{"android":"levelo://app?vid=3ba7ff2b-aa75-4edd-a097-2a01468d04db","ios":"levelo://app?vid=3ba7ff2b-aa75-4edd-a097-2a01468d04db"},"vehicle_type_id":"4","last_reported":1770018195,"current_range_meters":2800,"station_id":"ce4bhnp2rcd13ifvqgvg","pricing_plan_id":"cebpf4jnsgd1na2vs0mg"},{"bike_id":"5a4b2d40-b0eb-4a0b-b47b-003be0341b76","system_id":"levelo_inurba_marseille","lat":43.30542,"lon":5.3843,"is_reserved":false,"is_disabled":false,"rental_uris":{"android":"levelo://app?vid=5a4b2d40-b0eb-4a0b-b47b-003be0341b76","ios":"levelo://app?vid=5a4b2d40-b0eb-4a0b-b47b-003be0341b76"},"vehicle_type_id":"4","last_reported":1770018195,"current_range_meters":2800,"station_id":"ce4bgg92rcd13ifvqb30","pricing_plan_id":"cebpf4jnsgd1na2vs0mg"},{"bike_id":"2618561d-cd06-4493-b916-9511a3eac222","system_id":"levelo_inurba_marseille","lat":43.27384,"lon":5.36259,"is_reserved":false,"is_disabled":false,"rental_uris":{"android":"levelo://app?vid=2618561d-cd06-4493-b916-9511a3eac222","ios":"levelo://app?vid=2618561d-cd06-4493-b916-9511a3eac222"},"vehicle_type_id":"4","last_reported":1770018195,"current_range_meters":2800,"station_id":"ce4bhbh2rcd13ifvqeo0","pricing_plan_id":"cebpf4jnsgd1na2vs0mg"},{"bike_id":"ecdd52fd-98df-4ed8-9b9f-16db4fdb1985","system_id":"levelo_inurba_marseille","lat":43.24068,"lon":5.37741,"is_reserved":false,"is_disabled":false,"rental_uris":{"android":"levelo://app?vid=ecdd52fd-98df-4ed8-9b9f-16db4fdb1985","ios":"levelo://app?vid=ecdd52fd-98df-4ed8-9b9f-16db4fdb1985"},"vehicle_type_id":"4","last_reported":1770018195,"current_range_meters":3200,"station_id":"ce4bhnp2rcd13ifvqgvg","pricing_plan_id":"cebpf4jnsgd1na2vs0mg"},{"bike_id":"4b538e95-d67b-4c55-8519-1ec597c2ad3f","system_id":"levelo_inurba_marseille","lat":43.24063,"lon":5.37747,"is_reserved":false,"is_disabled":false,"rental_uris":{"android":"levelo://app?vid=4b538e95-d67b-4c55-8519-1ec597c2ad3f","ios":"levelo://app?vid=4b538e95-d67b-4c55-8519-1ec597c2ad3f"},"vehicle_type_id":"4","last_reported":1770018195,"current_range_meters":3200,"station_id":"ce4bhnp2rcd13ifvqgvg","pricing_plan_id":"cebpf4jnsgd1na2vs0mg"},{"bike_id":"de80b79a-cef0-4e30-9ffa-41f22a773c78","system_id":"levelo_inurba_marseille","lat":43.29026,"lon":5.37599,"is_reserved":false,"is_disabled":false,"rental_uris":{"android":"levelo://app?vid=de80b79a-cef0-4e30-9ffa-41f22a773c78","ios":"levelo://app?vid=de80b79a-cef0-4e30-9ffa-41f22a773c78"},"vehicle_type_id":"4","last_reported":1770018195,"current_range_meters":3200,"station_id":"ce4bh692rcd13ifvqe90","pricing_plan_id":"cebpf4jnsgd1na2vs0mg"},{"bike_id":"93e60425-8aae-4f4b-b447-57ef8147db67","system_id":"levelo_inurba_marseille","lat":43.284819,"lon":5.483969,"is_reserved":false,"is_disabled":false,"rental_uris":{"android":"levelo://app?vid=93e60425-8aae-4f4b-b447-57ef8147db67","ios":"levelo://app?vid=93e60425-8aae-4f4b-b447-57ef8147db67"},"vehicle_type_id":"4","last_reported":1770018195,"current_range_meters":3200,"station_id":"","pricing_plan_id":"cebpf4jnsgd1na2vs0mg"},{"bike_id":"b418c3ba-300a-4450-b4c2-8753fa992dbc","system_id":"levelo_inurba_marseille","lat":43.278085,"lon":5.407061,"is_reserved":false,"is_disabled":false,"rental_uris":{"android":"levelo://app?vid=b418c3ba-300a-4450-b4c2-8753fa992dbc","ios":"levelo://app?vid=b418c3ba-300a-4450-b4c2-8753fa992dbc"},"vehicle_type_id":"4","last_reported":1770018195,"current_range_meters":3200,"station_id":"ce4bhnh2rcd13ifvqgtg","pricing_plan_id":"cebpf4jnsgd1na2vs0mg"},{"bike_id":"847173ba-8a70-446b-a882-864c1eea0020","system_id":"levelo_inurba_marseille","lat":43.24075,"lon":5.3776,"is_reserved":false,"is_disabled":false,"rental_uris":{"android":"levelo://app?vid=847173ba-8a70-446b-a882-864c1eea0020","ios":"levelo://app?vid=847173ba-8a70-446b-a882-864c1eea0020"},"vehicle_type_id":"4","last_reported":1770018195,"current_range_meters":3200,"station_id":"ce4bhnp2rcd13ifvqgvg","pricing_plan_id":"cebpf4jnsgd1na2vs0mg"},{"bike_id":"6e2e9e6b-9180-4489-adb4-62a40596f5aa","system_id":"levelo_inurba_marseille","lat":43.29263,"lon":5.40918,"is_reserved":false,"is_disabled":false,"rental_uris":{"android":"levelo://app?vid=6e2e9e6b-9180-4489-adb4-62a40596f5aa","ios":"levelo://app?vid=6e2e9e6b-9180-4489-adb4-62a40596f5aa"},"vehicle_type_id":"4","last_reported":1770018195,"current_range_meters":3200,"station_id":"ce4bh192rcd13ifvqdc0","pricing_plan_id":"cebpf4jnsgd1na2vs0mg"},{"bike_id":"b76887e2-5bd2-4c7f-b8a5-1ec753d148b3","system_id":"levelo_inurba_marseille","lat":43.25,"lon":5.38927,"is_reserved":false,"is_disabled":false,"rental_uris":{"android":"levelo://app?vid=b76887e2-5bd2-4c7f-b8a5-1ec753d148b3","ios":"levelo://app?vid=b76887e2-5bd2-4c7f-b8a5-1ec753d148b3"},"vehicle_type_id":"4","last_reported":1770018195,"current_range_meters":3200,"station_id":"ce4bhgp2rcd13ifvqfd0","pricing_plan_id":"cebpf4jnsgd1na2vs0mg"},{"bike_id":"8f20e2dc-b99f-4a6f-833e-987a74e266f8","system_id":"levelo_inurba_marseille","lat":43.3045,"lon":5.37932,"is_reserved":false,"is_disabled":false,"rental_uris":{"android":"levelo://app?vid=8f20e2dc-b99f-4a6f-833e-987a74e266f8","ios":"levelo://app?vid=8f20e2dc-b99f-4a6f-833e-987a74e266f8"},"vehicle_type_id":"4","last_reported":1770018195,"current_range_meters":3200,"station_id":"ce4bgup2rcd13ifvqcn0","pricing_plan_id":"cebpf4jnsgd1na2vs0mg"},{"bike_id":"c8ff2f07-ecbf-494b-9bb5-d55830c1e30a","system_id":"levelo_inurba_marseille","lat":43.25487,"lon":5.37684,"is_reserved":false,"is_disabled":false,"rental_uris":{"android":"levelo://app?vid=c8ff2f07-ecbf-494b-9bb5-d55830c1e30a","ios":"levelo://app?vid=c8ff2f07-ecbf-494b-9bb5-d55830c1e30a"},"vehicle_type_id":"4","last_reported":1770018195,"current_range_meters":3200,"station_id":"ce4bhh12rcd13ifvqff0","pricing_plan_id":"cebpf4jnsgd1na2vs0mg"},{"bike_id":"d662b595-dd41-41dc-9b26-69350593db92","system_id":"levelo_inurba_marseille","lat":43.29757,"lon":5.42785,"is_reserved":false,"is_disabled":false,"rental_uris":{"android":"levelo://app?vid=d662b595-dd41-41dc-9b26-69350593db92","ios":"levelo://app?vid=d662b595-dd41-41dc-9b26-69350593db92"},"vehicle_type_id":"4","last_reported":1770018195,"current_range_meters":3200,"station_id":"st_d3md5207bmas73dh9klg","pricing_plan_id":"cebpf4jnsgd1na2vs0mg"},{"bike_id":"c16bbffc-3f7b-4299-aa6c-4c3611fa54d9","system_id":"levelo_inurba_marseille","lat":43.28443,"lon":5.39083,"is_reserved":false,"is_disabled":true,"rental_uris":{"android":"levelo://app?vid=c16bbffc-3f7b-4299-aa6c-4c3611fa54d9","ios":"levelo://app?vid=c16bbffc-3f7b-4299-aa6c-4c3611fa54d9"},"vehicle_type_id":"4","last_reported":1770018195,"current_range_meters":3600,"station_id":"","pricing_plan_id":"cebpf4jnsgd1na2vs0mg"},{"bike_id":"3f016251-f617-46a2-8e71-d5c73095e4c4","system_id":"levelo_inurba_marseille","lat":43.29014,"lon":5.35605,"is_reserved":false,"is_disabled":true,"rental_uris":{"android":"levelo://app?vid=3f016251-f617-46a2-8e71-d5c73095e4c4","ios":"levelo://app?vid=3f016251-f617-46a2-8e71-d5c73095e4c4"},"vehicle_type_id":"4","last_reported":1770018195,"current_range_meters":3600,"station_id":"ce4bhb92rcd13ifvqen0","pricing_plan_id":"cebpf4jnsgd1na2vs0mg"},{"bike_id":"5e1c4385-fefc-40d8-9043-9539df7efdd8","system_id":"levelo_inurba_marseille","lat":43.337444,"lon":5.374475,"is_reserved":false,"is_disabled":false,"rental_uris":{"android":"levelo://app?vid=5e1c4385-fefc-40d8-9043-9539df7efdd8","ios":"levelo://app?vid=5e1c4385-fefc-40d8-9043-9539df7efdd8"},"vehicle_type_id":"4","last_reported":1770018195,"current_range_meters":3600,"station_id":"ce4bhbp2rcd13ifvqesg","pricing_plan_id":"cebpf4jnsgd1na2vs0mg"},{"bike_id":"07fda48b-2492-4b11-8d19-816f965551d4","system_id":"levelo_inurba_marseille","lat":43.305605,"lon":5.367217,"is_reserved":false,"is_disabled":false,"rental_uris":{"android":"levelo://app?vid=07fda48b-2492-4b11-8d19-816f965551d4","ios":"levelo://app?vid=07fda48b-2492-4b11-8d19-816f965551d4"},"vehicle_type_id":"4","last_reported":1770018195,"current_range_meters":3600,"station_id":"ce4bgrp2rcd13ifvqc9g","pricing_plan_id":"cebpf4jnsgd1na2vs0mg"},{"bike_id":"9b5902f8-f719-419c-8f6d-eece0b00264a","system_id":"levelo_inurba_marseille","lat":43.27053,"lon":5.40262,"is_reserved":false,"is_disabled":false,"rental_uris":{"android":"levelo://app?vid=9b5902f8-f719-419c-8f6d-eece0b00264a","ios":"levelo://app?vid=9b5902f8-f719-419c-8f6d-eece0b00264a"},"vehicle_type_id":"4","last_reported":1770018195,"current_range_meters":3600,"station_id":"ce4bhk92rcd13ifvqgc0","pricing_plan_id":"cebpf4jnsgd1na2vs0mg"},{"bike_id":"d1da5c85-5393-4ca7-9880-c49b370fa393","system_id":"levelo_inurba_marseille","lat":43.24398,"lon":5.37092,"is_reserved":false,"is_disabled":false,"rental_uris":{"android":"levelo://app?vid=d1da5c85-5393-4ca7-9880-c49b370fa393","ios":"levelo://app?vid=d1da5c85-5393-4ca7-9880-c49b370fa393"},"vehicle_type_id":"4","last_reported":1770018195,"current_range_meters":3600,"station_id":"ce4bhhh2rcd13ifvqfk0","pricing_plan_id":"cebpf4jnsgd1na2vs0mg"},{"bike_id":"26bd2557-3046-4212-82fc-da1fdbd42b2c","system_id":"levelo_inurba_marseille","lat":43.28545,"lon":5.44094,"is_reserved":false,"is_disabled":false,"rental_uris":{"android":"levelo://app?vid=26bd2557-3046-4212-82fc-da1fdbd42b2c","ios":"levelo://app?vid=26bd2557-3046-4212-82fc-da1fdbd42b2c"},"vehicle_type_id":"4","last_reported":1770018195,"current_range_meters":3600,"station_id":"st_d3j3df2ikq2c7380ej80","pricing_plan_id":"cebpf4jnsgd1na2vs0mg"},{"bike_id":"e19dcbee-55f5-4a14-8d7c-7f5193d4d389","system_id":"levelo_inurba_marseille","lat":43.27946,"lon":5.41067,"is_reserved":false,"is_disabled":false,"rental_uris":{"android":"levelo://app?vid=e19dcbee-55f5-4a14-8d7c-7f5193d4d389","ios":"levelo://app?vid=e19dcbee-55f5-4a14-8d7c-7f5193d4d389"},"vehicle_type_id":"4","last_reported":1770018195,"current_range_meters":3600,"station_id":"ce4bhnp2rcd13ifvqh0g","pricing_plan_id":"cebpf4jnsgd1na2vs0mg"},{"bike_id":"f8a0ae1c-a37d-4006-8541-a752d1a3cea9","system_id":"levelo_inurba_marseille","lat":43.29649,"lon":5.40141,"is_reserved":false,"is_disabled":false,"rental_uris":{"android":"levelo://app?vid=f8a0ae1c-a37d-4006-8541-a752d1a3cea9","ios":"levelo://app?vid=f8a0ae1c-a37d-4006-8541-a752d1a3cea9"},"vehicle_type_id":"4","last_reported":1770018195,"current_range_meters":3600,"station_id":"","pricing_plan_id":"cebpf4jnsgd1na2vs0mg"},{"bike_id":"1a60da73-6d1e-462b-ba57-6d88145eee7a","system_id":"levelo_inurba_marseille","lat":43.30477,"lon":5.37906,"is_reserved":false,"is_disabled":false,"rental_uris":{"android":"levelo://app?vid=1a60da73-6d1e-462b-ba57-6d88145eee7a","ios":"levelo://app?vid=1a60da73-6d1e-462b-ba57-6d88145eee7a"},"vehicle_type_id":"4","last_reported":1770018195,"current_range_meters":3600,"station_id":"ce4bgup2rcd13ifvqcn0","pricing_plan_id":"cebpf4jnsgd1na2vs0mg"},{"bike_id":"0b331fa1-be61-4ee4-8f48-817f3b90db42","system_id":"levelo_inurba_marseille","lat":43.28721,"lon":5.35566,"is_reserved":false,"is_disabled":false,"rental_uris":{"android":"levelo://app?vid=0b331fa1-be61-4ee4-8f48-817f3b90db42","ios":"levelo://app?vid=0b331fa1-be61-4ee4-8f48-817f3b90db42"},"vehicle_type_id":"4","last_reported":1770018195,"current_range_meters":3600,"station_id":"","pricing_plan_id":"cebpf4jnsgd1na2vs0mg"},{"bike_id":"1b30bfe9-20ea-4eef-baed-4f0a967547e2","system_id":"levelo_inurba_marseille","lat":43.30905,"lon":5.36849,"is_reserved":false,"is_disabled":false,"rental_uris":{"android":"levelo://app?vid=1b30bfe9-20ea-4eef-baed-4f0a967547e2","ios":"levelo://app?vid=1b30bfe9-20ea-4eef-baed-4f0a967547e2"},"vehicle_type_id":"4","last_reported":1770018195,"current_range_meters":3600,"station_id":"ce4bgn92rcd13ifvqbvg","pricing_plan_id":"cebpf4jnsgd1na2vs0mg"},{"bike_id":"e3e986c3-0db0-40fd-a1a5-f07ce5425792","system_id":"levelo_inurba_marseille","lat":43.27315,"lon":5.39099,"is_reserved":false,"is_disabled":true,"rental_uris":{"android":"levelo://app?vid=e3e986c3-0db0-40fd-a1a5-f07ce5425792","ios":"levelo://app?vid=e3e986c3-0db0-40fd-a1a5-f07ce5425792"},"vehicle_type_id":"4","last_reported":1770018195,"current_range_meters":3600,"station_id":"ce4bhgp2rcd13ifvqfe0","pricing_plan_id":"cebpf4jnsgd1na2vs0mg"},{"bike_id":"9bbae726-04fc-4bf4-a7de-409e9cffec44","system_id":"levelo_inurba_marseille","lat":43.2767,"lon":5.3887,"is_reserved":false,"is_disabled":false,"rental_uris":{"android":"levelo://app?vid=9bbae726-04fc-4bf4-a7de-409e9cffec44","ios":"levelo://app?vid=9bbae726-04fc-4bf4-a7de-409e9cffec44"},"vehicle_type_id":"4","last_reported":1770018195,"current_range_meters":4000,"station_id":"ce4bhi12rcd13ifvqfo0","pricing_plan_id":"cebpf4jnsgd1na2vs0mg"},{"bike_id":"6f8455de-cdcb-4115-8f9f-1a1c57d7cc8a","system_id":"levelo_inurba_marseille","lat":43.250006,"lon":5.38941,"is_reserved":false,"is_disabled":false,"rental_uris":{"android":"levelo://app?vid=6f8455de-cdcb-4115-8f9f-1a1c57d7cc8a","ios":"levelo://app?vid=6f8455de-cdcb-4115-8f9f-1a1c57d7cc8a"},"vehicle_type_id":"4","last_reported":1770018195,"current_range_meters":4000,"station_id":"ce4bhgp2rcd13ifvqfd0","pricing_plan_id":"cebpf4jnsgd1na2vs0mg"},{"bike_id":"dc68db14-c906-4c81-af24-38ade0c0fe18","system_id":"levelo_inurba_marseille","lat":43.22554,"lon":5.41626,"is_reserved":false,"is_disabled":false,"rental_uris":{"android":"levelo://app?vid=dc68db14-c906-4c81-af24-38ade0c0fe18","ios":"levelo://app?vid=dc68db14-c906-4c81-af24-38ade0c0fe18"},"vehicle_type_id":"4","last_reported":1770018195,"current_range_meters":4000,"station_id":"st_d2o4gvlbi1j2169b742g","pricing_plan_id":"cebpf4jnsgd1na2vs0mg"},{"bike_id":"9787929a-c9c1-4028-8e2d-8cdfb0ed0eab","system_id":"levelo_inurba_marseille","lat":43.28983,"lon":5.37835,"is_reserved":false,"is_disabled":false,"rental_uris":{"android":"levelo://app?vid=9787929a-c9c1-4028-8e2d-8cdfb0ed0eab","ios":"levelo://app?vid=9787929a-c9c1-4028-8e2d-8cdfb0ed0eab"},"vehicle_type_id":"4","last_reported":1770018195,"current_range_meters":4000,"station_id":"ce4bh9p2rcd13ifvqed0","pricing_plan_id":"cebpf4jnsgd1na2vs0mg"},{"bike_id":"05109850-722a-40ab-a087-e8f8fb1b518a","system_id":"levelo_inurba_marseille","lat":43.26206,"lon":5.37444,"is_reserved":false,"is_disabled":false,"rental_uris":{"android":"levelo://app?vid=05109850-722a-40ab-a087-e8f8fb1b518a","ios":"levelo://app?vid=05109850-722a-40ab-a087-e8f8fb1b518a"},"vehicle_type_id":"4","last_reported":1770018195,"current_range_meters":4000,"station_id":"ce4bhgp2rcd13ifvqfc0","pricing_plan_id":"cebpf4jnsgd1na2vs0mg"},{"bike_id":"ba1d96b0-32b8-465c-8cae-95618aefc0ee","system_id":"levelo_inurba_marseille","lat":43.289168,"lon":5.383975,"is_reserved":false,"is_disabled":true,"rental_uris":{"android":"levelo://app?vid=ba1d96b0-32b8-465c-8cae-95618aefc0ee","ios":"levelo://app?vid=ba1d96b0-32b8-465c-8cae-95618aefc0ee"},"vehicle_type_id":"4","last_reported":1770018195,"current_range_meters":4000,"station_id":"ce4bh612rcd13ifvqe6g","pricing_plan_id":"cebpf4jnsgd1na2vs0mg"},{"bike_id":"22b041a0-4e2b-4fc8-98ee-72415561038d","system_id":"levelo_inurba_marseille","lat":43.29635,"lon":5.40597,"is_reserved":false,"is_disabled":false,"rental_uris":{"android":"levelo://app?vid=22b041a0-4e2b-4fc8-98ee-72415561038d","ios":"levelo://app?vid=22b041a0-4e2b-4fc8-98ee-72415561038d"},"vehicle_type_id":"4","last_reported":1770018195,"current_range_meters":4000,"station_id":"ce4bh0h2rcd13ifvqd60","pricing_plan_id":"cebpf4jnsgd1na2vs0mg"},{"bike_id":"767dc731-f365-45e9-b7a0-0144ed9ff9a5","system_id":"levelo_inurba_marseille","lat":43.31285,"lon":5.36861,"is_reserved":false,"is_disabled":false,"rental_uris":{"android":"levelo://app?vid=767dc731-f365-45e9-b7a0-0144ed9ff9a5","ios":"levelo://app?vid=767dc731-f365-45e9-b7a0-0144ed9ff9a5"},"vehicle_type_id":"4","last_reported":1770018195,"current_range_meters":4000,"station_id":"","pricing_plan_id":"cebpf4jnsgd1na2vs0mg"},{"bike_id":"8a610f46-e560-4d30-adff-d8f2c1dfa6b0","system_id":"levelo_inurba_marseille","lat":43.30601,"lon":5.37235,"is_reserved":false,"is_disabled":false,"rental_uris":{"android":"levelo://app?vid=8a610f46-e560-4d30-adff-d8f2c1dfa6b0","ios":"levelo://app?vid=8a610f46-e560-4d30-adff-d8f2c1dfa6b0"},"vehicle_type_id":"4","last_reported":1770018195,"current_range_meters":4000,"station_id":"ce4bgqh2rcd13ifvqc4g","pricing_plan_id":"cebpf4jnsgd1na2vs0mg"},{"bike_id":"edaaaef6-c172-41b8-8036-8136c178db1d","system_id":"levelo_inurba_marseille","lat":43.31266,"lon":5.40172,"is_reserved":false,"is_disabled":false,"rental_uris":{"android":"levelo://app?vid=edaaaef6-c172-41b8-8036-8136c178db1d","ios":"levelo://app?vid=edaaaef6-c172-41b8-8036-8136c178db1d"},"vehicle_type_id":"4","last_reported":1770018195,"current_range_meters":4000,"station_id":"ce4bh092rcd13ifvqd30","pricing_plan_id":"cebpf4jnsgd1na2vs0mg"},{"bike_id":"74ac2feb-a7ae-41ed-97e6-16a7d353da55","system_id":"levelo_inurba_marseille","lat":43.248137,"lon":5.374589,"is_reserved":false,"is_disabled":true,"rental_uris":{"android":"levelo://app?vid=74ac2feb-a7ae-41ed-97e6-16a7d353da55","ios":"levelo://app?vid=74ac2feb-a7ae-41ed-97e6-16a7d353da55"},"vehicle_type_id":"4","last_reported":1770018195,"current_range_meters":4000,"station_id":"ce4bhgh2rcd13ifvqfb0","pricing_plan_id":"cebpf4jnsgd1na2vs0mg"},{"bike_id":"e8fa66cc-805c-4ac6-8036-6b85aaeb4d1e","system_id":"levelo_inurba_marseille","lat":43.29829,"lon":5.376,"is_reserved":false,"is_disabled":false,"rental_uris":{"android":"levelo://app?vid=e8fa66cc-805c-4ac6-8036-6b85aaeb4d1e","ios":"levelo://app?vid=e8fa66cc-805c-4ac6-8036-6b85aaeb4d1e"},"vehicle_type_id":"4","last_reported":1770018195,"current_range_meters":4000,"station_id":"","pricing_plan_id":"cebpf4jnsgd1na2vs0mg"},{"bike_id":"e5b9c854-52bd-4571-9d09-3836aec2957e","system_id":"levelo_inurba_marseille","lat":43.2417,"lon":5.36401,"is_reserved":false,"is_disabled":false,"rental_uris":{"android":"levelo://app?vid=e5b9c854-52bd-4571-9d09-3836aec2957e","ios":"levelo://app?vid=e5b9c854-52bd-4571-9d09-3836aec2957e"},"vehicle_type_id":"4","last_reported":1770018195,"current_range_meters":4000,"station_id":"cpo36qri1sfpv3e86is0","pricing_plan_id":"cebpf4jnsgd1na2vs0mg"},{"bike_id":"606812d6-73f1-46cd-894d-37c568010d20","system_id":"levelo_inurba_marseille","lat":43.33612,"lon":5.4103,"is_reserved":false,"is_disabled":false,"rental_uris":{"android":"levelo://app?vid=606812d6-73f1-46cd-894d-37c568010d20","ios":"levelo://app?vid=606812d6-73f1-46cd-894d-37c568010d20"},"vehicle_type_id":"4","last_reported":1770018195,"current_range_meters":4000,"station_id":"ce4bhqh2rcd13ifvqhmg","pricing_plan_id":"cebpf4jnsgd1na2vs0mg"},{"bike_id":"76f131b9-2576-46ba-8298-c814a5a348ab","system_id":"levelo_inurba_marseille","lat":43.27967,"lon":5.42321,"is_reserved":false,"is_disabled":false,"rental_uris":{"android":"levelo://app?vid=76f131b9-2576-46ba-8298-c814a5a348ab","ios":"levelo://app?vid=76f131b9-2576-46ba-8298-c814a5a348ab"},"vehicle_type_id":"4","last_reported":1770018195,"current_range_meters":4400,"station_id":"","pricing_plan_id":"cebpf4jnsgd1na2vs0mg"},{"bike_id":"541ab7b8-2379-478a-b67f-f1833387d742","system_id":"levelo_inurba_marseille","lat":43.29024,"lon":5.4001,"is_reserved":false,"is_disabled":false,"rental_uris":{"android":"levelo://app?vid=541ab7b8-2379-478a-b67f-f1833387d742","ios":"levelo://app?vid=541ab7b8-2379-478a-b67f-f1833387d742"},"vehicle_type_id":"4","last_reported":1770018195,"current_range_meters":4400,"station_id":"ce4bh392rcd13ifvqdm0","pricing_plan_id":"cebpf4jnsgd1na2vs0mg"},{"bike_id":"55821144-4cea-4c88-a4ef-ac2c18f1fa0e","system_id":"levelo_inurba_marseille","lat":43.24068,"lon":5.37771,"is_reserved":false,"is_disabled":false,"rental_uris":{"android":"levelo://app?vid=55821144-4cea-4c88-a4ef-ac2c18f1fa0e","ios":"levelo://app?vid=55821144-4cea-4c88-a4ef-ac2c18f1fa0e"},"vehicle_type_id":"4","last_reported":1770018195,"current_range_meters":4400,"station_id":"ce4bhnp2rcd13ifvqgvg","pricing_plan_id":"cebpf4jnsgd1na2vs0mg"},{"bike_id":"1c1f8539-b1ae-43f7-94e2-f9ba91100b64","system_id":"levelo_inurba_marseille","lat":43.316811,"lon":5.377213,"is_reserved":false,"is_disabled":false,"rental_uris":{"android":"levelo://app?vid=1c1f8539-b1ae-43f7-94e2-f9ba91100b64","ios":"levelo://app?vid=1c1f8539-b1ae-43f7-94e2-f9ba91100b64"},"vehicle_type_id":"4","last_reported":1770018195,"current_range_meters":4400,"station_id":"","pricing_plan_id":"cebpf4jnsgd1na2vs0mg"},{"bike_id":"d0ee8c38-72c8-4a11-9f6a-de79eceead1a","system_id":"levelo_inurba_marseille","lat":43.23135,"lon":5.43748,"is_reserved":false,"is_disabled":false,"rental_uris":{"android":"levelo://app?vid=d0ee8c38-72c8-4a11-9f6a-de79eceead1a","ios":"levelo://app?vid=d0ee8c38-72c8-4a11-9f6a-de79eceead1a"},"vehicle_type_id":"4","last_reported":1770018195,"current_range_meters":4400,"station_id":"ce4bhmp2rcd13ifvqgog","pricing_plan_id":"cebpf4jnsgd1na2vs0mg"},{"bike_id":"74afb94f-763c-47b1-9438-56ccacfebd6f","system_id":"levelo_inurba_marseille","lat":43.286978,"lon":5.399994,"is_reserved":false,"is_disabled":false,"rental_uris":{"android":"levelo://app?vid=74afb94f-763c-47b1-9438-56ccacfebd6f","ios":"levelo://app?vid=74afb94f-763c-47b1-9438-56ccacfebd6f"},"vehicle_type_id":"4","last_reported":1770018195,"current_range_meters":4400,"station_id":"ce4bho92rcd13ifvqh3g","pricing_plan_id":"cebpf4jnsgd1na2vs0mg"},{"bike_id":"b00753f6-9e43-40ef-9959-628446071746","system_id":"levelo_inurba_marseille","lat":43.278151,"lon":5.40722,"is_reserved":false,"is_disabled":true,"rental_uris":{"android":"levelo://app?vid=b00753f6-9e43-40ef-9959-628446071746","ios":"levelo://app?vid=b00753f6-9e43-40ef-9959-628446071746"},"vehicle_type_id":"4","last_reported":1770018195,"current_range_meters":4400,"station_id":"ce4bhnh2rcd13ifvqgtg","pricing_plan_id":"cebpf4jnsgd1na2vs0mg"},{"bike_id":"54e0ff64-435b-46c4-97df-663dd90037bc","system_id":"levelo_inurba_marseille","lat":43.24073,"lon":5.37757,"is_reserved":false,"is_disabled":false,"rental_uris":{"android":"levelo://app?vid=54e0ff64-435b-46c4-97df-663dd90037bc","ios":"levelo://app?vid=54e0ff64-435b-46c4-97df-663dd90037bc"},"vehicle_type_id":"4","last_reported":1770018195,"current_range_meters":4400,"station_id":"ce4bhnp2rcd13ifvqgvg","pricing_plan_id":"cebpf4jnsgd1na2vs0mg"},{"bike_id":"5b4c0c7a-c0c9-4273-96c2-faded5f9cc26","system_id":"levelo_inurba_marseille","lat":43.27947,"lon":5.41038,"is_reserved":false,"is_disabled":false,"rental_uris":{"android":"levelo://app?vid=5b4c0c7a-c0c9-4273-96c2-faded5f9cc26","ios":"levelo://app?vid=5b4c0c7a-c0c9-4273-96c2-faded5f9cc26"},"vehicle_type_id":"4","last_reported":1770018195,"current_range_meters":4800,"station_id":"ce4bhnp2rcd13ifvqh0g","pricing_plan_id":"cebpf4jnsgd1na2vs0mg"},{"bike_id":"09e8f712-2d3f-42c3-8273-19bbaf32447d","system_id":"levelo_inurba_marseille","lat":43.26568,"lon":5.40327,"is_reserved":false,"is_disabled":true,"rental_uris":{"android":"levelo://app?vid=09e8f712-2d3f-42c3-8273-19bbaf32447d","ios":"levelo://app?vid=09e8f712-2d3f-42c3-8273-19bbaf32447d"},"vehicle_type_id":"4","last_reported":1770018195,"current_range_meters":4800,"station_id":"ce4bhmp2rcd13ifvqgng","pricing_plan_id":"cebpf4jnsgd1na2vs0mg"},{"bike_id":"c9f48c9b-8a34-442c-b519-55185a953e4a","system_id":"levelo_inurba_marseille","lat":43.29028,"lon":5.3756,"is_reserved":false,"is_disabled":false,"rental_uris":{"android":"levelo://app?vid=c9f48c9b-8a34-442c-b519-55185a953e4a","ios":"levelo://app?vid=c9f48c9b-8a34-442c-b519-55185a953e4a"},"vehicle_type_id":"4","last_reported":1770018195,"current_range_meters":4800,"station_id":"ce4bh692rcd13ifvqe90","pricing_plan_id":"cebpf4jnsgd1na2vs0mg"},{"bike_id":"bdc28d1c-fb82-4474-a8b8-f3e95ff2b22e","system_id":"levelo_inurba_marseille","lat":43.27174,"lon":5.40996,"is_reserved":false,"is_disabled":false,"rental_uris":{"android":"levelo://app?vid=bdc28d1c-fb82-4474-a8b8-f3e95ff2b22e","ios":"levelo://app?vid=bdc28d1c-fb82-4474-a8b8-f3e95ff2b22e"},"vehicle_type_id":"4","last_reported":1770018195,"current_range_meters":4800,"station_id":"ce4bhl12rcd13ifvqgf0","pricing_plan_id":"cebpf4jnsgd1na2vs0mg"},{"bike_id":"e1d85e8f-816e-43e5-832f-fa3bb6c7d9fd","system_id":"levelo_inurba_marseille","lat":43.29827,"lon":5.44073,"is_reserved":false,"is_disabled":false,"rental_uris":{"android":"levelo://app?vid=e1d85e8f-816e-43e5-832f-fa3bb6c7d9fd","ios":"levelo://app?vid=e1d85e8f-816e-43e5-832f-fa3bb6c7d9fd"},"vehicle_type_id":"4","last_reported":1770018195,"current_range_meters":4800,"station_id":"st_d3jp68qikq2c7381ktn0","pricing_plan_id":"cebpf4jnsgd1na2vs0mg"},{"bike_id":"d02a39b5-b9e6-42c0-89cf-ec41b03ef41c","system_id":"levelo_inurba_marseille","lat":43.273733,"lon":5.362636,"is_reserved":false,"is_disabled":false,"rental_uris":{"android":"levelo://app?vid=d02a39b5-b9e6-42c0-89cf-ec41b03ef41c","ios":"levelo://app?vid=d02a39b5-b9e6-42c0-89cf-ec41b03ef41c"},"vehicle_type_id":"4","last_reported":1770018195,"current_range_meters":4800,"station_id":"ce4bhbh2rcd13ifvqeo0","pricing_plan_id":"cebpf4jnsgd1na2vs0mg"},{"bike_id":"73d3043d-1347-40e9-ae92-d252d39efff6","system_id":"levelo_inurba_marseille","lat":43.303892,"lon":5.420501,"is_reserved":false,"is_disabled":false,"rental_uris":{"android":"levelo://app?vid=73d3043d-1347-40e9-ae92-d252d39efff6","ios":"levelo://app?vid=73d3043d-1347-40e9-ae92-d252d39efff6"},"vehicle_type_id":"4","last_reported":1770018195,"current_range_meters":4800,"station_id":"ce4bhoh2rcd13ifvqh6g","pricing_plan_id":"cebpf4jnsgd1na2vs0mg"},{"bike_id":"ae41425b-da34-4009-9433-dcdf7092a3d7","system_id":"levelo_inurba_marseille","lat":43.30265,"lon":5.37716,"is_reserved":false,"is_disabled":false,"rental_uris":{"android":"levelo://app?vid=ae41425b-da34-4009-9433-dcdf7092a3d7","ios":"levelo://app?vid=ae41425b-da34-4009-9433-dcdf7092a3d7"},"vehicle_type_id":"4","last_reported":1770018195,"current_range_meters":4800,"station_id":"ce4bguh2rcd13ifvqcj0","pricing_plan_id":"cebpf4jnsgd1na2vs0mg"},{"bike_id":"4ad7d97a-2e5a-4576-9533-3244892b3360","system_id":"levelo_inurba_marseille","lat":43.255079,"lon":5.376489,"is_reserved":false,"is_disabled":false,"rental_uris":{"android":"levelo://app?vid=4ad7d97a-2e5a-4576-9533-3244892b3360","ios":"levelo://app?vid=4ad7d97a-2e5a-4576-9533-3244892b3360"},"vehicle_type_id":"4","last_reported":1770018195,"current_range_meters":4800,"station_id":"ce4bhh12rcd13ifvqff0","pricing_plan_id":"cebpf4jnsgd1na2vs0mg"},{"bike_id":"30b7ff62-b04f-4191-98cf-800a29346a65","system_id":"levelo_inurba_marseille","lat":43.29001,"lon":5.35616,"is_reserved":false,"is_disabled":false,"rental_uris":{"android":"levelo://app?vid=30b7ff62-b04f-4191-98cf-800a29346a65","ios":"levelo://app?vid=30b7ff62-b04f-4191-98cf-800a29346a65"},"vehicle_type_id":"4","last_reported":1770018195,"current_range_meters":4800,"station_id":"ce4bhb92rcd13ifvqen0","pricing_plan_id":"cebpf4jnsgd1na2vs0mg"},{"bike_id":"bafe06f4-691a-42ad-b544-2647048d76df","system_id":"levelo_inurba_marseille","lat":43.23029,"lon":5.35501,"is_reserved":false,"is_disabled":false,"rental_uris":{"android":"levelo://app?vid=bafe06f4-691a-42ad-b544-2647048d76df","ios":"levelo://app?vid=bafe06f4-691a-42ad-b544-2647048d76df"},"vehicle_type_id":"4","last_reported":1770018195,"current_range_meters":4800,"station_id":"cpo3342slgdg3j2ifvpg","pricing_plan_id":"cebpf4jnsgd1na2vs0mg"},{"bike_id":"ad09fc10-58e1-468d-b75d-c46059dc12dc","system_id":"levelo_inurba_marseille","lat":43.29267,"lon":5.37636,"is_reserved":false,"is_disabled":false,"rental_uris":{"android":"levelo://app?vid=ad09fc10-58e1-468d-b75d-c46059dc12dc","ios":"levelo://app?vid=ad09fc10-58e1-468d-b75d-c46059dc12dc"},"vehicle_type_id":"4","last_reported":1770018195,"current_range_meters":4800,"station_id":"ce4bgi12rcd13ifvqb80","pricing_plan_id":"cebpf4jnsgd1na2vs0mg"},{"bike_id":"e1b9d24f-2421-486f-a00c-01e9adfdba49","system_id":"levelo_inurba_marseille","lat":43.23209,"lon":5.39937,"is_reserved":false,"is_disabled":false,"rental_uris":{"android":"levelo://app?vid=e1b9d24f-2421-486f-a00c-01e9adfdba49","ios":"levelo://app?vid=e1b9d24f-2421-486f-a00c-01e9adfdba49"},"vehicle_type_id":"4","last_reported":1770018195,"current_range_meters":4800,"station_id":"","pricing_plan_id":"cebpf4jnsgd1na2vs0mg"},{"bike_id":"cec514c3-7ecb-423b-80b5-18639cf7781d","system_id":"levelo_inurba_marseille","lat":43.25635,"lon":5.37663,"is_reserved":false,"is_disabled":false,"rental_uris":{"android":"levelo://app?vid=cec514c3-7ecb-423b-80b5-18639cf7781d","ios":"levelo://app?vid=cec514c3-7ecb-423b-80b5-18639cf7781d"},"vehicle_type_id":"4","last_reported":1770018195,"current_range_meters":5600,"station_id":"","pricing_plan_id":"cebpf4jnsgd1na2vs0mg"},{"bike_id":"282b4c58-6430-4481-adf2-6fc926d2a7c4","system_id":"levelo_inurba_marseille","lat":43.23197,"lon":5.3557,"is_reserved":false,"is_disabled":false,"rental_uris":{"android":"levelo://app?vid=282b4c58-6430-4481-adf2-6fc926d2a7c4","ios":"levelo://app?vid=282b4c58-6430-4481-adf2-6fc926d2a7c4"},"vehicle_type_id":"4","last_reported":1770018195,"current_range_meters":5600,"station_id":"ce4bhu92rcd13ifvqi70","pricing_plan_id":"cebpf4jnsgd1na2vs0mg"},{"bike_id":"856bb993-2f9e-4aa2-a2f7-4ba796be6de6","system_id":"levelo_inurba_marseille","lat":43.254956,"lon":5.37656,"is_reserved":false,"is_disabled":false,"rental_uris":{"android":"levelo://app?vid=856bb993-2f9e-4aa2-a2f7-4ba796be6de6","ios":"levelo://app?vid=856bb993-2f9e-4aa2-a2f7-4ba796be6de6"},"vehicle_type_id":"4","last_reported":1770018195,"current_range_meters":5600,"station_id":"ce4bhgh2rcd13ifvqfb0","pricing_plan_id":"cebpf4jnsgd1na2vs0mg"},{"bike_id":"7723d065-689e-47b6-a87e-b90001e27f55","system_id":"levelo_inurba_marseille","lat":43.25572,"lon":5.38246,"is_reserved":false,"is_disabled":false,"rental_uris":{"android":"levelo://app?vid=7723d065-689e-47b6-a87e-b90001e27f55","ios":"levelo://app?vid=7723d065-689e-47b6-a87e-b90001e27f55"},"vehicle_type_id":"4","last_reported":1770018195,"current_range_meters":5600,"station_id":"ce4bhih2rcd13ifvqfs0","pricing_plan_id":"cebpf4jnsgd1na2vs0mg"},{"bike_id":"064b8bc8-52f1-41a1-98a8-692ee47c9995","system_id":"levelo_inurba_marseille","lat":43.21751,"lon":5.34611,"is_reserved":false,"is_disabled":true,"rental_uris":{"android":"levelo://app?vid=064b8bc8-52f1-41a1-98a8-692ee47c9995","ios":"levelo://app?vid=064b8bc8-52f1-41a1-98a8-692ee47c9995"},"vehicle_type_id":"4","last_reported":1770018195,"current_range_meters":5600,"station_id":"","pricing_plan_id":"cebpf4jnsgd1na2vs0mg"},{"bike_id":"669cbfea-a557-4cea-af48-034865d30cc0","system_id":"levelo_inurba_marseille","lat":43.2532,"lon":5.4217,"is_reserved":false,"is_disabled":true,"rental_uris":{"android":"levelo://app?vid=669cbfea-a557-4cea-af48-034865d30cc0","ios":"levelo://app?vid=669cbfea-a557-4cea-af48-034865d30cc0"},"vehicle_type_id":"4","last_reported":1770018195,"current_range_meters":5600,"station_id":"st_d2m65c5bi1j21697t3ng","pricing_plan_id":"cebpf4jnsgd1na2vs0mg"},{"bike_id":"4b21a908-647a-4ce4-a898-613baa23a703","system_id":"levelo_inurba_marseille","lat":43.29036,"lon":5.37569,"is_reserved":false,"is_disabled":false,"rental_uris":{"android":"levelo://app?vid=4b21a908-647a-4ce4-a898-613baa23a703","ios":"levelo://app?vid=4b21a908-647a-4ce4-a898-613baa23a703"},"vehicle_type_id":"4","last_reported":1770018195,"current_range_meters":5600,"station_id":"ce4bh692rcd13ifvqe90","pricing_plan_id":"cebpf4jnsgd1na2vs0mg"},{"bike_id":"53336c15-c4a9-4afd-ad5c-4a4cebf6f0c1","system_id":"levelo_inurba_marseille","lat":43.24173,"lon":5.3641,"is_reserved":false,"is_disabled":false,"rental_uris":{"android":"levelo://app?vid=53336c15-c4a9-4afd-ad5c-4a4cebf6f0c1","ios":"levelo://app?vid=53336c15-c4a9-4afd-ad5c-4a4cebf6f0c1"},"vehicle_type_id":"4","last_reported":1770018195,"current_range_meters":5600,"station_id":"cpo36qri1sfpv3e86is0","pricing_plan_id":"cebpf4jnsgd1na2vs0mg"},{"bike_id":"55392003-6bce-4df2-a517-2db7a8819d4b","system_id":"levelo_inurba_marseille","lat":43.28344,"lon":5.38118,"is_reserved":false,"is_disabled":false,"rental_uris":{"android":"levelo://app?vid=55392003-6bce-4df2-a517-2db7a8819d4b","ios":"levelo://app?vid=55392003-6bce-4df2-a517-2db7a8819d4b"},"vehicle_type_id":"4","last_reported":1770018195,"current_range_meters":6000,"station_id":"ce4bh412rcd13ifvqdr0","pricing_plan_id":"cebpf4jnsgd1na2vs0mg"},{"bike_id":"0a1300ad-2f14-46b7-8956-d36a4a430b42","system_id":"levelo_inurba_marseille","lat":43.2481,"lon":5.37457,"is_reserved":false,"is_disabled":false,"rental_uris":{"android":"levelo://app?vid=0a1300ad-2f14-46b7-8956-d36a4a430b42","ios":"levelo://app?vid=0a1300ad-2f14-46b7-8956-d36a4a430b42"},"vehicle_type_id":"4","last_reported":1770018195,"current_range_meters":6000,"station_id":"ce4bhgh2rcd13ifvqfb0","pricing_plan_id":"cebpf4jnsgd1na2vs0mg"},{"bike_id":"d431d2dc-fe64-4d55-be3e-18b6291747e9","system_id":"levelo_inurba_marseille","lat":43.23058,"lon":5.35524,"is_reserved":false,"is_disabled":false,"rental_uris":{"android":"levelo://app?vid=d431d2dc-fe64-4d55-be3e-18b6291747e9","ios":"levelo://app?vid=d431d2dc-fe64-4d55-be3e-18b6291747e9"},"vehicle_type_id":"4","last_reported":1770018195,"current_range_meters":6000,"station_id":"cpo3342slgdg3j2ifvpg","pricing_plan_id":"cebpf4jnsgd1na2vs0mg"},{"bike_id":"d2ee53f1-49b6-44a6-a171-d364ff8162cf","system_id":"levelo_inurba_marseille","lat":43.33368,"lon":5.43129,"is_reserved":false,"is_disabled":false,"rental_uris":{"android":"levelo://app?vid=d2ee53f1-49b6-44a6-a171-d364ff8162cf","ios":"levelo://app?vid=d2ee53f1-49b6-44a6-a171-d364ff8162cf"},"vehicle_type_id":"4","last_reported":1770018195,"current_range_meters":6000,"station_id":"","pricing_plan_id":"cebpf4jnsgd1na2vs0mg"},{"bike_id":"461a2893-efc2-4e09-ab9d-8da8c86d5332","system_id":"levelo_inurba_marseille","lat":43.24986,"lon":5.38961,"is_reserved":false,"is_disabled":false,"rental_uris":{"android":"levelo://app?vid=461a2893-efc2-4e09-ab9d-8da8c86d5332","ios":"levelo://app?vid=461a2893-efc2-4e09-ab9d-8da8c86d5332"},"vehicle_type_id":"4","last_reported":1770018195,"current_range_meters":6000,"station_id":"ce4bhgp2rcd13ifvqfd0","pricing_plan_id":"cebpf4jnsgd1na2vs0mg"},{"bike_id":"fff7e7d9-a5a2-4648-8c64-acd8db891467","system_id":"levelo_inurba_marseille","lat":43.262261,"lon":5.404513,"is_reserved":false,"is_disabled":true,"rental_uris":{"android":"levelo://app?vid=fff7e7d9-a5a2-4648-8c64-acd8db891467","ios":"levelo://app?vid=fff7e7d9-a5a2-4648-8c64-acd8db891467"},"vehicle_type_id":"4","last_reported":1770018195,"current_range_meters":6000,"station_id":"ce4bhmh2rcd13ifvqgmg","pricing_plan_id":"cebpf4jnsgd1na2vs0mg"},{"bike_id":"46a20b62-64ae-4717-b610-6e8bb569cadb","system_id":"levelo_inurba_marseille","lat":43.25859,"lon":5.39899,"is_reserved":false,"is_disabled":false,"rental_uris":{"android":"levelo://app?vid=46a20b62-64ae-4717-b610-6e8bb569cadb","ios":"levelo://app?vid=46a20b62-64ae-4717-b610-6e8bb569cadb"},"vehicle_type_id":"4","last_reported":1770018195,"current_range_meters":6000,"station_id":"ce4bhl92rcd13ifvqghg","pricing_plan_id":"cebpf4jnsgd1na2vs0mg"},{"bike_id":"15f38625-14a2-40fd-bec6-91fdb6960c8c","system_id":"levelo_inurba_marseille","lat":43.287711,"lon":5.390484,"is_reserved":false,"is_disabled":false,"rental_uris":{"android":"levelo://app?vid=15f38625-14a2-40fd-bec6-91fdb6960c8c","ios":"levelo://app?vid=15f38625-14a2-40fd-bec6-91fdb6960c8c"},"vehicle_type_id":"4","last_reported":1770018195,"current_range_meters":6000,"station_id":"","pricing_plan_id":"cebpf4jnsgd1na2vs0mg"},{"bike_id":"b9a9097f-13d0-49a9-bb46-6f5237ccc9ec","system_id":"levelo_inurba_marseille","lat":43.27423,"lon":5.36314,"is_reserved":false,"is_disabled":false,"rental_uris":{"android":"levelo://app?vid=b9a9097f-13d0-49a9-bb46-6f5237ccc9ec","ios":"levelo://app?vid=b9a9097f-13d0-49a9-bb46-6f5237ccc9ec"},"vehicle_type_id":"4","last_reported":1770018195,"current_range_meters":6000,"station_id":"","pricing_plan_id":"cebpf4jnsgd1na2vs0mg"},{"bike_id":"d1a4c207-5791-4015-8c48-e9fcda8077be","system_id":"levelo_inurba_marseille","lat":43.33223,"lon":5.37721,"is_reserved":false,"is_disabled":false,"rental_uris":{"android":"levelo://app?vid=d1a4c207-5791-4015-8c48-e9fcda8077be","ios":"levelo://app?vid=d1a4c207-5791-4015-8c48-e9fcda8077be"},"vehicle_type_id":"4","last_reported":1770018195,"current_range_meters":6400,"station_id":"st_d46cu089ee8s73dldbu0","pricing_plan_id":"cebpf4jnsgd1na2vs0mg"},{"bike_id":"eae001be-3b34-469f-b5f5-7615da95a4ed","system_id":"levelo_inurba_marseille","lat":43.278227,"lon":5.407046,"is_reserved":false,"is_disabled":false,"rental_uris":{"android":"levelo://app?vid=eae001be-3b34-469f-b5f5-7615da95a4ed","ios":"levelo://app?vid=eae001be-3b34-469f-b5f5-7615da95a4ed"},"vehicle_type_id":"4","last_reported":1770018195,"current_range_meters":6400,"station_id":"ce4bhnh2rcd13ifvqgtg","pricing_plan_id":"cebpf4jnsgd1na2vs0mg"},{"bike_id":"2f272f9d-bafe-4a44-a2e3-105574c73c4b","system_id":"levelo_inurba_marseille","lat":43.24164,"lon":5.39727,"is_reserved":false,"is_disabled":false,"rental_uris":{"android":"levelo://app?vid=2f272f9d-bafe-4a44-a2e3-105574c73c4b","ios":"levelo://app?vid=2f272f9d-bafe-4a44-a2e3-105574c73c4b"},"vehicle_type_id":"4","last_reported":1770018195,"current_range_meters":6400,"station_id":"ce4bhn12rcd13ifvqgpg","pricing_plan_id":"cebpf4jnsgd1na2vs0mg"},{"bike_id":"8d19955e-e09c-4b47-a6e3-ae607dbe5088","system_id":"levelo_inurba_marseille","lat":43.26233,"lon":5.3747,"is_reserved":false,"is_disabled":true,"rental_uris":{"android":"levelo://app?vid=8d19955e-e09c-4b47-a6e3-ae607dbe5088","ios":"levelo://app?vid=8d19955e-e09c-4b47-a6e3-ae607dbe5088"},"vehicle_type_id":"4","last_reported":1770018195,"current_range_meters":6400,"station_id":"","pricing_plan_id":"cebpf4jnsgd1na2vs0mg"},{"bike_id":"182249cb-1b65-4cda-be85-10d084311aa6","system_id":"levelo_inurba_marseille","lat":43.30913,"lon":5.36859,"is_reserved":false,"is_disabled":false,"rental_uris":{"android":"levelo://app?vid=182249cb-1b65-4cda-be85-10d084311aa6","ios":"levelo://app?vid=182249cb-1b65-4cda-be85-10d084311aa6"},"vehicle_type_id":"4","last_reported":1770018195,"current_range_meters":6400,"station_id":"ce4bgn92rcd13ifvqbvg","pricing_plan_id":"cebpf4jnsgd1na2vs0mg"},{"bike_id":"934c3ee0-4ca8-4f75-bda1-aa61f44468cd","system_id":"levelo_inurba_marseille","lat":43.29035,"lon":5.38649,"is_reserved":false,"is_disabled":false,"rental_uris":{"android":"levelo://app?vid=934c3ee0-4ca8-4f75-bda1-aa61f44468cd","ios":"levelo://app?vid=934c3ee0-4ca8-4f75-bda1-aa61f44468cd"},"vehicle_type_id":"4","last_reported":1770018195,"current_range_meters":6400,"station_id":"ce4bh4p2rcd13ifvqe0g","pricing_plan_id":"cebpf4jnsgd1na2vs0mg"},{"bike_id":"2b052603-1775-4258-80ad-ae63b6286ef5","system_id":"levelo_inurba_marseille","lat":43.29765,"lon":5.35919,"is_reserved":false,"is_disabled":true,"rental_uris":{"android":"levelo://app?vid=2b052603-1775-4258-80ad-ae63b6286ef5","ios":"levelo://app?vid=2b052603-1775-4258-80ad-ae63b6286ef5"},"vehicle_type_id":"4","last_reported":1770018195,"current_range_meters":6400,"station_id":"","pricing_plan_id":"cebpf4jnsgd1na2vs0mg"},{"bike_id":"a10053e5-3ea3-4562-9ed8-5288fa61c785","system_id":"levelo_inurba_marseille","lat":43.28154,"lon":5.42661,"is_reserved":false,"is_disabled":false,"rental_uris":{"android":"levelo://app?vid=a10053e5-3ea3-4562-9ed8-5288fa61c785","ios":"levelo://app?vid=a10053e5-3ea3-4562-9ed8-5288fa61c785"},"vehicle_type_id":"4","last_reported":1770018195,"current_range_meters":6400,"station_id":"ce4bhnh2rcd13ifvqgug","pricing_plan_id":"cebpf4jnsgd1na2vs0mg"},{"bike_id":"fb4a42e6-4b95-4d29-93ec-2fbab2cfeec3","system_id":"levelo_inurba_marseille","lat":43.30156,"lon":5.38104,"is_reserved":false,"is_disabled":false,"rental_uris":{"android":"levelo://app?vid=fb4a42e6-4b95-4d29-93ec-2fbab2cfeec3","ios":"levelo://app?vid=fb4a42e6-4b95-4d29-93ec-2fbab2cfeec3"},"vehicle_type_id":"4","last_reported":1770018195,"current_range_meters":6400,"station_id":"ce4bgjp2rcd13ifvqbh0","pricing_plan_id":"cebpf4jnsgd1na2vs0mg"},{"bike_id":"7970d976-2682-4564-950f-3adb9c5ba56b","system_id":"levelo_inurba_marseille","lat":43.28339,"lon":5.3812,"is_reserved":false,"is_disabled":false,"rental_uris":{"android":"levelo://app?vid=7970d976-2682-4564-950f-3adb9c5ba56b","ios":"levelo://app?vid=7970d976-2682-4564-950f-3adb9c5ba56b"},"vehicle_type_id":"4","last_reported":1770018195,"current_range_meters":6400,"station_id":"ce4bh412rcd13ifvqdr0","pricing_plan_id":"cebpf4jnsgd1na2vs0mg"},{"bike_id":"5a46f343-f8c0-4bd7-9859-14e3ca910ba6","system_id":"levelo_inurba_marseille","lat":43.29499,"lon":5.4331,"is_reserved":false,"is_disabled":false,"rental_uris":{"android":"levelo://app?vid=5a46f343-f8c0-4bd7-9859-14e3ca910ba6","ios":"levelo://app?vid=5a46f343-f8c0-4bd7-9859-14e3ca910ba6"},"vehicle_type_id":"4","last_reported":1770018195,"current_range_meters":6400,"station_id":"st_d3j5ugp08ojc73fj9d10","pricing_plan_id":"cebpf4jnsgd1na2vs0mg"},{"bike_id":"48defe86-fd01-4bdf-bb58-0b96240d5da2","system_id":"levelo_inurba_marseille","lat":43.28488,"lon":5.48394,"is_reserved":false,"is_disabled":false,"rental_uris":{"android":"levelo://app?vid=48defe86-fd01-4bdf-bb58-0b96240d5da2","ios":"levelo://app?vid=48defe86-fd01-4bdf-bb58-0b96240d5da2"},"vehicle_type_id":"4","last_reported":1770018195,"current_range_meters":6400,"station_id":"st_d3svhcjqgbts73a3dn0g","pricing_plan_id":"cebpf4jnsgd1na2vs0mg"},{"bike_id":"76695816-489b-4401-ac2a-0147df0088c5","system_id":"levelo_inurba_marseille","lat":43.304601,"lon":5.378993,"is_reserved":false,"is_disabled":true,"rental_uris":{"android":"levelo://app?vid=76695816-489b-4401-ac2a-0147df0088c5","ios":"levelo://app?vid=76695816-489b-4401-ac2a-0147df0088c5"},"vehicle_type_id":"4","last_reported":1770018195,"current_range_meters":6800,"station_id":"ce4bgup2rcd13ifvqcn0","pricing_plan_id":"cebpf4jnsgd1na2vs0mg"},{"bike_id":"4b39f1cc-8d5c-4330-8483-0300616cf7c0","system_id":"levelo_inurba_marseille","lat":43.240617,"lon":5.363682,"is_reserved":false,"is_disabled":false,"rental_uris":{"android":"levelo://app?vid=4b39f1cc-8d5c-4330-8483-0300616cf7c0","ios":"levelo://app?vid=4b39f1cc-8d5c-4330-8483-0300616cf7c0"},"vehicle_type_id":"4","last_reported":1770018195,"current_range_meters":6800,"station_id":"","pricing_plan_id":"cebpf4jnsgd1na2vs0mg"},{"bike_id":"0552ba62-c10a-47ff-b9fd-ce2343315fdc","system_id":"levelo_inurba_marseille","lat":43.30546,"lon":5.36555,"is_reserved":false,"is_disabled":false,"rental_uris":{"android":"levelo://app?vid=0552ba62-c10a-47ff-b9fd-ce2343315fdc","ios":"levelo://app?vid=0552ba62-c10a-47ff-b9fd-ce2343315fdc"},"vehicle_type_id":"4","last_reported":1770018195,"current_range_meters":6800,"station_id":"ce4bgs12rcd13ifvqcag","pricing_plan_id":"cebpf4jnsgd1na2vs0mg"},{"bike_id":"3475ef01-6815-478c-8253-72b3293c048d","system_id":"levelo_inurba_marseille","lat":43.31218,"lon":5.36827,"is_reserved":false,"is_disabled":false,"rental_uris":{"android":"levelo://app?vid=3475ef01-6815-478c-8253-72b3293c048d","ios":"levelo://app?vid=3475ef01-6815-478c-8253-72b3293c048d"},"vehicle_type_id":"4","last_reported":1770018195,"current_range_meters":6800,"station_id":"ce4bgl92rcd13ifvqbq0","pricing_plan_id":"cebpf4jnsgd1na2vs0mg"},{"bike_id":"d64baf67-1a62-4b86-9aae-88e7781f3b30","system_id":"levelo_inurba_marseille","lat":43.23186,"lon":5.39989,"is_reserved":false,"is_disabled":false,"rental_uris":{"android":"levelo://app?vid=d64baf67-1a62-4b86-9aae-88e7781f3b30","ios":"levelo://app?vid=d64baf67-1a62-4b86-9aae-88e7781f3b30"},"vehicle_type_id":"4","last_reported":1770018195,"current_range_meters":6800,"station_id":"ce4bhn12rcd13ifvqgqg","pricing_plan_id":"cebpf4jnsgd1na2vs0mg"},{"bike_id":"4d614b31-2487-459c-80b4-20568895cab0","system_id":"levelo_inurba_marseille","lat":43.24029,"lon":5.37804,"is_reserved":false,"is_disabled":true,"rental_uris":{"android":"levelo://app?vid=4d614b31-2487-459c-80b4-20568895cab0","ios":"levelo://app?vid=4d614b31-2487-459c-80b4-20568895cab0"},"vehicle_type_id":"4","last_reported":1770018195,"current_range_meters":6800,"station_id":"ce4bhnp2rcd13ifvqgvg","pricing_plan_id":"cebpf4jnsgd1na2vs0mg"},{"bike_id":"4c50b102-00aa-40e2-83bd-5e90d2e54b17","system_id":"levelo_inurba_marseille","lat":43.279928,"lon":5.399976,"is_reserved":false,"is_disabled":false,"rental_uris":{"android":"levelo://app?vid=4c50b102-00aa-40e2-83bd-5e90d2e54b17","ios":"levelo://app?vid=4c50b102-00aa-40e2-83bd-5e90d2e54b17"},"vehicle_type_id":"4","last_reported":1770018195,"current_range_meters":6800,"station_id":"ce4bho92rcd13ifvqh4g","pricing_plan_id":"cebpf4jnsgd1na2vs0mg"},{"bike_id":"1d871e15-87dd-49cd-870e-4c3cf09f339c","system_id":"levelo_inurba_marseille","lat":43.23789,"lon":5.36642,"is_reserved":false,"is_disabled":false,"rental_uris":{"android":"levelo://app?vid=1d871e15-87dd-49cd-870e-4c3cf09f339c","ios":"levelo://app?vid=1d871e15-87dd-49cd-870e-4c3cf09f339c"},"vehicle_type_id":"4","last_reported":1770018195,"current_range_meters":6800,"station_id":"st_d3nk18o9ro0c73en2l3g","pricing_plan_id":"cebpf4jnsgd1na2vs0mg"},{"bike_id":"6632b7eb-39fd-4ac6-ab18-a3a8fd79732f","system_id":"levelo_inurba_marseille","lat":43.30894,"lon":5.37147,"is_reserved":false,"is_disabled":false,"rental_uris":{"android":"levelo://app?vid=6632b7eb-39fd-4ac6-ab18-a3a8fd79732f","ios":"levelo://app?vid=6632b7eb-39fd-4ac6-ab18-a3a8fd79732f"},"vehicle_type_id":"4","last_reported":1770018195,"current_range_meters":6800,"station_id":"ce4bguh2rcd13ifvqckg","pricing_plan_id":"cebpf4jnsgd1na2vs0mg"},{"bike_id":"399c78cb-2b49-4d18-9b0a-80894e512b0d","system_id":"levelo_inurba_marseille","lat":43.26516,"lon":5.39546,"is_reserved":false,"is_disabled":false,"rental_uris":{"android":"levelo://app?vid=399c78cb-2b49-4d18-9b0a-80894e512b0d","ios":"levelo://app?vid=399c78cb-2b49-4d18-9b0a-80894e512b0d"},"vehicle_type_id":"4","last_reported":1770018195,"current_range_meters":6800,"station_id":"ce4bhi12rcd13ifvqfq0","pricing_plan_id":"cebpf4jnsgd1na2vs0mg"},{"bike_id":"fb770f52-ce98-4cd4-aae7-0a310d77081f","system_id":"levelo_inurba_marseille","lat":43.28861,"lon":5.42519,"is_reserved":false,"is_disabled":true,"rental_uris":{"android":"levelo://app?vid=fb770f52-ce98-4cd4-aae7-0a310d77081f","ios":"levelo://app?vid=fb770f52-ce98-4cd4-aae7-0a310d77081f"},"vehicle_type_id":"4","last_reported":1770018195,"current_range_meters":6800,"station_id":"st_d3b462108ojc7389ooeg","pricing_plan_id":"cebpf4jnsgd1na2vs0mg"},{"bike_id":"ffa1af5f-7882-4495-86c9-19b1269c99b1","system_id":"levelo_inurba_marseille","lat":43.29368,"lon":5.37841,"is_reserved":false,"is_disabled":false,"rental_uris":{"android":"levelo://app?vid=ffa1af5f-7882-4495-86c9-19b1269c99b1","ios":"levelo://app?vid=ffa1af5f-7882-4495-86c9-19b1269c99b1"},"vehicle_type_id":"4","last_reported":1770018195,"current_range_meters":7200,"station_id":"ce4bgjh2rcd13ifvqbf0","pricing_plan_id":"cebpf4jnsgd1na2vs0mg"},{"bike_id":"94cbe5a1-172e-4cc9-bb27-f3369919b100","system_id":"levelo_inurba_marseille","lat":43.240953,"lon":5.377385,"is_reserved":false,"is_disabled":false,"rental_uris":{"android":"levelo://app?vid=94cbe5a1-172e-4cc9-bb27-f3369919b100","ios":"levelo://app?vid=94cbe5a1-172e-4cc9-bb27-f3369919b100"},"vehicle_type_id":"4","last_reported":1770018195,"current_range_meters":7200,"station_id":"ce4bhnp2rcd13ifvqgvg","pricing_plan_id":"cebpf4jnsgd1na2vs0mg"},{"bike_id":"c908c76d-5841-48a6-bd50-48ef6a9cf886","system_id":"levelo_inurba_marseille","lat":43.32474,"lon":5.38265,"is_reserved":false,"is_disabled":false,"rental_uris":{"android":"levelo://app?vid=c908c76d-5841-48a6-bd50-48ef6a9cf886","ios":"levelo://app?vid=c908c76d-5841-48a6-bd50-48ef6a9cf886"},"vehicle_type_id":"4","last_reported":1770018195,"current_range_meters":7200,"station_id":"st_d4asgbiv49dc73anf9m0","pricing_plan_id":"cebpf4jnsgd1na2vs0mg"},{"bike_id":"e09e2717-153b-489f-b446-f480f14d97b2","system_id":"levelo_inurba_marseille","lat":43.2794,"lon":5.41046,"is_reserved":false,"is_disabled":false,"rental_uris":{"android":"levelo://app?vid=e09e2717-153b-489f-b446-f480f14d97b2","ios":"levelo://app?vid=e09e2717-153b-489f-b446-f480f14d97b2"},"vehicle_type_id":"4","last_reported":1770018195,"current_range_meters":7200,"station_id":"ce4bhnp2rcd13ifvqh0g","pricing_plan_id":"cebpf4jnsgd1na2vs0mg"},{"bike_id":"915f07f8-71e8-442d-9fd7-f7e4f42ace83","system_id":"levelo_inurba_marseille","lat":43.23787,"lon":5.36631,"is_reserved":false,"is_disabled":false,"rental_uris":{"android":"levelo://app?vid=915f07f8-71e8-442d-9fd7-f7e4f42ace83","ios":"levelo://app?vid=915f07f8-71e8-442d-9fd7-f7e4f42ace83"},"vehicle_type_id":"4","last_reported":1770018195,"current_range_meters":7200,"station_id":"st_d3nk18o9ro0c73en2l3g","pricing_plan_id":"cebpf4jnsgd1na2vs0mg"},{"bike_id":"b38789cc-18dd-40d1-ae76-cc4e95e9c6fd","system_id":"levelo_inurba_marseille","lat":43.31405,"lon":5.36779,"is_reserved":false,"is_disabled":false,"rental_uris":{"android":"levelo://app?vid=b38789cc-18dd-40d1-ae76-cc4e95e9c6fd","ios":"levelo://app?vid=b38789cc-18dd-40d1-ae76-cc4e95e9c6fd"},"vehicle_type_id":"4","last_reported":1770018195,"current_range_meters":7200,"station_id":"ce4bgr92rcd13ifvqc6g","pricing_plan_id":"cebpf4jnsgd1na2vs0mg"},{"bike_id":"c727b0e5-6d02-4d30-8ab7-176d38c9e150","system_id":"levelo_inurba_marseille","lat":43.317193,"lon":5.423934,"is_reserved":false,"is_disabled":false,"rental_uris":{"android":"levelo://app?vid=c727b0e5-6d02-4d30-8ab7-176d38c9e150","ios":"levelo://app?vid=c727b0e5-6d02-4d30-8ab7-176d38c9e150"},"vehicle_type_id":"4","last_reported":1770018195,"current_range_meters":7200,"station_id":"ce4bhp92rcd13ifvqhbg","pricing_plan_id":"cebpf4jnsgd1na2vs0mg"},{"bike_id":"f34b59e1-4e39-4af3-a25b-ab4cbda4d328","system_id":"levelo_inurba_marseille","lat":43.24772,"lon":5.374224,"is_reserved":false,"is_disabled":false,"rental_uris":{"android":"levelo://app?vid=f34b59e1-4e39-4af3-a25b-ab4cbda4d328","ios":"levelo://app?vid=f34b59e1-4e39-4af3-a25b-ab4cbda4d328"},"vehicle_type_id":"4","last_reported":1770018195,"current_range_meters":7200,"station_id":"ce4bhgh2rcd13ifvqfb0","pricing_plan_id":"cebpf4jnsgd1na2vs0mg"},{"bike_id":"ead9d525-178d-43f7-b202-498aac541976","system_id":"levelo_inurba_marseille","lat":43.22546,"lon":5.41634,"is_reserved":false,"is_disabled":false,"rental_uris":{"android":"levelo://app?vid=ead9d525-178d-43f7-b202-498aac541976","ios":"levelo://app?vid=ead9d525-178d-43f7-b202-498aac541976"},"vehicle_type_id":"4","last_reported":1770018195,"current_range_meters":7200,"station_id":"st_d2o4gvlbi1j2169b742g","pricing_plan_id":"cebpf4jnsgd1na2vs0mg"},{"bike_id":"7339baea-42a7-44c8-866b-b3318d7a94e4","system_id":"levelo_inurba_marseille","lat":43.31037,"lon":5.372,"is_reserved":false,"is_disabled":false,"rental_uris":{"android":"levelo://app?vid=7339baea-42a7-44c8-866b-b3318d7a94e4","ios":"levelo://app?vid=7339baea-42a7-44c8-866b-b3318d7a94e4"},"vehicle_type_id":"4","last_reported":1770018195,"current_range_meters":7200,"station_id":"st_d4kl2rp97mjs73e7tdfg","pricing_plan_id":"cebpf4jnsgd1na2vs0mg"},{"bike_id":"3a58788c-4a23-4531-9872-db4b04a34512","system_id":"levelo_inurba_marseille","lat":43.25025,"lon":5.38926,"is_reserved":false,"is_disabled":false,"rental_uris":{"android":"levelo://app?vid=3a58788c-4a23-4531-9872-db4b04a34512","ios":"levelo://app?vid=3a58788c-4a23-4531-9872-db4b04a34512"},"vehicle_type_id":"4","last_reported":1770018195,"current_range_meters":7200,"station_id":"ce4bhgp2rcd13ifvqfd0","pricing_plan_id":"cebpf4jnsgd1na2vs0mg"},{"bike_id":"647e8c67-198d-4317-8b12-fb4881b15010","system_id":"levelo_inurba_marseille","lat":43.2977,"lon":5.36457,"is_reserved":false,"is_disabled":false,"rental_uris":{"android":"levelo://app?vid=647e8c67-198d-4317-8b12-fb4881b15010","ios":"levelo://app?vid=647e8c67-198d-4317-8b12-fb4881b15010"},"vehicle_type_id":"4","last_reported":1770018195,"current_range_meters":7200,"station_id":"","pricing_plan_id":"cebpf4jnsgd1na2vs0mg"},{"bike_id":"a35bcd44-1097-49a7-9a2c-49ce3007d344","system_id":"levelo_inurba_marseille","lat":43.32575,"lon":5.41525,"is_reserved":false,"is_disabled":false,"rental_uris":{"android":"levelo://app?vid=a35bcd44-1097-49a7-9a2c-49ce3007d344","ios":"levelo://app?vid=a35bcd44-1097-49a7-9a2c-49ce3007d344"},"vehicle_type_id":"4","last_reported":1770018195,"current_range_meters":7200,"station_id":"ce4bhq12rcd13ifvqhhg","pricing_plan_id":"cebpf4jnsgd1na2vs0mg"},{"bike_id":"f4dde5d0-dd73-4196-bfcd-e68e1ae2c8a6","system_id":"levelo_inurba_marseille","lat":43.309077,"lon":5.36848,"is_reserved":false,"is_disabled":false,"rental_uris":{"android":"levelo://app?vid=f4dde5d0-dd73-4196-bfcd-e68e1ae2c8a6","ios":"levelo://app?vid=f4dde5d0-dd73-4196-bfcd-e68e1ae2c8a6"},"vehicle_type_id":"4","last_reported":1770018195,"current_range_meters":7200,"station_id":"ce4bgn92rcd13ifvqbvg","pricing_plan_id":"cebpf4jnsgd1na2vs0mg"},{"bike_id":"598c3be9-e516-4a68-8ee3-e84cf24002f9","system_id":"levelo_inurba_marseille","lat":43.250123,"lon":5.389167,"is_reserved":false,"is_disabled":true,"rental_uris":{"android":"levelo://app?vid=598c3be9-e516-4a68-8ee3-e84cf24002f9","ios":"levelo://app?vid=598c3be9-e516-4a68-8ee3-e84cf24002f9"},"vehicle_type_id":"4","last_reported":1770018195,"current_range_meters":7200,"station_id":"ce4bhgp2rcd13ifvqfd0","pricing_plan_id":"cebpf4jnsgd1na2vs0mg"},{"bike_id":"f76c9a01-9ce5-4723-b97b-f93dac3ca9a7","system_id":"levelo_inurba_marseille","lat":43.30546,"lon":5.38438,"is_reserved":false,"is_disabled":false,"rental_uris":{"android":"levelo://app?vid=f76c9a01-9ce5-4723-b97b-f93dac3ca9a7","ios":"levelo://app?vid=f76c9a01-9ce5-4723-b97b-f93dac3ca9a7"},"vehicle_type_id":"4","last_reported":1770018195,"current_range_meters":8000,"station_id":"ce4bgg92rcd13ifvqb30","pricing_plan_id":"cebpf4jnsgd1na2vs0mg"},{"bike_id":"297d13dc-a8fe-4c7e-ab4e-c67c01d72bc9","system_id":"levelo_inurba_marseille","lat":43.26699,"lon":5.38296,"is_reserved":false,"is_disabled":false,"rental_uris":{"android":"levelo://app?vid=297d13dc-a8fe-4c7e-ab4e-c67c01d72bc9","ios":"levelo://app?vid=297d13dc-a8fe-4c7e-ab4e-c67c01d72bc9"},"vehicle_type_id":"4","last_reported":1770018195,"current_range_meters":8000,"station_id":"ce4bhg92rcd13ifvqf90","pricing_plan_id":"cebpf4jnsgd1na2vs0mg"},{"bike_id":"2f6850a1-eea9-41a0-bbd2-cc752b34cbf2","system_id":"levelo_inurba_marseille","lat":43.30539,"lon":5.3656,"is_reserved":false,"is_disabled":false,"rental_uris":{"android":"levelo://app?vid=2f6850a1-eea9-41a0-bbd2-cc752b34cbf2","ios":"levelo://app?vid=2f6850a1-eea9-41a0-bbd2-cc752b34cbf2"},"vehicle_type_id":"4","last_reported":1770018195,"current_range_meters":8000,"station_id":"ce4bgs12rcd13ifvqcag","pricing_plan_id":"cebpf4jnsgd1na2vs0mg"},{"bike_id":"83954c91-b1be-419e-85e2-be05d774291d","system_id":"levelo_inurba_marseille","lat":43.24059,"lon":5.37769,"is_reserved":false,"is_disabled":false,"rental_uris":{"android":"levelo://app?vid=83954c91-b1be-419e-85e2-be05d774291d","ios":"levelo://app?vid=83954c91-b1be-419e-85e2-be05d774291d"},"vehicle_type_id":"4","last_reported":1770018195,"current_range_meters":8000,"station_id":"ce4bhnp2rcd13ifvqgvg","pricing_plan_id":"cebpf4jnsgd1na2vs0mg"},{"bike_id":"78f87509-7a97-4d09-86ee-cdbe34d59bc6","system_id":"levelo_inurba_marseille","lat":43.24805,"lon":5.3847,"is_reserved":false,"is_disabled":false,"rental_uris":{"android":"levelo://app?vid=78f87509-7a97-4d09-86ee-cdbe34d59bc6","ios":"levelo://app?vid=78f87509-7a97-4d09-86ee-cdbe34d59bc6"},"vehicle_type_id":"4","last_reported":1770018195,"current_range_meters":8000,"station_id":"","pricing_plan_id":"cebpf4jnsgd1na2vs0mg"},{"bike_id":"2707eec7-e3b8-4bdc-984d-8038182e2148","system_id":"levelo_inurba_marseille","lat":43.272064,"lon":5.391801,"is_reserved":false,"is_disabled":false,"rental_uris":{"android":"levelo://app?vid=2707eec7-e3b8-4bdc-984d-8038182e2148","ios":"levelo://app?vid=2707eec7-e3b8-4bdc-984d-8038182e2148"},"vehicle_type_id":"4","last_reported":1770018195,"current_range_meters":8000,"station_id":"ce4bhhp2rcd13ifvqfm0","pricing_plan_id":"cebpf4jnsgd1na2vs0mg"},{"bike_id":"0f8ab205-b08e-4dd8-9e0a-11809d5e78f9","system_id":"levelo_inurba_marseille","lat":43.30537,"lon":5.36554,"is_reserved":false,"is_disabled":false,"rental_uris":{"android":"levelo://app?vid=0f8ab205-b08e-4dd8-9e0a-11809d5e78f9","ios":"levelo://app?vid=0f8ab205-b08e-4dd8-9e0a-11809d5e78f9"},"vehicle_type_id":"4","last_reported":1770018195,"current_range_meters":8000,"station_id":"ce4bgs12rcd13ifvqcag","pricing_plan_id":"cebpf4jnsgd1na2vs0mg"},{"bike_id":"2d538e38-1b37-4b8e-bd2e-7d47bdc6040e","system_id":"levelo_inurba_marseille","lat":43.29026,"lon":5.37551,"is_reserved":false,"is_disabled":true,"rental_uris":{"android":"levelo://app?vid=2d538e38-1b37-4b8e-bd2e-7d47bdc6040e","ios":"levelo://app?vid=2d538e38-1b37-4b8e-bd2e-7d47bdc6040e"},"vehicle_type_id":"4","last_reported":1770018195,"current_range_meters":8000,"station_id":"ce4bh692rcd13ifvqe90","pricing_plan_id":"cebpf4jnsgd1na2vs0mg"},{"bike_id":"b54c0cc3-c000-47ca-8f68-44fde08ecb39","system_id":"levelo_inurba_marseille","lat":43.27811,"lon":5.40716,"is_reserved":false,"is_disabled":false,"rental_uris":{"android":"levelo://app?vid=b54c0cc3-c000-47ca-8f68-44fde08ecb39","ios":"levelo://app?vid=b54c0cc3-c000-47ca-8f68-44fde08ecb39"},"vehicle_type_id":"4","last_reported":1770018195,"current_range_meters":8000,"station_id":"ce4bhnh2rcd13ifvqgtg","pricing_plan_id":"cebpf4jnsgd1na2vs0mg"},{"bike_id":"adddaa60-d055-4421-b10f-573a435d7714","system_id":"levelo_inurba_marseille","lat":43.25494,"lon":5.37666,"is_reserved":false,"is_disabled":false,"rental_uris":{"android":"levelo://app?vid=adddaa60-d055-4421-b10f-573a435d7714","ios":"levelo://app?vid=adddaa60-d055-4421-b10f-573a435d7714"},"vehicle_type_id":"4","last_reported":1770018195,"current_range_meters":8000,"station_id":"ce4bhh12rcd13ifvqff0","pricing_plan_id":"cebpf4jnsgd1na2vs0mg"},{"bike_id":"df56c3cd-b8f3-4331-9204-6cdae907a930","system_id":"levelo_inurba_marseille","lat":43.29965,"lon":5.37174,"is_reserved":false,"is_disabled":true,"rental_uris":{"android":"levelo://app?vid=df56c3cd-b8f3-4331-9204-6cdae907a930","ios":"levelo://app?vid=df56c3cd-b8f3-4331-9204-6cdae907a930"},"vehicle_type_id":"4","last_reported":1770018195,"current_range_meters":8000,"station_id":"ce4bgr92rcd13ifvqc7g","pricing_plan_id":"cebpf4jnsgd1na2vs0mg"},{"bike_id":"80f86e00-c283-4a17-a19a-e4aecae6582f","system_id":"levelo_inurba_marseille","lat":43.2918,"lon":5.39311,"is_reserved":false,"is_disabled":true,"rental_uris":{"android":"levelo://app?vid=80f86e00-c283-4a17-a19a-e4aecae6582f","ios":"levelo://app?vid=80f86e00-c283-4a17-a19a-e4aecae6582f"},"vehicle_type_id":"4","last_reported":1770018195,"current_range_meters":8000,"station_id":"ce4bh192rcd13ifvqdd0","pricing_plan_id":"cebpf4jnsgd1na2vs0mg"},{"bike_id":"4c8d6559-5c0e-4c38-8c22-f1ad5781fe43","system_id":"levelo_inurba_marseille","lat":43.29272,"lon":5.40117,"is_reserved":false,"is_disabled":false,"rental_uris":{"android":"levelo://app?vid=4c8d6559-5c0e-4c38-8c22-f1ad5781fe43","ios":"levelo://app?vid=4c8d6559-5c0e-4c38-8c22-f1ad5781fe43"},"vehicle_type_id":"4","last_reported":1770018195,"current_range_meters":8000,"station_id":"ce4bh312rcd13ifvqdk0","pricing_plan_id":"cebpf4jnsgd1na2vs0mg"},{"bike_id":"7cb4d92c-ddfd-4673-939d-de19e5a92bf3","system_id":"levelo_inurba_marseille","lat":43.30153,"lon":5.38088,"is_reserved":false,"is_disabled":false,"rental_uris":{"android":"levelo://app?vid=7cb4d92c-ddfd-4673-939d-de19e5a92bf3","ios":"levelo://app?vid=7cb4d92c-ddfd-4673-939d-de19e5a92bf3"},"vehicle_type_id":"4","last_reported":1770018195,"current_range_meters":8000,"station_id":"ce4bgjp2rcd13ifvqbh0","pricing_plan_id":"cebpf4jnsgd1na2vs0mg"},{"bike_id":"a4c59178-4652-430b-8850-d6335dccd56c","system_id":"levelo_inurba_marseille","lat":43.25929,"lon":5.40906,"is_reserved":false,"is_disabled":false,"rental_uris":{"android":"levelo://app?vid=a4c59178-4652-430b-8850-d6335dccd56c","ios":"levelo://app?vid=a4c59178-4652-430b-8850-d6335dccd56c"},"vehicle_type_id":"4","last_reported":1770018195,"current_range_meters":8400,"station_id":"ce4bhm92rcd13ifvqglg","pricing_plan_id":"cebpf4jnsgd1na2vs0mg"},{"bike_id":"383629b2-73f2-4b1e-9cf1-7119fdaec39e","system_id":"levelo_inurba_marseille","lat":43.27369,"lon":5.36262,"is_reserved":false,"is_disabled":false,"rental_uris":{"android":"levelo://app?vid=383629b2-73f2-4b1e-9cf1-7119fdaec39e","ios":"levelo://app?vid=383629b2-73f2-4b1e-9cf1-7119fdaec39e"},"vehicle_type_id":"4","last_reported":1770018195,"current_range_meters":8400,"station_id":"ce4bhbh2rcd13ifvqeo0","pricing_plan_id":"cebpf4jnsgd1na2vs0mg"},{"bike_id":"42f3911a-939e-4889-9561-3c06517c8f7e","system_id":"levelo_inurba_marseille","lat":43.26782,"lon":5.39437,"is_reserved":false,"is_disabled":true,"rental_uris":{"android":"levelo://app?vid=42f3911a-939e-4889-9561-3c06517c8f7e","ios":"levelo://app?vid=42f3911a-939e-4889-9561-3c06517c8f7e"},"vehicle_type_id":"4","last_reported":1770018195,"current_range_meters":8400,"station_id":"ce4bhh12rcd13ifvqfg0","pricing_plan_id":"cebpf4jnsgd1na2vs0mg"},{"bike_id":"22baf9fe-221d-4a36-8efa-991ae1dccb97","system_id":"levelo_inurba_marseille","lat":43.24985,"lon":5.38927,"is_reserved":false,"is_disabled":false,"rental_uris":{"android":"levelo://app?vid=22baf9fe-221d-4a36-8efa-991ae1dccb97","ios":"levelo://app?vid=22baf9fe-221d-4a36-8efa-991ae1dccb97"},"vehicle_type_id":"4","last_reported":1770018195,"current_range_meters":8400,"station_id":"ce4bhgp2rcd13ifvqfd0","pricing_plan_id":"cebpf4jnsgd1na2vs0mg"},{"bike_id":"61c60e02-8ed5-49e9-90c2-04146b3fff6a","system_id":"levelo_inurba_marseille","lat":43.33163,"lon":5.37696,"is_reserved":false,"is_disabled":false,"rental_uris":{"android":"levelo://app?vid=61c60e02-8ed5-49e9-90c2-04146b3fff6a","ios":"levelo://app?vid=61c60e02-8ed5-49e9-90c2-04146b3fff6a"},"vehicle_type_id":"4","last_reported":1770018195,"current_range_meters":8400,"station_id":"st_d46cu089ee8s73dldbu0","pricing_plan_id":"cebpf4jnsgd1na2vs0mg"},{"bike_id":"11669f92-a768-40e3-968e-23d92654a864","system_id":"levelo_inurba_marseille","lat":43.27962,"lon":5.41051,"is_reserved":false,"is_disabled":false,"rental_uris":{"android":"levelo://app?vid=11669f92-a768-40e3-968e-23d92654a864","ios":"levelo://app?vid=11669f92-a768-40e3-968e-23d92654a864"},"vehicle_type_id":"4","last_reported":1770018195,"current_range_meters":8400,"station_id":"ce4bhnp2rcd13ifvqh0g","pricing_plan_id":"cebpf4jnsgd1na2vs0mg"},{"bike_id":"8774adf0-091c-4acb-a18a-0b7f970d22ca","system_id":"levelo_inurba_marseille","lat":43.298805,"lon":5.384319,"is_reserved":false,"is_disabled":false,"rental_uris":{"android":"levelo://app?vid=8774adf0-091c-4acb-a18a-0b7f970d22ca","ios":"levelo://app?vid=8774adf0-091c-4acb-a18a-0b7f970d22ca"},"vehicle_type_id":"4","last_reported":1770018195,"current_range_meters":8400,"station_id":"","pricing_plan_id":"cebpf4jnsgd1na2vs0mg"},{"bike_id":"7ac53e7b-4a27-4aab-9631-08495b8cb3e9","system_id":"levelo_inurba_marseille","lat":43.29624,"lon":5.37422,"is_reserved":false,"is_disabled":true,"rental_uris":{"android":"levelo://app?vid=7ac53e7b-4a27-4aab-9631-08495b8cb3e9","ios":"levelo://app?vid=7ac53e7b-4a27-4aab-9631-08495b8cb3e9"},"vehicle_type_id":"4","last_reported":1770018195,"current_range_meters":8400,"station_id":"","pricing_plan_id":"cebpf4jnsgd1na2vs0mg"},{"bike_id":"c0aefe3c-480c-475c-8458-7f167f7fca54","system_id":"levelo_inurba_marseille","lat":43.27491,"lon":5.42462,"is_reserved":false,"is_disabled":false,"rental_uris":{"android":"levelo://app?vid=c0aefe3c-480c-475c-8458-7f167f7fca54","ios":"levelo://app?vid=c0aefe3c-480c-475c-8458-7f167f7fca54"},"vehicle_type_id":"4","last_reported":1770018195,"current_range_meters":8400,"station_id":"ce4bhn92rcd13ifvqgrg","pricing_plan_id":"cebpf4jnsgd1na2vs0mg"},{"bike_id":"3b9c8f3e-f433-4f76-92cb-a9ab1b517dc0","system_id":"levelo_inurba_marseille","lat":43.29456,"lon":5.37625,"is_reserved":false,"is_disabled":false,"rental_uris":{"android":"levelo://app?vid=3b9c8f3e-f433-4f76-92cb-a9ab1b517dc0","ios":"levelo://app?vid=3b9c8f3e-f433-4f76-92cb-a9ab1b517dc0"},"vehicle_type_id":"4","last_reported":1770018195,"current_range_meters":8400,"station_id":"","pricing_plan_id":"cebpf4jnsgd1na2vs0mg"},{"bike_id":"27dcb8fb-bc37-437e-8d8b-62fa0efb4197","system_id":"levelo_inurba_marseille","lat":43.284107,"lon":5.34988,"is_reserved":false,"is_disabled":false,"rental_uris":{"android":"levelo://app?vid=27dcb8fb-bc37-437e-8d8b-62fa0efb4197","ios":"levelo://app?vid=27dcb8fb-bc37-437e-8d8b-62fa0efb4197"},"vehicle_type_id":"4","last_reported":1770018195,"current_range_meters":8400,"station_id":"ce4bhbh2rcd13ifvqepg","pricing_plan_id":"cebpf4jnsgd1na2vs0mg"},{"bike_id":"c253de5c-6212-4506-ac33-4c3a0c08f392","system_id":"levelo_inurba_marseille","lat":43.30903,"lon":5.36844,"is_reserved":false,"is_disabled":false,"rental_uris":{"android":"levelo://app?vid=c253de5c-6212-4506-ac33-4c3a0c08f392","ios":"levelo://app?vid=c253de5c-6212-4506-ac33-4c3a0c08f392"},"vehicle_type_id":"4","last_reported":1770018195,"current_range_meters":8400,"station_id":"ce4bgn92rcd13ifvqbvg","pricing_plan_id":"cebpf4jnsgd1na2vs0mg"},{"bike_id":"e73a6b18-e6bd-4af3-92ae-5f38381bf229","system_id":"levelo_inurba_marseille","lat":43.3014,"lon":5.3743,"is_reserved":false,"is_disabled":false,"rental_uris":{"android":"levelo://app?vid=e73a6b18-e6bd-4af3-92ae-5f38381bf229","ios":"levelo://app?vid=e73a6b18-e6bd-4af3-92ae-5f38381bf229"},"vehicle_type_id":"4","last_reported":1770018195,"current_range_meters":8400,"station_id":"ce4bgs92rcd13ifvqcc0","pricing_plan_id":"cebpf4jnsgd1na2vs0mg"},{"bike_id":"180da0d1-bd60-4b3f-a4d6-ad95d36df675","system_id":"levelo_inurba_marseille","lat":43.232,"lon":5.35564,"is_reserved":false,"is_disabled":false,"rental_uris":{"android":"levelo://app?vid=180da0d1-bd60-4b3f-a4d6-ad95d36df675","ios":"levelo://app?vid=180da0d1-bd60-4b3f-a4d6-ad95d36df675"},"vehicle_type_id":"4","last_reported":1770018195,"current_range_meters":8400,"station_id":"ce4bhu92rcd13ifvqi70","pricing_plan_id":"cebpf4jnsgd1na2vs0mg"},{"bike_id":"a06d1820-eddd-4a49-9c6c-2e4c10ff35be","system_id":"levelo_inurba_marseille","lat":43.262006,"lon":5.379143,"is_reserved":false,"is_disabled":false,"rental_uris":{"android":"levelo://app?vid=a06d1820-eddd-4a49-9c6c-2e4c10ff35be","ios":"levelo://app?vid=a06d1820-eddd-4a49-9c6c-2e4c10ff35be"},"vehicle_type_id":"4","last_reported":1770018195,"current_range_meters":8400,"station_id":"","pricing_plan_id":"cebpf4jnsgd1na2vs0mg"},{"bike_id":"20e5a6ab-b7c2-47d7-a8a2-b30b7e3c699b","system_id":"levelo_inurba_marseille","lat":43.28472,"lon":5.48405,"is_reserved":false,"is_disabled":false,"rental_uris":{"android":"levelo://app?vid=20e5a6ab-b7c2-47d7-a8a2-b30b7e3c699b","ios":"levelo://app?vid=20e5a6ab-b7c2-47d7-a8a2-b30b7e3c699b"},"vehicle_type_id":"4","last_reported":1770018195,"current_range_meters":8400,"station_id":"st_d3svhcjqgbts73a3dn0g","pricing_plan_id":"cebpf4jnsgd1na2vs0mg"},{"bike_id":"de022201-bcb2-488f-9600-dbf76fdce056","system_id":"levelo_inurba_marseille","lat":43.31877,"lon":5.4072,"is_reserved":false,"is_disabled":false,"rental_uris":{"android":"levelo://app?vid=de022201-bcb2-488f-9600-dbf76fdce056","ios":"levelo://app?vid=de022201-bcb2-488f-9600-dbf76fdce056"},"vehicle_type_id":"4","last_reported":1770018195,"current_range_meters":8400,"station_id":"ce4bhq12rcd13ifvqhig","pricing_plan_id":"cebpf4jnsgd1na2vs0mg"},{"bike_id":"cd51f784-a77c-4831-b04b-afe6fd280c95","system_id":"levelo_inurba_marseille","lat":43.23204,"lon":5.35578,"is_reserved":false,"is_disabled":false,"rental_uris":{"android":"levelo://app?vid=cd51f784-a77c-4831-b04b-afe6fd280c95","ios":"levelo://app?vid=cd51f784-a77c-4831-b04b-afe6fd280c95"},"vehicle_type_id":"4","last_reported":1770018195,"current_range_meters":8400,"station_id":"ce4bhu92rcd13ifvqi70","pricing_plan_id":"cebpf4jnsgd1na2vs0mg"},{"bike_id":"40ff1cd4-fd51-433b-a213-334c3d47c965","system_id":"levelo_inurba_marseille","lat":43.300905,"lon":5.380709,"is_reserved":false,"is_disabled":false,"rental_uris":{"android":"levelo://app?vid=40ff1cd4-fd51-433b-a213-334c3d47c965","ios":"levelo://app?vid=40ff1cd4-fd51-433b-a213-334c3d47c965"},"vehicle_type_id":"4","last_reported":1770018195,"current_range_meters":8400,"station_id":"","pricing_plan_id":"cebpf4jnsgd1na2vs0mg"},{"bike_id":"9113ed34-4eae-4a17-a7d2-71a7b76f8d6a","system_id":"levelo_inurba_marseille","lat":43.25942,"lon":5.40929,"is_reserved":false,"is_disabled":false,"rental_uris":{"android":"levelo://app?vid=9113ed34-4eae-4a17-a7d2-71a7b76f8d6a","ios":"levelo://app?vid=9113ed34-4eae-4a17-a7d2-71a7b76f8d6a"},"vehicle_type_id":"4","last_reported":1770018195,"current_range_meters":8400,"station_id":"ce4bhm92rcd13ifvqglg","pricing_plan_id":"cebpf4jnsgd1na2vs0mg"},{"bike_id":"a7a08982-a4b3-4165-befb-342335e20b0b","system_id":"levelo_inurba_marseille","lat":43.23794,"lon":5.36644,"is_reserved":false,"is_disabled":false,"rental_uris":{"android":"levelo://app?vid=a7a08982-a4b3-4165-befb-342335e20b0b","ios":"levelo://app?vid=a7a08982-a4b3-4165-befb-342335e20b0b"},"vehicle_type_id":"4","last_reported":1770018195,"current_range_meters":8800,"station_id":"st_d3nk18o9ro0c73en2l3g","pricing_plan_id":"cebpf4jnsgd1na2vs0mg"},{"bike_id":"62af0ab7-05b6-4f47-9cdb-5da8f9fcdec4","system_id":"levelo_inurba_marseille","lat":43.22565,"lon":5.41613,"is_reserved":false,"is_disabled":false,"rental_uris":{"android":"levelo://app?vid=62af0ab7-05b6-4f47-9cdb-5da8f9fcdec4","ios":"levelo://app?vid=62af0ab7-05b6-4f47-9cdb-5da8f9fcdec4"},"vehicle_type_id":"4","last_reported":1770018195,"current_range_meters":8800,"station_id":"st_d2o4gvlbi1j2169b742g","pricing_plan_id":"cebpf4jnsgd1na2vs0mg"},{"bike_id":"450d125b-db69-4dd8-9efc-f1b0ec2c3479","system_id":"levelo_inurba_marseille","lat":43.23143,"lon":5.43725,"is_reserved":false,"is_disabled":false,"rental_uris":{"android":"levelo://app?vid=450d125b-db69-4dd8-9efc-f1b0ec2c3479","ios":"levelo://app?vid=450d125b-db69-4dd8-9efc-f1b0ec2c3479"},"vehicle_type_id":"4","last_reported":1770018195,"current_range_meters":8800,"station_id":"ce4bhmp2rcd13ifvqgog","pricing_plan_id":"cebpf4jnsgd1na2vs0mg"},{"bike_id":"1a8a6686-5e0a-481c-b2a8-1ac4c1dba7c4","system_id":"levelo_inurba_marseille","lat":43.30475,"lon":5.37901,"is_reserved":false,"is_disabled":false,"rental_uris":{"android":"levelo://app?vid=1a8a6686-5e0a-481c-b2a8-1ac4c1dba7c4","ios":"levelo://app?vid=1a8a6686-5e0a-481c-b2a8-1ac4c1dba7c4"},"vehicle_type_id":"4","last_reported":1770018195,"current_range_meters":8800,"station_id":"ce4bgup2rcd13ifvqcn0","pricing_plan_id":"cebpf4jnsgd1na2vs0mg"},{"bike_id":"a1b1805c-8410-4392-bb5d-9cb7c461adf3","system_id":"levelo_inurba_marseille","lat":43.29777,"lon":5.38116,"is_reserved":false,"is_disabled":true,"rental_uris":{"android":"levelo://app?vid=a1b1805c-8410-4392-bb5d-9cb7c461adf3","ios":"levelo://app?vid=a1b1805c-8410-4392-bb5d-9cb7c461adf3"},"vehicle_type_id":"4","last_reported":1770018195,"current_range_meters":8800,"station_id":"ce4bgip2rcd13ifvqbb0","pricing_plan_id":"cebpf4jnsgd1na2vs0mg"},{"bike_id":"83e69128-718d-4874-b6d5-45981017f22e","system_id":"levelo_inurba_marseille","lat":43.30137,"lon":5.38085,"is_reserved":false,"is_disabled":false,"rental_uris":{"android":"levelo://app?vid=83e69128-718d-4874-b6d5-45981017f22e","ios":"levelo://app?vid=83e69128-718d-4874-b6d5-45981017f22e"},"vehicle_type_id":"4","last_reported":1770018195,"current_range_meters":8800,"station_id":"ce4bgjp2rcd13ifvqbh0","pricing_plan_id":"cebpf4jnsgd1na2vs0mg"},{"bike_id":"f2748036-3c4c-4f63-bbed-aebdbbcc7cf4","system_id":"levelo_inurba_marseille","lat":43.29019,"lon":5.38693,"is_reserved":false,"is_disabled":false,"rental_uris":{"android":"levelo://app?vid=f2748036-3c4c-4f63-bbed-aebdbbcc7cf4","ios":"levelo://app?vid=f2748036-3c4c-4f63-bbed-aebdbbcc7cf4"},"vehicle_type_id":"4","last_reported":1770018195,"current_range_meters":8800,"station_id":"ce4bh4p2rcd13ifvqe0g","pricing_plan_id":"cebpf4jnsgd1na2vs0mg"},{"bike_id":"ac5c9602-e433-4a2b-8091-d027da8b9fa6","system_id":"levelo_inurba_marseille","lat":43.23172,"lon":5.39986,"is_reserved":false,"is_disabled":false,"rental_uris":{"android":"levelo://app?vid=ac5c9602-e433-4a2b-8091-d027da8b9fa6","ios":"levelo://app?vid=ac5c9602-e433-4a2b-8091-d027da8b9fa6"},"vehicle_type_id":"4","last_reported":1770018195,"current_range_meters":8800,"station_id":"ce4bhn12rcd13ifvqgqg","pricing_plan_id":"cebpf4jnsgd1na2vs0mg"},{"bike_id":"2d60ab74-e596-4c7f-a0fb-86b7ca4a7bcd","system_id":"levelo_inurba_marseille","lat":43.31529,"lon":5.38791,"is_reserved":false,"is_disabled":false,"rental_uris":{"android":"levelo://app?vid=2d60ab74-e596-4c7f-a0fb-86b7ca4a7bcd","ios":"levelo://app?vid=2d60ab74-e596-4c7f-a0fb-86b7ca4a7bcd"},"vehicle_type_id":"4","last_reported":1770018195,"current_range_meters":8800,"station_id":"","pricing_plan_id":"cebpf4jnsgd1na2vs0mg"},{"bike_id":"9fff0643-071c-436a-8cfd-837b6e92089a","system_id":"levelo_inurba_marseille","lat":43.25913,"lon":5.40894,"is_reserved":false,"is_disabled":false,"rental_uris":{"android":"levelo://app?vid=9fff0643-071c-436a-8cfd-837b6e92089a","ios":"levelo://app?vid=9fff0643-071c-436a-8cfd-837b6e92089a"},"vehicle_type_id":"4","last_reported":1770018195,"current_range_meters":8800,"station_id":"ce4bhm92rcd13ifvqglg","pricing_plan_id":"cebpf4jnsgd1na2vs0mg"},{"bike_id":"b8b6864a-85f7-44e6-91e2-41a6398f9833","system_id":"levelo_inurba_marseille","lat":43.29202,"lon":5.39336,"is_reserved":false,"is_disabled":false,"rental_uris":{"android":"levelo://app?vid=b8b6864a-85f7-44e6-91e2-41a6398f9833","ios":"levelo://app?vid=b8b6864a-85f7-44e6-91e2-41a6398f9833"},"vehicle_type_id":"4","last_reported":1770018195,"current_range_meters":9200,"station_id":"ce4bh192rcd13ifvqdd0","pricing_plan_id":"cebpf4jnsgd1na2vs0mg"},{"bike_id":"9c1d71a5-6ad9-4960-8def-7dcb248b2872","system_id":"levelo_inurba_marseille","lat":43.2479,"lon":5.3746,"is_reserved":false,"is_disabled":false,"rental_uris":{"android":"levelo://app?vid=9c1d71a5-6ad9-4960-8def-7dcb248b2872","ios":"levelo://app?vid=9c1d71a5-6ad9-4960-8def-7dcb248b2872"},"vehicle_type_id":"4","last_reported":1770018195,"current_range_meters":9200,"station_id":"ce4bhgh2rcd13ifvqfb0","pricing_plan_id":"cebpf4jnsgd1na2vs0mg"},{"bike_id":"3651bd1b-3a30-40a6-a668-3639b939da5c","system_id":"levelo_inurba_marseille","lat":43.32441,"lon":5.36613,"is_reserved":false,"is_disabled":false,"rental_uris":{"android":"levelo://app?vid=3651bd1b-3a30-40a6-a668-3639b939da5c","ios":"levelo://app?vid=3651bd1b-3a30-40a6-a668-3639b939da5c"},"vehicle_type_id":"4","last_reported":1770018195,"current_range_meters":9200,"station_id":"ce4bhs12rcd13ifvqhvg","pricing_plan_id":"cebpf4jnsgd1na2vs0mg"},{"bike_id":"a4a78e26-f7cc-42fe-a5d9-4836263a9354","system_id":"levelo_inurba_marseille","lat":43.33158,"lon":5.37688,"is_reserved":false,"is_disabled":false,"rental_uris":{"android":"levelo://app?vid=a4a78e26-f7cc-42fe-a5d9-4836263a9354","ios":"levelo://app?vid=a4a78e26-f7cc-42fe-a5d9-4836263a9354"},"vehicle_type_id":"4","last_reported":1770018195,"current_range_meters":9200,"station_id":"st_d46cu089ee8s73dldbu0","pricing_plan_id":"cebpf4jnsgd1na2vs0mg"},{"bike_id":"3ef65dfb-54d4-469d-946a-35ac1380b0ff","system_id":"levelo_inurba_marseille","lat":43.27369,"lon":5.36254,"is_reserved":false,"is_disabled":false,"rental_uris":{"android":"levelo://app?vid=3ef65dfb-54d4-469d-946a-35ac1380b0ff","ios":"levelo://app?vid=3ef65dfb-54d4-469d-946a-35ac1380b0ff"},"vehicle_type_id":"4","last_reported":1770018195,"current_range_meters":9200,"station_id":"ce4bhbh2rcd13ifvqeo0","pricing_plan_id":"cebpf4jnsgd1na2vs0mg"},{"bike_id":"08649d84-e1d6-4e07-9829-b3006714256b","system_id":"levelo_inurba_marseille","lat":43.24181,"lon":5.39722,"is_reserved":false,"is_disabled":false,"rental_uris":{"android":"levelo://app?vid=08649d84-e1d6-4e07-9829-b3006714256b","ios":"levelo://app?vid=08649d84-e1d6-4e07-9829-b3006714256b"},"vehicle_type_id":"4","last_reported":1770018195,"current_range_meters":9200,"station_id":"ce4bhn12rcd13ifvqgpg","pricing_plan_id":"cebpf4jnsgd1na2vs0mg"},{"bike_id":"2ebe3d1a-eb9d-4119-9eb6-9d700362d893","system_id":"levelo_inurba_marseille","lat":43.24165,"lon":5.39734,"is_reserved":false,"is_disabled":false,"rental_uris":{"android":"levelo://app?vid=2ebe3d1a-eb9d-4119-9eb6-9d700362d893","ios":"levelo://app?vid=2ebe3d1a-eb9d-4119-9eb6-9d700362d893"},"vehicle_type_id":"4","last_reported":1770018195,"current_range_meters":9200,"station_id":"ce4bhn12rcd13ifvqgpg","pricing_plan_id":"cebpf4jnsgd1na2vs0mg"},{"bike_id":"f3b5ec85-fd08-42ba-8ef5-db2429bd07e0","system_id":"levelo_inurba_marseille","lat":43.27684,"lon":5.38941,"is_reserved":false,"is_disabled":false,"rental_uris":{"android":"levelo://app?vid=f3b5ec85-fd08-42ba-8ef5-db2429bd07e0","ios":"levelo://app?vid=f3b5ec85-fd08-42ba-8ef5-db2429bd07e0"},"vehicle_type_id":"4","last_reported":1770018195,"current_range_meters":9200,"station_id":"","pricing_plan_id":"cebpf4jnsgd1na2vs0mg"},{"bike_id":"771ea2bc-bf93-42aa-8bb5-10cd9d180578","system_id":"levelo_inurba_marseille","lat":43.33545,"lon":5.37459,"is_reserved":false,"is_disabled":false,"rental_uris":{"android":"levelo://app?vid=771ea2bc-bf93-42aa-8bb5-10cd9d180578","ios":"levelo://app?vid=771ea2bc-bf93-42aa-8bb5-10cd9d180578"},"vehicle_type_id":"4","last_reported":1770018195,"current_range_meters":9200,"station_id":"st_d46tts09ee8s73dlu43g","pricing_plan_id":"cebpf4jnsgd1na2vs0mg"},{"bike_id":"e3be5c29-e833-48b0-8b33-4aa3a295a88b","system_id":"levelo_inurba_marseille","lat":43.27562,"lon":5.38425,"is_reserved":false,"is_disabled":false,"rental_uris":{"android":"levelo://app?vid=e3be5c29-e833-48b0-8b33-4aa3a295a88b","ios":"levelo://app?vid=e3be5c29-e833-48b0-8b33-4aa3a295a88b"},"vehicle_type_id":"4","last_reported":1770018195,"current_range_meters":9200,"station_id":"ce4bhh92rcd13ifvqfi0","pricing_plan_id":"cebpf4jnsgd1na2vs0mg"},{"bike_id":"5fd56762-7b7c-4271-9de2-7b895b74202c","system_id":"levelo_inurba_marseille","lat":43.28419,"lon":5.34994,"is_reserved":false,"is_disabled":false,"rental_uris":{"android":"levelo://app?vid=5fd56762-7b7c-4271-9de2-7b895b74202c","ios":"levelo://app?vid=5fd56762-7b7c-4271-9de2-7b895b74202c"},"vehicle_type_id":"4","last_reported":1770018195,"current_range_meters":9200,"station_id":"ce4bhbh2rcd13ifvqepg","pricing_plan_id":"cebpf4jnsgd1na2vs0mg"},{"bike_id":"a414b5eb-b922-4aba-8753-3f3cfbfb10da","system_id":"levelo_inurba_marseille","lat":43.28922,"lon":5.36398,"is_reserved":false,"is_disabled":false,"rental_uris":{"android":"levelo://app?vid=a414b5eb-b922-4aba-8753-3f3cfbfb10da","ios":"levelo://app?vid=a414b5eb-b922-4aba-8753-3f3cfbfb10da"},"vehicle_type_id":"4","last_reported":1770018195,"current_range_meters":9200,"station_id":"ce4bhc92rcd13ifvqetg","pricing_plan_id":"cebpf4jnsgd1na2vs0mg"},{"bike_id":"90ba5afa-5575-45ce-af95-476a5d039955","system_id":"levelo_inurba_marseille","lat":43.25729,"lon":5.41136,"is_reserved":false,"is_disabled":false,"rental_uris":{"android":"levelo://app?vid=90ba5afa-5575-45ce-af95-476a5d039955","ios":"levelo://app?vid=90ba5afa-5575-45ce-af95-476a5d039955"},"vehicle_type_id":"4","last_reported":1770018195,"current_range_meters":9200,"station_id":"ce4bhkp2rcd13ifvqgd0","pricing_plan_id":"cebpf4jnsgd1na2vs0mg"},{"bike_id":"58977562-1567-4d50-83f8-5538e0cea511","system_id":"levelo_inurba_marseille","lat":43.24183,"lon":5.39729,"is_reserved":false,"is_disabled":false,"rental_uris":{"android":"levelo://app?vid=58977562-1567-4d50-83f8-5538e0cea511","ios":"levelo://app?vid=58977562-1567-4d50-83f8-5538e0cea511"},"vehicle_type_id":"4","last_reported":1770018195,"current_range_meters":9200,"station_id":"ce4bhn12rcd13ifvqgpg","pricing_plan_id":"cebpf4jnsgd1na2vs0mg"},{"bike_id":"551b7a29-d776-4906-b0b3-5e3381c6f5a6","system_id":"levelo_inurba_marseille","lat":43.29254,"lon":5.37631,"is_reserved":false,"is_disabled":false,"rental_uris":{"android":"levelo://app?vid=551b7a29-d776-4906-b0b3-5e3381c6f5a6","ios":"levelo://app?vid=551b7a29-d776-4906-b0b3-5e3381c6f5a6"},"vehicle_type_id":"4","last_reported":1770018195,"current_range_meters":9200,"station_id":"ce4bgi12rcd13ifvqb80","pricing_plan_id":"cebpf4jnsgd1na2vs0mg"},{"bike_id":"a4548633-c611-4940-9123-b16ed88397ec","system_id":"levelo_inurba_marseille","lat":43.27991,"lon":5.41664,"is_reserved":false,"is_disabled":false,"rental_uris":{"android":"levelo://app?vid=a4548633-c611-4940-9123-b16ed88397ec","ios":"levelo://app?vid=a4548633-c611-4940-9123-b16ed88397ec"},"vehicle_type_id":"4","last_reported":1770018195,"current_range_meters":9200,"station_id":"ce4bho12rcd13ifvqh1g","pricing_plan_id":"cebpf4jnsgd1na2vs0mg"},{"bike_id":"c062aa34-fffd-40cf-8dc3-ef00546731c9","system_id":"levelo_inurba_marseille","lat":43.31283,"lon":5.37771,"is_reserved":false,"is_disabled":false,"rental_uris":{"android":"levelo://app?vid=c062aa34-fffd-40cf-8dc3-ef00546731c9","ios":"levelo://app?vid=c062aa34-fffd-40cf-8dc3-ef00546731c9"},"vehicle_type_id":"4","last_reported":1770018195,"current_range_meters":9200,"station_id":"","pricing_plan_id":"cebpf4jnsgd1na2vs0mg"},{"bike_id":"0161be71-5acc-4bef-a661-add8f18169dc","system_id":"levelo_inurba_marseille","lat":43.29922,"lon":5.4369,"is_reserved":false,"is_disabled":false,"rental_uris":{"android":"levelo://app?vid=0161be71-5acc-4bef-a661-add8f18169dc","ios":"levelo://app?vid=0161be71-5acc-4bef-a661-add8f18169dc"},"vehicle_type_id":"4","last_reported":1770018195,"current_range_meters":9200,"station_id":"","pricing_plan_id":"cebpf4jnsgd1na2vs0mg"},{"bike_id":"2fa2c29c-1079-447f-9840-16848f1eaa54","system_id":"levelo_inurba_marseille","lat":43.29737,"lon":5.37873,"is_reserved":false,"is_disabled":false,"rental_uris":{"android":"levelo://app?vid=2fa2c29c-1079-447f-9840-16848f1eaa54","ios":"levelo://app?vid=2fa2c29c-1079-447f-9840-16848f1eaa54"},"vehicle_type_id":"4","last_reported":1770018195,"current_range_meters":9600,"station_id":"","pricing_plan_id":"cebpf4jnsgd1na2vs0mg"},{"bike_id":"f2b46649-f2d2-4dab-a524-4025b198537f","system_id":"levelo_inurba_marseille","lat":43.297608,"lon":5.427736,"is_reserved":false,"is_disabled":false,"rental_uris":{"android":"levelo://app?vid=f2b46649-f2d2-4dab-a524-4025b198537f","ios":"levelo://app?vid=f2b46649-f2d2-4dab-a524-4025b198537f"},"vehicle_type_id":"4","last_reported":1770018195,"current_range_meters":9600,"station_id":"st_d3md5207bmas73dh9klg","pricing_plan_id":"cebpf4jnsgd1na2vs0mg"},{"bike_id":"7bfa4b57-17f3-4ffb-906e-4ac6f600d95b","system_id":"levelo_inurba_marseille","lat":43.29898,"lon":5.43652,"is_reserved":false,"is_disabled":false,"rental_uris":{"android":"levelo://app?vid=7bfa4b57-17f3-4ffb-906e-4ac6f600d95b","ios":"levelo://app?vid=7bfa4b57-17f3-4ffb-906e-4ac6f600d95b"},"vehicle_type_id":"4","last_reported":1770018195,"current_range_meters":9600,"station_id":"ce4bhpp2rcd13ifvqhfg","pricing_plan_id":"cebpf4jnsgd1na2vs0mg"},{"bike_id":"f4bef384-efce-4dfc-97cd-21cc8e160d07","system_id":"levelo_inurba_marseille","lat":43.3174,"lon":5.4244,"is_reserved":false,"is_disabled":false,"rental_uris":{"android":"levelo://app?vid=f4bef384-efce-4dfc-97cd-21cc8e160d07","ios":"levelo://app?vid=f4bef384-efce-4dfc-97cd-21cc8e160d07"},"vehicle_type_id":"4","last_reported":1770018195,"current_range_meters":9600,"station_id":"ce4bhp92rcd13ifvqhbg","pricing_plan_id":"cebpf4jnsgd1na2vs0mg"},{"bike_id":"08b20334-3e9e-45da-98e2-403d0460dda8","system_id":"levelo_inurba_marseille","lat":43.23173,"lon":5.35593,"is_reserved":false,"is_disabled":false,"rental_uris":{"android":"levelo://app?vid=08b20334-3e9e-45da-98e2-403d0460dda8","ios":"levelo://app?vid=08b20334-3e9e-45da-98e2-403d0460dda8"},"vehicle_type_id":"4","last_reported":1770018195,"current_range_meters":9600,"station_id":"ce4bhu92rcd13ifvqi70","pricing_plan_id":"cebpf4jnsgd1na2vs0mg"},{"bike_id":"571edabf-b0ec-4a2f-aba9-1d843ba03a36","system_id":"levelo_inurba_marseille","lat":43.32475,"lon":5.36581,"is_reserved":false,"is_disabled":false,"rental_uris":{"android":"levelo://app?vid=571edabf-b0ec-4a2f-aba9-1d843ba03a36","ios":"levelo://app?vid=571edabf-b0ec-4a2f-aba9-1d843ba03a36"},"vehicle_type_id":"4","last_reported":1770018195,"current_range_meters":9600,"station_id":"ce4bhs12rcd13ifvqhvg","pricing_plan_id":"cebpf4jnsgd1na2vs0mg"},{"bike_id":"6aa7757c-0cdb-4859-803b-ab932dc20b74","system_id":"levelo_inurba_marseille","lat":43.28712,"lon":5.39999,"is_reserved":false,"is_disabled":true,"rental_uris":{"android":"levelo://app?vid=6aa7757c-0cdb-4859-803b-ab932dc20b74","ios":"levelo://app?vid=6aa7757c-0cdb-4859-803b-ab932dc20b74"},"vehicle_type_id":"4","last_reported":1770018195,"current_range_meters":9600,"station_id":"ce4bho92rcd13ifvqh3g","pricing_plan_id":"cebpf4jnsgd1na2vs0mg"},{"bike_id":"b4da3c95-9f92-4d98-9243-d1a099fbcabf","system_id":"levelo_inurba_marseille","lat":43.249919,"lon":5.38937,"is_reserved":false,"is_disabled":false,"rental_uris":{"android":"levelo://app?vid=b4da3c95-9f92-4d98-9243-d1a099fbcabf","ios":"levelo://app?vid=b4da3c95-9f92-4d98-9243-d1a099fbcabf"},"vehicle_type_id":"4","last_reported":1770018195,"current_range_meters":10000,"station_id":"ce4bhgp2rcd13ifvqfd0","pricing_plan_id":"cebpf4jnsgd1na2vs0mg"},{"bike_id":"81ae8bd1-f2ab-4703-acf8-57dfe12da164","system_id":"levelo_inurba_marseille","lat":43.28274,"lon":5.35084,"is_reserved":false,"is_disabled":false,"rental_uris":{"android":"levelo://app?vid=81ae8bd1-f2ab-4703-acf8-57dfe12da164","ios":"levelo://app?vid=81ae8bd1-f2ab-4703-acf8-57dfe12da164"},"vehicle_type_id":"4","last_reported":1770018195,"current_range_meters":10000,"station_id":"ce4bhbp2rcd13ifvqerg","pricing_plan_id":"cebpf4jnsgd1na2vs0mg"},{"bike_id":"1ffbf4c6-ed2a-4597-a740-6d4a84e10707","system_id":"levelo_inurba_marseille","lat":43.27822,"lon":5.40741,"is_reserved":false,"is_disabled":false,"rental_uris":{"android":"levelo://app?vid=1ffbf4c6-ed2a-4597-a740-6d4a84e10707","ios":"levelo://app?vid=1ffbf4c6-ed2a-4597-a740-6d4a84e10707"},"vehicle_type_id":"4","last_reported":1770018195,"current_range_meters":10000,"station_id":"ce4bhnh2rcd13ifvqgtg","pricing_plan_id":"cebpf4jnsgd1na2vs0mg"},{"bike_id":"bdc8f3f1-7191-4554-b1d6-3542e00caa57","system_id":"levelo_inurba_marseille","lat":43.2844,"lon":5.34945,"is_reserved":false,"is_disabled":false,"rental_uris":{"android":"levelo://app?vid=bdc8f3f1-7191-4554-b1d6-3542e00caa57","ios":"levelo://app?vid=bdc8f3f1-7191-4554-b1d6-3542e00caa57"},"vehicle_type_id":"4","last_reported":1770018195,"current_range_meters":10000,"station_id":"ce4bhbh2rcd13ifvqepg","pricing_plan_id":"cebpf4jnsgd1na2vs0mg"},{"bike_id":"b63ac0c5-b7be-4ace-b026-b2c969c1980e","system_id":"levelo_inurba_marseille","lat":43.29032,"lon":5.38644,"is_reserved":false,"is_disabled":false,"rental_uris":{"android":"levelo://app?vid=b63ac0c5-b7be-4ace-b026-b2c969c1980e","ios":"levelo://app?vid=b63ac0c5-b7be-4ace-b026-b2c969c1980e"},"vehicle_type_id":"4","last_reported":1770018195,"current_range_meters":10000,"station_id":"ce4bh4p2rcd13ifvqe0g","pricing_plan_id":"cebpf4jnsgd1na2vs0mg"},{"bike_id":"44bc0922-0ab7-4f50-9c0b-fccdf7341e39","system_id":"levelo_inurba_marseille","lat":43.2828,"lon":5.38589,"is_reserved":false,"is_disabled":false,"rental_uris":{"android":"levelo://app?vid=44bc0922-0ab7-4f50-9c0b-fccdf7341e39","ios":"levelo://app?vid=44bc0922-0ab7-4f50-9c0b-fccdf7341e39"},"vehicle_type_id":"4","last_reported":1770018195,"current_range_meters":10000,"station_id":"","pricing_plan_id":"cebpf4jnsgd1na2vs0mg"},{"bike_id":"7e56f932-026d-49fe-bed4-dda636cd9cb8","system_id":"levelo_inurba_marseille","lat":43.248,"lon":5.37454,"is_reserved":false,"is_disabled":false,"rental_uris":{"android":"levelo://app?vid=7e56f932-026d-49fe-bed4-dda636cd9cb8","ios":"levelo://app?vid=7e56f932-026d-49fe-bed4-dda636cd9cb8"},"vehicle_type_id":"4","last_reported":1770018195,"current_range_meters":10000,"station_id":"ce4bhgh2rcd13ifvqfb0","pricing_plan_id":"cebpf4jnsgd1na2vs0mg"},{"bike_id":"d65e7611-55ca-42ca-909a-fde8278b5659","system_id":"levelo_inurba_marseille","lat":43.21229,"lon":5.35088,"is_reserved":false,"is_disabled":true,"rental_uris":{"android":"levelo://app?vid=d65e7611-55ca-42ca-909a-fde8278b5659","ios":"levelo://app?vid=d65e7611-55ca-42ca-909a-fde8278b5659"},"vehicle_type_id":"4","last_reported":1770018195,"current_range_meters":10000,"station_id":"","pricing_plan_id":"cebpf4jnsgd1na2vs0mg"},{"bike_id":"b6240149-6742-4e9b-9c0a-f05e20dfc756","system_id":"levelo_inurba_marseille","lat":43.29605,"lon":5.38102,"is_reserved":false,"is_disabled":false,"rental_uris":{"android":"levelo://app?vid=b6240149-6742-4e9b-9c0a-f05e20dfc756","ios":"levelo://app?vid=b6240149-6742-4e9b-9c0a-f05e20dfc756"},"vehicle_type_id":"4","last_reported":1770018195,"current_range_meters":10000,"station_id":"ce4bgl12rcd13ifvqbo0","pricing_plan_id":"cebpf4jnsgd1na2vs0mg"},{"bike_id":"bff22768-2cde-4a3f-98d2-4af19e4efeec","system_id":"levelo_inurba_marseille","lat":43.3104,"lon":5.37171,"is_reserved":false,"is_disabled":false,"rental_uris":{"android":"levelo://app?vid=bff22768-2cde-4a3f-98d2-4af19e4efeec","ios":"levelo://app?vid=bff22768-2cde-4a3f-98d2-4af19e4efeec"},"vehicle_type_id":"4","last_reported":1770018195,"current_range_meters":10000,"station_id":"st_d4kl2rp97mjs73e7tdfg","pricing_plan_id":"cebpf4jnsgd1na2vs0mg"},{"bike_id":"7a016736-1fb9-4e88-87a2-eb13f71c2c15","system_id":"levelo_inurba_marseille","lat":43.290308,"lon":5.386366,"is_reserved":false,"is_disabled":false,"rental_uris":{"android":"levelo://app?vid=7a016736-1fb9-4e88-87a2-eb13f71c2c15","ios":"levelo://app?vid=7a016736-1fb9-4e88-87a2-eb13f71c2c15"},"vehicle_type_id":"4","last_reported":1770018195,"current_range_meters":10000,"station_id":"ce4bh4p2rcd13ifvqe0g","pricing_plan_id":"cebpf4jnsgd1na2vs0mg"},{"bike_id":"00aa65f2-b269-417d-9516-05011b7ebc65","system_id":"levelo_inurba_marseille","lat":43.28479,"lon":5.38422,"is_reserved":false,"is_disabled":false,"rental_uris":{"android":"levelo://app?vid=00aa65f2-b269-417d-9516-05011b7ebc65","ios":"levelo://app?vid=00aa65f2-b269-417d-9516-05011b7ebc65"},"vehicle_type_id":"4","last_reported":1770018195,"current_range_meters":10000,"station_id":"ce4bh512rcd13ifvqe3g","pricing_plan_id":"cebpf4jnsgd1na2vs0mg"},{"bike_id":"dd41267e-6370-4639-8c88-d923873bb35c","system_id":"levelo_inurba_marseille","lat":43.27491,"lon":5.42455,"is_reserved":false,"is_disabled":false,"rental_uris":{"android":"levelo://app?vid=dd41267e-6370-4639-8c88-d923873bb35c","ios":"levelo://app?vid=dd41267e-6370-4639-8c88-d923873bb35c"},"vehicle_type_id":"4","last_reported":1770018195,"current_range_meters":10000,"station_id":"ce4bhn92rcd13ifvqgrg","pricing_plan_id":"cebpf4jnsgd1na2vs0mg"},{"bike_id":"5704d325-44da-4640-841e-d73cfa2e6959","system_id":"levelo_inurba_marseille","lat":43.311761,"lon":5.38029,"is_reserved":false,"is_disabled":false,"rental_uris":{"android":"levelo://app?vid=5704d325-44da-4640-841e-d73cfa2e6959","ios":"levelo://app?vid=5704d325-44da-4640-841e-d73cfa2e6959"},"vehicle_type_id":"4","last_reported":1770018195,"current_range_meters":10000,"station_id":"","pricing_plan_id":"cebpf4jnsgd1na2vs0mg"},{"bike_id":"39a54037-8b2e-4d03-89d2-c8ae001cb3df","system_id":"levelo_inurba_marseille","lat":43.31527,"lon":5.38034,"is_reserved":false,"is_disabled":false,"rental_uris":{"android":"levelo://app?vid=39a54037-8b2e-4d03-89d2-c8ae001cb3df","ios":"levelo://app?vid=39a54037-8b2e-4d03-89d2-c8ae001cb3df"},"vehicle_type_id":"4","last_reported":1770018195,"current_range_meters":10000,"station_id":"ce4bhsp2rcd13ifvqi50","pricing_plan_id":"cebpf4jnsgd1na2vs0mg"},{"bike_id":"71152f12-286e-42a6-8f55-eb19f9e283b7","system_id":"levelo_inurba_marseille","lat":43.29489,"lon":5.43306,"is_reserved":false,"is_disabled":false,"rental_uris":{"android":"levelo://app?vid=71152f12-286e-42a6-8f55-eb19f9e283b7","ios":"levelo://app?vid=71152f12-286e-42a6-8f55-eb19f9e283b7"},"vehicle_type_id":"4","last_reported":1770018195,"current_range_meters":10000,"station_id":"st_d3j5ugp08ojc73fj9d10","pricing_plan_id":"cebpf4jnsgd1na2vs0mg"},{"bike_id":"7ea469f1-f16e-4924-a213-85ca76ef9bcc","system_id":"levelo_inurba_marseille","lat":43.29805,"lon":5.38101,"is_reserved":false,"is_disabled":false,"rental_uris":{"android":"levelo://app?vid=7ea469f1-f16e-4924-a213-85ca76ef9bcc","ios":"levelo://app?vid=7ea469f1-f16e-4924-a213-85ca76ef9bcc"},"vehicle_type_id":"4","last_reported":1770018195,"current_range_meters":10800,"station_id":"ce4bgip2rcd13ifvqbb0","pricing_plan_id":"cebpf4jnsgd1na2vs0mg"},{"bike_id":"36ad0275-6717-4877-ae27-b60689eaf6b2","system_id":"levelo_inurba_marseille","lat":43.24806,"lon":5.37464,"is_reserved":false,"is_disabled":false,"rental_uris":{"android":"levelo://app?vid=36ad0275-6717-4877-ae27-b60689eaf6b2","ios":"levelo://app?vid=36ad0275-6717-4877-ae27-b60689eaf6b2"},"vehicle_type_id":"4","last_reported":1770018195,"current_range_meters":10800,"station_id":"ce4bhgh2rcd13ifvqfb0","pricing_plan_id":"cebpf4jnsgd1na2vs0mg"},{"bike_id":"e7dcc4b0-8a3f-49a7-9e7e-a0d6247bcf9d","system_id":"levelo_inurba_marseille","lat":43.28659,"lon":5.38675,"is_reserved":false,"is_disabled":true,"rental_uris":{"android":"levelo://app?vid=e7dcc4b0-8a3f-49a7-9e7e-a0d6247bcf9d","ios":"levelo://app?vid=e7dcc4b0-8a3f-49a7-9e7e-a0d6247bcf9d"},"vehicle_type_id":"4","last_reported":1770018195,"current_range_meters":10800,"station_id":"ce4bh492rcd13ifvqdug","pricing_plan_id":"cebpf4jnsgd1na2vs0mg"},{"bike_id":"d558498a-1807-4f91-8353-20e8d8d914a0","system_id":"levelo_inurba_marseille","lat":43.31364,"lon":5.38509,"is_reserved":false,"is_disabled":false,"rental_uris":{"android":"levelo://app?vid=d558498a-1807-4f91-8353-20e8d8d914a0","ios":"levelo://app?vid=d558498a-1807-4f91-8353-20e8d8d914a0"},"vehicle_type_id":"4","last_reported":1770018195,"current_range_meters":10800,"station_id":"ce4bgt92rcd13ifvqcf0","pricing_plan_id":"cebpf4jnsgd1na2vs0mg"},{"bike_id":"8a20c89a-7f8e-4c83-bf92-265dece5ba45","system_id":"levelo_inurba_marseille","lat":43.289648,"lon":5.378335,"is_reserved":false,"is_disabled":false,"rental_uris":{"android":"levelo://app?vid=8a20c89a-7f8e-4c83-bf92-265dece5ba45","ios":"levelo://app?vid=8a20c89a-7f8e-4c83-bf92-265dece5ba45"},"vehicle_type_id":"4","last_reported":1770018195,"current_range_meters":10800,"station_id":"ce4bh9p2rcd13ifvqed0","pricing_plan_id":"cebpf4jnsgd1na2vs0mg"},{"bike_id":"e125effe-867f-4979-a6cf-c39437316782","system_id":"levelo_inurba_marseille","lat":43.240764,"lon":5.377593,"is_reserved":false,"is_disabled":false,"rental_uris":{"android":"levelo://app?vid=e125effe-867f-4979-a6cf-c39437316782","ios":"levelo://app?vid=e125effe-867f-4979-a6cf-c39437316782"},"vehicle_type_id":"4","last_reported":1770018195,"current_range_meters":10800,"station_id":"ce4bhnp2rcd13ifvqgvg","pricing_plan_id":"cebpf4jnsgd1na2vs0mg"},{"bike_id":"5049f44b-a994-41e4-85c4-2776528ca057","system_id":"levelo_inurba_marseille","lat":43.26548,"lon":5.37311,"is_reserved":false,"is_disabled":true,"rental_uris":{"android":"levelo://app?vid=5049f44b-a994-41e4-85c4-2776528ca057","ios":"levelo://app?vid=5049f44b-a994-41e4-85c4-2776528ca057"},"vehicle_type_id":"4","last_reported":1770018195,"current_range_meters":10800,"station_id":"ce4bhg12rcd13ifvqf70","pricing_plan_id":"cebpf4jnsgd1na2vs0mg"},{"bike_id":"f21d0910-7c55-4369-bab4-302fa22f5621","system_id":"levelo_inurba_marseille","lat":43.29033,"lon":5.39967,"is_reserved":false,"is_disabled":false,"rental_uris":{"android":"levelo://app?vid=f21d0910-7c55-4369-bab4-302fa22f5621","ios":"levelo://app?vid=f21d0910-7c55-4369-bab4-302fa22f5621"},"vehicle_type_id":"4","last_reported":1770018195,"current_range_meters":10800,"station_id":"ce4bh392rcd13ifvqdm0","pricing_plan_id":"cebpf4jnsgd1na2vs0mg"},{"bike_id":"1c862d84-25b5-4bcd-a442-030289de526e","system_id":"levelo_inurba_marseille","lat":43.28627,"lon":5.35107,"is_reserved":false,"is_disabled":false,"rental_uris":{"android":"levelo://app?vid=1c862d84-25b5-4bcd-a442-030289de526e","ios":"levelo://app?vid=1c862d84-25b5-4bcd-a442-030289de526e"},"vehicle_type_id":"4","last_reported":1770018195,"current_range_meters":10800,"station_id":"ce4bhch2rcd13ifvqeug","pricing_plan_id":"cebpf4jnsgd1na2vs0mg"},{"bike_id":"8b2d75cc-48d9-48ca-9550-52bf96b395ac","system_id":"levelo_inurba_marseille","lat":43.31329,"lon":5.40226,"is_reserved":false,"is_disabled":false,"rental_uris":{"android":"levelo://app?vid=8b2d75cc-48d9-48ca-9550-52bf96b395ac","ios":"levelo://app?vid=8b2d75cc-48d9-48ca-9550-52bf96b395ac"},"vehicle_type_id":"4","last_reported":1770018195,"current_range_meters":10800,"station_id":"","pricing_plan_id":"cebpf4jnsgd1na2vs0mg"},{"bike_id":"f0653f9d-58c6-4236-ad69-87e4f2d312de","system_id":"levelo_inurba_marseille","lat":43.28611,"lon":5.35145,"is_reserved":false,"is_disabled":true,"rental_uris":{"android":"levelo://app?vid=f0653f9d-58c6-4236-ad69-87e4f2d312de","ios":"levelo://app?vid=f0653f9d-58c6-4236-ad69-87e4f2d312de"},"vehicle_type_id":"4","last_reported":1770018195,"current_range_meters":10800,"station_id":"ce4bhch2rcd13ifvqeug","pricing_plan_id":"cebpf4jnsgd1na2vs0mg"},{"bike_id":"71a07312-ff45-45c1-87c7-b2e91c5b4e37","system_id":"levelo_inurba_marseille","lat":43.28479,"lon":5.51498,"is_reserved":false,"is_disabled":false,"rental_uris":{"android":"levelo://app?vid=71a07312-ff45-45c1-87c7-b2e91c5b4e37","ios":"levelo://app?vid=71a07312-ff45-45c1-87c7-b2e91c5b4e37"},"vehicle_type_id":"4","last_reported":1770018195,"current_range_meters":10800,"station_id":"","pricing_plan_id":"cebpf4jnsgd1na2vs0mg"},{"bike_id":"e685b8e3-afce-4dcd-a202-86a08c955aff","system_id":"levelo_inurba_marseille","lat":43.23209,"lon":5.35564,"is_reserved":false,"is_disabled":false,"rental_uris":{"android":"levelo://app?vid=e685b8e3-afce-4dcd-a202-86a08c955aff","ios":"levelo://app?vid=e685b8e3-afce-4dcd-a202-86a08c955aff"},"vehicle_type_id":"4","last_reported":1770018195,"current_range_meters":10800,"station_id":"ce4bhu92rcd13ifvqi70","pricing_plan_id":"cebpf4jnsgd1na2vs0mg"},{"bike_id":"77664360-035c-4d82-9456-35cb07920bef","system_id":"levelo_inurba_marseille","lat":43.24801,"lon":5.37453,"is_reserved":false,"is_disabled":false,"rental_uris":{"android":"levelo://app?vid=77664360-035c-4d82-9456-35cb07920bef","ios":"levelo://app?vid=77664360-035c-4d82-9456-35cb07920bef"},"vehicle_type_id":"4","last_reported":1770018195,"current_range_meters":10800,"station_id":"ce4bhgh2rcd13ifvqfb0","pricing_plan_id":"cebpf4jnsgd1na2vs0mg"},{"bike_id":"9856ac21-8758-4457-ad87-2d03ea77e6e1","system_id":"levelo_inurba_marseille","lat":43.294498,"lon":5.429567,"is_reserved":false,"is_disabled":false,"rental_uris":{"android":"levelo://app?vid=9856ac21-8758-4457-ad87-2d03ea77e6e1","ios":"levelo://app?vid=9856ac21-8758-4457-ad87-2d03ea77e6e1"},"vehicle_type_id":"4","last_reported":1770018195,"current_range_meters":11200,"station_id":"","pricing_plan_id":"cebpf4jnsgd1na2vs0mg"},{"bike_id":"6ca9ea11-e24b-44dd-9591-e8e049789ac0","system_id":"levelo_inurba_marseille","lat":43.310383,"lon":5.371312,"is_reserved":false,"is_disabled":false,"rental_uris":{"android":"levelo://app?vid=6ca9ea11-e24b-44dd-9591-e8e049789ac0","ios":"levelo://app?vid=6ca9ea11-e24b-44dd-9591-e8e049789ac0"},"vehicle_type_id":"4","last_reported":1770018195,"current_range_meters":11200,"station_id":"st_d4kl2rp97mjs73e7tdfg","pricing_plan_id":"cebpf4jnsgd1na2vs0mg"},