{"last_updated":1685902074,"ttl":30,"version":"2.2","data":{"bikes":[{"bike_id":"048be98a-d3e1-4397-bf58-9e37d125046f","system_id":"levelo_inurba_marseille","lat":43.31703,"lon":5.3689,"is_reserved":false,"is_disabled":false,"rental_uris":{"android":"levelo://app?vid=048be98a-d3e1-4397-bf58-9e37d125046f","ios":"levelo://app?vid=048be98a-d3e1-4397-bf58-9e37d125046f"},"vehicle_type_id":"4","last_reported":1685902074,"current_range_meters":10000,"station_id":"","pricing_plan_id":"free"},{"bike_id":"1ebd0928-1fba-4e6c-b794-31a38f27c067","system_id":"levelo_inurba_marseille","lat":43.30813,"lon":5.37002,"is_reserved":false,"is_disabled":false,"rental_uris":{"android":"levelo://app?vid=1ebd0928-1fba-4e6c-b794-31a38f27c067","ios":"levelo://app?vid=1ebd0928-1fba-4e6c-b794-31a38f27c067"},"vehicle_type_id":"4","last_reported":1685902074,"current_range_meters":23600,"station_id":"","pricing_plan_id":"free"},{"bike_id":"4d43e892-ec90-4fce-8475-f727fed3851f","system_id":"levelo_inurba_marseille","lat":43.31791,"lon":5.36831,"is_reserved":false,"is_disabled":false,"rental_uris":{"android":"levelo://app?vid=4d43e892-ec90-4fce-8475-f727fed3851f","ios":"levelo://app?vid=4d43e892-ec90-4fce-8475-f727fed3851f"},"vehicle_type_id":"4","last_reported":1685902074,"current_range_meters":0,"station_id":"","pricing_plan_id":"free"},{"bike_id":"a2bcefb7-d80b-474e-a9b3-abecb50796eb","system_id":"levelo_inurba_marseille","lat":43.30839,"lon":5.37181,"is_reserved":false,"is_disabled":false,"rental_uris":{"android":"levelo://app?vid=a2bcefb7-d80b-474e-a9b3-abecb50796eb","ios":"levelo://app?vid=a2bcefb7-d80b-474e-a9b3-abecb50796eb"},"vehicle_type_id":"4","last_reported":1685902074,"current_range_meters":29200,"station_id":"","pricing_plan_id":"free"},{"bike_id":"f51b3cb8-f96d-4658-a3b4-0d41559754f9","system_id":"levelo_inurba_marseille","lat":43.30811,"lon":5.37334,"is_reserved":false,"is_disabled":false,"rental_uris":{"android":"levelo://app?vid=f51b3cb8-f96d-4658-a3b4-0d41559754f9","ios":"levelo://app?vid=f51b3cb8-f96d-4658-a3b4-0d41559754f9"},"vehicle_type_id":"4","last_reported":1685902074,"current_range_meters":27600,"station_id":"","pricing_plan_id":"free"},{"bike_id":"b44ea8a6-f06c-47db-a6e7-36da0acc0f13","system_id":"levelo_inurba_marseille","lat":43.305368,"lon":5.367343,"is_reserved":false,"is_disabled":false,"rental_uris":{"android":"levelo://app?vid=b44ea8a6-f06c-47db-a6e7-36da0acc0f13","ios":"levelo://app?vid=b44ea8a6-f06c-47db-a6e7-36da0acc0f13"},"vehicle_type_id":"4","last_reported":1685902074,"current_range_meters":14000,"station_id":"ce4bgrp2rcd13ifvqc9g","pricing_plan_id":"free"},{"bike_id":"91a39ba8-99bc-4c68-9b0d-a54637acfdd0","system_id":"levelo_inurba_marseille","lat":43.3053,"lon":5.36556,"is_reserved":false,"is_disabled":false,"rental_uris":{"android":"levelo://app?vid=91a39ba8-99bc-4c68-9b0d-a54637acfdd0","ios":"levelo://app?vid=91a39ba8-99bc-4c68-9b0d-a54637acfdd0"},"vehicle_type_id":"4","last_reported":1685902074,"current_range_meters":400,"station_id":"","pricing_plan_id":"free"},{"bike_id":"3c27a7eb-ece5-4790-837a-fa06622995d2","system_id":"levelo_inurba_marseille","lat":43.305989,"lon":5.37225,"is_reserved":false,"is_disabled":false,"rental_uris":{"android":"levelo://app?vid=3c27a7eb-ece5-4790-837a-fa06622995d2","ios":"levelo://app?vid=3c27a7eb-ece5-4790-837a-fa06622995d2"},"vehicle_type_id":"4","last_reported":1685902074,"current_range_meters":16800,"station_id":"ce4bgqh2rcd13ifvqc4g","pricing_plan_id":"free"},{"bike_id":"72b6fe1f-4da8-40bd-8a93-3f9d2c14884a","system_id":"levelo_inurba_marseille","lat":43.305989,"lon":5.37225,"is_reserved":false,"is_disabled":false,"rental_uris":{"android":"levelo://app?vid=72b6fe1f-4da8-40bd-8a93-3f9d2c14884a","ios":"levelo://app?vid=72b6fe1f-4da8-40bd-8a93-3f9d2c14884a"},"vehicle_type_id":"4","last_reported":1685902074,"current_range_meters":17600,"station_id":"ce4bgqh2rcd13ifvqc4g","pricing_plan_id":"free"},{"bike_id":"921e5ca7-d2c0-468b-9efe-f2aaf477d0e1","system_id":"levelo_inurba_marseille","lat":43.311131,"lon":5.377651,"is_reserved":false,"is_disabled":false,"rental_uris":{"android":"levelo://app?vid=921e5ca7-d2c0-468b-9efe-f2aaf477d0e1","ios":"levelo://app?vid=921e5ca7-d2c0-468b-9efe-f2aaf477d0e1"},"vehicle_type_id":"4","last_reported":1685902074,"current_range_meters":17600,"station_id":"ce4bgt92rcd13ifvqcg0","pricing_plan_id":"free"},{"bike_id":"e91e9d3d-4be1-4088-9b07-7d3f10b598d6","system_id":"levelo_inurba_marseille","lat":43.31152,"lon":5.37778,"is_reserved":false,"is_disabled":false,"rental_uris":{"android":"levelo://app?vid=e91e9d3d-4be1-4088-9b07-7d3f10b598d6","ios":"levelo://app?vid=e91e9d3d-4be1-4088-9b07-7d3f10b598d6"},"vehicle_type_id":"4","last_reported":1685902074,"current_range_meters":6800,"station_id":"","pricing_plan_id":"free"},{"bike_id":"9b5d6a66-f06b-4c93-befb-1a2161dfb7a6","system_id":"levelo_inurba_marseille","lat":43.311175,"lon":5.377713,"is_reserved":false,"is_disabled":false,"rental_uris":{"android":"levelo://app?vid=9b5d6a66-f06b-4c93-befb-1a2161dfb7a6","ios":"levelo://app?vid=9b5d6a66-f06b-4c93-befb-1a2161dfb7a6"},"vehicle_type_id":"4","last_reported":1685902074,"current_range_meters":16800,"station_id":"","pricing_plan_id":"free"},{"bike_id":"571e3afa-55ba-4f67-87ce-85de1704e419","system_id":"levelo_inurba_marseille","lat":43.317075,"lon":5.377367,"is_reserved":false,"is_disabled":false,"rental_uris":{"android":"levelo://app?vid=571e3afa-55ba-4f67-87ce-85de1704e419","ios":"levelo://app?vid=571e3afa-55ba-4f67-87ce-85de1704e419"},"vehicle_type_id":"4","last_reported":1685902074,"current_range_meters":27600,"station_id":"ce4bgth2rcd13ifvqch0","pricing_plan_id":"free"},{"bike_id":"37d24745-bdea-449d-a32b-0cb5fbd20563","system_id":"levelo_inurba_marseille","lat":43.303046,"lon":5.368981,"is_reserved":false,"is_disabled":false,"rental_uris":{"android":"levelo://app?vid=37d24745-bdea-449d-a32b-0cb5fbd20563","ios":"levelo://app?vid=37d24745-bdea-449d-a32b-0cb5fbd20563"},"vehicle_type_id":"4","last_reported":1685902074,"current_range_meters":8800,"station_id":"ce4bgqh2rcd13ifvqc5g","pricing_plan_id":"free"},{"bike_id":"ee89d981-1e31-4afa-b807-5b227902ae45","system_id":"levelo_inurba_marseille","lat":43.315289,"lon":5.380349,"is_reserved":false,"is_disabled":false,"rental_uris":{"android":"levelo://app?vid=ee89d981-1e31-4afa-b807-5b227902ae45","ios":"levelo://app?vid=ee89d981-1e31-4afa-b807-5b227902ae45"},"vehicle_type_id":"4","last_reported":1685902074,"current_range_meters":4400,"station_id":"ce4bhsp2rcd13ifvqi50","pricing_plan_id":"free"},{"bike_id":"87f83aa8-51f7-4130-88bc-4e7d521dcc10","system_id":"levelo_inurba_marseille","lat":43.315289,"lon":5.380349,"is_reserved":false,"is_disabled":false,"rental_uris":{"android":"levelo://app?vid=87f83aa8-51f7-4130-88bc-4e7d521dcc10","ios":"levelo://app?vid=87f83aa8-51f7-4130-88bc-4e7d521dcc10"},"vehicle_type_id":"4","last_reported":1685902074,"current_range_meters":8000,"station_id":"ce4bhsp2rcd13ifvqi50","pricing_plan_id":"free"},{"bike_id":"ed285243-cf16-482b-bbf1-88e476e330ab","system_id":"levelo_inurba_marseille","lat":43.315289,"lon":5.380349,"is_reserved":false,"is_disabled":false,"rental_uris":{"android":"levelo://app?vid=ed285243-cf16-482b-bbf1-88e476e330ab","ios":"levelo://app?vid=ed285243-cf16-482b-bbf1-88e476e330ab"},"vehicle_type_id":"4","last_reported":1685902074,"current_range_meters":14000,"station_id":"ce4bhsp2rcd13ifvqi50","pricing_plan_id":"free"},{"bike_id":"732f00a7-92a2-43d5-ac7a-78b0dea6415c","system_id":"levelo_inurba_marseille","lat":43.315289,"lon":5.380349,"is_reserved":false,"is_disabled":false,"rental_uris":{"android":"levelo://app?vid=732f00a7-92a2-43d5-ac7a-78b0dea6415c","ios":"levelo://app?vid=732f00a7-92a2-43d5-ac7a-78b0dea6415c"},"vehicle_type_id":"4","last_reported":1685902074,"current_range_meters":9200,"station_id":"ce4bhsp2rcd13ifvqi50","pricing_plan_id":"free"},{"bike_id":"76e3715f-1562-4f05-bbc2-43f934893cdc","system_id":"levelo_inurba_marseille","lat":43.315293,"lon":5.380349,"is_reserved":false,"is_disabled":false,"rental_uris":{"android":"levelo://app?vid=76e3715f-1562-4f05-bbc2-43f934893cdc","ios":"levelo://app?vid=76e3715f-1562-4f05-bbc2-43f934893cdc"},"vehicle_type_id":"4","last_reported":1685902074,"current_range_meters":17200,"station_id":"ce4bhsp2rcd13ifvqi50","pricing_plan_id":"free"},{"bike_id":"f1fff0e5-5376-4909-ad1c-b2bc399f9655","system_id":"levelo_inurba_marseille","lat":43.30191,"lon":5.36626,"is_reserved":false,"is_disabled":false,"rental_uris":{"android":"levelo://app?vid=f1fff0e5-5376-4909-ad1c-b2bc399f9655","ios":"levelo://app?vid=f1fff0e5-5376-4909-ad1c-b2bc399f9655"},"vehicle_type_id":"4","last_reported":1685902074,"current_range_meters":10000,"station_id":"ce4bgrh2rcd13ifvqc8g","pricing_plan_id":"free"},{"bike_id":"c280ad7b-c290-4548-bfbd-9eddf498f966","system_id":"levelo_inurba_marseille","lat":43.32432,"lon":5.36973,"is_reserved":false,"is_disabled":false,"rental_uris":{"android":"levelo://app?vid=c280ad7b-c290-4548-bfbd-9eddf498f966","ios":"levelo://app?vid=c280ad7b-c290-4548-bfbd-9eddf498f966"},"vehicle_type_id":"4","last_reported":1685902074,"current_range_meters":12400,"station_id":"","pricing_plan_id":"free"},{"bike_id":"9e3cbb20-ebbd-4901-9df8-4c82083753d1","system_id":"levelo_inurba_marseille","lat":43.304606,"lon":5.379026,"is_reserved":false,"is_disabled":false,"rental_uris":{"android":"levelo://app?vid=9e3cbb20-ebbd-4901-9df8-4c82083753d1","ios":"levelo://app?vid=9e3cbb20-ebbd-4901-9df8-4c82083753d1"},"vehicle_type_id":"4","last_reported":1685902074,"current_range_meters":2400,"station_id":"ce4bgup2rcd13ifvqcn0","pricing_plan_id":"free"},{"bike_id":"994fd81e-6db6-4408-acc8-bec511d624f9","system_id":"levelo_inurba_marseille","lat":43.319935,"lon":5.381699,"is_reserved":false,"is_disabled":false,"rental_uris":{"android":"levelo://app?vid=994fd81e-6db6-4408-acc8-bec511d624f9","ios":"levelo://app?vid=994fd81e-6db6-4408-acc8-bec511d624f9"},"vehicle_type_id":"4","last_reported":1685902074,"current_range_meters":16000,"station_id":"ce4bhr12rcd13ifvqhpg","pricing_plan_id":"free"},{"bike_id":"1f1dc83b-8ccb-4689-a2db-9ce7e1fda49c","system_id":"levelo_inurba_marseille","lat":43.319935,"lon":5.381699,"is_reserved":false,"is_disabled":false,"rental_uris":{"android":"levelo://app?vid=1f1dc83b-8ccb-4689-a2db-9ce7e1fda49c","ios":"levelo://app?vid=1f1dc83b-8ccb-4689-a2db-9ce7e1fda49c"},"vehicle_type_id":"4","last_reported":1685902074,"current_range_meters":2400,"station_id":"ce4bhr12rcd13ifvqhpg","pricing_plan_id":"free"},{"bike_id":"35369de5-2325-46f5-91e2-654f2d5c1102","system_id":"levelo_inurba_marseille","lat":43.319935,"lon":5.381699,"is_reserved":false,"is_disabled":false,"rental_uris":{"android":"levelo://app?vid=35369de5-2325-46f5-91e2-654f2d5c1102","ios":"levelo://app?vid=35369de5-2325-46f5-91e2-654f2d5c1102"},"vehicle_type_id":"4","last_reported":1685902074,"current_range_meters":16000,"station_id":"ce4bhr12rcd13ifvqhpg","pricing_plan_id":"free"},{"bike_id":"7f296a06-238a-4357-bec7-1e7451d8c132","system_id":"levelo_inurba_marseille","lat":43.319935,"lon":5.381699,"is_reserved":false,"is_disabled":false,"rental_uris":{"android":"levelo://app?vid=7f296a06-238a-4357-bec7-1e7451d8c132","ios":"levelo://app?vid=7f296a06-238a-4357-bec7-1e7451d8c132"},"vehicle_type_id":"4","last_reported":1685902074,"current_range_meters":27600,"station_id":"ce4bhr12rcd13ifvqhpg","pricing_plan_id":"free"},{"bike_id":"551645a8-cb8f-4080-9786-5664c0090b20","system_id":"levelo_inurba_marseille","lat":43.31358,"lon":5.38502,"is_reserved":false,"is_disabled":false,"rental_uris":{"android":"levelo://app?vid=551645a8-cb8f-4080-9786-5664c0090b20","ios":"levelo://app?vid=551645a8-cb8f-4080-9786-5664c0090b20"},"vehicle_type_id":"4","last_reported":1685902074,"current_range_meters":0,"station_id":"ce4bgt92rcd13ifvqcf0","pricing_plan_id":"free"},{"bike_id":"36136d78-2be3-4b19-a90a-7711a04c3c3a","system_id":"levelo_inurba_marseille","lat":43.31377,"lon":5.38512,"is_reserved":false,"is_disabled":false,"rental_uris":{"android":"levelo://app?vid=36136d78-2be3-4b19-a90a-7711a04c3c3a","ios":"levelo://app?vid=36136d78-2be3-4b19-a90a-7711a04c3c3a"},"vehicle_type_id":"4","last_reported":1685902074,"current_range_meters":14800,"station_id":"","pricing_plan_id":"free"},{"bike_id":"12ed2c75-7d74-41c5-aef9-70a895f433dd","system_id":"levelo_inurba_marseille","lat":43.299222,"lon":5.365554,"is_reserved":false,"is_disabled":false,"rental_uris":{"android":"levelo://app?vid=12ed2c75-7d74-41c5-aef9-70a895f433dd","ios":"levelo://app?vid=12ed2c75-7d74-41c5-aef9-70a895f433dd"},"vehicle_type_id":"4","last_reported":1685902074,"current_range_meters":0,"station_id":"ce4bgm92rcd13ifvqbr0","pricing_plan_id":"free"},{"bike_id":"9a3b4cb2-76d9-46d1-8444-f23ecbcd2f3a","system_id":"levelo_inurba_marseille","lat":43.305364,"lon":5.384119,"is_reserved":false,"is_disabled":false,"rental_uris":{"android":"levelo://app?vid=9a3b4cb2-76d9-46d1-8444-f23ecbcd2f3a","ios":"levelo://app?vid=9a3b4cb2-76d9-46d1-8444-f23ecbcd2f3a"},"vehicle_type_id":"4","last_reported":1685902074,"current_range_meters":18800,"station_id":"ce4bgg92rcd13ifvqb30","pricing_plan_id":"free"},{"bike_id":"b5b6dfcd-0236-4a89-8b04-bb73f1a15678","system_id":"levelo_inurba_marseille","lat":43.298433,"lon":5.362774,"is_reserved":false,"is_disabled":false,"rental_uris":{"android":"levelo://app?vid=b5b6dfcd-0236-4a89-8b04-bb73f1a15678","ios":"levelo://app?vid=b5b6dfcd-0236-4a89-8b04-bb73f1a15678"},"vehicle_type_id":"4","last_reported":1685902074,"current_range_meters":19200,"station_id":"ce4bgpp2rcd13ifvqc3g","pricing_plan_id":"free"},{"bike_id":"15f8b337-72e3-47fb-ba5f-dd291a0fd9bd","system_id":"levelo_inurba_marseille","lat":43.299243,"lon":5.374807,"is_reserved":false,"is_disabled":false,"rental_uris":{"android":"levelo://app?vid=15f8b337-72e3-47fb-ba5f-dd291a0fd9bd","ios":"levelo://app?vid=15f8b337-72e3-47fb-ba5f-dd291a0fd9bd"},"vehicle_type_id":"4","last_reported":1685902074,"current_range_meters":8400,"station_id":"ce4bgjh2rcd13ifvqbg0","pricing_plan_id":"free"},{"bike_id":"9089e0b8-46be-4db6-80f4-7c11463a4fda","system_id":"levelo_inurba_marseille","lat":43.311722,"lon":5.387247,"is_reserved":false,"is_disabled":false,"rental_uris":{"android":"levelo://app?vid=9089e0b8-46be-4db6-80f4-7c11463a4fda","ios":"levelo://app?vid=9089e0b8-46be-4db6-80f4-7c11463a4fda"},"vehicle_type_id":"4","last_reported":1685902074,"current_range_meters":27200,"station_id":"ce4bgv12rcd13ifvqcp0","pricing_plan_id":"free"},{"bike_id":"a9ff61c2-4420-462d-bf41-d74cacd7665b","system_id":"levelo_inurba_marseille","lat":43.298433,"lon":5.362774,"is_reserved":false,"is_disabled":false,"rental_uris":{"android":"levelo://app?vid=a9ff61c2-4420-462d-bf41-d74cacd7665b","ios":"levelo://app?vid=a9ff61c2-4420-462d-bf41-d74cacd7665b"},"vehicle_type_id":"4","last_reported":1685902074,"current_range_meters":0,"station_id":"ce4bgpp2rcd13ifvqc3g","pricing_plan_id":"free"},{"bike_id":"531d6e55-508f-411c-91b2-5fe710d32b13","system_id":"levelo_inurba_marseille","lat":43.311722,"lon":5.387247,"is_reserved":false,"is_disabled":false,"rental_uris":{"android":"levelo://app?vid=531d6e55-508f-411c-91b2-5fe710d32b13","ios":"levelo://app?vid=531d6e55-508f-411c-91b2-5fe710d32b13"},"vehicle_type_id":"4","last_reported":1685902074,"current_range_meters":23200,"station_id":"ce4bgv12rcd13ifvqcp0","pricing_plan_id":"free"},{"bike_id":"0d7a3e3e-fbd3-488b-a8ff-4e04679f05b4","system_id":"levelo_inurba_marseille","lat":43.31172,"lon":5.38713,"is_reserved":false,"is_disabled":false,"rental_uris":{"android":"levelo://app?vid=0d7a3e3e-fbd3-488b-a8ff-4e04679f05b4","ios":"levelo://app?vid=0d7a3e3e-fbd3-488b-a8ff-4e04679f05b4"},"vehicle_type_id":"4","last_reported":1685902074,"current_range_meters":20400,"station_id":"ce4bgv12rcd13ifvqcp0","pricing_plan_id":"free"},{"bike_id":"ae764e25-6fcd-4044-96e4-d2f3bc65b627","system_id":"levelo_inurba_marseille","lat":43.299243,"lon":5.37481,"is_reserved":false,"is_disabled":false,"rental_uris":{"android":"levelo://app?vid=ae764e25-6fcd-4044-96e4-d2f3bc65b627","ios":"levelo://app?vid=ae764e25-6fcd-4044-96e4-d2f3bc65b627"},"vehicle_type_id":"4","last_reported":1685902074,"current_range_meters":8400,"station_id":"ce4bgjh2rcd13ifvqbg0","pricing_plan_id":"free"},{"bike_id":"426a1e21-baad-4131-ad06-dc3401e0fdff","system_id":"levelo_inurba_marseille","lat":43.297794,"lon":5.370888,"is_reserved":false,"is_disabled":false,"rental_uris":{"android":"levelo://app?vid=426a1e21-baad-4131-ad06-dc3401e0fdff","ios":"levelo://app?vid=426a1e21-baad-4131-ad06-dc3401e0fdff"},"vehicle_type_id":"4","last_reported":1685902074,"current_range_meters":16800,"station_id":"ce4bgop2rcd13ifvqc1g","pricing_plan_id":"free"},{"bike_id":"9cdfc76d-fefe-4e3f-886b-5d7fa5465a0e","system_id":"levelo_inurba_marseille","lat":43.32822,"lon":5.36692,"is_reserved":false,"is_disabled":false,"rental_uris":{"android":"levelo://app?vid=9cdfc76d-fefe-4e3f-886b-5d7fa5465a0e","ios":"levelo://app?vid=9cdfc76d-fefe-4e3f-886b-5d7fa5465a0e"},"vehicle_type_id":"4","last_reported":1685902074,"current_range_meters":1600,"station_id":"ce4bhs92rcd13ifvqi0g","pricing_plan_id":"free"},{"bike_id":"a9f06d18-dafd-47fb-81c1-49c3c84a4e47","system_id":"levelo_inurba_marseille","lat":43.328371,"lon":5.366909,"is_reserved":false,"is_disabled":false,"rental_uris":{"android":"levelo://app?vid=a9f06d18-dafd-47fb-81c1-49c3c84a4e47","ios":"levelo://app?vid=a9f06d18-dafd-47fb-81c1-49c3c84a4e47"},"vehicle_type_id":"4","last_reported":1685902074,"current_range_meters":0,"station_id":"ce4bhs92rcd13ifvqi0g","pricing_plan_id":"free"},{"bike_id":"5a3f0615-0d94-4a62-9eb9-c286b2b38d0f","system_id":"levelo_inurba_marseille","lat":43.328371,"lon":5.366909,"is_reserved":false,"is_disabled":false,"rental_uris":{"android":"levelo://app?vid=5a3f0615-0d94-4a62-9eb9-c286b2b38d0f","ios":"levelo://app?vid=5a3f0615-0d94-4a62-9eb9-c286b2b38d0f"},"vehicle_type_id":"4","last_reported":1685902074,"current_range_meters":25200,"station_id":"ce4bhs92rcd13ifvqi0g","pricing_plan_id":"free"},{"bike_id":"93fe580d-71c0-4856-a27e-71bfe60b8232","system_id":"levelo_inurba_marseille","lat":43.3283,"lon":5.36691,"is_reserved":false,"is_disabled":false,"rental_uris":{"android":"levelo://app?vid=93fe580d-71c0-4856-a27e-71bfe60b8232","ios":"levelo://app?vid=93fe580d-71c0-4856-a27e-71bfe60b8232"},"vehicle_type_id":"4","last_reported":1685902074,"current_range_meters":20000,"station_id":"ce4bhs92rcd13ifvqi0g","pricing_plan_id":"free"},{"bike_id":"fcfa8df2-9e76-4249-b61d-9fc48b640c7e","system_id":"levelo_inurba_marseille","lat":43.328371,"lon":5.366909,"is_reserved":false,"is_disabled":false,"rental_uris":{"android":"levelo://app?vid=fcfa8df2-9e76-4249-b61d-9fc48b640c7e","ios":"levelo://app?vid=fcfa8df2-9e76-4249-b61d-9fc48b640c7e"},"vehicle_type_id":"4","last_reported":1685902074,"current_range_meters":16000,"station_id":"ce4bhs92rcd13ifvqi0g","pricing_plan_id":"free"},{"bike_id":"c957c23a-5f71-48b3-920d-3eb9d16491cd","system_id":"levelo_inurba_marseille","lat":43.32831,"lon":5.36682,"is_reserved":false,"is_disabled":false,"rental_uris":{"android":"levelo://app?vid=c957c23a-5f71-48b3-920d-3eb9d16491cd","ios":"levelo://app?vid=c957c23a-5f71-48b3-920d-3eb9d16491cd"},"vehicle_type_id":"4","last_reported":1685902074,"current_range_meters":25200,"station_id":"ce4bhs92rcd13ifvqi0g","pricing_plan_id":"free"},{"bike_id":"0a2644ee-3284-46a4-b383-c1008b4493c6","system_id":"levelo_inurba_marseille","lat":43.32831,"lon":5.36679,"is_reserved":false,"is_disabled":false,"rental_uris":{"android":"levelo://app?vid=0a2644ee-3284-46a4-b383-c1008b4493c6","ios":"levelo://app?vid=0a2644ee-3284-46a4-b383-c1008b4493c6"},"vehicle_type_id":"4","last_reported":1685902074,"current_range_meters":25200,"station_id":"ce4bhs92rcd13ifvqi0g","pricing_plan_id":"free"},{"bike_id":"0a8d8c78-668e-4bfd-b627-75e7821f9637","system_id":"levelo_inurba_marseille","lat":43.328371,"lon":5.366909,"is_reserved":false,"is_disabled":false,"rental_uris":{"android":"levelo://app?vid=0a8d8c78-668e-4bfd-b627-75e7821f9637","ios":"levelo://app?vid=0a8d8c78-668e-4bfd-b627-75e7821f9637"},"vehicle_type_id":"4","last_reported":1685902074,"current_range_meters":14400,"station_id":"ce4bhs92rcd13ifvqi0g","pricing_plan_id":"free"},{"bike_id":"b9cf6557-2db2-4828-97f1-13a369745ef6","system_id":"levelo_inurba_marseille","lat":43.32756,"lon":5.37468,"is_reserved":false,"is_disabled":false,"rental_uris":{"android":"levelo://app?vid=b9cf6557-2db2-4828-97f1-13a369745ef6","ios":"levelo://app?vid=b9cf6557-2db2-4828-97f1-13a369745ef6"},"vehicle_type_id":"4","last_reported":1685902074,"current_range_meters":4000,"station_id":"","pricing_plan_id":"free"},{"bike_id":"30d3e517-25a2-4ae2-89fd-3f18ff72fff2","system_id":"levelo_inurba_marseille","lat":43.29573,"lon":5.367355,"is_reserved":false,"is_disabled":false,"rental_uris":{"android":"levelo://app?vid=30d3e517-25a2-4ae2-89fd-3f18ff72fff2","ios":"levelo://app?vid=30d3e517-25a2-4ae2-89fd-3f18ff72fff2"},"vehicle_type_id":"4","last_reported":1685902074,"current_range_meters":2800,"station_id":"ce4bgph2rcd13ifvqc2g","pricing_plan_id":"free"},{"bike_id":"5e3212a3-20a6-4be2-a80d-dd8836ec8514","system_id":"levelo_inurba_marseille","lat":43.29573,"lon":5.367355,"is_reserved":false,"is_disabled":false,"rental_uris":{"android":"levelo://app?vid=5e3212a3-20a6-4be2-a80d-dd8836ec8514","ios":"levelo://app?vid=5e3212a3-20a6-4be2-a80d-dd8836ec8514"},"vehicle_type_id":"4","last_reported":1685902074,"current_range_meters":22400,"station_id":"ce4bgph2rcd13ifvqc2g","pricing_plan_id":"free"},{"bike_id":"2cf6a22b-909f-4e29-8cb6-1b9475e728ae","system_id":"levelo_inurba_marseille","lat":43.296935,"lon":5.376544,"is_reserved":false,"is_disabled":false,"rental_uris":{"android":"levelo://app?vid=2cf6a22b-909f-4e29-8cb6-1b9475e728ae","ios":"levelo://app?vid=2cf6a22b-909f-4e29-8cb6-1b9475e728ae"},"vehicle_type_id":"4","last_reported":1685902074,"current_range_meters":4000,"station_id":"ce4bgkh2rcd13ifvqbl0","pricing_plan_id":"free"},{"bike_id":"394419fe-787b-4a9d-bc29-b3f04efabff1","system_id":"levelo_inurba_marseille","lat":43.296935,"lon":5.376544,"is_reserved":false,"is_disabled":false,"rental_uris":{"android":"levelo://app?vid=394419fe-787b-4a9d-bc29-b3f04efabff1","ios":"levelo://app?vid=394419fe-787b-4a9d-bc29-b3f04efabff1"},"vehicle_type_id":"4","last_reported":1685902074,"current_range_meters":4000,"station_id":"ce4bgkh2rcd13ifvqbl0","pricing_plan_id":"free"},{"bike_id":"ce346513-5599-4599-acbd-1bea4cfc28ad","system_id":"levelo_inurba_marseille","lat":43.296935,"lon":5.376544,"is_reserved":false,"is_disabled":false,"rental_uris":{"android":"levelo://app?vid=ce346513-5599-4599-acbd-1bea4cfc28ad","ios":"levelo://app?vid=ce346513-5599-4599-acbd-1bea4cfc28ad"},"vehicle_type_id":"4","last_reported":1685902074,"current_range_meters":13600,"station_id":"ce4bgkh2rcd13ifvqbl0","pricing_plan_id":"free"},{"bike_id":"ee331462-9f8a-4ff4-975f-640e5831c4d6","system_id":"levelo_inurba_marseille","lat":43.317557,"lon":5.390173,"is_reserved":false,"is_disabled":false,"rental_uris":{"android":"levelo://app?vid=ee331462-9f8a-4ff4-975f-640e5831c4d6","ios":"levelo://app?vid=ee331462-9f8a-4ff4-975f-640e5831c4d6"},"vehicle_type_id":"4","last_reported":1685902074,"current_range_meters":10800,"station_id":"ce4bhqp2rcd13ifvqhng","pricing_plan_id":"free"},{"bike_id":"07f62f98-919e-4b71-a429-5882e11679b6","system_id":"levelo_inurba_marseille","lat":43.317557,"lon":5.390173,"is_reserved":false,"is_disabled":false,"rental_uris":{"android":"levelo://app?vid=07f62f98-919e-4b71-a429-5882e11679b6","ios":"levelo://app?vid=07f62f98-919e-4b71-a429-5882e11679b6"},"vehicle_type_id":"4","last_reported":1685902074,"current_range_meters":26000,"station_id":"ce4bhqp2rcd13ifvqhng","pricing_plan_id":"free"},{"bike_id":"26308c70-c117-4c1d-915b-6a34810e3d8c","system_id":"levelo_inurba_marseille","lat":43.298037,"lon":5.381066,"is_reserved":false,"is_disabled":false,"rental_uris":{"android":"levelo://app?vid=26308c70-c117-4c1d-915b-6a34810e3d8c","ios":"levelo://app?vid=26308c70-c117-4c1d-915b-6a34810e3d8c"},"vehicle_type_id":"4","last_reported":1685902074,"current_range_meters":20400,"station_id":"ce4bgip2rcd13ifvqbb0","pricing_plan_id":"free"},{"bike_id":"78314237-0cbf-45b3-8fdb-852c2caa3af2","system_id":"levelo_inurba_marseille","lat":43.298037,"lon":5.381066,"is_reserved":false,"is_disabled":false,"rental_uris":{"android":"levelo://app?vid=78314237-0cbf-45b3-8fdb-852c2caa3af2","ios":"levelo://app?vid=78314237-0cbf-45b3-8fdb-852c2caa3af2"},"vehicle_type_id":"4","last_reported":1685902074,"current_range_meters":14000,"station_id":"ce4bgip2rcd13ifvqbb0","pricing_plan_id":"free"},{"bike_id":"49551d15-50b4-41dd-9ea6-7a2c28db5c08","system_id":"levelo_inurba_marseille","lat":43.298037,"lon":5.381066,"is_reserved":false,"is_disabled":false,"rental_uris":{"android":"levelo://app?vid=49551d15-50b4-41dd-9ea6-7a2c28db5c08","ios":"levelo://app?vid=49551d15-50b4-41dd-9ea6-7a2c28db5c08"},"vehicle_type_id":"4","last_reported":1685902074,"current_range_meters":18000,"station_id":"ce4bgip2rcd13ifvqbb0","pricing_plan_id":"free"},{"bike_id":"7b78b289-17fd-41e5-88d8-d7eff38fd9ab","system_id":"levelo_inurba_marseille","lat":43.295748,"lon":5.37522,"is_reserved":false,"is_disabled":false,"rental_uris":{"android":"levelo://app?vid=7b78b289-17fd-41e5-88d8-d7eff38fd9ab","ios":"levelo://app?vid=7b78b289-17fd-41e5-88d8-d7eff38fd9ab"},"vehicle_type_id":"4","last_reported":1685902074,"current_range_meters":4000,"station_id":"ce4bgh92rcd13ifvqb50","pricing_plan_id":"free"},{"bike_id":"c0cb8534-03ee-4730-a2d0-849b203ee012","system_id":"levelo_inurba_marseille","lat":43.304274,"lon":5.388873,"is_reserved":false,"is_disabled":false,"rental_uris":{"android":"levelo://app?vid=c0cb8534-03ee-4730-a2d0-849b203ee012","ios":"levelo://app?vid=c0cb8534-03ee-4730-a2d0-849b203ee012"},"vehicle_type_id":"4","last_reported":1685902074,"current_range_meters":8800,"station_id":"ce4bgk12rcd13ifvqbi0","pricing_plan_id":"free"},{"bike_id":"ef6f96ea-39bf-417a-ab47-4f1d445a5866","system_id":"levelo_inurba_marseille","lat":43.304274,"lon":5.388873,"is_reserved":false,"is_disabled":false,"rental_uris":{"android":"levelo://app?vid=ef6f96ea-39bf-417a-ab47-4f1d445a5866","ios":"levelo://app?vid=ef6f96ea-39bf-417a-ab47-4f1d445a5866"},"vehicle_type_id":"4","last_reported":1685902074,"current_range_meters":400,"station_id":"ce4bgk12rcd13ifvqbi0","pricing_plan_id":"free"},{"bike_id":"bf6d6c4e-9f82-46a0-a58f-5c2a760a8d8a","system_id":"levelo_inurba_marseille","lat":43.304274,"lon":5.388873,"is_reserved":false,"is_disabled":false,"rental_uris":{"android":"levelo://app?vid=bf6d6c4e-9f82-46a0-a58f-5c2a760a8d8a","ios":"levelo://app?vid=bf6d6c4e-9f82-46a0-a58f-5c2a760a8d8a"},"vehicle_type_id":"4","last_reported":1685902074,"current_range_meters":31600,"station_id":"ce4bgk12rcd13ifvqbi0","pricing_plan_id":"free"},{"bike_id":"160d786a-f4c5-4e30-9475-6af9a75ae356","system_id":"levelo_inurba_marseille","lat":43.296263,"lon":5.377094,"is_reserved":false,"is_disabled":false,"rental_uris":{"android":"levelo://app?vid=160d786a-f4c5-4e30-9475-6af9a75ae356","ios":"levelo://app?vid=160d786a-f4c5-4e30-9475-6af9a75ae356"},"vehicle_type_id":"4","last_reported":1685902074,"current_range_meters":15200,"station_id":"ce4bgi92rcd13ifvqb90","pricing_plan_id":"free"},{"bike_id":"44eaa34b-1369-41d3-a545-5f5ca3952805","system_id":"levelo_inurba_marseille","lat":43.299707,"lon":5.384859,"is_reserved":false,"is_disabled":false,"rental_uris":{"android":"levelo://app?vid=44eaa34b-1369-41d3-a545-5f5ca3952805","ios":"levelo://app?vid=44eaa34b-1369-41d3-a545-5f5ca3952805"},"vehicle_type_id":"4","last_reported":1685902074,"current_range_meters":13600,"station_id":"ce4bgj92rcd13ifvqbd0","pricing_plan_id":"free"},{"bike_id":"d42a1f02-1a0e-4a6e-9bd2-f0a0dfc98cf4","system_id":"levelo_inurba_marseille","lat":43.295295,"lon":5.375031,"is_reserved":false,"is_disabled":false,"rental_uris":{"android":"levelo://app?vid=d42a1f02-1a0e-4a6e-9bd2-f0a0dfc98cf4","ios":"levelo://app?vid=d42a1f02-1a0e-4a6e-9bd2-f0a0dfc98cf4"},"vehicle_type_id":"4","last_reported":1685902074,"current_range_meters":5200,"station_id":"ce4bgh92rcd13ifvqb50","pricing_plan_id":"free"},{"bike_id":"c6f5924b-621a-45bc-8114-5b3e7823fd48","system_id":"levelo_inurba_marseille","lat":43.29525,"lon":5.37487,"is_reserved":false,"is_disabled":false,"rental_uris":{"android":"levelo://app?vid=c6f5924b-621a-45bc-8114-5b3e7823fd48","ios":"levelo://app?vid=c6f5924b-621a-45bc-8114-5b3e7823fd48"},"vehicle_type_id":"4","last_reported":1685902074,"current_range_meters":2400,"station_id":"ce4bgkp2rcd13ifvqbmg","pricing_plan_id":"free"},{"bike_id":"ac3fedab-0f4e-42f3-a8ac-285468286786","system_id":"levelo_inurba_marseille","lat":43.299707,"lon":5.384859,"is_reserved":false,"is_disabled":false,"rental_uris":{"android":"levelo://app?vid=ac3fedab-0f4e-42f3-a8ac-285468286786","ios":"levelo://app?vid=ac3fedab-0f4e-42f3-a8ac-285468286786"},"vehicle_type_id":"4","last_reported":1685902074,"current_range_meters":2400,"station_id":"ce4bgj92rcd13ifvqbd0","pricing_plan_id":"free"},{"bike_id":"eb8e4412-a3fa-4a69-9d75-1a8b980ed125","system_id":"levelo_inurba_marseille","lat":43.2959,"lon":5.37798,"is_reserved":false,"is_disabled":false,"rental_uris":{"android":"levelo://app?vid=eb8e4412-a3fa-4a69-9d75-1a8b980ed125","ios":"levelo://app?vid=eb8e4412-a3fa-4a69-9d75-1a8b980ed125"},"vehicle_type_id":"4","last_reported":1685902074,"current_range_meters":26000,"station_id":"","pricing_plan_id":"free"},{"bike_id":"aeb5ead0-c09c-49ca-84ce-d23b7cb0491f","system_id":"levelo_inurba_marseille","lat":43.32367,"lon":5.388836,"is_reserved":false,"is_disabled":false,"rental_uris":{"android":"levelo://app?vid=aeb5ead0-c09c-49ca-84ce-d23b7cb0491f","ios":"levelo://app?vid=aeb5ead0-c09c-49ca-84ce-d23b7cb0491f"},"vehicle_type_id":"4","last_reported":1685902074,"current_range_meters":10400,"station_id":"ce4bhqp2rcd13ifvqhog","pricing_plan_id":"free"},{"bike_id":"66f8c606-ccf7-4b48-a7cf-8cb90cfbfb49","system_id":"levelo_inurba_marseille","lat":43.32367,"lon":5.388836,"is_reserved":false,"is_disabled":false,"rental_uris":{"android":"levelo://app?vid=66f8c606-ccf7-4b48-a7cf-8cb90cfbfb49","ios":"levelo://app?vid=66f8c606-ccf7-4b48-a7cf-8cb90cfbfb49"},"vehicle_type_id":"4","last_reported":1685902074,"current_range_meters":4000,"station_id":"ce4bhqp2rcd13ifvqhog","pricing_plan_id":"free"},{"bike_id":"7fe7d289-ac92-4ba9-be7d-6c298b53fba3","system_id":"levelo_inurba_marseille","lat":43.32367,"lon":5.388836,"is_reserved":false,"is_disabled":false,"rental_uris":{"android":"levelo://app?vid=7fe7d289-ac92-4ba9-be7d-6c298b53fba3","ios":"levelo://app?vid=7fe7d289-ac92-4ba9-be7d-6c298b53fba3"},"vehicle_type_id":"4","last_reported":1685902074,"current_range_meters":0,"station_id":"ce4bhqp2rcd13ifvqhog","pricing_plan_id":"free"},{"bike_id":"0c8ee082-b1d8-491c-8484-cd2c8fa6c95d","system_id":"levelo_inurba_marseille","lat":43.29601,"lon":5.381084,"is_reserved":false,"is_disabled":false,"rental_uris":{"android":"levelo://app?vid=0c8ee082-b1d8-491c-8484-cd2c8fa6c95d","ios":"levelo://app?vid=0c8ee082-b1d8-491c-8484-cd2c8fa6c95d"},"vehicle_type_id":"4","last_reported":1685902074,"current_range_meters":0,"station_id":"ce4bgl12rcd13ifvqbo0","pricing_plan_id":"free"},{"bike_id":"9f8bc3a4-18ca-46a0-beaf-750f9f330af7","system_id":"levelo_inurba_marseille","lat":43.293249,"lon":5.371578,"is_reserved":false,"is_disabled":false,"rental_uris":{"android":"levelo://app?vid=9f8bc3a4-18ca-46a0-beaf-750f9f330af7","ios":"levelo://app?vid=9f8bc3a4-18ca-46a0-beaf-750f9f330af7"},"vehicle_type_id":"4","last_reported":1685902074,"current_range_meters":28400,"station_id":"ce4bgh92rcd13ifvqb40","pricing_plan_id":"free"},{"bike_id":"78378291-9a73-461e-b4e0-0e1be17c8f5a","system_id":"levelo_inurba_marseille","lat":43.293249,"lon":5.371578,"is_reserved":false,"is_disabled":false,"rental_uris":{"android":"levelo://app?vid=78378291-9a73-461e-b4e0-0e1be17c8f5a","ios":"levelo://app?vid=78378291-9a73-461e-b4e0-0e1be17c8f5a"},"vehicle_type_id":"4","last_reported":1685902074,"current_range_meters":14400,"station_id":"ce4bgh92rcd13ifvqb40","pricing_plan_id":"free"},{"bike_id":"b623ad3f-6915-4575-9ac4-b202a1ff9bd7","system_id":"levelo_inurba_marseille","lat":43.293009,"lon":5.374584,"is_reserved":false,"is_disabled":false,"rental_uris":{"android":"levelo://app?vid=b623ad3f-6915-4575-9ac4-b202a1ff9bd7","ios":"levelo://app?vid=b623ad3f-6915-4575-9ac4-b202a1ff9bd7"},"vehicle_type_id":"4","last_reported":1685902074,"current_range_meters":16000,"station_id":"ce4bgi12rcd13ifvqb70","pricing_plan_id":"free"},{"bike_id":"f1787adb-c721-4077-a2f6-747d5493d548","system_id":"levelo_inurba_marseille","lat":43.293009,"lon":5.374584,"is_reserved":false,"is_disabled":false,"rental_uris":{"android":"levelo://app?vid=f1787adb-c721-4077-a2f6-747d5493d548","ios":"levelo://app?vid=f1787adb-c721-4077-a2f6-747d5493d548"},"vehicle_type_id":"4","last_reported":1685902074,"current_range_meters":22000,"station_id":"ce4bgi12rcd13ifvqb70","pricing_plan_id":"free"},{"bike_id":"9962fffb-4511-454f-8bb8-bd0d21f04244","system_id":"levelo_inurba_marseille","lat":43.293009,"lon":5.374584,"is_reserved":false,"is_disabled":false,"rental_uris":{"android":"levelo://app?vid=9962fffb-4511-454f-8bb8-bd0d21f04244","ios":"levelo://app?vid=9962fffb-4511-454f-8bb8-bd0d21f04244"},"vehicle_type_id":"4","last_reported":1685902074,"current_range_meters":4800,"station_id":"ce4bgi12rcd13ifvqb70","pricing_plan_id":"free"},{"bike_id":"254d727d-b97b-4da6-8ec6-9fc5e40315db","system_id":"levelo_inurba_marseille","lat":43.29375,"lon":5.37856,"is_reserved":false,"is_disabled":false,"rental_uris":{"android":"levelo://app?vid=254d727d-b97b-4da6-8ec6-9fc5e40315db","ios":"levelo://app?vid=254d727d-b97b-4da6-8ec6-9fc5e40315db"},"vehicle_type_id":"4","last_reported":1685902074,"current_range_meters":16800,"station_id":"ce4bgjh2rcd13ifvqbf0","pricing_plan_id":"free"},{"bike_id":"1ae87eff-4962-4dad-b34d-92adef73e7ee","system_id":"levelo_inurba_marseille","lat":43.302992,"lon":5.392136,"is_reserved":false,"is_disabled":false,"rental_uris":{"android":"levelo://app?vid=1ae87eff-4962-4dad-b34d-92adef73e7ee","ios":"levelo://app?vid=1ae87eff-4962-4dad-b34d-92adef73e7ee"},"vehicle_type_id":"4","last_reported":1685902074,"current_range_meters":400,"station_id":"ce4bgkh2rcd13ifvqbk0","pricing_plan_id":"free"},{"bike_id":"bb9986b5-1260-4f9c-bb86-b4574c500d35","system_id":"levelo_inurba_marseille","lat":43.29265,"lon":5.37619,"is_reserved":false,"is_disabled":false,"rental_uris":{"android":"levelo://app?vid=bb9986b5-1260-4f9c-bb86-b4574c500d35","ios":"levelo://app?vid=bb9986b5-1260-4f9c-bb86-b4574c500d35"},"vehicle_type_id":"4","last_reported":1685902074,"current_range_meters":21600,"station_id":"ce4bgi12rcd13ifvqb80","pricing_plan_id":"free"},{"bike_id":"38161fc5-04f1-45c7-aa4c-a6cdd22b7f85","system_id":"levelo_inurba_marseille","lat":43.292663,"lon":5.376389,"is_reserved":false,"is_disabled":false,"rental_uris":{"android":"levelo://app?vid=38161fc5-04f1-45c7-aa4c-a6cdd22b7f85","ios":"levelo://app?vid=38161fc5-04f1-45c7-aa4c-a6cdd22b7f85"},"vehicle_type_id":"4","last_reported":1685902074,"current_range_meters":1600,"station_id":"ce4bgi12rcd13ifvqb80","pricing_plan_id":"free"},{"bike_id":"8901b038-85ed-40ba-8b9d-5ed2af2b85d9","system_id":"levelo_inurba_marseille","lat":43.291671,"lon":5.371575,"is_reserved":false,"is_disabled":false,"rental_uris":{"android":"levelo://app?vid=8901b038-85ed-40ba-8b9d-5ed2af2b85d9","ios":"levelo://app?vid=8901b038-85ed-40ba-8b9d-5ed2af2b85d9"},"vehicle_type_id":"4","last_reported":1685902074,"current_range_meters":5200,"station_id":"ce4bha92rcd13ifvqeh0","pricing_plan_id":"free"},{"bike_id":"6e498674-7419-4622-914e-a7d7354e3886","system_id":"levelo_inurba_marseille","lat":43.292663,"lon":5.376389,"is_reserved":false,"is_disabled":false,"rental_uris":{"android":"levelo://app?vid=6e498674-7419-4622-914e-a7d7354e3886","ios":"levelo://app?vid=6e498674-7419-4622-914e-a7d7354e3886"},"vehicle_type_id":"4","last_reported":1685902074,"current_range_meters":16800,"station_id":"ce4bgi12rcd13ifvqb80","pricing_plan_id":"free"},{"bike_id":"a0b87a45-8e89-4812-802f-503604e730db","system_id":"levelo_inurba_marseille","lat":43.291675,"lon":5.371583,"is_reserved":false,"is_disabled":false,"rental_uris":{"android":"levelo://app?vid=a0b87a45-8e89-4812-802f-503604e730db","ios":"levelo://app?vid=a0b87a45-8e89-4812-802f-503604e730db"},"vehicle_type_id":"4","last_reported":1685902074,"current_range_meters":23600,"station_id":"ce4bha92rcd13ifvqeh0","pricing_plan_id":"free"},{"bike_id":"a5f22737-0c10-4b69-860b-4a51055a35fa","system_id":"levelo_inurba_marseille","lat":43.298764,"lon":5.388973,"is_reserved":false,"is_disabled":false,"rental_uris":{"android":"levelo://app?vid=a5f22737-0c10-4b69-860b-4a51055a35fa","ios":"levelo://app?vid=a5f22737-0c10-4b69-860b-4a51055a35fa"},"vehicle_type_id":"4","last_reported":1685902074,"current_range_meters":1600,"station_id":"ce4bh392rcd13ifvqdl0","pricing_plan_id":"free"},{"bike_id":"fdbc5e23-ba41-4ce6-a6f4-bf5844aef6e4","system_id":"levelo_inurba_marseille","lat":43.313291,"lon":5.396838,"is_reserved":false,"is_disabled":false,"rental_uris":{"android":"levelo://app?vid=fdbc5e23-ba41-4ce6-a6f4-bf5844aef6e4","ios":"levelo://app?vid=fdbc5e23-ba41-4ce6-a6f4-bf5844aef6e4"},"vehicle_type_id":"4","last_reported":1685902074,"current_range_meters":28400,"station_id":"ce4bgvp2rcd13ifvqcu0","pricing_plan_id":"free"},{"bike_id":"e590b2fb-237f-4659-9ceb-a32ea7e48e92","system_id":"levelo_inurba_marseille","lat":43.29193,"lon":5.35793,"is_reserved":false,"is_disabled":false,"rental_uris":{"android":"levelo://app?vid=e590b2fb-237f-4659-9ceb-a32ea7e48e92","ios":"levelo://app?vid=e590b2fb-237f-4659-9ceb-a32ea7e48e92"},"vehicle_type_id":"4","last_reported":1685902074,"current_range_meters":0,"station_id":"ce4bhb12rcd13ifvqel0","pricing_plan_id":"free"},{"bike_id":"65b07f62-8bc2-42ab-adbb-b99338c90d23","system_id":"levelo_inurba_marseille","lat":43.313291,"lon":5.396838,"is_reserved":false,"is_disabled":false,"rental_uris":{"android":"levelo://app?vid=65b07f62-8bc2-42ab-adbb-b99338c90d23","ios":"levelo://app?vid=65b07f62-8bc2-42ab-adbb-b99338c90d23"},"vehicle_type_id":"4","last_reported":1685902074,"current_range_meters":0,"station_id":"ce4bgvp2rcd13ifvqcu0","pricing_plan_id":"free"},{"bike_id":"a6fa3092-b14e-42a8-a4fe-7a7329a94d21","system_id":"levelo_inurba_marseille","lat":43.29529,"lon":5.385581,"is_reserved":false,"is_disabled":false,"rental_uris":{"android":"levelo://app?vid=a6fa3092-b14e-42a8-a4fe-7a7329a94d21","ios":"levelo://app?vid=a6fa3092-b14e-42a8-a4fe-7a7329a94d21"},"vehicle_type_id":"4","last_reported":1685902074,"current_range_meters":11600,"station_id":"ce4bgih2rcd13ifvqba0","pricing_plan_id":"free"},{"bike_id":"255c4b8e-8351-4250-a652-5004d8490d8a","system_id":"levelo_inurba_marseille","lat":43.29529,"lon":5.385581,"is_reserved":false,"is_disabled":false,"rental_uris":{"android":"levelo://app?vid=255c4b8e-8351-4250-a652-5004d8490d8a","ios":"levelo://app?vid=255c4b8e-8351-4250-a652-5004d8490d8a"},"vehicle_type_id":"4","last_reported":1685902074,"current_range_meters":29200,"station_id":"ce4bgih2rcd13ifvqba0","pricing_plan_id":"free"},{"bike_id":"5f4121d3-873a-4dd2-a302-53aec628d6ca","system_id":"levelo_inurba_marseille","lat":43.29529,"lon":5.385581,"is_reserved":false,"is_disabled":false,"rental_uris":{"android":"levelo://app?vid=5f4121d3-873a-4dd2-a302-53aec628d6ca","ios":"levelo://app?vid=5f4121d3-873a-4dd2-a302-53aec628d6ca"},"vehicle_type_id":"4","last_reported":1685902074,"current_range_meters":21600,"station_id":"ce4bgih2rcd13ifvqba0","pricing_plan_id":"free"},{"bike_id":"b21b6343-c063-48b2-a144-9a057a64dce8","system_id":"levelo_inurba_marseille","lat":43.29529,"lon":5.385581,"is_reserved":false,"is_disabled":false,"rental_uris":{"android":"levelo://app?vid=b21b6343-c063-48b2-a144-9a057a64dce8","ios":"levelo://app?vid=b21b6343-c063-48b2-a144-9a057a64dce8"},"vehicle_type_id":"4","last_reported":1685902074,"current_range_meters":2400,"station_id":"ce4bgih2rcd13ifvqba0","pricing_plan_id":"free"},{"bike_id":"8d385914-475d-42de-b4f3-0a15b397a6f9","system_id":"levelo_inurba_marseille","lat":43.302008,"lon":5.394694,"is_reserved":false,"is_disabled":false,"rental_uris":{"android":"levelo://app?vid=8d385914-475d-42de-b4f3-0a15b397a6f9","ios":"levelo://app?vid=8d385914-475d-42de-b4f3-0a15b397a6f9"},"vehicle_type_id":"4","last_reported":1685902074,"current_range_meters":18400,"station_id":"ce4bh0p2rcd13ifvqd70","pricing_plan_id":"free"},{"bike_id":"75143b07-5746-4685-b48e-58d0d77d8ed9","system_id":"levelo_inurba_marseille","lat":43.30212,"lon":5.39471,"is_reserved":false,"is_disabled":false,"rental_uris":{"android":"levelo://app?vid=75143b07-5746-4685-b48e-58d0d77d8ed9","ios":"levelo://app?vid=75143b07-5746-4685-b48e-58d0d77d8ed9"},"vehicle_type_id":"4","last_reported":1685902074,"current_range_meters":23600,"station_id":"ce4bh0p2rcd13ifvqd70","pricing_plan_id":"free"},{"bike_id":"8eb1a417-6f69-432c-b56d-e3d22c2ce360","system_id":"levelo_inurba_marseille","lat":43.294153,"lon":5.386305,"is_reserved":false,"is_disabled":false,"rental_uris":{"android":"levelo://app?vid=8eb1a417-6f69-432c-b56d-e3d22c2ce360","ios":"levelo://app?vid=8eb1a417-6f69-432c-b56d-e3d22c2ce360"},"vehicle_type_id":"4","last_reported":1685902074,"current_range_meters":31600,"station_id":"ce4bh2h2rcd13ifvqdh0","pricing_plan_id":"free"},{"bike_id":"c9d67961-d00a-40a3-9d7a-41c527bf9da5","system_id":"levelo_inurba_marseille","lat":43.294162,"lon":5.386292,"is_reserved":false,"is_disabled":false,"rental_uris":{"android":"levelo://app?vid=c9d67961-d00a-40a3-9d7a-41c527bf9da5","ios":"levelo://app?vid=c9d67961-d00a-40a3-9d7a-41c527bf9da5"},"vehicle_type_id":"4","last_reported":1685902074,"current_range_meters":9600,"station_id":"ce4bh2h2rcd13ifvqdh0","pricing_plan_id":"free"},{"bike_id":"7629a710-e619-4281-98d0-ea432eb3b9ea","system_id":"levelo_inurba_marseille","lat":43.294153,"lon":5.386305,"is_reserved":false,"is_disabled":false,"rental_uris":{"android":"levelo://app?vid=7629a710-e619-4281-98d0-ea432eb3b9ea","ios":"levelo://app?vid=7629a710-e619-4281-98d0-ea432eb3b9ea"},"vehicle_type_id":"4","last_reported":1685902074,"current_range_meters":6400,"station_id":"ce4bh2h2rcd13ifvqdh0","pricing_plan_id":"free"},{"bike_id":"f2a028fc-c14d-425b-9e99-df9530deedfa","system_id":"levelo_inurba_marseille","lat":43.294162,"lon":5.386292,"is_reserved":false,"is_disabled":false,"rental_uris":{"android":"levelo://app?vid=f2a028fc-c14d-425b-9e99-df9530deedfa","ios":"levelo://app?vid=f2a028fc-c14d-425b-9e99-df9530deedfa"},"vehicle_type_id":"4","last_reported":1685902074,"current_range_meters":13600,"station_id":"ce4bh2h2rcd13ifvqdh0","pricing_plan_id":"free"},{"bike_id":"01d012b4-89c6-4e3f-b54a-f2b8e65efb16","system_id":"levelo_inurba_marseille","lat":43.290327,"lon":5.375711,"is_reserved":false,"is_disabled":false,"rental_uris":{"android":"levelo://app?vid=01d012b4-89c6-4e3f-b54a-f2b8e65efb16","ios":"levelo://app?vid=01d012b4-89c6-4e3f-b54a-f2b8e65efb16"},"vehicle_type_id":"4","last_reported":1685902074,"current_range_meters":17600,"station_id":"ce4bh692rcd13ifvqe90","pricing_plan_id":"free"},{"bike_id":"750a96f3-3cb5-4028-bb03-4f1a298cf448","system_id":"levelo_inurba_marseille","lat":43.28943,"lon":5.36638,"is_reserved":false,"is_disabled":false,"rental_uris":{"android":"levelo://app?vid=750a96f3-3cb5-4028-bb03-4f1a298cf448","ios":"levelo://app?vid=750a96f3-3cb5-4028-bb03-4f1a298cf448"},"vehicle_type_id":"4","last_reported":1685902074,"current_range_meters":28800,"station_id":"","pricing_plan_id":"free"},{"bike_id":"2bbadc8e-7606-44fa-8c07-34143026c74c","system_id":"levelo_inurba_marseille","lat":43.294162,"lon":5.386292,"is_reserved":false,"is_disabled":false,"rental_uris":{"android":"levelo://app?vid=2bbadc8e-7606-44fa-8c07-34143026c74c","ios":"levelo://app?vid=2bbadc8e-7606-44fa-8c07-34143026c74c"},"vehicle_type_id":"4","last_reported":1685902074,"current_range_meters":28800,"station_id":"ce4bh2h2rcd13ifvqdh0","pricing_plan_id":"free"},{"bike_id":"dd657dd0-1bfa-465a-b870-6bc8f97e859c","system_id":"levelo_inurba_marseille","lat":43.2894,"lon":5.36634,"is_reserved":false,"is_disabled":false,"rental_uris":{"android":"levelo://app?vid=dd657dd0-1bfa-465a-b870-6bc8f97e859c","ios":"levelo://app?vid=dd657dd0-1bfa-465a-b870-6bc8f97e859c"},"vehicle_type_id":"4","last_reported":1685902074,"current_range_meters":0,"station_id":"ce4bhap2rcd13ifvqek0","pricing_plan_id":"free"},{"bike_id":"e84c3c15-9311-4e3f-872c-2a19a5169246","system_id":"levelo_inurba_marseille","lat":43.294162,"lon":5.386292,"is_reserved":false,"is_disabled":false,"rental_uris":{"android":"levelo://app?vid=e84c3c15-9311-4e3f-872c-2a19a5169246","ios":"levelo://app?vid=e84c3c15-9311-4e3f-872c-2a19a5169246"},"vehicle_type_id":"4","last_reported":1685902074,"current_range_meters":8000,"station_id":"ce4bh2h2rcd13ifvqdh0","pricing_plan_id":"free"},{"bike_id":"83d85e04-18af-4e12-9ddb-da5a863df16b","system_id":"levelo_inurba_marseille","lat":43.28939,"lon":5.36635,"is_reserved":false,"is_disabled":false,"rental_uris":{"android":"levelo://app?vid=83d85e04-18af-4e12-9ddb-da5a863df16b","ios":"levelo://app?vid=83d85e04-18af-4e12-9ddb-da5a863df16b"},"vehicle_type_id":"4","last_reported":1685902074,"current_range_meters":3600,"station_id":"ce4bhap2rcd13ifvqek0","pricing_plan_id":"free"},{"bike_id":"10a9f749-65cb-4ef1-8642-8de8baece660","system_id":"levelo_inurba_marseille","lat":43.289184,"lon":5.366408,"is_reserved":false,"is_disabled":false,"rental_uris":{"android":"levelo://app?vid=10a9f749-65cb-4ef1-8642-8de8baece660","ios":"levelo://app?vid=10a9f749-65cb-4ef1-8642-8de8baece660"},"vehicle_type_id":"4","last_reported":1685902074,"current_range_meters":11600,"station_id":"ce4bhap2rcd13ifvqek0","pricing_plan_id":"free"},{"bike_id":"9cabf8b0-cc43-452b-baee-3b50d49cc0d6","system_id":"levelo_inurba_marseille","lat":43.28937,"lon":5.36636,"is_reserved":false,"is_disabled":false,"rental_uris":{"android":"levelo://app?vid=9cabf8b0-cc43-452b-baee-3b50d49cc0d6","ios":"levelo://app?vid=9cabf8b0-cc43-452b-baee-3b50d49cc0d6"},"vehicle_type_id":"4","last_reported":1685902074,"current_range_meters":0,"station_id":"ce4bhap2rcd13ifvqek0","pricing_plan_id":"free"},{"bike_id":"13fdadd1-1fdd-4c93-a157-b819803a3a1e","system_id":"levelo_inurba_marseille","lat":43.29271,"lon":5.38448,"is_reserved":false,"is_disabled":false,"rental_uris":{"android":"levelo://app?vid=13fdadd1-1fdd-4c93-a157-b819803a3a1e","ios":"levelo://app?vid=13fdadd1-1fdd-4c93-a157-b819803a3a1e"},"vehicle_type_id":"4","last_reported":1685902074,"current_range_meters":10400,"station_id":"ce4bh692rcd13ifvqea0","pricing_plan_id":"free"},{"bike_id":"35dd443c-cd89-46cf-ab4e-172887add0a0","system_id":"levelo_inurba_marseille","lat":43.3043,"lon":5.39747,"is_reserved":false,"is_disabled":false,"rental_uris":{"android":"levelo://app?vid=35dd443c-cd89-46cf-ab4e-172887add0a0","ios":"levelo://app?vid=35dd443c-cd89-46cf-ab4e-172887add0a0"},"vehicle_type_id":"4","last_reported":1685902074,"current_range_meters":29600,"station_id":"ce4bh092rcd13ifvqd20","pricing_plan_id":"free"},{"bike_id":"0a8aba60-b51b-427d-be66-8709066b23d1","system_id":"levelo_inurba_marseille","lat":43.33286,"lon":5.38438,"is_reserved":false,"is_disabled":false,"rental_uris":{"android":"levelo://app?vid=0a8aba60-b51b-427d-be66-8709066b23d1","ios":"levelo://app?vid=0a8aba60-b51b-427d-be66-8709066b23d1"},"vehicle_type_id":"4","last_reported":1685902074,"current_range_meters":24800,"station_id":"","pricing_plan_id":"free"},{"bike_id":"2957d687-5216-40a7-a671-67d81a517d46","system_id":"levelo_inurba_marseille","lat":43.304274,"lon":5.397513,"is_reserved":false,"is_disabled":false,"rental_uris":{"android":"levelo://app?vid=2957d687-5216-40a7-a671-67d81a517d46","ios":"levelo://app?vid=2957d687-5216-40a7-a671-67d81a517d46"},"vehicle_type_id":"4","last_reported":1685902074,"current_range_meters":28000,"station_id":"ce4bh092rcd13ifvqd20","pricing_plan_id":"free"},{"bike_id":"e2b942e0-3901-4124-a71d-a8535684af38","system_id":"levelo_inurba_marseille","lat":43.33044,"lon":5.38916,"is_reserved":false,"is_disabled":false,"rental_uris":{"android":"levelo://app?vid=e2b942e0-3901-4124-a71d-a8535684af38","ios":"levelo://app?vid=e2b942e0-3901-4124-a71d-a8535684af38"},"vehicle_type_id":"4","last_reported":1685902074,"current_range_meters":25600,"station_id":"ce4bhr92rcd13ifvqhrg","pricing_plan_id":"free"},{"bike_id":"dcb00244-aef9-4eec-91cd-42ea75ebd82c","system_id":"levelo_inurba_marseille","lat":43.33056,"lon":5.3891,"is_reserved":false,"is_disabled":false,"rental_uris":{"android":"levelo://app?vid=dcb00244-aef9-4eec-91cd-42ea75ebd82c","ios":"levelo://app?vid=dcb00244-aef9-4eec-91cd-42ea75ebd82c"},"vehicle_type_id":"4","last_reported":1685902074,"current_range_meters":3200,"station_id":"ce4bhr92rcd13ifvqhrg","pricing_plan_id":"free"},{"bike_id":"2dc174f0-5f44-410c-875c-aaf1c1b46453","system_id":"levelo_inurba_marseille","lat":43.290995,"lon":5.381361,"is_reserved":false,"is_disabled":false,"rental_uris":{"android":"levelo://app?vid=2dc174f0-5f44-410c-875c-aaf1c1b46453","ios":"levelo://app?vid=2dc174f0-5f44-410c-875c-aaf1c1b46453"},"vehicle_type_id":"4","last_reported":1685902074,"current_range_meters":0,"station_id":"ce4bh512rcd13ifvqe2g","pricing_plan_id":"free"},{"bike_id":"cc0515e2-e002-49c5-96af-7bbd00775039","system_id":"levelo_inurba_marseille","lat":43.295169,"lon":5.390426,"is_reserved":false,"is_disabled":false,"rental_uris":{"android":"levelo://app?vid=cc0515e2-e002-49c5-96af-7bbd00775039","ios":"levelo://app?vid=cc0515e2-e002-49c5-96af-7bbd00775039"},"vehicle_type_id":"4","last_reported":1685902074,"current_range_meters":6800,"station_id":"ce4bh3p2rcd13ifvqdp0","pricing_plan_id":"free"},{"bike_id":"3216d070-dcab-4b5a-8197-6991b36861ad","system_id":"levelo_inurba_marseille","lat":43.281044,"lon":5.378308,"is_reserved":false,"is_disabled":false,"rental_uris":{"android":"levelo://app?vid=3216d070-dcab-4b5a-8197-6991b36861ad","ios":"levelo://app?vid=3216d070-dcab-4b5a-8197-6991b36861ad"},"vehicle_type_id":"4","last_reported":1685902074,"current_range_meters":31200,"station_id":"ce4bha12rcd13ifvqee0","pricing_plan_id":"free"},{"bike_id":"906c92d3-e27e-493a-a6d4-6f465d8a62b6","system_id":"levelo_inurba_marseille","lat":43.2902,"lon":5.38138,"is_reserved":false,"is_disabled":false,"rental_uris":{"android":"levelo://app?vid=906c92d3-e27e-493a-a6d4-6f465d8a62b6","ios":"levelo://app?vid=906c92d3-e27e-493a-a6d4-6f465d8a62b6"},"vehicle_type_id":"4","last_reported":1685902074,"current_range_meters":0,"station_id":"ce4bh4p2rcd13ifvqe1g","pricing_plan_id":"free"},{"bike_id":"445a4161-4713-46a3-af6d-ac4b658d5fb8","system_id":"levelo_inurba_marseille","lat":43.28856,"lon":5.358371,"is_reserved":false,"is_disabled":false,"rental_uris":{"android":"levelo://app?vid=445a4161-4713-46a3-af6d-ac4b658d5fb8","ios":"levelo://app?vid=445a4161-4713-46a3-af6d-ac4b658d5fb8"},"vehicle_type_id":"4","last_reported":1685902074,"current_range_meters":8400,"station_id":"ce4bhb12rcd13ifvqem0","pricing_plan_id":"free"},{"bike_id":"43fd744c-2a88-40e0-8cff-81a1b5ab87a5","system_id":"levelo_inurba_marseille","lat":43.28856,"lon":5.358371,"is_reserved":false,"is_disabled":false,"rental_uris":{"android":"levelo://app?vid=43fd744c-2a88-40e0-8cff-81a1b5ab87a5","ios":"levelo://app?vid=43fd744c-2a88-40e0-8cff-81a1b5ab87a5"},"vehicle_type_id":"4","last_reported":1685902074,"current_range_meters":20800,"station_id":"ce4bhb12rcd13ifvqem0","pricing_plan_id":"free"},{"bike_id":"57da526b-0952-4249-a379-e6f5262607a7","system_id":"levelo_inurba_marseille","lat":43.33748,"lon":5.37455,"is_reserved":false,"is_disabled":false,"rental_uris":{"android":"levelo://app?vid=57da526b-0952-4249-a379-e6f5262607a7","ios":"levelo://app?vid=57da526b-0952-4249-a379-e6f5262607a7"},"vehicle_type_id":"4","last_reported":1685902074,"current_range_meters":30800,"station_id":"","pricing_plan_id":"free"},{"bike_id":"675927e0-ab95-41a0-80be-7ee111a218f5","system_id":"levelo_inurba_marseille","lat":43.3375,"lon":5.37472,"is_reserved":false,"is_disabled":false,"rental_uris":{"android":"levelo://app?vid=675927e0-ab95-41a0-80be-7ee111a218f5","ios":"levelo://app?vid=675927e0-ab95-41a0-80be-7ee111a218f5"},"vehicle_type_id":"4","last_reported":1685902074,"current_range_meters":26800,"station_id":"","pricing_plan_id":"free"},{"bike_id":"cf0caa37-cec8-408b-98f7-37211a80813c","system_id":"levelo_inurba_marseille","lat":43.33764,"lon":5.37435,"is_reserved":false,"is_disabled":false,"rental_uris":{"android":"levelo://app?vid=cf0caa37-cec8-408b-98f7-37211a80813c","ios":"levelo://app?vid=cf0caa37-cec8-408b-98f7-37211a80813c"},"vehicle_type_id":"4","last_reported":1685902074,"current_range_meters":30000,"station_id":"","pricing_plan_id":"free"},{"bike_id":"fbb041b0-2cb2-4463-95a3-2e261d455f20","system_id":"levelo_inurba_marseille","lat":43.286695,"lon":5.363704,"is_reserved":false,"is_disabled":false,"rental_uris":{"android":"levelo://app?vid=fbb041b0-2cb2-4463-95a3-2e261d455f20","ios":"levelo://app?vid=fbb041b0-2cb2-4463-95a3-2e261d455f20"},"vehicle_type_id":"4","last_reported":1685902074,"current_range_meters":12400,"station_id":"","pricing_plan_id":"free"},{"bike_id":"91940b19-9cb8-476e-ab2f-057002efa683","system_id":"levelo_inurba_marseille","lat":43.286591,"lon":5.363346,"is_reserved":false,"is_disabled":false,"rental_uris":{"android":"levelo://app?vid=91940b19-9cb8-476e-ab2f-057002efa683","ios":"levelo://app?vid=91940b19-9cb8-476e-ab2f-057002efa683"},"vehicle_type_id":"4","last_reported":1685902074,"current_range_meters":0,"station_id":"ce4bhah2rcd13ifvqej0","pricing_plan_id":"free"},{"bike_id":"3f034842-de26-45f2-8daf-1f9e67468c5a","system_id":"levelo_inurba_marseille","lat":43.298681,"lon":5.397225,"is_reserved":false,"is_disabled":false,"rental_uris":{"android":"levelo://app?vid=3f034842-de26-45f2-8daf-1f9e67468c5a","ios":"levelo://app?vid=3f034842-de26-45f2-8daf-1f9e67468c5a"},"vehicle_type_id":"4","last_reported":1685902074,"current_range_meters":15200,"station_id":"ce4bh0h2rcd13ifvqd50","pricing_plan_id":"free"},{"bike_id":"25088032-83ce-4bc7-af7e-f682ead6132f","system_id":"levelo_inurba_marseille","lat":43.286591,"lon":5.363346,"is_reserved":false,"is_disabled":false,"rental_uris":{"android":"levelo://app?vid=25088032-83ce-4bc7-af7e-f682ead6132f","ios":"levelo://app?vid=25088032-83ce-4bc7-af7e-f682ead6132f"},"vehicle_type_id":"4","last_reported":1685902074,"current_range_meters":11200,"station_id":"ce4bhah2rcd13ifvqej0","pricing_plan_id":"free"},{"bike_id":"62ed84c2-cb8b-4acf-8c00-7076fc44bf83","system_id":"levelo_inurba_marseille","lat":43.30423,"lon":5.40116,"is_reserved":false,"is_disabled":false,"rental_uris":{"android":"levelo://app?vid=62ed84c2-cb8b-4acf-8c00-7076fc44bf83","ios":"levelo://app?vid=62ed84c2-cb8b-4acf-8c00-7076fc44bf83"},"vehicle_type_id":"4","last_reported":1685902074,"current_range_meters":11200,"station_id":"","pricing_plan_id":"free"},{"bike_id":"83fc0568-613b-4f3f-9188-1a7f634243c2","system_id":"levelo_inurba_marseille","lat":43.295194,"lon":5.39397,"is_reserved":false,"is_disabled":false,"rental_uris":{"android":"levelo://app?vid=83fc0568-613b-4f3f-9188-1a7f634243c2","ios":"levelo://app?vid=83fc0568-613b-4f3f-9188-1a7f634243c2"},"vehicle_type_id":"4","last_reported":1685902074,"current_range_meters":15600,"station_id":"ce4bh292rcd13ifvqdf0","pricing_plan_id":"free"},{"bike_id":"1d28b0a0-6fcc-4f8a-a103-f178676d3d71","system_id":"levelo_inurba_marseille","lat":43.295194,"lon":5.39397,"is_reserved":false,"is_disabled":false,"rental_uris":{"android":"levelo://app?vid=1d28b0a0-6fcc-4f8a-a103-f178676d3d71","ios":"levelo://app?vid=1d28b0a0-6fcc-4f8a-a103-f178676d3d71"},"vehicle_type_id":"4","last_reported":1685902074,"current_range_meters":13200,"station_id":"ce4bh292rcd13ifvqdf0","pricing_plan_id":"free"},{"bike_id":"02f84869-4b39-4d3b-ba9c-a151d55999f6","system_id":"levelo_inurba_marseille","lat":43.295194,"lon":5.39397,"is_reserved":false,"is_disabled":false,"rental_uris":{"android":"levelo://app?vid=02f84869-4b39-4d3b-ba9c-a151d55999f6","ios":"levelo://app?vid=02f84869-4b39-4d3b-ba9c-a151d55999f6"},"vehicle_type_id":"4","last_reported":1685902074,"current_range_meters":4000,"station_id":"ce4bh292rcd13ifvqdf0","pricing_plan_id":"free"},{"bike_id":"eeac8bb1-1e95-4e78-8eda-cdd0baf01c10","system_id":"levelo_inurba_marseille","lat":43.290345,"lon":5.38646,"is_reserved":false,"is_disabled":false,"rental_uris":{"android":"levelo://app?vid=eeac8bb1-1e95-4e78-8eda-cdd0baf01c10","ios":"levelo://app?vid=eeac8bb1-1e95-4e78-8eda-cdd0baf01c10"},"vehicle_type_id":"4","last_reported":1685902074,"current_range_meters":12400,"station_id":"ce4bh4p2rcd13ifvqe0g","pricing_plan_id":"free"},{"bike_id":"8fdb5cfb-aab0-4682-9635-4a84cd4adf81","system_id":"levelo_inurba_marseille","lat":43.290336,"lon":5.386425,"is_reserved":false,"is_disabled":false,"rental_uris":{"android":"levelo://app?vid=8fdb5cfb-aab0-4682-9635-4a84cd4adf81","ios":"levelo://app?vid=8fdb5cfb-aab0-4682-9635-4a84cd4adf81"},"vehicle_type_id":"4","last_reported":1685902074,"current_range_meters":31600,"station_id":"ce4bh4p2rcd13ifvqe0g","pricing_plan_id":"free"},{"bike_id":"4cd5c6ce-b670-4fd7-830b-993543ff6140","system_id":"levelo_inurba_marseille","lat":43.302759,"lon":5.400793,"is_reserved":false,"is_disabled":false,"rental_uris":{"android":"levelo://app?vid=4cd5c6ce-b670-4fd7-830b-993543ff6140","ios":"levelo://app?vid=4cd5c6ce-b670-4fd7-830b-993543ff6140"},"vehicle_type_id":"4","last_reported":1685902074,"current_range_meters":22800,"station_id":"ce4bgvh2rcd13ifvqcs0","pricing_plan_id":"free"},{"bike_id":"c4f4c550-39d1-4851-9f37-ceef0c5779cf","system_id":"levelo_inurba_marseille","lat":43.290336,"lon":5.386425,"is_reserved":false,"is_disabled":false,"rental_uris":{"android":"levelo://app?vid=c4f4c550-39d1-4851-9f37-ceef0c5779cf","ios":"levelo://app?vid=c4f4c550-39d1-4851-9f37-ceef0c5779cf"},"vehicle_type_id":"4","last_reported":1685902074,"current_range_meters":4800,"station_id":"ce4bh4p2rcd13ifvqe0g","pricing_plan_id":"free"},{"bike_id":"e587e854-8f6e-4412-9df9-e3fcc9d5bcc2","system_id":"levelo_inurba_marseille","lat":43.290345,"lon":5.38646,"is_reserved":false,"is_disabled":false,"rental_uris":{"android":"levelo://app?vid=e587e854-8f6e-4412-9df9-e3fcc9d5bcc2","ios":"levelo://app?vid=e587e854-8f6e-4412-9df9-e3fcc9d5bcc2"},"vehicle_type_id":"4","last_reported":1685902074,"current_range_meters":4000,"station_id":"ce4bh4p2rcd13ifvqe0g","pricing_plan_id":"free"},{"bike_id":"6f282e7e-b581-4816-9f2f-db5680c51e7c","system_id":"levelo_inurba_marseille","lat":43.290336,"lon":5.386425,"is_reserved":false,"is_disabled":false,"rental_uris":{"android":"levelo://app?vid=6f282e7e-b581-4816-9f2f-db5680c51e7c","ios":"levelo://app?vid=6f282e7e-b581-4816-9f2f-db5680c51e7c"},"vehicle_type_id":"4","last_reported":1685902074,"current_range_meters":22000,"station_id":"ce4bh4p2rcd13ifvqe0g","pricing_plan_id":"free"},{"bike_id":"7ad072f6-d7da-458b-b43d-406616bb4ebd","system_id":"levelo_inurba_marseille","lat":43.286039,"lon":5.370679,"is_reserved":false,"is_disabled":false,"rental_uris":{"android":"levelo://app?vid=7ad072f6-d7da-458b-b43d-406616bb4ebd","ios":"levelo://app?vid=7ad072f6-d7da-458b-b43d-406616bb4ebd"},"vehicle_type_id":"4","last_reported":1685902074,"current_range_meters":27600,"station_id":"ce4bht12rcd13ifvqi60","pricing_plan_id":"free"},{"bike_id":"c16c3e2d-258d-44fb-9594-35b9b1f1917d","system_id":"levelo_inurba_marseille","lat":43.286039,"lon":5.370681,"is_reserved":false,"is_disabled":false,"rental_uris":{"android":"levelo://app?vid=c16c3e2d-258d-44fb-9594-35b9b1f1917d","ios":"levelo://app?vid=c16c3e2d-258d-44fb-9594-35b9b1f1917d"},"vehicle_type_id":"4","last_reported":1685902074,"current_range_meters":1200,"station_id":"ce4bht12rcd13ifvqi60","pricing_plan_id":"free"},{"bike_id":"6ebdbf5f-dad0-4a4c-9ac5-6af7ed0fd1b8","system_id":"levelo_inurba_marseille","lat":43.291994,"lon":5.392907,"is_reserved":false,"is_disabled":false,"rental_uris":{"android":"levelo://app?vid=6ebdbf5f-dad0-4a4c-9ac5-6af7ed0fd1b8","ios":"levelo://app?vid=6ebdbf5f-dad0-4a4c-9ac5-6af7ed0fd1b8"},"vehicle_type_id":"4","last_reported":1685902074,"current_range_meters":14000,"station_id":"ce4bh192rcd13ifvqdd0","pricing_plan_id":"free"},{"bike_id":"100d750c-fdc2-44ee-a29e-7ee417505009","system_id":"levelo_inurba_marseille","lat":43.28699,"lon":5.38257,"is_reserved":false,"is_disabled":false,"rental_uris":{"android":"levelo://app?vid=100d750c-fdc2-44ee-a29e-7ee417505009","ios":"levelo://app?vid=100d750c-fdc2-44ee-a29e-7ee417505009"},"vehicle_type_id":"4","last_reported":1685902074,"current_range_meters":12800,"station_id":"","pricing_plan_id":"free"},{"bike_id":"ec9dcbab-1970-4d9f-ae5d-b4809d8b5769","system_id":"levelo_inurba_marseille","lat":43.29197,"lon":5.39333,"is_reserved":false,"is_disabled":false,"rental_uris":{"android":"levelo://app?vid=ec9dcbab-1970-4d9f-ae5d-b4809d8b5769","ios":"levelo://app?vid=ec9dcbab-1970-4d9f-ae5d-b4809d8b5769"},"vehicle_type_id":"4","last_reported":1685902074,"current_range_meters":0,"station_id":"","pricing_plan_id":"free"},{"bike_id":"a6098268-d701-445a-9fdd-821257ff1763","system_id":"levelo_inurba_marseille","lat":43.284534,"lon":5.358662,"is_reserved":false,"is_disabled":false,"rental_uris":{"android":"levelo://app?vid=a6098268-d701-445a-9fdd-821257ff1763","ios":"levelo://app?vid=a6098268-d701-445a-9fdd-821257ff1763"},"vehicle_type_id":"4","last_reported":1685902074,"current_range_meters":12400,"station_id":"ce4bhah2rcd13ifvqei0","pricing_plan_id":"free"},{"bike_id":"86e2274d-af4c-4951-b744-4a9cf0923491","system_id":"levelo_inurba_marseille","lat":43.28467,"lon":5.35885,"is_reserved":false,"is_disabled":false,"rental_uris":{"android":"levelo://app?vid=86e2274d-af4c-4951-b744-4a9cf0923491","ios":"levelo://app?vid=86e2274d-af4c-4951-b744-4a9cf0923491"},"vehicle_type_id":"4","last_reported":1685902074,"current_range_meters":22400,"station_id":"ce4bhah2rcd13ifvqei0","pricing_plan_id":"free"},{"bike_id":"d3837176-d3c5-4293-9c1c-a4917459f093","system_id":"levelo_inurba_marseille","lat":43.284534,"lon":5.358662,"is_reserved":false,"is_disabled":false,"rental_uris":{"android":"levelo://app?vid=d3837176-d3c5-4293-9c1c-a4917459f093","ios":"levelo://app?vid=d3837176-d3c5-4293-9c1c-a4917459f093"},"vehicle_type_id":"4","last_reported":1685902074,"current_range_meters":22800,"station_id":"ce4bhah2rcd13ifvqei0","pricing_plan_id":"free"},{"bike_id":"d081522b-b85c-4538-8fba-6cf0d7e1aae6","system_id":"levelo_inurba_marseille","lat":43.284534,"lon":5.358662,"is_reserved":false,"is_disabled":false,"rental_uris":{"android":"levelo://app?vid=d081522b-b85c-4538-8fba-6cf0d7e1aae6","ios":"levelo://app?vid=d081522b-b85c-4538-8fba-6cf0d7e1aae6"},"vehicle_type_id":"4","last_reported":1685902074,"current_range_meters":9600,"station_id":"ce4bhah2rcd13ifvqei0","pricing_plan_id":"free"},{"bike_id":"bb1d9813-5edd-4688-85ef-dce21b98b6a8","system_id":"levelo_inurba_marseille","lat":43.28459,"lon":5.35888,"is_reserved":false,"is_disabled":false,"rental_uris":{"android":"levelo://app?vid=bb1d9813-5edd-4688-85ef-dce21b98b6a8","ios":"levelo://app?vid=bb1d9813-5edd-4688-85ef-dce21b98b6a8"},"vehicle_type_id":"4","last_reported":1685902074,"current_range_meters":0,"station_id":"ce4bhah2rcd13ifvqei0","pricing_plan_id":"free"},{"bike_id":"6be19690-cf5c-4119-820e-cf31ce24d5cf","system_id":"levelo_inurba_marseille","lat":43.284534,"lon":5.358662,"is_reserved":false,"is_disabled":false,"rental_uris":{"android":"levelo://app?vid=6be19690-cf5c-4119-820e-cf31ce24d5cf","ios":"levelo://app?vid=6be19690-cf5c-4119-820e-cf31ce24d5cf"},"vehicle_type_id":"4","last_reported":1685902074,"current_range_meters":20800,"station_id":"ce4bhah2rcd13ifvqei0","pricing_plan_id":"free"},{"bike_id":"5ed828d1-6d0e-40ba-b9be-d15a7ac2035e","system_id":"levelo_inurba_marseille","lat":43.284534,"lon":5.358662,"is_reserved":false,"is_disabled":false,"rental_uris":{"android":"levelo://app?vid=5ed828d1-6d0e-40ba-b9be-d15a7ac2035e","ios":"levelo://app?vid=5ed828d1-6d0e-40ba-b9be-d15a7ac2035e"},"vehicle_type_id":"4","last_reported":1685902074,"current_range_meters":12400,"station_id":"ce4bhah2rcd13ifvqei0","pricing_plan_id":"free"},{"bike_id":"7392decf-cddc-4c09-bf06-b28f25cda639","system_id":"levelo_inurba_marseille","lat":43.286595,"lon":5.386795,"is_reserved":false,"is_disabled":false,"rental_uris":{"android":"levelo://app?vid=7392decf-cddc-4c09-bf06-b28f25cda639","ios":"levelo://app?vid=7392decf-cddc-4c09-bf06-b28f25cda639"},"vehicle_type_id":"4","last_reported":1685902074,"current_range_meters":31600,"station_id":"ce4bh492rcd13ifvqdug","pricing_plan_id":"free"},{"bike_id":"d8ba8281-79b9-483c-8516-70fca98dc6be","system_id":"levelo_inurba_marseille","lat":43.286595,"lon":5.386795,"is_reserved":false,"is_disabled":false,"rental_uris":{"android":"levelo://app?vid=d8ba8281-79b9-483c-8516-70fca98dc6be","ios":"levelo://app?vid=d8ba8281-79b9-483c-8516-70fca98dc6be"},"vehicle_type_id":"4","last_reported":1685902074,"current_range_meters":11600,"station_id":"ce4bh492rcd13ifvqdug","pricing_plan_id":"free"},{"bike_id":"8d0212f1-fe44-42f5-8d3a-89b7c44593fb","system_id":"levelo_inurba_marseille","lat":43.286595,"lon":5.386795,"is_reserved":false,"is_disabled":false,"rental_uris":{"android":"levelo://app?vid=8d0212f1-fe44-42f5-8d3a-89b7c44593fb","ios":"levelo://app?vid=8d0212f1-fe44-42f5-8d3a-89b7c44593fb"},"vehicle_type_id":"4","last_reported":1685902074,"current_range_meters":23200,"station_id":"ce4bh492rcd13ifvqdug","pricing_plan_id":"free"},{"bike_id":"d3fcddc3-da99-4749-babe-9c44e0da430f","system_id":"levelo_inurba_marseille","lat":43.29062,"lon":5.3945,"is_reserved":false,"is_disabled":false,"rental_uris":{"android":"levelo://app?vid=d3fcddc3-da99-4749-babe-9c44e0da430f","ios":"levelo://app?vid=d3fcddc3-da99-4749-babe-9c44e0da430f"},"vehicle_type_id":"4","last_reported":1685902074,"current_range_meters":21200,"station_id":"","pricing_plan_id":"free"},{"bike_id":"ca308f8d-733f-499e-85e9-b84978d8a7ba","system_id":"levelo_inurba_marseille","lat":43.323464,"lon":5.406297,"is_reserved":false,"is_disabled":false,"rental_uris":{"android":"levelo://app?vid=ca308f8d-733f-499e-85e9-b84978d8a7ba","ios":"levelo://app?vid=ca308f8d-733f-499e-85e9-b84978d8a7ba"},"vehicle_type_id":"4","last_reported":1685902074,"current_range_meters":3600,"station_id":"ce4bhq92rcd13ifvqhjg","pricing_plan_id":"free"},{"bike_id":"b205e703-9cc6-479d-b47b-dcec15459f4d","system_id":"levelo_inurba_marseille","lat":43.32659,"lon":5.4042,"is_reserved":false,"is_disabled":false,"rental_uris":{"android":"levelo://app?vid=b205e703-9cc6-479d-b47b-dcec15459f4d","ios":"levelo://app?vid=b205e703-9cc6-479d-b47b-dcec15459f4d"},"vehicle_type_id":"4","last_reported":1685902074,"current_range_meters":12400,"station_id":"","pricing_plan_id":"free"},{"bike_id":"1167c382-abdb-47e7-91f5-c84a5c6490c2","system_id":"levelo_inurba_marseille","lat":43.284787,"lon":5.384116,"is_reserved":false,"is_disabled":false,"rental_uris":{"android":"levelo://app?vid=1167c382-abdb-47e7-91f5-c84a5c6490c2","ios":"levelo://app?vid=1167c382-abdb-47e7-91f5-c84a5c6490c2"},"vehicle_type_id":"4","last_reported":1685902074,"current_range_meters":16800,"station_id":"ce4bh512rcd13ifvqe3g","pricing_plan_id":"free"},{"bike_id":"8439e558-f9c6-4e5b-a93d-7b06590cd09f","system_id":"levelo_inurba_marseille","lat":43.284787,"lon":5.384116,"is_reserved":false,"is_disabled":false,"rental_uris":{"android":"levelo://app?vid=8439e558-f9c6-4e5b-a93d-7b06590cd09f","ios":"levelo://app?vid=8439e558-f9c6-4e5b-a93d-7b06590cd09f"},"vehicle_type_id":"4","last_reported":1685902074,"current_range_meters":2000,"station_id":"ce4bh512rcd13ifvqe3g","pricing_plan_id":"free"},{"bike_id":"9c19ca2e-4108-437d-858e-4951e338cf3d","system_id":"levelo_inurba_marseille","lat":43.284787,"lon":5.384116,"is_reserved":false,"is_disabled":false,"rental_uris":{"android":"levelo://app?vid=9c19ca2e-4108-437d-858e-4951e338cf3d","ios":"levelo://app?vid=9c19ca2e-4108-437d-858e-4951e338cf3d"},"vehicle_type_id":"4","last_reported":1685902074,"current_range_meters":24800,"station_id":"ce4bh512rcd13ifvqe3g","pricing_plan_id":"free"},{"bike_id":"aea1d5a6-3133-4c11-8fcc-b053e4063edc","system_id":"levelo_inurba_marseille","lat":43.288497,"lon":5.393089,"is_reserved":false,"is_disabled":false,"rental_uris":{"android":"levelo://app?vid=aea1d5a6-3133-4c11-8fcc-b053e4063edc","ios":"levelo://app?vid=aea1d5a6-3133-4c11-8fcc-b053e4063edc"},"vehicle_type_id":"4","last_reported":1685902074,"current_range_meters":25600,"station_id":"ce4bh2p2rcd13ifvqdi0","pricing_plan_id":"free"},{"bike_id":"1ef40d00-65a8-4fdd-b259-121d2e830078","system_id":"levelo_inurba_marseille","lat":43.288501,"lon":5.393087,"is_reserved":false,"is_disabled":false,"rental_uris":{"android":"levelo://app?vid=1ef40d00-65a8-4fdd-b259-121d2e830078","ios":"levelo://app?vid=1ef40d00-65a8-4fdd-b259-121d2e830078"},"vehicle_type_id":"4","last_reported":1685902074,"current_range_meters":14800,"station_id":"ce4bh2p2rcd13ifvqdi0","pricing_plan_id":"free"},{"bike_id":"294f6526-da0b-4ceb-bb6f-97d64d01205c","system_id":"levelo_inurba_marseille","lat":43.288501,"lon":5.393087,"is_reserved":false,"is_disabled":false,"rental_uris":{"android":"levelo://app?vid=294f6526-da0b-4ceb-bb6f-97d64d01205c","ios":"levelo://app?vid=294f6526-da0b-4ceb-bb6f-97d64d01205c"},"vehicle_type_id":"4","last_reported":1685902074,"current_range_meters":28800,"station_id":"ce4bh2p2rcd13ifvqdi0","pricing_plan_id":"free"},{"bike_id":"8171c6c1-be1e-421a-aaec-cf03a0fdba91","system_id":"levelo_inurba_marseille","lat":43.283498,"lon":5.380948,"is_reserved":false,"is_disabled":false,"rental_uris":{"android":"levelo://app?vid=8171c6c1-be1e-421a-aaec-cf03a0fdba91","ios":"levelo://app?vid=8171c6c1-be1e-421a-aaec-cf03a0fdba91"},"vehicle_type_id":"4","last_reported":1685902074,"current_range_meters":15600,"station_id":"ce4bh412rcd13ifvqdr0","pricing_plan_id":"free"},{"bike_id":"302aec5d-6027-40c2-b6fe-9955b86b31df","system_id":"levelo_inurba_marseille","lat":43.283498,"lon":5.380948,"is_reserved":false,"is_disabled":false,"rental_uris":{"android":"levelo://app?vid=302aec5d-6027-40c2-b6fe-9955b86b31df","ios":"levelo://app?vid=302aec5d-6027-40c2-b6fe-9955b86b31df"},"vehicle_type_id":"4","last_reported":1685902074,"current_range_meters":14400,"station_id":"ce4bh412rcd13ifvqdr0","pricing_plan_id":"free"},{"bike_id":"26693c7e-7032-453d-9a7e-e1759bc618cd","system_id":"levelo_inurba_marseille","lat":43.283498,"lon":5.380948,"is_reserved":false,"is_disabled":false,"rental_uris":{"android":"levelo://app?vid=26693c7e-7032-453d-9a7e-e1759bc618cd","ios":"levelo://app?vid=26693c7e-7032-453d-9a7e-e1759bc618cd"},"vehicle_type_id":"4","last_reported":1685902074,"current_range_meters":22400,"station_id":"ce4bh412rcd13ifvqdr0","pricing_plan_id":"free"},{"bike_id":"dde2c88f-e9ea-471b-ba0c-2d1fb7eae334","system_id":"levelo_inurba_marseille","lat":43.283498,"lon":5.380948,"is_reserved":false,"is_disabled":false,"rental_uris":{"android":"levelo://app?vid=dde2c88f-e9ea-471b-ba0c-2d1fb7eae334","ios":"levelo://app?vid=dde2c88f-e9ea-471b-ba0c-2d1fb7eae334"},"vehicle_type_id":"4","last_reported":1685902074,"current_range_meters":29200,"station_id":"ce4bh412rcd13ifvqdr0","pricing_plan_id":"free"},{"bike_id":"12534ff0-901f-4ad5-ae27-56b51d745162","system_id":"levelo_inurba_marseille","lat":43.284219,"lon":5.3497,"is_reserved":false,"is_disabled":false,"rental_uris":{"android":"levelo://app?vid=12534ff0-901f-4ad5-ae27-56b51d745162","ios":"levelo://app?vid=12534ff0-901f-4ad5-ae27-56b51d745162"},"vehicle_type_id":"4","last_reported":1685902074,"current_range_meters":14400,"station_id":"ce4bhbh2rcd13ifvqepg","pricing_plan_id":"free"},{"bike_id":"4e7ad619-c3a8-4128-97c5-6ecdac30dff9","system_id":"levelo_inurba_marseille","lat":43.292724,"lon":5.401131,"is_reserved":false,"is_disabled":false,"rental_uris":{"android":"levelo://app?vid=4e7ad619-c3a8-4128-97c5-6ecdac30dff9","ios":"levelo://app?vid=4e7ad619-c3a8-4128-97c5-6ecdac30dff9"},"vehicle_type_id":"4","last_reported":1685902074,"current_range_meters":26800,"station_id":"ce4bh312rcd13ifvqdk0","pricing_plan_id":"free"},{"bike_id":"f22b645e-9664-4751-b4aa-a7986d323397","system_id":"levelo_inurba_marseille","lat":43.29289,"lon":5.40122,"is_reserved":false,"is_disabled":false,"rental_uris":{"android":"levelo://app?vid=f22b645e-9664-4751-b4aa-a7986d323397","ios":"levelo://app?vid=f22b645e-9664-4751-b4aa-a7986d323397"},"vehicle_type_id":"4","last_reported":1685902074,"current_range_meters":18400,"station_id":"ce4bh312rcd13ifvqdk0","pricing_plan_id":"free"},{"bike_id":"bd5b74f0-aefd-4778-badd-601ef5a321cd","system_id":"levelo_inurba_marseille","lat":43.29282,"lon":5.40115,"is_reserved":false,"is_disabled":false,"rental_uris":{"android":"levelo://app?vid=bd5b74f0-aefd-4778-badd-601ef5a321cd","ios":"levelo://app?vid=bd5b74f0-aefd-4778-badd-601ef5a321cd"},"vehicle_type_id":"4","last_reported":1685902074,"current_range_meters":4400,"station_id":"ce4bh312rcd13ifvqdk0","pricing_plan_id":"free"},{"bike_id":"145e5cd8-cd84-459b-869a-592467798957","system_id":"levelo_inurba_marseille","lat":43.283502,"lon":5.386471,"is_reserved":false,"is_disabled":false,"rental_uris":{"android":"levelo://app?vid=145e5cd8-cd84-459b-869a-592467798957","ios":"levelo://app?vid=145e5cd8-cd84-459b-869a-592467798957"},"vehicle_type_id":"4","last_reported":1685902074,"current_range_meters":7200,"station_id":"ce4bh492rcd13ifvqdvg","pricing_plan_id":"free"},{"bike_id":"8ec633f5-b48c-4ad4-8234-b6a9e33abd44","system_id":"levelo_inurba_marseille","lat":43.28039,"lon":5.36947,"is_reserved":false,"is_disabled":false,"rental_uris":{"android":"levelo://app?vid=8ec633f5-b48c-4ad4-8234-b6a9e33abd44","ios":"levelo://app?vid=8ec633f5-b48c-4ad4-8234-b6a9e33abd44"},"vehicle_type_id":"4","last_reported":1685902074,"current_range_meters":12800,"station_id":"ce4bha12rcd13ifvqef0","pricing_plan_id":"free"},{"bike_id":"79a0f57b-eb40-42e3-8d4f-98c5c0c93839","system_id":"levelo_inurba_marseille","lat":43.290412,"lon":5.399633,"is_reserved":false,"is_disabled":false,"rental_uris":{"android":"levelo://app?vid=79a0f57b-eb40-42e3-8d4f-98c5c0c93839","ios":"levelo://app?vid=79a0f57b-eb40-42e3-8d4f-98c5c0c93839"},"vehicle_type_id":"4","last_reported":1685902074,"current_range_meters":12000,"station_id":"ce4bh392rcd13ifvqdm0","pricing_plan_id":"free"},{"bike_id":"ccae4552-7fd2-4cc5-b1fb-e50cfed3f259","system_id":"levelo_inurba_marseille","lat":43.29041,"lon":5.399634,"is_reserved":false,"is_disabled":false,"rental_uris":{"android":"levelo://app?vid=ccae4552-7fd2-4cc5-b1fb-e50cfed3f259","ios":"levelo://app?vid=ccae4552-7fd2-4cc5-b1fb-e50cfed3f259"},"vehicle_type_id":"4","last_reported":1685902074,"current_range_meters":10000,"station_id":"ce4bh392rcd13ifvqdm0","pricing_plan_id":"free"},{"bike_id":"aac237f6-39da-4ee5-944a-fdd18691f12c","system_id":"levelo_inurba_marseille","lat":43.284462,"lon":5.392121,"is_reserved":false,"is_disabled":false,"rental_uris":{"android":"levelo://app?vid=aac237f6-39da-4ee5-944a-fdd18691f12c","ios":"levelo://app?vid=aac237f6-39da-4ee5-944a-fdd18691f12c"},"vehicle_type_id":"4","last_reported":1685902074,"current_range_meters":23600,"station_id":"ce4bhoh2rcd13ifvqh5g","pricing_plan_id":"free"},{"bike_id":"db770889-841e-4da3-a06a-b49d371e26e1","system_id":"levelo_inurba_marseille","lat":43.284462,"lon":5.392121,"is_reserved":false,"is_disabled":false,"rental_uris":{"android":"levelo://app?vid=db770889-841e-4da3-a06a-b49d371e26e1","ios":"levelo://app?vid=db770889-841e-4da3-a06a-b49d371e26e1"},"vehicle_type_id":"4","last_reported":1685902074,"current_range_meters":26400,"station_id":"ce4bhoh2rcd13ifvqh5g","pricing_plan_id":"free"},{"bike_id":"cd64c398-67c1-49b7-a2fe-5e7627b2a379","system_id":"levelo_inurba_marseille","lat":43.27905,"lon":5.3801,"is_reserved":false,"is_disabled":false,"rental_uris":{"android":"levelo://app?vid=cd64c398-67c1-49b7-a2fe-5e7627b2a379","ios":"levelo://app?vid=cd64c398-67c1-49b7-a2fe-5e7627b2a379"},"vehicle_type_id":"4","last_reported":1685902074,"current_range_meters":4000,"station_id":"","pricing_plan_id":"free"},{"bike_id":"a1087086-74df-49f8-ba06-0ad48a59311c","system_id":"levelo_inurba_marseille","lat":43.287154,"lon":5.399979,"is_reserved":false,"is_disabled":false,"rental_uris":{"android":"levelo://app?vid=a1087086-74df-49f8-ba06-0ad48a59311c","ios":"levelo://app?vid=a1087086-74df-49f8-ba06-0ad48a59311c"},"vehicle_type_id":"4","last_reported":1685902074,"current_range_meters":24800,"station_id":"ce4bho92rcd13ifvqh3g","pricing_plan_id":"free"},{"bike_id":"90bba347-a77d-4079-939e-cb26e4e3ebc0","system_id":"levelo_inurba_marseille","lat":43.320045,"lon":5.415046,"is_reserved":false,"is_disabled":false,"rental_uris":{"android":"levelo://app?vid=90bba347-a77d-4079-939e-cb26e4e3ebc0","ios":"levelo://app?vid=90bba347-a77d-4079-939e-cb26e4e3ebc0"},"vehicle_type_id":"4","last_reported":1685902074,"current_range_meters":25200,"station_id":"ce4bhq92rcd13ifvqhkg","pricing_plan_id":"free"},{"bike_id":"f3fe6d10-5bd1-464a-a33e-b928a7c130db","system_id":"levelo_inurba_marseille","lat":43.320045,"lon":5.415046,"is_reserved":false,"is_disabled":false,"rental_uris":{"android":"levelo://app?vid=f3fe6d10-5bd1-464a-a33e-b928a7c130db","ios":"levelo://app?vid=f3fe6d10-5bd1-464a-a33e-b928a7c130db"},"vehicle_type_id":"4","last_reported":1685902074,"current_range_meters":22000,"station_id":"ce4bhq92rcd13ifvqhkg","pricing_plan_id":"free"},{"bike_id":"d0af90bf-a9d6-4e0a-bb03-ec3a7c4a21ff","system_id":"levelo_inurba_marseille","lat":43.320045,"lon":5.415046,"is_reserved":false,"is_disabled":false,"rental_uris":{"android":"levelo://app?vid=d0af90bf-a9d6-4e0a-bb03-ec3a7c4a21ff","ios":"levelo://app?vid=d0af90bf-a9d6-4e0a-bb03-ec3a7c4a21ff"},"vehicle_type_id":"4","last_reported":1685902074,"current_range_meters":32000,"station_id":"ce4bhq92rcd13ifvqhkg","pricing_plan_id":"free"},{"bike_id":"8f583682-bb3f-4a61-94d0-accd616865d0","system_id":"levelo_inurba_marseille","lat":43.320045,"lon":5.415048,"is_reserved":false,"is_disabled":false,"rental_uris":{"android":"levelo://app?vid=8f583682-bb3f-4a61-94d0-accd616865d0","ios":"levelo://app?vid=8f583682-bb3f-4a61-94d0-accd616865d0"},"vehicle_type_id":"4","last_reported":1685902074,"current_range_meters":22800,"station_id":"ce4bhq92rcd13ifvqhkg","pricing_plan_id":"free"},{"bike_id":"661f23f0-38d1-4d63-96a6-2638b4e4974e","system_id":"levelo_inurba_marseille","lat":43.320045,"lon":5.415048,"is_reserved":false,"is_disabled":false,"rental_uris":{"android":"levelo://app?vid=661f23f0-38d1-4d63-96a6-2638b4e4974e","ios":"levelo://app?vid=661f23f0-38d1-4d63-96a6-2638b4e4974e"},"vehicle_type_id":"4","last_reported":1685902074,"current_range_meters":19200,"station_id":"ce4bhq92rcd13ifvqhkg","pricing_plan_id":"free"},{"bike_id":"0c739346-4d08-4d79-a607-c879a11b59ec","system_id":"levelo_inurba_marseille","lat":43.32048,"lon":5.41551,"is_reserved":false,"is_disabled":false,"rental_uris":{"android":"levelo://app?vid=0c739346-4d08-4d79-a607-c879a11b59ec","ios":"levelo://app?vid=0c739346-4d08-4d79-a607-c879a11b59ec"},"vehicle_type_id":"4","last_reported":1685902074,"current_range_meters":29600,"station_id":"","pricing_plan_id":"free"},{"bike_id":"d87c4170-9846-4bf6-aec8-6aaf25824d18","system_id":"levelo_inurba_marseille","lat":43.320336,"lon":5.415704,"is_reserved":false,"is_disabled":false,"rental_uris":{"android":"levelo://app?vid=d87c4170-9846-4bf6-aec8-6aaf25824d18","ios":"levelo://app?vid=d87c4170-9846-4bf6-aec8-6aaf25824d18"},"vehicle_type_id":"4","last_reported":1685902074,"current_range_meters":12000,"station_id":"","pricing_plan_id":"free"},{"bike_id":"15292a35-debd-4d55-ab66-e14fe147b2b9","system_id":"levelo_inurba_marseille","lat":43.32039,"lon":5.41571,"is_reserved":false,"is_disabled":false,"rental_uris":{"android":"levelo://app?vid=15292a35-debd-4d55-ab66-e14fe147b2b9","ios":"levelo://app?vid=15292a35-debd-4d55-ab66-e14fe147b2b9"},"vehicle_type_id":"4","last_reported":1685902074,"current_range_meters":31200,"station_id":"","pricing_plan_id":"free"},{"bike_id":"85080033-a16e-4ce2-a186-35d0563746cb","system_id":"levelo_inurba_marseille","lat":43.32042,"lon":5.41571,"is_reserved":false,"is_disabled":false,"rental_uris":{"android":"levelo://app?vid=85080033-a16e-4ce2-a186-35d0563746cb","ios":"levelo://app?vid=85080033-a16e-4ce2-a186-35d0563746cb"},"vehicle_type_id":"4","last_reported":1685902074,"current_range_meters":29600,"station_id":"","pricing_plan_id":"free"},{"bike_id":"ae6cf5cf-9fd5-42c0-8466-eb012fc96d25","system_id":"levelo_inurba_marseille","lat":43.32045,"lon":5.41574,"is_reserved":false,"is_disabled":false,"rental_uris":{"android":"levelo://app?vid=ae6cf5cf-9fd5-42c0-8466-eb012fc96d25","ios":"levelo://app?vid=ae6cf5cf-9fd5-42c0-8466-eb012fc96d25"},"vehicle_type_id":"4","last_reported":1685902074,"current_range_meters":31200,"station_id":"","pricing_plan_id":"free"},{"bike_id":"781b2f7b-81ba-4c34-9163-b045dafe359c","system_id":"levelo_inurba_marseille","lat":43.32045,"lon":5.41575,"is_reserved":false,"is_disabled":false,"rental_uris":{"android":"levelo://app?vid=781b2f7b-81ba-4c34-9163-b045dafe359c","ios":"levelo://app?vid=781b2f7b-81ba-4c34-9163-b045dafe359c"},"vehicle_type_id":"4","last_reported":1685902074,"current_range_meters":30800,"station_id":"","pricing_plan_id":"free"},{"bike_id":"bc4dc0e7-b26e-44c4-b47d-2893123703b2","system_id":"levelo_inurba_marseille","lat":43.3205,"lon":5.41577,"is_reserved":false,"is_disabled":false,"rental_uris":{"android":"levelo://app?vid=bc4dc0e7-b26e-44c4-b47d-2893123703b2","ios":"levelo://app?vid=bc4dc0e7-b26e-44c4-b47d-2893123703b2"},"vehicle_type_id":"4","last_reported":1685902074,"current_range_meters":31200,"station_id":"","pricing_plan_id":"free"},{"bike_id":"49bbb6a5-dd81-4f34-a99d-2b227a08bc7c","system_id":"levelo_inurba_marseille","lat":43.292571,"lon":5.409107,"is_reserved":false,"is_disabled":false,"rental_uris":{"android":"levelo://app?vid=49bbb6a5-dd81-4f34-a99d-2b227a08bc7c","ios":"levelo://app?vid=49bbb6a5-dd81-4f34-a99d-2b227a08bc7c"},"vehicle_type_id":"4","last_reported":1685902074,"current_range_meters":5200,"station_id":"ce4bh192rcd13ifvqdc0","pricing_plan_id":"free"},{"bike_id":"b81bb189-f832-4d89-b6fc-c090d5608f89","system_id":"levelo_inurba_marseille","lat":43.27618,"lon":5.361009,"is_reserved":false,"is_disabled":false,"rental_uris":{"android":"levelo://app?vid=b81bb189-f832-4d89-b6fc-c090d5608f89","ios":"levelo://app?vid=b81bb189-f832-4d89-b6fc-c090d5608f89"},"vehicle_type_id":"4","last_reported":1685902074,"current_range_meters":8800,"station_id":"ce4bgj92rcd13ifvqbe0","pricing_plan_id":"free"},{"bike_id":"a6712b89-d487-4a8e-8db7-a8c40dcbf8b0","system_id":"levelo_inurba_marseille","lat":43.276179,"lon":5.361009,"is_reserved":false,"is_disabled":false,"rental_uris":{"android":"levelo://app?vid=a6712b89-d487-4a8e-8db7-a8c40dcbf8b0","ios":"levelo://app?vid=a6712b89-d487-4a8e-8db7-a8c40dcbf8b0"},"vehicle_type_id":"4","last_reported":1685902074,"current_range_meters":7200,"station_id":"ce4bgj92rcd13ifvqbe0","pricing_plan_id":"free"},{"bike_id":"4530ed75-080f-4210-a66b-f3cba387678d","system_id":"levelo_inurba_marseille","lat":43.280784,"lon":5.396622,"is_reserved":false,"is_disabled":false,"rental_uris":{"android":"levelo://app?vid=4530ed75-080f-4210-a66b-f3cba387678d","ios":"levelo://app?vid=4530ed75-080f-4210-a66b-f3cba387678d"},"vehicle_type_id":"4","last_reported":1685902074,"current_range_meters":400,"station_id":"ce4bho12rcd13ifvqh2g","pricing_plan_id":"free"},{"bike_id":"487f7800-7051-4a56-89c8-e5e16e3785a7","system_id":"levelo_inurba_marseille","lat":43.30355,"lon":5.41882,"is_reserved":false,"is_disabled":false,"rental_uris":{"android":"levelo://app?vid=487f7800-7051-4a56-89c8-e5e16e3785a7","ios":"levelo://app?vid=487f7800-7051-4a56-89c8-e5e16e3785a7"},"vehicle_type_id":"4","last_reported":1685902074,"current_range_meters":24000,"station_id":"","pricing_plan_id":"free"},{"bike_id":"24821f1d-ba7a-4ed5-b81d-85bfd0c73c4e","system_id":"levelo_inurba_marseille","lat":43.278401,"lon":5.392152,"is_reserved":false,"is_disabled":false,"rental_uris":{"android":"levelo://app?vid=24821f1d-ba7a-4ed5-b81d-85bfd0c73c4e","ios":"levelo://app?vid=24821f1d-ba7a-4ed5-b81d-85bfd0c73c4e"},"vehicle_type_id":"4","last_reported":1685902074,"current_range_meters":0,"station_id":"ce4bhjp2rcd13ifvqga0","pricing_plan_id":"free"},{"bike_id":"ac5c4eb6-4a88-41a2-8d7e-c5704e7b7d38","system_id":"levelo_inurba_marseille","lat":43.273613,"lon":5.362705,"is_reserved":false,"is_disabled":false,"rental_uris":{"android":"levelo://app?vid=ac5c4eb6-4a88-41a2-8d7e-c5704e7b7d38","ios":"levelo://app?vid=ac5c4eb6-4a88-41a2-8d7e-c5704e7b7d38"},"vehicle_type_id":"4","last_reported":1685902074,"current_range_meters":18400,"station_id":"ce4bhbh2rcd13ifvqeo0","pricing_plan_id":"free"},{"bike_id":"a0ce69b6-2a99-41d3-9b06-0c60601ba64d","system_id":"levelo_inurba_marseille","lat":43.33612,"lon":5.410321,"is_reserved":false,"is_disabled":false,"rental_uris":{"android":"levelo://app?vid=a0ce69b6-2a99-41d3-9b06-0c60601ba64d","ios":"levelo://app?vid=a0ce69b6-2a99-41d3-9b06-0c60601ba64d"},"vehicle_type_id":"4","last_reported":1685902074,"current_range_meters":20400,"station_id":"ce4bhqh2rcd13ifvqhmg","pricing_plan_id":"free"},{"bike_id":"1e31b915-8e8a-4e54-b8ca-ebb05e21c605","system_id":"levelo_inurba_marseille","lat":43.33612,"lon":5.410321,"is_reserved":false,"is_disabled":false,"rental_uris":{"android":"levelo://app?vid=1e31b915-8e8a-4e54-b8ca-ebb05e21c605","ios":"levelo://app?vid=1e31b915-8e8a-4e54-b8ca-ebb05e21c605"},"vehicle_type_id":"4","last_reported":1685902074,"current_range_meters":29600,"station_id":"ce4bhqh2rcd13ifvqhmg","pricing_plan_id":"free"},{"bike_id":"4c1181ed-ab27-4a52-bc6a-0abba062fb72","system_id":"levelo_inurba_marseille","lat":43.336134,"lon":5.410341,"is_reserved":false,"is_disabled":false,"rental_uris":{"android":"levelo://app?vid=4c1181ed-ab27-4a52-bc6a-0abba062fb72","ios":"levelo://app?vid=4c1181ed-ab27-4a52-bc6a-0abba062fb72"},"vehicle_type_id":"4","last_reported":1685902074,"current_range_meters":28000,"station_id":"ce4bhqh2rcd13ifvqhmg","pricing_plan_id":"free"},{"bike_id":"a247455c-0c98-49b1-ac71-b4521489bdba","system_id":"levelo_inurba_marseille","lat":43.336134,"lon":5.410341,"is_reserved":false,"is_disabled":false,"rental_uris":{"android":"levelo://app?vid=a247455c-0c98-49b1-ac71-b4521489bdba","ios":"levelo://app?vid=a247455c-0c98-49b1-ac71-b4521489bdba"},"vehicle_type_id":"4","last_reported":1685902074,"current_range_meters":14000,"station_id":"ce4bhqh2rcd13ifvqhmg","pricing_plan_id":"free"},{"bike_id":"d468aecf-0ebc-4bca-857e-c7c7eac1f876","system_id":"levelo_inurba_marseille","lat":43.275243,"lon":5.384237,"is_reserved":false,"is_disabled":false,"rental_uris":{"android":"levelo://app?vid=d468aecf-0ebc-4bca-857e-c7c7eac1f876","ios":"levelo://app?vid=d468aecf-0ebc-4bca-857e-c7c7eac1f876"},"vehicle_type_id":"4","last_reported":1685902074,"current_range_meters":0,"station_id":"","pricing_plan_id":"free"},{"bike_id":"ab6d6429-fa78-47e2-adf7-46b46f942428","system_id":"levelo_inurba_marseille","lat":43.317121,"lon":5.423936,"is_reserved":false,"is_disabled":false,"rental_uris":{"android":"levelo://app?vid=ab6d6429-fa78-47e2-adf7-46b46f942428","ios":"levelo://app?vid=ab6d6429-fa78-47e2-adf7-46b46f942428"},"vehicle_type_id":"4","last_reported":1685902074,"current_range_meters":30000,"station_id":"ce4bhp92rcd13ifvqhbg","pricing_plan_id":"free"},{"bike_id":"ca64bed7-0455-4a75-9384-6f4bb75fe4ac","system_id":"levelo_inurba_marseille","lat":43.3108,"lon":5.42433,"is_reserved":false,"is_disabled":false,"rental_uris":{"android":"levelo://app?vid=ca64bed7-0455-4a75-9384-6f4bb75fe4ac","ios":"levelo://app?vid=ca64bed7-0455-4a75-9384-6f4bb75fe4ac"},"vehicle_type_id":"4","last_reported":1685902074,"current_range_meters":19600,"station_id":"ce4bhp92rcd13ifvqhag","pricing_plan_id":"free"},{"bike_id":"9db9545d-f63d-42be-a674-9c25625f916b","system_id":"levelo_inurba_marseille","lat":43.29404,"lon":5.41932,"is_reserved":false,"is_disabled":false,"rental_uris":{"android":"levelo://app?vid=9db9545d-f63d-42be-a674-9c25625f916b","ios":"levelo://app?vid=9db9545d-f63d-42be-a674-9c25625f916b"},"vehicle_type_id":"4","last_reported":1685902074,"current_range_meters":6800,"station_id":"","pricing_plan_id":"free"},{"bike_id":"4ebe9f1e-062b-427d-b174-8c735575b493","system_id":"levelo_inurba_marseille","lat":43.273125,"lon":5.390731,"is_reserved":false,"is_disabled":false,"rental_uris":{"android":"levelo://app?vid=4ebe9f1e-062b-427d-b174-8c735575b493","ios":"levelo://app?vid=4ebe9f1e-062b-427d-b174-8c735575b493"},"vehicle_type_id":"4","last_reported":1685902074,"current_range_meters":13200,"station_id":"ce4bhgp2rcd13ifvqfe0","pricing_plan_id":"free"},{"bike_id":"ef6e3493-9638-4d09-b9fb-f029752658c0","system_id":"levelo_inurba_marseille","lat":43.27424,"lon":5.39401,"is_reserved":false,"is_disabled":false,"rental_uris":{"android":"levelo://app?vid=ef6e3493-9638-4d09-b9fb-f029752658c0","ios":"levelo://app?vid=ef6e3493-9638-4d09-b9fb-f029752658c0"},"vehicle_type_id":"4","last_reported":1685902074,"current_range_meters":8400,"station_id":"","pricing_plan_id":"free"},{"bike_id":"35b534d2-ee4d-478a-a63f-92d340ee8022","system_id":"levelo_inurba_marseille","lat":43.27418,"lon":5.39411,"is_reserved":false,"is_disabled":false,"rental_uris":{"android":"levelo://app?vid=35b534d2-ee4d-478a-a63f-92d340ee8022","ios":"levelo://app?vid=35b534d2-ee4d-478a-a63f-92d340ee8022"},"vehicle_type_id":"4","last_reported":1685902074,"current_range_meters":14000,"station_id":"","pricing_plan_id":"free"},{"bike_id":"4d80717c-1ab1-4ff1-8e16-4b8981f90281","system_id":"levelo_inurba_marseille","lat":43.32713,"lon":5.4235,"is_reserved":false,"is_disabled":false,"rental_uris":{"android":"levelo://app?vid=4d80717c-1ab1-4ff1-8e16-4b8981f90281","ios":"levelo://app?vid=4d80717c-1ab1-4ff1-8e16-4b8981f90281"},"vehicle_type_id":"4","last_reported":1685902074,"current_range_meters":25600,"station_id":"","pricing_plan_id":"free"},{"bike_id":"629ddbd0-7d9b-4dc0-a7eb-09e1d9540a47","system_id":"levelo_inurba_marseille","lat":43.2712,"lon":5.38735,"is_reserved":false,"is_disabled":false,"rental_uris":{"android":"levelo://app?vid=629ddbd0-7d9b-4dc0-a7eb-09e1d9540a47","ios":"levelo://app?vid=629ddbd0-7d9b-4dc0-a7eb-09e1d9540a47"},"vehicle_type_id":"4","last_reported":1685902074,"current_range_meters":19600,"station_id":"","pricing_plan_id":"free"},{"bike_id":"12e32508-d087-4fb5-b483-3b2a5b65861e","system_id":"levelo_inurba_marseille","lat":43.27116,"lon":5.38729,"is_reserved":false,"is_disabled":false,"rental_uris":{"android":"levelo://app?vid=12e32508-d087-4fb5-b483-3b2a5b65861e","ios":"levelo://app?vid=12e32508-d087-4fb5-b483-3b2a5b65861e"},"vehicle_type_id":"4","last_reported":1685902074,"current_range_meters":28800,"station_id":"","pricing_plan_id":"free"},{"bike_id":"2eafccb8-077c-497e-a302-a75a1d03ef07","system_id":"levelo_inurba_marseille","lat":43.295523,"lon":5.422926,"is_reserved":false,"is_disabled":false,"rental_uris":{"android":"levelo://app?vid=2eafccb8-077c-497e-a302-a75a1d03ef07","ios":"levelo://app?vid=2eafccb8-077c-497e-a302-a75a1d03ef07"},"vehicle_type_id":"4","last_reported":1685902074,"current_range_meters":14400,"station_id":"ce4bhph2rcd13ifvqhdg","pricing_plan_id":"free"},{"bike_id":"2748427f-3487-4ba6-88ab-456bc43e8c77","system_id":"levelo_inurba_marseille","lat":43.27215,"lon":5.39181,"is_reserved":false,"is_disabled":false,"rental_uris":{"android":"levelo://app?vid=2748427f-3487-4ba6-88ab-456bc43e8c77","ios":"levelo://app?vid=2748427f-3487-4ba6-88ab-456bc43e8c77"},"vehicle_type_id":"4","last_reported":1685902074,"current_range_meters":19600,"station_id":"ce4bhhp2rcd13ifvqfm0","pricing_plan_id":"free"},{"bike_id":"7003f1f1-7e7d-4c88-bbde-bd54a2779e7c","system_id":"levelo_inurba_marseille","lat":43.27209,"lon":5.39178,"is_reserved":false,"is_disabled":false,"rental_uris":{"android":"levelo://app?vid=7003f1f1-7e7d-4c88-bbde-bd54a2779e7c","ios":"levelo://app?vid=7003f1f1-7e7d-4c88-bbde-bd54a2779e7c"},"vehicle_type_id":"4","last_reported":1685902074,"current_range_meters":18400,"station_id":"ce4bhhp2rcd13ifvqfm0","pricing_plan_id":"free"},{"bike_id":"dd064fbb-e3e1-4c1d-a7cd-bee0ca85d2af","system_id":"levelo_inurba_marseille","lat":43.272118,"lon":5.391758,"is_reserved":false,"is_disabled":false,"rental_uris":{"android":"levelo://app?vid=dd064fbb-e3e1-4c1d-a7cd-bee0ca85d2af","ios":"levelo://app?vid=dd064fbb-e3e1-4c1d-a7cd-bee0ca85d2af"},"vehicle_type_id":"4","last_reported":1685902074,"current_range_meters":2000,"station_id":"ce4bhhp2rcd13ifvqfm0","pricing_plan_id":"free"},{"bike_id":"fae2e08b-a8f8-44b6-b4a5-00c0b7dd4166","system_id":"levelo_inurba_marseille","lat":43.278128,"lon":5.407195,"is_reserved":false,"is_disabled":false,"rental_uris":{"android":"levelo://app?vid=fae2e08b-a8f8-44b6-b4a5-00c0b7dd4166","ios":"levelo://app?vid=fae2e08b-a8f8-44b6-b4a5-00c0b7dd4166"},"vehicle_type_id":"4","last_reported":1685902074,"current_range_meters":2800,"station_id":"ce4bhnh2rcd13ifvqgtg","pricing_plan_id":"free"},{"bike_id":"0caea5cc-516f-4ae6-a621-3a3e6cd5dd30","system_id":"levelo_inurba_marseille","lat":43.269467,"lon":5.386439,"is_reserved":false,"is_disabled":false,"rental_uris":{"android":"levelo://app?vid=0caea5cc-516f-4ae6-a621-3a3e6cd5dd30","ios":"levelo://app?vid=0caea5cc-516f-4ae6-a621-3a3e6cd5dd30"},"vehicle_type_id":"4","last_reported":1685902074,"current_range_meters":9600,"station_id":"ce4bhh92rcd13ifvqfh0","pricing_plan_id":"free"},{"bike_id":"ce10890b-be6c-4fc3-9db0-6afbde69d892","system_id":"levelo_inurba_marseille","lat":43.278128,"lon":5.407195,"is_reserved":false,"is_disabled":false,"rental_uris":{"android":"levelo://app?vid=ce10890b-be6c-4fc3-9db0-6afbde69d892","ios":"levelo://app?vid=ce10890b-be6c-4fc3-9db0-6afbde69d892"},"vehicle_type_id":"4","last_reported":1685902074,"current_range_meters":2800,"station_id":"ce4bhnh2rcd13ifvqgtg","pricing_plan_id":"free"},{"bike_id":"236ecc8f-313c-47df-a503-2aecdae1f0b7","system_id":"levelo_inurba_marseille","lat":43.269467,"lon":5.386439,"is_reserved":false,"is_disabled":false,"rental_uris":{"android":"levelo://app?vid=236ecc8f-313c-47df-a503-2aecdae1f0b7","ios":"levelo://app?vid=236ecc8f-313c-47df-a503-2aecdae1f0b7"},"vehicle_type_id":"4","last_reported":1685902074,"current_range_meters":2800,"station_id":"ce4bhh92rcd13ifvqfh0","pricing_plan_id":"free"},{"bike_id":"d575bf42-fc5d-4033-8521-8521072afc91","system_id":"levelo_inurba_marseille","lat":43.269467,"lon":5.386439,"is_reserved":false,"is_disabled":false,"rental_uris":{"android":"levelo://app?vid=d575bf42-fc5d-4033-8521-8521072afc91","ios":"levelo://app?vid=d575bf42-fc5d-4033-8521-8521072afc91"},"vehicle_type_id":"4","last_reported":1685902074,"current_range_meters":13600,"station_id":"ce4bhh92rcd13ifvqfh0","pricing_plan_id":"free"},{"bike_id":"f1da93e0-03d2-48e7-88ab-529255bfc5e1","system_id":"levelo_inurba_marseille","lat":43.269319,"lon":5.389397,"is_reserved":false,"is_disabled":false,"rental_uris":{"android":"levelo://app?vid=f1da93e0-03d2-48e7-88ab-529255bfc5e1","ios":"levelo://app?vid=f1da93e0-03d2-48e7-88ab-529255bfc5e1"},"vehicle_type_id":"4","last_reported":1685902074,"current_range_meters":27600,"station_id":"ce4bhhh2rcd13ifvqfl0","pricing_plan_id":"free"},{"bike_id":"539b6c49-e8d5-4bd4-a92b-4935127bd849","system_id":"levelo_inurba_marseille","lat":43.26681,"lon":5.382694,"is_reserved":false,"is_disabled":false,"rental_uris":{"android":"levelo://app?vid=539b6c49-e8d5-4bd4-a92b-4935127bd849","ios":"levelo://app?vid=539b6c49-e8d5-4bd4-a92b-4935127bd849"},"vehicle_type_id":"4","last_reported":1685902074,"current_range_meters":10000,"station_id":"ce4bhg92rcd13ifvqf90","pricing_plan_id":"free"},{"bike_id":"6297b0f7-b1e2-40ad-811b-3367ac7c6794","system_id":"levelo_inurba_marseille","lat":43.26681,"lon":5.382694,"is_reserved":false,"is_disabled":false,"rental_uris":{"android":"levelo://app?vid=6297b0f7-b1e2-40ad-811b-3367ac7c6794","ios":"levelo://app?vid=6297b0f7-b1e2-40ad-811b-3367ac7c6794"},"vehicle_type_id":"4","last_reported":1685902074,"current_range_meters":6000,"station_id":"ce4bhg92rcd13ifvqf90","pricing_plan_id":"free"},{"bike_id":"b750c1d2-e7fa-4d2a-abd5-a21b59a6f8b6","system_id":"levelo_inurba_marseille","lat":43.265714,"lon":5.372891,"is_reserved":false,"is_disabled":false,"rental_uris":{"android":"levelo://app?vid=b750c1d2-e7fa-4d2a-abd5-a21b59a6f8b6","ios":"levelo://app?vid=b750c1d2-e7fa-4d2a-abd5-a21b59a6f8b6"},"vehicle_type_id":"4","last_reported":1685902074,"current_range_meters":6400,"station_id":"ce4bhg12rcd13ifvqf70","pricing_plan_id":"free"},{"bike_id":"477c9b24-a1bd-4af2-9e3a-7a10b9af13d1","system_id":"levelo_inurba_marseille","lat":43.31704,"lon":5.43325,"is_reserved":false,"is_disabled":false,"rental_uris":{"android":"levelo://app?vid=477c9b24-a1bd-4af2-9e3a-7a10b9af13d1","ios":"levelo://app?vid=477c9b24-a1bd-4af2-9e3a-7a10b9af13d1"},"vehicle_type_id":"4","last_reported":1685902074,"current_range_meters":0,"station_id":"","pricing_plan_id":"free"},{"bike_id":"57143554-6bd2-4ac3-a9a3-581bc0ed1a91","system_id":"levelo_inurba_marseille","lat":43.27996,"lon":5.416624,"is_reserved":false,"is_disabled":false,"rental_uris":{"android":"levelo://app?vid=57143554-6bd2-4ac3-a9a3-581bc0ed1a91","ios":"levelo://app?vid=57143554-6bd2-4ac3-a9a3-581bc0ed1a91"},"vehicle_type_id":"4","last_reported":1685902074,"current_range_meters":25600,"station_id":"ce4bho12rcd13ifvqh1g","pricing_plan_id":"free"},{"bike_id":"49b21e3a-5ba5-44b4-a97e-addecb9cc27b","system_id":"levelo_inurba_marseille","lat":43.27995,"lon":5.41673,"is_reserved":false,"is_disabled":false,"rental_uris":{"android":"levelo://app?vid=49b21e3a-5ba5-44b4-a97e-addecb9cc27b","ios":"levelo://app?vid=49b21e3a-5ba5-44b4-a97e-addecb9cc27b"},"vehicle_type_id":"4","last_reported":1685902074,"current_range_meters":29600,"station_id":"ce4bho12rcd13ifvqh1g","pricing_plan_id":"free"},{"bike_id":"40e05c92-1e4d-4252-816e-fff9d0094978","system_id":"levelo_inurba_marseille","lat":43.265789,"lon":5.389963,"is_reserved":false,"is_disabled":false,"rental_uris":{"android":"levelo://app?vid=40e05c92-1e4d-4252-816e-fff9d0094978","ios":"levelo://app?vid=40e05c92-1e4d-4252-816e-fff9d0094978"},"vehicle_type_id":"4","last_reported":1685902074,"current_range_meters":28400,"station_id":"","pricing_plan_id":"free"},{"bike_id":"f5236276-e859-4218-87e7-aabdce2e73d3","system_id":"levelo_inurba_marseille","lat":43.26209,"lon":5.37046,"is_reserved":false,"is_disabled":false,"rental_uris":{"android":"levelo://app?vid=f5236276-e859-4218-87e7-aabdce2e73d3","ios":"levelo://app?vid=f5236276-e859-4218-87e7-aabdce2e73d3"},"vehicle_type_id":"4","last_reported":1685902074,"current_range_meters":9200,"station_id":"","pricing_plan_id":"free"},{"bike_id":"e39de9ac-c497-442f-8895-78c2bb89ba13","system_id":"levelo_inurba_marseille","lat":43.261782,"lon":5.374515,"is_reserved":false,"is_disabled":false,"rental_uris":{"android":"levelo://app?vid=e39de9ac-c497-442f-8895-78c2bb89ba13","ios":"levelo://app?vid=e39de9ac-c497-442f-8895-78c2bb89ba13"},"vehicle_type_id":"4","last_reported":1685902074,"current_range_meters":16400,"station_id":"ce4bhgp2rcd13ifvqfc0","pricing_plan_id":"free"},{"bike_id":"07ff2a8e-1ffc-4a7c-90e2-01fe3a3e9112","system_id":"levelo_inurba_marseille","lat":43.261782,"lon":5.374515,"is_reserved":false,"is_disabled":false,"rental_uris":{"android":"levelo://app?vid=07ff2a8e-1ffc-4a7c-90e2-01fe3a3e9112","ios":"levelo://app?vid=07ff2a8e-1ffc-4a7c-90e2-01fe3a3e9112"},"vehicle_type_id":"4","last_reported":1685902074,"current_range_meters":2800,"station_id":"ce4bhgp2rcd13ifvqfc0","pricing_plan_id":"free"},{"bike_id":"2a48043e-0223-418b-bf9b-d91374083f1f","system_id":"levelo_inurba_marseille","lat":43.317104,"lon":5.436818,"is_reserved":false,"is_disabled":false,"rental_uris":{"android":"levelo://app?vid=2a48043e-0223-418b-bf9b-d91374083f1f","ios":"levelo://app?vid=2a48043e-0223-418b-bf9b-d91374083f1f"},"vehicle_type_id":"4","last_reported":1685902074,"current_range_meters":24400,"station_id":"ce4bhp92rcd13ifvqhcg","pricing_plan_id":"free"},